{"last_updated":1741338586,"ttl":60,"version":"2.2","data":{"bikes":[{"bike_id":"c6efdfee-4842-42b0-a53a-6965d2d6795d","system_id":"levelo_inurba_marseille","lat":43.26479,"lon":5.39566,"is_reserved":false,"is_disabled":false,"rental_uris":{"android":"levelo://app?vid=c6efdfee-4842-42b0-a53a-6965d2d6795d","ios":"levelo://app?vid=c6efdfee-4842-42b0-a53a-6965d2d6795d"},"vehicle_type_id":"4","last_reported":1741338587,"current_range_meters":2800,"station_id":"ce4bhi12rcd13ifvqfq0","pricing_plan_id":"cebpf4jnsgd1na2vs0mg"},{"bike_id":"9434d544-abec-4d0c-88ef-cde33f8025f5","system_id":"levelo_inurba_marseille","lat":43.2958,"lon":5.36744,"is_reserved":false,"is_disabled":false,"rental_uris":{"android":"levelo://app?vid=9434d544-abec-4d0c-88ef-cde33f8025f5","ios":"levelo://app?vid=9434d544-abec-4d0c-88ef-cde33f8025f5"},"vehicle_type_id":"4","last_reported":1741338587,"current_range_meters":2800,"station_id":"ce4bgph2rcd13ifvqc2g","pricing_plan_id":"cebpf4jnsgd1na2vs0mg"},{"bike_id":"604baac5-83b7-465a-a47d-088d34b42ff7","system_id":"levelo_inurba_marseille","lat":43.31228,"lon":5.3686,"is_reserved":false,"is_disabled":false,"rental_uris":{"android":"levelo://app?vid=604baac5-83b7-465a-a47d-088d34b42ff7","ios":"levelo://app?vid=604baac5-83b7-465a-a47d-088d34b42ff7"},"vehicle_type_id":"4","last_reported":1741338587,"current_range_meters":2800,"station_id":"ce4bgl92rcd13ifvqbq0","pricing_plan_id":"cebpf4jnsgd1na2vs0mg"},{"bike_id":"551c8634-9a86-450e-b2c3-192bed541b78","system_id":"levelo_inurba_marseille","lat":43.24081,"lon":5.37756,"is_reserved":false,"is_disabled":false,"rental_uris":{"android":"levelo://app?vid=551c8634-9a86-450e-b2c3-192bed541b78","ios":"levelo://app?vid=551c8634-9a86-450e-b2c3-192bed541b78"},"vehicle_type_id":"4","last_reported":1741338587,"current_range_meters":2800,"station_id":"ce4bhnp2rcd13ifvqgvg","pricing_plan_id":"cebpf4jnsgd1na2vs0mg"},{"bike_id":"448619da-2cdd-4814-8b65-e028de6de610","system_id":"levelo_inurba_marseille","lat":43.294751,"lon":5.383006,"is_reserved":false,"is_disabled":false,"rental_uris":{"android":"levelo://app?vid=448619da-2cdd-4814-8b65-e028de6de610","ios":"levelo://app?vid=448619da-2cdd-4814-8b65-e028de6de610"},"vehicle_type_id":"4","last_reported":1741338587,"current_range_meters":2800,"station_id":"ce4bh692rcd13ifvqea0","pricing_plan_id":"cebpf4jnsgd1na2vs0mg"},{"bike_id":"4ad77701-c3cd-47af-ba36-e84cd17aa313","system_id":"levelo_inurba_marseille","lat":43.26788,"lon":5.39415,"is_reserved":false,"is_disabled":false,"rental_uris":{"android":"levelo://app?vid=4ad77701-c3cd-47af-ba36-e84cd17aa313","ios":"levelo://app?vid=4ad77701-c3cd-47af-ba36-e84cd17aa313"},"vehicle_type_id":"4","last_reported":1741338587,"current_range_meters":3200,"station_id":"ce4bhh12rcd13ifvqfg0","pricing_plan_id":"cebpf4jnsgd1na2vs0mg"},{"bike_id":"9a8644a1-bedb-4903-8051-8ff7c44f9c55","system_id":"levelo_inurba_marseille","lat":43.27376,"lon":5.36257,"is_reserved":false,"is_disabled":false,"rental_uris":{"android":"levelo://app?vid=9a8644a1-bedb-4903-8051-8ff7c44f9c55","ios":"levelo://app?vid=9a8644a1-bedb-4903-8051-8ff7c44f9c55"},"vehicle_type_id":"4","last_reported":1741338587,"current_range_meters":3200,"station_id":"ce4bhbh2rcd13ifvqeo0","pricing_plan_id":"cebpf4jnsgd1na2vs0mg"},{"bike_id":"09ce9210-4d35-4310-98fa-4de1c26e3db4","system_id":"levelo_inurba_marseille","lat":43.28837,"lon":5.40038,"is_reserved":false,"is_disabled":true,"rental_uris":{"android":"levelo://app?vid=09ce9210-4d35-4310-98fa-4de1c26e3db4","ios":"levelo://app?vid=09ce9210-4d35-4310-98fa-4de1c26e3db4"},"vehicle_type_id":"4","last_reported":1741338587,"current_range_meters":3600,"station_id":"","pricing_plan_id":"cebpf4jnsgd1na2vs0mg"},{"bike_id":"03c3dc7c-8ee4-444d-b4cb-ba42a05873bd","system_id":"levelo_inurba_marseille","lat":43.22918,"lon":5.35401,"is_reserved":false,"is_disabled":false,"rental_uris":{"android":"levelo://app?vid=03c3dc7c-8ee4-444d-b4cb-ba42a05873bd","ios":"levelo://app?vid=03c3dc7c-8ee4-444d-b4cb-ba42a05873bd"},"vehicle_type_id":"4","last_reported":1741338587,"current_range_meters":3600,"station_id":"cpo3532slgdg3j2ikp40","pricing_plan_id":"cebpf4jnsgd1na2vs0mg"},{"bike_id":"26e1fd6a-090d-4770-9b32-d42e8e30ad77","system_id":"levelo_inurba_marseille","lat":43.24074,"lon":5.37754,"is_reserved":false,"is_disabled":false,"rental_uris":{"android":"levelo://app?vid=26e1fd6a-090d-4770-9b32-d42e8e30ad77","ios":"levelo://app?vid=26e1fd6a-090d-4770-9b32-d42e8e30ad77"},"vehicle_type_id":"4","last_reported":1741338587,"current_range_meters":3600,"station_id":"ce4bhnp2rcd13ifvqgvg","pricing_plan_id":"cebpf4jnsgd1na2vs0mg"},{"bike_id":"3fffc9cd-f418-41de-9fba-0cc23722d684","system_id":"levelo_inurba_marseille","lat":43.23067,"lon":5.3549,"is_reserved":false,"is_disabled":false,"rental_uris":{"android":"levelo://app?vid=3fffc9cd-f418-41de-9fba-0cc23722d684","ios":"levelo://app?vid=3fffc9cd-f418-41de-9fba-0cc23722d684"},"vehicle_type_id":"4","last_reported":1741338587,"current_range_meters":3600,"station_id":"cpo3342slgdg3j2ifvpg","pricing_plan_id":"cebpf4jnsgd1na2vs0mg"},{"bike_id":"fadc5597-2f44-411e-bbc9-b698e9edf980","system_id":"levelo_inurba_marseille","lat":43.2794,"lon":5.410438,"is_reserved":false,"is_disabled":false,"rental_uris":{"android":"levelo://app?vid=fadc5597-2f44-411e-bbc9-b698e9edf980","ios":"levelo://app?vid=fadc5597-2f44-411e-bbc9-b698e9edf980"},"vehicle_type_id":"4","last_reported":1741338587,"current_range_meters":3600,"station_id":"ce4bhnp2rcd13ifvqh0g","pricing_plan_id":"cebpf4jnsgd1na2vs0mg"},{"bike_id":"c179349a-beb9-46c7-abab-5b2052933213","system_id":"levelo_inurba_marseille","lat":43.28076,"lon":5.39656,"is_reserved":false,"is_disabled":false,"rental_uris":{"android":"levelo://app?vid=c179349a-beb9-46c7-abab-5b2052933213","ios":"levelo://app?vid=c179349a-beb9-46c7-abab-5b2052933213"},"vehicle_type_id":"4","last_reported":1741338587,"current_range_meters":4000,"station_id":"ce4bho12rcd13ifvqh2g","pricing_plan_id":"cebpf4jnsgd1na2vs0mg"},{"bike_id":"fc0a133b-0e54-4db6-b441-fb7e3659637a","system_id":"levelo_inurba_marseille","lat":43.27367,"lon":5.36264,"is_reserved":false,"is_disabled":false,"rental_uris":{"android":"levelo://app?vid=fc0a133b-0e54-4db6-b441-fb7e3659637a","ios":"levelo://app?vid=fc0a133b-0e54-4db6-b441-fb7e3659637a"},"vehicle_type_id":"4","last_reported":1741338587,"current_range_meters":4000,"station_id":"ce4bhbh2rcd13ifvqeo0","pricing_plan_id":"cebpf4jnsgd1na2vs0mg"},{"bike_id":"5e2a7c49-ce3c-4fd6-8ee4-35572445cd82","system_id":"levelo_inurba_marseille","lat":43.2816,"lon":5.42644,"is_reserved":false,"is_disabled":false,"rental_uris":{"android":"levelo://app?vid=5e2a7c49-ce3c-4fd6-8ee4-35572445cd82","ios":"levelo://app?vid=5e2a7c49-ce3c-4fd6-8ee4-35572445cd82"},"vehicle_type_id":"4","last_reported":1741338587,"current_range_meters":4000,"station_id":"ce4bhnh2rcd13ifvqgug","pricing_plan_id":"cebpf4jnsgd1na2vs0mg"},{"bike_id":"de754493-593d-484d-850a-eaba979f3d3f","system_id":"levelo_inurba_marseille","lat":43.27912,"lon":5.4104,"is_reserved":false,"is_disabled":false,"rental_uris":{"android":"levelo://app?vid=de754493-593d-484d-850a-eaba979f3d3f","ios":"levelo://app?vid=de754493-593d-484d-850a-eaba979f3d3f"},"vehicle_type_id":"4","last_reported":1741338587,"current_range_meters":4400,"station_id":"ce4bhnp2rcd13ifvqh0g","pricing_plan_id":"cebpf4jnsgd1na2vs0mg"},{"bike_id":"f55154e8-38c1-4e06-8d2e-858c6534ec65","system_id":"levelo_inurba_marseille","lat":43.28857,"lon":5.35848,"is_reserved":false,"is_disabled":false,"rental_uris":{"android":"levelo://app?vid=f55154e8-38c1-4e06-8d2e-858c6534ec65","ios":"levelo://app?vid=f55154e8-38c1-4e06-8d2e-858c6534ec65"},"vehicle_type_id":"4","last_reported":1741338587,"current_range_meters":10000,"station_id":"ce4bhb12rcd13ifvqem0","pricing_plan_id":"cebpf4jnsgd1na2vs0mg"},{"bike_id":"9a00ffab-bdab-48bd-a85e-fa5bbb062de2","system_id":"levelo_inurba_marseille","lat":43.27571,"lon":5.384237,"is_reserved":false,"is_disabled":false,"rental_uris":{"android":"levelo://app?vid=9a00ffab-bdab-48bd-a85e-fa5bbb062de2","ios":"levelo://app?vid=9a00ffab-bdab-48bd-a85e-fa5bbb062de2"},"vehicle_type_id":"4","last_reported":1741338587,"current_range_meters":4400,"station_id":"ce4bhh92rcd13ifvqfi0","pricing_plan_id":"cebpf4jnsgd1na2vs0mg"},{"bike_id":"64e6d7c7-6964-4f42-9f4d-1ffd80e5e48d","system_id":"levelo_inurba_marseille","lat":43.24183,"lon":5.36424,"is_reserved":false,"is_disabled":false,"rental_uris":{"android":"levelo://app?vid=64e6d7c7-6964-4f42-9f4d-1ffd80e5e48d","ios":"levelo://app?vid=64e6d7c7-6964-4f42-9f4d-1ffd80e5e48d"},"vehicle_type_id":"4","last_reported":1741338587,"current_range_meters":4400,"station_id":"cpo36qri1sfpv3e86is0","pricing_plan_id":"cebpf4jnsgd1na2vs0mg"},{"bike_id":"84354f59-5ad1-40e0-8ba8-710d0279e540","system_id":"levelo_inurba_marseille","lat":43.25868,"lon":5.39898,"is_reserved":false,"is_disabled":false,"rental_uris":{"android":"levelo://app?vid=84354f59-5ad1-40e0-8ba8-710d0279e540","ios":"levelo://app?vid=84354f59-5ad1-40e0-8ba8-710d0279e540"},"vehicle_type_id":"4","last_reported":1741338587,"current_range_meters":4400,"station_id":"ce4bhl92rcd13ifvqghg","pricing_plan_id":"cebpf4jnsgd1na2vs0mg"},{"bike_id":"bf79e937-0cb1-4c33-a49a-c89ae47feddc","system_id":"levelo_inurba_marseille","lat":43.31366,"lon":5.3673,"is_reserved":false,"is_disabled":false,"rental_uris":{"android":"levelo://app?vid=bf79e937-0cb1-4c33-a49a-c89ae47feddc","ios":"levelo://app?vid=bf79e937-0cb1-4c33-a49a-c89ae47feddc"},"vehicle_type_id":"4","last_reported":1741338587,"current_range_meters":4800,"station_id":"ce4bgr92rcd13ifvqc6g","pricing_plan_id":"cebpf4jnsgd1na2vs0mg"},{"bike_id":"a412dc02-46aa-41b6-abfa-f7d774b98bba","system_id":"levelo_inurba_marseille","lat":43.29164,"lon":5.37164,"is_reserved":false,"is_disabled":false,"rental_uris":{"android":"levelo://app?vid=a412dc02-46aa-41b6-abfa-f7d774b98bba","ios":"levelo://app?vid=a412dc02-46aa-41b6-abfa-f7d774b98bba"},"vehicle_type_id":"4","last_reported":1741338587,"current_range_meters":4400,"station_id":"ce4bha92rcd13ifvqeh0","pricing_plan_id":"cebpf4jnsgd1na2vs0mg"},{"bike_id":"db9f87ba-98c8-4a92-b216-bafd4ee83945","system_id":"levelo_inurba_marseille","lat":43.30896,"lon":5.37197,"is_reserved":false,"is_disabled":false,"rental_uris":{"android":"levelo://app?vid=db9f87ba-98c8-4a92-b216-bafd4ee83945","ios":"levelo://app?vid=db9f87ba-98c8-4a92-b216-bafd4ee83945"},"vehicle_type_id":"4","last_reported":1741338587,"current_range_meters":4800,"station_id":"ce4bguh2rcd13ifvqckg","pricing_plan_id":"cebpf4jnsgd1na2vs0mg"},{"bike_id":"664b882c-c007-4be7-b55b-68191c3155e4","system_id":"levelo_inurba_marseille","lat":43.33601,"lon":5.41031,"is_reserved":false,"is_disabled":false,"rental_uris":{"android":"levelo://app?vid=664b882c-c007-4be7-b55b-68191c3155e4","ios":"levelo://app?vid=664b882c-c007-4be7-b55b-68191c3155e4"},"vehicle_type_id":"4","last_reported":1741338587,"current_range_meters":5600,"station_id":"ce4bhqh2rcd13ifvqhmg","pricing_plan_id":"cebpf4jnsgd1na2vs0mg"},{"bike_id":"fb310371-f352-49b8-bd49-287819a32f83","system_id":"levelo_inurba_marseille","lat":43.26192,"lon":5.37447,"is_reserved":false,"is_disabled":false,"rental_uris":{"android":"levelo://app?vid=fb310371-f352-49b8-bd49-287819a32f83","ios":"levelo://app?vid=fb310371-f352-49b8-bd49-287819a32f83"},"vehicle_type_id":"4","last_reported":1741338587,"current_range_meters":5600,"station_id":"ce4bhgp2rcd13ifvqfc0","pricing_plan_id":"cebpf4jnsgd1na2vs0mg"},{"bike_id":"c1461596-ac5b-4a5c-be58-0df3c74583c5","system_id":"levelo_inurba_marseille","lat":43.25089,"lon":5.39526,"is_reserved":false,"is_disabled":false,"rental_uris":{"android":"levelo://app?vid=c1461596-ac5b-4a5c-be58-0df3c74583c5","ios":"levelo://app?vid=c1461596-ac5b-4a5c-be58-0df3c74583c5"},"vehicle_type_id":"4","last_reported":1741338587,"current_range_meters":4800,"station_id":"ce4bhm12rcd13ifvqgkg","pricing_plan_id":"cebpf4jnsgd1na2vs0mg"},{"bike_id":"e0c0bec3-454a-410d-a60f-3aed516ec149","system_id":"levelo_inurba_marseille","lat":43.23227,"lon":5.35566,"is_reserved":false,"is_disabled":false,"rental_uris":{"android":"levelo://app?vid=e0c0bec3-454a-410d-a60f-3aed516ec149","ios":"levelo://app?vid=e0c0bec3-454a-410d-a60f-3aed516ec149"},"vehicle_type_id":"4","last_reported":1741338587,"current_range_meters":6000,"station_id":"ce4bhu92rcd13ifvqi70","pricing_plan_id":"cebpf4jnsgd1na2vs0mg"},{"bike_id":"1ccdde32-c832-4467-bba9-25866d61f3e5","system_id":"levelo_inurba_marseille","lat":43.24076,"lon":5.37758,"is_reserved":false,"is_disabled":false,"rental_uris":{"android":"levelo://app?vid=1ccdde32-c832-4467-bba9-25866d61f3e5","ios":"levelo://app?vid=1ccdde32-c832-4467-bba9-25866d61f3e5"},"vehicle_type_id":"4","last_reported":1741338587,"current_range_meters":6000,"station_id":"ce4bhnp2rcd13ifvqgvg","pricing_plan_id":"cebpf4jnsgd1na2vs0mg"},{"bike_id":"60ca2d11-e6af-45ee-8186-84d398205c2c","system_id":"levelo_inurba_marseille","lat":43.26671,"lon":5.38269,"is_reserved":false,"is_disabled":false,"rental_uris":{"android":"levelo://app?vid=60ca2d11-e6af-45ee-8186-84d398205c2c","ios":"levelo://app?vid=60ca2d11-e6af-45ee-8186-84d398205c2c"},"vehicle_type_id":"4","last_reported":1741338587,"current_range_meters":6000,"station_id":"ce4bhg92rcd13ifvqf90","pricing_plan_id":"cebpf4jnsgd1na2vs0mg"},{"bike_id":"7355c709-845e-4a42-acee-974b0b670876","system_id":"levelo_inurba_marseille","lat":43.26582,"lon":5.39006,"is_reserved":false,"is_disabled":false,"rental_uris":{"android":"levelo://app?vid=7355c709-845e-4a42-acee-974b0b670876","ios":"levelo://app?vid=7355c709-845e-4a42-acee-974b0b670876"},"vehicle_type_id":"4","last_reported":1741338587,"current_range_meters":6000,"station_id":"ce4bhe12rcd13ifvqf30","pricing_plan_id":"cebpf4jnsgd1na2vs0mg"},{"bike_id":"d2fd960f-0af3-4bf9-bd6a-b0c4aa4544af","system_id":"levelo_inurba_marseille","lat":43.2318,"lon":5.40006,"is_reserved":false,"is_disabled":false,"rental_uris":{"android":"levelo://app?vid=d2fd960f-0af3-4bf9-bd6a-b0c4aa4544af","ios":"levelo://app?vid=d2fd960f-0af3-4bf9-bd6a-b0c4aa4544af"},"vehicle_type_id":"4","last_reported":1741338587,"current_range_meters":6000,"station_id":"ce4bhn12rcd13ifvqgqg","pricing_plan_id":"cebpf4jnsgd1na2vs0mg"},{"bike_id":"b72e12e5-941c-485b-a483-3533e76c55ab","system_id":"levelo_inurba_marseille","lat":43.24987,"lon":5.389427,"is_reserved":false,"is_disabled":false,"rental_uris":{"android":"levelo://app?vid=b72e12e5-941c-485b-a483-3533e76c55ab","ios":"levelo://app?vid=b72e12e5-941c-485b-a483-3533e76c55ab"},"vehicle_type_id":"4","last_reported":1741338587,"current_range_meters":6000,"station_id":"ce4bhgp2rcd13ifvqfd0","pricing_plan_id":"cebpf4jnsgd1na2vs0mg"},{"bike_id":"31d0d2ca-5a69-4103-af3c-17b79e351a8a","system_id":"levelo_inurba_marseille","lat":43.26563,"lon":5.39011,"is_reserved":false,"is_disabled":false,"rental_uris":{"android":"levelo://app?vid=31d0d2ca-5a69-4103-af3c-17b79e351a8a","ios":"levelo://app?vid=31d0d2ca-5a69-4103-af3c-17b79e351a8a"},"vehicle_type_id":"4","last_reported":1741338587,"current_range_meters":6000,"station_id":"ce4bhe12rcd13ifvqf30","pricing_plan_id":"cebpf4jnsgd1na2vs0mg"},{"bike_id":"bf342717-63c0-499a-a753-35e922ba7de5","system_id":"levelo_inurba_marseille","lat":43.250049,"lon":5.389361,"is_reserved":false,"is_disabled":false,"rental_uris":{"android":"levelo://app?vid=bf342717-63c0-499a-a753-35e922ba7de5","ios":"levelo://app?vid=bf342717-63c0-499a-a753-35e922ba7de5"},"vehicle_type_id":"4","last_reported":1741338587,"current_range_meters":6000,"station_id":"ce4bhgp2rcd13ifvqfd0","pricing_plan_id":"cebpf4jnsgd1na2vs0mg"},{"bike_id":"de10dad3-cc48-400a-922c-cca5bf1a3a20","system_id":"levelo_inurba_marseille","lat":43.29938,"lon":5.38831,"is_reserved":false,"is_disabled":true,"rental_uris":{"android":"levelo://app?vid=de10dad3-cc48-400a-922c-cca5bf1a3a20","ios":"levelo://app?vid=de10dad3-cc48-400a-922c-cca5bf1a3a20"},"vehicle_type_id":"4","last_reported":1741338587,"current_range_meters":6400,"station_id":"","pricing_plan_id":"cebpf4jnsgd1na2vs0mg"},{"bike_id":"044aa49b-bcc3-4343-b015-3bc03e45f5d9","system_id":"levelo_inurba_marseille","lat":43.29789,"lon":5.38107,"is_reserved":false,"is_disabled":false,"rental_uris":{"android":"levelo://app?vid=044aa49b-bcc3-4343-b015-3bc03e45f5d9","ios":"levelo://app?vid=044aa49b-bcc3-4343-b015-3bc03e45f5d9"},"vehicle_type_id":"4","last_reported":1741338587,"current_range_meters":6400,"station_id":"ce4bgip2rcd13ifvqbb0","pricing_plan_id":"cebpf4jnsgd1na2vs0mg"},{"bike_id":"d572b633-d5af-4df0-87b8-0a5b1819b02b","system_id":"levelo_inurba_marseille","lat":43.24166,"lon":5.39738,"is_reserved":false,"is_disabled":false,"rental_uris":{"android":"levelo://app?vid=d572b633-d5af-4df0-87b8-0a5b1819b02b","ios":"levelo://app?vid=d572b633-d5af-4df0-87b8-0a5b1819b02b"},"vehicle_type_id":"4","last_reported":1741338587,"current_range_meters":6400,"station_id":"ce4bhn12rcd13ifvqgpg","pricing_plan_id":"cebpf4jnsgd1na2vs0mg"},{"bike_id":"2619de62-9b19-4b41-ba90-49f68c3ea1b4","system_id":"levelo_inurba_marseille","lat":43.29785,"lon":5.38104,"is_reserved":false,"is_disabled":false,"rental_uris":{"android":"levelo://app?vid=2619de62-9b19-4b41-ba90-49f68c3ea1b4","ios":"levelo://app?vid=2619de62-9b19-4b41-ba90-49f68c3ea1b4"},"vehicle_type_id":"4","last_reported":1741338587,"current_range_meters":6400,"station_id":"ce4bgip2rcd13ifvqbb0","pricing_plan_id":"cebpf4jnsgd1na2vs0mg"},{"bike_id":"fe0659af-9cec-4dc5-81cd-fa11d1ae4511","system_id":"levelo_inurba_marseille","lat":43.26689,"lon":5.38285,"is_reserved":false,"is_disabled":false,"rental_uris":{"android":"levelo://app?vid=fe0659af-9cec-4dc5-81cd-fa11d1ae4511","ios":"levelo://app?vid=fe0659af-9cec-4dc5-81cd-fa11d1ae4511"},"vehicle_type_id":"4","last_reported":1741338587,"current_range_meters":6400,"station_id":"ce4bhg92rcd13ifvqf90","pricing_plan_id":"cebpf4jnsgd1na2vs0mg"},{"bike_id":"ede9f041-493a-4cf7-8e2d-af0d388f1238","system_id":"levelo_inurba_marseille","lat":43.29536,"lon":5.38547,"is_reserved":false,"is_disabled":false,"rental_uris":{"android":"levelo://app?vid=ede9f041-493a-4cf7-8e2d-af0d388f1238","ios":"levelo://app?vid=ede9f041-493a-4cf7-8e2d-af0d388f1238"},"vehicle_type_id":"4","last_reported":1741338587,"current_range_meters":6000,"station_id":"ce4bgih2rcd13ifvqba0","pricing_plan_id":"cebpf4jnsgd1na2vs0mg"},{"bike_id":"9bfe4e82-241b-4620-b471-d226beb88b23","system_id":"levelo_inurba_marseille","lat":43.22901,"lon":5.35395,"is_reserved":false,"is_disabled":false,"rental_uris":{"android":"levelo://app?vid=9bfe4e82-241b-4620-b471-d226beb88b23","ios":"levelo://app?vid=9bfe4e82-241b-4620-b471-d226beb88b23"},"vehicle_type_id":"4","last_reported":1741338587,"current_range_meters":6400,"station_id":"cpo3532slgdg3j2ikp40","pricing_plan_id":"cebpf4jnsgd1na2vs0mg"},{"bike_id":"2860da57-3e4a-4079-8e9b-e79c52a22a2e","system_id":"levelo_inurba_marseille","lat":43.27811,"lon":5.40714,"is_reserved":false,"is_disabled":false,"rental_uris":{"android":"levelo://app?vid=2860da57-3e4a-4079-8e9b-e79c52a22a2e","ios":"levelo://app?vid=2860da57-3e4a-4079-8e9b-e79c52a22a2e"},"vehicle_type_id":"4","last_reported":1741338587,"current_range_meters":6400,"station_id":"ce4bhnh2rcd13ifvqgtg","pricing_plan_id":"cebpf4jnsgd1na2vs0mg"},{"bike_id":"b882545e-af75-45ef-8883-abae125245af","system_id":"levelo_inurba_marseille","lat":43.2925,"lon":5.40909,"is_reserved":false,"is_disabled":false,"rental_uris":{"android":"levelo://app?vid=b882545e-af75-45ef-8883-abae125245af","ios":"levelo://app?vid=b882545e-af75-45ef-8883-abae125245af"},"vehicle_type_id":"4","last_reported":1741338587,"current_range_meters":6400,"station_id":"ce4bh192rcd13ifvqdc0","pricing_plan_id":"cebpf4jnsgd1na2vs0mg"},{"bike_id":"f5f16292-5540-4aae-b9c8-f3d9f389f20c","system_id":"levelo_inurba_marseille","lat":43.27085,"lon":5.42287,"is_reserved":false,"is_disabled":false,"rental_uris":{"android":"levelo://app?vid=f5f16292-5540-4aae-b9c8-f3d9f389f20c","ios":"levelo://app?vid=f5f16292-5540-4aae-b9c8-f3d9f389f20c"},"vehicle_type_id":"4","last_reported":1741338587,"current_range_meters":6800,"station_id":"ce4bhk92rcd13ifvqgb0","pricing_plan_id":"cebpf4jnsgd1na2vs0mg"},{"bike_id":"1c711ae0-9f2d-4f38-bc0b-522cf5023ed9","system_id":"levelo_inurba_marseille","lat":43.29307,"lon":5.37462,"is_reserved":false,"is_disabled":false,"rental_uris":{"android":"levelo://app?vid=1c711ae0-9f2d-4f38-bc0b-522cf5023ed9","ios":"levelo://app?vid=1c711ae0-9f2d-4f38-bc0b-522cf5023ed9"},"vehicle_type_id":"4","last_reported":1741338587,"current_range_meters":6400,"station_id":"ce4bgi12rcd13ifvqb70","pricing_plan_id":"cebpf4jnsgd1na2vs0mg"},{"bike_id":"3b77bc51-0cb1-4bab-ad7b-4ddad164f271","system_id":"levelo_inurba_marseille","lat":43.30082,"lon":5.39099,"is_reserved":false,"is_disabled":false,"rental_uris":{"android":"levelo://app?vid=3b77bc51-0cb1-4bab-ad7b-4ddad164f271","ios":"levelo://app?vid=3b77bc51-0cb1-4bab-ad7b-4ddad164f271"},"vehicle_type_id":"4","last_reported":1741338587,"current_range_meters":6400,"station_id":"ce4bh192rcd13ifvqdb0","pricing_plan_id":"cebpf4jnsgd1na2vs0mg"},{"bike_id":"8382d146-aa13-4c22-a942-367022681724","system_id":"levelo_inurba_marseille","lat":43.27212,"lon":5.39183,"is_reserved":false,"is_disabled":false,"rental_uris":{"android":"levelo://app?vid=8382d146-aa13-4c22-a942-367022681724","ios":"levelo://app?vid=8382d146-aa13-4c22-a942-367022681724"},"vehicle_type_id":"4","last_reported":1741338587,"current_range_meters":6800,"station_id":"ce4bhhp2rcd13ifvqfm0","pricing_plan_id":"cebpf4jnsgd1na2vs0mg"},{"bike_id":"abdc7a6f-de4f-4b3b-b537-5a723ca3b154","system_id":"levelo_inurba_marseille","lat":43.26943,"lon":5.38649,"is_reserved":false,"is_disabled":false,"rental_uris":{"android":"levelo://app?vid=abdc7a6f-de4f-4b3b-b537-5a723ca3b154","ios":"levelo://app?vid=abdc7a6f-de4f-4b3b-b537-5a723ca3b154"},"vehicle_type_id":"4","last_reported":1741338587,"current_range_meters":6800,"station_id":"ce4bhh92rcd13ifvqfh0","pricing_plan_id":"cebpf4jnsgd1na2vs0mg"},{"bike_id":"440bf675-0344-4591-b363-ece733b5f20c","system_id":"levelo_inurba_marseille","lat":43.24067,"lon":5.37764,"is_reserved":false,"is_disabled":false,"rental_uris":{"android":"levelo://app?vid=440bf675-0344-4591-b363-ece733b5f20c","ios":"levelo://app?vid=440bf675-0344-4591-b363-ece733b5f20c"},"vehicle_type_id":"4","last_reported":1741338587,"current_range_meters":6800,"station_id":"ce4bhnp2rcd13ifvqgvg","pricing_plan_id":"cebpf4jnsgd1na2vs0mg"},{"bike_id":"bac9e9b7-3da7-4c52-9f4e-9157ea0e6ed9","system_id":"levelo_inurba_marseille","lat":43.2804,"lon":5.36943,"is_reserved":false,"is_disabled":false,"rental_uris":{"android":"levelo://app?vid=bac9e9b7-3da7-4c52-9f4e-9157ea0e6ed9","ios":"levelo://app?vid=bac9e9b7-3da7-4c52-9f4e-9157ea0e6ed9"},"vehicle_type_id":"4","last_reported":1741338587,"current_range_meters":7200,"station_id":"ce4bha12rcd13ifvqef0","pricing_plan_id":"cebpf4jnsgd1na2vs0mg"},{"bike_id":"c9e2cf2a-9fe4-42dd-b5b8-ba1594924772","system_id":"levelo_inurba_marseille","lat":43.30456,"lon":5.37905,"is_reserved":false,"is_disabled":false,"rental_uris":{"android":"levelo://app?vid=c9e2cf2a-9fe4-42dd-b5b8-ba1594924772","ios":"levelo://app?vid=c9e2cf2a-9fe4-42dd-b5b8-ba1594924772"},"vehicle_type_id":"4","last_reported":1741338587,"current_range_meters":7200,"station_id":"ce4bgup2rcd13ifvqcn0","pricing_plan_id":"cebpf4jnsgd1na2vs0mg"},{"bike_id":"8aef80f6-d63a-4d5b-a709-5382d05dd4df","system_id":"levelo_inurba_marseille","lat":43.25009,"lon":5.38938,"is_reserved":false,"is_disabled":false,"rental_uris":{"android":"levelo://app?vid=8aef80f6-d63a-4d5b-a709-5382d05dd4df","ios":"levelo://app?vid=8aef80f6-d63a-4d5b-a709-5382d05dd4df"},"vehicle_type_id":"4","last_reported":1741338587,"current_range_meters":7200,"station_id":"ce4bhgp2rcd13ifvqfd0","pricing_plan_id":"cebpf4jnsgd1na2vs0mg"},{"bike_id":"f927a9c8-5d84-472f-b8fd-88f2fc3bc3e6","system_id":"levelo_inurba_marseille","lat":43.29896,"lon":5.43661,"is_reserved":false,"is_disabled":false,"rental_uris":{"android":"levelo://app?vid=f927a9c8-5d84-472f-b8fd-88f2fc3bc3e6","ios":"levelo://app?vid=f927a9c8-5d84-472f-b8fd-88f2fc3bc3e6"},"vehicle_type_id":"4","last_reported":1741338587,"current_range_meters":7200,"station_id":"ce4bhpp2rcd13ifvqhfg","pricing_plan_id":"cebpf4jnsgd1na2vs0mg"},{"bike_id":"7f1905bf-da4d-4f13-af14-c5d46804e585","system_id":"levelo_inurba_marseille","lat":43.23194,"lon":5.35553,"is_reserved":false,"is_disabled":false,"rental_uris":{"android":"levelo://app?vid=7f1905bf-da4d-4f13-af14-c5d46804e585","ios":"levelo://app?vid=7f1905bf-da4d-4f13-af14-c5d46804e585"},"vehicle_type_id":"4","last_reported":1741338587,"current_range_meters":7200,"station_id":"ce4bhu92rcd13ifvqi70","pricing_plan_id":"cebpf4jnsgd1na2vs0mg"},{"bike_id":"cb3db2d2-4322-4726-b61e-10301a953afd","system_id":"levelo_inurba_marseille","lat":43.24059,"lon":5.37758,"is_reserved":false,"is_disabled":false,"rental_uris":{"android":"levelo://app?vid=cb3db2d2-4322-4726-b61e-10301a953afd","ios":"levelo://app?vid=cb3db2d2-4322-4726-b61e-10301a953afd"},"vehicle_type_id":"4","last_reported":1741338587,"current_range_meters":6800,"station_id":"ce4bhnp2rcd13ifvqgvg","pricing_plan_id":"cebpf4jnsgd1na2vs0mg"},{"bike_id":"d97b34a5-4a9d-4d9c-b55f-b72c9be6ca47","system_id":"levelo_inurba_marseille","lat":43.25103,"lon":5.40327,"is_reserved":false,"is_disabled":true,"rental_uris":{"android":"levelo://app?vid=d97b34a5-4a9d-4d9c-b55f-b72c9be6ca47","ios":"levelo://app?vid=d97b34a5-4a9d-4d9c-b55f-b72c9be6ca47"},"vehicle_type_id":"4","last_reported":1741338587,"current_range_meters":7200,"station_id":"ce4bhlh2rcd13ifvqgig","pricing_plan_id":"cebpf4jnsgd1na2vs0mg"},{"bike_id":"7afbf847-7a26-4a70-868c-4d78bac5da4f","system_id":"levelo_inurba_marseille","lat":43.305438,"lon":5.365518,"is_reserved":false,"is_disabled":false,"rental_uris":{"android":"levelo://app?vid=7afbf847-7a26-4a70-868c-4d78bac5da4f","ios":"levelo://app?vid=7afbf847-7a26-4a70-868c-4d78bac5da4f"},"vehicle_type_id":"4","last_reported":1741338587,"current_range_meters":7200,"station_id":"ce4bgs12rcd13ifvqcag","pricing_plan_id":"cebpf4jnsgd1na2vs0mg"},{"bike_id":"27bf5454-f5cc-40f9-873e-597610f0d7f8","system_id":"levelo_inurba_marseille","lat":43.27647,"lon":5.36121,"is_reserved":false,"is_disabled":false,"rental_uris":{"android":"levelo://app?vid=27bf5454-f5cc-40f9-873e-597610f0d7f8","ios":"levelo://app?vid=27bf5454-f5cc-40f9-873e-597610f0d7f8"},"vehicle_type_id":"4","last_reported":1741338587,"current_range_meters":7200,"station_id":"ce4bgj92rcd13ifvqbe0","pricing_plan_id":"cebpf4jnsgd1na2vs0mg"},{"bike_id":"e010cecd-4667-4abc-9f99-d441da01aed5","system_id":"levelo_inurba_marseille","lat":43.27843,"lon":5.3792,"is_reserved":false,"is_disabled":false,"rental_uris":{"android":"levelo://app?vid=e010cecd-4667-4abc-9f99-d441da01aed5","ios":"levelo://app?vid=e010cecd-4667-4abc-9f99-d441da01aed5"},"vehicle_type_id":"4","last_reported":1741338587,"current_range_meters":7200,"station_id":"","pricing_plan_id":"cebpf4jnsgd1na2vs0mg"},{"bike_id":"2da197ac-57ed-4f4f-b0f6-cc89ef5c1c68","system_id":"levelo_inurba_marseille","lat":43.2668,"lon":5.3827,"is_reserved":false,"is_disabled":false,"rental_uris":{"android":"levelo://app?vid=2da197ac-57ed-4f4f-b0f6-cc89ef5c1c68","ios":"levelo://app?vid=2da197ac-57ed-4f4f-b0f6-cc89ef5c1c68"},"vehicle_type_id":"4","last_reported":1741338587,"current_range_meters":7200,"station_id":"ce4bhg92rcd13ifvqf90","pricing_plan_id":"cebpf4jnsgd1na2vs0mg"},{"bike_id":"32d1f900-0344-4b56-aaa5-564d19ec802c","system_id":"levelo_inurba_marseille","lat":43.27925,"lon":5.41062,"is_reserved":false,"is_disabled":false,"rental_uris":{"android":"levelo://app?vid=32d1f900-0344-4b56-aaa5-564d19ec802c","ios":"levelo://app?vid=32d1f900-0344-4b56-aaa5-564d19ec802c"},"vehicle_type_id":"4","last_reported":1741338587,"current_range_meters":7200,"station_id":"ce4bhnp2rcd13ifvqh0g","pricing_plan_id":"cebpf4jnsgd1na2vs0mg"},{"bike_id":"1f49e3f1-8b42-4853-81c4-ae70df927fb8","system_id":"levelo_inurba_marseille","lat":43.27493,"lon":5.42461,"is_reserved":false,"is_disabled":false,"rental_uris":{"android":"levelo://app?vid=1f49e3f1-8b42-4853-81c4-ae70df927fb8","ios":"levelo://app?vid=1f49e3f1-8b42-4853-81c4-ae70df927fb8"},"vehicle_type_id":"4","last_reported":1741338587,"current_range_meters":7200,"station_id":"ce4bhn92rcd13ifvqgrg","pricing_plan_id":"cebpf4jnsgd1na2vs0mg"},{"bike_id":"5487e4c1-499e-460a-9df1-016e88b5ed82","system_id":"levelo_inurba_marseille","lat":43.299073,"lon":5.436677,"is_reserved":false,"is_disabled":false,"rental_uris":{"android":"levelo://app?vid=5487e4c1-499e-460a-9df1-016e88b5ed82","ios":"levelo://app?vid=5487e4c1-499e-460a-9df1-016e88b5ed82"},"vehicle_type_id":"4","last_reported":1741338587,"current_range_meters":8000,"station_id":"ce4bhpp2rcd13ifvqhfg","pricing_plan_id":"cebpf4jnsgd1na2vs0mg"},{"bike_id":"c262f8cf-6400-4efd-af91-c8aabadab203","system_id":"levelo_inurba_marseille","lat":43.23199,"lon":5.40004,"is_reserved":false,"is_disabled":false,"rental_uris":{"android":"levelo://app?vid=c262f8cf-6400-4efd-af91-c8aabadab203","ios":"levelo://app?vid=c262f8cf-6400-4efd-af91-c8aabadab203"},"vehicle_type_id":"4","last_reported":1741338587,"current_range_meters":8000,"station_id":"ce4bhn12rcd13ifvqgqg","pricing_plan_id":"cebpf4jnsgd1na2vs0mg"},{"bike_id":"471a03ca-95e9-400b-8e6f-34e40aee31c8","system_id":"levelo_inurba_marseille","lat":43.29867,"lon":5.39729,"is_reserved":false,"is_disabled":false,"rental_uris":{"android":"levelo://app?vid=471a03ca-95e9-400b-8e6f-34e40aee31c8","ios":"levelo://app?vid=471a03ca-95e9-400b-8e6f-34e40aee31c8"},"vehicle_type_id":"4","last_reported":1741338587,"current_range_meters":8000,"station_id":"ce4bh0h2rcd13ifvqd50","pricing_plan_id":"cebpf4jnsgd1na2vs0mg"},{"bike_id":"f25f4f6e-697a-480c-95f0-89bf5426a900","system_id":"levelo_inurba_marseille","lat":43.33611,"lon":5.41027,"is_reserved":false,"is_disabled":false,"rental_uris":{"android":"levelo://app?vid=f25f4f6e-697a-480c-95f0-89bf5426a900","ios":"levelo://app?vid=f25f4f6e-697a-480c-95f0-89bf5426a900"},"vehicle_type_id":"4","last_reported":1741338587,"current_range_meters":8000,"station_id":"ce4bhqh2rcd13ifvqhmg","pricing_plan_id":"cebpf4jnsgd1na2vs0mg"},{"bike_id":"cbd1f544-3d59-4369-9b49-55bd753c0a7d","system_id":"levelo_inurba_marseille","lat":43.24075,"lon":5.37761,"is_reserved":false,"is_disabled":false,"rental_uris":{"android":"levelo://app?vid=cbd1f544-3d59-4369-9b49-55bd753c0a7d","ios":"levelo://app?vid=cbd1f544-3d59-4369-9b49-55bd753c0a7d"},"vehicle_type_id":"4","last_reported":1741338587,"current_range_meters":8000,"station_id":"ce4bhnp2rcd13ifvqgvg","pricing_plan_id":"cebpf4jnsgd1na2vs0mg"},{"bike_id":"0e4f29e7-d28c-45d5-a936-55905fbd5061","system_id":"levelo_inurba_marseille","lat":43.31343,"lon":5.36726,"is_reserved":false,"is_disabled":false,"rental_uris":{"android":"levelo://app?vid=0e4f29e7-d28c-45d5-a936-55905fbd5061","ios":"levelo://app?vid=0e4f29e7-d28c-45d5-a936-55905fbd5061"},"vehicle_type_id":"4","last_reported":1741338587,"current_range_meters":8000,"station_id":"ce4bgr92rcd13ifvqc6g","pricing_plan_id":"cebpf4jnsgd1na2vs0mg"},{"bike_id":"d325d838-f1e3-4178-bf12-b739cd4e0c3a","system_id":"levelo_inurba_marseille","lat":43.30963,"lon":5.39029,"is_reserved":false,"is_disabled":true,"rental_uris":{"android":"levelo://app?vid=d325d838-f1e3-4178-bf12-b739cd4e0c3a","ios":"levelo://app?vid=d325d838-f1e3-4178-bf12-b739cd4e0c3a"},"vehicle_type_id":"4","last_reported":1741338587,"current_range_meters":8000,"station_id":"ce4bgup2rcd13ifvqco0","pricing_plan_id":"cebpf4jnsgd1na2vs0mg"},{"bike_id":"3c5e0350-07a6-4d3d-b526-00ffb41b6d3e","system_id":"levelo_inurba_marseille","lat":43.27932,"lon":5.41049,"is_reserved":false,"is_disabled":false,"rental_uris":{"android":"levelo://app?vid=3c5e0350-07a6-4d3d-b526-00ffb41b6d3e","ios":"levelo://app?vid=3c5e0350-07a6-4d3d-b526-00ffb41b6d3e"},"vehicle_type_id":"4","last_reported":1741338587,"current_range_meters":8000,"station_id":"ce4bhnp2rcd13ifvqh0g","pricing_plan_id":"cebpf4jnsgd1na2vs0mg"},{"bike_id":"915b7735-4cab-40c5-9411-3076bdbf4c7d","system_id":"levelo_inurba_marseille","lat":43.29887,"lon":5.4365,"is_reserved":false,"is_disabled":false,"rental_uris":{"android":"levelo://app?vid=915b7735-4cab-40c5-9411-3076bdbf4c7d","ios":"levelo://app?vid=915b7735-4cab-40c5-9411-3076bdbf4c7d"},"vehicle_type_id":"4","last_reported":1741338587,"current_range_meters":8000,"station_id":"ce4bhpp2rcd13ifvqhfg","pricing_plan_id":"cebpf4jnsgd1na2vs0mg"},{"bike_id":"651068a3-bff5-4aa4-bafe-de2f2377d643","system_id":"levelo_inurba_marseille","lat":43.25728,"lon":5.41105,"is_reserved":false,"is_disabled":false,"rental_uris":{"android":"levelo://app?vid=651068a3-bff5-4aa4-bafe-de2f2377d643","ios":"levelo://app?vid=651068a3-bff5-4aa4-bafe-de2f2377d643"},"vehicle_type_id":"4","last_reported":1741338587,"current_range_meters":8000,"station_id":"ce4bhkp2rcd13ifvqgd0","pricing_plan_id":"cebpf4jnsgd1na2vs0mg"},{"bike_id":"c5d9a748-fb84-4751-9008-dc4467d9ed9a","system_id":"levelo_inurba_marseille","lat":43.23196,"lon":5.3555,"is_reserved":false,"is_disabled":false,"rental_uris":{"android":"levelo://app?vid=c5d9a748-fb84-4751-9008-dc4467d9ed9a","ios":"levelo://app?vid=c5d9a748-fb84-4751-9008-dc4467d9ed9a"},"vehicle_type_id":"4","last_reported":1741338587,"current_range_meters":8000,"station_id":"ce4bhu92rcd13ifvqi70","pricing_plan_id":"cebpf4jnsgd1na2vs0mg"},{"bike_id":"81220ab9-fb8e-4638-a084-692a6595df85","system_id":"levelo_inurba_marseille","lat":43.26193,"lon":5.42068,"is_reserved":false,"is_disabled":false,"rental_uris":{"android":"levelo://app?vid=81220ab9-fb8e-4638-a084-692a6595df85","ios":"levelo://app?vid=81220ab9-fb8e-4638-a084-692a6595df85"},"vehicle_type_id":"4","last_reported":1741338587,"current_range_meters":8000,"station_id":"","pricing_plan_id":"cebpf4jnsgd1na2vs0mg"},{"bike_id":"42bd2188-fef0-407d-9176-e3a29cddd528","system_id":"levelo_inurba_marseille","lat":43.28366,"lon":5.38084,"is_reserved":false,"is_disabled":false,"rental_uris":{"android":"levelo://app?vid=42bd2188-fef0-407d-9176-e3a29cddd528","ios":"levelo://app?vid=42bd2188-fef0-407d-9176-e3a29cddd528"},"vehicle_type_id":"4","last_reported":1741338587,"current_range_meters":8000,"station_id":"ce4bh412rcd13ifvqdr0","pricing_plan_id":"cebpf4jnsgd1na2vs0mg"},{"bike_id":"cfad0bf5-a99b-4347-bf1a-370f0c59a9c4","system_id":"levelo_inurba_marseille","lat":43.278147,"lon":5.407173,"is_reserved":false,"is_disabled":false,"rental_uris":{"android":"levelo://app?vid=cfad0bf5-a99b-4347-bf1a-370f0c59a9c4","ios":"levelo://app?vid=cfad0bf5-a99b-4347-bf1a-370f0c59a9c4"},"vehicle_type_id":"4","last_reported":1741338587,"current_range_meters":8000,"station_id":"ce4bhnh2rcd13ifvqgtg","pricing_plan_id":"cebpf4jnsgd1na2vs0mg"},{"bike_id":"5e1f40a8-7a4d-4364-8fa8-b7373d161f23","system_id":"levelo_inurba_marseille","lat":43.29254,"lon":5.40905,"is_reserved":false,"is_disabled":false,"rental_uris":{"android":"levelo://app?vid=5e1f40a8-7a4d-4364-8fa8-b7373d161f23","ios":"levelo://app?vid=5e1f40a8-7a4d-4364-8fa8-b7373d161f23"},"vehicle_type_id":"4","last_reported":1741338587,"current_range_meters":8000,"station_id":"ce4bh192rcd13ifvqdc0","pricing_plan_id":"cebpf4jnsgd1na2vs0mg"},{"bike_id":"858c50df-ffa3-4ac3-a680-aba957e8944e","system_id":"levelo_inurba_marseille","lat":43.29892,"lon":5.43663,"is_reserved":false,"is_disabled":false,"rental_uris":{"android":"levelo://app?vid=858c50df-ffa3-4ac3-a680-aba957e8944e","ios":"levelo://app?vid=858c50df-ffa3-4ac3-a680-aba957e8944e"},"vehicle_type_id":"4","last_reported":1741338587,"current_range_meters":8000,"station_id":"ce4bhpp2rcd13ifvqhfg","pricing_plan_id":"cebpf4jnsgd1na2vs0mg"},{"bike_id":"afd82745-3859-40a7-853e-d4b01e26daf9","system_id":"levelo_inurba_marseille","lat":43.2405,"lon":5.37729,"is_reserved":false,"is_disabled":false,"rental_uris":{"android":"levelo://app?vid=afd82745-3859-40a7-853e-d4b01e26daf9","ios":"levelo://app?vid=afd82745-3859-40a7-853e-d4b01e26daf9"},"vehicle_type_id":"4","last_reported":1741338587,"current_range_meters":8000,"station_id":"ce4bhnp2rcd13ifvqgvg","pricing_plan_id":"cebpf4jnsgd1na2vs0mg"},{"bike_id":"d6224e2d-1754-450a-b21d-03067a9ae3dc","system_id":"levelo_inurba_marseille","lat":43.24064,"lon":5.37761,"is_reserved":false,"is_disabled":false,"rental_uris":{"android":"levelo://app?vid=d6224e2d-1754-450a-b21d-03067a9ae3dc","ios":"levelo://app?vid=d6224e2d-1754-450a-b21d-03067a9ae3dc"},"vehicle_type_id":"4","last_reported":1741338587,"current_range_meters":8400,"station_id":"ce4bhnp2rcd13ifvqgvg","pricing_plan_id":"cebpf4jnsgd1na2vs0mg"},{"bike_id":"1b34c58c-f011-43f3-baac-47c6cf7523c0","system_id":"levelo_inurba_marseille","lat":43.298941,"lon":5.436704,"is_reserved":false,"is_disabled":false,"rental_uris":{"android":"levelo://app?vid=1b34c58c-f011-43f3-baac-47c6cf7523c0","ios":"levelo://app?vid=1b34c58c-f011-43f3-baac-47c6cf7523c0"},"vehicle_type_id":"4","last_reported":1741338587,"current_range_meters":8400,"station_id":"ce4bhpp2rcd13ifvqhfg","pricing_plan_id":"cebpf4jnsgd1na2vs0mg"},{"bike_id":"619dec72-5a4c-460a-9e71-bb297c6de017","system_id":"levelo_inurba_marseille","lat":43.26861,"lon":5.37058,"is_reserved":false,"is_disabled":false,"rental_uris":{"android":"levelo://app?vid=619dec72-5a4c-460a-9e71-bb297c6de017","ios":"levelo://app?vid=619dec72-5a4c-460a-9e71-bb297c6de017"},"vehicle_type_id":"4","last_reported":1741338587,"current_range_meters":8400,"station_id":"","pricing_plan_id":"cebpf4jnsgd1na2vs0mg"},{"bike_id":"b9d08239-e4e9-40d1-b6e0-4defe9484570","system_id":"levelo_inurba_marseille","lat":43.28745,"lon":5.37921,"is_reserved":false,"is_disabled":false,"rental_uris":{"android":"levelo://app?vid=b9d08239-e4e9-40d1-b6e0-4defe9484570","ios":"levelo://app?vid=b9d08239-e4e9-40d1-b6e0-4defe9484570"},"vehicle_type_id":"4","last_reported":1741338587,"current_range_meters":8400,"station_id":"ce4bh9p2rcd13ifvqec0","pricing_plan_id":"cebpf4jnsgd1na2vs0mg"},{"bike_id":"3039f003-31f0-4ead-9dee-581bb853c92d","system_id":"levelo_inurba_marseille","lat":43.26558,"lon":5.37285,"is_reserved":false,"is_disabled":false,"rental_uris":{"android":"levelo://app?vid=3039f003-31f0-4ead-9dee-581bb853c92d","ios":"levelo://app?vid=3039f003-31f0-4ead-9dee-581bb853c92d"},"vehicle_type_id":"4","last_reported":1741338587,"current_range_meters":8400,"station_id":"ce4bhg12rcd13ifvqf70","pricing_plan_id":"cebpf4jnsgd1na2vs0mg"},{"bike_id":"fbe50864-25cc-4155-a7e3-9a4c8dd54dd6","system_id":"levelo_inurba_marseille","lat":43.30914,"lon":5.36854,"is_reserved":false,"is_disabled":false,"rental_uris":{"android":"levelo://app?vid=fbe50864-25cc-4155-a7e3-9a4c8dd54dd6","ios":"levelo://app?vid=fbe50864-25cc-4155-a7e3-9a4c8dd54dd6"},"vehicle_type_id":"4","last_reported":1741338587,"current_range_meters":8400,"station_id":"ce4bgn92rcd13ifvqbvg","pricing_plan_id":"cebpf4jnsgd1na2vs0mg"},{"bike_id":"bae88569-610f-475c-98ca-784f8598b84a","system_id":"levelo_inurba_marseille","lat":43.3031,"lon":5.37701,"is_reserved":false,"is_disabled":false,"rental_uris":{"android":"levelo://app?vid=bae88569-610f-475c-98ca-784f8598b84a","ios":"levelo://app?vid=bae88569-610f-475c-98ca-784f8598b84a"},"vehicle_type_id":"4","last_reported":1741338587,"current_range_meters":8400,"station_id":"ce4bguh2rcd13ifvqcj0","pricing_plan_id":"cebpf4jnsgd1na2vs0mg"},{"bike_id":"b2c94af5-bdff-4efc-819d-12cc6aa4c843","system_id":"levelo_inurba_marseille","lat":43.24089,"lon":5.37793,"is_reserved":false,"is_disabled":false,"rental_uris":{"android":"levelo://app?vid=b2c94af5-bdff-4efc-819d-12cc6aa4c843","ios":"levelo://app?vid=b2c94af5-bdff-4efc-819d-12cc6aa4c843"},"vehicle_type_id":"4","last_reported":1741338587,"current_range_meters":8800,"station_id":"ce4bhnp2rcd13ifvqgvg","pricing_plan_id":"cebpf4jnsgd1na2vs0mg"},{"bike_id":"b77ecc4c-2c43-426b-b2c2-ef94ca1958a2","system_id":"levelo_inurba_marseille","lat":43.23156,"lon":5.43703,"is_reserved":false,"is_disabled":false,"rental_uris":{"android":"levelo://app?vid=b77ecc4c-2c43-426b-b2c2-ef94ca1958a2","ios":"levelo://app?vid=b77ecc4c-2c43-426b-b2c2-ef94ca1958a2"},"vehicle_type_id":"4","last_reported":1741338587,"current_range_meters":8400,"station_id":"ce4bhmp2rcd13ifvqgog","pricing_plan_id":"cebpf4jnsgd1na2vs0mg"},{"bike_id":"38b627cb-2a59-4eb9-82d3-262f9a90ba20","system_id":"levelo_inurba_marseille","lat":43.24083,"lon":5.3776,"is_reserved":false,"is_disabled":false,"rental_uris":{"android":"levelo://app?vid=38b627cb-2a59-4eb9-82d3-262f9a90ba20","ios":"levelo://app?vid=38b627cb-2a59-4eb9-82d3-262f9a90ba20"},"vehicle_type_id":"4","last_reported":1741338587,"current_range_meters":8800,"station_id":"ce4bhnp2rcd13ifvqgvg","pricing_plan_id":"cebpf4jnsgd1na2vs0mg"},{"bike_id":"143b74fc-ab7b-4910-8495-ffc1ad22971d","system_id":"levelo_inurba_marseille","lat":43.2501,"lon":5.38916,"is_reserved":false,"is_disabled":true,"rental_uris":{"android":"levelo://app?vid=143b74fc-ab7b-4910-8495-ffc1ad22971d","ios":"levelo://app?vid=143b74fc-ab7b-4910-8495-ffc1ad22971d"},"vehicle_type_id":"4","last_reported":1741338587,"current_range_meters":8800,"station_id":"ce4bhgp2rcd13ifvqfd0","pricing_plan_id":"cebpf4jnsgd1na2vs0mg"},{"bike_id":"bac24664-3ab1-41bf-af8d-4befdf6341f7","system_id":"levelo_inurba_marseille","lat":43.30889,"lon":5.37225,"is_reserved":false,"is_disabled":false,"rental_uris":{"android":"levelo://app?vid=bac24664-3ab1-41bf-af8d-4befdf6341f7","ios":"levelo://app?vid=bac24664-3ab1-41bf-af8d-4befdf6341f7"},"vehicle_type_id":"4","last_reported":1741338587,"current_range_meters":8400,"station_id":"ce4bguh2rcd13ifvqckg","pricing_plan_id":"cebpf4jnsgd1na2vs0mg"},{"bike_id":"4eb22ad7-467f-4977-8fd1-6169c8d212cd","system_id":"levelo_inurba_marseille","lat":43.29097,"lon":5.38126,"is_reserved":false,"is_disabled":false,"rental_uris":{"android":"levelo://app?vid=4eb22ad7-467f-4977-8fd1-6169c8d212cd","ios":"levelo://app?vid=4eb22ad7-467f-4977-8fd1-6169c8d212cd"},"vehicle_type_id":"4","last_reported":1741338587,"current_range_meters":8800,"station_id":"ce4bh512rcd13ifvqe2g","pricing_plan_id":"cebpf4jnsgd1na2vs0mg"},{"bike_id":"357f6b0d-7429-4870-b5b1-c540923d954d","system_id":"levelo_inurba_marseille","lat":43.23055,"lon":5.35503,"is_reserved":false,"is_disabled":false,"rental_uris":{"android":"levelo://app?vid=357f6b0d-7429-4870-b5b1-c540923d954d","ios":"levelo://app?vid=357f6b0d-7429-4870-b5b1-c540923d954d"},"vehicle_type_id":"4","last_reported":1741338587,"current_range_meters":8800,"station_id":"cpo3342slgdg3j2ifvpg","pricing_plan_id":"cebpf4jnsgd1na2vs0mg"},{"bike_id":"f73c1751-9f0e-479f-9e9f-366c8c6563ea","system_id":"levelo_inurba_marseille","lat":43.2695,"lon":5.38622,"is_reserved":false,"is_disabled":false,"rental_uris":{"android":"levelo://app?vid=f73c1751-9f0e-479f-9e9f-366c8c6563ea","ios":"levelo://app?vid=f73c1751-9f0e-479f-9e9f-366c8c6563ea"},"vehicle_type_id":"4","last_reported":1741338587,"current_range_meters":8800,"station_id":"ce4bhh92rcd13ifvqfh0","pricing_plan_id":"cebpf4jnsgd1na2vs0mg"},{"bike_id":"e2a1b5c0-11be-424d-9537-fafb86f45f07","system_id":"levelo_inurba_marseille","lat":43.30907,"lon":5.36866,"is_reserved":false,"is_disabled":false,"rental_uris":{"android":"levelo://app?vid=e2a1b5c0-11be-424d-9537-fafb86f45f07","ios":"levelo://app?vid=e2a1b5c0-11be-424d-9537-fafb86f45f07"},"vehicle_type_id":"4","last_reported":1741338587,"current_range_meters":8800,"station_id":"ce4bgn92rcd13ifvqbvg","pricing_plan_id":"cebpf4jnsgd1na2vs0mg"},{"bike_id":"2d340159-37c8-41dc-a62f-ca06729e55bc","system_id":"levelo_inurba_marseille","lat":43.32368,"lon":5.36761,"is_reserved":false,"is_disabled":false,"rental_uris":{"android":"levelo://app?vid=2d340159-37c8-41dc-a62f-ca06729e55bc","ios":"levelo://app?vid=2d340159-37c8-41dc-a62f-ca06729e55bc"},"vehicle_type_id":"4","last_reported":1741338587,"current_range_meters":9200,"station_id":"ce4bhsh2rcd13ifvqi2g","pricing_plan_id":"cebpf4jnsgd1na2vs0mg"},{"bike_id":"4b547189-eb8a-41f3-a84c-d2655234ffa7","system_id":"levelo_inurba_marseille","lat":43.30952,"lon":5.39039,"is_reserved":false,"is_disabled":false,"rental_uris":{"android":"levelo://app?vid=4b547189-eb8a-41f3-a84c-d2655234ffa7","ios":"levelo://app?vid=4b547189-eb8a-41f3-a84c-d2655234ffa7"},"vehicle_type_id":"4","last_reported":1741338587,"current_range_meters":9200,"station_id":"ce4bgup2rcd13ifvqco0","pricing_plan_id":"cebpf4jnsgd1na2vs0mg"},{"bike_id":"93bf5a61-b8a8-49cd-8b33-574a28d9bdf3","system_id":"levelo_inurba_marseille","lat":43.24054,"lon":5.37768,"is_reserved":false,"is_disabled":false,"rental_uris":{"android":"levelo://app?vid=93bf5a61-b8a8-49cd-8b33-574a28d9bdf3","ios":"levelo://app?vid=93bf5a61-b8a8-49cd-8b33-574a28d9bdf3"},"vehicle_type_id":"4","last_reported":1741338587,"current_range_meters":9200,"station_id":"ce4bhnp2rcd13ifvqgvg","pricing_plan_id":"cebpf4jnsgd1na2vs0mg"},{"bike_id":"fdde8103-1f2a-4455-bcfa-e1d74ecb0194","system_id":"levelo_inurba_marseille","lat":43.278043,"lon":5.407211,"is_reserved":false,"is_disabled":false,"rental_uris":{"android":"levelo://app?vid=fdde8103-1f2a-4455-bcfa-e1d74ecb0194","ios":"levelo://app?vid=fdde8103-1f2a-4455-bcfa-e1d74ecb0194"},"vehicle_type_id":"4","last_reported":1741338587,"current_range_meters":9200,"station_id":"ce4bhnh2rcd13ifvqgtg","pricing_plan_id":"cebpf4jnsgd1na2vs0mg"},{"bike_id":"d8e0cd60-2b65-4338-bbaf-5428c7410cef","system_id":"levelo_inurba_marseille","lat":43.30911,"lon":5.36865,"is_reserved":false,"is_disabled":false,"rental_uris":{"android":"levelo://app?vid=d8e0cd60-2b65-4338-bbaf-5428c7410cef","ios":"levelo://app?vid=d8e0cd60-2b65-4338-bbaf-5428c7410cef"},"vehicle_type_id":"4","last_reported":1741338587,"current_range_meters":9200,"station_id":"ce4bgn92rcd13ifvqbvg","pricing_plan_id":"cebpf4jnsgd1na2vs0mg"},{"bike_id":"a7e8bc7d-4983-4763-86bc-9b1548214877","system_id":"levelo_inurba_marseille","lat":43.30527,"lon":5.36712,"is_reserved":false,"is_disabled":false,"rental_uris":{"android":"levelo://app?vid=a7e8bc7d-4983-4763-86bc-9b1548214877","ios":"levelo://app?vid=a7e8bc7d-4983-4763-86bc-9b1548214877"},"vehicle_type_id":"4","last_reported":1741338587,"current_range_meters":9600,"station_id":"ce4bgrp2rcd13ifvqc9g","pricing_plan_id":"cebpf4jnsgd1na2vs0mg"},{"bike_id":"f6be84bb-43f5-4ae4-b3bd-10f006f6e917","system_id":"levelo_inurba_marseille","lat":43.30967,"lon":5.39053,"is_reserved":false,"is_disabled":false,"rental_uris":{"android":"levelo://app?vid=f6be84bb-43f5-4ae4-b3bd-10f006f6e917","ios":"levelo://app?vid=f6be84bb-43f5-4ae4-b3bd-10f006f6e917"},"vehicle_type_id":"4","last_reported":1741338587,"current_range_meters":9600,"station_id":"ce4bgup2rcd13ifvqco0","pricing_plan_id":"cebpf4jnsgd1na2vs0mg"},{"bike_id":"7582ad68-779a-4296-9bd6-58a679d7fcda","system_id":"levelo_inurba_marseille","lat":43.24098,"lon":5.37754,"is_reserved":false,"is_disabled":false,"rental_uris":{"android":"levelo://app?vid=7582ad68-779a-4296-9bd6-58a679d7fcda","ios":"levelo://app?vid=7582ad68-779a-4296-9bd6-58a679d7fcda"},"vehicle_type_id":"4","last_reported":1741338587,"current_range_meters":9600,"station_id":"ce4bhnp2rcd13ifvqgvg","pricing_plan_id":"cebpf4jnsgd1na2vs0mg"},{"bike_id":"af64aab6-b0ec-4322-8958-8e2433b8de14","system_id":"levelo_inurba_marseille","lat":43.24085,"lon":5.3781,"is_reserved":false,"is_disabled":false,"rental_uris":{"android":"levelo://app?vid=af64aab6-b0ec-4322-8958-8e2433b8de14","ios":"levelo://app?vid=af64aab6-b0ec-4322-8958-8e2433b8de14"},"vehicle_type_id":"4","last_reported":1741338587,"current_range_meters":9600,"station_id":"ce4bhnp2rcd13ifvqgvg","pricing_plan_id":"cebpf4jnsgd1na2vs0mg"},{"bike_id":"a5056a32-e997-4e5c-b679-d52e4331fd74","system_id":"levelo_inurba_marseille","lat":43.30464,"lon":5.37903,"is_reserved":false,"is_disabled":false,"rental_uris":{"android":"levelo://app?vid=a5056a32-e997-4e5c-b679-d52e4331fd74","ios":"levelo://app?vid=a5056a32-e997-4e5c-b679-d52e4331fd74"},"vehicle_type_id":"4","last_reported":1741338587,"current_range_meters":9600,"station_id":"ce4bgup2rcd13ifvqcn0","pricing_plan_id":"cebpf4jnsgd1na2vs0mg"},{"bike_id":"5571d9ff-5d81-41bd-bcf5-ba27f45ec832","system_id":"levelo_inurba_marseille","lat":43.26209,"lon":5.37442,"is_reserved":false,"is_disabled":false,"rental_uris":{"android":"levelo://app?vid=5571d9ff-5d81-41bd-bcf5-ba27f45ec832","ios":"levelo://app?vid=5571d9ff-5d81-41bd-bcf5-ba27f45ec832"},"vehicle_type_id":"4","last_reported":1741338587,"current_range_meters":9600,"station_id":"ce4bhgp2rcd13ifvqfc0","pricing_plan_id":"cebpf4jnsgd1na2vs0mg"},{"bike_id":"f920a6ef-f0bd-4ed5-a63d-fc440a8642f5","system_id":"levelo_inurba_marseille","lat":43.25891,"lon":5.409,"is_reserved":false,"is_disabled":false,"rental_uris":{"android":"levelo://app?vid=f920a6ef-f0bd-4ed5-a63d-fc440a8642f5","ios":"levelo://app?vid=f920a6ef-f0bd-4ed5-a63d-fc440a8642f5"},"vehicle_type_id":"4","last_reported":1741338587,"current_range_meters":10000,"station_id":"ce4bhm92rcd13ifvqglg","pricing_plan_id":"cebpf4jnsgd1na2vs0mg"},{"bike_id":"4c4f40ce-b677-4958-a34a-41f58f94190b","system_id":"levelo_inurba_marseille","lat":43.23193,"lon":5.39998,"is_reserved":false,"is_disabled":false,"rental_uris":{"android":"levelo://app?vid=4c4f40ce-b677-4958-a34a-41f58f94190b","ios":"levelo://app?vid=4c4f40ce-b677-4958-a34a-41f58f94190b"},"vehicle_type_id":"4","last_reported":1741338587,"current_range_meters":10000,"station_id":"ce4bhn12rcd13ifvqgqg","pricing_plan_id":"cebpf4jnsgd1na2vs0mg"},{"bike_id":"0d27de61-0e88-4353-84c3-188071bc1bc9","system_id":"levelo_inurba_marseille","lat":43.29569,"lon":5.39974,"is_reserved":false,"is_disabled":false,"rental_uris":{"android":"levelo://app?vid=0d27de61-0e88-4353-84c3-188071bc1bc9","ios":"levelo://app?vid=0d27de61-0e88-4353-84c3-188071bc1bc9"},"vehicle_type_id":"4","last_reported":1741338587,"current_range_meters":10000,"station_id":"ce4bh312rcd13ifvqdj0","pricing_plan_id":"cebpf4jnsgd1na2vs0mg"},{"bike_id":"5a591090-3769-46fd-8e0d-10ddcd8503b8","system_id":"levelo_inurba_marseille","lat":43.30544,"lon":5.36519,"is_reserved":false,"is_disabled":false,"rental_uris":{"android":"levelo://app?vid=5a591090-3769-46fd-8e0d-10ddcd8503b8","ios":"levelo://app?vid=5a591090-3769-46fd-8e0d-10ddcd8503b8"},"vehicle_type_id":"4","last_reported":1741338587,"current_range_meters":10000,"station_id":"ce4bgs12rcd13ifvqcag","pricing_plan_id":"cebpf4jnsgd1na2vs0mg"},{"bike_id":"56db0908-ef01-44f7-b403-cea5d6e769c0","system_id":"levelo_inurba_marseille","lat":43.262,"lon":5.3747,"is_reserved":false,"is_disabled":false,"rental_uris":{"android":"levelo://app?vid=56db0908-ef01-44f7-b403-cea5d6e769c0","ios":"levelo://app?vid=56db0908-ef01-44f7-b403-cea5d6e769c0"},"vehicle_type_id":"4","last_reported":1741338587,"current_range_meters":10000,"station_id":"ce4bhgp2rcd13ifvqfc0","pricing_plan_id":"cebpf4jnsgd1na2vs0mg"},{"bike_id":"34aa14cc-09e2-478d-a4d8-f2c0b44526ae","system_id":"levelo_inurba_marseille","lat":43.262176,"lon":5.404614,"is_reserved":false,"is_disabled":false,"rental_uris":{"android":"levelo://app?vid=34aa14cc-09e2-478d-a4d8-f2c0b44526ae","ios":"levelo://app?vid=34aa14cc-09e2-478d-a4d8-f2c0b44526ae"},"vehicle_type_id":"4","last_reported":1741338587,"current_range_meters":10000,"station_id":"ce4bhmh2rcd13ifvqgmg","pricing_plan_id":"cebpf4jnsgd1na2vs0mg"},{"bike_id":"7d483360-c35f-4d7f-9a39-8a1e6c8ecd39","system_id":"levelo_inurba_marseille","lat":43.26938,"lon":5.38638,"is_reserved":false,"is_disabled":false,"rental_uris":{"android":"levelo://app?vid=7d483360-c35f-4d7f-9a39-8a1e6c8ecd39","ios":"levelo://app?vid=7d483360-c35f-4d7f-9a39-8a1e6c8ecd39"},"vehicle_type_id":"4","last_reported":1741338587,"current_range_meters":10000,"station_id":"ce4bhh92rcd13ifvqfh0","pricing_plan_id":"cebpf4jnsgd1na2vs0mg"},{"bike_id":"770e716f-1478-4e8b-906a-e8045e0e8791","system_id":"levelo_inurba_marseille","lat":43.29435,"lon":5.3863,"is_reserved":false,"is_disabled":false,"rental_uris":{"android":"levelo://app?vid=770e716f-1478-4e8b-906a-e8045e0e8791","ios":"levelo://app?vid=770e716f-1478-4e8b-906a-e8045e0e8791"},"vehicle_type_id":"4","last_reported":1741338587,"current_range_meters":9600,"station_id":"ce4bh2h2rcd13ifvqdh0","pricing_plan_id":"cebpf4jnsgd1na2vs0mg"},{"bike_id":"d0e2ef87-cca3-4608-a32c-059de7183971","system_id":"levelo_inurba_marseille","lat":43.24081,"lon":5.37751,"is_reserved":false,"is_disabled":false,"rental_uris":{"android":"levelo://app?vid=d0e2ef87-cca3-4608-a32c-059de7183971","ios":"levelo://app?vid=d0e2ef87-cca3-4608-a32c-059de7183971"},"vehicle_type_id":"4","last_reported":1741338587,"current_range_meters":10000,"station_id":"ce4bhnp2rcd13ifvqgvg","pricing_plan_id":"cebpf4jnsgd1na2vs0mg"},{"bike_id":"20d3d1e1-b730-41c6-89ab-30b242ed31c5","system_id":"levelo_inurba_marseille","lat":43.33604,"lon":5.41031,"is_reserved":false,"is_disabled":false,"rental_uris":{"android":"levelo://app?vid=20d3d1e1-b730-41c6-89ab-30b242ed31c5","ios":"levelo://app?vid=20d3d1e1-b730-41c6-89ab-30b242ed31c5"},"vehicle_type_id":"4","last_reported":1741338587,"current_range_meters":10800,"station_id":"ce4bhqh2rcd13ifvqhmg","pricing_plan_id":"cebpf4jnsgd1na2vs0mg"},{"bike_id":"25fa3c25-b6a8-4846-b5aa-b5bbfcb9cf23","system_id":"levelo_inurba_marseille","lat":43.29044,"lon":5.39967,"is_reserved":false,"is_disabled":false,"rental_uris":{"android":"levelo://app?vid=25fa3c25-b6a8-4846-b5aa-b5bbfcb9cf23","ios":"levelo://app?vid=25fa3c25-b6a8-4846-b5aa-b5bbfcb9cf23"},"vehicle_type_id":"4","last_reported":1741338587,"current_range_meters":10800,"station_id":"ce4bh392rcd13ifvqdm0","pricing_plan_id":"cebpf4jnsgd1na2vs0mg"},{"bike_id":"b32aab43-86a3-483e-9b6b-4557e9339503","system_id":"levelo_inurba_marseille","lat":43.30952,"lon":5.39042,"is_reserved":false,"is_disabled":false,"rental_uris":{"android":"levelo://app?vid=b32aab43-86a3-483e-9b6b-4557e9339503","ios":"levelo://app?vid=b32aab43-86a3-483e-9b6b-4557e9339503"},"vehicle_type_id":"4","last_reported":1741338587,"current_range_meters":10800,"station_id":"ce4bgup2rcd13ifvqco0","pricing_plan_id":"cebpf4jnsgd1na2vs0mg"},{"bike_id":"ff3228ef-c722-4531-aa41-dd0456ac2a39","system_id":"levelo_inurba_marseille","lat":43.23189,"lon":5.39988,"is_reserved":false,"is_disabled":false,"rental_uris":{"android":"levelo://app?vid=ff3228ef-c722-4531-aa41-dd0456ac2a39","ios":"levelo://app?vid=ff3228ef-c722-4531-aa41-dd0456ac2a39"},"vehicle_type_id":"4","last_reported":1741338587,"current_range_meters":10800,"station_id":"ce4bhn12rcd13ifvqgqg","pricing_plan_id":"cebpf4jnsgd1na2vs0mg"},{"bike_id":"09b5a791-41f8-48d8-a8af-e40022d24921","system_id":"levelo_inurba_marseille","lat":43.26777,"lon":5.39429,"is_reserved":false,"is_disabled":false,"rental_uris":{"android":"levelo://app?vid=09b5a791-41f8-48d8-a8af-e40022d24921","ios":"levelo://app?vid=09b5a791-41f8-48d8-a8af-e40022d24921"},"vehicle_type_id":"4","last_reported":1741338587,"current_range_meters":10800,"station_id":"ce4bhh12rcd13ifvqfg0","pricing_plan_id":"cebpf4jnsgd1na2vs0mg"},{"bike_id":"2735d81b-f407-410c-9b16-c25290674dbb","system_id":"levelo_inurba_marseille","lat":43.24079,"lon":5.37757,"is_reserved":false,"is_disabled":false,"rental_uris":{"android":"levelo://app?vid=2735d81b-f407-410c-9b16-c25290674dbb","ios":"levelo://app?vid=2735d81b-f407-410c-9b16-c25290674dbb"},"vehicle_type_id":"4","last_reported":1741338587,"current_range_meters":10800,"station_id":"ce4bhnp2rcd13ifvqgvg","pricing_plan_id":"cebpf4jnsgd1na2vs0mg"},{"bike_id":"d015e1e7-8b4f-4898-a841-104d62c0d9ad","system_id":"levelo_inurba_marseille","lat":43.23187,"lon":5.40008,"is_reserved":false,"is_disabled":false,"rental_uris":{"android":"levelo://app?vid=d015e1e7-8b4f-4898-a841-104d62c0d9ad","ios":"levelo://app?vid=d015e1e7-8b4f-4898-a841-104d62c0d9ad"},"vehicle_type_id":"4","last_reported":1741338587,"current_range_meters":10000,"station_id":"ce4bhn12rcd13ifvqgqg","pricing_plan_id":"cebpf4jnsgd1na2vs0mg"},{"bike_id":"42323b44-4776-4993-88db-08c90d643018","system_id":"levelo_inurba_marseille","lat":43.30075,"lon":5.37674,"is_reserved":false,"is_disabled":false,"rental_uris":{"android":"levelo://app?vid=42323b44-4776-4993-88db-08c90d643018","ios":"levelo://app?vid=42323b44-4776-4993-88db-08c90d643018"},"vehicle_type_id":"4","last_reported":1741338587,"current_range_meters":10800,"station_id":"","pricing_plan_id":"cebpf4jnsgd1na2vs0mg"},{"bike_id":"97ec7852-1a72-4f4d-8bce-6eb24e8fcbf1","system_id":"levelo_inurba_marseille","lat":43.3362,"lon":5.41045,"is_reserved":false,"is_disabled":false,"rental_uris":{"android":"levelo://app?vid=97ec7852-1a72-4f4d-8bce-6eb24e8fcbf1","ios":"levelo://app?vid=97ec7852-1a72-4f4d-8bce-6eb24e8fcbf1"},"vehicle_type_id":"4","last_reported":1741338587,"current_range_meters":11200,"station_id":"ce4bhqh2rcd13ifvqhmg","pricing_plan_id":"cebpf4jnsgd1na2vs0mg"},{"bike_id":"8c17816a-0835-4290-9957-825bc3fd75f2","system_id":"levelo_inurba_marseille","lat":43.28857,"lon":5.39307,"is_reserved":false,"is_disabled":false,"rental_uris":{"android":"levelo://app?vid=8c17816a-0835-4290-9957-825bc3fd75f2","ios":"levelo://app?vid=8c17816a-0835-4290-9957-825bc3fd75f2"},"vehicle_type_id":"4","last_reported":1741338587,"current_range_meters":10800,"station_id":"ce4bh2p2rcd13ifvqdi0","pricing_plan_id":"cebpf4jnsgd1na2vs0mg"},{"bike_id":"79c11b83-e05e-46e4-889b-720cb1fb4be9","system_id":"levelo_inurba_marseille","lat":43.24071,"lon":5.37796,"is_reserved":false,"is_disabled":false,"rental_uris":{"android":"levelo://app?vid=79c11b83-e05e-46e4-889b-720cb1fb4be9","ios":"levelo://app?vid=79c11b83-e05e-46e4-889b-720cb1fb4be9"},"vehicle_type_id":"4","last_reported":1741338587,"current_range_meters":11200,"station_id":"ce4bhnp2rcd13ifvqgvg","pricing_plan_id":"cebpf4jnsgd1na2vs0mg"},{"bike_id":"3a2973c5-7c58-4cfa-b842-db323d587024","system_id":"levelo_inurba_marseille","lat":43.29791,"lon":5.38099,"is_reserved":false,"is_disabled":false,"rental_uris":{"android":"levelo://app?vid=3a2973c5-7c58-4cfa-b842-db323d587024","ios":"levelo://app?vid=3a2973c5-7c58-4cfa-b842-db323d587024"},"vehicle_type_id":"4","last_reported":1741338587,"current_range_meters":10800,"station_id":"ce4bgip2rcd13ifvqbb0","pricing_plan_id":"cebpf4jnsgd1na2vs0mg"},{"bike_id":"b47aeaa0-bf7d-4e14-8b01-d1cdb7bddfe7","system_id":"levelo_inurba_marseille","lat":43.27319,"lon":5.39081,"is_reserved":false,"is_disabled":false,"rental_uris":{"android":"levelo://app?vid=b47aeaa0-bf7d-4e14-8b01-d1cdb7bddfe7","ios":"levelo://app?vid=b47aeaa0-bf7d-4e14-8b01-d1cdb7bddfe7"},"vehicle_type_id":"4","last_reported":1741338587,"current_range_meters":11200,"station_id":"ce4bhgp2rcd13ifvqfe0","pricing_plan_id":"cebpf4jnsgd1na2vs0mg"},{"bike_id":"02b1f832-d6f2-459f-88a6-7bf30ca6005e","system_id":"levelo_inurba_marseille","lat":43.25305,"lon":5.39456,"is_reserved":false,"is_disabled":false,"rental_uris":{"android":"levelo://app?vid=02b1f832-d6f2-459f-88a6-7bf30ca6005e","ios":"levelo://app?vid=02b1f832-d6f2-459f-88a6-7bf30ca6005e"},"vehicle_type_id":"4","last_reported":1741338587,"current_range_meters":11200,"station_id":"ce4bhm12rcd13ifvqgkg","pricing_plan_id":"cebpf4jnsgd1na2vs0mg"},{"bike_id":"5bf2fb3c-30ac-4ff1-beb5-e66f3b7aee41","system_id":"levelo_inurba_marseille","lat":43.32372,"lon":5.38884,"is_reserved":false,"is_disabled":false,"rental_uris":{"android":"levelo://app?vid=5bf2fb3c-30ac-4ff1-beb5-e66f3b7aee41","ios":"levelo://app?vid=5bf2fb3c-30ac-4ff1-beb5-e66f3b7aee41"},"vehicle_type_id":"4","last_reported":1741338587,"current_range_meters":11200,"station_id":"ce4bhqp2rcd13ifvqhog","pricing_plan_id":"cebpf4jnsgd1na2vs0mg"},{"bike_id":"5b3792ce-69ec-4529-bb39-23707e722c49","system_id":"levelo_inurba_marseille","lat":43.29619,"lon":5.37151,"is_reserved":false,"is_disabled":false,"rental_uris":{"android":"levelo://app?vid=5b3792ce-69ec-4529-bb39-23707e722c49","ios":"levelo://app?vid=5b3792ce-69ec-4529-bb39-23707e722c49"},"vehicle_type_id":"4","last_reported":1741338587,"current_range_meters":11200,"station_id":"ce4bgnh2rcd13ifvqc0g","pricing_plan_id":"cebpf4jnsgd1na2vs0mg"},{"bike_id":"4ecec15e-51a9-464b-a6c3-43511ce6977f","system_id":"levelo_inurba_marseille","lat":43.27811,"lon":5.4072,"is_reserved":false,"is_disabled":false,"rental_uris":{"android":"levelo://app?vid=4ecec15e-51a9-464b-a6c3-43511ce6977f","ios":"levelo://app?vid=4ecec15e-51a9-464b-a6c3-43511ce6977f"},"vehicle_type_id":"4","last_reported":1741338587,"current_range_meters":11600,"station_id":"ce4bhnh2rcd13ifvqgtg","pricing_plan_id":"cebpf4jnsgd1na2vs0mg"},{"bike_id":"6a1366c1-41ed-4dda-b62f-b12cda709bc4","system_id":"levelo_inurba_marseille","lat":43.32368,"lon":5.38896,"is_reserved":false,"is_disabled":false,"rental_uris":{"android":"levelo://app?vid=6a1366c1-41ed-4dda-b62f-b12cda709bc4","ios":"levelo://app?vid=6a1366c1-41ed-4dda-b62f-b12cda709bc4"},"vehicle_type_id":"4","last_reported":1741338587,"current_range_meters":11600,"station_id":"ce4bhqp2rcd13ifvqhog","pricing_plan_id":"cebpf4jnsgd1na2vs0mg"},{"bike_id":"773b5bb5-136d-4c66-bac9-7348ed7bc4c5","system_id":"levelo_inurba_marseille","lat":43.287182,"lon":5.379345,"is_reserved":false,"is_disabled":false,"rental_uris":{"android":"levelo://app?vid=773b5bb5-136d-4c66-bac9-7348ed7bc4c5","ios":"levelo://app?vid=773b5bb5-136d-4c66-bac9-7348ed7bc4c5"},"vehicle_type_id":"4","last_reported":1741338587,"current_range_meters":11600,"station_id":"ce4bh9p2rcd13ifvqec0","pricing_plan_id":"cebpf4jnsgd1na2vs0mg"},{"bike_id":"0c6cb11c-5664-4975-8ba5-40ba85960c5b","system_id":"levelo_inurba_marseille","lat":43.28273,"lon":5.35067,"is_reserved":false,"is_disabled":false,"rental_uris":{"android":"levelo://app?vid=0c6cb11c-5664-4975-8ba5-40ba85960c5b","ios":"levelo://app?vid=0c6cb11c-5664-4975-8ba5-40ba85960c5b"},"vehicle_type_id":"4","last_reported":1741338587,"current_range_meters":11600,"station_id":"ce4bhbp2rcd13ifvqerg","pricing_plan_id":"cebpf4jnsgd1na2vs0mg"},{"bike_id":"fba20498-47c8-4184-b582-c4636d4fbe9f","system_id":"levelo_inurba_marseille","lat":43.26192,"lon":5.37448,"is_reserved":false,"is_disabled":false,"rental_uris":{"android":"levelo://app?vid=fba20498-47c8-4184-b582-c4636d4fbe9f","ios":"levelo://app?vid=fba20498-47c8-4184-b582-c4636d4fbe9f"},"vehicle_type_id":"4","last_reported":1741338587,"current_range_meters":11600,"station_id":"ce4bhgp2rcd13ifvqfc0","pricing_plan_id":"cebpf4jnsgd1na2vs0mg"},{"bike_id":"fd3e70e0-d7fd-47cb-860d-c2a2d91f2169","system_id":"levelo_inurba_marseille","lat":43.309035,"lon":5.368545,"is_reserved":false,"is_disabled":false,"rental_uris":{"android":"levelo://app?vid=fd3e70e0-d7fd-47cb-860d-c2a2d91f2169","ios":"levelo://app?vid=fd3e70e0-d7fd-47cb-860d-c2a2d91f2169"},"vehicle_type_id":"4","last_reported":1741338587,"current_range_meters":11600,"station_id":"ce4bgn92rcd13ifvqbvg","pricing_plan_id":"cebpf4jnsgd1na2vs0mg"},{"bike_id":"daa48c53-c5de-46aa-94fc-655cbd710c8c","system_id":"levelo_inurba_marseille","lat":43.22949,"lon":5.35385,"is_reserved":false,"is_disabled":false,"rental_uris":{"android":"levelo://app?vid=daa48c53-c5de-46aa-94fc-655cbd710c8c","ios":"levelo://app?vid=daa48c53-c5de-46aa-94fc-655cbd710c8c"},"vehicle_type_id":"4","last_reported":1741338587,"current_range_meters":11600,"station_id":"cpo3532slgdg3j2ikp40","pricing_plan_id":"cebpf4jnsgd1na2vs0mg"},{"bike_id":"693db7cd-c1ad-4554-a554-5ae5efa16a2d","system_id":"levelo_inurba_marseille","lat":43.24179,"lon":5.39732,"is_reserved":false,"is_disabled":false,"rental_uris":{"android":"levelo://app?vid=693db7cd-c1ad-4554-a554-5ae5efa16a2d","ios":"levelo://app?vid=693db7cd-c1ad-4554-a554-5ae5efa16a2d"},"vehicle_type_id":"4","last_reported":1741338587,"current_range_meters":12000,"station_id":"ce4bhn12rcd13ifvqgpg","pricing_plan_id":"cebpf4jnsgd1na2vs0mg"},{"bike_id":"b6c96ff3-a9c5-4214-9505-a4e380c739b1","system_id":"levelo_inurba_marseille","lat":43.30288,"lon":5.37704,"is_reserved":false,"is_disabled":false,"rental_uris":{"android":"levelo://app?vid=b6c96ff3-a9c5-4214-9505-a4e380c739b1","ios":"levelo://app?vid=b6c96ff3-a9c5-4214-9505-a4e380c739b1"},"vehicle_type_id":"4","last_reported":1741338587,"current_range_meters":12000,"station_id":"ce4bguh2rcd13ifvqcj0","pricing_plan_id":"cebpf4jnsgd1na2vs0mg"},{"bike_id":"fb9fe5c8-244f-47c3-aa5b-0ac4cf40dbfe","system_id":"levelo_inurba_marseille","lat":43.24077,"lon":5.3779,"is_reserved":false,"is_disabled":false,"rental_uris":{"android":"levelo://app?vid=fb9fe5c8-244f-47c3-aa5b-0ac4cf40dbfe","ios":"levelo://app?vid=fb9fe5c8-244f-47c3-aa5b-0ac4cf40dbfe"},"vehicle_type_id":"4","last_reported":1741338587,"current_range_meters":12000,"station_id":"ce4bhnp2rcd13ifvqgvg","pricing_plan_id":"cebpf4jnsgd1na2vs0mg"},{"bike_id":"c17906fc-573a-4577-8a38-824483c69cee","system_id":"levelo_inurba_marseille","lat":43.3248,"lon":5.3656,"is_reserved":false,"is_disabled":false,"rental_uris":{"android":"levelo://app?vid=c17906fc-573a-4577-8a38-824483c69cee","ios":"levelo://app?vid=c17906fc-573a-4577-8a38-824483c69cee"},"vehicle_type_id":"4","last_reported":1741338587,"current_range_meters":12000,"station_id":"ce4bhs12rcd13ifvqhvg","pricing_plan_id":"cebpf4jnsgd1na2vs0mg"},{"bike_id":"ce0b824b-7f76-40e8-a9e1-18f27192fc1f","system_id":"levelo_inurba_marseille","lat":43.24072,"lon":5.37766,"is_reserved":false,"is_disabled":false,"rental_uris":{"android":"levelo://app?vid=ce0b824b-7f76-40e8-a9e1-18f27192fc1f","ios":"levelo://app?vid=ce0b824b-7f76-40e8-a9e1-18f27192fc1f"},"vehicle_type_id":"4","last_reported":1741338587,"current_range_meters":12000,"station_id":"ce4bhnp2rcd13ifvqgvg","pricing_plan_id":"cebpf4jnsgd1na2vs0mg"},{"bike_id":"474c7e7f-2b04-47a0-9a8d-2f4ccdaf22d1","system_id":"levelo_inurba_marseille","lat":43.28972,"lon":5.37835,"is_reserved":false,"is_disabled":false,"rental_uris":{"android":"levelo://app?vid=474c7e7f-2b04-47a0-9a8d-2f4ccdaf22d1","ios":"levelo://app?vid=474c7e7f-2b04-47a0-9a8d-2f4ccdaf22d1"},"vehicle_type_id":"4","last_reported":1741338587,"current_range_meters":12000,"station_id":"ce4bh9p2rcd13ifvqed0","pricing_plan_id":"cebpf4jnsgd1na2vs0mg"},{"bike_id":"5ba22cb2-6d7a-4a0c-92d4-89adcbc8752e","system_id":"levelo_inurba_marseille","lat":43.24993,"lon":5.38947,"is_reserved":false,"is_disabled":false,"rental_uris":{"android":"levelo://app?vid=5ba22cb2-6d7a-4a0c-92d4-89adcbc8752e","ios":"levelo://app?vid=5ba22cb2-6d7a-4a0c-92d4-89adcbc8752e"},"vehicle_type_id":"4","last_reported":1741338587,"current_range_meters":12000,"station_id":"ce4bhgp2rcd13ifvqfd0","pricing_plan_id":"cebpf4jnsgd1na2vs0mg"},{"bike_id":"d0a9e0b6-7460-48af-b167-fa241d6b44c3","system_id":"levelo_inurba_marseille","lat":43.32082,"lon":5.36794,"is_reserved":false,"is_disabled":false,"rental_uris":{"android":"levelo://app?vid=d0a9e0b6-7460-48af-b167-fa241d6b44c3","ios":"levelo://app?vid=d0a9e0b6-7460-48af-b167-fa241d6b44c3"},"vehicle_type_id":"4","last_reported":1741338587,"current_range_meters":12000,"station_id":"ce4bhrh2rcd13ifvqhug","pricing_plan_id":"cebpf4jnsgd1na2vs0mg"},{"bike_id":"bb0ce10b-d16f-4cf1-9b32-08991ff4cc71","system_id":"levelo_inurba_marseille","lat":43.25124,"lon":5.40332,"is_reserved":false,"is_disabled":false,"rental_uris":{"android":"levelo://app?vid=bb0ce10b-d16f-4cf1-9b32-08991ff4cc71","ios":"levelo://app?vid=bb0ce10b-d16f-4cf1-9b32-08991ff4cc71"},"vehicle_type_id":"4","last_reported":1741338587,"current_range_meters":12000,"station_id":"ce4bhlh2rcd13ifvqgig","pricing_plan_id":"cebpf4jnsgd1na2vs0mg"},{"bike_id":"1ea20267-c047-4d3e-b61f-4c89af5c4965","system_id":"levelo_inurba_marseille","lat":43.26954,"lon":5.38634,"is_reserved":false,"is_disabled":false,"rental_uris":{"android":"levelo://app?vid=1ea20267-c047-4d3e-b61f-4c89af5c4965","ios":"levelo://app?vid=1ea20267-c047-4d3e-b61f-4c89af5c4965"},"vehicle_type_id":"4","last_reported":1741338587,"current_range_meters":12400,"station_id":"ce4bhh92rcd13ifvqfh0","pricing_plan_id":"cebpf4jnsgd1na2vs0mg"},{"bike_id":"efd1d2aa-2150-40a0-ae32-92d196d756f0","system_id":"levelo_inurba_marseille","lat":43.301643,"lon":5.374109,"is_reserved":false,"is_disabled":false,"rental_uris":{"android":"levelo://app?vid=efd1d2aa-2150-40a0-ae32-92d196d756f0","ios":"levelo://app?vid=efd1d2aa-2150-40a0-ae32-92d196d756f0"},"vehicle_type_id":"4","last_reported":1741338587,"current_range_meters":12400,"station_id":"ce4bgup2rcd13ifvqcn0","pricing_plan_id":"cebpf4jnsgd1na2vs0mg"},{"bike_id":"707f7ab7-3329-4bbe-a15e-b7a9d9e721c7","system_id":"levelo_inurba_marseille","lat":43.31263,"lon":5.36846,"is_reserved":false,"is_disabled":false,"rental_uris":{"android":"levelo://app?vid=707f7ab7-3329-4bbe-a15e-b7a9d9e721c7","ios":"levelo://app?vid=707f7ab7-3329-4bbe-a15e-b7a9d9e721c7"},"vehicle_type_id":"4","last_reported":1741338587,"current_range_meters":12400,"station_id":"ce4bgl92rcd13ifvqbq0","pricing_plan_id":"cebpf4jnsgd1na2vs0mg"},{"bike_id":"63690bf7-4105-4faa-8d93-85da6488a237","system_id":"levelo_inurba_marseille","lat":43.2985,"lon":5.39749,"is_reserved":false,"is_disabled":false,"rental_uris":{"android":"levelo://app?vid=63690bf7-4105-4faa-8d93-85da6488a237","ios":"levelo://app?vid=63690bf7-4105-4faa-8d93-85da6488a237"},"vehicle_type_id":"4","last_reported":1741338587,"current_range_meters":12400,"station_id":"ce4bh0h2rcd13ifvqd50","pricing_plan_id":"cebpf4jnsgd1na2vs0mg"},{"bike_id":"00cab53e-c5c3-43b1-a491-2c38efeecd93","system_id":"levelo_inurba_marseille","lat":43.25021,"lon":5.38951,"is_reserved":false,"is_disabled":false,"rental_uris":{"android":"levelo://app?vid=00cab53e-c5c3-43b1-a491-2c38efeecd93","ios":"levelo://app?vid=00cab53e-c5c3-43b1-a491-2c38efeecd93"},"vehicle_type_id":"4","last_reported":1741338587,"current_range_meters":12800,"station_id":"ce4bhgp2rcd13ifvqfd0","pricing_plan_id":"cebpf4jnsgd1na2vs0mg"},{"bike_id":"563c9629-05cf-49ef-8ac6-4e5ef18e4f1d","system_id":"levelo_inurba_marseille","lat":43.25099,"lon":5.39544,"is_reserved":false,"is_disabled":false,"rental_uris":{"android":"levelo://app?vid=563c9629-05cf-49ef-8ac6-4e5ef18e4f1d","ios":"levelo://app?vid=563c9629-05cf-49ef-8ac6-4e5ef18e4f1d"},"vehicle_type_id":"4","last_reported":1741338587,"current_range_meters":12800,"station_id":"ce4bhm12rcd13ifvqgkg","pricing_plan_id":"cebpf4jnsgd1na2vs0mg"},{"bike_id":"3949e300-2dbd-4203-aa58-eef0b1b0c774","system_id":"levelo_inurba_marseille","lat":43.33787,"lon":5.37441,"is_reserved":false,"is_disabled":false,"rental_uris":{"android":"levelo://app?vid=3949e300-2dbd-4203-aa58-eef0b1b0c774","ios":"levelo://app?vid=3949e300-2dbd-4203-aa58-eef0b1b0c774"},"vehicle_type_id":"4","last_reported":1741338587,"current_range_meters":12800,"station_id":"","pricing_plan_id":"cebpf4jnsgd1na2vs0mg"},{"bike_id":"afa5713c-d5c9-44f7-ad17-c6217eb36580","system_id":"levelo_inurba_marseille","lat":43.31264,"lon":5.36842,"is_reserved":false,"is_disabled":false,"rental_uris":{"android":"levelo://app?vid=afa5713c-d5c9-44f7-ad17-c6217eb36580","ios":"levelo://app?vid=afa5713c-d5c9-44f7-ad17-c6217eb36580"},"vehicle_type_id":"4","last_reported":1741338587,"current_range_meters":12800,"station_id":"ce4bgl92rcd13ifvqbq0","pricing_plan_id":"cebpf4jnsgd1na2vs0mg"},{"bike_id":"a60b2963-2aac-4d09-a4c6-82ef6095491e","system_id":"levelo_inurba_marseille","lat":43.35056,"lon":5.36244,"is_reserved":false,"is_disabled":true,"rental_uris":{"android":"levelo://app?vid=a60b2963-2aac-4d09-a4c6-82ef6095491e","ios":"levelo://app?vid=a60b2963-2aac-4d09-a4c6-82ef6095491e"},"vehicle_type_id":"4","last_reported":1741338587,"current_range_meters":12800,"station_id":"","pricing_plan_id":"cebpf4jnsgd1na2vs0mg"},{"bike_id":"6d7e0450-89ad-4e81-9f4f-61db2e3e009a","system_id":"levelo_inurba_marseille","lat":43.29864,"lon":5.43658,"is_reserved":false,"is_disabled":false,"rental_uris":{"android":"levelo://app?vid=6d7e0450-89ad-4e81-9f4f-61db2e3e009a","ios":"levelo://app?vid=6d7e0450-89ad-4e81-9f4f-61db2e3e009a"},"vehicle_type_id":"4","last_reported":1741338587,"current_range_meters":13600,"station_id":"ce4bhpp2rcd13ifvqhfg","pricing_plan_id":"cebpf4jnsgd1na2vs0mg"},{"bike_id":"893ccd24-7ec9-4c15-b0d5-6896d3df31b5","system_id":"levelo_inurba_marseille","lat":43.29938,"lon":5.3654,"is_reserved":false,"is_disabled":false,"rental_uris":{"android":"levelo://app?vid=893ccd24-7ec9-4c15-b0d5-6896d3df31b5","ios":"levelo://app?vid=893ccd24-7ec9-4c15-b0d5-6896d3df31b5"},"vehicle_type_id":"4","last_reported":1741338587,"current_range_meters":13600,"station_id":"ce4bgm92rcd13ifvqbr0","pricing_plan_id":"cebpf4jnsgd1na2vs0mg"},{"bike_id":"c53ffb14-3aba-45ef-9a7a-1baf57388aed","system_id":"levelo_inurba_marseille","lat":43.30548,"lon":5.36548,"is_reserved":false,"is_disabled":false,"rental_uris":{"android":"levelo://app?vid=c53ffb14-3aba-45ef-9a7a-1baf57388aed","ios":"levelo://app?vid=c53ffb14-3aba-45ef-9a7a-1baf57388aed"},"vehicle_type_id":"4","last_reported":1741338587,"current_range_meters":13600,"station_id":"ce4bgs12rcd13ifvqcag","pricing_plan_id":"cebpf4jnsgd1na2vs0mg"},{"bike_id":"9efbff90-6380-4e58-8359-a0c4a1eca8c5","system_id":"levelo_inurba_marseille","lat":43.32364,"lon":5.38888,"is_reserved":false,"is_disabled":false,"rental_uris":{"android":"levelo://app?vid=9efbff90-6380-4e58-8359-a0c4a1eca8c5","ios":"levelo://app?vid=9efbff90-6380-4e58-8359-a0c4a1eca8c5"},"vehicle_type_id":"4","last_reported":1741338587,"current_range_meters":13600,"station_id":"ce4bhqp2rcd13ifvqhog","pricing_plan_id":"cebpf4jnsgd1na2vs0mg"},{"bike_id":"181d4c23-2eb9-475f-946a-716fa539fd18","system_id":"levelo_inurba_marseille","lat":43.24081,"lon":5.37752,"is_reserved":false,"is_disabled":false,"rental_uris":{"android":"levelo://app?vid=181d4c23-2eb9-475f-946a-716fa539fd18","ios":"levelo://app?vid=181d4c23-2eb9-475f-946a-716fa539fd18"},"vehicle_type_id":"4","last_reported":1741338587,"current_range_meters":13600,"station_id":"ce4bhnp2rcd13ifvqgvg","pricing_plan_id":"cebpf4jnsgd1na2vs0mg"},{"bike_id":"e6472cf0-0ad7-491d-9b42-ba9a1b7210e2","system_id":"levelo_inurba_marseille","lat":43.29898,"lon":5.43683,"is_reserved":false,"is_disabled":false,"rental_uris":{"android":"levelo://app?vid=e6472cf0-0ad7-491d-9b42-ba9a1b7210e2","ios":"levelo://app?vid=e6472cf0-0ad7-491d-9b42-ba9a1b7210e2"},"vehicle_type_id":"4","last_reported":1741338587,"current_range_meters":14000,"station_id":"ce4bhpp2rcd13ifvqhfg","pricing_plan_id":"cebpf4jnsgd1na2vs0mg"},{"bike_id":"41467d62-573c-4dd2-a21a-5867e06ef715","system_id":"levelo_inurba_marseille","lat":43.30464,"lon":5.37905,"is_reserved":false,"is_disabled":false,"rental_uris":{"android":"levelo://app?vid=41467d62-573c-4dd2-a21a-5867e06ef715","ios":"levelo://app?vid=41467d62-573c-4dd2-a21a-5867e06ef715"},"vehicle_type_id":"4","last_reported":1741338587,"current_range_meters":14000,"station_id":"ce4bgup2rcd13ifvqcn0","pricing_plan_id":"cebpf4jnsgd1na2vs0mg"},{"bike_id":"14e76b96-af6e-4e50-b023-8d9acb4cdf7c","system_id":"levelo_inurba_marseille","lat":43.3045,"lon":5.37913,"is_reserved":false,"is_disabled":false,"rental_uris":{"android":"levelo://app?vid=14e76b96-af6e-4e50-b023-8d9acb4cdf7c","ios":"levelo://app?vid=14e76b96-af6e-4e50-b023-8d9acb4cdf7c"},"vehicle_type_id":"4","last_reported":1741338587,"current_range_meters":14000,"station_id":"ce4bgup2rcd13ifvqcn0","pricing_plan_id":"cebpf4jnsgd1na2vs0mg"},{"bike_id":"326e6dfd-7b6a-41ac-9a05-43fe4e5651bd","system_id":"levelo_inurba_marseille","lat":43.248,"lon":5.37459,"is_reserved":false,"is_disabled":false,"rental_uris":{"android":"levelo://app?vid=326e6dfd-7b6a-41ac-9a05-43fe4e5651bd","ios":"levelo://app?vid=326e6dfd-7b6a-41ac-9a05-43fe4e5651bd"},"vehicle_type_id":"4","last_reported":1741338587,"current_range_meters":13600,"station_id":"ce4bhgh2rcd13ifvqfb0","pricing_plan_id":"cebpf4jnsgd1na2vs0mg"},{"bike_id":"6152b505-bdaa-4154-9904-8e28b1c35e0b","system_id":"levelo_inurba_marseille","lat":43.27798,"lon":5.40713,"is_reserved":false,"is_disabled":false,"rental_uris":{"android":"levelo://app?vid=6152b505-bdaa-4154-9904-8e28b1c35e0b","ios":"levelo://app?vid=6152b505-bdaa-4154-9904-8e28b1c35e0b"},"vehicle_type_id":"4","last_reported":1741338587,"current_range_meters":14000,"station_id":"ce4bhnh2rcd13ifvqgtg","pricing_plan_id":"cebpf4jnsgd1na2vs0mg"},{"bike_id":"33c3461d-33a4-42b7-aaad-38e2706134ea","system_id":"levelo_inurba_marseille","lat":43.25909,"lon":5.40882,"is_reserved":false,"is_disabled":false,"rental_uris":{"android":"levelo://app?vid=33c3461d-33a4-42b7-aaad-38e2706134ea","ios":"levelo://app?vid=33c3461d-33a4-42b7-aaad-38e2706134ea"},"vehicle_type_id":"4","last_reported":1741338587,"current_range_meters":14000,"station_id":"ce4bhm92rcd13ifvqglg","pricing_plan_id":"cebpf4jnsgd1na2vs0mg"},{"bike_id":"5f598be0-e162-4184-948a-4d84c2e78910","system_id":"levelo_inurba_marseille","lat":43.24157,"lon":5.39745,"is_reserved":false,"is_disabled":false,"rental_uris":{"android":"levelo://app?vid=5f598be0-e162-4184-948a-4d84c2e78910","ios":"levelo://app?vid=5f598be0-e162-4184-948a-4d84c2e78910"},"vehicle_type_id":"4","last_reported":1741338587,"current_range_meters":14000,"station_id":"ce4bhn12rcd13ifvqgpg","pricing_plan_id":"cebpf4jnsgd1na2vs0mg"},{"bike_id":"62c4c10f-4cee-4f4d-a248-1e792569408d","system_id":"levelo_inurba_marseille","lat":43.31221,"lon":5.40216,"is_reserved":false,"is_disabled":false,"rental_uris":{"android":"levelo://app?vid=62c4c10f-4cee-4f4d-a248-1e792569408d","ios":"levelo://app?vid=62c4c10f-4cee-4f4d-a248-1e792569408d"},"vehicle_type_id":"4","last_reported":1741338587,"current_range_meters":14000,"station_id":"","pricing_plan_id":"cebpf4jnsgd1na2vs0mg"},{"bike_id":"6901c985-3237-4a3b-8579-87e57cfd1efa","system_id":"levelo_inurba_marseille","lat":43.25002,"lon":5.3894,"is_reserved":false,"is_disabled":false,"rental_uris":{"android":"levelo://app?vid=6901c985-3237-4a3b-8579-87e57cfd1efa","ios":"levelo://app?vid=6901c985-3237-4a3b-8579-87e57cfd1efa"},"vehicle_type_id":"4","last_reported":1741338587,"current_range_meters":14400,"station_id":"ce4bhgp2rcd13ifvqfd0","pricing_plan_id":"cebpf4jnsgd1na2vs0mg"},{"bike_id":"41a99be1-4379-4414-8225-4b10acb8e910","system_id":"levelo_inurba_marseille","lat":43.30117,"lon":5.37394,"is_reserved":false,"is_disabled":false,"rental_uris":{"android":"levelo://app?vid=41a99be1-4379-4414-8225-4b10acb8e910","ios":"levelo://app?vid=41a99be1-4379-4414-8225-4b10acb8e910"},"vehicle_type_id":"4","last_reported":1741338587,"current_range_meters":14000,"station_id":"ce4bgs92rcd13ifvqcc0","pricing_plan_id":"cebpf4jnsgd1na2vs0mg"},{"bike_id":"0e674cb4-f37d-4bd5-aaff-7ec953d386c6","system_id":"levelo_inurba_marseille","lat":43.24172,"lon":5.36439,"is_reserved":false,"is_disabled":false,"rental_uris":{"android":"levelo://app?vid=0e674cb4-f37d-4bd5-aaff-7ec953d386c6","ios":"levelo://app?vid=0e674cb4-f37d-4bd5-aaff-7ec953d386c6"},"vehicle_type_id":"4","last_reported":1741338587,"current_range_meters":14400,"station_id":"cpo36qri1sfpv3e86is0","pricing_plan_id":"cebpf4jnsgd1na2vs0mg"},{"bike_id":"6dc172cc-bafc-4383-897b-623fe4e9d3d1","system_id":"levelo_inurba_marseille","lat":43.30567,"lon":5.36535,"is_reserved":false,"is_disabled":false,"rental_uris":{"android":"levelo://app?vid=6dc172cc-bafc-4383-897b-623fe4e9d3d1","ios":"levelo://app?vid=6dc172cc-bafc-4383-897b-623fe4e9d3d1"},"vehicle_type_id":"4","last_reported":1741338587,"current_range_meters":14400,"station_id":"ce4bgs12rcd13ifvqcag","pricing_plan_id":"cebpf4jnsgd1na2vs0mg"},{"bike_id":"8ea383d4-f425-4f2e-91a3-57cb03091ad5","system_id":"levelo_inurba_marseille","lat":43.24029,"lon":5.37652,"is_reserved":false,"is_disabled":false,"rental_uris":{"android":"levelo://app?vid=8ea383d4-f425-4f2e-91a3-57cb03091ad5","ios":"levelo://app?vid=8ea383d4-f425-4f2e-91a3-57cb03091ad5"},"vehicle_type_id":"4","last_reported":1741338587,"current_range_meters":14800,"station_id":"","pricing_plan_id":"cebpf4jnsgd1na2vs0mg"},{"bike_id":"0802591f-bd22-46cb-834f-d71cb6ffd84b","system_id":"levelo_inurba_marseille","lat":43.28616,"lon":5.35104,"is_reserved":false,"is_disabled":false,"rental_uris":{"android":"levelo://app?vid=0802591f-bd22-46cb-834f-d71cb6ffd84b","ios":"levelo://app?vid=0802591f-bd22-46cb-834f-d71cb6ffd84b"},"vehicle_type_id":"4","last_reported":1741338587,"current_range_meters":14800,"station_id":"ce4bhch2rcd13ifvqeug","pricing_plan_id":"cebpf4jnsgd1na2vs0mg"},{"bike_id":"3c94b931-3649-4c69-bf1c-99f8fd15e284","system_id":"levelo_inurba_marseille","lat":43.32492,"lon":5.36577,"is_reserved":false,"is_disabled":false,"rental_uris":{"android":"levelo://app?vid=3c94b931-3649-4c69-bf1c-99f8fd15e284","ios":"levelo://app?vid=3c94b931-3649-4c69-bf1c-99f8fd15e284"},"vehicle_type_id":"4","last_reported":1741338587,"current_range_meters":14800,"station_id":"ce4bhs12rcd13ifvqhvg","pricing_plan_id":"cebpf4jnsgd1na2vs0mg"},{"bike_id":"6ae77951-a909-4dfa-a933-35324bca41b7","system_id":"levelo_inurba_marseille","lat":43.2501,"lon":5.38913,"is_reserved":false,"is_disabled":false,"rental_uris":{"android":"levelo://app?vid=6ae77951-a909-4dfa-a933-35324bca41b7","ios":"levelo://app?vid=6ae77951-a909-4dfa-a933-35324bca41b7"},"vehicle_type_id":"4","last_reported":1741338587,"current_range_meters":14800,"station_id":"ce4bhgp2rcd13ifvqfd0","pricing_plan_id":"cebpf4jnsgd1na2vs0mg"},{"bike_id":"4a46d298-3e7a-4948-90da-4a2ea16a4285","system_id":"levelo_inurba_marseille","lat":43.25003,"lon":5.38934,"is_reserved":false,"is_disabled":false,"rental_uris":{"android":"levelo://app?vid=4a46d298-3e7a-4948-90da-4a2ea16a4285","ios":"levelo://app?vid=4a46d298-3e7a-4948-90da-4a2ea16a4285"},"vehicle_type_id":"4","last_reported":1741338587,"current_range_meters":14800,"station_id":"ce4bhgp2rcd13ifvqfd0","pricing_plan_id":"cebpf4jnsgd1na2vs0mg"},{"bike_id":"03f5d243-4bbf-4f35-bac0-b02895569151","system_id":"levelo_inurba_marseille","lat":43.25003,"lon":5.38929,"is_reserved":false,"is_disabled":false,"rental_uris":{"android":"levelo://app?vid=03f5d243-4bbf-4f35-bac0-b02895569151","ios":"levelo://app?vid=03f5d243-4bbf-4f35-bac0-b02895569151"},"vehicle_type_id":"4","last_reported":1741338587,"current_range_meters":14800,"station_id":"ce4bhgp2rcd13ifvqfd0","pricing_plan_id":"cebpf4jnsgd1na2vs0mg"},{"bike_id":"7372ba19-4949-453e-a20c-490c28817add","system_id":"levelo_inurba_marseille","lat":43.33786,"lon":5.37449,"is_reserved":false,"is_disabled":false,"rental_uris":{"android":"levelo://app?vid=7372ba19-4949-453e-a20c-490c28817add","ios":"levelo://app?vid=7372ba19-4949-453e-a20c-490c28817add"},"vehicle_type_id":"4","last_reported":1741338587,"current_range_meters":15200,"station_id":"","pricing_plan_id":"cebpf4jnsgd1na2vs0mg"},{"bike_id":"90749686-8990-4294-b1e1-5f2d733e6e37","system_id":"levelo_inurba_marseille","lat":43.23158,"lon":5.43696,"is_reserved":false,"is_disabled":false,"rental_uris":{"android":"levelo://app?vid=90749686-8990-4294-b1e1-5f2d733e6e37","ios":"levelo://app?vid=90749686-8990-4294-b1e1-5f2d733e6e37"},"vehicle_type_id":"4","last_reported":1741338587,"current_range_meters":15200,"station_id":"ce4bhmp2rcd13ifvqgog","pricing_plan_id":"cebpf4jnsgd1na2vs0mg"},{"bike_id":"60dbdfe4-0290-459f-80b1-32d771207de8","system_id":"levelo_inurba_marseille","lat":43.25,"lon":5.38961,"is_reserved":false,"is_disabled":false,"rental_uris":{"android":"levelo://app?vid=60dbdfe4-0290-459f-80b1-32d771207de8","ios":"levelo://app?vid=60dbdfe4-0290-459f-80b1-32d771207de8"},"vehicle_type_id":"4","last_reported":1741338587,"current_range_meters":15200,"station_id":"ce4bhgp2rcd13ifvqfd0","pricing_plan_id":"cebpf4jnsgd1na2vs0mg"},{"bike_id":"a3b7ac50-ade1-40b2-bbbc-2399a4f45e19","system_id":"levelo_inurba_marseille","lat":43.30478,"lon":5.37918,"is_reserved":false,"is_disabled":false,"rental_uris":{"android":"levelo://app?vid=a3b7ac50-ade1-40b2-bbbc-2399a4f45e19","ios":"levelo://app?vid=a3b7ac50-ade1-40b2-bbbc-2399a4f45e19"},"vehicle_type_id":"4","last_reported":1741338587,"current_range_meters":15200,"station_id":"ce4bgup2rcd13ifvqcn0","pricing_plan_id":"cebpf4jnsgd1na2vs0mg"},{"bike_id":"2f80fa14-45f3-40fd-8835-a76e0d67388f","system_id":"levelo_inurba_marseille","lat":43.2956,"lon":5.42284,"is_reserved":false,"is_disabled":false,"rental_uris":{"android":"levelo://app?vid=2f80fa14-45f3-40fd-8835-a76e0d67388f","ios":"levelo://app?vid=2f80fa14-45f3-40fd-8835-a76e0d67388f"},"vehicle_type_id":"4","last_reported":1741338587,"current_range_meters":15200,"station_id":"ce4bhph2rcd13ifvqhdg","pricing_plan_id":"cebpf4jnsgd1na2vs0mg"},{"bike_id":"eade49d4-ed78-4663-a099-cba0d266f319","system_id":"levelo_inurba_marseille","lat":43.28942,"lon":5.36624,"is_reserved":false,"is_disabled":true,"rental_uris":{"android":"levelo://app?vid=eade49d4-ed78-4663-a099-cba0d266f319","ios":"levelo://app?vid=eade49d4-ed78-4663-a099-cba0d266f319"},"vehicle_type_id":"4","last_reported":1741338587,"current_range_meters":15200,"station_id":"ce4bhap2rcd13ifvqek0","pricing_plan_id":"cebpf4jnsgd1na2vs0mg"},{"bike_id":"dac09d9e-9ab6-4c54-8fe2-7fcfc9203869","system_id":"levelo_inurba_marseille","lat":43.26567,"lon":5.37317,"is_reserved":false,"is_disabled":true,"rental_uris":{"android":"levelo://app?vid=dac09d9e-9ab6-4c54-8fe2-7fcfc9203869","ios":"levelo://app?vid=dac09d9e-9ab6-4c54-8fe2-7fcfc9203869"},"vehicle_type_id":"4","last_reported":1741338587,"current_range_meters":15200,"station_id":"ce4bhg12rcd13ifvqf70","pricing_plan_id":"cebpf4jnsgd1na2vs0mg"},{"bike_id":"eb569bdc-ebd5-4b49-a35e-60816c00a816","system_id":"levelo_inurba_marseille","lat":43.25927,"lon":5.40906,"is_reserved":false,"is_disabled":false,"rental_uris":{"android":"levelo://app?vid=eb569bdc-ebd5-4b49-a35e-60816c00a816","ios":"levelo://app?vid=eb569bdc-ebd5-4b49-a35e-60816c00a816"},"vehicle_type_id":"4","last_reported":1741338587,"current_range_meters":15200,"station_id":"ce4bhm92rcd13ifvqglg","pricing_plan_id":"cebpf4jnsgd1na2vs0mg"},{"bike_id":"ad9a8406-e1b8-4c43-83e7-6ca47ad1435f","system_id":"levelo_inurba_marseille","lat":43.25006,"lon":5.38951,"is_reserved":false,"is_disabled":false,"rental_uris":{"android":"levelo://app?vid=ad9a8406-e1b8-4c43-83e7-6ca47ad1435f","ios":"levelo://app?vid=ad9a8406-e1b8-4c43-83e7-6ca47ad1435f"},"vehicle_type_id":"4","last_reported":1741338587,"current_range_meters":15200,"station_id":"ce4bhgp2rcd13ifvqfd0","pricing_plan_id":"cebpf4jnsgd1na2vs0mg"},{"bike_id":"cc0cce90-0f7d-43a8-abe9-5fb0f372a06d","system_id":"levelo_inurba_marseille","lat":43.27254,"lon":5.38462,"is_reserved":false,"is_disabled":false,"rental_uris":{"android":"levelo://app?vid=cc0cce90-0f7d-43a8-abe9-5fb0f372a06d","ios":"levelo://app?vid=cc0cce90-0f7d-43a8-abe9-5fb0f372a06d"},"vehicle_type_id":"4","last_reported":1741338587,"current_range_meters":16000,"station_id":"","pricing_plan_id":"cebpf4jnsgd1na2vs0mg"},{"bike_id":"e524bcef-a391-41b2-bad2-673eae53ea51","system_id":"levelo_inurba_marseille","lat":43.31715,"lon":5.43705,"is_reserved":false,"is_disabled":false,"rental_uris":{"android":"levelo://app?vid=e524bcef-a391-41b2-bad2-673eae53ea51","ios":"levelo://app?vid=e524bcef-a391-41b2-bad2-673eae53ea51"},"vehicle_type_id":"4","last_reported":1741338587,"current_range_meters":16000,"station_id":"ce4bhp92rcd13ifvqhcg","pricing_plan_id":"cebpf4jnsgd1na2vs0mg"},{"bike_id":"9f860f1b-469c-4e26-bf3e-463201d84134","system_id":"levelo_inurba_marseille","lat":43.29605,"lon":5.38118,"is_reserved":false,"is_disabled":true,"rental_uris":{"android":"levelo://app?vid=9f860f1b-469c-4e26-bf3e-463201d84134","ios":"levelo://app?vid=9f860f1b-469c-4e26-bf3e-463201d84134"},"vehicle_type_id":"4","last_reported":1741338587,"current_range_meters":16000,"station_id":"ce4bgl12rcd13ifvqbo0","pricing_plan_id":"cebpf4jnsgd1na2vs0mg"},{"bike_id":"db1c7047-7b9f-4b56-96ef-3b289cb537df","system_id":"levelo_inurba_marseille","lat":43.30876,"lon":5.37411,"is_reserved":false,"is_disabled":false,"rental_uris":{"android":"levelo://app?vid=db1c7047-7b9f-4b56-96ef-3b289cb537df","ios":"levelo://app?vid=db1c7047-7b9f-4b56-96ef-3b289cb537df"},"vehicle_type_id":"4","last_reported":1741338587,"current_range_meters":16000,"station_id":"","pricing_plan_id":"cebpf4jnsgd1na2vs0mg"},{"bike_id":"a59c941d-b9d9-4002-b926-de5d10e62478","system_id":"levelo_inurba_marseille","lat":43.24077,"lon":5.37757,"is_reserved":false,"is_disabled":false,"rental_uris":{"android":"levelo://app?vid=a59c941d-b9d9-4002-b926-de5d10e62478","ios":"levelo://app?vid=a59c941d-b9d9-4002-b926-de5d10e62478"},"vehicle_type_id":"4","last_reported":1741338587,"current_range_meters":16000,"station_id":"ce4bhnp2rcd13ifvqgvg","pricing_plan_id":"cebpf4jnsgd1na2vs0mg"},{"bike_id":"daa3212f-f74e-4f24-8643-d0769656394c","system_id":"levelo_inurba_marseille","lat":43.2678,"lon":5.3942,"is_reserved":false,"is_disabled":false,"rental_uris":{"android":"levelo://app?vid=daa3212f-f74e-4f24-8643-d0769656394c","ios":"levelo://app?vid=daa3212f-f74e-4f24-8643-d0769656394c"},"vehicle_type_id":"4","last_reported":1741338587,"current_range_meters":16000,"station_id":"ce4bhh12rcd13ifvqfg0","pricing_plan_id":"cebpf4jnsgd1na2vs0mg"},{"bike_id":"5ab2001e-22b6-4441-9cbe-2789bb8f2209","system_id":"levelo_inurba_marseille","lat":43.33611,"lon":5.41016,"is_reserved":false,"is_disabled":false,"rental_uris":{"android":"levelo://app?vid=5ab2001e-22b6-4441-9cbe-2789bb8f2209","ios":"levelo://app?vid=5ab2001e-22b6-4441-9cbe-2789bb8f2209"},"vehicle_type_id":"4","last_reported":1741338587,"current_range_meters":16000,"station_id":"ce4bhqh2rcd13ifvqhmg","pricing_plan_id":"cebpf4jnsgd1na2vs0mg"},{"bike_id":"35358317-de54-4a09-b979-66e187ea4848","system_id":"levelo_inurba_marseille","lat":43.304735,"lon":5.37902,"is_reserved":false,"is_disabled":false,"rental_uris":{"android":"levelo://app?vid=35358317-de54-4a09-b979-66e187ea4848","ios":"levelo://app?vid=35358317-de54-4a09-b979-66e187ea4848"},"vehicle_type_id":"4","last_reported":1741338587,"current_range_meters":16000,"station_id":"ce4bgup2rcd13ifvqcn0","pricing_plan_id":"cebpf4jnsgd1na2vs0mg"},{"bike_id":"774026a5-9fc8-4fae-9ff9-5683c7e9ae78","system_id":"levelo_inurba_marseille","lat":43.25011,"lon":5.38922,"is_reserved":false,"is_disabled":false,"rental_uris":{"android":"levelo://app?vid=774026a5-9fc8-4fae-9ff9-5683c7e9ae78","ios":"levelo://app?vid=774026a5-9fc8-4fae-9ff9-5683c7e9ae78"},"vehicle_type_id":"4","last_reported":1741338587,"current_range_meters":16000,"station_id":"ce4bhgp2rcd13ifvqfd0","pricing_plan_id":"cebpf4jnsgd1na2vs0mg"},{"bike_id":"79be271d-c970-4f96-8dd4-cbcfea9439b9","system_id":"levelo_inurba_marseille","lat":43.23151,"lon":5.43709,"is_reserved":false,"is_disabled":false,"rental_uris":{"android":"levelo://app?vid=79be271d-c970-4f96-8dd4-cbcfea9439b9","ios":"levelo://app?vid=79be271d-c970-4f96-8dd4-cbcfea9439b9"},"vehicle_type_id":"4","last_reported":1741338587,"current_range_meters":16000,"station_id":"ce4bhmp2rcd13ifvqgog","pricing_plan_id":"cebpf4jnsgd1na2vs0mg"},{"bike_id":"1f93e32b-fd9b-4348-9077-db1bd15c3d48","system_id":"levelo_inurba_marseille","lat":43.30584,"lon":5.39347,"is_reserved":false,"is_disabled":false,"rental_uris":{"android":"levelo://app?vid=1f93e32b-fd9b-4348-9077-db1bd15c3d48","ios":"levelo://app?vid=1f93e32b-fd9b-4348-9077-db1bd15c3d48"},"vehicle_type_id":"4","last_reported":1741338587,"current_range_meters":16000,"station_id":"ce4bh0p2rcd13ifvqd80","pricing_plan_id":"cebpf4jnsgd1na2vs0mg"},{"bike_id":"0c0aff20-1b42-4e38-b779-ccb6f1796869","system_id":"levelo_inurba_marseille","lat":43.29539,"lon":5.37508,"is_reserved":false,"is_disabled":false,"rental_uris":{"android":"levelo://app?vid=0c0aff20-1b42-4e38-b779-ccb6f1796869","ios":"levelo://app?vid=0c0aff20-1b42-4e38-b779-ccb6f1796869"},"vehicle_type_id":"4","last_reported":1741338587,"current_range_meters":16000,"station_id":"ce4bgkp2rcd13ifvqbmg","pricing_plan_id":"cebpf4jnsgd1na2vs0mg"},{"bike_id":"e2c9a10f-d165-47fa-bcc3-3b72ae9367ad","system_id":"levelo_inurba_marseille","lat":43.23176,"lon":5.3999,"is_reserved":false,"is_disabled":false,"rental_uris":{"android":"levelo://app?vid=e2c9a10f-d165-47fa-bcc3-3b72ae9367ad","ios":"levelo://app?vid=e2c9a10f-d165-47fa-bcc3-3b72ae9367ad"},"vehicle_type_id":"4","last_reported":1741338587,"current_range_meters":16000,"station_id":"ce4bhn12rcd13ifvqgqg","pricing_plan_id":"cebpf4jnsgd1na2vs0mg"},{"bike_id":"37c795b7-c172-41a1-a38f-2f25494fb3e3","system_id":"levelo_inurba_marseille","lat":43.25902,"lon":5.40857,"is_reserved":false,"is_disabled":false,"rental_uris":{"android":"levelo://app?vid=37c795b7-c172-41a1-a38f-2f25494fb3e3","ios":"levelo://app?vid=37c795b7-c172-41a1-a38f-2f25494fb3e3"},"vehicle_type_id":"4","last_reported":1741338587,"current_range_meters":16400,"station_id":"ce4bhm92rcd13ifvqglg","pricing_plan_id":"cebpf4jnsgd1na2vs0mg"},{"bike_id":"f8ee3c12-40d2-4e44-bc5c-d22488d3e808","system_id":"levelo_inurba_marseille","lat":43.30556,"lon":5.36702,"is_reserved":false,"is_disabled":false,"rental_uris":{"android":"levelo://app?vid=f8ee3c12-40d2-4e44-bc5c-d22488d3e808","ios":"levelo://app?vid=f8ee3c12-40d2-4e44-bc5c-d22488d3e808"},"vehicle_type_id":"4","last_reported":1741338587,"current_range_meters":16400,"station_id":"ce4bgrp2rcd13ifvqc9g","pricing_plan_id":"cebpf4jnsgd1na2vs0mg"},{"bike_id":"e6a6578a-0758-4e9d-ada5-5334a9480b65","system_id":"levelo_inurba_marseille","lat":43.30541,"lon":5.36697,"is_reserved":false,"is_disabled":false,"rental_uris":{"android":"levelo://app?vid=e6a6578a-0758-4e9d-ada5-5334a9480b65","ios":"levelo://app?vid=e6a6578a-0758-4e9d-ada5-5334a9480b65"},"vehicle_type_id":"4","last_reported":1741338587,"current_range_meters":16400,"station_id":"ce4bgrp2rcd13ifvqc9g","pricing_plan_id":"cebpf4jnsgd1na2vs0mg"},{"bike_id":"42168c6f-35a5-43f2-8ef8-61a75051262d","system_id":"levelo_inurba_marseille","lat":43.28152,"lon":5.4265,"is_reserved":false,"is_disabled":false,"rental_uris":{"android":"levelo://app?vid=42168c6f-35a5-43f2-8ef8-61a75051262d","ios":"levelo://app?vid=42168c6f-35a5-43f2-8ef8-61a75051262d"},"vehicle_type_id":"4","last_reported":1741338587,"current_range_meters":16400,"station_id":"ce4bhnh2rcd13ifvqgug","pricing_plan_id":"cebpf4jnsgd1na2vs0mg"},{"bike_id":"b1d03295-5a4c-4b8b-ad8e-3dbefaa793f2","system_id":"levelo_inurba_marseille","lat":43.23197,"lon":5.35554,"is_reserved":false,"is_disabled":false,"rental_uris":{"android":"levelo://app?vid=b1d03295-5a4c-4b8b-ad8e-3dbefaa793f2","ios":"levelo://app?vid=b1d03295-5a4c-4b8b-ad8e-3dbefaa793f2"},"vehicle_type_id":"4","last_reported":1741338587,"current_range_meters":16400,"station_id":"ce4bhu92rcd13ifvqi70","pricing_plan_id":"cebpf4jnsgd1na2vs0mg"},{"bike_id":"76023be1-d2fd-42c0-a616-c011d5636f4f","system_id":"levelo_inurba_marseille","lat":43.24074,"lon":5.37763,"is_reserved":false,"is_disabled":false,"rental_uris":{"android":"levelo://app?vid=76023be1-d2fd-42c0-a616-c011d5636f4f","ios":"levelo://app?vid=76023be1-d2fd-42c0-a616-c011d5636f4f"},"vehicle_type_id":"4","last_reported":1741338587,"current_range_meters":16400,"station_id":"ce4bhnp2rcd13ifvqgvg","pricing_plan_id":"cebpf4jnsgd1na2vs0mg"},{"bike_id":"c7973454-67df-4210-b3e0-54c3d8c4a6ad","system_id":"levelo_inurba_marseille","lat":43.29597,"lon":5.381,"is_reserved":false,"is_disabled":false,"rental_uris":{"android":"levelo://app?vid=c7973454-67df-4210-b3e0-54c3d8c4a6ad","ios":"levelo://app?vid=c7973454-67df-4210-b3e0-54c3d8c4a6ad"},"vehicle_type_id":"4","last_reported":1741338587,"current_range_meters":16400,"station_id":"ce4bgl12rcd13ifvqbo0","pricing_plan_id":"cebpf4jnsgd1na2vs0mg"},{"bike_id":"c48e35e9-96dc-461c-b71f-daf1396652cf","system_id":"levelo_inurba_marseille","lat":43.3108,"lon":5.42444,"is_reserved":false,"is_disabled":false,"rental_uris":{"android":"levelo://app?vid=c48e35e9-96dc-461c-b71f-daf1396652cf","ios":"levelo://app?vid=c48e35e9-96dc-461c-b71f-daf1396652cf"},"vehicle_type_id":"4","last_reported":1741338587,"current_range_meters":16400,"station_id":"ce4bhp92rcd13ifvqhag","pricing_plan_id":"cebpf4jnsgd1na2vs0mg"},{"bike_id":"68477a0a-9c86-456f-bb4c-166dea78dca4","system_id":"levelo_inurba_marseille","lat":43.23153,"lon":5.43715,"is_reserved":false,"is_disabled":false,"rental_uris":{"android":"levelo://app?vid=68477a0a-9c86-456f-bb4c-166dea78dca4","ios":"levelo://app?vid=68477a0a-9c86-456f-bb4c-166dea78dca4"},"vehicle_type_id":"4","last_reported":1741338587,"current_range_meters":16400,"station_id":"ce4bhmp2rcd13ifvqgog","pricing_plan_id":"cebpf4jnsgd1na2vs0mg"},{"bike_id":"3e290270-e329-4de2-b099-d8ad0ad04094","system_id":"levelo_inurba_marseille","lat":43.28413,"lon":5.34987,"is_reserved":false,"is_disabled":false,"rental_uris":{"android":"levelo://app?vid=3e290270-e329-4de2-b099-d8ad0ad04094","ios":"levelo://app?vid=3e290270-e329-4de2-b099-d8ad0ad04094"},"vehicle_type_id":"4","last_reported":1741338587,"current_range_meters":16400,"station_id":"ce4bhbh2rcd13ifvqepg","pricing_plan_id":"cebpf4jnsgd1na2vs0mg"},{"bike_id":"34fca5e7-8353-4d68-89e6-b1d671353da7","system_id":"levelo_inurba_marseille","lat":43.32371,"lon":5.38908,"is_reserved":false,"is_disabled":false,"rental_uris":{"android":"levelo://app?vid=34fca5e7-8353-4d68-89e6-b1d671353da7","ios":"levelo://app?vid=34fca5e7-8353-4d68-89e6-b1d671353da7"},"vehicle_type_id":"4","last_reported":1741338587,"current_range_meters":16800,"station_id":"ce4bhqp2rcd13ifvqhog","pricing_plan_id":"cebpf4jnsgd1na2vs0mg"},{"bike_id":"32acfc34-8cd4-4262-8ead-298d21d83614","system_id":"levelo_inurba_marseille","lat":43.23138,"lon":5.43714,"is_reserved":false,"is_disabled":false,"rental_uris":{"android":"levelo://app?vid=32acfc34-8cd4-4262-8ead-298d21d83614","ios":"levelo://app?vid=32acfc34-8cd4-4262-8ead-298d21d83614"},"vehicle_type_id":"4","last_reported":1741338587,"current_range_meters":16800,"station_id":"ce4bhmp2rcd13ifvqgog","pricing_plan_id":"cebpf4jnsgd1na2vs0mg"},{"bike_id":"6b30518e-80eb-43e3-be8f-8ca00652c393","system_id":"levelo_inurba_marseille","lat":43.29841,"lon":5.3627,"is_reserved":false,"is_disabled":false,"rental_uris":{"android":"levelo://app?vid=6b30518e-80eb-43e3-be8f-8ca00652c393","ios":"levelo://app?vid=6b30518e-80eb-43e3-be8f-8ca00652c393"},"vehicle_type_id":"4","last_reported":1741338587,"current_range_meters":17200,"station_id":"ce4bgpp2rcd13ifvqc3g","pricing_plan_id":"cebpf4jnsgd1na2vs0mg"},{"bike_id":"9b8789be-c150-4679-b8ba-e1d5e4639da2","system_id":"levelo_inurba_marseille","lat":43.257166,"lon":5.411026,"is_reserved":false,"is_disabled":false,"rental_uris":{"android":"levelo://app?vid=9b8789be-c150-4679-b8ba-e1d5e4639da2","ios":"levelo://app?vid=9b8789be-c150-4679-b8ba-e1d5e4639da2"},"vehicle_type_id":"4","last_reported":1741338587,"current_range_meters":16800,"station_id":"ce4bhkp2rcd13ifvqgd0","pricing_plan_id":"cebpf4jnsgd1na2vs0mg"},{"bike_id":"fd6296bd-f750-4893-b30b-28489933da7e","system_id":"levelo_inurba_marseille","lat":43.24039,"lon":5.37755,"is_reserved":false,"is_disabled":false,"rental_uris":{"android":"levelo://app?vid=fd6296bd-f750-4893-b30b-28489933da7e","ios":"levelo://app?vid=fd6296bd-f750-4893-b30b-28489933da7e"},"vehicle_type_id":"4","last_reported":1741338587,"current_range_meters":16800,"station_id":"ce4bhnp2rcd13ifvqgvg","pricing_plan_id":"cebpf4jnsgd1na2vs0mg"},{"bike_id":"948c29ab-75e2-429f-9e01-a4b11841505d","system_id":"levelo_inurba_marseille","lat":43.25018,"lon":5.38955,"is_reserved":false,"is_disabled":false,"rental_uris":{"android":"levelo://app?vid=948c29ab-75e2-429f-9e01-a4b11841505d","ios":"levelo://app?vid=948c29ab-75e2-429f-9e01-a4b11841505d"},"vehicle_type_id":"4","last_reported":1741338587,"current_range_meters":16800,"station_id":"ce4bhgp2rcd13ifvqfd0","pricing_plan_id":"cebpf4jnsgd1na2vs0mg"},{"bike_id":"4f44efd0-2ec1-456a-be1f-9b8a67b5b291","system_id":"levelo_inurba_marseille","lat":43.28723,"lon":5.37949,"is_reserved":false,"is_disabled":false,"rental_uris":{"android":"levelo://app?vid=4f44efd0-2ec1-456a-be1f-9b8a67b5b291","ios":"levelo://app?vid=4f44efd0-2ec1-456a-be1f-9b8a67b5b291"},"vehicle_type_id":"4","last_reported":1741338587,"current_range_meters":16800,"station_id":"ce4bh9p2rcd13ifvqec0","pricing_plan_id":"cebpf4jnsgd1na2vs0mg"},{"bike_id":"7a234828-ce11-459e-8c82-c4c9a970f721","system_id":"levelo_inurba_marseille","lat":43.31273,"lon":5.36837,"is_reserved":false,"is_disabled":false,"rental_uris":{"android":"levelo://app?vid=7a234828-ce11-459e-8c82-c4c9a970f721","ios":"levelo://app?vid=7a234828-ce11-459e-8c82-c4c9a970f721"},"vehicle_type_id":"4","last_reported":1741338587,"current_range_meters":16800,"station_id":"","pricing_plan_id":"cebpf4jnsgd1na2vs0mg"},