{"last_updated":1701723945,"ttl":30,"version":"2.2","data":{"bikes":[{"bike_id":"b614db2d-7cdd-4b28-b1aa-af30c5ab63a4","system_id":"levelo_inurba_marseille","lat":43.312239,"lon":5.368562,"is_reserved":false,"is_disabled":false,"rental_uris":{"android":"levelo://app?vid=b614db2d-7cdd-4b28-b1aa-af30c5ab63a4","ios":"levelo://app?vid=b614db2d-7cdd-4b28-b1aa-af30c5ab63a4"},"vehicle_type_id":"4","last_reported":1701723945,"current_range_meters":25600,"station_id":"ce4bgl92rcd13ifvqbq0","pricing_plan_id":"free"},{"bike_id":"16e479b9-92d9-413f-ab92-1c69bcc940e7","system_id":"levelo_inurba_marseille","lat":43.305989,"lon":5.37225,"is_reserved":false,"is_disabled":false,"rental_uris":{"android":"levelo://app?vid=16e479b9-92d9-413f-ab92-1c69bcc940e7","ios":"levelo://app?vid=16e479b9-92d9-413f-ab92-1c69bcc940e7"},"vehicle_type_id":"4","last_reported":1701723945,"current_range_meters":23200,"station_id":"ce4bgqh2rcd13ifvqc4g","pricing_plan_id":"free"},{"bike_id":"4584c6e7-3abf-4c89-aa8c-cd7c752acadc","system_id":"levelo_inurba_marseille","lat":43.311131,"lon":5.377651,"is_reserved":false,"is_disabled":false,"rental_uris":{"android":"levelo://app?vid=4584c6e7-3abf-4c89-aa8c-cd7c752acadc","ios":"levelo://app?vid=4584c6e7-3abf-4c89-aa8c-cd7c752acadc"},"vehicle_type_id":"4","last_reported":1701723945,"current_range_meters":26800,"station_id":"ce4bgt92rcd13ifvqcg0","pricing_plan_id":"free"},{"bike_id":"c0799d16-c8a8-4cee-9b0a-69ef1a765b40","system_id":"levelo_inurba_marseille","lat":43.308195,"lon":5.376571,"is_reserved":false,"is_disabled":false,"rental_uris":{"android":"levelo://app?vid=c0799d16-c8a8-4cee-9b0a-69ef1a765b40","ios":"levelo://app?vid=c0799d16-c8a8-4cee-9b0a-69ef1a765b40"},"vehicle_type_id":"4","last_reported":1701723945,"current_range_meters":27600,"station_id":"ce4bgv92rcd13ifvqcq0","pricing_plan_id":"free"},{"bike_id":"95deb556-9800-48d8-a0e1-600284a3bdcf","system_id":"levelo_inurba_marseille","lat":43.307945,"lon":5.376487,"is_reserved":false,"is_disabled":false,"rental_uris":{"android":"levelo://app?vid=95deb556-9800-48d8-a0e1-600284a3bdcf","ios":"levelo://app?vid=95deb556-9800-48d8-a0e1-600284a3bdcf"},"vehicle_type_id":"4","last_reported":1701723945,"current_range_meters":26000,"station_id":"ce4bgv92rcd13ifvqcq0","pricing_plan_id":"free"},{"bike_id":"fb6fd937-527b-4585-9058-0dfdc6436ac8","system_id":"levelo_inurba_marseille","lat":43.31351,"lon":5.37909,"is_reserved":false,"is_disabled":false,"rental_uris":{"android":"levelo://app?vid=fb6fd937-527b-4585-9058-0dfdc6436ac8","ios":"levelo://app?vid=fb6fd937-527b-4585-9058-0dfdc6436ac8"},"vehicle_type_id":"4","last_reported":1701723945,"current_range_meters":12800,"station_id":"","pricing_plan_id":"free"},{"bike_id":"d296a9f0-12f8-4e5b-a0c9-a02f5ac42430","system_id":"levelo_inurba_marseille","lat":43.30304,"lon":5.368987,"is_reserved":false,"is_disabled":false,"rental_uris":{"android":"levelo://app?vid=d296a9f0-12f8-4e5b-a0c9-a02f5ac42430","ios":"levelo://app?vid=d296a9f0-12f8-4e5b-a0c9-a02f5ac42430"},"vehicle_type_id":"4","last_reported":1701723945,"current_range_meters":22000,"station_id":"ce4bgqh2rcd13ifvqc5g","pricing_plan_id":"free"},{"bike_id":"a17c2892-48c3-45b4-b0b5-932d56acfa0a","system_id":"levelo_inurba_marseille","lat":43.303046,"lon":5.368981,"is_reserved":false,"is_disabled":false,"rental_uris":{"android":"levelo://app?vid=a17c2892-48c3-45b4-b0b5-932d56acfa0a","ios":"levelo://app?vid=a17c2892-48c3-45b4-b0b5-932d56acfa0a"},"vehicle_type_id":"4","last_reported":1701723945,"current_range_meters":26000,"station_id":"ce4bgqh2rcd13ifvqc5g","pricing_plan_id":"free"},{"bike_id":"2103d2ce-8982-4c92-b1e4-a0062f36a53e","system_id":"levelo_inurba_marseille","lat":43.301939,"lon":5.366286,"is_reserved":false,"is_disabled":false,"rental_uris":{"android":"levelo://app?vid=2103d2ce-8982-4c92-b1e4-a0062f36a53e","ios":"levelo://app?vid=2103d2ce-8982-4c92-b1e4-a0062f36a53e"},"vehicle_type_id":"4","last_reported":1701723945,"current_range_meters":28400,"station_id":"ce4bgrh2rcd13ifvqc8g","pricing_plan_id":"free"},{"bike_id":"ce5f9a58-3c61-4cf1-b884-1afdadc92d82","system_id":"levelo_inurba_marseille","lat":43.301939,"lon":5.366286,"is_reserved":false,"is_disabled":false,"rental_uris":{"android":"levelo://app?vid=ce5f9a58-3c61-4cf1-b884-1afdadc92d82","ios":"levelo://app?vid=ce5f9a58-3c61-4cf1-b884-1afdadc92d82"},"vehicle_type_id":"4","last_reported":1701723945,"current_range_meters":24800,"station_id":"ce4bgrh2rcd13ifvqc8g","pricing_plan_id":"free"},{"bike_id":"e17fa2dd-61a1-475d-815f-52b0a210b6c0","system_id":"levelo_inurba_marseille","lat":43.308012,"lon":5.381511,"is_reserved":false,"is_disabled":false,"rental_uris":{"android":"levelo://app?vid=e17fa2dd-61a1-475d-815f-52b0a210b6c0","ios":"levelo://app?vid=e17fa2dd-61a1-475d-815f-52b0a210b6c0"},"vehicle_type_id":"4","last_reported":1701723945,"current_range_meters":3200,"station_id":"ce4bgt12rcd13ifvqce0","pricing_plan_id":"free"},{"bike_id":"28d74877-0384-4183-9e38-4ab6bb4d6897","system_id":"levelo_inurba_marseille","lat":43.308012,"lon":5.381511,"is_reserved":false,"is_disabled":false,"rental_uris":{"android":"levelo://app?vid=28d74877-0384-4183-9e38-4ab6bb4d6897","ios":"levelo://app?vid=28d74877-0384-4183-9e38-4ab6bb4d6897"},"vehicle_type_id":"4","last_reported":1701723945,"current_range_meters":26800,"station_id":"ce4bgt12rcd13ifvqce0","pricing_plan_id":"free"},{"bike_id":"e65be49e-b62e-410b-9e1f-fbf364c66464","system_id":"levelo_inurba_marseille","lat":43.308012,"lon":5.381511,"is_reserved":false,"is_disabled":false,"rental_uris":{"android":"levelo://app?vid=e65be49e-b62e-410b-9e1f-fbf364c66464","ios":"levelo://app?vid=e65be49e-b62e-410b-9e1f-fbf364c66464"},"vehicle_type_id":"4","last_reported":1701723945,"current_range_meters":18000,"station_id":"ce4bgt12rcd13ifvqce0","pricing_plan_id":"free"},{"bike_id":"349dfaee-3ed5-42be-8292-0ab2ba4552e5","system_id":"levelo_inurba_marseille","lat":43.324771,"lon":5.36557,"is_reserved":false,"is_disabled":false,"rental_uris":{"android":"levelo://app?vid=349dfaee-3ed5-42be-8292-0ab2ba4552e5","ios":"levelo://app?vid=349dfaee-3ed5-42be-8292-0ab2ba4552e5"},"vehicle_type_id":"4","last_reported":1701723945,"current_range_meters":29600,"station_id":"ce4bhs12rcd13ifvqhvg","pricing_plan_id":"free"},{"bike_id":"02730385-29e4-40b8-ac4c-ff326b96dadd","system_id":"levelo_inurba_marseille","lat":43.324771,"lon":5.36557,"is_reserved":false,"is_disabled":false,"rental_uris":{"android":"levelo://app?vid=02730385-29e4-40b8-ac4c-ff326b96dadd","ios":"levelo://app?vid=02730385-29e4-40b8-ac4c-ff326b96dadd"},"vehicle_type_id":"4","last_reported":1701723945,"current_range_meters":17600,"station_id":"ce4bhs12rcd13ifvqhvg","pricing_plan_id":"free"},{"bike_id":"6040ac9a-cd3b-4d53-8520-9fa5b5b4cd6b","system_id":"levelo_inurba_marseille","lat":43.324771,"lon":5.36557,"is_reserved":false,"is_disabled":false,"rental_uris":{"android":"levelo://app?vid=6040ac9a-cd3b-4d53-8520-9fa5b5b4cd6b","ios":"levelo://app?vid=6040ac9a-cd3b-4d53-8520-9fa5b5b4cd6b"},"vehicle_type_id":"4","last_reported":1701723945,"current_range_meters":31200,"station_id":"ce4bhs12rcd13ifvqhvg","pricing_plan_id":"free"},{"bike_id":"2275aca5-3158-4c2c-8022-ca5d2714bc86","system_id":"levelo_inurba_marseille","lat":43.319997,"lon":5.381594,"is_reserved":false,"is_disabled":false,"rental_uris":{"android":"levelo://app?vid=2275aca5-3158-4c2c-8022-ca5d2714bc86","ios":"levelo://app?vid=2275aca5-3158-4c2c-8022-ca5d2714bc86"},"vehicle_type_id":"4","last_reported":1701723945,"current_range_meters":6400,"station_id":"ce4bhr12rcd13ifvqhpg","pricing_plan_id":"free"},{"bike_id":"9fdb7f97-586d-42d2-befd-15216ba2e422","system_id":"levelo_inurba_marseille","lat":43.31183,"lon":5.38523,"is_reserved":false,"is_disabled":false,"rental_uris":{"android":"levelo://app?vid=9fdb7f97-586d-42d2-befd-15216ba2e422","ios":"levelo://app?vid=9fdb7f97-586d-42d2-befd-15216ba2e422"},"vehicle_type_id":"4","last_reported":1701723945,"current_range_meters":0,"station_id":"","pricing_plan_id":"free"},{"bike_id":"0112c717-e2d4-4c5f-a06b-1f618f6213e4","system_id":"levelo_inurba_marseille","lat":43.29932,"lon":5.36551,"is_reserved":false,"is_disabled":false,"rental_uris":{"android":"levelo://app?vid=0112c717-e2d4-4c5f-a06b-1f618f6213e4","ios":"levelo://app?vid=0112c717-e2d4-4c5f-a06b-1f618f6213e4"},"vehicle_type_id":"4","last_reported":1701723945,"current_range_meters":23200,"station_id":"ce4bgm92rcd13ifvqbr0","pricing_plan_id":"free"},{"bike_id":"47321b85-2ddb-4fa3-8d13-00bea002eae7","system_id":"levelo_inurba_marseille","lat":43.322872,"lon":5.382756,"is_reserved":false,"is_disabled":false,"rental_uris":{"android":"levelo://app?vid=47321b85-2ddb-4fa3-8d13-00bea002eae7","ios":"levelo://app?vid=47321b85-2ddb-4fa3-8d13-00bea002eae7"},"vehicle_type_id":"4","last_reported":1701723945,"current_range_meters":28400,"station_id":"ce4bhr12rcd13ifvqhqg","pricing_plan_id":"free"},{"bike_id":"cb8f4c3a-456c-4d50-8ea3-298e057d608b","system_id":"levelo_inurba_marseille","lat":43.322872,"lon":5.382756,"is_reserved":false,"is_disabled":false,"rental_uris":{"android":"levelo://app?vid=cb8f4c3a-456c-4d50-8ea3-298e057d608b","ios":"levelo://app?vid=cb8f4c3a-456c-4d50-8ea3-298e057d608b"},"vehicle_type_id":"4","last_reported":1701723945,"current_range_meters":30800,"station_id":"ce4bhr12rcd13ifvqhqg","pricing_plan_id":"free"},{"bike_id":"b4879a0b-f87c-476b-ba9f-57011b8686d8","system_id":"levelo_inurba_marseille","lat":43.298218,"lon":5.374416,"is_reserved":false,"is_disabled":false,"rental_uris":{"android":"levelo://app?vid=b4879a0b-f87c-476b-ba9f-57011b8686d8","ios":"levelo://app?vid=b4879a0b-f87c-476b-ba9f-57011b8686d8"},"vehicle_type_id":"4","last_reported":1701723945,"current_range_meters":20000,"station_id":"","pricing_plan_id":"free"},{"bike_id":"f8284d70-c5e7-490d-9c5a-74a62dd38512","system_id":"levelo_inurba_marseille","lat":43.328264,"lon":5.366734,"is_reserved":false,"is_disabled":false,"rental_uris":{"android":"levelo://app?vid=f8284d70-c5e7-490d-9c5a-74a62dd38512","ios":"levelo://app?vid=f8284d70-c5e7-490d-9c5a-74a62dd38512"},"vehicle_type_id":"4","last_reported":1701723945,"current_range_meters":31200,"station_id":"ce4bhs92rcd13ifvqi0g","pricing_plan_id":"free"},{"bike_id":"c6ce3b8f-2076-4eb8-b7d5-d674dca50e8e","system_id":"levelo_inurba_marseille","lat":43.32832,"lon":5.36676,"is_reserved":false,"is_disabled":false,"rental_uris":{"android":"levelo://app?vid=c6ce3b8f-2076-4eb8-b7d5-d674dca50e8e","ios":"levelo://app?vid=c6ce3b8f-2076-4eb8-b7d5-d674dca50e8e"},"vehicle_type_id":"4","last_reported":1701723945,"current_range_meters":5200,"station_id":"ce4bhs92rcd13ifvqi0g","pricing_plan_id":"free"},{"bike_id":"78c463ab-e51d-4743-96d4-f054e6423ba8","system_id":"levelo_inurba_marseille","lat":43.297163,"lon":5.365866,"is_reserved":false,"is_disabled":false,"rental_uris":{"android":"levelo://app?vid=78c463ab-e51d-4743-96d4-f054e6423ba8","ios":"levelo://app?vid=78c463ab-e51d-4743-96d4-f054e6423ba8"},"vehicle_type_id":"4","last_reported":1701723945,"current_range_meters":4800,"station_id":"ce4bgn12rcd13ifvqbt0","pricing_plan_id":"free"},{"bike_id":"92862562-b240-4732-b487-fff0f7a628b1","system_id":"levelo_inurba_marseille","lat":43.297163,"lon":5.365866,"is_reserved":false,"is_disabled":false,"rental_uris":{"android":"levelo://app?vid=92862562-b240-4732-b487-fff0f7a628b1","ios":"levelo://app?vid=92862562-b240-4732-b487-fff0f7a628b1"},"vehicle_type_id":"4","last_reported":1701723945,"current_range_meters":13200,"station_id":"ce4bgn12rcd13ifvqbt0","pricing_plan_id":"free"},{"bike_id":"a34827ea-edb1-4f3b-9e32-015b11b73f4d","system_id":"levelo_inurba_marseille","lat":43.297163,"lon":5.365866,"is_reserved":false,"is_disabled":false,"rental_uris":{"android":"levelo://app?vid=a34827ea-edb1-4f3b-9e32-015b11b73f4d","ios":"levelo://app?vid=a34827ea-edb1-4f3b-9e32-015b11b73f4d"},"vehicle_type_id":"4","last_reported":1701723945,"current_range_meters":24000,"station_id":"ce4bgn12rcd13ifvqbt0","pricing_plan_id":"free"},{"bike_id":"eb6e7f47-d703-40d3-b365-ef330215af35","system_id":"levelo_inurba_marseille","lat":43.29598,"lon":5.36804,"is_reserved":false,"is_disabled":false,"rental_uris":{"android":"levelo://app?vid=eb6e7f47-d703-40d3-b365-ef330215af35","ios":"levelo://app?vid=eb6e7f47-d703-40d3-b365-ef330215af35"},"vehicle_type_id":"4","last_reported":1701723945,"current_range_meters":27600,"station_id":"","pricing_plan_id":"free"},{"bike_id":"71448ccd-9d25-4704-b48a-d448c4dbcd14","system_id":"levelo_inurba_marseille","lat":43.295966,"lon":5.367942,"is_reserved":false,"is_disabled":false,"rental_uris":{"android":"levelo://app?vid=71448ccd-9d25-4704-b48a-d448c4dbcd14","ios":"levelo://app?vid=71448ccd-9d25-4704-b48a-d448c4dbcd14"},"vehicle_type_id":"4","last_reported":1701723945,"current_range_meters":8000,"station_id":"","pricing_plan_id":"free"},{"bike_id":"e12c60bb-aa1b-4852-a973-a8aa2b6dc6fc","system_id":"levelo_inurba_marseille","lat":43.296131,"lon":5.370773,"is_reserved":false,"is_disabled":false,"rental_uris":{"android":"levelo://app?vid=e12c60bb-aa1b-4852-a973-a8aa2b6dc6fc","ios":"levelo://app?vid=e12c60bb-aa1b-4852-a973-a8aa2b6dc6fc"},"vehicle_type_id":"4","last_reported":1701723945,"current_range_meters":18000,"station_id":"ce4bgnh2rcd13ifvqc0g","pricing_plan_id":"free"},{"bike_id":"eaa0e7e7-2390-47fa-909b-7b240952cbef","system_id":"levelo_inurba_marseille","lat":43.316538,"lon":5.38954,"is_reserved":false,"is_disabled":false,"rental_uris":{"android":"levelo://app?vid=eaa0e7e7-2390-47fa-909b-7b240952cbef","ios":"levelo://app?vid=eaa0e7e7-2390-47fa-909b-7b240952cbef"},"vehicle_type_id":"4","last_reported":1701723945,"current_range_meters":15600,"station_id":"","pricing_plan_id":"free"},{"bike_id":"df914548-d996-4a74-a7a5-c358bc8a1f8c","system_id":"levelo_inurba_marseille","lat":43.29573,"lon":5.367355,"is_reserved":false,"is_disabled":false,"rental_uris":{"android":"levelo://app?vid=df914548-d996-4a74-a7a5-c358bc8a1f8c","ios":"levelo://app?vid=df914548-d996-4a74-a7a5-c358bc8a1f8c"},"vehicle_type_id":"4","last_reported":1701723945,"current_range_meters":20800,"station_id":"ce4bgph2rcd13ifvqc2g","pricing_plan_id":"free"},{"bike_id":"1fd32647-2ae8-40e6-b39f-09b46bfcb5f7","system_id":"levelo_inurba_marseille","lat":43.3176,"lon":5.39002,"is_reserved":false,"is_disabled":false,"rental_uris":{"android":"levelo://app?vid=1fd32647-2ae8-40e6-b39f-09b46bfcb5f7","ios":"levelo://app?vid=1fd32647-2ae8-40e6-b39f-09b46bfcb5f7"},"vehicle_type_id":"4","last_reported":1701723945,"current_range_meters":14000,"station_id":"ce4bhqp2rcd13ifvqhng","pricing_plan_id":"free"},{"bike_id":"ba56007f-9a72-4563-801c-1a936cc6bc3c","system_id":"levelo_inurba_marseille","lat":43.317557,"lon":5.390173,"is_reserved":false,"is_disabled":false,"rental_uris":{"android":"levelo://app?vid=ba56007f-9a72-4563-801c-1a936cc6bc3c","ios":"levelo://app?vid=ba56007f-9a72-4563-801c-1a936cc6bc3c"},"vehicle_type_id":"4","last_reported":1701723945,"current_range_meters":24000,"station_id":"ce4bhqp2rcd13ifvqhng","pricing_plan_id":"free"},{"bike_id":"70c33660-bf74-403c-a0ae-384880103157","system_id":"levelo_inurba_marseille","lat":43.317557,"lon":5.390173,"is_reserved":false,"is_disabled":false,"rental_uris":{"android":"levelo://app?vid=70c33660-bf74-403c-a0ae-384880103157","ios":"levelo://app?vid=70c33660-bf74-403c-a0ae-384880103157"},"vehicle_type_id":"4","last_reported":1701723945,"current_range_meters":28000,"station_id":"ce4bhqp2rcd13ifvqhng","pricing_plan_id":"free"},{"bike_id":"cbdb1b26-1b7b-4316-9220-24d1960a98cf","system_id":"levelo_inurba_marseille","lat":43.317551,"lon":5.390217,"is_reserved":false,"is_disabled":false,"rental_uris":{"android":"levelo://app?vid=cbdb1b26-1b7b-4316-9220-24d1960a98cf","ios":"levelo://app?vid=cbdb1b26-1b7b-4316-9220-24d1960a98cf"},"vehicle_type_id":"4","last_reported":1701723945,"current_range_meters":31200,"station_id":"ce4bhqp2rcd13ifvqhng","pricing_plan_id":"free"},{"bike_id":"f6fcc9e0-fad1-4765-8be2-dd378c148933","system_id":"levelo_inurba_marseille","lat":43.31762,"lon":5.3902,"is_reserved":false,"is_disabled":false,"rental_uris":{"android":"levelo://app?vid=f6fcc9e0-fad1-4765-8be2-dd378c148933","ios":"levelo://app?vid=f6fcc9e0-fad1-4765-8be2-dd378c148933"},"vehicle_type_id":"4","last_reported":1701723945,"current_range_meters":22400,"station_id":"ce4bhqp2rcd13ifvqhng","pricing_plan_id":"free"},{"bike_id":"c6c5acc0-3971-43b9-ba4d-33c881a5a76e","system_id":"levelo_inurba_marseille","lat":43.317634,"lon":5.390244,"is_reserved":false,"is_disabled":false,"rental_uris":{"android":"levelo://app?vid=c6c5acc0-3971-43b9-ba4d-33c881a5a76e","ios":"levelo://app?vid=c6c5acc0-3971-43b9-ba4d-33c881a5a76e"},"vehicle_type_id":"4","last_reported":1701723945,"current_range_meters":30000,"station_id":"ce4bhqp2rcd13ifvqhng","pricing_plan_id":"free"},{"bike_id":"99962a56-8f9a-4c28-8a51-bb2e735c8be2","system_id":"levelo_inurba_marseille","lat":43.304278,"lon":5.388868,"is_reserved":false,"is_disabled":false,"rental_uris":{"android":"levelo://app?vid=99962a56-8f9a-4c28-8a51-bb2e735c8be2","ios":"levelo://app?vid=99962a56-8f9a-4c28-8a51-bb2e735c8be2"},"vehicle_type_id":"4","last_reported":1701723945,"current_range_meters":26400,"station_id":"ce4bgk12rcd13ifvqbi0","pricing_plan_id":"free"},{"bike_id":"a2c1ebf7-4596-4615-a203-279cb621f6e8","system_id":"levelo_inurba_marseille","lat":43.308012,"lon":5.381511,"is_reserved":false,"is_disabled":false,"rental_uris":{"android":"levelo://app?vid=a2c1ebf7-4596-4615-a203-279cb621f6e8","ios":"levelo://app?vid=a2c1ebf7-4596-4615-a203-279cb621f6e8"},"vehicle_type_id":"4","last_reported":1701723945,"current_range_meters":4800,"station_id":"ce4bgt12rcd13ifvqce0","pricing_plan_id":"free"},{"bike_id":"2bb83aa6-cfc8-4554-a15e-277f77c42f13","system_id":"levelo_inurba_marseille","lat":43.299724,"lon":5.384848,"is_reserved":false,"is_disabled":false,"rental_uris":{"android":"levelo://app?vid=2bb83aa6-cfc8-4554-a15e-277f77c42f13","ios":"levelo://app?vid=2bb83aa6-cfc8-4554-a15e-277f77c42f13"},"vehicle_type_id":"4","last_reported":1701723945,"current_range_meters":24000,"station_id":"ce4bgj92rcd13ifvqbd0","pricing_plan_id":"free"},{"bike_id":"81cbf789-5927-4004-970c-5f75701c2678","system_id":"levelo_inurba_marseille","lat":43.29602,"lon":5.381084,"is_reserved":false,"is_disabled":false,"rental_uris":{"android":"levelo://app?vid=81cbf789-5927-4004-970c-5f75701c2678","ios":"levelo://app?vid=81cbf789-5927-4004-970c-5f75701c2678"},"vehicle_type_id":"4","last_reported":1701723945,"current_range_meters":14400,"station_id":"ce4bgl12rcd13ifvqbo0","pricing_plan_id":"free"},{"bike_id":"c5a16410-2395-4e47-b2de-7795370bfcad","system_id":"levelo_inurba_marseille","lat":43.293259,"lon":5.371586,"is_reserved":false,"is_disabled":false,"rental_uris":{"android":"levelo://app?vid=c5a16410-2395-4e47-b2de-7795370bfcad","ios":"levelo://app?vid=c5a16410-2395-4e47-b2de-7795370bfcad"},"vehicle_type_id":"4","last_reported":1701723945,"current_range_meters":21200,"station_id":"ce4bgh92rcd13ifvqb40","pricing_plan_id":"free"},{"bike_id":"5fa34b7c-006a-4383-8f79-2180832c7658","system_id":"levelo_inurba_marseille","lat":43.300852,"lon":5.390859,"is_reserved":false,"is_disabled":false,"rental_uris":{"android":"levelo://app?vid=5fa34b7c-006a-4383-8f79-2180832c7658","ios":"levelo://app?vid=5fa34b7c-006a-4383-8f79-2180832c7658"},"vehicle_type_id":"4","last_reported":1701723945,"current_range_meters":19200,"station_id":"ce4bh192rcd13ifvqdb0","pricing_plan_id":"free"},{"bike_id":"3db1934a-e896-49da-80b4-93211200d326","system_id":"levelo_inurba_marseille","lat":43.29201,"lon":5.35809,"is_reserved":false,"is_disabled":false,"rental_uris":{"android":"levelo://app?vid=3db1934a-e896-49da-80b4-93211200d326","ios":"levelo://app?vid=3db1934a-e896-49da-80b4-93211200d326"},"vehicle_type_id":"4","last_reported":1701723945,"current_range_meters":24800,"station_id":"ce4bhb12rcd13ifvqel0","pricing_plan_id":"free"},{"bike_id":"343929d1-b67b-416d-b676-94c2e7837d22","system_id":"levelo_inurba_marseille","lat":43.291995,"lon":5.357955,"is_reserved":false,"is_disabled":false,"rental_uris":{"android":"levelo://app?vid=343929d1-b67b-416d-b676-94c2e7837d22","ios":"levelo://app?vid=343929d1-b67b-416d-b676-94c2e7837d22"},"vehicle_type_id":"4","last_reported":1701723945,"current_range_meters":25600,"station_id":"ce4bhb12rcd13ifvqel0","pricing_plan_id":"free"},{"bike_id":"191a7774-cf16-47b2-abfa-5049722c78c6","system_id":"levelo_inurba_marseille","lat":43.309038,"lon":5.396546,"is_reserved":false,"is_disabled":false,"rental_uris":{"android":"levelo://app?vid=191a7774-cf16-47b2-abfa-5049722c78c6","ios":"levelo://app?vid=191a7774-cf16-47b2-abfa-5049722c78c6"},"vehicle_type_id":"4","last_reported":1701723945,"current_range_meters":4400,"station_id":"ce4bh012rcd13ifvqcv0","pricing_plan_id":"free"},{"bike_id":"d03c2969-8fac-4de7-8c10-81f4110e927e","system_id":"levelo_inurba_marseille","lat":43.31326,"lon":5.39686,"is_reserved":false,"is_disabled":false,"rental_uris":{"android":"levelo://app?vid=d03c2969-8fac-4de7-8c10-81f4110e927e","ios":"levelo://app?vid=d03c2969-8fac-4de7-8c10-81f4110e927e"},"vehicle_type_id":"4","last_reported":1701723945,"current_range_meters":21600,"station_id":"ce4bgvp2rcd13ifvqcu0","pricing_plan_id":"free"},{"bike_id":"5c7fbe37-874b-4e68-bfbb-5e06c304c2ce","system_id":"levelo_inurba_marseille","lat":43.3133,"lon":5.39689,"is_reserved":false,"is_disabled":false,"rental_uris":{"android":"levelo://app?vid=5c7fbe37-874b-4e68-bfbb-5e06c304c2ce","ios":"levelo://app?vid=5c7fbe37-874b-4e68-bfbb-5e06c304c2ce"},"vehicle_type_id":"4","last_reported":1701723945,"current_range_meters":2400,"station_id":"ce4bgvp2rcd13ifvqcu0","pricing_plan_id":"free"},{"bike_id":"32a878b2-dd3d-4c40-aa5a-8513930b94e4","system_id":"levelo_inurba_marseille","lat":43.3133,"lon":5.3969,"is_reserved":false,"is_disabled":false,"rental_uris":{"android":"levelo://app?vid=32a878b2-dd3d-4c40-aa5a-8513930b94e4","ios":"levelo://app?vid=32a878b2-dd3d-4c40-aa5a-8513930b94e4"},"vehicle_type_id":"4","last_reported":1701723945,"current_range_meters":5600,"station_id":"ce4bgvp2rcd13ifvqcu0","pricing_plan_id":"free"},{"bike_id":"38ba266b-9fbb-4293-86e9-00105520b41a","system_id":"levelo_inurba_marseille","lat":43.313291,"lon":5.396838,"is_reserved":false,"is_disabled":false,"rental_uris":{"android":"levelo://app?vid=38ba266b-9fbb-4293-86e9-00105520b41a","ios":"levelo://app?vid=38ba266b-9fbb-4293-86e9-00105520b41a"},"vehicle_type_id":"4","last_reported":1701723945,"current_range_meters":23200,"station_id":"ce4bgvp2rcd13ifvqcu0","pricing_plan_id":"free"},{"bike_id":"dc56a9e7-58bf-47ee-aa81-16af6739e576","system_id":"levelo_inurba_marseille","lat":43.309047,"lon":5.396551,"is_reserved":false,"is_disabled":false,"rental_uris":{"android":"levelo://app?vid=dc56a9e7-58bf-47ee-aa81-16af6739e576","ios":"levelo://app?vid=dc56a9e7-58bf-47ee-aa81-16af6739e576"},"vehicle_type_id":"4","last_reported":1701723945,"current_range_meters":6000,"station_id":"ce4bh012rcd13ifvqcv0","pricing_plan_id":"free"},{"bike_id":"3a87205f-5105-4b99-b48b-b7b10eb36012","system_id":"levelo_inurba_marseille","lat":43.313291,"lon":5.396838,"is_reserved":false,"is_disabled":false,"rental_uris":{"android":"levelo://app?vid=3a87205f-5105-4b99-b48b-b7b10eb36012","ios":"levelo://app?vid=3a87205f-5105-4b99-b48b-b7b10eb36012"},"vehicle_type_id":"4","last_reported":1701723945,"current_range_meters":7200,"station_id":"ce4bgvp2rcd13ifvqcu0","pricing_plan_id":"free"},{"bike_id":"9854c0a3-b8dd-45af-8c80-d74addc75b65","system_id":"levelo_inurba_marseille","lat":43.290779,"lon":5.371482,"is_reserved":false,"is_disabled":false,"rental_uris":{"android":"levelo://app?vid=9854c0a3-b8dd-45af-8c80-d74addc75b65","ios":"levelo://app?vid=9854c0a3-b8dd-45af-8c80-d74addc75b65"},"vehicle_type_id":"4","last_reported":1701723945,"current_range_meters":4800,"station_id":"ce4bh5p2rcd13ifvqe4g","pricing_plan_id":"free"},{"bike_id":"0d18b814-62cc-48f7-b144-dd25ce6e84da","system_id":"levelo_inurba_marseille","lat":43.302008,"lon":5.394694,"is_reserved":false,"is_disabled":false,"rental_uris":{"android":"levelo://app?vid=0d18b814-62cc-48f7-b144-dd25ce6e84da","ios":"levelo://app?vid=0d18b814-62cc-48f7-b144-dd25ce6e84da"},"vehicle_type_id":"4","last_reported":1701723945,"current_range_meters":26000,"station_id":"ce4bh0p2rcd13ifvqd70","pricing_plan_id":"free"},{"bike_id":"b7aeffb7-62eb-4596-8e64-9a4750dd2ead","system_id":"levelo_inurba_marseille","lat":43.290624,"lon":5.359245,"is_reserved":false,"is_disabled":false,"rental_uris":{"android":"levelo://app?vid=b7aeffb7-62eb-4596-8e64-9a4750dd2ead","ios":"levelo://app?vid=b7aeffb7-62eb-4596-8e64-9a4750dd2ead"},"vehicle_type_id":"4","last_reported":1701723945,"current_range_meters":18800,"station_id":"ce4bha92rcd13ifvqeg0","pricing_plan_id":"free"},{"bike_id":"51cee309-9d4f-43e2-91c5-561206d18085","system_id":"levelo_inurba_marseille","lat":43.289184,"lon":5.366408,"is_reserved":false,"is_disabled":false,"rental_uris":{"android":"levelo://app?vid=51cee309-9d4f-43e2-91c5-561206d18085","ios":"levelo://app?vid=51cee309-9d4f-43e2-91c5-561206d18085"},"vehicle_type_id":"4","last_reported":1701723945,"current_range_meters":21600,"station_id":"ce4bhap2rcd13ifvqek0","pricing_plan_id":"free"},{"bike_id":"f290b120-0619-4247-a672-b5fcbcf02293","system_id":"levelo_inurba_marseille","lat":43.289184,"lon":5.366408,"is_reserved":false,"is_disabled":false,"rental_uris":{"android":"levelo://app?vid=f290b120-0619-4247-a672-b5fcbcf02293","ios":"levelo://app?vid=f290b120-0619-4247-a672-b5fcbcf02293"},"vehicle_type_id":"4","last_reported":1701723945,"current_range_meters":27200,"station_id":"ce4bhap2rcd13ifvqek0","pricing_plan_id":"free"},{"bike_id":"44ee3aee-9ccd-4928-940c-6bb9f5121e47","system_id":"levelo_inurba_marseille","lat":43.295169,"lon":5.390426,"is_reserved":false,"is_disabled":false,"rental_uris":{"android":"levelo://app?vid=44ee3aee-9ccd-4928-940c-6bb9f5121e47","ios":"levelo://app?vid=44ee3aee-9ccd-4928-940c-6bb9f5121e47"},"vehicle_type_id":"4","last_reported":1701723945,"current_range_meters":19200,"station_id":"ce4bh3p2rcd13ifvqdp0","pricing_plan_id":"free"},{"bike_id":"edd35089-c20c-40cb-8467-8f2c3156c63e","system_id":"levelo_inurba_marseille","lat":43.292644,"lon":5.384257,"is_reserved":false,"is_disabled":false,"rental_uris":{"android":"levelo://app?vid=edd35089-c20c-40cb-8467-8f2c3156c63e","ios":"levelo://app?vid=edd35089-c20c-40cb-8467-8f2c3156c63e"},"vehicle_type_id":"4","last_reported":1701723945,"current_range_meters":12800,"station_id":"ce4bh692rcd13ifvqea0","pricing_plan_id":"free"},{"bike_id":"505bfb92-9683-4ee1-ae20-3981b68e5dfa","system_id":"levelo_inurba_marseille","lat":43.292642,"lon":5.384254,"is_reserved":false,"is_disabled":false,"rental_uris":{"android":"levelo://app?vid=505bfb92-9683-4ee1-ae20-3981b68e5dfa","ios":"levelo://app?vid=505bfb92-9683-4ee1-ae20-3981b68e5dfa"},"vehicle_type_id":"4","last_reported":1701723945,"current_range_meters":21600,"station_id":"ce4bh692rcd13ifvqea0","pricing_plan_id":"free"},{"bike_id":"2601d684-81d2-40a7-ae7e-6a09ba2bf386","system_id":"levelo_inurba_marseille","lat":43.304274,"lon":5.397513,"is_reserved":false,"is_disabled":false,"rental_uris":{"android":"levelo://app?vid=2601d684-81d2-40a7-ae7e-6a09ba2bf386","ios":"levelo://app?vid=2601d684-81d2-40a7-ae7e-6a09ba2bf386"},"vehicle_type_id":"4","last_reported":1701723945,"current_range_meters":24800,"station_id":"ce4bh092rcd13ifvqd20","pricing_plan_id":"free"},{"bike_id":"52c89980-4e13-4d81-806c-27d83c123f71","system_id":"levelo_inurba_marseille","lat":43.304296,"lon":5.397513,"is_reserved":false,"is_disabled":false,"rental_uris":{"android":"levelo://app?vid=52c89980-4e13-4d81-806c-27d83c123f71","ios":"levelo://app?vid=52c89980-4e13-4d81-806c-27d83c123f71"},"vehicle_type_id":"4","last_reported":1701723945,"current_range_meters":15600,"station_id":"ce4bh092rcd13ifvqd20","pricing_plan_id":"free"},{"bike_id":"777da234-5c08-4d18-bc53-ff5b3fbe2a72","system_id":"levelo_inurba_marseille","lat":43.290103,"lon":5.356114,"is_reserved":false,"is_disabled":false,"rental_uris":{"android":"levelo://app?vid=777da234-5c08-4d18-bc53-ff5b3fbe2a72","ios":"levelo://app?vid=777da234-5c08-4d18-bc53-ff5b3fbe2a72"},"vehicle_type_id":"4","last_reported":1701723945,"current_range_meters":29600,"station_id":"ce4bhb92rcd13ifvqen0","pricing_plan_id":"free"},{"bike_id":"45278979-3d35-4cf8-afa4-740305960434","system_id":"levelo_inurba_marseille","lat":43.312609,"lon":5.401662,"is_reserved":false,"is_disabled":false,"rental_uris":{"android":"levelo://app?vid=45278979-3d35-4cf8-afa4-740305960434","ios":"levelo://app?vid=45278979-3d35-4cf8-afa4-740305960434"},"vehicle_type_id":"4","last_reported":1701723945,"current_range_meters":8000,"station_id":"ce4bh092rcd13ifvqd30","pricing_plan_id":"free"},{"bike_id":"dde14e32-7317-4630-bdcd-e591ba48777c","system_id":"levelo_inurba_marseille","lat":43.288527,"lon":5.35854,"is_reserved":false,"is_disabled":false,"rental_uris":{"android":"levelo://app?vid=dde14e32-7317-4630-bdcd-e591ba48777c","ios":"levelo://app?vid=dde14e32-7317-4630-bdcd-e591ba48777c"},"vehicle_type_id":"4","last_reported":1701723945,"current_range_meters":20800,"station_id":"ce4bhb12rcd13ifvqem0","pricing_plan_id":"free"},{"bike_id":"1b1d26a1-4d33-4893-84dc-32777c5829fa","system_id":"levelo_inurba_marseille","lat":43.288527,"lon":5.358483,"is_reserved":false,"is_disabled":false,"rental_uris":{"android":"levelo://app?vid=1b1d26a1-4d33-4893-84dc-32777c5829fa","ios":"levelo://app?vid=1b1d26a1-4d33-4893-84dc-32777c5829fa"},"vehicle_type_id":"4","last_reported":1701723945,"current_range_meters":25200,"station_id":"ce4bhb12rcd13ifvqem0","pricing_plan_id":"free"},{"bike_id":"799c0d1d-4dbb-441f-8418-b8e953994f7d","system_id":"levelo_inurba_marseille","lat":43.312609,"lon":5.401662,"is_reserved":false,"is_disabled":false,"rental_uris":{"android":"levelo://app?vid=799c0d1d-4dbb-441f-8418-b8e953994f7d","ios":"levelo://app?vid=799c0d1d-4dbb-441f-8418-b8e953994f7d"},"vehicle_type_id":"4","last_reported":1701723945,"current_range_meters":25600,"station_id":"ce4bh092rcd13ifvqd30","pricing_plan_id":"free"},{"bike_id":"b1da507f-59bc-4bfa-9de7-dd18b0d37739","system_id":"levelo_inurba_marseille","lat":43.33751,"lon":5.37442,"is_reserved":false,"is_disabled":false,"rental_uris":{"android":"levelo://app?vid=b1da507f-59bc-4bfa-9de7-dd18b0d37739","ios":"levelo://app?vid=b1da507f-59bc-4bfa-9de7-dd18b0d37739"},"vehicle_type_id":"4","last_reported":1701723945,"current_range_meters":30800,"station_id":"","pricing_plan_id":"free"},{"bike_id":"2fbea006-0d22-445c-bfc1-d379dcddc1c1","system_id":"levelo_inurba_marseille","lat":43.337516,"lon":5.374718,"is_reserved":false,"is_disabled":false,"rental_uris":{"android":"levelo://app?vid=2fbea006-0d22-445c-bfc1-d379dcddc1c1","ios":"levelo://app?vid=2fbea006-0d22-445c-bfc1-d379dcddc1c1"},"vehicle_type_id":"4","last_reported":1701723945,"current_range_meters":31200,"station_id":"","pricing_plan_id":"free"},{"bike_id":"61e94894-252e-4e6e-9735-b09eceabfad5","system_id":"levelo_inurba_marseille","lat":43.33756,"lon":5.374495,"is_reserved":false,"is_disabled":false,"rental_uris":{"android":"levelo://app?vid=61e94894-252e-4e6e-9735-b09eceabfad5","ios":"levelo://app?vid=61e94894-252e-4e6e-9735-b09eceabfad5"},"vehicle_type_id":"4","last_reported":1701723945,"current_range_meters":31200,"station_id":"","pricing_plan_id":"free"},{"bike_id":"cfcc4e2b-9c60-411b-ba5e-e4c53a625256","system_id":"levelo_inurba_marseille","lat":43.33756,"lon":5.37457,"is_reserved":false,"is_disabled":false,"rental_uris":{"android":"levelo://app?vid=cfcc4e2b-9c60-411b-ba5e-e4c53a625256","ios":"levelo://app?vid=cfcc4e2b-9c60-411b-ba5e-e4c53a625256"},"vehicle_type_id":"4","last_reported":1701723945,"current_range_meters":30800,"station_id":"","pricing_plan_id":"free"},{"bike_id":"1924c2d2-2d71-4c5e-882f-3bbcc07fa56e","system_id":"levelo_inurba_marseille","lat":43.306412,"lon":5.401035,"is_reserved":false,"is_disabled":false,"rental_uris":{"android":"levelo://app?vid=1924c2d2-2d71-4c5e-882f-3bbcc07fa56e","ios":"levelo://app?vid=1924c2d2-2d71-4c5e-882f-3bbcc07fa56e"},"vehicle_type_id":"4","last_reported":1701723945,"current_range_meters":27200,"station_id":"ce4bh112rcd13ifvqda0","pricing_plan_id":"free"},{"bike_id":"d3fac186-69ad-442c-9ac5-0cdeb228e2a8","system_id":"levelo_inurba_marseille","lat":43.30642,"lon":5.401031,"is_reserved":false,"is_disabled":false,"rental_uris":{"android":"levelo://app?vid=d3fac186-69ad-442c-9ac5-0cdeb228e2a8","ios":"levelo://app?vid=d3fac186-69ad-442c-9ac5-0cdeb228e2a8"},"vehicle_type_id":"4","last_reported":1701723945,"current_range_meters":8000,"station_id":"ce4bh112rcd13ifvqda0","pricing_plan_id":"free"},{"bike_id":"5e8b1923-7c66-4dc9-811e-435ff45ba23b","system_id":"levelo_inurba_marseille","lat":43.30642,"lon":5.401031,"is_reserved":false,"is_disabled":false,"rental_uris":{"android":"levelo://app?vid=5e8b1923-7c66-4dc9-811e-435ff45ba23b","ios":"levelo://app?vid=5e8b1923-7c66-4dc9-811e-435ff45ba23b"},"vehicle_type_id":"4","last_reported":1701723945,"current_range_meters":27600,"station_id":"ce4bh112rcd13ifvqda0","pricing_plan_id":"free"},{"bike_id":"17db11e9-ff6b-4265-a772-9fca0f8a787a","system_id":"levelo_inurba_marseille","lat":43.33774,"lon":5.37447,"is_reserved":false,"is_disabled":false,"rental_uris":{"android":"levelo://app?vid=17db11e9-ff6b-4265-a772-9fca0f8a787a","ios":"levelo://app?vid=17db11e9-ff6b-4265-a772-9fca0f8a787a"},"vehicle_type_id":"4","last_reported":1701723945,"current_range_meters":28400,"station_id":"","pricing_plan_id":"free"},{"bike_id":"d9c132aa-0959-4418-a89e-02e41e655698","system_id":"levelo_inurba_marseille","lat":43.28727,"lon":5.36078,"is_reserved":false,"is_disabled":false,"rental_uris":{"android":"levelo://app?vid=d9c132aa-0959-4418-a89e-02e41e655698","ios":"levelo://app?vid=d9c132aa-0959-4418-a89e-02e41e655698"},"vehicle_type_id":"4","last_reported":1701723945,"current_range_meters":19600,"station_id":"cki0cbj6b192h4jlfktg","pricing_plan_id":"free"},{"bike_id":"4afc425b-2cb4-4ed6-98f1-14e3da44a827","system_id":"levelo_inurba_marseille","lat":43.28727,"lon":5.36078,"is_reserved":false,"is_disabled":false,"rental_uris":{"android":"levelo://app?vid=4afc425b-2cb4-4ed6-98f1-14e3da44a827","ios":"levelo://app?vid=4afc425b-2cb4-4ed6-98f1-14e3da44a827"},"vehicle_type_id":"4","last_reported":1701723945,"current_range_meters":19600,"station_id":"cki0cbj6b192h4jlfktg","pricing_plan_id":"free"},{"bike_id":"8ebda87e-5002-4c98-92ac-f7f34c3f1718","system_id":"levelo_inurba_marseille","lat":43.28727,"lon":5.36078,"is_reserved":false,"is_disabled":false,"rental_uris":{"android":"levelo://app?vid=8ebda87e-5002-4c98-92ac-f7f34c3f1718","ios":"levelo://app?vid=8ebda87e-5002-4c98-92ac-f7f34c3f1718"},"vehicle_type_id":"4","last_reported":1701723945,"current_range_meters":30400,"station_id":"cki0cbj6b192h4jlfktg","pricing_plan_id":"free"},{"bike_id":"55b36980-5956-41d3-b99e-b8f444d3ea45","system_id":"levelo_inurba_marseille","lat":43.301117,"lon":5.398795,"is_reserved":false,"is_disabled":false,"rental_uris":{"android":"levelo://app?vid=55b36980-5956-41d3-b99e-b8f444d3ea45","ios":"levelo://app?vid=55b36980-5956-41d3-b99e-b8f444d3ea45"},"vehicle_type_id":"4","last_reported":1701723945,"current_range_meters":26400,"station_id":"ce4bh0h2rcd13ifvqd40","pricing_plan_id":"free"},{"bike_id":"2f8c526d-6dc2-4a9a-8494-08d53fd62706","system_id":"levelo_inurba_marseille","lat":43.286591,"lon":5.363346,"is_reserved":false,"is_disabled":false,"rental_uris":{"android":"levelo://app?vid=2f8c526d-6dc2-4a9a-8494-08d53fd62706","ios":"levelo://app?vid=2f8c526d-6dc2-4a9a-8494-08d53fd62706"},"vehicle_type_id":"4","last_reported":1701723945,"current_range_meters":24400,"station_id":"ce4bhah2rcd13ifvqej0","pricing_plan_id":"free"},{"bike_id":"a1d02f2c-33dc-4efb-a617-4647e6f00f6f","system_id":"levelo_inurba_marseille","lat":43.287045,"lon":5.373945,"is_reserved":false,"is_disabled":false,"rental_uris":{"android":"levelo://app?vid=a1d02f2c-33dc-4efb-a617-4647e6f00f6f","ios":"levelo://app?vid=a1d02f2c-33dc-4efb-a617-4647e6f00f6f"},"vehicle_type_id":"4","last_reported":1701723945,"current_range_meters":12000,"station_id":"ce4bh3p2rcd13ifvqdq0","pricing_plan_id":"free"},{"bike_id":"449463bc-ef2f-4ca9-8bf6-a3d2c3da5f1d","system_id":"levelo_inurba_marseille","lat":43.298681,"lon":5.397225,"is_reserved":false,"is_disabled":false,"rental_uris":{"android":"levelo://app?vid=449463bc-ef2f-4ca9-8bf6-a3d2c3da5f1d","ios":"levelo://app?vid=449463bc-ef2f-4ca9-8bf6-a3d2c3da5f1d"},"vehicle_type_id":"4","last_reported":1701723945,"current_range_meters":30000,"station_id":"ce4bh0h2rcd13ifvqd50","pricing_plan_id":"free"},{"bike_id":"7ddaece8-d431-4da4-b09c-4e0cfdc79c46","system_id":"levelo_inurba_marseille","lat":43.286961,"lon":5.373785,"is_reserved":false,"is_disabled":false,"rental_uris":{"android":"levelo://app?vid=7ddaece8-d431-4da4-b09c-4e0cfdc79c46","ios":"levelo://app?vid=7ddaece8-d431-4da4-b09c-4e0cfdc79c46"},"vehicle_type_id":"4","last_reported":1701723945,"current_range_meters":18000,"station_id":"ce4bh3p2rcd13ifvqdq0","pricing_plan_id":"free"},{"bike_id":"d3f0a5a8-c918-4cf8-b89b-6c7bd1311c53","system_id":"levelo_inurba_marseille","lat":43.290345,"lon":5.38646,"is_reserved":false,"is_disabled":false,"rental_uris":{"android":"levelo://app?vid=d3f0a5a8-c918-4cf8-b89b-6c7bd1311c53","ios":"levelo://app?vid=d3f0a5a8-c918-4cf8-b89b-6c7bd1311c53"},"vehicle_type_id":"4","last_reported":1701723945,"current_range_meters":11600,"station_id":"ce4bh4p2rcd13ifvqe0g","pricing_plan_id":"free"},{"bike_id":"bd2286a2-861b-45d4-af38-02a6a5725e1c","system_id":"levelo_inurba_marseille","lat":43.289307,"lon":5.38406,"is_reserved":false,"is_disabled":false,"rental_uris":{"android":"levelo://app?vid=bd2286a2-861b-45d4-af38-02a6a5725e1c","ios":"levelo://app?vid=bd2286a2-861b-45d4-af38-02a6a5725e1c"},"vehicle_type_id":"4","last_reported":1701723945,"current_range_meters":18400,"station_id":"ce4bh612rcd13ifvqe6g","pricing_plan_id":"free"},{"bike_id":"b0937df3-6a56-4e12-a1a6-56251082b14e","system_id":"levelo_inurba_marseille","lat":43.286039,"lon":5.370679,"is_reserved":false,"is_disabled":false,"rental_uris":{"android":"levelo://app?vid=b0937df3-6a56-4e12-a1a6-56251082b14e","ios":"levelo://app?vid=b0937df3-6a56-4e12-a1a6-56251082b14e"},"vehicle_type_id":"4","last_reported":1701723945,"current_range_meters":21600,"station_id":"ce4bht12rcd13ifvqi60","pricing_plan_id":"free"},{"bike_id":"cebc581c-d768-4d70-9a38-1a47c44e063e","system_id":"levelo_inurba_marseille","lat":43.286039,"lon":5.370679,"is_reserved":false,"is_disabled":false,"rental_uris":{"android":"levelo://app?vid=cebc581c-d768-4d70-9a38-1a47c44e063e","ios":"levelo://app?vid=cebc581c-d768-4d70-9a38-1a47c44e063e"},"vehicle_type_id":"4","last_reported":1701723945,"current_range_meters":31600,"station_id":"ce4bht12rcd13ifvqi60","pricing_plan_id":"free"},{"bike_id":"2d0cff92-5545-4c00-9d53-984e3dd727bb","system_id":"levelo_inurba_marseille","lat":43.287184,"lon":5.37937,"is_reserved":false,"is_disabled":false,"rental_uris":{"android":"levelo://app?vid=2d0cff92-5545-4c00-9d53-984e3dd727bb","ios":"levelo://app?vid=2d0cff92-5545-4c00-9d53-984e3dd727bb"},"vehicle_type_id":"4","last_reported":1701723945,"current_range_meters":29200,"station_id":"ce4bh9p2rcd13ifvqec0","pricing_plan_id":"free"},{"bike_id":"b16ef1f5-a099-4865-81cc-3588d2ae5e5b","system_id":"levelo_inurba_marseille","lat":43.287185,"lon":5.379373,"is_reserved":false,"is_disabled":false,"rental_uris":{"android":"levelo://app?vid=b16ef1f5-a099-4865-81cc-3588d2ae5e5b","ios":"levelo://app?vid=b16ef1f5-a099-4865-81cc-3588d2ae5e5b"},"vehicle_type_id":"4","last_reported":1701723945,"current_range_meters":26000,"station_id":"ce4bh9p2rcd13ifvqec0","pricing_plan_id":"free"},{"bike_id":"01cd0cbb-ee6a-412a-b70b-1208d0cab111","system_id":"levelo_inurba_marseille","lat":43.281044,"lon":5.378308,"is_reserved":false,"is_disabled":false,"rental_uris":{"android":"levelo://app?vid=01cd0cbb-ee6a-412a-b70b-1208d0cab111","ios":"levelo://app?vid=01cd0cbb-ee6a-412a-b70b-1208d0cab111"},"vehicle_type_id":"4","last_reported":1701723945,"current_range_meters":22800,"station_id":"ce4bha12rcd13ifvqee0","pricing_plan_id":"free"},{"bike_id":"4466a2a2-c05d-4f6f-af0a-fe3c514836c8","system_id":"levelo_inurba_marseille","lat":43.291994,"lon":5.392907,"is_reserved":false,"is_disabled":false,"rental_uris":{"android":"levelo://app?vid=4466a2a2-c05d-4f6f-af0a-fe3c514836c8","ios":"levelo://app?vid=4466a2a2-c05d-4f6f-af0a-fe3c514836c8"},"vehicle_type_id":"4","last_reported":1701723945,"current_range_meters":3200,"station_id":"ce4bh192rcd13ifvqdd0","pricing_plan_id":"free"},{"bike_id":"c5196234-415f-4f28-9be5-2ee8a4748d00","system_id":"levelo_inurba_marseille","lat":43.291994,"lon":5.392907,"is_reserved":false,"is_disabled":false,"rental_uris":{"android":"levelo://app?vid=c5196234-415f-4f28-9be5-2ee8a4748d00","ios":"levelo://app?vid=c5196234-415f-4f28-9be5-2ee8a4748d00"},"vehicle_type_id":"4","last_reported":1701723945,"current_range_meters":10000,"station_id":"ce4bh192rcd13ifvqdd0","pricing_plan_id":"free"},{"bike_id":"571d129b-98b5-4d9a-8467-10f6a8fa473d","system_id":"levelo_inurba_marseille","lat":43.291994,"lon":5.392907,"is_reserved":false,"is_disabled":false,"rental_uris":{"android":"levelo://app?vid=571d129b-98b5-4d9a-8467-10f6a8fa473d","ios":"levelo://app?vid=571d129b-98b5-4d9a-8467-10f6a8fa473d"},"vehicle_type_id":"4","last_reported":1701723945,"current_range_meters":32000,"station_id":"ce4bh192rcd13ifvqdd0","pricing_plan_id":"free"},{"bike_id":"cb44d5cb-05f1-4044-9cec-a2bd7ca862f4","system_id":"levelo_inurba_marseille","lat":43.291923,"lon":5.393237,"is_reserved":false,"is_disabled":false,"rental_uris":{"android":"levelo://app?vid=cb44d5cb-05f1-4044-9cec-a2bd7ca862f4","ios":"levelo://app?vid=cb44d5cb-05f1-4044-9cec-a2bd7ca862f4"},"vehicle_type_id":"4","last_reported":1701723945,"current_range_meters":0,"station_id":"ce4bh192rcd13ifvqdd0","pricing_plan_id":"free"},{"bike_id":"f243fdf9-f670-4310-8368-8afa1db43a39","system_id":"levelo_inurba_marseille","lat":43.284534,"lon":5.358662,"is_reserved":false,"is_disabled":false,"rental_uris":{"android":"levelo://app?vid=f243fdf9-f670-4310-8368-8afa1db43a39","ios":"levelo://app?vid=f243fdf9-f670-4310-8368-8afa1db43a39"},"vehicle_type_id":"4","last_reported":1701723945,"current_range_meters":9200,"station_id":"ce4bhah2rcd13ifvqei0","pricing_plan_id":"free"},{"bike_id":"0385ca16-b998-46fc-8ded-07ad052c6377","system_id":"levelo_inurba_marseille","lat":43.28458,"lon":5.35897,"is_reserved":false,"is_disabled":false,"rental_uris":{"android":"levelo://app?vid=0385ca16-b998-46fc-8ded-07ad052c6377","ios":"levelo://app?vid=0385ca16-b998-46fc-8ded-07ad052c6377"},"vehicle_type_id":"4","last_reported":1701723945,"current_range_meters":22400,"station_id":"ce4bhah2rcd13ifvqei0","pricing_plan_id":"free"},{"bike_id":"f4b5151a-97bd-49c2-be13-26e748213dde","system_id":"levelo_inurba_marseille","lat":43.284534,"lon":5.358662,"is_reserved":false,"is_disabled":false,"rental_uris":{"android":"levelo://app?vid=f4b5151a-97bd-49c2-be13-26e748213dde","ios":"levelo://app?vid=f4b5151a-97bd-49c2-be13-26e748213dde"},"vehicle_type_id":"4","last_reported":1701723945,"current_range_meters":28000,"station_id":"ce4bhah2rcd13ifvqei0","pricing_plan_id":"free"},{"bike_id":"74215b8f-5a98-407b-8406-c10d82d0037d","system_id":"levelo_inurba_marseille","lat":43.294314,"lon":5.397498,"is_reserved":false,"is_disabled":false,"rental_uris":{"android":"levelo://app?vid=74215b8f-5a98-407b-8406-c10d82d0037d","ios":"levelo://app?vid=74215b8f-5a98-407b-8406-c10d82d0037d"},"vehicle_type_id":"4","last_reported":1701723945,"current_range_meters":8000,"station_id":"ce4bh3h2rcd13ifvqdo0","pricing_plan_id":"free"},{"bike_id":"63950e9f-b916-49d6-ae7f-7e241686aa20","system_id":"levelo_inurba_marseille","lat":43.28617,"lon":5.35101,"is_reserved":false,"is_disabled":false,"rental_uris":{"android":"levelo://app?vid=63950e9f-b916-49d6-ae7f-7e241686aa20","ios":"levelo://app?vid=63950e9f-b916-49d6-ae7f-7e241686aa20"},"vehicle_type_id":"4","last_reported":1701723945,"current_range_meters":2000,"station_id":"ce4bhch2rcd13ifvqeug","pricing_plan_id":"free"},{"bike_id":"169c6444-b60b-49f0-b7a2-c93e30dfdc65","system_id":"levelo_inurba_marseille","lat":43.28615,"lon":5.35105,"is_reserved":false,"is_disabled":false,"rental_uris":{"android":"levelo://app?vid=169c6444-b60b-49f0-b7a2-c93e30dfdc65","ios":"levelo://app?vid=169c6444-b60b-49f0-b7a2-c93e30dfdc65"},"vehicle_type_id":"4","last_reported":1701723945,"current_range_meters":20000,"station_id":"ce4bhch2rcd13ifvqeug","pricing_plan_id":"free"},{"bike_id":"18c02c14-36c0-4cf5-b980-7dd3dcf817cf","system_id":"levelo_inurba_marseille","lat":43.28615,"lon":5.35104,"is_reserved":false,"is_disabled":false,"rental_uris":{"android":"levelo://app?vid=18c02c14-36c0-4cf5-b980-7dd3dcf817cf","ios":"levelo://app?vid=18c02c14-36c0-4cf5-b980-7dd3dcf817cf"},"vehicle_type_id":"4","last_reported":1701723945,"current_range_meters":19200,"station_id":"ce4bhch2rcd13ifvqeug","pricing_plan_id":"free"},{"bike_id":"8c9d1716-3fd0-4559-9e75-969d7b769d14","system_id":"levelo_inurba_marseille","lat":43.285856,"lon":5.350771,"is_reserved":false,"is_disabled":false,"rental_uris":{"android":"levelo://app?vid=8c9d1716-3fd0-4559-9e75-969d7b769d14","ios":"levelo://app?vid=8c9d1716-3fd0-4559-9e75-969d7b769d14"},"vehicle_type_id":"4","last_reported":1701723945,"current_range_meters":28000,"station_id":"ce4bhch2rcd13ifvqeug","pricing_plan_id":"free"},{"bike_id":"2933ab71-7a5a-48a9-8ff1-3f3616ca8f32","system_id":"levelo_inurba_marseille","lat":43.28614,"lon":5.35103,"is_reserved":false,"is_disabled":false,"rental_uris":{"android":"levelo://app?vid=2933ab71-7a5a-48a9-8ff1-3f3616ca8f32","ios":"levelo://app?vid=2933ab71-7a5a-48a9-8ff1-3f3616ca8f32"},"vehicle_type_id":"4","last_reported":1701723945,"current_range_meters":26400,"station_id":"ce4bhch2rcd13ifvqeug","pricing_plan_id":"free"},{"bike_id":"4b472d2d-8db3-42ed-9a8f-2268fbbde39f","system_id":"levelo_inurba_marseille","lat":43.283998,"lon":5.375062,"is_reserved":false,"is_disabled":false,"rental_uris":{"android":"levelo://app?vid=4b472d2d-8db3-42ed-9a8f-2268fbbde39f","ios":"levelo://app?vid=4b472d2d-8db3-42ed-9a8f-2268fbbde39f"},"vehicle_type_id":"4","last_reported":1701723945,"current_range_meters":2800,"station_id":"ce4bh412rcd13ifvqds0","pricing_plan_id":"free"},{"bike_id":"4521f755-2edd-478d-bbb1-6bdeb270f674","system_id":"levelo_inurba_marseille","lat":43.295713,"lon":5.399639,"is_reserved":false,"is_disabled":false,"rental_uris":{"android":"levelo://app?vid=4521f755-2edd-478d-bbb1-6bdeb270f674","ios":"levelo://app?vid=4521f755-2edd-478d-bbb1-6bdeb270f674"},"vehicle_type_id":"4","last_reported":1701723945,"current_range_meters":30000,"station_id":"ce4bh312rcd13ifvqdj0","pricing_plan_id":"free"},{"bike_id":"1bd973b3-732e-4e13-acbd-0a59b9b872a1","system_id":"levelo_inurba_marseille","lat":43.295713,"lon":5.399639,"is_reserved":false,"is_disabled":false,"rental_uris":{"android":"levelo://app?vid=1bd973b3-732e-4e13-acbd-0a59b9b872a1","ios":"levelo://app?vid=1bd973b3-732e-4e13-acbd-0a59b9b872a1"},"vehicle_type_id":"4","last_reported":1701723945,"current_range_meters":26400,"station_id":"ce4bh312rcd13ifvqdj0","pricing_plan_id":"free"},{"bike_id":"3aaa766c-12c1-4485-850d-b495677f1267","system_id":"levelo_inurba_marseille","lat":43.319179,"lon":5.407725,"is_reserved":false,"is_disabled":false,"rental_uris":{"android":"levelo://app?vid=3aaa766c-12c1-4485-850d-b495677f1267","ios":"levelo://app?vid=3aaa766c-12c1-4485-850d-b495677f1267"},"vehicle_type_id":"4","last_reported":1701723945,"current_range_meters":27200,"station_id":"ce4bhq12rcd13ifvqhig","pricing_plan_id":"free"},{"bike_id":"37637d11-0d2c-4d6c-8684-6f3fad115197","system_id":"levelo_inurba_marseille","lat":43.323464,"lon":5.406297,"is_reserved":false,"is_disabled":false,"rental_uris":{"android":"levelo://app?vid=37637d11-0d2c-4d6c-8684-6f3fad115197","ios":"levelo://app?vid=37637d11-0d2c-4d6c-8684-6f3fad115197"},"vehicle_type_id":"4","last_reported":1701723945,"current_range_meters":24800,"station_id":"ce4bhq92rcd13ifvqhjg","pricing_plan_id":"free"},{"bike_id":"60e8c703-d82c-49c9-bc5f-f7e8deb1ac94","system_id":"levelo_inurba_marseille","lat":43.323464,"lon":5.406297,"is_reserved":false,"is_disabled":false,"rental_uris":{"android":"levelo://app?vid=60e8c703-d82c-49c9-bc5f-f7e8deb1ac94","ios":"levelo://app?vid=60e8c703-d82c-49c9-bc5f-f7e8deb1ac94"},"vehicle_type_id":"4","last_reported":1701723945,"current_range_meters":24000,"station_id":"ce4bhq92rcd13ifvqhjg","pricing_plan_id":"free"},{"bike_id":"23a6e18e-5ad6-40cf-b6fb-7a4b1a6034c9","system_id":"levelo_inurba_marseille","lat":43.337168,"lon":5.391825,"is_reserved":false,"is_disabled":false,"rental_uris":{"android":"levelo://app?vid=23a6e18e-5ad6-40cf-b6fb-7a4b1a6034c9","ios":"levelo://app?vid=23a6e18e-5ad6-40cf-b6fb-7a4b1a6034c9"},"vehicle_type_id":"4","last_reported":1701723945,"current_range_meters":28000,"station_id":"ce4bhr92rcd13ifvqhsg","pricing_plan_id":"free"},{"bike_id":"2f3079bb-d2e8-49db-bf56-f8ffeba9fe39","system_id":"levelo_inurba_marseille","lat":43.288501,"lon":5.393087,"is_reserved":false,"is_disabled":false,"rental_uris":{"android":"levelo://app?vid=2f3079bb-d2e8-49db-bf56-f8ffeba9fe39","ios":"levelo://app?vid=2f3079bb-d2e8-49db-bf56-f8ffeba9fe39"},"vehicle_type_id":"4","last_reported":1701723945,"current_range_meters":9200,"station_id":"ce4bh2p2rcd13ifvqdi0","pricing_plan_id":"free"},{"bike_id":"79bc28a3-b13c-4976-888f-4eab3bb38178","system_id":"levelo_inurba_marseille","lat":43.289363,"lon":5.396322,"is_reserved":false,"is_disabled":false,"rental_uris":{"android":"levelo://app?vid=79bc28a3-b13c-4976-888f-4eab3bb38178","ios":"levelo://app?vid=79bc28a3-b13c-4976-888f-4eab3bb38178"},"vehicle_type_id":"4","last_reported":1701723945,"current_range_meters":21200,"station_id":"ce4bh3h2rcd13ifvqdn0","pricing_plan_id":"free"},{"bike_id":"8b29064d-9115-4e92-960e-2df8af7e580b","system_id":"levelo_inurba_marseille","lat":43.292724,"lon":5.401131,"is_reserved":false,"is_disabled":false,"rental_uris":{"android":"levelo://app?vid=8b29064d-9115-4e92-960e-2df8af7e580b","ios":"levelo://app?vid=8b29064d-9115-4e92-960e-2df8af7e580b"},"vehicle_type_id":"4","last_reported":1701723945,"current_range_meters":14000,"station_id":"ce4bh312rcd13ifvqdk0","pricing_plan_id":"free"},{"bike_id":"d5c937f0-8c05-499d-80d3-8a91a1080cd6","system_id":"levelo_inurba_marseille","lat":43.292724,"lon":5.401131,"is_reserved":false,"is_disabled":false,"rental_uris":{"android":"levelo://app?vid=d5c937f0-8c05-499d-80d3-8a91a1080cd6","ios":"levelo://app?vid=d5c937f0-8c05-499d-80d3-8a91a1080cd6"},"vehicle_type_id":"4","last_reported":1701723945,"current_range_meters":12000,"station_id":"ce4bh312rcd13ifvqdk0","pricing_plan_id":"free"},{"bike_id":"77b18657-b569-4b90-9dc8-34338ee25c17","system_id":"levelo_inurba_marseille","lat":43.282744,"lon":5.350533,"is_reserved":false,"is_disabled":false,"rental_uris":{"android":"levelo://app?vid=77b18657-b569-4b90-9dc8-34338ee25c17","ios":"levelo://app?vid=77b18657-b569-4b90-9dc8-34338ee25c17"},"vehicle_type_id":"4","last_reported":1701723945,"current_range_meters":26800,"station_id":"ce4bhbp2rcd13ifvqerg","pricing_plan_id":"free"},{"bike_id":"6ccf948d-6eb0-444e-aee6-d769f399f4e4","system_id":"levelo_inurba_marseille","lat":43.28269,"lon":5.35072,"is_reserved":false,"is_disabled":false,"rental_uris":{"android":"levelo://app?vid=6ccf948d-6eb0-444e-aee6-d769f399f4e4","ios":"levelo://app?vid=6ccf948d-6eb0-444e-aee6-d769f399f4e4"},"vehicle_type_id":"4","last_reported":1701723945,"current_range_meters":25600,"station_id":"ce4bhbp2rcd13ifvqerg","pricing_plan_id":"free"},{"bike_id":"abb2c738-7a9c-4125-ad0a-6cd5d0cbc99f","system_id":"levelo_inurba_marseille","lat":43.283652,"lon":5.386249,"is_reserved":false,"is_disabled":false,"rental_uris":{"android":"levelo://app?vid=abb2c738-7a9c-4125-ad0a-6cd5d0cbc99f","ios":"levelo://app?vid=abb2c738-7a9c-4125-ad0a-6cd5d0cbc99f"},"vehicle_type_id":"4","last_reported":1701723945,"current_range_meters":21600,"station_id":"","pricing_plan_id":"free"},{"bike_id":"052c7fc7-ace5-456c-a6c3-741f73450385","system_id":"levelo_inurba_marseille","lat":43.28039,"lon":5.369297,"is_reserved":false,"is_disabled":false,"rental_uris":{"android":"levelo://app?vid=052c7fc7-ace5-456c-a6c3-741f73450385","ios":"levelo://app?vid=052c7fc7-ace5-456c-a6c3-741f73450385"},"vehicle_type_id":"4","last_reported":1701723945,"current_range_meters":31200,"station_id":"ce4bha12rcd13ifvqef0","pricing_plan_id":"free"},{"bike_id":"fb17d47e-3f8e-47e7-a8f8-5ac35613e1ae","system_id":"levelo_inurba_marseille","lat":43.28039,"lon":5.369297,"is_reserved":false,"is_disabled":false,"rental_uris":{"android":"levelo://app?vid=fb17d47e-3f8e-47e7-a8f8-5ac35613e1ae","ios":"levelo://app?vid=fb17d47e-3f8e-47e7-a8f8-5ac35613e1ae"},"vehicle_type_id":"4","last_reported":1701723945,"current_range_meters":26800,"station_id":"ce4bha12rcd13ifvqef0","pricing_plan_id":"free"},{"bike_id":"8bf9564f-62b1-426c-bced-de4c15a4c0ad","system_id":"levelo_inurba_marseille","lat":43.28039,"lon":5.369297,"is_reserved":false,"is_disabled":false,"rental_uris":{"android":"levelo://app?vid=8bf9564f-62b1-426c-bced-de4c15a4c0ad","ios":"levelo://app?vid=8bf9564f-62b1-426c-bced-de4c15a4c0ad"},"vehicle_type_id":"4","last_reported":1701723945,"current_range_meters":29600,"station_id":"ce4bha12rcd13ifvqef0","pricing_plan_id":"free"},{"bike_id":"dd3edbec-e53d-4db9-9a2b-757cc47bce65","system_id":"levelo_inurba_marseille","lat":43.28039,"lon":5.369297,"is_reserved":false,"is_disabled":false,"rental_uris":{"android":"levelo://app?vid=dd3edbec-e53d-4db9-9a2b-757cc47bce65","ios":"levelo://app?vid=dd3edbec-e53d-4db9-9a2b-757cc47bce65"},"vehicle_type_id":"4","last_reported":1701723945,"current_range_meters":29600,"station_id":"ce4bha12rcd13ifvqef0","pricing_plan_id":"free"},{"bike_id":"378e06e1-57f0-47f1-a348-dd7d576fe732","system_id":"levelo_inurba_marseille","lat":43.280382,"lon":5.369291,"is_reserved":false,"is_disabled":false,"rental_uris":{"android":"levelo://app?vid=378e06e1-57f0-47f1-a348-dd7d576fe732","ios":"levelo://app?vid=378e06e1-57f0-47f1-a348-dd7d576fe732"},"vehicle_type_id":"4","last_reported":1701723945,"current_range_meters":31200,"station_id":"ce4bha12rcd13ifvqef0","pricing_plan_id":"free"},{"bike_id":"4f144858-d244-4c5d-9c53-6a6b16cc8e58","system_id":"levelo_inurba_marseille","lat":43.280382,"lon":5.369291,"is_reserved":false,"is_disabled":false,"rental_uris":{"android":"levelo://app?vid=4f144858-d244-4c5d-9c53-6a6b16cc8e58","ios":"levelo://app?vid=4f144858-d244-4c5d-9c53-6a6b16cc8e58"},"vehicle_type_id":"4","last_reported":1701723945,"current_range_meters":26800,"station_id":"ce4bha12rcd13ifvqef0","pricing_plan_id":"free"},{"bike_id":"03abf90b-e319-4f6f-b30a-09e8216c98fa","system_id":"levelo_inurba_marseille","lat":43.281044,"lon":5.378308,"is_reserved":false,"is_disabled":false,"rental_uris":{"android":"levelo://app?vid=03abf90b-e319-4f6f-b30a-09e8216c98fa","ios":"levelo://app?vid=03abf90b-e319-4f6f-b30a-09e8216c98fa"},"vehicle_type_id":"4","last_reported":1701723945,"current_range_meters":12400,"station_id":"ce4bha12rcd13ifvqee0","pricing_plan_id":"free"},{"bike_id":"f23235c2-e3ab-417e-b9e8-1d0ae6d124bb","system_id":"levelo_inurba_marseille","lat":43.281044,"lon":5.378308,"is_reserved":false,"is_disabled":false,"rental_uris":{"android":"levelo://app?vid=f23235c2-e3ab-417e-b9e8-1d0ae6d124bb","ios":"levelo://app?vid=f23235c2-e3ab-417e-b9e8-1d0ae6d124bb"},"vehicle_type_id":"4","last_reported":1701723945,"current_range_meters":31200,"station_id":"ce4bha12rcd13ifvqee0","pricing_plan_id":"free"},{"bike_id":"c7272a63-85be-42a0-8a5a-05fe95cb8e00","system_id":"levelo_inurba_marseille","lat":43.281044,"lon":5.378308,"is_reserved":false,"is_disabled":false,"rental_uris":{"android":"levelo://app?vid=c7272a63-85be-42a0-8a5a-05fe95cb8e00","ios":"levelo://app?vid=c7272a63-85be-42a0-8a5a-05fe95cb8e00"},"vehicle_type_id":"4","last_reported":1701723945,"current_range_meters":25600,"station_id":"ce4bha12rcd13ifvqee0","pricing_plan_id":"free"},{"bike_id":"6cf8fb24-7039-41a7-9b93-67f1b1f5c672","system_id":"levelo_inurba_marseille","lat":43.296263,"lon":5.40601,"is_reserved":false,"is_disabled":false,"rental_uris":{"android":"levelo://app?vid=6cf8fb24-7039-41a7-9b93-67f1b1f5c672","ios":"levelo://app?vid=6cf8fb24-7039-41a7-9b93-67f1b1f5c672"},"vehicle_type_id":"4","last_reported":1701723945,"current_range_meters":14000,"station_id":"ce4bh0h2rcd13ifvqd60","pricing_plan_id":"free"},{"bike_id":"825e2c74-eca6-4f89-b747-bb99e398849e","system_id":"levelo_inurba_marseille","lat":43.281044,"lon":5.378308,"is_reserved":false,"is_disabled":false,"rental_uris":{"android":"levelo://app?vid=825e2c74-eca6-4f89-b747-bb99e398849e","ios":"levelo://app?vid=825e2c74-eca6-4f89-b747-bb99e398849e"},"vehicle_type_id":"4","last_reported":1701723945,"current_range_meters":13600,"station_id":"ce4bha12rcd13ifvqee0","pricing_plan_id":"free"},{"bike_id":"3ed6cd63-fb09-4187-aa99-27f59a66ef12","system_id":"levelo_inurba_marseille","lat":43.296263,"lon":5.40601,"is_reserved":false,"is_disabled":false,"rental_uris":{"android":"levelo://app?vid=3ed6cd63-fb09-4187-aa99-27f59a66ef12","ios":"levelo://app?vid=3ed6cd63-fb09-4187-aa99-27f59a66ef12"},"vehicle_type_id":"4","last_reported":1701723945,"current_range_meters":25200,"station_id":"ce4bh0h2rcd13ifvqd60","pricing_plan_id":"free"},{"bike_id":"ae800d28-e3ee-47b8-8a37-cdf7e5e517a7","system_id":"levelo_inurba_marseille","lat":43.281044,"lon":5.378308,"is_reserved":false,"is_disabled":false,"rental_uris":{"android":"levelo://app?vid=ae800d28-e3ee-47b8-8a37-cdf7e5e517a7","ios":"levelo://app?vid=ae800d28-e3ee-47b8-8a37-cdf7e5e517a7"},"vehicle_type_id":"4","last_reported":1701723945,"current_range_meters":30400,"station_id":"ce4bha12rcd13ifvqee0","pricing_plan_id":"free"},{"bike_id":"44cfc62b-232e-4d7d-aa55-798eaa87c981","system_id":"levelo_inurba_marseille","lat":43.281,"lon":5.37848,"is_reserved":false,"is_disabled":false,"rental_uris":{"android":"levelo://app?vid=44cfc62b-232e-4d7d-aa55-798eaa87c981","ios":"levelo://app?vid=44cfc62b-232e-4d7d-aa55-798eaa87c981"},"vehicle_type_id":"4","last_reported":1701723945,"current_range_meters":0,"station_id":"ce4bha12rcd13ifvqee0","pricing_plan_id":"free"},{"bike_id":"0a5701f4-2120-4113-a52f-d3e3ba8e94f9","system_id":"levelo_inurba_marseille","lat":43.284462,"lon":5.392121,"is_reserved":false,"is_disabled":false,"rental_uris":{"android":"levelo://app?vid=0a5701f4-2120-4113-a52f-d3e3ba8e94f9","ios":"levelo://app?vid=0a5701f4-2120-4113-a52f-d3e3ba8e94f9"},"vehicle_type_id":"4","last_reported":1701723945,"current_range_meters":2800,"station_id":"ce4bhoh2rcd13ifvqh5g","pricing_plan_id":"free"},{"bike_id":"fc11a931-1ca4-484c-9cab-159de4e4fdc9","system_id":"levelo_inurba_marseille","lat":43.284462,"lon":5.392121,"is_reserved":false,"is_disabled":false,"rental_uris":{"android":"levelo://app?vid=fc11a931-1ca4-484c-9cab-159de4e4fdc9","ios":"levelo://app?vid=fc11a931-1ca4-484c-9cab-159de4e4fdc9"},"vehicle_type_id":"4","last_reported":1701723945,"current_range_meters":29600,"station_id":"ce4bhoh2rcd13ifvqh5g","pricing_plan_id":"free"},{"bike_id":"61f2a635-bc72-4742-ac62-9ae665024ebe","system_id":"levelo_inurba_marseille","lat":43.284462,"lon":5.392121,"is_reserved":false,"is_disabled":false,"rental_uris":{"android":"levelo://app?vid=61f2a635-bc72-4742-ac62-9ae665024ebe","ios":"levelo://app?vid=61f2a635-bc72-4742-ac62-9ae665024ebe"},"vehicle_type_id":"4","last_reported":1701723945,"current_range_meters":16000,"station_id":"ce4bhoh2rcd13ifvqh5g","pricing_plan_id":"free"},{"bike_id":"e5b3d878-4d19-47ec-994a-ec39745188fd","system_id":"levelo_inurba_marseille","lat":43.28573,"lon":5.394992,"is_reserved":false,"is_disabled":false,"rental_uris":{"android":"levelo://app?vid=e5b3d878-4d19-47ec-994a-ec39745188fd","ios":"levelo://app?vid=e5b3d878-4d19-47ec-994a-ec39745188fd"},"vehicle_type_id":"4","last_reported":1701723945,"current_range_meters":22000,"station_id":"ce4bh292rcd13ifvqdg0","pricing_plan_id":"free"},{"bike_id":"f71c3e4b-56cc-4b56-8ba6-eea098969b60","system_id":"levelo_inurba_marseille","lat":43.326605,"lon":5.409903,"is_reserved":false,"is_disabled":false,"rental_uris":{"android":"levelo://app?vid=f71c3e4b-56cc-4b56-8ba6-eea098969b60","ios":"levelo://app?vid=f71c3e4b-56cc-4b56-8ba6-eea098969b60"},"vehicle_type_id":"4","last_reported":1701723945,"current_range_meters":26800,"station_id":"ce4bhpp2rcd13ifvqhgg","pricing_plan_id":"free"},{"bike_id":"bd21c7ec-215f-4653-bafe-20f78ed8cf64","system_id":"levelo_inurba_marseille","lat":43.304188,"lon":5.412904,"is_reserved":false,"is_disabled":false,"rental_uris":{"android":"levelo://app?vid=bd21c7ec-215f-4653-bafe-20f78ed8cf64","ios":"levelo://app?vid=bd21c7ec-215f-4653-bafe-20f78ed8cf64"},"vehicle_type_id":"4","last_reported":1701723945,"current_range_meters":18000,"station_id":"ce4bhop2rcd13ifvqh8g","pricing_plan_id":"free"},{"bike_id":"bd30cb65-1e0f-400d-99f2-56529aa71895","system_id":"levelo_inurba_marseille","lat":43.279087,"lon":5.380114,"is_reserved":false,"is_disabled":false,"rental_uris":{"android":"levelo://app?vid=bd30cb65-1e0f-400d-99f2-56529aa71895","ios":"levelo://app?vid=bd30cb65-1e0f-400d-99f2-56529aa71895"},"vehicle_type_id":"4","last_reported":1701723945,"current_range_meters":27200,"station_id":"ce4bhf92rcd13ifvqf50","pricing_plan_id":"free"},{"bike_id":"6818f081-7f0d-4004-8f7d-fbbd5cf2e221","system_id":"levelo_inurba_marseille","lat":43.292569,"lon":5.409107,"is_reserved":false,"is_disabled":false,"rental_uris":{"android":"levelo://app?vid=6818f081-7f0d-4004-8f7d-fbbd5cf2e221","ios":"levelo://app?vid=6818f081-7f0d-4004-8f7d-fbbd5cf2e221"},"vehicle_type_id":"4","last_reported":1701723945,"current_range_meters":2400,"station_id":"ce4bh192rcd13ifvqdc0","pricing_plan_id":"free"},{"bike_id":"bc817a48-36b1-42d7-9d69-9c8b38994a55","system_id":"levelo_inurba_marseille","lat":43.280784,"lon":5.396622,"is_reserved":false,"is_disabled":false,"rental_uris":{"android":"levelo://app?vid=bc817a48-36b1-42d7-9d69-9c8b38994a55","ios":"levelo://app?vid=bc817a48-36b1-42d7-9d69-9c8b38994a55"},"vehicle_type_id":"4","last_reported":1701723945,"current_range_meters":11600,"station_id":"ce4bho12rcd13ifvqh2g","pricing_plan_id":"free"},{"bike_id":"2932ada4-a3e1-41a8-9154-ed70332275c1","system_id":"levelo_inurba_marseille","lat":43.278401,"lon":5.392152,"is_reserved":false,"is_disabled":false,"rental_uris":{"android":"levelo://app?vid=2932ada4-a3e1-41a8-9154-ed70332275c1","ios":"levelo://app?vid=2932ada4-a3e1-41a8-9154-ed70332275c1"},"vehicle_type_id":"4","last_reported":1701723945,"current_range_meters":30400,"station_id":"ce4bhjp2rcd13ifvqga0","pricing_plan_id":"free"},{"bike_id":"3ea28be1-d23c-49b6-a64f-225039a206c7","system_id":"levelo_inurba_marseille","lat":43.273613,"lon":5.362705,"is_reserved":false,"is_disabled":false,"rental_uris":{"android":"levelo://app?vid=3ea28be1-d23c-49b6-a64f-225039a206c7","ios":"levelo://app?vid=3ea28be1-d23c-49b6-a64f-225039a206c7"},"vehicle_type_id":"4","last_reported":1701723945,"current_range_meters":30800,"station_id":"ce4bhbh2rcd13ifvqeo0","pricing_plan_id":"free"},{"bike_id":"671fb5f1-2a82-4780-a5b0-30c24b7c7c9c","system_id":"levelo_inurba_marseille","lat":43.33612,"lon":5.410321,"is_reserved":false,"is_disabled":false,"rental_uris":{"android":"levelo://app?vid=671fb5f1-2a82-4780-a5b0-30c24b7c7c9c","ios":"levelo://app?vid=671fb5f1-2a82-4780-a5b0-30c24b7c7c9c"},"vehicle_type_id":"4","last_reported":1701723945,"current_range_meters":27600,"station_id":"ce4bhqh2rcd13ifvqhmg","pricing_plan_id":"free"},{"bike_id":"6dee21f9-0077-4751-a68d-f121846d4b85","system_id":"levelo_inurba_marseille","lat":43.336134,"lon":5.410341,"is_reserved":false,"is_disabled":false,"rental_uris":{"android":"levelo://app?vid=6dee21f9-0077-4751-a68d-f121846d4b85","ios":"levelo://app?vid=6dee21f9-0077-4751-a68d-f121846d4b85"},"vehicle_type_id":"4","last_reported":1701723945,"current_range_meters":12800,"station_id":"ce4bhqh2rcd13ifvqhmg","pricing_plan_id":"free"},{"bike_id":"5f3f65df-c08a-48bd-9c38-56c6eb8de133","system_id":"levelo_inurba_marseille","lat":43.279975,"lon":5.40009,"is_reserved":false,"is_disabled":false,"rental_uris":{"android":"levelo://app?vid=5f3f65df-c08a-48bd-9c38-56c6eb8de133","ios":"levelo://app?vid=5f3f65df-c08a-48bd-9c38-56c6eb8de133"},"vehicle_type_id":"4","last_reported":1701723945,"current_range_meters":8000,"station_id":"ce4bho92rcd13ifvqh4g","pricing_plan_id":"free"},{"bike_id":"e8996239-bac7-4ee1-815d-f1a52210aefa","system_id":"levelo_inurba_marseille","lat":43.317121,"lon":5.423936,"is_reserved":false,"is_disabled":false,"rental_uris":{"android":"levelo://app?vid=e8996239-bac7-4ee1-815d-f1a52210aefa","ios":"levelo://app?vid=e8996239-bac7-4ee1-815d-f1a52210aefa"},"vehicle_type_id":"4","last_reported":1701723945,"current_range_meters":25200,"station_id":"ce4bhp92rcd13ifvqhbg","pricing_plan_id":"free"},{"bike_id":"a3aef011-b611-4e5e-bf0b-b705e09a22b1","system_id":"levelo_inurba_marseille","lat":43.317121,"lon":5.423936,"is_reserved":false,"is_disabled":false,"rental_uris":{"android":"levelo://app?vid=a3aef011-b611-4e5e-bf0b-b705e09a22b1","ios":"levelo://app?vid=a3aef011-b611-4e5e-bf0b-b705e09a22b1"},"vehicle_type_id":"4","last_reported":1701723945,"current_range_meters":27600,"station_id":"ce4bhp92rcd13ifvqhbg","pricing_plan_id":"free"},{"bike_id":"fb7b11b6-2e5c-4a6c-b668-e3de222703b6","system_id":"levelo_inurba_marseille","lat":43.310785,"lon":5.424305,"is_reserved":false,"is_disabled":false,"rental_uris":{"android":"levelo://app?vid=fb7b11b6-2e5c-4a6c-b668-e3de222703b6","ios":"levelo://app?vid=fb7b11b6-2e5c-4a6c-b668-e3de222703b6"},"vehicle_type_id":"4","last_reported":1701723945,"current_range_meters":26800,"station_id":"ce4bhp92rcd13ifvqhag","pricing_plan_id":"free"},{"bike_id":"910fd3aa-d2e0-4553-894a-6161d41c7fcd","system_id":"levelo_inurba_marseille","lat":43.27609,"lon":5.39475,"is_reserved":false,"is_disabled":false,"rental_uris":{"android":"levelo://app?vid=910fd3aa-d2e0-4553-894a-6161d41c7fcd","ios":"levelo://app?vid=910fd3aa-d2e0-4553-894a-6161d41c7fcd"},"vehicle_type_id":"4","last_reported":1701723945,"current_range_meters":9200,"station_id":"","pricing_plan_id":"free"},{"bike_id":"55c23f66-31a6-4882-8fa6-769301f13946","system_id":"levelo_inurba_marseille","lat":43.295523,"lon":5.422926,"is_reserved":false,"is_disabled":false,"rental_uris":{"android":"levelo://app?vid=55c23f66-31a6-4882-8fa6-769301f13946","ios":"levelo://app?vid=55c23f66-31a6-4882-8fa6-769301f13946"},"vehicle_type_id":"4","last_reported":1701723945,"current_range_meters":31200,"station_id":"ce4bhph2rcd13ifvqhdg","pricing_plan_id":"free"},{"bike_id":"719c96fd-cbaf-4302-8ee1-bacd622624b7","system_id":"levelo_inurba_marseille","lat":43.295511,"lon":5.422926,"is_reserved":false,"is_disabled":false,"rental_uris":{"android":"levelo://app?vid=719c96fd-cbaf-4302-8ee1-bacd622624b7","ios":"levelo://app?vid=719c96fd-cbaf-4302-8ee1-bacd622624b7"},"vehicle_type_id":"4","last_reported":1701723945,"current_range_meters":10000,"station_id":"ce4bhph2rcd13ifvqhdg","pricing_plan_id":"free"},{"bike_id":"4d227eb7-d36a-425e-8f14-420e16d126ca","system_id":"levelo_inurba_marseille","lat":43.272123,"lon":5.392539,"is_reserved":false,"is_disabled":false,"rental_uris":{"android":"levelo://app?vid=4d227eb7-d36a-425e-8f14-420e16d126ca","ios":"levelo://app?vid=4d227eb7-d36a-425e-8f14-420e16d126ca"},"vehicle_type_id":"4","last_reported":1701723945,"current_range_meters":24400,"station_id":"","pricing_plan_id":"free"},{"bike_id":"e9556114-db65-4d9b-9e5f-f0337ad415a0","system_id":"levelo_inurba_marseille","lat":43.278128,"lon":5.407195,"is_reserved":false,"is_disabled":false,"rental_uris":{"android":"levelo://app?vid=e9556114-db65-4d9b-9e5f-f0337ad415a0","ios":"levelo://app?vid=e9556114-db65-4d9b-9e5f-f0337ad415a0"},"vehicle_type_id":"4","last_reported":1701723945,"current_range_meters":14000,"station_id":"ce4bhnh2rcd13ifvqgtg","pricing_plan_id":"free"},{"bike_id":"1212c2c1-349b-4da8-a22b-a470229a9b19","system_id":"levelo_inurba_marseille","lat":43.27809,"lon":5.40701,"is_reserved":false,"is_disabled":false,"rental_uris":{"android":"levelo://app?vid=1212c2c1-349b-4da8-a22b-a470229a9b19","ios":"levelo://app?vid=1212c2c1-349b-4da8-a22b-a470229a9b19"},"vehicle_type_id":"4","last_reported":1701723945,"current_range_meters":6000,"station_id":"ce4bhnh2rcd13ifvqgtg","pricing_plan_id":"free"},{"bike_id":"903cfa4a-32ee-4a67-9af2-578aaa00edb8","system_id":"levelo_inurba_marseille","lat":43.27816,"lon":5.40713,"is_reserved":false,"is_disabled":false,"rental_uris":{"android":"levelo://app?vid=903cfa4a-32ee-4a67-9af2-578aaa00edb8","ios":"levelo://app?vid=903cfa4a-32ee-4a67-9af2-578aaa00edb8"},"vehicle_type_id":"4","last_reported":1701723945,"current_range_meters":2000,"station_id":"ce4bhnh2rcd13ifvqgtg","pricing_plan_id":"free"},{"bike_id":"3318d069-295b-4dfa-b9fb-69de068c2dae","system_id":"levelo_inurba_marseille","lat":43.27809,"lon":5.40706,"is_reserved":false,"is_disabled":false,"rental_uris":{"android":"levelo://app?vid=3318d069-295b-4dfa-b9fb-69de068c2dae","ios":"levelo://app?vid=3318d069-295b-4dfa-b9fb-69de068c2dae"},"vehicle_type_id":"4","last_reported":1701723945,"current_range_meters":6400,"station_id":"ce4bhnh2rcd13ifvqgtg","pricing_plan_id":"free"},{"bike_id":"77e1b16a-b057-42f0-940a-e4f493319ff3","system_id":"levelo_inurba_marseille","lat":43.2781,"lon":5.40709,"is_reserved":false,"is_disabled":false,"rental_uris":{"android":"levelo://app?vid=77e1b16a-b057-42f0-940a-e4f493319ff3","ios":"levelo://app?vid=77e1b16a-b057-42f0-940a-e4f493319ff3"},"vehicle_type_id":"4","last_reported":1701723945,"current_range_meters":3600,"station_id":"ce4bhnh2rcd13ifvqgtg","pricing_plan_id":"free"},{"bike_id":"ab645f70-277b-4165-b4a1-4af3a3587654","system_id":"levelo_inurba_marseille","lat":43.27945,"lon":5.41035,"is_reserved":false,"is_disabled":false,"rental_uris":{"android":"levelo://app?vid=ab645f70-277b-4165-b4a1-4af3a3587654","ios":"levelo://app?vid=ab645f70-277b-4165-b4a1-4af3a3587654"},"vehicle_type_id":"4","last_reported":1701723945,"current_range_meters":4000,"station_id":"ce4bhnp2rcd13ifvqh0g","pricing_plan_id":"free"},{"bike_id":"a9b3236d-7277-490f-ac03-6038f514ca34","system_id":"levelo_inurba_marseille","lat":43.279465,"lon":5.410561,"is_reserved":false,"is_disabled":false,"rental_uris":{"android":"levelo://app?vid=a9b3236d-7277-490f-ac03-6038f514ca34","ios":"levelo://app?vid=a9b3236d-7277-490f-ac03-6038f514ca34"},"vehicle_type_id":"4","last_reported":1701723945,"current_range_meters":30400,"station_id":"ce4bhnp2rcd13ifvqh0g","pricing_plan_id":"free"},{"bike_id":"cef6297d-6212-4387-90e7-cdfdddd287f3","system_id":"levelo_inurba_marseille","lat":43.281044,"lon":5.378308,"is_reserved":false,"is_disabled":false,"rental_uris":{"android":"levelo://app?vid=cef6297d-6212-4387-90e7-cdfdddd287f3","ios":"levelo://app?vid=cef6297d-6212-4387-90e7-cdfdddd287f3"},"vehicle_type_id":"4","last_reported":1701723945,"current_range_meters":10000,"station_id":"ce4bha12rcd13ifvqee0","pricing_plan_id":"free"},{"bike_id":"e96163bb-9d57-4e99-bb5e-bca5afccddbb","system_id":"levelo_inurba_marseille","lat":43.27996,"lon":5.416624,"is_reserved":false,"is_disabled":false,"rental_uris":{"android":"levelo://app?vid=e96163bb-9d57-4e99-bb5e-bca5afccddbb","ios":"levelo://app?vid=e96163bb-9d57-4e99-bb5e-bca5afccddbb"},"vehicle_type_id":"4","last_reported":1701723945,"current_range_meters":23200,"station_id":"ce4bho12rcd13ifvqh1g","pricing_plan_id":"free"},{"bike_id":"c603ebe0-7bba-4739-9538-1f0044e728ca","system_id":"levelo_inurba_marseille","lat":43.317104,"lon":5.436818,"is_reserved":false,"is_disabled":false,"rental_uris":{"android":"levelo://app?vid=c603ebe0-7bba-4739-9538-1f0044e728ca","ios":"levelo://app?vid=c603ebe0-7bba-4739-9538-1f0044e728ca"},"vehicle_type_id":"4","last_reported":1701723945,"current_range_meters":27200,"station_id":"ce4bhp92rcd13ifvqhcg","pricing_plan_id":"free"},{"bike_id":"d80d0e38-e8da-4d13-b8c3-6de8e3fcdd14","system_id":"levelo_inurba_marseille","lat":43.317104,"lon":5.436818,"is_reserved":false,"is_disabled":false,"rental_uris":{"android":"levelo://app?vid=d80d0e38-e8da-4d13-b8c3-6de8e3fcdd14","ios":"levelo://app?vid=d80d0e38-e8da-4d13-b8c3-6de8e3fcdd14"},"vehicle_type_id":"4","last_reported":1701723945,"current_range_meters":24000,"station_id":"ce4bhp92rcd13ifvqhcg","pricing_plan_id":"free"},{"bike_id":"9bb2ab38-b524-43ce-80c2-4441064383e4","system_id":"levelo_inurba_marseille","lat":43.27178,"lon":5.40984,"is_reserved":false,"is_disabled":false,"rental_uris":{"android":"levelo://app?vid=9bb2ab38-b524-43ce-80c2-4441064383e4","ios":"levelo://app?vid=9bb2ab38-b524-43ce-80c2-4441064383e4"},"vehicle_type_id":"4","last_reported":1701723945,"current_range_meters":29200,"station_id":"ce4bhl12rcd13ifvqgf0","pricing_plan_id":"free"},{"bike_id":"a959e5e9-fa4a-46b4-861f-df429abd67e0","system_id":"levelo_inurba_marseille","lat":43.2718,"lon":5.40991,"is_reserved":false,"is_disabled":false,"rental_uris":{"android":"levelo://app?vid=a959e5e9-fa4a-46b4-861f-df429abd67e0","ios":"levelo://app?vid=a959e5e9-fa4a-46b4-861f-df429abd67e0"},"vehicle_type_id":"4","last_reported":1701723945,"current_range_meters":23600,"station_id":"ce4bhl12rcd13ifvqgf0","pricing_plan_id":"free"},{"bike_id":"1074b912-6888-48a3-a725-7daee73d6728","system_id":"levelo_inurba_marseille","lat":43.27177,"lon":5.4099,"is_reserved":false,"is_disabled":false,"rental_uris":{"android":"levelo://app?vid=1074b912-6888-48a3-a725-7daee73d6728","ios":"levelo://app?vid=1074b912-6888-48a3-a725-7daee73d6728"},"vehicle_type_id":"4","last_reported":1701723945,"current_range_meters":19200,"station_id":"ce4bhl12rcd13ifvqgf0","pricing_plan_id":"free"},{"bike_id":"21696287-8bc6-493f-a856-ae98911f37d3","system_id":"levelo_inurba_marseille","lat":43.298768,"lon":5.43643,"is_reserved":false,"is_disabled":false,"rental_uris":{"android":"levelo://app?vid=21696287-8bc6-493f-a856-ae98911f37d3","ios":"levelo://app?vid=21696287-8bc6-493f-a856-ae98911f37d3"},"vehicle_type_id":"4","last_reported":1701723945,"current_range_meters":26400,"station_id":"ce4bhpp2rcd13ifvqhfg","pricing_plan_id":"free"},{"bike_id":"8eaaac66-3ab1-42cf-b698-8c4326868db1","system_id":"levelo_inurba_marseille","lat":43.28154,"lon":5.4265,"is_reserved":false,"is_disabled":false,"rental_uris":{"android":"levelo://app?vid=8eaaac66-3ab1-42cf-b698-8c4326868db1","ios":"levelo://app?vid=8eaaac66-3ab1-42cf-b698-8c4326868db1"},"vehicle_type_id":"4","last_reported":1701723945,"current_range_meters":8800,"station_id":"ce4bhnh2rcd13ifvqgug","pricing_plan_id":"free"},{"bike_id":"65ec7881-35a6-49c5-a595-d80580fc0fe4","system_id":"levelo_inurba_marseille","lat":43.2607,"lon":5.393983,"is_reserved":false,"is_disabled":false,"rental_uris":{"android":"levelo://app?vid=65ec7881-35a6-49c5-a595-d80580fc0fe4","ios":"levelo://app?vid=65ec7881-35a6-49c5-a595-d80580fc0fe4"},"vehicle_type_id":"4","last_reported":1701723945,"current_range_meters":4400,"station_id":"ce4bhh92rcd13ifvqfj0","pricing_plan_id":"free"},{"bike_id":"23e5ff1f-b20a-4b96-950d-fd6efb151d76","system_id":"levelo_inurba_marseille","lat":43.27069,"lon":5.42269,"is_reserved":false,"is_disabled":false,"rental_uris":{"android":"levelo://app?vid=23e5ff1f-b20a-4b96-950d-fd6efb151d76","ios":"levelo://app?vid=23e5ff1f-b20a-4b96-950d-fd6efb151d76"},"vehicle_type_id":"4","last_reported":1701723945,"current_range_meters":17600,"station_id":"ce4bhk92rcd13ifvqgb0","pricing_plan_id":"free"},{"bike_id":"b5302ae3-478a-4b1b-9641-4a725a9f0de3","system_id":"levelo_inurba_marseille","lat":43.270721,"lon":5.422764,"is_reserved":false,"is_disabled":false,"rental_uris":{"android":"levelo://app?vid=b5302ae3-478a-4b1b-9641-4a725a9f0de3","ios":"levelo://app?vid=b5302ae3-478a-4b1b-9641-4a725a9f0de3"},"vehicle_type_id":"4","last_reported":1701723945,"current_range_meters":27200,"station_id":"ce4bhk92rcd13ifvqgb0","pricing_plan_id":"free"},{"bike_id":"f3f584f6-d1cf-42d5-930f-0d2ec3d902f5","system_id":"levelo_inurba_marseille","lat":43.270721,"lon":5.422764,"is_reserved":false,"is_disabled":false,"rental_uris":{"android":"levelo://app?vid=f3f584f6-d1cf-42d5-930f-0d2ec3d902f5","ios":"levelo://app?vid=f3f584f6-d1cf-42d5-930f-0d2ec3d902f5"},"vehicle_type_id":"4","last_reported":1701723945,"current_range_meters":26400,"station_id":"ce4bhk92rcd13ifvqgb0","pricing_plan_id":"free"},{"bike_id":"d042c477-043a-4299-969a-9242c77c5144","system_id":"levelo_inurba_marseille","lat":43.258658,"lon":5.398935,"is_reserved":false,"is_disabled":false,"rental_uris":{"android":"levelo://app?vid=d042c477-043a-4299-969a-9242c77c5144","ios":"levelo://app?vid=d042c477-043a-4299-969a-9242c77c5144"},"vehicle_type_id":"4","last_reported":1701723945,"current_range_meters":27200,"station_id":"ce4bhl92rcd13ifvqghg","pricing_plan_id":"free"},{"bike_id":"4fe3b2cd-5d12-41e4-bd4b-04f483ad2ab7","system_id":"levelo_inurba_marseille","lat":43.257079,"lon":5.411051,"is_reserved":false,"is_disabled":false,"rental_uris":{"android":"levelo://app?vid=4fe3b2cd-5d12-41e4-bd4b-04f483ad2ab7","ios":"levelo://app?vid=4fe3b2cd-5d12-41e4-bd4b-04f483ad2ab7"},"vehicle_type_id":"4","last_reported":1701723945,"current_range_meters":26800,"station_id":"ce4bhkp2rcd13ifvqgd0","pricing_plan_id":"free"},{"bike_id":"3eb37453-f905-4aad-abf9-ef3c7ec2af7f","system_id":"levelo_inurba_marseille","lat":43.257079,"lon":5.411051,"is_reserved":false,"is_disabled":false,"rental_uris":{"android":"levelo://app?vid=3eb37453-f905-4aad-abf9-ef3c7ec2af7f","ios":"levelo://app?vid=3eb37453-f905-4aad-abf9-ef3c7ec2af7f"},"vehicle_type_id":"4","last_reported":1701723945,"current_range_meters":30000,"station_id":"ce4bhkp2rcd13ifvqgd0","pricing_plan_id":"free"},{"bike_id":"01034a8f-e737-4887-80f7-ed7c6fbdb149","system_id":"levelo_inurba_marseille","lat":43.250009,"lon":5.389195,"is_reserved":false,"is_disabled":false,"rental_uris":{"android":"levelo://app?vid=01034a8f-e737-4887-80f7-ed7c6fbdb149","ios":"levelo://app?vid=01034a8f-e737-4887-80f7-ed7c6fbdb149"},"vehicle_type_id":"4","last_reported":1701723945,"current_range_meters":26400,"station_id":"ce4bhgp2rcd13ifvqfd0","pricing_plan_id":"free"},{"bike_id":"fbf4d356-d4bd-493c-9171-b23e8af8b26d","system_id":"levelo_inurba_marseille","lat":43.250009,"lon":5.389195,"is_reserved":false,"is_disabled":false,"rental_uris":{"android":"levelo://app?vid=fbf4d356-d4bd-493c-9171-b23e8af8b26d","ios":"levelo://app?vid=fbf4d356-d4bd-493c-9171-b23e8af8b26d"},"vehicle_type_id":"4","last_reported":1701723945,"current_range_meters":16400,"station_id":"ce4bhgp2rcd13ifvqfd0","pricing_plan_id":"free"},{"bike_id":"902a0c89-c193-4e4f-8f0c-b506f853078a","system_id":"levelo_inurba_marseille","lat":43.2479,"lon":5.374457,"is_reserved":false,"is_disabled":false,"rental_uris":{"android":"levelo://app?vid=902a0c89-c193-4e4f-8f0c-b506f853078a","ios":"levelo://app?vid=902a0c89-c193-4e4f-8f0c-b506f853078a"},"vehicle_type_id":"4","last_reported":1701723945,"current_range_meters":25200,"station_id":"ce4bhgh2rcd13ifvqfb0","pricing_plan_id":"free"},{"bike_id":"a1f07619-1579-4fdb-9037-c01741dff529","system_id":"levelo_inurba_marseille","lat":43.250966,"lon":5.395186,"is_reserved":false,"is_disabled":false,"rental_uris":{"android":"levelo://app?vid=a1f07619-1579-4fdb-9037-c01741dff529","ios":"levelo://app?vid=a1f07619-1579-4fdb-9037-c01741dff529"},"vehicle_type_id":"4","last_reported":1701723945,"current_range_meters":0,"station_id":"ce4bhm12rcd13ifvqgkg","pricing_plan_id":"free"},{"bike_id":"2be90d44-e6df-4c36-85bd-c3a41fdf7c1d","system_id":"levelo_inurba_marseille","lat":43.250966,"lon":5.395186,"is_reserved":false,"is_disabled":false,"rental_uris":{"android":"levelo://app?vid=2be90d44-e6df-4c36-85bd-c3a41fdf7c1d","ios":"levelo://app?vid=2be90d44-e6df-4c36-85bd-c3a41fdf7c1d"},"vehicle_type_id":"4","last_reported":1701723945,"current_range_meters":6000,"station_id":"ce4bhm12rcd13ifvqgkg","pricing_plan_id":"free"},{"bike_id":"11cd32e7-517b-49d8-95fd-bdc2fe3ba685","system_id":"levelo_inurba_marseille","lat":43.250966,"lon":5.395186,"is_reserved":false,"is_disabled":false,"rental_uris":{"android":"levelo://app?vid=11cd32e7-517b-49d8-95fd-bdc2fe3ba685","ios":"levelo://app?vid=11cd32e7-517b-49d8-95fd-bdc2fe3ba685"},"vehicle_type_id":"4","last_reported":1701723945,"current_range_meters":18000,"station_id":"ce4bhm12rcd13ifvqgkg","pricing_plan_id":"free"},{"bike_id":"573ba776-2bb8-4ff6-9549-4ede0468314d","system_id":"levelo_inurba_marseille","lat":43.24693,"lon":5.382096,"is_reserved":false,"is_disabled":false,"rental_uris":{"android":"levelo://app?vid=573ba776-2bb8-4ff6-9549-4ede0468314d","ios":"levelo://app?vid=573ba776-2bb8-4ff6-9549-4ede0468314d"},"vehicle_type_id":"4","last_reported":1701723945,"current_range_meters":30400,"station_id":"ce4bhih2rcd13ifvqfr0","pricing_plan_id":"free"},{"bike_id":"20c85448-d10f-403e-86be-a89151db2b3c","system_id":"levelo_inurba_marseille","lat":43.24693,"lon":5.382096,"is_reserved":false,"is_disabled":false,"rental_uris":{"android":"levelo://app?vid=20c85448-d10f-403e-86be-a89151db2b3c","ios":"levelo://app?vid=20c85448-d10f-403e-86be-a89151db2b3c"},"vehicle_type_id":"4","last_reported":1701723945,"current_range_meters":18800,"station_id":"ce4bhih2rcd13ifvqfr0","pricing_plan_id":"free"},{"bike_id":"a08ecca1-ef8c-45bc-8d30-601c087c218d","system_id":"levelo_inurba_marseille","lat":43.25102,"lon":5.403214,"is_reserved":false,"is_disabled":false,"rental_uris":{"android":"levelo://app?vid=a08ecca1-ef8c-45bc-8d30-601c087c218d","ios":"levelo://app?vid=a08ecca1-ef8c-45bc-8d30-601c087c218d"},"vehicle_type_id":"4","last_reported":1701723945,"current_range_meters":1600,"station_id":"ce4bhlh2rcd13ifvqgig","pricing_plan_id":"free"},{"bike_id":"6b0a7c82-1089-4eee-817c-ffe8ce2df2dc","system_id":"levelo_inurba_marseille","lat":43.25109,"lon":5.40326,"is_reserved":false,"is_disabled":false,"rental_uris":{"android":"levelo://app?vid=6b0a7c82-1089-4eee-817c-ffe8ce2df2dc","ios":"levelo://app?vid=6b0a7c82-1089-4eee-817c-ffe8ce2df2dc"},"vehicle_type_id":"4","last_reported":1701723945,"current_range_meters":0,"station_id":"ce4bhlh2rcd13ifvqgig","pricing_plan_id":"free"},{"bike_id":"fab15115-d972-4f82-9867-bc84399b6055","system_id":"levelo_inurba_marseille","lat":43.25102,"lon":5.403214,"is_reserved":false,"is_disabled":false,"rental_uris":{"android":"levelo://app?vid=fab15115-d972-4f82-9867-bc84399b6055","ios":"levelo://app?vid=fab15115-d972-4f82-9867-bc84399b6055"},"vehicle_type_id":"4","last_reported":1701723945,"current_range_meters":10000,"station_id":"ce4bhlh2rcd13ifvqgig","pricing_plan_id":"free"},{"bike_id":"3606662b-c95b-47e0-b40c-2840c6331fb6","system_id":"levelo_inurba_marseille","lat":43.25102,"lon":5.403214,"is_reserved":false,"is_disabled":false,"rental_uris":{"android":"levelo://app?vid=3606662b-c95b-47e0-b40c-2840c6331fb6","ios":"levelo://app?vid=3606662b-c95b-47e0-b40c-2840c6331fb6"},"vehicle_type_id":"4","last_reported":1701723945,"current_range_meters":2400,"station_id":"ce4bhlh2rcd13ifvqgig","pricing_plan_id":"free"},{"bike_id":"fc925304-b6cf-4279-8293-371e4ab3436d","system_id":"levelo_inurba_marseille","lat":43.25102,"lon":5.403214,"is_reserved":false,"is_disabled":false,"rental_uris":{"android":"levelo://app?vid=fc925304-b6cf-4279-8293-371e4ab3436d","ios":"levelo://app?vid=fc925304-b6cf-4279-8293-371e4ab3436d"},"vehicle_type_id":"4","last_reported":1701723945,"current_range_meters":31600,"station_id":"ce4bhlh2rcd13ifvqgig","pricing_plan_id":"free"},{"bike_id":"c712a2b9-b1c7-48ca-a7b7-72d23ebbe56f","system_id":"levelo_inurba_marseille","lat":43.246461,"lon":5.389014,"is_reserved":false,"is_disabled":false,"rental_uris":{"android":"levelo://app?vid=c712a2b9-b1c7-48ca-a7b7-72d23ebbe56f","ios":"levelo://app?vid=c712a2b9-b1c7-48ca-a7b7-72d23ebbe56f"},"vehicle_type_id":"4","last_reported":1701723945,"current_range_meters":28400,"station_id":"ce4bhg12rcd13ifvqf60","pricing_plan_id":"free"},{"bike_id":"075c5af7-8a66-44a0-ae30-a6b648947e96","system_id":"levelo_inurba_marseille","lat":43.246461,"lon":5.389014,"is_reserved":false,"is_disabled":false,"rental_uris":{"android":"levelo://app?vid=075c5af7-8a66-44a0-ae30-a6b648947e96","ios":"levelo://app?vid=075c5af7-8a66-44a0-ae30-a6b648947e96"},"vehicle_type_id":"4","last_reported":1701723945,"current_range_meters":30400,"station_id":"ce4bhg12rcd13ifvqf60","pricing_plan_id":"free"},{"bike_id":"a1c0e568-b494-4bf3-ae03-9682d2653665","system_id":"levelo_inurba_marseille","lat":43.246461,"lon":5.389014,"is_reserved":false,"is_disabled":false,"rental_uris":{"android":"levelo://app?vid=a1c0e568-b494-4bf3-ae03-9682d2653665","ios":"levelo://app?vid=a1c0e568-b494-4bf3-ae03-9682d2653665"},"vehicle_type_id":"4","last_reported":1701723945,"current_range_meters":13200,"station_id":"ce4bhg12rcd13ifvqf60","pricing_plan_id":"free"},{"bike_id":"7ec16487-cc72-4870-a286-56d3e3b45a04","system_id":"levelo_inurba_marseille","lat":43.245581,"lon":5.395069,"is_reserved":false,"is_disabled":false,"rental_uris":{"android":"levelo://app?vid=7ec16487-cc72-4870-a286-56d3e3b45a04","ios":"levelo://app?vid=7ec16487-cc72-4870-a286-56d3e3b45a04"},"vehicle_type_id":"4","last_reported":1701723945,"current_range_meters":0,"station_id":"ce4bhlp2rcd13ifvqgjg","pricing_plan_id":"free"},{"bike_id":"8af28d66-daba-47c3-af30-7e896a5300de","system_id":"levelo_inurba_marseille","lat":43.245581,"lon":5.395069,"is_reserved":false,"is_disabled":false,"rental_uris":{"android":"levelo://app?vid=8af28d66-daba-47c3-af30-7e896a5300de","ios":"levelo://app?vid=8af28d66-daba-47c3-af30-7e896a5300de"},"vehicle_type_id":"4","last_reported":1701723945,"current_range_meters":29200,"station_id":"ce4bhlp2rcd13ifvqgjg","pricing_plan_id":"free"},{"bike_id":"ee8de862-9d88-45bb-b1d6-aff082bc930d","system_id":"levelo_inurba_marseille","lat":43.240741,"lon":5.37755,"is_reserved":false,"is_disabled":false,"rental_uris":{"android":"levelo://app?vid=ee8de862-9d88-45bb-b1d6-aff082bc930d","ios":"levelo://app?vid=ee8de862-9d88-45bb-b1d6-aff082bc930d"},"vehicle_type_id":"4","last_reported":1701723945,"current_range_meters":10400,"station_id":"ce4bhnp2rcd13ifvqgvg","pricing_plan_id":"free"},{"bike_id":"af051b45-0d26-4307-9a54-968ef6a25caa","system_id":"levelo_inurba_marseille","lat":43.240623,"lon":5.377642,"is_reserved":false,"is_disabled":false,"rental_uris":{"android":"levelo://app?vid=af051b45-0d26-4307-9a54-968ef6a25caa","ios":"levelo://app?vid=af051b45-0d26-4307-9a54-968ef6a25caa"},"vehicle_type_id":"4","last_reported":1701723945,"current_range_meters":14800,"station_id":"ce4bhnp2rcd13ifvqgvg","pricing_plan_id":"free"},{"bike_id":"7ffa733d-3283-44cf-bc6c-8873f0729d27","system_id":"levelo_inurba_marseille","lat":43.240623,"lon":5.377642,"is_reserved":false,"is_disabled":false,"rental_uris":{"android":"levelo://app?vid=7ffa733d-3283-44cf-bc6c-8873f0729d27","ios":"levelo://app?vid=7ffa733d-3283-44cf-bc6c-8873f0729d27"},"vehicle_type_id":"4","last_reported":1701723945,"current_range_meters":31600,"station_id":"ce4bhnp2rcd13ifvqgvg","pricing_plan_id":"free"},{"bike_id":"15ec8c74-bb7d-4bed-ae17-b97a26635983","system_id":"levelo_inurba_marseille","lat":43.239588,"lon":5.366238,"is_reserved":false,"is_disabled":false,"rental_uris":{"android":"levelo://app?vid=15ec8c74-bb7d-4bed-ae17-b97a26635983","ios":"levelo://app?vid=15ec8c74-bb7d-4bed-ae17-b97a26635983"},"vehicle_type_id":"4","last_reported":1701723945,"current_range_meters":31200,"station_id":"ce4bhi12rcd13ifvqfp0","pricing_plan_id":"free"},{"bike_id":"eb1d283c-e696-4afd-beba-5a6438129bb8","system_id":"levelo_inurba_marseille","lat":43.241782,"lon":5.397261,"is_reserved":false,"is_disabled":false,"rental_uris":{"android":"levelo://app?vid=eb1d283c-e696-4afd-beba-5a6438129bb8","ios":"levelo://app?vid=eb1d283c-e696-4afd-beba-5a6438129bb8"},"vehicle_type_id":"4","last_reported":1701723945,"current_range_meters":29200,"station_id":"ce4bhn12rcd13ifvqgpg","pricing_plan_id":"free"},{"bike_id":"2b04708e-eed8-4471-916a-9fdeea01eec7","system_id":"levelo_inurba_marseille","lat":43.231923,"lon":5.355545,"is_reserved":false,"is_disabled":false,"rental_uris":{"android":"levelo://app?vid=2b04708e-eed8-4471-916a-9fdeea01eec7","ios":"levelo://app?vid=2b04708e-eed8-4471-916a-9fdeea01eec7"},"vehicle_type_id":"4","last_reported":1701723945,"current_range_meters":26800,"station_id":"ce4bhu92rcd13ifvqi70","pricing_plan_id":"free"},{"bike_id":"8756435f-ebd3-4df3-89fa-6a5a1e380d37","system_id":"levelo_inurba_marseille","lat":43.231919,"lon":5.355532,"is_reserved":false,"is_disabled":false,"rental_uris":{"android":"levelo://app?vid=8756435f-ebd3-4df3-89fa-6a5a1e380d37","ios":"levelo://app?vid=8756435f-ebd3-4df3-89fa-6a5a1e380d37"},"vehicle_type_id":"4","last_reported":1701723945,"current_range_meters":31200,"station_id":"ce4bhu92rcd13ifvqi70","pricing_plan_id":"free"},{"bike_id":"9e01ee59-41e6-425c-ae1f-3e33312fefcd","system_id":"levelo_inurba_marseille","lat":43.231923,"lon":5.355545,"is_reserved":false,"is_disabled":false,"rental_uris":{"android":"levelo://app?vid=9e01ee59-41e6-425c-ae1f-3e33312fefcd","ios":"levelo://app?vid=9e01ee59-41e6-425c-ae1f-3e33312fefcd"},"vehicle_type_id":"4","last_reported":1701723945,"current_range_meters":10400,"station_id":"ce4bhu92rcd13ifvqi70","pricing_plan_id":"free"},{"bike_id":"cf3102c4-88e0-4a41-86b7-69a76932d3e6","system_id":"levelo_inurba_marseille","lat":43.231923,"lon":5.355545,"is_reserved":false,"is_disabled":false,"rental_uris":{"android":"levelo://app?vid=cf3102c4-88e0-4a41-86b7-69a76932d3e6","ios":"levelo://app?vid=cf3102c4-88e0-4a41-86b7-69a76932d3e6"},"vehicle_type_id":"4","last_reported":1701723945,"current_range_meters":31600,"station_id":"ce4bhu92rcd13ifvqi70","pricing_plan_id":"free"},{"bike_id":"6041d620-664b-4836-b597-a0e62593a032","system_id":"levelo_inurba_marseille","lat":43.231923,"lon":5.355545,"is_reserved":false,"is_disabled":false,"rental_uris":{"android":"levelo://app?vid=6041d620-664b-4836-b597-a0e62593a032","ios":"levelo://app?vid=6041d620-664b-4836-b597-a0e62593a032"},"vehicle_type_id":"4","last_reported":1701723945,"current_range_meters":22800,"station_id":"ce4bhu92rcd13ifvqi70","pricing_plan_id":"free"},{"bike_id":"88cf855f-bb31-40e0-8afc-686df3c193ab","system_id":"levelo_inurba_marseille","lat":43.231794,"lon":5.400052,"is_reserved":false,"is_disabled":false,"rental_uris":{"android":"levelo://app?vid=88cf855f-bb31-40e0-8afc-686df3c193ab","ios":"levelo://app?vid=88cf855f-bb31-40e0-8afc-686df3c193ab"},"vehicle_type_id":"4","last_reported":1701723945,"current_range_meters":28800,"station_id":"ce4bhn12rcd13ifvqgqg","pricing_plan_id":"free"},{"bike_id":"ab5eae98-96ca-4718-91b7-353de917f40d","system_id":"levelo_inurba_marseille","lat":43.231882,"lon":5.399808,"is_reserved":false,"is_disabled":false,"rental_uris":{"android":"levelo://app?vid=ab5eae98-96ca-4718-91b7-353de917f40d","ios":"levelo://app?vid=ab5eae98-96ca-4718-91b7-353de917f40d"},"vehicle_type_id":"4","last_reported":1701723945,"current_range_meters":31200,"station_id":"ce4bhn12rcd13ifvqgqg","pricing_plan_id":"free"},{"bike_id":"554e18bc-f6bd-448a-9d3a-a49810d0b6de","system_id":"levelo_inurba_marseille","lat":43.231892,"lon":5.399858,"is_reserved":false,"is_disabled":false,"rental_uris":{"android":"levelo://app?vid=554e18bc-f6bd-448a-9d3a-a49810d0b6de","ios":"levelo://app?vid=554e18bc-f6bd-448a-9d3a-a49810d0b6de"},"vehicle_type_id":"4","last_reported":1701723945,"current_range_meters":12800,"station_id":"ce4bhn12rcd13ifvqgqg","pricing_plan_id":"free"},{"bike_id":"d6f1b06d-6100-4b51-8fdd-b5dbe00f7ca7","system_id":"levelo_inurba_marseille","lat":43.231868,"lon":5.399752,"is_reserved":false,"is_disabled":false,"rental_uris":{"android":"levelo://app?vid=d6f1b06d-6100-4b51-8fdd-b5dbe00f7ca7","ios":"levelo://app?vid=d6f1b06d-6100-4b51-8fdd-b5dbe00f7ca7"},"vehicle_type_id":"4","last_reported":1701723945,"current_range_meters":11600,"station_id":"ce4bhn12rcd13ifvqgqg","pricing_plan_id":"free"},{"bike_id":"c649eff1-b727-4a3a-ae80-4002093c2a17","system_id":"levelo_inurba_marseille","lat":43.23189,"lon":5.39987,"is_reserved":false,"is_disabled":false,"rental_uris":{"android":"levelo://app?vid=c649eff1-b727-4a3a-ae80-4002093c2a17","ios":"levelo://app?vid=c649eff1-b727-4a3a-ae80-4002093c2a17"},"vehicle_type_id":"4","last_reported":1701723945,"current_range_meters":24000,"station_id":"ce4bhn12rcd13ifvqgqg","pricing_plan_id":"free"},{"bike_id":"5d9be6d5-2985-432d-ac4f-8e0798b2a0ac","system_id":"levelo_inurba_marseille","lat":43.231875,"lon":5.399806,"is_reserved":false,"is_disabled":false,"rental_uris":{"android":"levelo://app?vid=5d9be6d5-2985-432d-ac4f-8e0798b2a0ac","ios":"levelo://app?vid=5d9be6d5-2985-432d-ac4f-8e0798b2a0ac"},"vehicle_type_id":"4","last_reported":1701723945,"current_range_meters":29600,"station_id":"ce4bhn12rcd13ifvqgqg","pricing_plan_id":"free"},{"bike_id":"6bd9f065-50d9-4657-9ca0-a006f413d305","system_id":"levelo_inurba_marseille","lat":43.231794,"lon":5.400052,"is_reserved":false,"is_disabled":false,"rental_uris":{"android":"levelo://app?vid=6bd9f065-50d9-4657-9ca0-a006f413d305","ios":"levelo://app?vid=6bd9f065-50d9-4657-9ca0-a006f413d305"},"vehicle_type_id":"4","last_reported":1701723945,"current_range_meters":32000,"station_id":"ce4bhn12rcd13ifvqgqg","pricing_plan_id":"free"},{"bike_id":"e47e98e0-4256-4c41-ae86-e531a41b9213","system_id":"levelo_inurba_marseille","lat":43.231794,"lon":5.400052,"is_reserved":false,"is_disabled":false,"rental_uris":{"android":"levelo://app?vid=e47e98e0-4256-4c41-ae86-e531a41b9213","ios":"levelo://app?vid=e47e98e0-4256-4c41-ae86-e531a41b9213"},"vehicle_type_id":"4","last_reported":1701723945,"current_range_meters":32000,"station_id":"ce4bhn12rcd13ifvqgqg","pricing_plan_id":"free"},{"bike_id":"0cf73e26-cfe4-495a-8675-6603ab968aec","system_id":"levelo_inurba_marseille","lat":43.231794,"lon":5.400052,"is_reserved":false,"is_disabled":false,"rental_uris":{"android":"levelo://app?vid=0cf73e26-cfe4-495a-8675-6603ab968aec","ios":"levelo://app?vid=0cf73e26-cfe4-495a-8675-6603ab968aec"},"vehicle_type_id":"4","last_reported":1701723945,"current_range_meters":26800,"station_id":"ce4bhn12rcd13ifvqgqg","pricing_plan_id":"free"},{"bike_id":"22bd98e3-c33f-4c44-ae2b-f96729d36f4f","system_id":"levelo_inurba_marseille","lat":43.231793,"lon":5.400044,"is_reserved":false,"is_disabled":false,"rental_uris":{"android":"levelo://app?vid=22bd98e3-c33f-4c44-ae2b-f96729d36f4f","ios":"levelo://app?vid=22bd98e3-c33f-4c44-ae2b-f96729d36f4f"},"vehicle_type_id":"4","last_reported":1701723945,"current_range_meters":31200,"station_id":"ce4bhn12rcd13ifvqgqg","pricing_plan_id":"free"},{"bike_id":"e44db449-6914-4cfb-bde0-4c3cbeca97c3","system_id":"levelo_inurba_marseille","lat":43.231794,"lon":5.400052,"is_reserved":false,"is_disabled":false,"rental_uris":{"android":"levelo://app?vid=e44db449-6914-4cfb-bde0-4c3cbeca97c3","ios":"levelo://app?vid=e44db449-6914-4cfb-bde0-4c3cbeca97c3"},"vehicle_type_id":"4","last_reported":1701723945,"current_range_meters":30000,"station_id":"ce4bhn12rcd13ifvqgqg","pricing_plan_id":"free"},{"bike_id":"77b1a551-da7f-429a-980e-bfc6767a5958","system_id":"levelo_inurba_marseille","lat":43.231794,"lon":5.400052,"is_reserved":false,"is_disabled":false,"rental_uris":{"android":"levelo://app?vid=77b1a551-da7f-429a-980e-bfc6767a5958","ios":"levelo://app?vid=77b1a551-da7f-429a-980e-bfc6767a5958"},"vehicle_type_id":"4","last_reported":1701723945,"current_range_meters":32000,"station_id":"ce4bhn12rcd13ifvqgqg","pricing_plan_id":"free"},{"bike_id":"aea0f781-e12f-4163-af4a-9b5fa684703e","system_id":"levelo_inurba_marseille","lat":43.23183,"lon":5.39995,"is_reserved":false,"is_disabled":false,"rental_uris":{"android":"levelo://app?vid=aea0f781-e12f-4163-af4a-9b5fa684703e","ios":"levelo://app?vid=aea0f781-e12f-4163-af4a-9b5fa684703e"},"vehicle_type_id":"4","last_reported":1701723945,"current_range_meters":18000,"station_id":"ce4bhn12rcd13ifvqgqg","pricing_plan_id":"free"},{"bike_id":"42ab340c-c5ba-46d0-ac97-bc0901399522","system_id":"levelo_inurba_marseille","lat":43.23181,"lon":5.39987,"is_reserved":false,"is_disabled":false,"rental_uris":{"android":"levelo://app?vid=42ab340c-c5ba-46d0-ac97-bc0901399522","ios":"levelo://app?vid=42ab340c-c5ba-46d0-ac97-bc0901399522"},"vehicle_type_id":"4","last_reported":1701723945,"current_range_meters":22000,"station_id":"ce4bhn12rcd13ifvqgqg","pricing_plan_id":"free"},{"bike_id":"0a01c65e-9b0d-49da-aa4f-82283fa26cef","system_id":"levelo_inurba_marseille","lat":43.23178,"lon":5.39994,"is_reserved":false,"is_disabled":false,"rental_uris":{"android":"levelo://app?vid=0a01c65e-9b0d-49da-aa4f-82283fa26cef","ios":"levelo://app?vid=0a01c65e-9b0d-49da-aa4f-82283fa26cef"},"vehicle_type_id":"4","last_reported":1701723945,"current_range_meters":4400,"station_id":"ce4bhn12rcd13ifvqgqg","pricing_plan_id":"free"},{"bike_id":"818b7971-a62f-4d0c-b4d6-ebcff5688a44","system_id":"levelo_inurba_marseille","lat":43.231562,"lon":5.436933,"is_reserved":false,"is_disabled":false,"rental_uris":{"android":"levelo://app?vid=818b7971-a62f-4d0c-b4d6-ebcff5688a44","ios":"levelo://app?vid=818b7971-a62f-4d0c-b4d6-ebcff5688a44"},"vehicle_type_id":"4","last_reported":1701723945,"current_range_meters":27600,"station_id":"ce4bhmp2rcd13ifvqgog","pricing_plan_id":"free"},{"bike_id":"2e1f4911-ec15-4212-aa8f-8ade17ab151d","system_id":"levelo_inurba_marseille","lat":43.231562,"lon":5.436933,"is_reserved":false,"is_disabled":false,"rental_uris":{"android":"levelo://app?vid=2e1f4911-ec15-4212-aa8f-8ade17ab151d","ios":"levelo://app?vid=2e1f4911-ec15-4212-aa8f-8ade17ab151d"},"vehicle_type_id":"4","last_reported":1701723945,"current_range_meters":28800,"station_id":"ce4bhmp2rcd13ifvqgog","pricing_plan_id":"free"},{"bike_id":"1470ce37-368f-45ab-b473-5fbe751d8010","system_id":"levelo_inurba_marseille","lat":43.23147,"lon":5.43717,"is_reserved":false,"is_disabled":false,"rental_uris":{"android":"levelo://app?vid=1470ce37-368f-45ab-b473-5fbe751d8010","ios":"levelo://app?vid=1470ce37-368f-45ab-b473-5fbe751d8010"},"vehicle_type_id":"4","last_reported":1701723945,"current_range_meters":30400,"station_id":"ce4bhmp2rcd13ifvqgog","pricing_plan_id":"free"},{"bike_id":"31d0811f-403f-42aa-9ea6-b138ed5aedee","system_id":"levelo_inurba_marseille","lat":43.231562,"lon":5.436933,"is_reserved":false,"is_disabled":false,"rental_uris":{"android":"levelo://app?vid=31d0811f-403f-42aa-9ea6-b138ed5aedee","ios":"levelo://app?vid=31d0811f-403f-42aa-9ea6-b138ed5aedee"},"vehicle_type_id":"4","last_reported":1701723945,"current_range_meters":31200,"station_id":"ce4bhmp2rcd13ifvqgog","pricing_plan_id":"free"}]}}