{"last_updated":1684911983,"ttl":30,"version":"2.2","data":{"bikes":[{"bike_id":"2b4d5d1e-af5a-4e3f-896c-1bbcf7c20ca5","system_id":"levelo_inurba_marseille","lat":43.31341,"lon":5.367098,"is_reserved":false,"is_disabled":false,"rental_uris":{"android":"levelo://app?vid=2b4d5d1e-af5a-4e3f-896c-1bbcf7c20ca5","ios":"levelo://app?vid=2b4d5d1e-af5a-4e3f-896c-1bbcf7c20ca5"},"vehicle_type_id":"4","last_reported":1684911984,"current_range_meters":3600,"station_id":"ce4bgr92rcd13ifvqc6g","pricing_plan_id":"free"},{"bike_id":"22236b32-878f-429c-928c-e4668f09f0c0","system_id":"levelo_inurba_marseille","lat":43.31341,"lon":5.367098,"is_reserved":false,"is_disabled":false,"rental_uris":{"android":"levelo://app?vid=22236b32-878f-429c-928c-e4668f09f0c0","ios":"levelo://app?vid=22236b32-878f-429c-928c-e4668f09f0c0"},"vehicle_type_id":"4","last_reported":1684911984,"current_range_meters":21200,"station_id":"ce4bgr92rcd13ifvqc6g","pricing_plan_id":"free"},{"bike_id":"8004bfd5-17f9-48ee-b3a1-ed1acce8250c","system_id":"levelo_inurba_marseille","lat":43.313391,"lon":5.36706,"is_reserved":false,"is_disabled":false,"rental_uris":{"android":"levelo://app?vid=8004bfd5-17f9-48ee-b3a1-ed1acce8250c","ios":"levelo://app?vid=8004bfd5-17f9-48ee-b3a1-ed1acce8250c"},"vehicle_type_id":"4","last_reported":1684911984,"current_range_meters":24000,"station_id":"ce4bgr92rcd13ifvqc6g","pricing_plan_id":"free"},{"bike_id":"9c14a280-0c22-4022-b846-88a1d289f20c","system_id":"levelo_inurba_marseille","lat":43.313391,"lon":5.36706,"is_reserved":false,"is_disabled":false,"rental_uris":{"android":"levelo://app?vid=9c14a280-0c22-4022-b846-88a1d289f20c","ios":"levelo://app?vid=9c14a280-0c22-4022-b846-88a1d289f20c"},"vehicle_type_id":"4","last_reported":1684911984,"current_range_meters":26000,"station_id":"ce4bgr92rcd13ifvqc6g","pricing_plan_id":"free"},{"bike_id":"acc2417e-48e4-4dd5-b370-c345c39ce1f4","system_id":"levelo_inurba_marseille","lat":43.31341,"lon":5.367098,"is_reserved":false,"is_disabled":false,"rental_uris":{"android":"levelo://app?vid=acc2417e-48e4-4dd5-b370-c345c39ce1f4","ios":"levelo://app?vid=acc2417e-48e4-4dd5-b370-c345c39ce1f4"},"vehicle_type_id":"4","last_reported":1684911984,"current_range_meters":29600,"station_id":"ce4bgr92rcd13ifvqc6g","pricing_plan_id":"free"},{"bike_id":"17549d0c-8e65-42d6-aed3-368a0131a7de","system_id":"levelo_inurba_marseille","lat":43.31341,"lon":5.367098,"is_reserved":false,"is_disabled":false,"rental_uris":{"android":"levelo://app?vid=17549d0c-8e65-42d6-aed3-368a0131a7de","ios":"levelo://app?vid=17549d0c-8e65-42d6-aed3-368a0131a7de"},"vehicle_type_id":"4","last_reported":1684911984,"current_range_meters":26400,"station_id":"ce4bgr92rcd13ifvqc6g","pricing_plan_id":"free"},{"bike_id":"b7936be5-e4cd-4f02-b487-37e8b221e291","system_id":"levelo_inurba_marseille","lat":43.31341,"lon":5.367098,"is_reserved":false,"is_disabled":false,"rental_uris":{"android":"levelo://app?vid=b7936be5-e4cd-4f02-b487-37e8b221e291","ios":"levelo://app?vid=b7936be5-e4cd-4f02-b487-37e8b221e291"},"vehicle_type_id":"4","last_reported":1684911984,"current_range_meters":18800,"station_id":"ce4bgr92rcd13ifvqc6g","pricing_plan_id":"free"},{"bike_id":"a3f33ab1-0196-4432-9ffe-736f630ae8ad","system_id":"levelo_inurba_marseille","lat":43.31341,"lon":5.367098,"is_reserved":false,"is_disabled":false,"rental_uris":{"android":"levelo://app?vid=a3f33ab1-0196-4432-9ffe-736f630ae8ad","ios":"levelo://app?vid=a3f33ab1-0196-4432-9ffe-736f630ae8ad"},"vehicle_type_id":"4","last_reported":1684911984,"current_range_meters":28000,"station_id":"ce4bgr92rcd13ifvqc6g","pricing_plan_id":"free"},{"bike_id":"b9ab2109-33dd-45b0-944e-72cf9b3b8e76","system_id":"levelo_inurba_marseille","lat":43.313391,"lon":5.36706,"is_reserved":false,"is_disabled":false,"rental_uris":{"android":"levelo://app?vid=b9ab2109-33dd-45b0-944e-72cf9b3b8e76","ios":"levelo://app?vid=b9ab2109-33dd-45b0-944e-72cf9b3b8e76"},"vehicle_type_id":"4","last_reported":1684911984,"current_range_meters":26000,"station_id":"ce4bgr92rcd13ifvqc6g","pricing_plan_id":"free"},{"bike_id":"5fd248d2-be71-4f01-8b4c-f4008e27ec4e","system_id":"levelo_inurba_marseille","lat":43.313391,"lon":5.36706,"is_reserved":false,"is_disabled":false,"rental_uris":{"android":"levelo://app?vid=5fd248d2-be71-4f01-8b4c-f4008e27ec4e","ios":"levelo://app?vid=5fd248d2-be71-4f01-8b4c-f4008e27ec4e"},"vehicle_type_id":"4","last_reported":1684911984,"current_range_meters":30000,"station_id":"ce4bgr92rcd13ifvqc6g","pricing_plan_id":"free"},{"bike_id":"1c0fad78-c079-4d89-9eb1-eaaee5fe3534","system_id":"levelo_inurba_marseille","lat":43.313391,"lon":5.36706,"is_reserved":false,"is_disabled":false,"rental_uris":{"android":"levelo://app?vid=1c0fad78-c079-4d89-9eb1-eaaee5fe3534","ios":"levelo://app?vid=1c0fad78-c079-4d89-9eb1-eaaee5fe3534"},"vehicle_type_id":"4","last_reported":1684911984,"current_range_meters":4400,"station_id":"ce4bgr92rcd13ifvqc6g","pricing_plan_id":"free"},{"bike_id":"30509770-c8df-49c4-ac0a-6b01b371d87c","system_id":"levelo_inurba_marseille","lat":43.31354,"lon":5.36705,"is_reserved":false,"is_disabled":false,"rental_uris":{"android":"levelo://app?vid=30509770-c8df-49c4-ac0a-6b01b371d87c","ios":"levelo://app?vid=30509770-c8df-49c4-ac0a-6b01b371d87c"},"vehicle_type_id":"4","last_reported":1684911984,"current_range_meters":22000,"station_id":"ce4bgr92rcd13ifvqc6g","pricing_plan_id":"free"},{"bike_id":"4510d517-49c5-4621-ac81-8a9753ecddca","system_id":"levelo_inurba_marseille","lat":43.313391,"lon":5.36706,"is_reserved":false,"is_disabled":false,"rental_uris":{"android":"levelo://app?vid=4510d517-49c5-4621-ac81-8a9753ecddca","ios":"levelo://app?vid=4510d517-49c5-4621-ac81-8a9753ecddca"},"vehicle_type_id":"4","last_reported":1684911984,"current_range_meters":13600,"station_id":"ce4bgr92rcd13ifvqc6g","pricing_plan_id":"free"},{"bike_id":"3817f479-6ff0-45ec-b1ae-400f4252c44c","system_id":"levelo_inurba_marseille","lat":43.31341,"lon":5.367098,"is_reserved":false,"is_disabled":false,"rental_uris":{"android":"levelo://app?vid=3817f479-6ff0-45ec-b1ae-400f4252c44c","ios":"levelo://app?vid=3817f479-6ff0-45ec-b1ae-400f4252c44c"},"vehicle_type_id":"4","last_reported":1684911984,"current_range_meters":20400,"station_id":"ce4bgr92rcd13ifvqc6g","pricing_plan_id":"free"},{"bike_id":"275beea1-8f32-4f5e-be9d-8928639e6011","system_id":"levelo_inurba_marseille","lat":43.312239,"lon":5.368562,"is_reserved":false,"is_disabled":false,"rental_uris":{"android":"levelo://app?vid=275beea1-8f32-4f5e-be9d-8928639e6011","ios":"levelo://app?vid=275beea1-8f32-4f5e-be9d-8928639e6011"},"vehicle_type_id":"4","last_reported":1684911984,"current_range_meters":27200,"station_id":"ce4bgl92rcd13ifvqbq0","pricing_plan_id":"free"},{"bike_id":"c68b2537-6484-4cbf-bd64-b22369cb7294","system_id":"levelo_inurba_marseille","lat":43.312239,"lon":5.368562,"is_reserved":false,"is_disabled":false,"rental_uris":{"android":"levelo://app?vid=c68b2537-6484-4cbf-bd64-b22369cb7294","ios":"levelo://app?vid=c68b2537-6484-4cbf-bd64-b22369cb7294"},"vehicle_type_id":"4","last_reported":1684911984,"current_range_meters":28400,"station_id":"ce4bgl92rcd13ifvqbq0","pricing_plan_id":"free"},{"bike_id":"41892a07-6a1f-4061-ab05-7c3547d27e02","system_id":"levelo_inurba_marseille","lat":43.312239,"lon":5.368562,"is_reserved":false,"is_disabled":false,"rental_uris":{"android":"levelo://app?vid=41892a07-6a1f-4061-ab05-7c3547d27e02","ios":"levelo://app?vid=41892a07-6a1f-4061-ab05-7c3547d27e02"},"vehicle_type_id":"4","last_reported":1684911984,"current_range_meters":29600,"station_id":"ce4bgl92rcd13ifvqbq0","pricing_plan_id":"free"},{"bike_id":"68c16e46-8b69-4557-bafc-97b347964c5c","system_id":"levelo_inurba_marseille","lat":43.312239,"lon":5.368562,"is_reserved":false,"is_disabled":false,"rental_uris":{"android":"levelo://app?vid=68c16e46-8b69-4557-bafc-97b347964c5c","ios":"levelo://app?vid=68c16e46-8b69-4557-bafc-97b347964c5c"},"vehicle_type_id":"4","last_reported":1684911984,"current_range_meters":25200,"station_id":"ce4bgl92rcd13ifvqbq0","pricing_plan_id":"free"},{"bike_id":"4425249e-087d-4a0d-b67f-1e372d728b39","system_id":"levelo_inurba_marseille","lat":43.312239,"lon":5.368562,"is_reserved":false,"is_disabled":false,"rental_uris":{"android":"levelo://app?vid=4425249e-087d-4a0d-b67f-1e372d728b39","ios":"levelo://app?vid=4425249e-087d-4a0d-b67f-1e372d728b39"},"vehicle_type_id":"4","last_reported":1684911984,"current_range_meters":28400,"station_id":"ce4bgl92rcd13ifvqbq0","pricing_plan_id":"free"},{"bike_id":"a51ee737-7352-47c3-98b6-27f4e6638c26","system_id":"levelo_inurba_marseille","lat":43.312239,"lon":5.368562,"is_reserved":false,"is_disabled":false,"rental_uris":{"android":"levelo://app?vid=a51ee737-7352-47c3-98b6-27f4e6638c26","ios":"levelo://app?vid=a51ee737-7352-47c3-98b6-27f4e6638c26"},"vehicle_type_id":"4","last_reported":1684911984,"current_range_meters":31200,"station_id":"ce4bgl92rcd13ifvqbq0","pricing_plan_id":"free"},{"bike_id":"9ea58927-10cd-4b43-906c-8b4ece00c918","system_id":"levelo_inurba_marseille","lat":43.309076,"lon":5.368465,"is_reserved":false,"is_disabled":false,"rental_uris":{"android":"levelo://app?vid=9ea58927-10cd-4b43-906c-8b4ece00c918","ios":"levelo://app?vid=9ea58927-10cd-4b43-906c-8b4ece00c918"},"vehicle_type_id":"4","last_reported":1684911984,"current_range_meters":26400,"station_id":"ce4bgn92rcd13ifvqbvg","pricing_plan_id":"free"},{"bike_id":"956f7611-7020-4fd4-b74a-4285a134dc05","system_id":"levelo_inurba_marseille","lat":43.309076,"lon":5.368465,"is_reserved":false,"is_disabled":false,"rental_uris":{"android":"levelo://app?vid=956f7611-7020-4fd4-b74a-4285a134dc05","ios":"levelo://app?vid=956f7611-7020-4fd4-b74a-4285a134dc05"},"vehicle_type_id":"4","last_reported":1684911984,"current_range_meters":18000,"station_id":"ce4bgn92rcd13ifvqbvg","pricing_plan_id":"free"},{"bike_id":"52e76cf1-5790-4268-89d9-e43d2d93e4ed","system_id":"levelo_inurba_marseille","lat":43.309076,"lon":5.368465,"is_reserved":false,"is_disabled":false,"rental_uris":{"android":"levelo://app?vid=52e76cf1-5790-4268-89d9-e43d2d93e4ed","ios":"levelo://app?vid=52e76cf1-5790-4268-89d9-e43d2d93e4ed"},"vehicle_type_id":"4","last_reported":1684911984,"current_range_meters":20000,"station_id":"ce4bgn92rcd13ifvqbvg","pricing_plan_id":"free"},{"bike_id":"bec17d0d-18d4-49d5-828a-6a6a1580ad48","system_id":"levelo_inurba_marseille","lat":43.30907,"lon":5.3685,"is_reserved":false,"is_disabled":false,"rental_uris":{"android":"levelo://app?vid=bec17d0d-18d4-49d5-828a-6a6a1580ad48","ios":"levelo://app?vid=bec17d0d-18d4-49d5-828a-6a6a1580ad48"},"vehicle_type_id":"4","last_reported":1684911984,"current_range_meters":29600,"station_id":"ce4bgn92rcd13ifvqbvg","pricing_plan_id":"free"},{"bike_id":"53c635de-2b06-4c6c-ad8a-e79f9d4ead75","system_id":"levelo_inurba_marseille","lat":43.309076,"lon":5.368465,"is_reserved":false,"is_disabled":false,"rental_uris":{"android":"levelo://app?vid=53c635de-2b06-4c6c-ad8a-e79f9d4ead75","ios":"levelo://app?vid=53c635de-2b06-4c6c-ad8a-e79f9d4ead75"},"vehicle_type_id":"4","last_reported":1684911984,"current_range_meters":25600,"station_id":"ce4bgn92rcd13ifvqbvg","pricing_plan_id":"free"},{"bike_id":"5a16e723-0ca2-42ad-95b7-62acc2000690","system_id":"levelo_inurba_marseille","lat":43.309076,"lon":5.368465,"is_reserved":false,"is_disabled":false,"rental_uris":{"android":"levelo://app?vid=5a16e723-0ca2-42ad-95b7-62acc2000690","ios":"levelo://app?vid=5a16e723-0ca2-42ad-95b7-62acc2000690"},"vehicle_type_id":"4","last_reported":1684911984,"current_range_meters":23600,"station_id":"ce4bgn92rcd13ifvqbvg","pricing_plan_id":"free"},{"bike_id":"0701df2a-4bf1-4598-9f1e-586c5794b47a","system_id":"levelo_inurba_marseille","lat":43.30899,"lon":5.36846,"is_reserved":false,"is_disabled":false,"rental_uris":{"android":"levelo://app?vid=0701df2a-4bf1-4598-9f1e-586c5794b47a","ios":"levelo://app?vid=0701df2a-4bf1-4598-9f1e-586c5794b47a"},"vehicle_type_id":"4","last_reported":1684911984,"current_range_meters":24800,"station_id":"ce4bgn92rcd13ifvqbvg","pricing_plan_id":"free"},{"bike_id":"f92e5561-ed52-4c76-9727-a6fc2db22e4a","system_id":"levelo_inurba_marseille","lat":43.309076,"lon":5.368465,"is_reserved":false,"is_disabled":false,"rental_uris":{"android":"levelo://app?vid=f92e5561-ed52-4c76-9727-a6fc2db22e4a","ios":"levelo://app?vid=f92e5561-ed52-4c76-9727-a6fc2db22e4a"},"vehicle_type_id":"4","last_reported":1684911984,"current_range_meters":9200,"station_id":"ce4bgn92rcd13ifvqbvg","pricing_plan_id":"free"},{"bike_id":"837a1547-746a-4116-995f-257f664a4f11","system_id":"levelo_inurba_marseille","lat":43.314811,"lon":5.373103,"is_reserved":false,"is_disabled":false,"rental_uris":{"android":"levelo://app?vid=837a1547-746a-4116-995f-257f664a4f11","ios":"levelo://app?vid=837a1547-746a-4116-995f-257f664a4f11"},"vehicle_type_id":"4","last_reported":1684911984,"current_range_meters":14000,"station_id":"ce4bgt12rcd13ifvqcd0","pricing_plan_id":"free"},{"bike_id":"021cc639-439b-4341-87d8-4d0aec3b6895","system_id":"levelo_inurba_marseille","lat":43.314811,"lon":5.373103,"is_reserved":false,"is_disabled":false,"rental_uris":{"android":"levelo://app?vid=021cc639-439b-4341-87d8-4d0aec3b6895","ios":"levelo://app?vid=021cc639-439b-4341-87d8-4d0aec3b6895"},"vehicle_type_id":"4","last_reported":1684911984,"current_range_meters":28400,"station_id":"ce4bgt12rcd13ifvqcd0","pricing_plan_id":"free"},{"bike_id":"c70d4a7a-dc85-42a8-8365-57a0a88202ae","system_id":"levelo_inurba_marseille","lat":43.314811,"lon":5.373103,"is_reserved":false,"is_disabled":false,"rental_uris":{"android":"levelo://app?vid=c70d4a7a-dc85-42a8-8365-57a0a88202ae","ios":"levelo://app?vid=c70d4a7a-dc85-42a8-8365-57a0a88202ae"},"vehicle_type_id":"4","last_reported":1684911984,"current_range_meters":12000,"station_id":"ce4bgt12rcd13ifvqcd0","pricing_plan_id":"free"},{"bike_id":"4472106e-a26f-4abd-9ee3-9251d4828218","system_id":"levelo_inurba_marseille","lat":43.314811,"lon":5.373104,"is_reserved":false,"is_disabled":false,"rental_uris":{"android":"levelo://app?vid=4472106e-a26f-4abd-9ee3-9251d4828218","ios":"levelo://app?vid=4472106e-a26f-4abd-9ee3-9251d4828218"},"vehicle_type_id":"4","last_reported":1684911984,"current_range_meters":23200,"station_id":"ce4bgt12rcd13ifvqcd0","pricing_plan_id":"free"},{"bike_id":"be776e31-2b89-4711-aee1-3b4843be91fc","system_id":"levelo_inurba_marseille","lat":43.308614,"lon":5.372098,"is_reserved":false,"is_disabled":false,"rental_uris":{"android":"levelo://app?vid=be776e31-2b89-4711-aee1-3b4843be91fc","ios":"levelo://app?vid=be776e31-2b89-4711-aee1-3b4843be91fc"},"vehicle_type_id":"4","last_reported":1684911984,"current_range_meters":24800,"station_id":"ce4bguh2rcd13ifvqckg","pricing_plan_id":"free"},{"bike_id":"d4a95210-eee9-42ea-b41c-a3d4d2a45ed8","system_id":"levelo_inurba_marseille","lat":43.305368,"lon":5.367343,"is_reserved":false,"is_disabled":false,"rental_uris":{"android":"levelo://app?vid=d4a95210-eee9-42ea-b41c-a3d4d2a45ed8","ios":"levelo://app?vid=d4a95210-eee9-42ea-b41c-a3d4d2a45ed8"},"vehicle_type_id":"4","last_reported":1684911984,"current_range_meters":31200,"station_id":"ce4bgrp2rcd13ifvqc9g","pricing_plan_id":"free"},{"bike_id":"cb5d1485-853b-47f7-9006-599a37399dba","system_id":"levelo_inurba_marseille","lat":43.305368,"lon":5.367343,"is_reserved":false,"is_disabled":false,"rental_uris":{"android":"levelo://app?vid=cb5d1485-853b-47f7-9006-599a37399dba","ios":"levelo://app?vid=cb5d1485-853b-47f7-9006-599a37399dba"},"vehicle_type_id":"4","last_reported":1684911984,"current_range_meters":0,"station_id":"ce4bgrp2rcd13ifvqc9g","pricing_plan_id":"free"},{"bike_id":"e52fa197-a55c-42ad-80cd-d0868906299c","system_id":"levelo_inurba_marseille","lat":43.30543,"lon":5.36698,"is_reserved":false,"is_disabled":false,"rental_uris":{"android":"levelo://app?vid=e52fa197-a55c-42ad-80cd-d0868906299c","ios":"levelo://app?vid=e52fa197-a55c-42ad-80cd-d0868906299c"},"vehicle_type_id":"4","last_reported":1684911984,"current_range_meters":26000,"station_id":"ce4bgrp2rcd13ifvqc9g","pricing_plan_id":"free"},{"bike_id":"ed1bc70d-7d50-4c79-bbbe-80b396229f3c","system_id":"levelo_inurba_marseille","lat":43.305368,"lon":5.367343,"is_reserved":false,"is_disabled":false,"rental_uris":{"android":"levelo://app?vid=ed1bc70d-7d50-4c79-bbbe-80b396229f3c","ios":"levelo://app?vid=ed1bc70d-7d50-4c79-bbbe-80b396229f3c"},"vehicle_type_id":"4","last_reported":1684911984,"current_range_meters":1200,"station_id":"ce4bgrp2rcd13ifvqc9g","pricing_plan_id":"free"},{"bike_id":"3abaf4c4-aa8d-4f56-adaf-b646a241b0c3","system_id":"levelo_inurba_marseille","lat":43.305368,"lon":5.367343,"is_reserved":false,"is_disabled":false,"rental_uris":{"android":"levelo://app?vid=3abaf4c4-aa8d-4f56-adaf-b646a241b0c3","ios":"levelo://app?vid=3abaf4c4-aa8d-4f56-adaf-b646a241b0c3"},"vehicle_type_id":"4","last_reported":1684911984,"current_range_meters":28800,"station_id":"ce4bgrp2rcd13ifvqc9g","pricing_plan_id":"free"},{"bike_id":"11bbf20a-4fb0-499a-bceb-6509476cbe4c","system_id":"levelo_inurba_marseille","lat":43.305368,"lon":5.367343,"is_reserved":false,"is_disabled":false,"rental_uris":{"android":"levelo://app?vid=11bbf20a-4fb0-499a-bceb-6509476cbe4c","ios":"levelo://app?vid=11bbf20a-4fb0-499a-bceb-6509476cbe4c"},"vehicle_type_id":"4","last_reported":1684911984,"current_range_meters":8800,"station_id":"ce4bgrp2rcd13ifvqc9g","pricing_plan_id":"free"},{"bike_id":"08be25b0-6ed8-4a2c-a2d9-3bdffc5a596d","system_id":"levelo_inurba_marseille","lat":43.305368,"lon":5.367343,"is_reserved":false,"is_disabled":false,"rental_uris":{"android":"levelo://app?vid=08be25b0-6ed8-4a2c-a2d9-3bdffc5a596d","ios":"levelo://app?vid=08be25b0-6ed8-4a2c-a2d9-3bdffc5a596d"},"vehicle_type_id":"4","last_reported":1684911984,"current_range_meters":6400,"station_id":"ce4bgrp2rcd13ifvqc9g","pricing_plan_id":"free"},{"bike_id":"8b946ee1-103b-4071-8a3d-bf810ea55727","system_id":"levelo_inurba_marseille","lat":43.305368,"lon":5.367343,"is_reserved":false,"is_disabled":false,"rental_uris":{"android":"levelo://app?vid=8b946ee1-103b-4071-8a3d-bf810ea55727","ios":"levelo://app?vid=8b946ee1-103b-4071-8a3d-bf810ea55727"},"vehicle_type_id":"4","last_reported":1684911984,"current_range_meters":20800,"station_id":"ce4bgrp2rcd13ifvqc9g","pricing_plan_id":"free"},{"bike_id":"bbb783eb-c037-4e5f-be3c-92bf942c425d","system_id":"levelo_inurba_marseille","lat":43.305368,"lon":5.367343,"is_reserved":false,"is_disabled":false,"rental_uris":{"android":"levelo://app?vid=bbb783eb-c037-4e5f-be3c-92bf942c425d","ios":"levelo://app?vid=bbb783eb-c037-4e5f-be3c-92bf942c425d"},"vehicle_type_id":"4","last_reported":1684911984,"current_range_meters":20800,"station_id":"ce4bgrp2rcd13ifvqc9g","pricing_plan_id":"free"},{"bike_id":"05e0f9ac-7618-4ce6-81e3-b7de9924842b","system_id":"levelo_inurba_marseille","lat":43.305368,"lon":5.367343,"is_reserved":false,"is_disabled":false,"rental_uris":{"android":"levelo://app?vid=05e0f9ac-7618-4ce6-81e3-b7de9924842b","ios":"levelo://app?vid=05e0f9ac-7618-4ce6-81e3-b7de9924842b"},"vehicle_type_id":"4","last_reported":1684911984,"current_range_meters":14400,"station_id":"ce4bgrp2rcd13ifvqc9g","pricing_plan_id":"free"},{"bike_id":"ebbf1c7c-61a7-47ed-8c2a-bc5250f4d256","system_id":"levelo_inurba_marseille","lat":43.305368,"lon":5.367343,"is_reserved":false,"is_disabled":false,"rental_uris":{"android":"levelo://app?vid=ebbf1c7c-61a7-47ed-8c2a-bc5250f4d256","ios":"levelo://app?vid=ebbf1c7c-61a7-47ed-8c2a-bc5250f4d256"},"vehicle_type_id":"4","last_reported":1684911984,"current_range_meters":15600,"station_id":"ce4bgrp2rcd13ifvqc9g","pricing_plan_id":"free"},{"bike_id":"ec067b80-ef8d-4bb2-a464-a7d11dbb4dbc","system_id":"levelo_inurba_marseille","lat":43.305706,"lon":5.365654,"is_reserved":false,"is_disabled":false,"rental_uris":{"android":"levelo://app?vid=ec067b80-ef8d-4bb2-a464-a7d11dbb4dbc","ios":"levelo://app?vid=ec067b80-ef8d-4bb2-a464-a7d11dbb4dbc"},"vehicle_type_id":"4","last_reported":1684911984,"current_range_meters":25200,"station_id":"ce4bgs12rcd13ifvqcag","pricing_plan_id":"free"},{"bike_id":"e4bdaf02-a9ca-49ef-83b2-9ffb10fe9544","system_id":"levelo_inurba_marseille","lat":43.305368,"lon":5.367343,"is_reserved":false,"is_disabled":false,"rental_uris":{"android":"levelo://app?vid=e4bdaf02-a9ca-49ef-83b2-9ffb10fe9544","ios":"levelo://app?vid=e4bdaf02-a9ca-49ef-83b2-9ffb10fe9544"},"vehicle_type_id":"4","last_reported":1684911984,"current_range_meters":20400,"station_id":"ce4bgrp2rcd13ifvqc9g","pricing_plan_id":"free"},{"bike_id":"cd258d0c-993d-41ad-941a-469595ee8957","system_id":"levelo_inurba_marseille","lat":43.305368,"lon":5.367343,"is_reserved":false,"is_disabled":false,"rental_uris":{"android":"levelo://app?vid=cd258d0c-993d-41ad-941a-469595ee8957","ios":"levelo://app?vid=cd258d0c-993d-41ad-941a-469595ee8957"},"vehicle_type_id":"4","last_reported":1684911984,"current_range_meters":18800,"station_id":"ce4bgrp2rcd13ifvqc9g","pricing_plan_id":"free"},{"bike_id":"7f91f623-6b0c-43c7-a03e-cea9d3cb0240","system_id":"levelo_inurba_marseille","lat":43.305368,"lon":5.367343,"is_reserved":false,"is_disabled":false,"rental_uris":{"android":"levelo://app?vid=7f91f623-6b0c-43c7-a03e-cea9d3cb0240","ios":"levelo://app?vid=7f91f623-6b0c-43c7-a03e-cea9d3cb0240"},"vehicle_type_id":"4","last_reported":1684911984,"current_range_meters":21200,"station_id":"ce4bgrp2rcd13ifvqc9g","pricing_plan_id":"free"},{"bike_id":"0670fb1c-aaf8-42b8-abbd-b5f71b1d7350","system_id":"levelo_inurba_marseille","lat":43.305368,"lon":5.367343,"is_reserved":false,"is_disabled":false,"rental_uris":{"android":"levelo://app?vid=0670fb1c-aaf8-42b8-abbd-b5f71b1d7350","ios":"levelo://app?vid=0670fb1c-aaf8-42b8-abbd-b5f71b1d7350"},"vehicle_type_id":"4","last_reported":1684911984,"current_range_meters":26000,"station_id":"ce4bgrp2rcd13ifvqc9g","pricing_plan_id":"free"},{"bike_id":"844b6d81-bab8-44c6-8960-94340f2558b5","system_id":"levelo_inurba_marseille","lat":43.305706,"lon":5.365654,"is_reserved":false,"is_disabled":false,"rental_uris":{"android":"levelo://app?vid=844b6d81-bab8-44c6-8960-94340f2558b5","ios":"levelo://app?vid=844b6d81-bab8-44c6-8960-94340f2558b5"},"vehicle_type_id":"4","last_reported":1684911984,"current_range_meters":2800,"station_id":"ce4bgs12rcd13ifvqcag","pricing_plan_id":"free"},{"bike_id":"59ce19b0-f1d4-4b5f-ba78-977caf17327a","system_id":"levelo_inurba_marseille","lat":43.305368,"lon":5.367343,"is_reserved":false,"is_disabled":false,"rental_uris":{"android":"levelo://app?vid=59ce19b0-f1d4-4b5f-ba78-977caf17327a","ios":"levelo://app?vid=59ce19b0-f1d4-4b5f-ba78-977caf17327a"},"vehicle_type_id":"4","last_reported":1684911984,"current_range_meters":20400,"station_id":"ce4bgrp2rcd13ifvqc9g","pricing_plan_id":"free"},{"bike_id":"a3d51322-963b-48a9-9c84-adaa405ab597","system_id":"levelo_inurba_marseille","lat":43.305706,"lon":5.365654,"is_reserved":false,"is_disabled":false,"rental_uris":{"android":"levelo://app?vid=a3d51322-963b-48a9-9c84-adaa405ab597","ios":"levelo://app?vid=a3d51322-963b-48a9-9c84-adaa405ab597"},"vehicle_type_id":"4","last_reported":1684911984,"current_range_meters":22000,"station_id":"ce4bgs12rcd13ifvqcag","pricing_plan_id":"free"},{"bike_id":"e3a8b42f-ea50-4a51-a124-cd59e028f0ab","system_id":"levelo_inurba_marseille","lat":43.305368,"lon":5.367343,"is_reserved":false,"is_disabled":false,"rental_uris":{"android":"levelo://app?vid=e3a8b42f-ea50-4a51-a124-cd59e028f0ab","ios":"levelo://app?vid=e3a8b42f-ea50-4a51-a124-cd59e028f0ab"},"vehicle_type_id":"4","last_reported":1684911984,"current_range_meters":8000,"station_id":"ce4bgrp2rcd13ifvqc9g","pricing_plan_id":"free"},{"bike_id":"07227a11-6157-4e48-9bdb-e2b003c1a364","system_id":"levelo_inurba_marseille","lat":43.305706,"lon":5.365654,"is_reserved":false,"is_disabled":false,"rental_uris":{"android":"levelo://app?vid=07227a11-6157-4e48-9bdb-e2b003c1a364","ios":"levelo://app?vid=07227a11-6157-4e48-9bdb-e2b003c1a364"},"vehicle_type_id":"4","last_reported":1684911984,"current_range_meters":9600,"station_id":"ce4bgs12rcd13ifvqcag","pricing_plan_id":"free"},{"bike_id":"ac48d54d-67cf-49f6-8240-7d6bfe5707a8","system_id":"levelo_inurba_marseille","lat":43.317075,"lon":5.377367,"is_reserved":false,"is_disabled":false,"rental_uris":{"android":"levelo://app?vid=ac48d54d-67cf-49f6-8240-7d6bfe5707a8","ios":"levelo://app?vid=ac48d54d-67cf-49f6-8240-7d6bfe5707a8"},"vehicle_type_id":"4","last_reported":1684911984,"current_range_meters":23200,"station_id":"ce4bgth2rcd13ifvqch0","pricing_plan_id":"free"},{"bike_id":"61311b0a-8a12-4823-aef3-7a10d92a82d2","system_id":"levelo_inurba_marseille","lat":43.317075,"lon":5.377367,"is_reserved":false,"is_disabled":false,"rental_uris":{"android":"levelo://app?vid=61311b0a-8a12-4823-aef3-7a10d92a82d2","ios":"levelo://app?vid=61311b0a-8a12-4823-aef3-7a10d92a82d2"},"vehicle_type_id":"4","last_reported":1684911984,"current_range_meters":22400,"station_id":"ce4bgth2rcd13ifvqch0","pricing_plan_id":"free"},{"bike_id":"2efd3ba7-c703-4cfa-8a5c-a147c517f2d6","system_id":"levelo_inurba_marseille","lat":43.317075,"lon":5.377367,"is_reserved":false,"is_disabled":false,"rental_uris":{"android":"levelo://app?vid=2efd3ba7-c703-4cfa-8a5c-a147c517f2d6","ios":"levelo://app?vid=2efd3ba7-c703-4cfa-8a5c-a147c517f2d6"},"vehicle_type_id":"4","last_reported":1684911984,"current_range_meters":28400,"station_id":"ce4bgth2rcd13ifvqch0","pricing_plan_id":"free"},{"bike_id":"91733e52-2da5-440a-b8c3-275cf67a5b98","system_id":"levelo_inurba_marseille","lat":43.317075,"lon":5.377367,"is_reserved":false,"is_disabled":false,"rental_uris":{"android":"levelo://app?vid=91733e52-2da5-440a-b8c3-275cf67a5b98","ios":"levelo://app?vid=91733e52-2da5-440a-b8c3-275cf67a5b98"},"vehicle_type_id":"4","last_reported":1684911984,"current_range_meters":31200,"station_id":"ce4bgth2rcd13ifvqch0","pricing_plan_id":"free"},{"bike_id":"725fdaf0-d18a-4817-82e7-216b57da6c3f","system_id":"levelo_inurba_marseille","lat":43.317075,"lon":5.377367,"is_reserved":false,"is_disabled":false,"rental_uris":{"android":"levelo://app?vid=725fdaf0-d18a-4817-82e7-216b57da6c3f","ios":"levelo://app?vid=725fdaf0-d18a-4817-82e7-216b57da6c3f"},"vehicle_type_id":"4","last_reported":1684911984,"current_range_meters":31200,"station_id":"ce4bgth2rcd13ifvqch0","pricing_plan_id":"free"},{"bike_id":"f53edd6c-97f5-4ebb-b4b1-b3db4b5cf5e4","system_id":"levelo_inurba_marseille","lat":43.30312,"lon":5.36896,"is_reserved":false,"is_disabled":false,"rental_uris":{"android":"levelo://app?vid=f53edd6c-97f5-4ebb-b4b1-b3db4b5cf5e4","ios":"levelo://app?vid=f53edd6c-97f5-4ebb-b4b1-b3db4b5cf5e4"},"vehicle_type_id":"4","last_reported":1684911984,"current_range_meters":31200,"station_id":"ce4bgqh2rcd13ifvqc5g","pricing_plan_id":"free"},{"bike_id":"a957bd4c-27e9-47de-8d5c-bbd60156d8c3","system_id":"levelo_inurba_marseille","lat":43.30311,"lon":5.36901,"is_reserved":false,"is_disabled":false,"rental_uris":{"android":"levelo://app?vid=a957bd4c-27e9-47de-8d5c-bbd60156d8c3","ios":"levelo://app?vid=a957bd4c-27e9-47de-8d5c-bbd60156d8c3"},"vehicle_type_id":"4","last_reported":1684911984,"current_range_meters":20000,"station_id":"ce4bgqh2rcd13ifvqc5g","pricing_plan_id":"free"},{"bike_id":"71564ce8-da8f-4a6a-9a31-dcb4b866566d","system_id":"levelo_inurba_marseille","lat":43.30309,"lon":5.36891,"is_reserved":false,"is_disabled":false,"rental_uris":{"android":"levelo://app?vid=71564ce8-da8f-4a6a-9a31-dcb4b866566d","ios":"levelo://app?vid=71564ce8-da8f-4a6a-9a31-dcb4b866566d"},"vehicle_type_id":"4","last_reported":1684911984,"current_range_meters":26000,"station_id":"ce4bgqh2rcd13ifvqc5g","pricing_plan_id":"free"},{"bike_id":"c9461532-81ed-4526-b6ba-b7bd13132531","system_id":"levelo_inurba_marseille","lat":43.315289,"lon":5.380349,"is_reserved":false,"is_disabled":false,"rental_uris":{"android":"levelo://app?vid=c9461532-81ed-4526-b6ba-b7bd13132531","ios":"levelo://app?vid=c9461532-81ed-4526-b6ba-b7bd13132531"},"vehicle_type_id":"4","last_reported":1684911984,"current_range_meters":30000,"station_id":"ce4bhsp2rcd13ifvqi50","pricing_plan_id":"free"},{"bike_id":"790119bb-79b7-4ba9-805d-a80ff92b80f0","system_id":"levelo_inurba_marseille","lat":43.315289,"lon":5.380349,"is_reserved":false,"is_disabled":false,"rental_uris":{"android":"levelo://app?vid=790119bb-79b7-4ba9-805d-a80ff92b80f0","ios":"levelo://app?vid=790119bb-79b7-4ba9-805d-a80ff92b80f0"},"vehicle_type_id":"4","last_reported":1684911984,"current_range_meters":30000,"station_id":"ce4bhsp2rcd13ifvqi50","pricing_plan_id":"free"},{"bike_id":"64c6724a-58e5-4cf0-8b40-234dc4f0397a","system_id":"levelo_inurba_marseille","lat":43.301939,"lon":5.366286,"is_reserved":false,"is_disabled":false,"rental_uris":{"android":"levelo://app?vid=64c6724a-58e5-4cf0-8b40-234dc4f0397a","ios":"levelo://app?vid=64c6724a-58e5-4cf0-8b40-234dc4f0397a"},"vehicle_type_id":"4","last_reported":1684911984,"current_range_meters":28400,"station_id":"ce4bgrh2rcd13ifvqc8g","pricing_plan_id":"free"},{"bike_id":"9bae9840-ed93-44fb-a5d4-fae1df29a1de","system_id":"levelo_inurba_marseille","lat":43.31037,"lon":5.38192,"is_reserved":false,"is_disabled":false,"rental_uris":{"android":"levelo://app?vid=9bae9840-ed93-44fb-a5d4-fae1df29a1de","ios":"levelo://app?vid=9bae9840-ed93-44fb-a5d4-fae1df29a1de"},"vehicle_type_id":"4","last_reported":1684911984,"current_range_meters":16800,"station_id":"","pricing_plan_id":"free"},{"bike_id":"4397b868-4490-4215-b047-0dcf1cdfb014","system_id":"levelo_inurba_marseille","lat":43.308012,"lon":5.381511,"is_reserved":false,"is_disabled":false,"rental_uris":{"android":"levelo://app?vid=4397b868-4490-4215-b047-0dcf1cdfb014","ios":"levelo://app?vid=4397b868-4490-4215-b047-0dcf1cdfb014"},"vehicle_type_id":"4","last_reported":1684911984,"current_range_meters":26000,"station_id":"ce4bgt12rcd13ifvqce0","pricing_plan_id":"free"},{"bike_id":"09953d30-901d-48cd-a4a7-447aad3ddb94","system_id":"levelo_inurba_marseille","lat":43.32449,"lon":5.36778,"is_reserved":false,"is_disabled":false,"rental_uris":{"android":"levelo://app?vid=09953d30-901d-48cd-a4a7-447aad3ddb94","ios":"levelo://app?vid=09953d30-901d-48cd-a4a7-447aad3ddb94"},"vehicle_type_id":"4","last_reported":1684911984,"current_range_meters":9600,"station_id":"","pricing_plan_id":"free"},{"bike_id":"2ff283df-31e6-41f0-91b2-c902adbbff46","system_id":"levelo_inurba_marseille","lat":43.30817,"lon":5.38183,"is_reserved":false,"is_disabled":false,"rental_uris":{"android":"levelo://app?vid=2ff283df-31e6-41f0-91b2-c902adbbff46","ios":"levelo://app?vid=2ff283df-31e6-41f0-91b2-c902adbbff46"},"vehicle_type_id":"4","last_reported":1684911984,"current_range_meters":0,"station_id":"ce4bgt12rcd13ifvqce0","pricing_plan_id":"free"},{"bike_id":"31323976-9028-496b-8a5b-e6c50db1b33d","system_id":"levelo_inurba_marseille","lat":43.304606,"lon":5.379026,"is_reserved":false,"is_disabled":false,"rental_uris":{"android":"levelo://app?vid=31323976-9028-496b-8a5b-e6c50db1b33d","ios":"levelo://app?vid=31323976-9028-496b-8a5b-e6c50db1b33d"},"vehicle_type_id":"4","last_reported":1684911984,"current_range_meters":8800,"station_id":"ce4bgup2rcd13ifvqcn0","pricing_plan_id":"free"},{"bike_id":"4baf6a01-086c-44f2-9670-6704930cee97","system_id":"levelo_inurba_marseille","lat":43.30461,"lon":5.37899,"is_reserved":false,"is_disabled":false,"rental_uris":{"android":"levelo://app?vid=4baf6a01-086c-44f2-9670-6704930cee97","ios":"levelo://app?vid=4baf6a01-086c-44f2-9670-6704930cee97"},"vehicle_type_id":"4","last_reported":1684911984,"current_range_meters":24800,"station_id":"ce4bgup2rcd13ifvqcn0","pricing_plan_id":"free"},{"bike_id":"f550e117-6c3b-4fe4-afb0-909208be16e7","system_id":"levelo_inurba_marseille","lat":43.304606,"lon":5.379026,"is_reserved":false,"is_disabled":false,"rental_uris":{"android":"levelo://app?vid=f550e117-6c3b-4fe4-afb0-909208be16e7","ios":"levelo://app?vid=f550e117-6c3b-4fe4-afb0-909208be16e7"},"vehicle_type_id":"4","last_reported":1684911984,"current_range_meters":25600,"station_id":"ce4bgup2rcd13ifvqcn0","pricing_plan_id":"free"},{"bike_id":"5b632e7f-f3d8-445c-9f2d-cdd93c14c833","system_id":"levelo_inurba_marseille","lat":43.304606,"lon":5.379026,"is_reserved":false,"is_disabled":false,"rental_uris":{"android":"levelo://app?vid=5b632e7f-f3d8-445c-9f2d-cdd93c14c833","ios":"levelo://app?vid=5b632e7f-f3d8-445c-9f2d-cdd93c14c833"},"vehicle_type_id":"4","last_reported":1684911984,"current_range_meters":13600,"station_id":"ce4bgup2rcd13ifvqcn0","pricing_plan_id":"free"},{"bike_id":"0130c381-a5f0-49d5-81cc-25de8411986f","system_id":"levelo_inurba_marseille","lat":43.30458,"lon":5.379,"is_reserved":false,"is_disabled":false,"rental_uris":{"android":"levelo://app?vid=0130c381-a5f0-49d5-81cc-25de8411986f","ios":"levelo://app?vid=0130c381-a5f0-49d5-81cc-25de8411986f"},"vehicle_type_id":"4","last_reported":1684911984,"current_range_meters":23200,"station_id":"ce4bgup2rcd13ifvqcn0","pricing_plan_id":"free"},{"bike_id":"93feb877-e7b2-42aa-a54d-4e8fafc7e059","system_id":"levelo_inurba_marseille","lat":43.304606,"lon":5.379026,"is_reserved":false,"is_disabled":false,"rental_uris":{"android":"levelo://app?vid=93feb877-e7b2-42aa-a54d-4e8fafc7e059","ios":"levelo://app?vid=93feb877-e7b2-42aa-a54d-4e8fafc7e059"},"vehicle_type_id":"4","last_reported":1684911984,"current_range_meters":31600,"station_id":"ce4bgup2rcd13ifvqcn0","pricing_plan_id":"free"},{"bike_id":"627e1f87-f166-4725-a7c8-7b3f39426a0d","system_id":"levelo_inurba_marseille","lat":43.304606,"lon":5.379026,"is_reserved":false,"is_disabled":false,"rental_uris":{"android":"levelo://app?vid=627e1f87-f166-4725-a7c8-7b3f39426a0d","ios":"levelo://app?vid=627e1f87-f166-4725-a7c8-7b3f39426a0d"},"vehicle_type_id":"4","last_reported":1684911984,"current_range_meters":30800,"station_id":"ce4bgup2rcd13ifvqcn0","pricing_plan_id":"free"},{"bike_id":"40aa2917-fb00-46d8-ad3a-e5cc50eda38c","system_id":"levelo_inurba_marseille","lat":43.304606,"lon":5.379026,"is_reserved":false,"is_disabled":false,"rental_uris":{"android":"levelo://app?vid=40aa2917-fb00-46d8-ad3a-e5cc50eda38c","ios":"levelo://app?vid=40aa2917-fb00-46d8-ad3a-e5cc50eda38c"},"vehicle_type_id":"4","last_reported":1684911984,"current_range_meters":22800,"station_id":"ce4bgup2rcd13ifvqcn0","pricing_plan_id":"free"},{"bike_id":"398269cf-7aa6-454b-a34c-046fb1516561","system_id":"levelo_inurba_marseille","lat":43.304606,"lon":5.379026,"is_reserved":false,"is_disabled":false,"rental_uris":{"android":"levelo://app?vid=398269cf-7aa6-454b-a34c-046fb1516561","ios":"levelo://app?vid=398269cf-7aa6-454b-a34c-046fb1516561"},"vehicle_type_id":"4","last_reported":1684911984,"current_range_meters":29600,"station_id":"ce4bgup2rcd13ifvqcn0","pricing_plan_id":"free"},{"bike_id":"671f3f78-0ccd-4325-a46b-10d0582e784c","system_id":"levelo_inurba_marseille","lat":43.304606,"lon":5.379026,"is_reserved":false,"is_disabled":false,"rental_uris":{"android":"levelo://app?vid=671f3f78-0ccd-4325-a46b-10d0582e784c","ios":"levelo://app?vid=671f3f78-0ccd-4325-a46b-10d0582e784c"},"vehicle_type_id":"4","last_reported":1684911984,"current_range_meters":18400,"station_id":"ce4bgup2rcd13ifvqcn0","pricing_plan_id":"free"},{"bike_id":"02c5daca-58f3-4718-8815-8743bf93cfd1","system_id":"levelo_inurba_marseille","lat":43.304606,"lon":5.379026,"is_reserved":false,"is_disabled":false,"rental_uris":{"android":"levelo://app?vid=02c5daca-58f3-4718-8815-8743bf93cfd1","ios":"levelo://app?vid=02c5daca-58f3-4718-8815-8743bf93cfd1"},"vehicle_type_id":"4","last_reported":1684911984,"current_range_meters":25600,"station_id":"ce4bgup2rcd13ifvqcn0","pricing_plan_id":"free"},{"bike_id":"83ec1c4f-2833-429f-8cf2-3d36b1b9538c","system_id":"levelo_inurba_marseille","lat":43.304606,"lon":5.379026,"is_reserved":false,"is_disabled":false,"rental_uris":{"android":"levelo://app?vid=83ec1c4f-2833-429f-8cf2-3d36b1b9538c","ios":"levelo://app?vid=83ec1c4f-2833-429f-8cf2-3d36b1b9538c"},"vehicle_type_id":"4","last_reported":1684911984,"current_range_meters":23600,"station_id":"ce4bgup2rcd13ifvqcn0","pricing_plan_id":"free"},{"bike_id":"3a9da52e-8a0c-4f08-988b-cdd5414775a9","system_id":"levelo_inurba_marseille","lat":43.304606,"lon":5.379026,"is_reserved":false,"is_disabled":false,"rental_uris":{"android":"levelo://app?vid=3a9da52e-8a0c-4f08-988b-cdd5414775a9","ios":"levelo://app?vid=3a9da52e-8a0c-4f08-988b-cdd5414775a9"},"vehicle_type_id":"4","last_reported":1684911984,"current_range_meters":28400,"station_id":"ce4bgup2rcd13ifvqcn0","pricing_plan_id":"free"},{"bike_id":"14c5410f-aeb0-4911-a7b9-91d66f831320","system_id":"levelo_inurba_marseille","lat":43.304606,"lon":5.379026,"is_reserved":false,"is_disabled":false,"rental_uris":{"android":"levelo://app?vid=14c5410f-aeb0-4911-a7b9-91d66f831320","ios":"levelo://app?vid=14c5410f-aeb0-4911-a7b9-91d66f831320"},"vehicle_type_id":"4","last_reported":1684911984,"current_range_meters":18800,"station_id":"ce4bgup2rcd13ifvqcn0","pricing_plan_id":"free"},{"bike_id":"f4645458-7023-4e3d-b50a-ca4d93d8820f","system_id":"levelo_inurba_marseille","lat":43.304606,"lon":5.379026,"is_reserved":false,"is_disabled":false,"rental_uris":{"android":"levelo://app?vid=f4645458-7023-4e3d-b50a-ca4d93d8820f","ios":"levelo://app?vid=f4645458-7023-4e3d-b50a-ca4d93d8820f"},"vehicle_type_id":"4","last_reported":1684911984,"current_range_meters":27200,"station_id":"ce4bgup2rcd13ifvqcn0","pricing_plan_id":"free"},{"bike_id":"47c0a1ab-5c4c-4499-8fcf-26e08e633b72","system_id":"levelo_inurba_marseille","lat":43.304606,"lon":5.379026,"is_reserved":false,"is_disabled":false,"rental_uris":{"android":"levelo://app?vid=47c0a1ab-5c4c-4499-8fcf-26e08e633b72","ios":"levelo://app?vid=47c0a1ab-5c4c-4499-8fcf-26e08e633b72"},"vehicle_type_id":"4","last_reported":1684911984,"current_range_meters":12400,"station_id":"ce4bgup2rcd13ifvqcn0","pricing_plan_id":"free"},{"bike_id":"946fd21d-a681-4146-8602-4a6bad0178b1","system_id":"levelo_inurba_marseille","lat":43.30454,"lon":5.37906,"is_reserved":false,"is_disabled":false,"rental_uris":{"android":"levelo://app?vid=946fd21d-a681-4146-8602-4a6bad0178b1","ios":"levelo://app?vid=946fd21d-a681-4146-8602-4a6bad0178b1"},"vehicle_type_id":"4","last_reported":1684911984,"current_range_meters":7200,"station_id":"ce4bgup2rcd13ifvqcn0","pricing_plan_id":"free"},{"bike_id":"ae6268c1-6aa0-4bfb-b161-fd79e4c32d25","system_id":"levelo_inurba_marseille","lat":43.304606,"lon":5.379026,"is_reserved":false,"is_disabled":false,"rental_uris":{"android":"levelo://app?vid=ae6268c1-6aa0-4bfb-b161-fd79e4c32d25","ios":"levelo://app?vid=ae6268c1-6aa0-4bfb-b161-fd79e4c32d25"},"vehicle_type_id":"4","last_reported":1684911984,"current_range_meters":12000,"station_id":"ce4bgup2rcd13ifvqcn0","pricing_plan_id":"free"},{"bike_id":"1d5ae5cb-c76f-4590-a056-8e524622aba8","system_id":"levelo_inurba_marseille","lat":43.304606,"lon":5.379026,"is_reserved":false,"is_disabled":false,"rental_uris":{"android":"levelo://app?vid=1d5ae5cb-c76f-4590-a056-8e524622aba8","ios":"levelo://app?vid=1d5ae5cb-c76f-4590-a056-8e524622aba8"},"vehicle_type_id":"4","last_reported":1684911984,"current_range_meters":0,"station_id":"ce4bgup2rcd13ifvqcn0","pricing_plan_id":"free"},{"bike_id":"6c30620c-eb63-42f7-8b55-e907d50ccb94","system_id":"levelo_inurba_marseille","lat":43.304606,"lon":5.379026,"is_reserved":false,"is_disabled":false,"rental_uris":{"android":"levelo://app?vid=6c30620c-eb63-42f7-8b55-e907d50ccb94","ios":"levelo://app?vid=6c30620c-eb63-42f7-8b55-e907d50ccb94"},"vehicle_type_id":"4","last_reported":1684911984,"current_range_meters":11600,"station_id":"ce4bgup2rcd13ifvqcn0","pricing_plan_id":"free"},{"bike_id":"4d9246b8-3d5e-4627-8b3e-c67756dae69a","system_id":"levelo_inurba_marseille","lat":43.304606,"lon":5.379026,"is_reserved":false,"is_disabled":false,"rental_uris":{"android":"levelo://app?vid=4d9246b8-3d5e-4627-8b3e-c67756dae69a","ios":"levelo://app?vid=4d9246b8-3d5e-4627-8b3e-c67756dae69a"},"vehicle_type_id":"4","last_reported":1684911984,"current_range_meters":2000,"station_id":"ce4bgup2rcd13ifvqcn0","pricing_plan_id":"free"},{"bike_id":"8aae6a6f-28f0-4cc1-ac13-b01ec2a9c38c","system_id":"levelo_inurba_marseille","lat":43.304606,"lon":5.379026,"is_reserved":false,"is_disabled":false,"rental_uris":{"android":"levelo://app?vid=8aae6a6f-28f0-4cc1-ac13-b01ec2a9c38c","ios":"levelo://app?vid=8aae6a6f-28f0-4cc1-ac13-b01ec2a9c38c"},"vehicle_type_id":"4","last_reported":1684911984,"current_range_meters":30800,"station_id":"ce4bgup2rcd13ifvqcn0","pricing_plan_id":"free"},{"bike_id":"300a99dd-3491-43a5-b514-e31728d5a1c7","system_id":"levelo_inurba_marseille","lat":43.304606,"lon":5.379026,"is_reserved":false,"is_disabled":false,"rental_uris":{"android":"levelo://app?vid=300a99dd-3491-43a5-b514-e31728d5a1c7","ios":"levelo://app?vid=300a99dd-3491-43a5-b514-e31728d5a1c7"},"vehicle_type_id":"4","last_reported":1684911984,"current_range_meters":22000,"station_id":"ce4bgup2rcd13ifvqcn0","pricing_plan_id":"free"},{"bike_id":"5a8f9689-38a4-4e7f-9bda-123ca9ca2189","system_id":"levelo_inurba_marseille","lat":43.30144,"lon":5.3741,"is_reserved":false,"is_disabled":false,"rental_uris":{"android":"levelo://app?vid=5a8f9689-38a4-4e7f-9bda-123ca9ca2189","ios":"levelo://app?vid=5a8f9689-38a4-4e7f-9bda-123ca9ca2189"},"vehicle_type_id":"4","last_reported":1684911984,"current_range_meters":14400,"station_id":"","pricing_plan_id":"free"},{"bike_id":"d8ca3118-7122-430b-b7f3-db3b4924908d","system_id":"levelo_inurba_marseille","lat":43.30141,"lon":5.37411,"is_reserved":false,"is_disabled":false,"rental_uris":{"android":"levelo://app?vid=d8ca3118-7122-430b-b7f3-db3b4924908d","ios":"levelo://app?vid=d8ca3118-7122-430b-b7f3-db3b4924908d"},"vehicle_type_id":"4","last_reported":1684911984,"current_range_meters":17600,"station_id":"","pricing_plan_id":"free"},{"bike_id":"c7430ab1-2eff-4e6b-bc08-b8f60eddf206","system_id":"levelo_inurba_marseille","lat":43.30139,"lon":5.37424,"is_reserved":false,"is_disabled":false,"rental_uris":{"android":"levelo://app?vid=c7430ab1-2eff-4e6b-bc08-b8f60eddf206","ios":"levelo://app?vid=c7430ab1-2eff-4e6b-bc08-b8f60eddf206"},"vehicle_type_id":"4","last_reported":1684911984,"current_range_meters":28800,"station_id":"","pricing_plan_id":"free"},{"bike_id":"fe86a46d-67b3-4aa0-afa4-77047d9713e8","system_id":"levelo_inurba_marseille","lat":43.30134,"lon":5.37412,"is_reserved":false,"is_disabled":false,"rental_uris":{"android":"levelo://app?vid=fe86a46d-67b3-4aa0-afa4-77047d9713e8","ios":"levelo://app?vid=fe86a46d-67b3-4aa0-afa4-77047d9713e8"},"vehicle_type_id":"4","last_reported":1684911984,"current_range_meters":18400,"station_id":"","pricing_plan_id":"free"},{"bike_id":"e13f48db-f4f6-48c2-8df8-a752fcd43e65","system_id":"levelo_inurba_marseille","lat":43.319935,"lon":5.381699,"is_reserved":false,"is_disabled":false,"rental_uris":{"android":"levelo://app?vid=e13f48db-f4f6-48c2-8df8-a752fcd43e65","ios":"levelo://app?vid=e13f48db-f4f6-48c2-8df8-a752fcd43e65"},"vehicle_type_id":"4","last_reported":1684911984,"current_range_meters":9200,"station_id":"ce4bhr12rcd13ifvqhpg","pricing_plan_id":"free"},{"bike_id":"89aee25a-d04e-43dd-bf69-a808b7abe903","system_id":"levelo_inurba_marseille","lat":43.31365,"lon":5.38521,"is_reserved":false,"is_disabled":false,"rental_uris":{"android":"levelo://app?vid=89aee25a-d04e-43dd-bf69-a808b7abe903","ios":"levelo://app?vid=89aee25a-d04e-43dd-bf69-a808b7abe903"},"vehicle_type_id":"4","last_reported":1684911984,"current_range_meters":8800,"station_id":"","pricing_plan_id":"free"},{"bike_id":"b5aaf8f7-2ca8-493c-b967-dfbf4007569e","system_id":"levelo_inurba_marseille","lat":43.32207,"lon":5.38095,"is_reserved":false,"is_disabled":false,"rental_uris":{"android":"levelo://app?vid=b5aaf8f7-2ca8-493c-b967-dfbf4007569e","ios":"levelo://app?vid=b5aaf8f7-2ca8-493c-b967-dfbf4007569e"},"vehicle_type_id":"4","last_reported":1684911984,"current_range_meters":30800,"station_id":"","pricing_plan_id":"free"},{"bike_id":"b85af21f-6903-4584-838d-200db9a43ba6","system_id":"levelo_inurba_marseille","lat":43.298433,"lon":5.362774,"is_reserved":false,"is_disabled":false,"rental_uris":{"android":"levelo://app?vid=b85af21f-6903-4584-838d-200db9a43ba6","ios":"levelo://app?vid=b85af21f-6903-4584-838d-200db9a43ba6"},"vehicle_type_id":"4","last_reported":1684911984,"current_range_meters":11200,"station_id":"ce4bgpp2rcd13ifvqc3g","pricing_plan_id":"free"},{"bike_id":"f90a41f2-77e7-49af-9098-44004daf9f58","system_id":"levelo_inurba_marseille","lat":43.298433,"lon":5.362774,"is_reserved":false,"is_disabled":false,"rental_uris":{"android":"levelo://app?vid=f90a41f2-77e7-49af-9098-44004daf9f58","ios":"levelo://app?vid=f90a41f2-77e7-49af-9098-44004daf9f58"},"vehicle_type_id":"4","last_reported":1684911984,"current_range_meters":29200,"station_id":"ce4bgpp2rcd13ifvqc3g","pricing_plan_id":"free"},{"bike_id":"843154bb-e39a-4d0e-a1e4-bac5698541e9","system_id":"levelo_inurba_marseille","lat":43.298433,"lon":5.362774,"is_reserved":false,"is_disabled":false,"rental_uris":{"android":"levelo://app?vid=843154bb-e39a-4d0e-a1e4-bac5698541e9","ios":"levelo://app?vid=843154bb-e39a-4d0e-a1e4-bac5698541e9"},"vehicle_type_id":"4","last_reported":1684911984,"current_range_meters":30000,"station_id":"ce4bgpp2rcd13ifvqc3g","pricing_plan_id":"free"},{"bike_id":"4d8301ab-980d-49a3-b2c2-03970a237650","system_id":"levelo_inurba_marseille","lat":43.298433,"lon":5.362774,"is_reserved":false,"is_disabled":false,"rental_uris":{"android":"levelo://app?vid=4d8301ab-980d-49a3-b2c2-03970a237650","ios":"levelo://app?vid=4d8301ab-980d-49a3-b2c2-03970a237650"},"vehicle_type_id":"4","last_reported":1684911984,"current_range_meters":26000,"station_id":"ce4bgpp2rcd13ifvqc3g","pricing_plan_id":"free"},{"bike_id":"e44c224f-9b49-4b6d-af95-9562d94be2db","system_id":"levelo_inurba_marseille","lat":43.298433,"lon":5.362774,"is_reserved":false,"is_disabled":false,"rental_uris":{"android":"levelo://app?vid=e44c224f-9b49-4b6d-af95-9562d94be2db","ios":"levelo://app?vid=e44c224f-9b49-4b6d-af95-9562d94be2db"},"vehicle_type_id":"4","last_reported":1684911984,"current_range_meters":28800,"station_id":"ce4bgpp2rcd13ifvqc3g","pricing_plan_id":"free"},{"bike_id":"43fc0082-9e98-4346-b413-a4cadc757bc5","system_id":"levelo_inurba_marseille","lat":43.29909,"lon":5.37456,"is_reserved":false,"is_disabled":false,"rental_uris":{"android":"levelo://app?vid=43fc0082-9e98-4346-b413-a4cadc757bc5","ios":"levelo://app?vid=43fc0082-9e98-4346-b413-a4cadc757bc5"},"vehicle_type_id":"4","last_reported":1684911984,"current_range_meters":11200,"station_id":"ce4bgjh2rcd13ifvqbg0","pricing_plan_id":"free"},{"bike_id":"3d30d473-505d-4d0d-863c-6f5197093df7","system_id":"levelo_inurba_marseille","lat":43.299243,"lon":5.37481,"is_reserved":false,"is_disabled":false,"rental_uris":{"android":"levelo://app?vid=3d30d473-505d-4d0d-863c-6f5197093df7","ios":"levelo://app?vid=3d30d473-505d-4d0d-863c-6f5197093df7"},"vehicle_type_id":"4","last_reported":1684911984,"current_range_meters":8800,"station_id":"ce4bgjh2rcd13ifvqbg0","pricing_plan_id":"free"},{"bike_id":"b36671d2-766d-4313-ac08-2e0f8d94b823","system_id":"levelo_inurba_marseille","lat":43.299243,"lon":5.37481,"is_reserved":false,"is_disabled":false,"rental_uris":{"android":"levelo://app?vid=b36671d2-766d-4313-ac08-2e0f8d94b823","ios":"levelo://app?vid=b36671d2-766d-4313-ac08-2e0f8d94b823"},"vehicle_type_id":"4","last_reported":1684911984,"current_range_meters":20400,"station_id":"ce4bgjh2rcd13ifvqbg0","pricing_plan_id":"free"},{"bike_id":"f67aab31-159c-4a90-9816-7dceb6359479","system_id":"levelo_inurba_marseille","lat":43.299243,"lon":5.37481,"is_reserved":false,"is_disabled":false,"rental_uris":{"android":"levelo://app?vid=f67aab31-159c-4a90-9816-7dceb6359479","ios":"levelo://app?vid=f67aab31-159c-4a90-9816-7dceb6359479"},"vehicle_type_id":"4","last_reported":1684911984,"current_range_meters":31200,"station_id":"ce4bgjh2rcd13ifvqbg0","pricing_plan_id":"free"},{"bike_id":"76d6eea9-72dc-47ab-a062-978ecebe90dd","system_id":"levelo_inurba_marseille","lat":43.29894,"lon":5.37473,"is_reserved":false,"is_disabled":false,"rental_uris":{"android":"levelo://app?vid=76d6eea9-72dc-47ab-a062-978ecebe90dd","ios":"levelo://app?vid=76d6eea9-72dc-47ab-a062-978ecebe90dd"},"vehicle_type_id":"4","last_reported":1684911984,"current_range_meters":26400,"station_id":"ce4bgjh2rcd13ifvqbg0","pricing_plan_id":"free"},{"bike_id":"b4f2240a-5ded-411b-9d31-83026cde91dc","system_id":"levelo_inurba_marseille","lat":43.29791,"lon":5.37108,"is_reserved":false,"is_disabled":false,"rental_uris":{"android":"levelo://app?vid=b4f2240a-5ded-411b-9d31-83026cde91dc","ios":"levelo://app?vid=b4f2240a-5ded-411b-9d31-83026cde91dc"},"vehicle_type_id":"4","last_reported":1684911984,"current_range_meters":22400,"station_id":"ce4bgop2rcd13ifvqc1g","pricing_plan_id":"free"},{"bike_id":"927606e9-217b-4c05-86c9-a5111d57eccf","system_id":"levelo_inurba_marseille","lat":43.297794,"lon":5.370888,"is_reserved":false,"is_disabled":false,"rental_uris":{"android":"levelo://app?vid=927606e9-217b-4c05-86c9-a5111d57eccf","ios":"levelo://app?vid=927606e9-217b-4c05-86c9-a5111d57eccf"},"vehicle_type_id":"4","last_reported":1684911984,"current_range_meters":28800,"station_id":"ce4bgop2rcd13ifvqc1g","pricing_plan_id":"free"},{"bike_id":"71912573-ed42-4e6c-8171-898f3e2a9fae","system_id":"levelo_inurba_marseille","lat":43.29784,"lon":5.37099,"is_reserved":false,"is_disabled":false,"rental_uris":{"android":"levelo://app?vid=71912573-ed42-4e6c-8171-898f3e2a9fae","ios":"levelo://app?vid=71912573-ed42-4e6c-8171-898f3e2a9fae"},"vehicle_type_id":"4","last_reported":1684911984,"current_range_meters":29200,"station_id":"ce4bgop2rcd13ifvqc1g","pricing_plan_id":"free"},{"bike_id":"ecd3752f-e644-4de1-9bf9-ca655f3ce742","system_id":"levelo_inurba_marseille","lat":43.297794,"lon":5.370888,"is_reserved":false,"is_disabled":false,"rental_uris":{"android":"levelo://app?vid=ecd3752f-e644-4de1-9bf9-ca655f3ce742","ios":"levelo://app?vid=ecd3752f-e644-4de1-9bf9-ca655f3ce742"},"vehicle_type_id":"4","last_reported":1684911984,"current_range_meters":25200,"station_id":"ce4bgop2rcd13ifvqc1g","pricing_plan_id":"free"},{"bike_id":"9634efb1-2b80-4307-86a0-a99949fdbef5","system_id":"levelo_inurba_marseille","lat":43.297794,"lon":5.370888,"is_reserved":false,"is_disabled":false,"rental_uris":{"android":"levelo://app?vid=9634efb1-2b80-4307-86a0-a99949fdbef5","ios":"levelo://app?vid=9634efb1-2b80-4307-86a0-a99949fdbef5"},"vehicle_type_id":"4","last_reported":1684911984,"current_range_meters":31200,"station_id":"ce4bgop2rcd13ifvqc1g","pricing_plan_id":"free"},{"bike_id":"764d457b-addf-4dcf-b5d4-86db574d4eb0","system_id":"levelo_inurba_marseille","lat":43.29767,"lon":5.37097,"is_reserved":false,"is_disabled":false,"rental_uris":{"android":"levelo://app?vid=764d457b-addf-4dcf-b5d4-86db574d4eb0","ios":"levelo://app?vid=764d457b-addf-4dcf-b5d4-86db574d4eb0"},"vehicle_type_id":"4","last_reported":1684911984,"current_range_meters":27200,"station_id":"ce4bgop2rcd13ifvqc1g","pricing_plan_id":"free"},{"bike_id":"a72cd3ab-e87f-4964-a87c-25d1d90e9843","system_id":"levelo_inurba_marseille","lat":43.328371,"lon":5.366912,"is_reserved":false,"is_disabled":false,"rental_uris":{"android":"levelo://app?vid=a72cd3ab-e87f-4964-a87c-25d1d90e9843","ios":"levelo://app?vid=a72cd3ab-e87f-4964-a87c-25d1d90e9843"},"vehicle_type_id":"4","last_reported":1684911984,"current_range_meters":24000,"station_id":"ce4bhs92rcd13ifvqi0g","pricing_plan_id":"free"},{"bike_id":"07d0f5f8-594a-4c99-bd5f-efd86e16327f","system_id":"levelo_inurba_marseille","lat":43.328371,"lon":5.366912,"is_reserved":false,"is_disabled":false,"rental_uris":{"android":"levelo://app?vid=07d0f5f8-594a-4c99-bd5f-efd86e16327f","ios":"levelo://app?vid=07d0f5f8-594a-4c99-bd5f-efd86e16327f"},"vehicle_type_id":"4","last_reported":1684911984,"current_range_meters":17200,"station_id":"ce4bhs92rcd13ifvqi0g","pricing_plan_id":"free"},{"bike_id":"fad50468-bff6-4eb0-bc39-08e7203bec60","system_id":"levelo_inurba_marseille","lat":43.328371,"lon":5.366912,"is_reserved":false,"is_disabled":false,"rental_uris":{"android":"levelo://app?vid=fad50468-bff6-4eb0-bc39-08e7203bec60","ios":"levelo://app?vid=fad50468-bff6-4eb0-bc39-08e7203bec60"},"vehicle_type_id":"4","last_reported":1684911984,"current_range_meters":22400,"station_id":"ce4bhs92rcd13ifvqi0g","pricing_plan_id":"free"},{"bike_id":"83f3f744-359d-493d-a816-556264b34e9c","system_id":"levelo_inurba_marseille","lat":43.328371,"lon":5.366912,"is_reserved":false,"is_disabled":false,"rental_uris":{"android":"levelo://app?vid=83f3f744-359d-493d-a816-556264b34e9c","ios":"levelo://app?vid=83f3f744-359d-493d-a816-556264b34e9c"},"vehicle_type_id":"4","last_reported":1684911984,"current_range_meters":12400,"station_id":"ce4bhs92rcd13ifvqi0g","pricing_plan_id":"free"},{"bike_id":"46ed5dfe-4da9-48c8-b4d0-4ecb987728b3","system_id":"levelo_inurba_marseille","lat":43.328371,"lon":5.366912,"is_reserved":false,"is_disabled":false,"rental_uris":{"android":"levelo://app?vid=46ed5dfe-4da9-48c8-b4d0-4ecb987728b3","ios":"levelo://app?vid=46ed5dfe-4da9-48c8-b4d0-4ecb987728b3"},"vehicle_type_id":"4","last_reported":1684911984,"current_range_meters":16000,"station_id":"ce4bhs92rcd13ifvqi0g","pricing_plan_id":"free"},{"bike_id":"14be3b5c-8d7b-481b-b4b4-3edd6df77220","system_id":"levelo_inurba_marseille","lat":43.328371,"lon":5.366909,"is_reserved":false,"is_disabled":false,"rental_uris":{"android":"levelo://app?vid=14be3b5c-8d7b-481b-b4b4-3edd6df77220","ios":"levelo://app?vid=14be3b5c-8d7b-481b-b4b4-3edd6df77220"},"vehicle_type_id":"4","last_reported":1684911984,"current_range_meters":28000,"station_id":"ce4bhs92rcd13ifvqi0g","pricing_plan_id":"free"},{"bike_id":"9d3b3375-d436-49a6-a89b-6d39da16aee9","system_id":"levelo_inurba_marseille","lat":43.328371,"lon":5.366909,"is_reserved":false,"is_disabled":false,"rental_uris":{"android":"levelo://app?vid=9d3b3375-d436-49a6-a89b-6d39da16aee9","ios":"levelo://app?vid=9d3b3375-d436-49a6-a89b-6d39da16aee9"},"vehicle_type_id":"4","last_reported":1684911984,"current_range_meters":20000,"station_id":"ce4bhs92rcd13ifvqi0g","pricing_plan_id":"free"},{"bike_id":"0d3aff03-aa9f-4b88-b060-f56bce13ad44","system_id":"levelo_inurba_marseille","lat":43.29716,"lon":5.36605,"is_reserved":false,"is_disabled":false,"rental_uris":{"android":"levelo://app?vid=0d3aff03-aa9f-4b88-b060-f56bce13ad44","ios":"levelo://app?vid=0d3aff03-aa9f-4b88-b060-f56bce13ad44"},"vehicle_type_id":"4","last_reported":1684911984,"current_range_meters":23200,"station_id":"","pricing_plan_id":"free"},{"bike_id":"8055edff-007a-433c-bb5b-643f9582a0ba","system_id":"levelo_inurba_marseille","lat":43.328371,"lon":5.366909,"is_reserved":false,"is_disabled":false,"rental_uris":{"android":"levelo://app?vid=8055edff-007a-433c-bb5b-643f9582a0ba","ios":"levelo://app?vid=8055edff-007a-433c-bb5b-643f9582a0ba"},"vehicle_type_id":"4","last_reported":1684911984,"current_range_meters":15200,"station_id":"ce4bhs92rcd13ifvqi0g","pricing_plan_id":"free"},{"bike_id":"e0f7a236-c4b3-4872-bdae-be6546f9da18","system_id":"levelo_inurba_marseille","lat":43.2968,"lon":5.37291,"is_reserved":false,"is_disabled":false,"rental_uris":{"android":"levelo://app?vid=e0f7a236-c4b3-4872-bdae-be6546f9da18","ios":"levelo://app?vid=e0f7a236-c4b3-4872-bdae-be6546f9da18"},"vehicle_type_id":"4","last_reported":1684911984,"current_range_meters":20800,"station_id":"ce4bgk12rcd13ifvqbj0","pricing_plan_id":"free"},{"bike_id":"0cab87ed-e11c-4b34-82b1-fe967031afa7","system_id":"levelo_inurba_marseille","lat":43.296131,"lon":5.370791,"is_reserved":false,"is_disabled":false,"rental_uris":{"android":"levelo://app?vid=0cab87ed-e11c-4b34-82b1-fe967031afa7","ios":"levelo://app?vid=0cab87ed-e11c-4b34-82b1-fe967031afa7"},"vehicle_type_id":"4","last_reported":1684911984,"current_range_meters":17600,"station_id":"ce4bgnh2rcd13ifvqc0g","pricing_plan_id":"free"},{"bike_id":"0022c8e0-b57f-4a16-94cb-1fbd25366096","system_id":"levelo_inurba_marseille","lat":43.29618,"lon":5.37149,"is_reserved":false,"is_disabled":false,"rental_uris":{"android":"levelo://app?vid=0022c8e0-b57f-4a16-94cb-1fbd25366096","ios":"levelo://app?vid=0022c8e0-b57f-4a16-94cb-1fbd25366096"},"vehicle_type_id":"4","last_reported":1684911984,"current_range_meters":28000,"station_id":"","pricing_plan_id":"free"},{"bike_id":"5766f872-6259-4b4e-a919-04d72a964021","system_id":"levelo_inurba_marseille","lat":43.2962,"lon":5.37169,"is_reserved":false,"is_disabled":false,"rental_uris":{"android":"levelo://app?vid=5766f872-6259-4b4e-a919-04d72a964021","ios":"levelo://app?vid=5766f872-6259-4b4e-a919-04d72a964021"},"vehicle_type_id":"4","last_reported":1684911984,"current_range_meters":26400,"station_id":"","pricing_plan_id":"free"},{"bike_id":"eafd5821-70cc-4a53-b9e6-b6e8ed47b867","system_id":"levelo_inurba_marseille","lat":43.309589,"lon":5.390258,"is_reserved":false,"is_disabled":false,"rental_uris":{"android":"levelo://app?vid=eafd5821-70cc-4a53-b9e6-b6e8ed47b867","ios":"levelo://app?vid=eafd5821-70cc-4a53-b9e6-b6e8ed47b867"},"vehicle_type_id":"4","last_reported":1684911984,"current_range_meters":28800,"station_id":"ce4bgup2rcd13ifvqco0","pricing_plan_id":"free"},{"bike_id":"4106a9af-cfc1-4e9d-8ca2-2ae12819cf46","system_id":"levelo_inurba_marseille","lat":43.299028,"lon":5.381509,"is_reserved":false,"is_disabled":false,"rental_uris":{"android":"levelo://app?vid=4106a9af-cfc1-4e9d-8ca2-2ae12819cf46","ios":"levelo://app?vid=4106a9af-cfc1-4e9d-8ca2-2ae12819cf46"},"vehicle_type_id":"4","last_reported":1684911984,"current_range_meters":26000,"station_id":"ce4bgj12rcd13ifvqbc0","pricing_plan_id":"free"},{"bike_id":"1c3dcff7-6c2f-47cf-ad05-cf5f8c7163d1","system_id":"levelo_inurba_marseille","lat":43.30947,"lon":5.39032,"is_reserved":false,"is_disabled":false,"rental_uris":{"android":"levelo://app?vid=1c3dcff7-6c2f-47cf-ad05-cf5f8c7163d1","ios":"levelo://app?vid=1c3dcff7-6c2f-47cf-ad05-cf5f8c7163d1"},"vehicle_type_id":"4","last_reported":1684911984,"current_range_meters":23200,"station_id":"ce4bgup2rcd13ifvqco0","pricing_plan_id":"free"},{"bike_id":"1396f1ca-045e-4908-a249-16197b3611f3","system_id":"levelo_inurba_marseille","lat":43.309589,"lon":5.390258,"is_reserved":false,"is_disabled":false,"rental_uris":{"android":"levelo://app?vid=1396f1ca-045e-4908-a249-16197b3611f3","ios":"levelo://app?vid=1396f1ca-045e-4908-a249-16197b3611f3"},"vehicle_type_id":"4","last_reported":1684911984,"current_range_meters":22000,"station_id":"ce4bgup2rcd13ifvqco0","pricing_plan_id":"free"},{"bike_id":"296c6616-132a-44db-96a9-416a30b78855","system_id":"levelo_inurba_marseille","lat":43.309589,"lon":5.390258,"is_reserved":false,"is_disabled":false,"rental_uris":{"android":"levelo://app?vid=296c6616-132a-44db-96a9-416a30b78855","ios":"levelo://app?vid=296c6616-132a-44db-96a9-416a30b78855"},"vehicle_type_id":"4","last_reported":1684911984,"current_range_meters":18800,"station_id":"ce4bgup2rcd13ifvqco0","pricing_plan_id":"free"},{"bike_id":"5e0e51cb-a381-40fe-9168-c80dea3c6a9d","system_id":"levelo_inurba_marseille","lat":43.317557,"lon":5.390173,"is_reserved":false,"is_disabled":false,"rental_uris":{"android":"levelo://app?vid=5e0e51cb-a381-40fe-9168-c80dea3c6a9d","ios":"levelo://app?vid=5e0e51cb-a381-40fe-9168-c80dea3c6a9d"},"vehicle_type_id":"4","last_reported":1684911984,"current_range_meters":28400,"station_id":"ce4bhqp2rcd13ifvqhng","pricing_plan_id":"free"},{"bike_id":"99b85f42-5068-4ec7-8fd9-173e4968f3b9","system_id":"levelo_inurba_marseille","lat":43.317557,"lon":5.390173,"is_reserved":false,"is_disabled":false,"rental_uris":{"android":"levelo://app?vid=99b85f42-5068-4ec7-8fd9-173e4968f3b9","ios":"levelo://app?vid=99b85f42-5068-4ec7-8fd9-173e4968f3b9"},"vehicle_type_id":"4","last_reported":1684911984,"current_range_meters":22000,"station_id":"ce4bhqp2rcd13ifvqhng","pricing_plan_id":"free"},{"bike_id":"fc0febd8-26de-4676-a79f-be40a6c5706c","system_id":"levelo_inurba_marseille","lat":43.29803,"lon":5.38087,"is_reserved":false,"is_disabled":false,"rental_uris":{"android":"levelo://app?vid=fc0febd8-26de-4676-a79f-be40a6c5706c","ios":"levelo://app?vid=fc0febd8-26de-4676-a79f-be40a6c5706c"},"vehicle_type_id":"4","last_reported":1684911984,"current_range_meters":15200,"station_id":"ce4bgip2rcd13ifvqbb0","pricing_plan_id":"free"},{"bike_id":"73dc4b3a-4b49-4d21-b567-25656e4a9f2a","system_id":"levelo_inurba_marseille","lat":43.295763,"lon":5.375157,"is_reserved":false,"is_disabled":false,"rental_uris":{"android":"levelo://app?vid=73dc4b3a-4b49-4d21-b567-25656e4a9f2a","ios":"levelo://app?vid=73dc4b3a-4b49-4d21-b567-25656e4a9f2a"},"vehicle_type_id":"4","last_reported":1684911984,"current_range_meters":3200,"station_id":"ce4bh4p2rcd13ifvqe0g","pricing_plan_id":"free"},{"bike_id":"a03ab63c-b081-4e47-b429-23dc4de2739d","system_id":"levelo_inurba_marseille","lat":43.295748,"lon":5.37522,"is_reserved":false,"is_disabled":false,"rental_uris":{"android":"levelo://app?vid=a03ab63c-b081-4e47-b429-23dc4de2739d","ios":"levelo://app?vid=a03ab63c-b081-4e47-b429-23dc4de2739d"},"vehicle_type_id":"4","last_reported":1684911984,"current_range_meters":26800,"station_id":"ce4bgh92rcd13ifvqb50","pricing_plan_id":"free"},{"bike_id":"e9f8a6aa-32ff-41ef-9345-b0b9b1eee3be","system_id":"levelo_inurba_marseille","lat":43.295748,"lon":5.37522,"is_reserved":false,"is_disabled":false,"rental_uris":{"android":"levelo://app?vid=e9f8a6aa-32ff-41ef-9345-b0b9b1eee3be","ios":"levelo://app?vid=e9f8a6aa-32ff-41ef-9345-b0b9b1eee3be"},"vehicle_type_id":"4","last_reported":1684911984,"current_range_meters":30400,"station_id":"ce4bgh92rcd13ifvqb50","pricing_plan_id":"free"},{"bike_id":"d875bcac-d27d-4bb1-a95d-3a5c8711325e","system_id":"levelo_inurba_marseille","lat":43.295748,"lon":5.37522,"is_reserved":false,"is_disabled":false,"rental_uris":{"android":"levelo://app?vid=d875bcac-d27d-4bb1-a95d-3a5c8711325e","ios":"levelo://app?vid=d875bcac-d27d-4bb1-a95d-3a5c8711325e"},"vehicle_type_id":"4","last_reported":1684911984,"current_range_meters":25600,"station_id":"ce4bgh92rcd13ifvqb50","pricing_plan_id":"free"},{"bike_id":"e489a2d5-5a7c-440e-bad9-76927e094ae3","system_id":"levelo_inurba_marseille","lat":43.29616,"lon":5.37722,"is_reserved":false,"is_disabled":false,"rental_uris":{"android":"levelo://app?vid=e489a2d5-5a7c-440e-bad9-76927e094ae3","ios":"levelo://app?vid=e489a2d5-5a7c-440e-bad9-76927e094ae3"},"vehicle_type_id":"4","last_reported":1684911984,"current_range_meters":21600,"station_id":"ce4bgi92rcd13ifvqb90","pricing_plan_id":"free"},{"bike_id":"b6e7d3cf-c208-4f13-9bd0-77401e120600","system_id":"levelo_inurba_marseille","lat":43.298037,"lon":5.381066,"is_reserved":false,"is_disabled":false,"rental_uris":{"android":"levelo://app?vid=b6e7d3cf-c208-4f13-9bd0-77401e120600","ios":"levelo://app?vid=b6e7d3cf-c208-4f13-9bd0-77401e120600"},"vehicle_type_id":"4","last_reported":1684911984,"current_range_meters":14400,"station_id":"ce4bgip2rcd13ifvqbb0","pricing_plan_id":"free"},{"bike_id":"40f5707a-aa19-4b0d-ab18-ca0e20c7033f","system_id":"levelo_inurba_marseille","lat":43.299051,"lon":5.383546,"is_reserved":false,"is_disabled":false,"rental_uris":{"android":"levelo://app?vid=40f5707a-aa19-4b0d-ab18-ca0e20c7033f","ios":"levelo://app?vid=40f5707a-aa19-4b0d-ab18-ca0e20c7033f"},"vehicle_type_id":"4","last_reported":1684911984,"current_range_meters":30000,"station_id":"","pricing_plan_id":"free"},{"bike_id":"4326703c-3dc7-493e-a485-5e40e2bcb964","system_id":"levelo_inurba_marseille","lat":43.299717,"lon":5.384845,"is_reserved":false,"is_disabled":false,"rental_uris":{"android":"levelo://app?vid=4326703c-3dc7-493e-a485-5e40e2bcb964","ios":"levelo://app?vid=4326703c-3dc7-493e-a485-5e40e2bcb964"},"vehicle_type_id":"4","last_reported":1684911984,"current_range_meters":3200,"station_id":"ce4bgj92rcd13ifvqbd0","pricing_plan_id":"free"},{"bike_id":"3f8c51b1-976c-4389-91e4-6aba882bdcd1","system_id":"levelo_inurba_marseille","lat":43.32363,"lon":5.38871,"is_reserved":false,"is_disabled":false,"rental_uris":{"android":"levelo://app?vid=3f8c51b1-976c-4389-91e4-6aba882bdcd1","ios":"levelo://app?vid=3f8c51b1-976c-4389-91e4-6aba882bdcd1"},"vehicle_type_id":"4","last_reported":1684911984,"current_range_meters":12400,"station_id":"ce4bhqp2rcd13ifvqhog","pricing_plan_id":"free"},{"bike_id":"6e929eea-ce83-4051-9199-c8d1e6f83d61","system_id":"levelo_inurba_marseille","lat":43.32358,"lon":5.38879,"is_reserved":false,"is_disabled":false,"rental_uris":{"android":"levelo://app?vid=6e929eea-ce83-4051-9199-c8d1e6f83d61","ios":"levelo://app?vid=6e929eea-ce83-4051-9199-c8d1e6f83d61"},"vehicle_type_id":"4","last_reported":1684911984,"current_range_meters":10400,"station_id":"ce4bhqp2rcd13ifvqhog","pricing_plan_id":"free"},{"bike_id":"d08580f2-e011-42b3-a9e9-78969f789498","system_id":"levelo_inurba_marseille","lat":43.32362,"lon":5.38877,"is_reserved":false,"is_disabled":false,"rental_uris":{"android":"levelo://app?vid=d08580f2-e011-42b3-a9e9-78969f789498","ios":"levelo://app?vid=d08580f2-e011-42b3-a9e9-78969f789498"},"vehicle_type_id":"4","last_reported":1684911984,"current_range_meters":28400,"station_id":"ce4bhqp2rcd13ifvqhog","pricing_plan_id":"free"},{"bike_id":"c43523df-276e-4694-adcf-a8b0c16542e3","system_id":"levelo_inurba_marseille","lat":43.32357,"lon":5.38882,"is_reserved":false,"is_disabled":false,"rental_uris":{"android":"levelo://app?vid=c43523df-276e-4694-adcf-a8b0c16542e3","ios":"levelo://app?vid=c43523df-276e-4694-adcf-a8b0c16542e3"},"vehicle_type_id":"4","last_reported":1684911984,"current_range_meters":16000,"station_id":"ce4bhqp2rcd13ifvqhog","pricing_plan_id":"free"},{"bike_id":"f2371f63-e4eb-48fe-aaa9-64cb538c1f31","system_id":"levelo_inurba_marseille","lat":43.32361,"lon":5.38882,"is_reserved":false,"is_disabled":false,"rental_uris":{"android":"levelo://app?vid=f2371f63-e4eb-48fe-aaa9-64cb538c1f31","ios":"levelo://app?vid=f2371f63-e4eb-48fe-aaa9-64cb538c1f31"},"vehicle_type_id":"4","last_reported":1684911984,"current_range_meters":27200,"station_id":"ce4bhqp2rcd13ifvqhog","pricing_plan_id":"free"},{"bike_id":"01d401da-ad68-4b2e-a4ac-24f3f8771d91","system_id":"levelo_inurba_marseille","lat":43.32367,"lon":5.388836,"is_reserved":false,"is_disabled":false,"rental_uris":{"android":"levelo://app?vid=01d401da-ad68-4b2e-a4ac-24f3f8771d91","ios":"levelo://app?vid=01d401da-ad68-4b2e-a4ac-24f3f8771d91"},"vehicle_type_id":"4","last_reported":1684911984,"current_range_meters":24000,"station_id":"ce4bhqp2rcd13ifvqhog","pricing_plan_id":"free"},{"bike_id":"c22a5f17-c99d-4e39-8c6c-58579d7e478c","system_id":"levelo_inurba_marseille","lat":43.32365,"lon":5.38881,"is_reserved":false,"is_disabled":false,"rental_uris":{"android":"levelo://app?vid=c22a5f17-c99d-4e39-8c6c-58579d7e478c","ios":"levelo://app?vid=c22a5f17-c99d-4e39-8c6c-58579d7e478c"},"vehicle_type_id":"4","last_reported":1684911984,"current_range_meters":6400,"station_id":"ce4bhqp2rcd13ifvqhog","pricing_plan_id":"free"},{"bike_id":"435efeae-a7e4-48dc-9ebe-ef72d32dbddd","system_id":"levelo_inurba_marseille","lat":43.32366,"lon":5.38882,"is_reserved":false,"is_disabled":false,"rental_uris":{"android":"levelo://app?vid=435efeae-a7e4-48dc-9ebe-ef72d32dbddd","ios":"levelo://app?vid=435efeae-a7e4-48dc-9ebe-ef72d32dbddd"},"vehicle_type_id":"4","last_reported":1684911984,"current_range_meters":19600,"station_id":"ce4bhqp2rcd13ifvqhog","pricing_plan_id":"free"},{"bike_id":"c491bbd1-3514-426e-8563-fc0fefddf0f3","system_id":"levelo_inurba_marseille","lat":43.32365,"lon":5.38883,"is_reserved":false,"is_disabled":false,"rental_uris":{"android":"levelo://app?vid=c491bbd1-3514-426e-8563-fc0fefddf0f3","ios":"levelo://app?vid=c491bbd1-3514-426e-8563-fc0fefddf0f3"},"vehicle_type_id":"4","last_reported":1684911984,"current_range_meters":24000,"station_id":"ce4bhqp2rcd13ifvqhog","pricing_plan_id":"free"},{"bike_id":"b2239e09-41dc-4cde-9b2f-b27fe7d0a355","system_id":"levelo_inurba_marseille","lat":43.32367,"lon":5.388836,"is_reserved":false,"is_disabled":false,"rental_uris":{"android":"levelo://app?vid=b2239e09-41dc-4cde-9b2f-b27fe7d0a355","ios":"levelo://app?vid=b2239e09-41dc-4cde-9b2f-b27fe7d0a355"},"vehicle_type_id":"4","last_reported":1684911984,"current_range_meters":18000,"station_id":"ce4bhqp2rcd13ifvqhog","pricing_plan_id":"free"},{"bike_id":"da5e2f88-6776-4877-9658-b54162fe9b78","system_id":"levelo_inurba_marseille","lat":43.32367,"lon":5.388836,"is_reserved":false,"is_disabled":false,"rental_uris":{"android":"levelo://app?vid=da5e2f88-6776-4877-9658-b54162fe9b78","ios":"levelo://app?vid=da5e2f88-6776-4877-9658-b54162fe9b78"},"vehicle_type_id":"4","last_reported":1684911984,"current_range_meters":0,"station_id":"ce4bhqp2rcd13ifvqhog","pricing_plan_id":"free"},{"bike_id":"6b3488b0-6367-431a-a7d1-a708fb51f069","system_id":"levelo_inurba_marseille","lat":43.29601,"lon":5.381084,"is_reserved":false,"is_disabled":false,"rental_uris":{"android":"levelo://app?vid=6b3488b0-6367-431a-a7d1-a708fb51f069","ios":"levelo://app?vid=6b3488b0-6367-431a-a7d1-a708fb51f069"},"vehicle_type_id":"4","last_reported":1684911984,"current_range_meters":800,"station_id":"ce4bgl12rcd13ifvqbo0","pricing_plan_id":"free"},{"bike_id":"8db764ed-3579-4161-b102-7114532e32ad","system_id":"levelo_inurba_marseille","lat":43.293249,"lon":5.371578,"is_reserved":false,"is_disabled":false,"rental_uris":{"android":"levelo://app?vid=8db764ed-3579-4161-b102-7114532e32ad","ios":"levelo://app?vid=8db764ed-3579-4161-b102-7114532e32ad"},"vehicle_type_id":"4","last_reported":1684911984,"current_range_meters":9600,"station_id":"ce4bgh92rcd13ifvqb40","pricing_plan_id":"free"},{"bike_id":"11e6ceda-201f-42d0-8462-86c6c34d4334","system_id":"levelo_inurba_marseille","lat":43.292749,"lon":5.368402,"is_reserved":false,"is_disabled":false,"rental_uris":{"android":"levelo://app?vid=11e6ceda-201f-42d0-8462-86c6c34d4334","ios":"levelo://app?vid=11e6ceda-201f-42d0-8462-86c6c34d4334"},"vehicle_type_id":"4","last_reported":1684911984,"current_range_meters":24800,"station_id":"ce4bhbp2rcd13ifvqesg","pricing_plan_id":"free"},{"bike_id":"3b1b165d-f482-468d-87a2-ceb6700c66f5","system_id":"levelo_inurba_marseille","lat":43.292749,"lon":5.368402,"is_reserved":false,"is_disabled":false,"rental_uris":{"android":"levelo://app?vid=3b1b165d-f482-468d-87a2-ceb6700c66f5","ios":"levelo://app?vid=3b1b165d-f482-468d-87a2-ceb6700c66f5"},"vehicle_type_id":"4","last_reported":1684911984,"current_range_meters":26800,"station_id":"ce4bhbp2rcd13ifvqesg","pricing_plan_id":"free"},{"bike_id":"d1240cf7-eb17-4065-8a0c-19315cd7833f","system_id":"levelo_inurba_marseille","lat":43.293009,"lon":5.374584,"is_reserved":false,"is_disabled":false,"rental_uris":{"android":"levelo://app?vid=d1240cf7-eb17-4065-8a0c-19315cd7833f","ios":"levelo://app?vid=d1240cf7-eb17-4065-8a0c-19315cd7833f"},"vehicle_type_id":"4","last_reported":1684911984,"current_range_meters":0,"station_id":"ce4bgi12rcd13ifvqb70","pricing_plan_id":"free"},{"bike_id":"499a9410-6b49-4a34-8b3a-189a787bcf0f","system_id":"levelo_inurba_marseille","lat":43.293009,"lon":5.374584,"is_reserved":false,"is_disabled":false,"rental_uris":{"android":"levelo://app?vid=499a9410-6b49-4a34-8b3a-189a787bcf0f","ios":"levelo://app?vid=499a9410-6b49-4a34-8b3a-189a787bcf0f"},"vehicle_type_id":"4","last_reported":1684911984,"current_range_meters":30000,"station_id":"ce4bgi12rcd13ifvqb70","pricing_plan_id":"free"},{"bike_id":"83001ae1-7fe0-49c8-b845-fc6092428eb6","system_id":"levelo_inurba_marseille","lat":43.2936,"lon":5.37835,"is_reserved":false,"is_disabled":false,"rental_uris":{"android":"levelo://app?vid=83001ae1-7fe0-49c8-b845-fc6092428eb6","ios":"levelo://app?vid=83001ae1-7fe0-49c8-b845-fc6092428eb6"},"vehicle_type_id":"4","last_reported":1684911984,"current_range_meters":28400,"station_id":"ce4bgjh2rcd13ifvqbf0","pricing_plan_id":"free"},{"bike_id":"6c07dc56-d2f4-4bd3-978b-219f6379b5e9","system_id":"levelo_inurba_marseille","lat":43.2936,"lon":5.37835,"is_reserved":false,"is_disabled":false,"rental_uris":{"android":"levelo://app?vid=6c07dc56-d2f4-4bd3-978b-219f6379b5e9","ios":"levelo://app?vid=6c07dc56-d2f4-4bd3-978b-219f6379b5e9"},"vehicle_type_id":"4","last_reported":1684911984,"current_range_meters":19200,"station_id":"ce4bgjh2rcd13ifvqbf0","pricing_plan_id":"free"},{"bike_id":"f4df0023-4419-4e63-86eb-c2c741a62d90","system_id":"levelo_inurba_marseille","lat":43.292311,"lon":5.360731,"is_reserved":false,"is_disabled":false,"rental_uris":{"android":"levelo://app?vid=f4df0023-4419-4e63-86eb-c2c741a62d90","ios":"levelo://app?vid=f4df0023-4419-4e63-86eb-c2c741a62d90"},"vehicle_type_id":"4","last_reported":1684911984,"current_range_meters":22400,"station_id":"ce4bhbh2rcd13ifvqeqg","pricing_plan_id":"free"},{"bike_id":"4a6b445b-d136-420f-8c61-f698e5a0a484","system_id":"levelo_inurba_marseille","lat":43.292312,"lon":5.36054,"is_reserved":false,"is_disabled":false,"rental_uris":{"android":"levelo://app?vid=4a6b445b-d136-420f-8c61-f698e5a0a484","ios":"levelo://app?vid=4a6b445b-d136-420f-8c61-f698e5a0a484"},"vehicle_type_id":"4","last_reported":1684911984,"current_range_meters":20000,"station_id":"ce4bhbh2rcd13ifvqeqg","pricing_plan_id":"free"},{"bike_id":"e97824ea-d167-4e97-b250-57d5654461b5","system_id":"levelo_inurba_marseille","lat":43.2936,"lon":5.37835,"is_reserved":false,"is_disabled":false,"rental_uris":{"android":"levelo://app?vid=e97824ea-d167-4e97-b250-57d5654461b5","ios":"levelo://app?vid=e97824ea-d167-4e97-b250-57d5654461b5"},"vehicle_type_id":"4","last_reported":1684911984,"current_range_meters":11200,"station_id":"ce4bgjh2rcd13ifvqbf0","pricing_plan_id":"free"},{"bike_id":"068352a8-cd06-4de9-91b2-7e0f522fe75a","system_id":"levelo_inurba_marseille","lat":43.2936,"lon":5.37835,"is_reserved":false,"is_disabled":false,"rental_uris":{"android":"levelo://app?vid=068352a8-cd06-4de9-91b2-7e0f522fe75a","ios":"levelo://app?vid=068352a8-cd06-4de9-91b2-7e0f522fe75a"},"vehicle_type_id":"4","last_reported":1684911984,"current_range_meters":15600,"station_id":"ce4bgjh2rcd13ifvqbf0","pricing_plan_id":"free"},{"bike_id":"52a00918-871f-4afc-907f-2cde5490c586","system_id":"levelo_inurba_marseille","lat":43.292663,"lon":5.376389,"is_reserved":false,"is_disabled":false,"rental_uris":{"android":"levelo://app?vid=52a00918-871f-4afc-907f-2cde5490c586","ios":"levelo://app?vid=52a00918-871f-4afc-907f-2cde5490c586"},"vehicle_type_id":"4","last_reported":1684911984,"current_range_meters":14000,"station_id":"ce4bgi12rcd13ifvqb80","pricing_plan_id":"free"},{"bike_id":"faef01a0-3a8f-406b-a344-711ae5082f22","system_id":"levelo_inurba_marseille","lat":43.292663,"lon":5.376394,"is_reserved":false,"is_disabled":false,"rental_uris":{"android":"levelo://app?vid=faef01a0-3a8f-406b-a344-711ae5082f22","ios":"levelo://app?vid=faef01a0-3a8f-406b-a344-711ae5082f22"},"vehicle_type_id":"4","last_reported":1684911984,"current_range_meters":24000,"station_id":"ce4bgi12rcd13ifvqb80","pricing_plan_id":"free"},{"bike_id":"4eb4bd1f-7f72-45a1-8068-1f651818c57e","system_id":"levelo_inurba_marseille","lat":43.292663,"lon":5.376394,"is_reserved":false,"is_disabled":false,"rental_uris":{"android":"levelo://app?vid=4eb4bd1f-7f72-45a1-8068-1f651818c57e","ios":"levelo://app?vid=4eb4bd1f-7f72-45a1-8068-1f651818c57e"},"vehicle_type_id":"4","last_reported":1684911984,"current_range_meters":4800,"station_id":"ce4bgi12rcd13ifvqb80","pricing_plan_id":"free"},{"bike_id":"bb44c562-9a16-4406-88f8-b4522c40bd66","system_id":"levelo_inurba_marseille","lat":43.292663,"lon":5.376389,"is_reserved":false,"is_disabled":false,"rental_uris":{"android":"levelo://app?vid=bb44c562-9a16-4406-88f8-b4522c40bd66","ios":"levelo://app?vid=bb44c562-9a16-4406-88f8-b4522c40bd66"},"vehicle_type_id":"4","last_reported":1684911984,"current_range_meters":22400,"station_id":"ce4bgi12rcd13ifvqb80","pricing_plan_id":"free"},{"bike_id":"8202d9f6-34be-4878-9ca7-8c244f820b5c","system_id":"levelo_inurba_marseille","lat":43.29161,"lon":5.37159,"is_reserved":false,"is_disabled":false,"rental_uris":{"android":"levelo://app?vid=8202d9f6-34be-4878-9ca7-8c244f820b5c","ios":"levelo://app?vid=8202d9f6-34be-4878-9ca7-8c244f820b5c"},"vehicle_type_id":"4","last_reported":1684911984,"current_range_meters":18400,"station_id":"ce4bha92rcd13ifvqeh0","pricing_plan_id":"free"},{"bike_id":"5d6edd82-eab6-43bf-b1bd-f1712fd02d3d","system_id":"levelo_inurba_marseille","lat":43.291671,"lon":5.371575,"is_reserved":false,"is_disabled":false,"rental_uris":{"android":"levelo://app?vid=5d6edd82-eab6-43bf-b1bd-f1712fd02d3d","ios":"levelo://app?vid=5d6edd82-eab6-43bf-b1bd-f1712fd02d3d"},"vehicle_type_id":"4","last_reported":1684911984,"current_range_meters":28000,"station_id":"ce4bha92rcd13ifvqeh0","pricing_plan_id":"free"},{"bike_id":"4efe0607-c817-4529-9aa3-acbbf4d14668","system_id":"levelo_inurba_marseille","lat":43.32765,"lon":5.38807,"is_reserved":false,"is_disabled":false,"rental_uris":{"android":"levelo://app?vid=4efe0607-c817-4529-9aa3-acbbf4d14668","ios":"levelo://app?vid=4efe0607-c817-4529-9aa3-acbbf4d14668"},"vehicle_type_id":"4","last_reported":1684911984,"current_range_meters":12000,"station_id":"","pricing_plan_id":"free"},{"bike_id":"77f3bdf3-fb2f-4cfa-9032-57245857dd63","system_id":"levelo_inurba_marseille","lat":43.291994,"lon":5.357886,"is_reserved":false,"is_disabled":false,"rental_uris":{"android":"levelo://app?vid=77f3bdf3-fb2f-4cfa-9032-57245857dd63","ios":"levelo://app?vid=77f3bdf3-fb2f-4cfa-9032-57245857dd63"},"vehicle_type_id":"4","last_reported":1684911984,"current_range_meters":4000,"station_id":"ce4bhb12rcd13ifvqel0","pricing_plan_id":"free"},{"bike_id":"9769996c-646e-40f5-ac79-3ba34e9c42a4","system_id":"levelo_inurba_marseille","lat":43.291994,"lon":5.357886,"is_reserved":false,"is_disabled":false,"rental_uris":{"android":"levelo://app?vid=9769996c-646e-40f5-ac79-3ba34e9c42a4","ios":"levelo://app?vid=9769996c-646e-40f5-ac79-3ba34e9c42a4"},"vehicle_type_id":"4","last_reported":1684911984,"current_range_meters":19200,"station_id":"ce4bhb12rcd13ifvqel0","pricing_plan_id":"free"},{"bike_id":"2a30e5e1-19d0-4122-b32d-64ebe6892509","system_id":"levelo_inurba_marseille","lat":43.291994,"lon":5.357886,"is_reserved":false,"is_disabled":false,"rental_uris":{"android":"levelo://app?vid=2a30e5e1-19d0-4122-b32d-64ebe6892509","ios":"levelo://app?vid=2a30e5e1-19d0-4122-b32d-64ebe6892509"},"vehicle_type_id":"4","last_reported":1684911984,"current_range_meters":20000,"station_id":"ce4bhb12rcd13ifvqel0","pricing_plan_id":"free"},{"bike_id":"4c1e3b57-92b1-4105-b6ab-3cfb2eef35ca","system_id":"levelo_inurba_marseille","lat":43.313109,"lon":5.396952,"is_reserved":false,"is_disabled":false,"rental_uris":{"android":"levelo://app?vid=4c1e3b57-92b1-4105-b6ab-3cfb2eef35ca","ios":"levelo://app?vid=4c1e3b57-92b1-4105-b6ab-3cfb2eef35ca"},"vehicle_type_id":"4","last_reported":1684911984,"current_range_meters":0,"station_id":"","pricing_plan_id":"free"},{"bike_id":"8228ac63-dbbb-4490-b0f7-1844142055be","system_id":"levelo_inurba_marseille","lat":43.29529,"lon":5.385581,"is_reserved":false,"is_disabled":false,"rental_uris":{"android":"levelo://app?vid=8228ac63-dbbb-4490-b0f7-1844142055be","ios":"levelo://app?vid=8228ac63-dbbb-4490-b0f7-1844142055be"},"vehicle_type_id":"4","last_reported":1684911984,"current_range_meters":22000,"station_id":"ce4bgih2rcd13ifvqba0","pricing_plan_id":"free"},{"bike_id":"c00c10ba-bf1c-4884-9085-ab49342c17cc","system_id":"levelo_inurba_marseille","lat":43.3102,"lon":5.39818,"is_reserved":false,"is_disabled":false,"rental_uris":{"android":"levelo://app?vid=c00c10ba-bf1c-4884-9085-ab49342c17cc","ios":"levelo://app?vid=c00c10ba-bf1c-4884-9085-ab49342c17cc"},"vehicle_type_id":"4","last_reported":1684911984,"current_range_meters":25600,"station_id":"","pricing_plan_id":"free"},{"bike_id":"95216b10-58d4-4bd9-b385-9860bf71bd6c","system_id":"levelo_inurba_marseille","lat":43.290319,"lon":5.375732,"is_reserved":false,"is_disabled":false,"rental_uris":{"android":"levelo://app?vid=95216b10-58d4-4bd9-b385-9860bf71bd6c","ios":"levelo://app?vid=95216b10-58d4-4bd9-b385-9860bf71bd6c"},"vehicle_type_id":"4","last_reported":1684911984,"current_range_meters":27200,"station_id":"ce4bh692rcd13ifvqe90","pricing_plan_id":"free"},{"bike_id":"000ef63d-e561-4025-b322-56148c02afeb","system_id":"levelo_inurba_marseille","lat":43.290319,"lon":5.375732,"is_reserved":false,"is_disabled":false,"rental_uris":{"android":"levelo://app?vid=000ef63d-e561-4025-b322-56148c02afeb","ios":"levelo://app?vid=000ef63d-e561-4025-b322-56148c02afeb"},"vehicle_type_id":"4","last_reported":1684911984,"current_range_meters":25200,"station_id":"ce4bh692rcd13ifvqe90","pricing_plan_id":"free"},{"bike_id":"f7648cc9-000e-4470-813d-6cde504c0bb6","system_id":"levelo_inurba_marseille","lat":43.290327,"lon":5.375711,"is_reserved":false,"is_disabled":false,"rental_uris":{"android":"levelo://app?vid=f7648cc9-000e-4470-813d-6cde504c0bb6","ios":"levelo://app?vid=f7648cc9-000e-4470-813d-6cde504c0bb6"},"vehicle_type_id":"4","last_reported":1684911984,"current_range_meters":24800,"station_id":"ce4bh692rcd13ifvqe90","pricing_plan_id":"free"},{"bike_id":"316ba37a-2deb-4d18-bb76-3cfa4df663b4","system_id":"levelo_inurba_marseille","lat":43.289184,"lon":5.366408,"is_reserved":false,"is_disabled":false,"rental_uris":{"android":"levelo://app?vid=316ba37a-2deb-4d18-bb76-3cfa4df663b4","ios":"levelo://app?vid=316ba37a-2deb-4d18-bb76-3cfa4df663b4"},"vehicle_type_id":"4","last_reported":1684911984,"current_range_meters":23600,"station_id":"ce4bhap2rcd13ifvqek0","pricing_plan_id":"free"},{"bike_id":"2b0e0d7b-0e42-450e-b7ba-f08cf95eccfa","system_id":"levelo_inurba_marseille","lat":43.290327,"lon":5.375711,"is_reserved":false,"is_disabled":false,"rental_uris":{"android":"levelo://app?vid=2b0e0d7b-0e42-450e-b7ba-f08cf95eccfa","ios":"levelo://app?vid=2b0e0d7b-0e42-450e-b7ba-f08cf95eccfa"},"vehicle_type_id":"4","last_reported":1684911984,"current_range_meters":14400,"station_id":"ce4bh692rcd13ifvqe90","pricing_plan_id":"free"},{"bike_id":"772c2fec-0c60-4a29-9bc6-550f431238ed","system_id":"levelo_inurba_marseille","lat":43.33045,"lon":5.38913,"is_reserved":false,"is_disabled":false,"rental_uris":{"android":"levelo://app?vid=772c2fec-0c60-4a29-9bc6-550f431238ed","ios":"levelo://app?vid=772c2fec-0c60-4a29-9bc6-550f431238ed"},"vehicle_type_id":"4","last_reported":1684911984,"current_range_meters":12000,"station_id":"ce4bhr92rcd13ifvqhrg","pricing_plan_id":"free"},{"bike_id":"3df805b3-2810-48e9-b919-b057d3b27e81","system_id":"levelo_inurba_marseille","lat":43.33046,"lon":5.38913,"is_reserved":false,"is_disabled":false,"rental_uris":{"android":"levelo://app?vid=3df805b3-2810-48e9-b919-b057d3b27e81","ios":"levelo://app?vid=3df805b3-2810-48e9-b919-b057d3b27e81"},"vehicle_type_id":"4","last_reported":1684911984,"current_range_meters":22800,"station_id":"ce4bhr92rcd13ifvqhrg","pricing_plan_id":"free"},{"bike_id":"1746991a-4a5f-4043-9b2c-a04779f48e3f","system_id":"levelo_inurba_marseille","lat":43.3026,"lon":5.39715,"is_reserved":false,"is_disabled":false,"rental_uris":{"android":"levelo://app?vid=1746991a-4a5f-4043-9b2c-a04779f48e3f","ios":"levelo://app?vid=1746991a-4a5f-4043-9b2c-a04779f48e3f"},"vehicle_type_id":"4","last_reported":1684911984,"current_range_meters":10800,"station_id":"","pricing_plan_id":"free"},{"bike_id":"7ad8fba4-4eb5-40be-b496-2d57fc66c30f","system_id":"levelo_inurba_marseille","lat":43.28909,"lon":5.359599,"is_reserved":false,"is_disabled":false,"rental_uris":{"android":"levelo://app?vid=7ad8fba4-4eb5-40be-b496-2d57fc66c30f","ios":"levelo://app?vid=7ad8fba4-4eb5-40be-b496-2d57fc66c30f"},"vehicle_type_id":"4","last_reported":1684911984,"current_range_meters":800,"station_id":"","pricing_plan_id":"free"},{"bike_id":"3f5c3317-c548-48cc-855a-5c79654795b4","system_id":"levelo_inurba_marseille","lat":43.297814,"lon":5.393513,"is_reserved":false,"is_disabled":false,"rental_uris":{"android":"levelo://app?vid=3f5c3317-c548-48cc-855a-5c79654795b4","ios":"levelo://app?vid=3f5c3317-c548-48cc-855a-5c79654795b4"},"vehicle_type_id":"4","last_reported":1684911984,"current_range_meters":24000,"station_id":"chh1huq6cuj3fo74tm60","pricing_plan_id":"free"},{"bike_id":"e66f98b8-ff48-439a-86bd-c25cc0e1d621","system_id":"levelo_inurba_marseille","lat":43.289741,"lon":5.378306,"is_reserved":false,"is_disabled":false,"rental_uris":{"android":"levelo://app?vid=e66f98b8-ff48-439a-86bd-c25cc0e1d621","ios":"levelo://app?vid=e66f98b8-ff48-439a-86bd-c25cc0e1d621"},"vehicle_type_id":"4","last_reported":1684911984,"current_range_meters":18400,"station_id":"ce4bh9p2rcd13ifvqed0","pricing_plan_id":"free"},{"bike_id":"66de6ca6-7055-46fb-bc4a-a80af7ee7037","system_id":"levelo_inurba_marseille","lat":43.30503,"lon":5.39939,"is_reserved":false,"is_disabled":false,"rental_uris":{"android":"levelo://app?vid=66de6ca6-7055-46fb-bc4a-a80af7ee7037","ios":"levelo://app?vid=66de6ca6-7055-46fb-bc4a-a80af7ee7037"},"vehicle_type_id":"4","last_reported":1684911984,"current_range_meters":2000,"station_id":"","pricing_plan_id":"free"},{"bike_id":"fa8aa980-3d66-469a-9738-e2e7d6b7aad7","system_id":"levelo_inurba_marseille","lat":43.3374,"lon":5.37437,"is_reserved":false,"is_disabled":false,"rental_uris":{"android":"levelo://app?vid=fa8aa980-3d66-469a-9738-e2e7d6b7aad7","ios":"levelo://app?vid=fa8aa980-3d66-469a-9738-e2e7d6b7aad7"},"vehicle_type_id":"4","last_reported":1684911984,"current_range_meters":29600,"station_id":"","pricing_plan_id":"free"},{"bike_id":"e123cd43-562a-427d-b741-98d33ce5dea2","system_id":"levelo_inurba_marseille","lat":43.33749,"lon":5.37424,"is_reserved":false,"is_disabled":false,"rental_uris":{"android":"levelo://app?vid=e123cd43-562a-427d-b741-98d33ce5dea2","ios":"levelo://app?vid=e123cd43-562a-427d-b741-98d33ce5dea2"},"vehicle_type_id":"4","last_reported":1684911984,"current_range_meters":31200,"station_id":"","pricing_plan_id":"free"},{"bike_id":"7df7a62c-f249-4aee-a961-7f8771c1e324","system_id":"levelo_inurba_marseille","lat":43.33745,"lon":5.37452,"is_reserved":false,"is_disabled":false,"rental_uris":{"android":"levelo://app?vid=7df7a62c-f249-4aee-a961-7f8771c1e324","ios":"levelo://app?vid=7df7a62c-f249-4aee-a961-7f8771c1e324"},"vehicle_type_id":"4","last_reported":1684911984,"current_range_meters":25600,"station_id":"","pricing_plan_id":"free"},{"bike_id":"9dd63682-b240-4d27-9080-0d9bd4bd957d","system_id":"levelo_inurba_marseille","lat":43.33751,"lon":5.37465,"is_reserved":false,"is_disabled":false,"rental_uris":{"android":"levelo://app?vid=9dd63682-b240-4d27-9080-0d9bd4bd957d","ios":"levelo://app?vid=9dd63682-b240-4d27-9080-0d9bd4bd957d"},"vehicle_type_id":"4","last_reported":1684911984,"current_range_meters":30800,"station_id":"","pricing_plan_id":"free"},{"bike_id":"c6aa3f87-d58d-409d-b29d-c5cc802917f7","system_id":"levelo_inurba_marseille","lat":43.30642,"lon":5.401031,"is_reserved":false,"is_disabled":false,"rental_uris":{"android":"levelo://app?vid=c6aa3f87-d58d-409d-b29d-c5cc802917f7","ios":"levelo://app?vid=c6aa3f87-d58d-409d-b29d-c5cc802917f7"},"vehicle_type_id":"4","last_reported":1684911984,"current_range_meters":29200,"station_id":"ce4bh112rcd13ifvqda0","pricing_plan_id":"free"},{"bike_id":"33d14251-098d-417f-aa25-a478d24baec7","system_id":"levelo_inurba_marseille","lat":43.33767,"lon":5.37459,"is_reserved":false,"is_disabled":false,"rental_uris":{"android":"levelo://app?vid=33d14251-098d-417f-aa25-a478d24baec7","ios":"levelo://app?vid=33d14251-098d-417f-aa25-a478d24baec7"},"vehicle_type_id":"4","last_reported":1684911984,"current_range_meters":0,"station_id":"","pricing_plan_id":"free"},{"bike_id":"af9c39d8-1c33-4955-936d-442834cef536","system_id":"levelo_inurba_marseille","lat":43.30642,"lon":5.401031,"is_reserved":false,"is_disabled":false,"rental_uris":{"android":"levelo://app?vid=af9c39d8-1c33-4955-936d-442834cef536","ios":"levelo://app?vid=af9c39d8-1c33-4955-936d-442834cef536"},"vehicle_type_id":"4","last_reported":1684911984,"current_range_meters":29600,"station_id":"ce4bh112rcd13ifvqda0","pricing_plan_id":"free"},{"bike_id":"8ba24f90-37e4-44d2-bc31-ad2fbc6c283a","system_id":"levelo_inurba_marseille","lat":43.298837,"lon":5.397365,"is_reserved":false,"is_disabled":false,"rental_uris":{"android":"levelo://app?vid=8ba24f90-37e4-44d2-bc31-ad2fbc6c283a","ios":"levelo://app?vid=8ba24f90-37e4-44d2-bc31-ad2fbc6c283a"},"vehicle_type_id":"4","last_reported":1684911984,"current_range_meters":0,"station_id":"ce4bh0h2rcd13ifvqd50","pricing_plan_id":"free"},{"bike_id":"72091fc2-48d1-48c1-820d-bab4536d28fc","system_id":"levelo_inurba_marseille","lat":43.287184,"lon":5.37937,"is_reserved":false,"is_disabled":false,"rental_uris":{"android":"levelo://app?vid=72091fc2-48d1-48c1-820d-bab4536d28fc","ios":"levelo://app?vid=72091fc2-48d1-48c1-820d-bab4536d28fc"},"vehicle_type_id":"4","last_reported":1684911984,"current_range_meters":14800,"station_id":"ce4bh9p2rcd13ifvqec0","pricing_plan_id":"free"},{"bike_id":"ff980e9c-09f6-4560-b2fd-742f01030f6b","system_id":"levelo_inurba_marseille","lat":43.287184,"lon":5.37937,"is_reserved":false,"is_disabled":false,"rental_uris":{"android":"levelo://app?vid=ff980e9c-09f6-4560-b2fd-742f01030f6b","ios":"levelo://app?vid=ff980e9c-09f6-4560-b2fd-742f01030f6b"},"vehicle_type_id":"4","last_reported":1684911984,"current_range_meters":1200,"station_id":"ce4bh9p2rcd13ifvqec0","pricing_plan_id":"free"},{"bike_id":"62d5ded5-8dea-41ee-8574-dc187e707a81","system_id":"levelo_inurba_marseille","lat":43.2881,"lon":5.38249,"is_reserved":false,"is_disabled":false,"rental_uris":{"android":"levelo://app?vid=62d5ded5-8dea-41ee-8574-dc187e707a81","ios":"levelo://app?vid=62d5ded5-8dea-41ee-8574-dc187e707a81"},"vehicle_type_id":"4","last_reported":1684911984,"current_range_meters":5600,"station_id":"","pricing_plan_id":"free"},{"bike_id":"8df9bfd7-f487-4d91-872c-4ee35d1f1756","system_id":"levelo_inurba_marseille","lat":43.287185,"lon":5.379373,"is_reserved":false,"is_disabled":false,"rental_uris":{"android":"levelo://app?vid=8df9bfd7-f487-4d91-872c-4ee35d1f1756","ios":"levelo://app?vid=8df9bfd7-f487-4d91-872c-4ee35d1f1756"},"vehicle_type_id":"4","last_reported":1684911984,"current_range_meters":20800,"station_id":"ce4bh9p2rcd13ifvqec0","pricing_plan_id":"free"},{"bike_id":"6f87bd09-a64c-454a-8ad8-7bf63b3e271b","system_id":"levelo_inurba_marseille","lat":43.316517,"lon":5.404375,"is_reserved":false,"is_disabled":false,"rental_uris":{"android":"levelo://app?vid=6f87bd09-a64c-454a-8ad8-7bf63b3e271b","ios":"levelo://app?vid=6f87bd09-a64c-454a-8ad8-7bf63b3e271b"},"vehicle_type_id":"4","last_reported":1684911984,"current_range_meters":6000,"station_id":"ce4bh012rcd13ifvqd00","pricing_plan_id":"free"},{"bike_id":"ffbe2897-fcfb-43b8-884c-65d7ee01564d","system_id":"levelo_inurba_marseille","lat":43.316517,"lon":5.404375,"is_reserved":false,"is_disabled":false,"rental_uris":{"android":"levelo://app?vid=ffbe2897-fcfb-43b8-884c-65d7ee01564d","ios":"levelo://app?vid=ffbe2897-fcfb-43b8-884c-65d7ee01564d"},"vehicle_type_id":"4","last_reported":1684911984,"current_range_meters":24400,"station_id":"ce4bh012rcd13ifvqd00","pricing_plan_id":"free"},{"bike_id":"1b95c390-f78b-4c4d-b02a-107b3d641731","system_id":"levelo_inurba_marseille","lat":43.2846,"lon":5.35897,"is_reserved":false,"is_disabled":false,"rental_uris":{"android":"levelo://app?vid=1b95c390-f78b-4c4d-b02a-107b3d641731","ios":"levelo://app?vid=1b95c390-f78b-4c4d-b02a-107b3d641731"},"vehicle_type_id":"4","last_reported":1684911984,"current_range_meters":18400,"station_id":"","pricing_plan_id":"free"},{"bike_id":"6bff21f2-9162-4e0f-ac77-6e9266b1018b","system_id":"levelo_inurba_marseille","lat":43.284534,"lon":5.358662,"is_reserved":false,"is_disabled":false,"rental_uris":{"android":"levelo://app?vid=6bff21f2-9162-4e0f-ac77-6e9266b1018b","ios":"levelo://app?vid=6bff21f2-9162-4e0f-ac77-6e9266b1018b"},"vehicle_type_id":"4","last_reported":1684911984,"current_range_meters":0,"station_id":"ce4bhah2rcd13ifvqei0","pricing_plan_id":"free"},{"bike_id":"c31695f1-5c63-4282-9b3a-e64c9b8860e3","system_id":"levelo_inurba_marseille","lat":43.31585,"lon":5.40752,"is_reserved":false,"is_disabled":false,"rental_uris":{"android":"levelo://app?vid=c31695f1-5c63-4282-9b3a-e64c9b8860e3","ios":"levelo://app?vid=c31695f1-5c63-4282-9b3a-e64c9b8860e3"},"vehicle_type_id":"4","last_reported":1684911984,"current_range_meters":0,"station_id":"","pricing_plan_id":"free"},{"bike_id":"1b941d2a-6cfb-495b-91a3-86006ca605b1","system_id":"levelo_inurba_marseille","lat":43.286674,"lon":5.386718,"is_reserved":false,"is_disabled":false,"rental_uris":{"android":"levelo://app?vid=1b941d2a-6cfb-495b-91a3-86006ca605b1","ios":"levelo://app?vid=1b941d2a-6cfb-495b-91a3-86006ca605b1"},"vehicle_type_id":"4","last_reported":1684911984,"current_range_meters":26000,"station_id":"","pricing_plan_id":"free"},{"bike_id":"928e504a-1edb-42ba-9171-0bee0d0cbf56","system_id":"levelo_inurba_marseille","lat":43.284787,"lon":5.384116,"is_reserved":false,"is_disabled":false,"rental_uris":{"android":"levelo://app?vid=928e504a-1edb-42ba-9171-0bee0d0cbf56","ios":"levelo://app?vid=928e504a-1edb-42ba-9171-0bee0d0cbf56"},"vehicle_type_id":"4","last_reported":1684911984,"current_range_meters":14800,"station_id":"ce4bh512rcd13ifvqe3g","pricing_plan_id":"free"},{"bike_id":"dd8c6232-4010-4b54-bcbd-353da25a3337","system_id":"levelo_inurba_marseille","lat":43.323464,"lon":5.406297,"is_reserved":false,"is_disabled":false,"rental_uris":{"android":"levelo://app?vid=dd8c6232-4010-4b54-bcbd-353da25a3337","ios":"levelo://app?vid=dd8c6232-4010-4b54-bcbd-353da25a3337"},"vehicle_type_id":"4","last_reported":1684911984,"current_range_meters":31600,"station_id":"ce4bhq92rcd13ifvqhjg","pricing_plan_id":"free"},{"bike_id":"8a56f565-b3e7-4bd9-b554-f58074284df7","system_id":"levelo_inurba_marseille","lat":43.33721,"lon":5.39195,"is_reserved":false,"is_disabled":false,"rental_uris":{"android":"levelo://app?vid=8a56f565-b3e7-4bd9-b554-f58074284df7","ios":"levelo://app?vid=8a56f565-b3e7-4bd9-b554-f58074284df7"},"vehicle_type_id":"4","last_reported":1684911984,"current_range_meters":23200,"station_id":"","pricing_plan_id":"free"},{"bike_id":"628e9b3a-57f9-4205-a806-acf6ff0a3d4d","system_id":"levelo_inurba_marseille","lat":43.323464,"lon":5.406297,"is_reserved":false,"is_disabled":false,"rental_uris":{"android":"levelo://app?vid=628e9b3a-57f9-4205-a806-acf6ff0a3d4d","ios":"levelo://app?vid=628e9b3a-57f9-4205-a806-acf6ff0a3d4d"},"vehicle_type_id":"4","last_reported":1684911984,"current_range_meters":31200,"station_id":"ce4bhq92rcd13ifvqhjg","pricing_plan_id":"free"},{"bike_id":"8fafdd0f-ccf7-48b9-933a-55501a6629c4","system_id":"levelo_inurba_marseille","lat":43.284793,"lon":5.384113,"is_reserved":false,"is_disabled":false,"rental_uris":{"android":"levelo://app?vid=8fafdd0f-ccf7-48b9-933a-55501a6629c4","ios":"levelo://app?vid=8fafdd0f-ccf7-48b9-933a-55501a6629c4"},"vehicle_type_id":"4","last_reported":1684911984,"current_range_meters":24400,"station_id":"ce4bh512rcd13ifvqe3g","pricing_plan_id":"free"},{"bike_id":"25a4337e-3b4f-4d21-b507-777dcec23b94","system_id":"levelo_inurba_marseille","lat":43.284793,"lon":5.384113,"is_reserved":false,"is_disabled":false,"rental_uris":{"android":"levelo://app?vid=25a4337e-3b4f-4d21-b507-777dcec23b94","ios":"levelo://app?vid=25a4337e-3b4f-4d21-b507-777dcec23b94"},"vehicle_type_id":"4","last_reported":1684911984,"current_range_meters":20000,"station_id":"ce4bh512rcd13ifvqe3g","pricing_plan_id":"free"},{"bike_id":"2f90f63f-7fb0-4aa4-884a-f0aee44eed13","system_id":"levelo_inurba_marseille","lat":43.284793,"lon":5.384113,"is_reserved":false,"is_disabled":false,"rental_uris":{"android":"levelo://app?vid=2f90f63f-7fb0-4aa4-884a-f0aee44eed13","ios":"levelo://app?vid=2f90f63f-7fb0-4aa4-884a-f0aee44eed13"},"vehicle_type_id":"4","last_reported":1684911984,"current_range_meters":4000,"station_id":"ce4bh512rcd13ifvqe3g","pricing_plan_id":"free"},{"bike_id":"629d08c1-52f5-47c5-a99b-e58d916cad79","system_id":"levelo_inurba_marseille","lat":43.284793,"lon":5.384113,"is_reserved":false,"is_disabled":false,"rental_uris":{"android":"levelo://app?vid=629d08c1-52f5-47c5-a99b-e58d916cad79","ios":"levelo://app?vid=629d08c1-52f5-47c5-a99b-e58d916cad79"},"vehicle_type_id":"4","last_reported":1684911984,"current_range_meters":0,"station_id":"ce4bh512rcd13ifvqe3g","pricing_plan_id":"free"},{"bike_id":"5de9124b-470d-454f-9954-b49497666ee0","system_id":"levelo_inurba_marseille","lat":43.284787,"lon":5.384116,"is_reserved":false,"is_disabled":false,"rental_uris":{"android":"levelo://app?vid=5de9124b-470d-454f-9954-b49497666ee0","ios":"levelo://app?vid=5de9124b-470d-454f-9954-b49497666ee0"},"vehicle_type_id":"4","last_reported":1684911984,"current_range_meters":14400,"station_id":"ce4bh512rcd13ifvqe3g","pricing_plan_id":"free"},{"bike_id":"f7a1b0e3-3d81-4311-99a2-a362235af83a","system_id":"levelo_inurba_marseille","lat":43.284219,"lon":5.3497,"is_reserved":false,"is_disabled":false,"rental_uris":{"android":"levelo://app?vid=f7a1b0e3-3d81-4311-99a2-a362235af83a","ios":"levelo://app?vid=f7a1b0e3-3d81-4311-99a2-a362235af83a"},"vehicle_type_id":"4","last_reported":1684911984,"current_range_meters":800,"station_id":"ce4bhbh2rcd13ifvqepg","pricing_plan_id":"free"},{"bike_id":"1be82a91-f807-429f-a600-df3e17928ec7","system_id":"levelo_inurba_marseille","lat":43.28365,"lon":5.38626,"is_reserved":false,"is_disabled":false,"rental_uris":{"android":"levelo://app?vid=1be82a91-f807-429f-a600-df3e17928ec7","ios":"levelo://app?vid=1be82a91-f807-429f-a600-df3e17928ec7"},"vehicle_type_id":"4","last_reported":1684911984,"current_range_meters":28400,"station_id":"ce4bh492rcd13ifvqdvg","pricing_plan_id":"free"},{"bike_id":"582f0555-a06a-4738-aac4-72c986d29f01","system_id":"levelo_inurba_marseille","lat":43.28359,"lon":5.38618,"is_reserved":false,"is_disabled":false,"rental_uris":{"android":"levelo://app?vid=582f0555-a06a-4738-aac4-72c986d29f01","ios":"levelo://app?vid=582f0555-a06a-4738-aac4-72c986d29f01"},"vehicle_type_id":"4","last_reported":1684911984,"current_range_meters":31200,"station_id":"ce4bh492rcd13ifvqdvg","pricing_plan_id":"free"},{"bike_id":"9dbab63f-b0d4-47f6-ba33-f76e8a259918","system_id":"levelo_inurba_marseille","lat":43.28358,"lon":5.38625,"is_reserved":false,"is_disabled":false,"rental_uris":{"android":"levelo://app?vid=9dbab63f-b0d4-47f6-ba33-f76e8a259918","ios":"levelo://app?vid=9dbab63f-b0d4-47f6-ba33-f76e8a259918"},"vehicle_type_id":"4","last_reported":1684911984,"current_range_meters":15600,"station_id":"ce4bh492rcd13ifvqdvg","pricing_plan_id":"free"},{"bike_id":"2e2cb24a-3f37-4fa6-99f1-9b55eacdc7a7","system_id":"levelo_inurba_marseille","lat":43.28352,"lon":5.38614,"is_reserved":false,"is_disabled":false,"rental_uris":{"android":"levelo://app?vid=2e2cb24a-3f37-4fa6-99f1-9b55eacdc7a7","ios":"levelo://app?vid=2e2cb24a-3f37-4fa6-99f1-9b55eacdc7a7"},"vehicle_type_id":"4","last_reported":1684911984,"current_range_meters":27600,"station_id":"ce4bh492rcd13ifvqdvg","pricing_plan_id":"free"},{"bike_id":"4d86ce40-e406-44d0-9e2e-59dcfae65e59","system_id":"levelo_inurba_marseille","lat":43.29041,"lon":5.39947,"is_reserved":false,"is_disabled":false,"rental_uris":{"android":"levelo://app?vid=4d86ce40-e406-44d0-9e2e-59dcfae65e59","ios":"levelo://app?vid=4d86ce40-e406-44d0-9e2e-59dcfae65e59"},"vehicle_type_id":"4","last_reported":1684911984,"current_range_meters":8400,"station_id":"ce4bh392rcd13ifvqdm0","pricing_plan_id":"free"},{"bike_id":"ef11657e-beb0-4423-b51a-51acbfd6fff2","system_id":"levelo_inurba_marseille","lat":43.290412,"lon":5.399633,"is_reserved":false,"is_disabled":false,"rental_uris":{"android":"levelo://app?vid=ef11657e-beb0-4423-b51a-51acbfd6fff2","ios":"levelo://app?vid=ef11657e-beb0-4423-b51a-51acbfd6fff2"},"vehicle_type_id":"4","last_reported":1684911984,"current_range_meters":28800,"station_id":"ce4bh392rcd13ifvqdm0","pricing_plan_id":"free"},{"bike_id":"66f77557-8a2a-44d4-a6b9-5aee5c135fd8","system_id":"levelo_inurba_marseille","lat":43.34717,"lon":5.36845,"is_reserved":false,"is_disabled":false,"rental_uris":{"android":"levelo://app?vid=66f77557-8a2a-44d4-a6b9-5aee5c135fd8","ios":"levelo://app?vid=66f77557-8a2a-44d4-a6b9-5aee5c135fd8"},"vehicle_type_id":"4","last_reported":1684911984,"current_range_meters":4400,"station_id":"","pricing_plan_id":"free"},