{"last_updated":1726808935,"ttl":30,"version":"2.2","data":{"bikes":[{"bike_id":"350e0701-1e5c-4ef9-be7d-bbd364a86033","system_id":"levelo_inurba_marseille","lat":43.28435,"lon":5.39185,"is_reserved":false,"is_disabled":false,"rental_uris":{"android":"levelo://app?vid=350e0701-1e5c-4ef9-be7d-bbd364a86033","ios":"levelo://app?vid=350e0701-1e5c-4ef9-be7d-bbd364a86033"},"vehicle_type_id":"4","last_reported":1726808936,"current_range_meters":12000,"station_id":"ce4bhoh2rcd13ifvqh5g","pricing_plan_id":"cebpf4jnsgd1na2vs0mg"},{"bike_id":"0155948a-8be5-40a1-a2b1-ec5ff0912ff9","system_id":"levelo_inurba_marseille","lat":43.30212,"lon":5.39463,"is_reserved":false,"is_disabled":false,"rental_uris":{"android":"levelo://app?vid=0155948a-8be5-40a1-a2b1-ec5ff0912ff9","ios":"levelo://app?vid=0155948a-8be5-40a1-a2b1-ec5ff0912ff9"},"vehicle_type_id":"4","last_reported":1726808936,"current_range_meters":28400,"station_id":"ce4bh0p2rcd13ifvqd70","pricing_plan_id":"cebpf4jnsgd1na2vs0mg"},{"bike_id":"5d193064-4046-4519-9b9d-42c5172dee3c","system_id":"levelo_inurba_marseille","lat":43.25111,"lon":5.40327,"is_reserved":false,"is_disabled":false,"rental_uris":{"android":"levelo://app?vid=5d193064-4046-4519-9b9d-42c5172dee3c","ios":"levelo://app?vid=5d193064-4046-4519-9b9d-42c5172dee3c"},"vehicle_type_id":"4","last_reported":1726808936,"current_range_meters":7200,"station_id":"ce4bhlh2rcd13ifvqgig","pricing_plan_id":"cebpf4jnsgd1na2vs0mg"},{"bike_id":"7d55db78-7210-483f-b538-ea2b4ad1d4c8","system_id":"levelo_inurba_marseille","lat":43.31073,"lon":5.42436,"is_reserved":false,"is_disabled":false,"rental_uris":{"android":"levelo://app?vid=7d55db78-7210-483f-b538-ea2b4ad1d4c8","ios":"levelo://app?vid=7d55db78-7210-483f-b538-ea2b4ad1d4c8"},"vehicle_type_id":"4","last_reported":1726808936,"current_range_meters":38800,"station_id":"ce4bhp92rcd13ifvqhag","pricing_plan_id":"cebpf4jnsgd1na2vs0mg"},{"bike_id":"a5ed4552-d0d2-4d14-bf49-8a55d4e2e324","system_id":"levelo_inurba_marseille","lat":43.30412,"lon":5.41297,"is_reserved":false,"is_disabled":false,"rental_uris":{"android":"levelo://app?vid=a5ed4552-d0d2-4d14-bf49-8a55d4e2e324","ios":"levelo://app?vid=a5ed4552-d0d2-4d14-bf49-8a55d4e2e324"},"vehicle_type_id":"4","last_reported":1726808936,"current_range_meters":33600,"station_id":"ce4bhop2rcd13ifvqh8g","pricing_plan_id":"cebpf4jnsgd1na2vs0mg"},{"bike_id":"25e91e22-1d49-450d-bc9a-3e4237345fd4","system_id":"levelo_inurba_marseille","lat":43.32366,"lon":5.38881,"is_reserved":false,"is_disabled":false,"rental_uris":{"android":"levelo://app?vid=25e91e22-1d49-450d-bc9a-3e4237345fd4","ios":"levelo://app?vid=25e91e22-1d49-450d-bc9a-3e4237345fd4"},"vehicle_type_id":"4","last_reported":1726808936,"current_range_meters":10800,"station_id":"ce4bhqp2rcd13ifvqhog","pricing_plan_id":"cebpf4jnsgd1na2vs0mg"},{"bike_id":"dc873ccc-5283-4204-9440-97850e006bd7","system_id":"levelo_inurba_marseille","lat":43.31543,"lon":5.38011,"is_reserved":false,"is_disabled":false,"rental_uris":{"android":"levelo://app?vid=dc873ccc-5283-4204-9440-97850e006bd7","ios":"levelo://app?vid=dc873ccc-5283-4204-9440-97850e006bd7"},"vehicle_type_id":"4","last_reported":1726808936,"current_range_meters":28400,"station_id":"ce4bhsp2rcd13ifvqi50","pricing_plan_id":"cebpf4jnsgd1na2vs0mg"},{"bike_id":"5cf80444-1425-4a7c-854e-d0982a74618b","system_id":"levelo_inurba_marseille","lat":43.28005,"lon":5.40007,"is_reserved":false,"is_disabled":false,"rental_uris":{"android":"levelo://app?vid=5cf80444-1425-4a7c-854e-d0982a74618b","ios":"levelo://app?vid=5cf80444-1425-4a7c-854e-d0982a74618b"},"vehicle_type_id":"4","last_reported":1726808936,"current_range_meters":29600,"station_id":"ce4bho92rcd13ifvqh4g","pricing_plan_id":"cebpf4jnsgd1na2vs0mg"},{"bike_id":"259a1233-1d98-4d8d-810e-00bdd4c3c766","system_id":"levelo_inurba_marseille","lat":43.31888,"lon":5.4073,"is_reserved":false,"is_disabled":false,"rental_uris":{"android":"levelo://app?vid=259a1233-1d98-4d8d-810e-00bdd4c3c766","ios":"levelo://app?vid=259a1233-1d98-4d8d-810e-00bdd4c3c766"},"vehicle_type_id":"4","last_reported":1726808936,"current_range_meters":38800,"station_id":"ce4bhq12rcd13ifvqhig","pricing_plan_id":"cebpf4jnsgd1na2vs0mg"},{"bike_id":"5a011757-8bed-47aa-aa97-2be1fb39f2aa","system_id":"levelo_inurba_marseille","lat":43.28463,"lon":5.35884,"is_reserved":false,"is_disabled":false,"rental_uris":{"android":"levelo://app?vid=5a011757-8bed-47aa-aa97-2be1fb39f2aa","ios":"levelo://app?vid=5a011757-8bed-47aa-aa97-2be1fb39f2aa"},"vehicle_type_id":"4","last_reported":1726808936,"current_range_meters":26800,"station_id":"ce4bhah2rcd13ifvqei0","pricing_plan_id":"cebpf4jnsgd1na2vs0mg"},{"bike_id":"e532fd53-ad12-4848-82ea-70ac934c1c37","system_id":"levelo_inurba_marseille","lat":43.3375,"lon":5.37446,"is_reserved":false,"is_disabled":false,"rental_uris":{"android":"levelo://app?vid=e532fd53-ad12-4848-82ea-70ac934c1c37","ios":"levelo://app?vid=e532fd53-ad12-4848-82ea-70ac934c1c37"},"vehicle_type_id":"4","last_reported":1726808936,"current_range_meters":34800,"station_id":"","pricing_plan_id":"cebpf4jnsgd1na2vs0mg"},{"bike_id":"1634cb17-a421-4481-a16d-ce76951a2212","system_id":"levelo_inurba_marseille","lat":43.27578,"lon":5.38422,"is_reserved":false,"is_disabled":false,"rental_uris":{"android":"levelo://app?vid=1634cb17-a421-4481-a16d-ce76951a2212","ios":"levelo://app?vid=1634cb17-a421-4481-a16d-ce76951a2212"},"vehicle_type_id":"4","last_reported":1726808936,"current_range_meters":38800,"station_id":"ce4bhh92rcd13ifvqfi0","pricing_plan_id":"cebpf4jnsgd1na2vs0mg"},{"bike_id":"344eacd1-6916-45c0-98c3-34bf8e515c58","system_id":"levelo_inurba_marseille","lat":43.3108,"lon":5.42429,"is_reserved":false,"is_disabled":false,"rental_uris":{"android":"levelo://app?vid=344eacd1-6916-45c0-98c3-34bf8e515c58","ios":"levelo://app?vid=344eacd1-6916-45c0-98c3-34bf8e515c58"},"vehicle_type_id":"4","last_reported":1726808936,"current_range_meters":22000,"station_id":"ce4bhp92rcd13ifvqhag","pricing_plan_id":"cebpf4jnsgd1na2vs0mg"},{"bike_id":"4c43e0ac-c356-404b-a39f-2969c2dce734","system_id":"levelo_inurba_marseille","lat":43.27567,"lon":5.38416,"is_reserved":false,"is_disabled":false,"rental_uris":{"android":"levelo://app?vid=4c43e0ac-c356-404b-a39f-2969c2dce734","ios":"levelo://app?vid=4c43e0ac-c356-404b-a39f-2969c2dce734"},"vehicle_type_id":"4","last_reported":1726808936,"current_range_meters":19600,"station_id":"ce4bhh92rcd13ifvqfi0","pricing_plan_id":"cebpf4jnsgd1na2vs0mg"},{"bike_id":"9c8e90b7-166a-437c-b522-fe29c083f4dc","system_id":"levelo_inurba_marseille","lat":43.31131,"lon":5.37759,"is_reserved":false,"is_disabled":false,"rental_uris":{"android":"levelo://app?vid=9c8e90b7-166a-437c-b522-fe29c083f4dc","ios":"levelo://app?vid=9c8e90b7-166a-437c-b522-fe29c083f4dc"},"vehicle_type_id":"4","last_reported":1726808936,"current_range_meters":31200,"station_id":"ce4bgt92rcd13ifvqcg0","pricing_plan_id":"cebpf4jnsgd1na2vs0mg"},{"bike_id":"80490428-4cf9-4e64-9c06-c69737938659","system_id":"levelo_inurba_marseille","lat":43.28666,"lon":5.36351,"is_reserved":false,"is_disabled":false,"rental_uris":{"android":"levelo://app?vid=80490428-4cf9-4e64-9c06-c69737938659","ios":"levelo://app?vid=80490428-4cf9-4e64-9c06-c69737938659"},"vehicle_type_id":"4","last_reported":1726808936,"current_range_meters":38800,"station_id":"ce4bhah2rcd13ifvqej0","pricing_plan_id":"cebpf4jnsgd1na2vs0mg"},{"bike_id":"e3a663e8-7688-46cc-8977-f03f48fde497","system_id":"levelo_inurba_marseille","lat":43.29242,"lon":5.40145,"is_reserved":false,"is_disabled":false,"rental_uris":{"android":"levelo://app?vid=e3a663e8-7688-46cc-8977-f03f48fde497","ios":"levelo://app?vid=e3a663e8-7688-46cc-8977-f03f48fde497"},"vehicle_type_id":"4","last_reported":1726808936,"current_range_meters":30400,"station_id":"ce4bh312rcd13ifvqdk0","pricing_plan_id":"cebpf4jnsgd1na2vs0mg"},{"bike_id":"f9898cab-cb36-4e00-83b8-7f729aaf5652","system_id":"levelo_inurba_marseille","lat":43.32654,"lon":5.40993,"is_reserved":false,"is_disabled":false,"rental_uris":{"android":"levelo://app?vid=f9898cab-cb36-4e00-83b8-7f729aaf5652","ios":"levelo://app?vid=f9898cab-cb36-4e00-83b8-7f729aaf5652"},"vehicle_type_id":"4","last_reported":1726808936,"current_range_meters":40000,"station_id":"ce4bhpp2rcd13ifvqhgg","pricing_plan_id":"cebpf4jnsgd1na2vs0mg"},{"bike_id":"2ad44ccd-56f6-4042-baf6-547692623dfe","system_id":"levelo_inurba_marseille","lat":43.30427,"lon":5.39756,"is_reserved":false,"is_disabled":false,"rental_uris":{"android":"levelo://app?vid=2ad44ccd-56f6-4042-baf6-547692623dfe","ios":"levelo://app?vid=2ad44ccd-56f6-4042-baf6-547692623dfe"},"vehicle_type_id":"4","last_reported":1726808936,"current_range_meters":38800,"station_id":"ce4bh092rcd13ifvqd20","pricing_plan_id":"cebpf4jnsgd1na2vs0mg"},{"bike_id":"aed3a4b1-dd0e-4aa9-a2f5-ffca63da2bf4","system_id":"levelo_inurba_marseille","lat":43.3024,"lon":5.40075,"is_reserved":false,"is_disabled":false,"rental_uris":{"android":"levelo://app?vid=aed3a4b1-dd0e-4aa9-a2f5-ffca63da2bf4","ios":"levelo://app?vid=aed3a4b1-dd0e-4aa9-a2f5-ffca63da2bf4"},"vehicle_type_id":"4","last_reported":1726808936,"current_range_meters":31200,"station_id":"ce4bgvh2rcd13ifvqcs0","pricing_plan_id":"cebpf4jnsgd1na2vs0mg"},{"bike_id":"c1c4f9b6-4e2c-4adf-a55c-8e8169f5b31f","system_id":"levelo_inurba_marseille","lat":43.29047,"lon":5.3996,"is_reserved":false,"is_disabled":false,"rental_uris":{"android":"levelo://app?vid=c1c4f9b6-4e2c-4adf-a55c-8e8169f5b31f","ios":"levelo://app?vid=c1c4f9b6-4e2c-4adf-a55c-8e8169f5b31f"},"vehicle_type_id":"4","last_reported":1726808936,"current_range_meters":36400,"station_id":"ce4bh392rcd13ifvqdm0","pricing_plan_id":"cebpf4jnsgd1na2vs0mg"},{"bike_id":"61730444-0f6c-45f0-a50d-cea6e13dd53b","system_id":"levelo_inurba_marseille","lat":43.29441,"lon":5.39747,"is_reserved":false,"is_disabled":false,"rental_uris":{"android":"levelo://app?vid=61730444-0f6c-45f0-a50d-cea6e13dd53b","ios":"levelo://app?vid=61730444-0f6c-45f0-a50d-cea6e13dd53b"},"vehicle_type_id":"4","last_reported":1726808936,"current_range_meters":34000,"station_id":"ce4bh3h2rcd13ifvqdo0","pricing_plan_id":"cebpf4jnsgd1na2vs0mg"},{"bike_id":"add1772f-6630-4854-a349-bfeadbd00122","system_id":"levelo_inurba_marseille","lat":43.26942,"lon":5.40259,"is_reserved":false,"is_disabled":false,"rental_uris":{"android":"levelo://app?vid=add1772f-6630-4854-a349-bfeadbd00122","ios":"levelo://app?vid=add1772f-6630-4854-a349-bfeadbd00122"},"vehicle_type_id":"4","last_reported":1726808936,"current_range_meters":37600,"station_id":"cjm6bp8fraef2m0cb0m0","pricing_plan_id":"cebpf4jnsgd1na2vs0mg"},{"bike_id":"6813a1bb-af4b-4872-8b9e-0171c15e7d49","system_id":"levelo_inurba_marseille","lat":43.30659,"lon":5.40075,"is_reserved":false,"is_disabled":false,"rental_uris":{"android":"levelo://app?vid=6813a1bb-af4b-4872-8b9e-0171c15e7d49","ios":"levelo://app?vid=6813a1bb-af4b-4872-8b9e-0171c15e7d49"},"vehicle_type_id":"4","last_reported":1726808936,"current_range_meters":39200,"station_id":"ce4bh112rcd13ifvqda0","pricing_plan_id":"cebpf4jnsgd1na2vs0mg"},{"bike_id":"7f6acce1-39ea-4633-ba55-98fb087e35e9","system_id":"levelo_inurba_marseille","lat":43.30885,"lon":5.39648,"is_reserved":false,"is_disabled":false,"rental_uris":{"android":"levelo://app?vid=7f6acce1-39ea-4633-ba55-98fb087e35e9","ios":"levelo://app?vid=7f6acce1-39ea-4633-ba55-98fb087e35e9"},"vehicle_type_id":"4","last_reported":1726808936,"current_range_meters":5600,"station_id":"ce4bh012rcd13ifvqcv0","pricing_plan_id":"cebpf4jnsgd1na2vs0mg"},{"bike_id":"c9181234-dad9-48f7-ada2-0ba8f6f07317","system_id":"levelo_inurba_marseille","lat":43.29194,"lon":5.39303,"is_reserved":false,"is_disabled":false,"rental_uris":{"android":"levelo://app?vid=c9181234-dad9-48f7-ada2-0ba8f6f07317","ios":"levelo://app?vid=c9181234-dad9-48f7-ada2-0ba8f6f07317"},"vehicle_type_id":"4","last_reported":1726808936,"current_range_meters":31200,"station_id":"ce4bh192rcd13ifvqdd0","pricing_plan_id":"cebpf4jnsgd1na2vs0mg"},{"bike_id":"4211c3d3-4311-431a-97be-2b9d2d251f69","system_id":"levelo_inurba_marseille","lat":43.27831,"lon":5.39209,"is_reserved":false,"is_disabled":false,"rental_uris":{"android":"levelo://app?vid=4211c3d3-4311-431a-97be-2b9d2d251f69","ios":"levelo://app?vid=4211c3d3-4311-431a-97be-2b9d2d251f69"},"vehicle_type_id":"4","last_reported":1726808936,"current_range_meters":38800,"station_id":"ce4bhjp2rcd13ifvqga0","pricing_plan_id":"cebpf4jnsgd1na2vs0mg"},{"bike_id":"1d669fcc-1fdc-4a47-bb39-513baf72b3d8","system_id":"levelo_inurba_marseille","lat":43.28106,"lon":5.37849,"is_reserved":false,"is_disabled":false,"rental_uris":{"android":"levelo://app?vid=1d669fcc-1fdc-4a47-bb39-513baf72b3d8","ios":"levelo://app?vid=1d669fcc-1fdc-4a47-bb39-513baf72b3d8"},"vehicle_type_id":"4","last_reported":1726808936,"current_range_meters":38400,"station_id":"ce4bha12rcd13ifvqee0","pricing_plan_id":"cebpf4jnsgd1na2vs0mg"},{"bike_id":"06eef320-c2b1-42ca-bda3-e896022e4f06","system_id":"levelo_inurba_marseille","lat":43.27066,"lon":5.42277,"is_reserved":false,"is_disabled":false,"rental_uris":{"android":"levelo://app?vid=06eef320-c2b1-42ca-bda3-e896022e4f06","ios":"levelo://app?vid=06eef320-c2b1-42ca-bda3-e896022e4f06"},"vehicle_type_id":"4","last_reported":1726808936,"current_range_meters":15200,"station_id":"ce4bhk92rcd13ifvqgb0","pricing_plan_id":"cebpf4jnsgd1na2vs0mg"},{"bike_id":"615ee14c-c7e8-49fd-80e7-8afd0f83894c","system_id":"levelo_inurba_marseille","lat":43.3014,"lon":5.38058,"is_reserved":false,"is_disabled":false,"rental_uris":{"android":"levelo://app?vid=615ee14c-c7e8-49fd-80e7-8afd0f83894c","ios":"levelo://app?vid=615ee14c-c7e8-49fd-80e7-8afd0f83894c"},"vehicle_type_id":"4","last_reported":1726808936,"current_range_meters":38800,"station_id":"ce4bgjp2rcd13ifvqbh0","pricing_plan_id":"cebpf4jnsgd1na2vs0mg"},{"bike_id":"ffafc182-e1e3-466d-bf54-1539ad0fc712","system_id":"levelo_inurba_marseille","lat":43.23153,"lon":5.43711,"is_reserved":false,"is_disabled":false,"rental_uris":{"android":"levelo://app?vid=ffafc182-e1e3-466d-bf54-1539ad0fc712","ios":"levelo://app?vid=ffafc182-e1e3-466d-bf54-1539ad0fc712"},"vehicle_type_id":"4","last_reported":1726808936,"current_range_meters":24400,"station_id":"ce4bhmp2rcd13ifvqgog","pricing_plan_id":"cebpf4jnsgd1na2vs0mg"},{"bike_id":"6fc8cb92-f5dd-4599-ad41-c0b3d345e211","system_id":"levelo_inurba_marseille","lat":43.30911,"lon":5.3686,"is_reserved":false,"is_disabled":false,"rental_uris":{"android":"levelo://app?vid=6fc8cb92-f5dd-4599-ad41-c0b3d345e211","ios":"levelo://app?vid=6fc8cb92-f5dd-4599-ad41-c0b3d345e211"},"vehicle_type_id":"4","last_reported":1726808936,"current_range_meters":22000,"station_id":"ce4bgn92rcd13ifvqbvg","pricing_plan_id":"cebpf4jnsgd1na2vs0mg"},{"bike_id":"e8a43349-6e7a-4086-bc82-dc073f429ffd","system_id":"levelo_inurba_marseille","lat":43.29964,"lon":5.41319,"is_reserved":false,"is_disabled":false,"rental_uris":{"android":"levelo://app?vid=e8a43349-6e7a-4086-bc82-dc073f429ffd","ios":"levelo://app?vid=e8a43349-6e7a-4086-bc82-dc073f429ffd"},"vehicle_type_id":"4","last_reported":1726808936,"current_range_meters":38800,"station_id":"ce4bhp12rcd13ifvqh9g","pricing_plan_id":"cebpf4jnsgd1na2vs0mg"},{"bike_id":"522296b9-a8e3-4bc2-82ad-a3a2fe0dcce3","system_id":"levelo_inurba_marseille","lat":43.31717,"lon":5.3775,"is_reserved":false,"is_disabled":false,"rental_uris":{"android":"levelo://app?vid=522296b9-a8e3-4bc2-82ad-a3a2fe0dcce3","ios":"levelo://app?vid=522296b9-a8e3-4bc2-82ad-a3a2fe0dcce3"},"vehicle_type_id":"4","last_reported":1726808936,"current_range_meters":38000,"station_id":"ce4bgth2rcd13ifvqch0","pricing_plan_id":"cebpf4jnsgd1na2vs0mg"},{"bike_id":"a90c8285-a2c8-49a7-965d-6e7d428c7905","system_id":"levelo_inurba_marseille","lat":43.28443,"lon":5.392021,"is_reserved":false,"is_disabled":false,"rental_uris":{"android":"levelo://app?vid=a90c8285-a2c8-49a7-965d-6e7d428c7905","ios":"levelo://app?vid=a90c8285-a2c8-49a7-965d-6e7d428c7905"},"vehicle_type_id":"4","last_reported":1726808936,"current_range_meters":22000,"station_id":"ce4bhoh2rcd13ifvqh5g","pricing_plan_id":"cebpf4jnsgd1na2vs0mg"},{"bike_id":"91f6c732-b748-4be1-8d43-5d4f18c7ecb9","system_id":"levelo_inurba_marseille","lat":43.28027,"lon":5.36936,"is_reserved":false,"is_disabled":false,"rental_uris":{"android":"levelo://app?vid=91f6c732-b748-4be1-8d43-5d4f18c7ecb9","ios":"levelo://app?vid=91f6c732-b748-4be1-8d43-5d4f18c7ecb9"},"vehicle_type_id":"4","last_reported":1726808936,"current_range_meters":38800,"station_id":"ce4bha12rcd13ifvqef0","pricing_plan_id":"cebpf4jnsgd1na2vs0mg"},{"bike_id":"7185d87d-affe-4797-a51f-2f094f364139","system_id":"levelo_inurba_marseille","lat":43.30931,"lon":5.40142,"is_reserved":false,"is_disabled":false,"rental_uris":{"android":"levelo://app?vid=7185d87d-affe-4797-a51f-2f094f364139","ios":"levelo://app?vid=7185d87d-affe-4797-a51f-2f094f364139"},"vehicle_type_id":"4","last_reported":1726808936,"current_range_meters":37600,"station_id":"ce4bgvp2rcd13ifvqct0","pricing_plan_id":"cebpf4jnsgd1na2vs0mg"},{"bike_id":"82a011ee-927c-4b1e-a350-b969affb7d65","system_id":"levelo_inurba_marseille","lat":43.3361,"lon":5.41022,"is_reserved":false,"is_disabled":false,"rental_uris":{"android":"levelo://app?vid=82a011ee-927c-4b1e-a350-b969affb7d65","ios":"levelo://app?vid=82a011ee-927c-4b1e-a350-b969affb7d65"},"vehicle_type_id":"4","last_reported":1726808936,"current_range_meters":37600,"station_id":"ce4bhqh2rcd13ifvqhmg","pricing_plan_id":"cebpf4jnsgd1na2vs0mg"},{"bike_id":"ccc2bc27-01fb-4697-a52a-54fa95b91cff","system_id":"levelo_inurba_marseille","lat":43.24183,"lon":5.3973,"is_reserved":false,"is_disabled":false,"rental_uris":{"android":"levelo://app?vid=ccc2bc27-01fb-4697-a52a-54fa95b91cff","ios":"levelo://app?vid=ccc2bc27-01fb-4697-a52a-54fa95b91cff"},"vehicle_type_id":"4","last_reported":1726808936,"current_range_meters":22800,"station_id":"ce4bhn12rcd13ifvqgpg","pricing_plan_id":"cebpf4jnsgd1na2vs0mg"},{"bike_id":"ce9d87f2-9941-4431-9f3a-b0e277f41807","system_id":"levelo_inurba_marseille","lat":43.313554,"lon":5.366989,"is_reserved":false,"is_disabled":false,"rental_uris":{"android":"levelo://app?vid=ce9d87f2-9941-4431-9f3a-b0e277f41807","ios":"levelo://app?vid=ce9d87f2-9941-4431-9f3a-b0e277f41807"},"vehicle_type_id":"4","last_reported":1726808936,"current_range_meters":37600,"station_id":"ce4bgr92rcd13ifvqc6g","pricing_plan_id":"cebpf4jnsgd1na2vs0mg"},{"bike_id":"5e30cfb0-c440-46c2-8b94-5dd64c735ef9","system_id":"levelo_inurba_marseille","lat":43.31121,"lon":5.3776,"is_reserved":false,"is_disabled":false,"rental_uris":{"android":"levelo://app?vid=5e30cfb0-c440-46c2-8b94-5dd64c735ef9","ios":"levelo://app?vid=5e30cfb0-c440-46c2-8b94-5dd64c735ef9"},"vehicle_type_id":"4","last_reported":1726808936,"current_range_meters":38400,"station_id":"ce4bgt92rcd13ifvqcg0","pricing_plan_id":"cebpf4jnsgd1na2vs0mg"},{"bike_id":"1bcdb92b-8824-41cd-b6cf-d0ee92f5a1da","system_id":"levelo_inurba_marseille","lat":43.2803,"lon":5.36949,"is_reserved":false,"is_disabled":false,"rental_uris":{"android":"levelo://app?vid=1bcdb92b-8824-41cd-b6cf-d0ee92f5a1da","ios":"levelo://app?vid=1bcdb92b-8824-41cd-b6cf-d0ee92f5a1da"},"vehicle_type_id":"4","last_reported":1726808936,"current_range_meters":15200,"station_id":"ce4bha12rcd13ifvqef0","pricing_plan_id":"cebpf4jnsgd1na2vs0mg"},{"bike_id":"04394a73-34a5-4d88-bac1-80c0695aafe5","system_id":"levelo_inurba_marseille","lat":43.337444,"lon":5.374475,"is_reserved":false,"is_disabled":false,"rental_uris":{"android":"levelo://app?vid=04394a73-34a5-4d88-bac1-80c0695aafe5","ios":"levelo://app?vid=04394a73-34a5-4d88-bac1-80c0695aafe5"},"vehicle_type_id":"4","last_reported":1726808936,"current_range_meters":21600,"station_id":"","pricing_plan_id":"cebpf4jnsgd1na2vs0mg"},{"bike_id":"7b551046-89a5-43d5-baa2-8615e657fd55","system_id":"levelo_inurba_marseille","lat":43.29867,"lon":5.39739,"is_reserved":false,"is_disabled":false,"rental_uris":{"android":"levelo://app?vid=7b551046-89a5-43d5-baa2-8615e657fd55","ios":"levelo://app?vid=7b551046-89a5-43d5-baa2-8615e657fd55"},"vehicle_type_id":"4","last_reported":1726808936,"current_range_meters":34800,"station_id":"ce4bh0h2rcd13ifvqd50","pricing_plan_id":"cebpf4jnsgd1na2vs0mg"},{"bike_id":"036ab25f-0c34-4c45-8e88-1fc9200da6fd","system_id":"levelo_inurba_marseille","lat":43.27178,"lon":5.42695,"is_reserved":false,"is_disabled":false,"rental_uris":{"android":"levelo://app?vid=036ab25f-0c34-4c45-8e88-1fc9200da6fd","ios":"levelo://app?vid=036ab25f-0c34-4c45-8e88-1fc9200da6fd"},"vehicle_type_id":"4","last_reported":1726808936,"current_range_meters":27200,"station_id":"","pricing_plan_id":"cebpf4jnsgd1na2vs0mg"},{"bike_id":"40e5b403-5590-4098-a474-822a4163b2a7","system_id":"levelo_inurba_marseille","lat":43.24085,"lon":5.37739,"is_reserved":false,"is_disabled":false,"rental_uris":{"android":"levelo://app?vid=40e5b403-5590-4098-a474-822a4163b2a7","ios":"levelo://app?vid=40e5b403-5590-4098-a474-822a4163b2a7"},"vehicle_type_id":"4","last_reported":1726808936,"current_range_meters":25200,"station_id":"ce4bhnp2rcd13ifvqgvg","pricing_plan_id":"cebpf4jnsgd1na2vs0mg"},{"bike_id":"298ac1dc-024a-45f9-bee5-67e6e0d001f8","system_id":"levelo_inurba_marseille","lat":43.32294,"lon":5.38264,"is_reserved":false,"is_disabled":false,"rental_uris":{"android":"levelo://app?vid=298ac1dc-024a-45f9-bee5-67e6e0d001f8","ios":"levelo://app?vid=298ac1dc-024a-45f9-bee5-67e6e0d001f8"},"vehicle_type_id":"4","last_reported":1726808936,"current_range_meters":29600,"station_id":"ce4bhr12rcd13ifvqhqg","pricing_plan_id":"cebpf4jnsgd1na2vs0mg"},{"bike_id":"1e3f7b56-5fc7-46fd-836e-78f130647b4e","system_id":"levelo_inurba_marseille","lat":43.30933,"lon":5.40142,"is_reserved":false,"is_disabled":false,"rental_uris":{"android":"levelo://app?vid=1e3f7b56-5fc7-46fd-836e-78f130647b4e","ios":"levelo://app?vid=1e3f7b56-5fc7-46fd-836e-78f130647b4e"},"vehicle_type_id":"4","last_reported":1726808936,"current_range_meters":6400,"station_id":"ce4bgvp2rcd13ifvqct0","pricing_plan_id":"cebpf4jnsgd1na2vs0mg"},{"bike_id":"60ba0f6b-768c-4a45-8a5f-fdc9bb710a0e","system_id":"levelo_inurba_marseille","lat":43.27574,"lon":5.38421,"is_reserved":false,"is_disabled":false,"rental_uris":{"android":"levelo://app?vid=60ba0f6b-768c-4a45-8a5f-fdc9bb710a0e","ios":"levelo://app?vid=60ba0f6b-768c-4a45-8a5f-fdc9bb710a0e"},"vehicle_type_id":"4","last_reported":1726808936,"current_range_meters":38800,"station_id":"ce4bhh92rcd13ifvqfi0","pricing_plan_id":"cebpf4jnsgd1na2vs0mg"},{"bike_id":"f385b4a6-31cf-416b-83d1-919567483ec0","system_id":"levelo_inurba_marseille","lat":43.2957,"lon":5.39961,"is_reserved":false,"is_disabled":false,"rental_uris":{"android":"levelo://app?vid=f385b4a6-31cf-416b-83d1-919567483ec0","ios":"levelo://app?vid=f385b4a6-31cf-416b-83d1-919567483ec0"},"vehicle_type_id":"4","last_reported":1726808936,"current_range_meters":30800,"station_id":"ce4bh312rcd13ifvqdj0","pricing_plan_id":"cebpf4jnsgd1na2vs0mg"},{"bike_id":"0fb42f67-e6d4-4b33-8619-af1b1d2a30e9","system_id":"levelo_inurba_marseille","lat":43.23152,"lon":5.43722,"is_reserved":false,"is_disabled":false,"rental_uris":{"android":"levelo://app?vid=0fb42f67-e6d4-4b33-8619-af1b1d2a30e9","ios":"levelo://app?vid=0fb42f67-e6d4-4b33-8619-af1b1d2a30e9"},"vehicle_type_id":"4","last_reported":1726808936,"current_range_meters":28400,"station_id":"ce4bhmp2rcd13ifvqgog","pricing_plan_id":"cebpf4jnsgd1na2vs0mg"},{"bike_id":"727c59dd-4a33-4404-90bc-3a4e59bd8948","system_id":"levelo_inurba_marseille","lat":43.32369,"lon":5.38886,"is_reserved":false,"is_disabled":false,"rental_uris":{"android":"levelo://app?vid=727c59dd-4a33-4404-90bc-3a4e59bd8948","ios":"levelo://app?vid=727c59dd-4a33-4404-90bc-3a4e59bd8948"},"vehicle_type_id":"4","last_reported":1726808936,"current_range_meters":22800,"station_id":"ce4bhqp2rcd13ifvqhog","pricing_plan_id":"cebpf4jnsgd1na2vs0mg"},{"bike_id":"a360d7ec-e318-4d83-a12c-d5ebd57d4833","system_id":"levelo_inurba_marseille","lat":43.30244,"lon":5.40068,"is_reserved":false,"is_disabled":false,"rental_uris":{"android":"levelo://app?vid=a360d7ec-e318-4d83-a12c-d5ebd57d4833","ios":"levelo://app?vid=a360d7ec-e318-4d83-a12c-d5ebd57d4833"},"vehicle_type_id":"4","last_reported":1726808936,"current_range_meters":39200,"station_id":"ce4bgvh2rcd13ifvqcs0","pricing_plan_id":"cebpf4jnsgd1na2vs0mg"},{"bike_id":"226c2e5c-ab0a-462e-8895-9868d6c4397d","system_id":"levelo_inurba_marseille","lat":43.279701,"lon":5.387425,"is_reserved":false,"is_disabled":false,"rental_uris":{"android":"levelo://app?vid=226c2e5c-ab0a-462e-8895-9868d6c4397d","ios":"levelo://app?vid=226c2e5c-ab0a-462e-8895-9868d6c4397d"},"vehicle_type_id":"4","last_reported":1726808936,"current_range_meters":39200,"station_id":"ce4bhg12rcd13ifvqf80","pricing_plan_id":"cebpf4jnsgd1na2vs0mg"},{"bike_id":"e3157b7d-f63e-4215-9b0b-bec081b31a83","system_id":"levelo_inurba_marseille","lat":43.32473,"lon":5.36567,"is_reserved":false,"is_disabled":false,"rental_uris":{"android":"levelo://app?vid=e3157b7d-f63e-4215-9b0b-bec081b31a83","ios":"levelo://app?vid=e3157b7d-f63e-4215-9b0b-bec081b31a83"},"vehicle_type_id":"4","last_reported":1726808936,"current_range_meters":8400,"station_id":"ce4bhs12rcd13ifvqhvg","pricing_plan_id":"cebpf4jnsgd1na2vs0mg"},{"bike_id":"68d7dfce-d550-4f46-afca-11b9024d5cf5","system_id":"levelo_inurba_marseille","lat":43.27179,"lon":5.4099,"is_reserved":false,"is_disabled":false,"rental_uris":{"android":"levelo://app?vid=68d7dfce-d550-4f46-afca-11b9024d5cf5","ios":"levelo://app?vid=68d7dfce-d550-4f46-afca-11b9024d5cf5"},"vehicle_type_id":"4","last_reported":1726808936,"current_range_meters":40000,"station_id":"ce4bhl12rcd13ifvqgf0","pricing_plan_id":"cebpf4jnsgd1na2vs0mg"},{"bike_id":"253b057b-a41c-4693-8aa4-03c682f3fbb1","system_id":"levelo_inurba_marseille","lat":43.26809,"lon":5.40263,"is_reserved":false,"is_disabled":false,"rental_uris":{"android":"levelo://app?vid=253b057b-a41c-4693-8aa4-03c682f3fbb1","ios":"levelo://app?vid=253b057b-a41c-4693-8aa4-03c682f3fbb1"},"vehicle_type_id":"4","last_reported":1726808936,"current_range_meters":4000,"station_id":"ce501612rcd8frsf0b60","pricing_plan_id":"cebpf4jnsgd1na2vs0mg"},{"bike_id":"9295eef6-8e40-4b77-9b11-3d6a9e47fd62","system_id":"levelo_inurba_marseille","lat":43.32363,"lon":5.38876,"is_reserved":false,"is_disabled":false,"rental_uris":{"android":"levelo://app?vid=9295eef6-8e40-4b77-9b11-3d6a9e47fd62","ios":"levelo://app?vid=9295eef6-8e40-4b77-9b11-3d6a9e47fd62"},"vehicle_type_id":"4","last_reported":1726808936,"current_range_meters":20800,"station_id":"ce4bhqp2rcd13ifvqhog","pricing_plan_id":"cebpf4jnsgd1na2vs0mg"},{"bike_id":"421da6ae-46fb-4745-a899-1ba883a8538d","system_id":"levelo_inurba_marseille","lat":43.2706,"lon":5.40255,"is_reserved":false,"is_disabled":false,"rental_uris":{"android":"levelo://app?vid=421da6ae-46fb-4745-a899-1ba883a8538d","ios":"levelo://app?vid=421da6ae-46fb-4745-a899-1ba883a8538d"},"vehicle_type_id":"4","last_reported":1726808936,"current_range_meters":36000,"station_id":"ce4bhk92rcd13ifvqgc0","pricing_plan_id":"cebpf4jnsgd1na2vs0mg"},{"bike_id":"9899969d-4f8e-4fed-bc43-e675716ac04a","system_id":"levelo_inurba_marseille","lat":43.23153,"lon":5.43715,"is_reserved":false,"is_disabled":false,"rental_uris":{"android":"levelo://app?vid=9899969d-4f8e-4fed-bc43-e675716ac04a","ios":"levelo://app?vid=9899969d-4f8e-4fed-bc43-e675716ac04a"},"vehicle_type_id":"4","last_reported":1726808936,"current_range_meters":38800,"station_id":"ce4bhmp2rcd13ifvqgog","pricing_plan_id":"cebpf4jnsgd1na2vs0mg"},{"bike_id":"edfb1ff5-b81b-4225-8da9-100a9115b1e3","system_id":"levelo_inurba_marseille","lat":43.29735,"lon":5.36561,"is_reserved":false,"is_disabled":false,"rental_uris":{"android":"levelo://app?vid=edfb1ff5-b81b-4225-8da9-100a9115b1e3","ios":"levelo://app?vid=edfb1ff5-b81b-4225-8da9-100a9115b1e3"},"vehicle_type_id":"4","last_reported":1726808936,"current_range_meters":14400,"station_id":"","pricing_plan_id":"cebpf4jnsgd1na2vs0mg"},{"bike_id":"dd83f023-48ca-405e-9810-aa024cae22ef","system_id":"levelo_inurba_marseille","lat":43.28409,"lon":5.37512,"is_reserved":false,"is_disabled":false,"rental_uris":{"android":"levelo://app?vid=dd83f023-48ca-405e-9810-aa024cae22ef","ios":"levelo://app?vid=dd83f023-48ca-405e-9810-aa024cae22ef"},"vehicle_type_id":"4","last_reported":1726808936,"current_range_meters":25600,"station_id":"ce4bh412rcd13ifvqds0","pricing_plan_id":"cebpf4jnsgd1na2vs0mg"},{"bike_id":"9922fadb-90a9-456a-a92a-30dca3baccf9","system_id":"levelo_inurba_marseille","lat":43.30208,"lon":5.39469,"is_reserved":false,"is_disabled":false,"rental_uris":{"android":"levelo://app?vid=9922fadb-90a9-456a-a92a-30dca3baccf9","ios":"levelo://app?vid=9922fadb-90a9-456a-a92a-30dca3baccf9"},"vehicle_type_id":"4","last_reported":1726808936,"current_range_meters":38800,"station_id":"ce4bh0p2rcd13ifvqd70","pricing_plan_id":"cebpf4jnsgd1na2vs0mg"},{"bike_id":"79f9170f-8de8-4fbe-9051-45aa1ac080c3","system_id":"levelo_inurba_marseille","lat":43.29444,"lon":5.39744,"is_reserved":false,"is_disabled":false,"rental_uris":{"android":"levelo://app?vid=79f9170f-8de8-4fbe-9051-45aa1ac080c3","ios":"levelo://app?vid=79f9170f-8de8-4fbe-9051-45aa1ac080c3"},"vehicle_type_id":"4","last_reported":1726808936,"current_range_meters":39200,"station_id":"ce4bh3h2rcd13ifvqdo0","pricing_plan_id":"cebpf4jnsgd1na2vs0mg"},{"bike_id":"13e0720d-f4b9-4807-8b0e-29114e886647","system_id":"levelo_inurba_marseille","lat":43.31718,"lon":5.43705,"is_reserved":false,"is_disabled":false,"rental_uris":{"android":"levelo://app?vid=13e0720d-f4b9-4807-8b0e-29114e886647","ios":"levelo://app?vid=13e0720d-f4b9-4807-8b0e-29114e886647"},"vehicle_type_id":"4","last_reported":1726808936,"current_range_meters":4400,"station_id":"ce4bhp92rcd13ifvqhcg","pricing_plan_id":"cebpf4jnsgd1na2vs0mg"},{"bike_id":"474bb56d-d8f7-4ddc-84ac-71ca997249c6","system_id":"levelo_inurba_marseille","lat":43.3361,"lon":5.4103,"is_reserved":false,"is_disabled":false,"rental_uris":{"android":"levelo://app?vid=474bb56d-d8f7-4ddc-84ac-71ca997249c6","ios":"levelo://app?vid=474bb56d-d8f7-4ddc-84ac-71ca997249c6"},"vehicle_type_id":"4","last_reported":1726808936,"current_range_meters":27600,"station_id":"ce4bhqh2rcd13ifvqhmg","pricing_plan_id":"cebpf4jnsgd1na2vs0mg"},{"bike_id":"5b87ea10-02d9-442f-9b10-4fd331eca58e","system_id":"levelo_inurba_marseille","lat":43.25004,"lon":5.38927,"is_reserved":false,"is_disabled":false,"rental_uris":{"android":"levelo://app?vid=5b87ea10-02d9-442f-9b10-4fd331eca58e","ios":"levelo://app?vid=5b87ea10-02d9-442f-9b10-4fd331eca58e"},"vehicle_type_id":"4","last_reported":1726808936,"current_range_meters":38000,"station_id":"ce4bhgp2rcd13ifvqfd0","pricing_plan_id":"cebpf4jnsgd1na2vs0mg"},{"bike_id":"c42d6b2f-7847-4248-848b-a4c3edc602d9","system_id":"levelo_inurba_marseille","lat":43.31996,"lon":5.38144,"is_reserved":false,"is_disabled":false,"rental_uris":{"android":"levelo://app?vid=c42d6b2f-7847-4248-848b-a4c3edc602d9","ios":"levelo://app?vid=c42d6b2f-7847-4248-848b-a4c3edc602d9"},"vehicle_type_id":"4","last_reported":1726808936,"current_range_meters":9600,"station_id":"ce4bhr12rcd13ifvqhpg","pricing_plan_id":"cebpf4jnsgd1na2vs0mg"},{"bike_id":"9614540b-2faf-4e57-9ea9-2eef9aeb72c4","system_id":"levelo_inurba_marseille","lat":43.3236,"lon":5.38882,"is_reserved":false,"is_disabled":false,"rental_uris":{"android":"levelo://app?vid=9614540b-2faf-4e57-9ea9-2eef9aeb72c4","ios":"levelo://app?vid=9614540b-2faf-4e57-9ea9-2eef9aeb72c4"},"vehicle_type_id":"4","last_reported":1726808936,"current_range_meters":38400,"station_id":"ce4bhqp2rcd13ifvqhog","pricing_plan_id":"cebpf4jnsgd1na2vs0mg"},{"bike_id":"b6b47106-417c-4914-bbb3-8c7f865884c8","system_id":"levelo_inurba_marseille","lat":43.24801,"lon":5.3745,"is_reserved":false,"is_disabled":false,"rental_uris":{"android":"levelo://app?vid=b6b47106-417c-4914-bbb3-8c7f865884c8","ios":"levelo://app?vid=b6b47106-417c-4914-bbb3-8c7f865884c8"},"vehicle_type_id":"4","last_reported":1726808936,"current_range_meters":38400,"station_id":"ce4bhgh2rcd13ifvqfb0","pricing_plan_id":"cebpf4jnsgd1na2vs0mg"},{"bike_id":"0cfa01d2-5522-4f48-b5a0-c1c3ca0dc40e","system_id":"levelo_inurba_marseille","lat":43.27215,"lon":5.39178,"is_reserved":false,"is_disabled":false,"rental_uris":{"android":"levelo://app?vid=0cfa01d2-5522-4f48-b5a0-c1c3ca0dc40e","ios":"levelo://app?vid=0cfa01d2-5522-4f48-b5a0-c1c3ca0dc40e"},"vehicle_type_id":"4","last_reported":1726808936,"current_range_meters":38400,"station_id":"ce4bhhp2rcd13ifvqfm0","pricing_plan_id":"cebpf4jnsgd1na2vs0mg"},{"bike_id":"96b332fe-ec14-463a-a727-386ea5e48984","system_id":"levelo_inurba_marseille","lat":43.32367,"lon":5.38884,"is_reserved":false,"is_disabled":false,"rental_uris":{"android":"levelo://app?vid=96b332fe-ec14-463a-a727-386ea5e48984","ios":"levelo://app?vid=96b332fe-ec14-463a-a727-386ea5e48984"},"vehicle_type_id":"4","last_reported":1726808936,"current_range_meters":34000,"station_id":"ce4bhqp2rcd13ifvqhog","pricing_plan_id":"cebpf4jnsgd1na2vs0mg"},{"bike_id":"1d4dce81-26c9-4e90-9512-73a77179f3d4","system_id":"levelo_inurba_marseille","lat":43.23186,"lon":5.39973,"is_reserved":false,"is_disabled":false,"rental_uris":{"android":"levelo://app?vid=1d4dce81-26c9-4e90-9512-73a77179f3d4","ios":"levelo://app?vid=1d4dce81-26c9-4e90-9512-73a77179f3d4"},"vehicle_type_id":"4","last_reported":1726808936,"current_range_meters":8400,"station_id":"ce4bhn12rcd13ifvqgqg","pricing_plan_id":"cebpf4jnsgd1na2vs0mg"},{"bike_id":"43356356-1ebf-41d4-a9de-4fa2973940ef","system_id":"levelo_inurba_marseille","lat":43.29961,"lon":5.41333,"is_reserved":false,"is_disabled":false,"rental_uris":{"android":"levelo://app?vid=43356356-1ebf-41d4-a9de-4fa2973940ef","ios":"levelo://app?vid=43356356-1ebf-41d4-a9de-4fa2973940ef"},"vehicle_type_id":"4","last_reported":1726808936,"current_range_meters":33200,"station_id":"ce4bhp12rcd13ifvqh9g","pricing_plan_id":"cebpf4jnsgd1na2vs0mg"},{"bike_id":"e2bdc4bb-8774-4981-a659-1b1998644639","system_id":"levelo_inurba_marseille","lat":43.24676,"lon":5.38155,"is_reserved":false,"is_disabled":false,"rental_uris":{"android":"levelo://app?vid=e2bdc4bb-8774-4981-a659-1b1998644639","ios":"levelo://app?vid=e2bdc4bb-8774-4981-a659-1b1998644639"},"vehicle_type_id":"4","last_reported":1726808936,"current_range_meters":38800,"station_id":"ce4bhih2rcd13ifvqfr0","pricing_plan_id":"cebpf4jnsgd1na2vs0mg"},{"bike_id":"4ff214e9-9820-4236-a459-639e94939919","system_id":"levelo_inurba_marseille","lat":43.29521,"lon":5.39075,"is_reserved":false,"is_disabled":false,"rental_uris":{"android":"levelo://app?vid=4ff214e9-9820-4236-a459-639e94939919","ios":"levelo://app?vid=4ff214e9-9820-4236-a459-639e94939919"},"vehicle_type_id":"4","last_reported":1726808936,"current_range_meters":10000,"station_id":"ce4bh3p2rcd13ifvqdp0","pricing_plan_id":"cebpf4jnsgd1na2vs0mg"},{"bike_id":"586337a7-ea44-4a0c-a2e4-774a4f46c373","system_id":"levelo_inurba_marseille","lat":43.31336,"lon":5.39696,"is_reserved":false,"is_disabled":false,"rental_uris":{"android":"levelo://app?vid=586337a7-ea44-4a0c-a2e4-774a4f46c373","ios":"levelo://app?vid=586337a7-ea44-4a0c-a2e4-774a4f46c373"},"vehicle_type_id":"4","last_reported":1726808936,"current_range_meters":39200,"station_id":"ce4bgvp2rcd13ifvqcu0","pricing_plan_id":"cebpf4jnsgd1na2vs0mg"},{"bike_id":"8853d928-2cbd-461b-a062-efccdb4c1a7b","system_id":"levelo_inurba_marseille","lat":43.28407,"lon":5.37519,"is_reserved":false,"is_disabled":false,"rental_uris":{"android":"levelo://app?vid=8853d928-2cbd-461b-a062-efccdb4c1a7b","ios":"levelo://app?vid=8853d928-2cbd-461b-a062-efccdb4c1a7b"},"vehicle_type_id":"4","last_reported":1726808936,"current_range_meters":38800,"station_id":"ce4bh412rcd13ifvqds0","pricing_plan_id":"cebpf4jnsgd1na2vs0mg"},{"bike_id":"f91d86b2-456a-48aa-bac9-b4717c616eb8","system_id":"levelo_inurba_marseille","lat":43.25721,"lon":5.41108,"is_reserved":false,"is_disabled":false,"rental_uris":{"android":"levelo://app?vid=f91d86b2-456a-48aa-bac9-b4717c616eb8","ios":"levelo://app?vid=f91d86b2-456a-48aa-bac9-b4717c616eb8"},"vehicle_type_id":"4","last_reported":1726808936,"current_range_meters":7200,"station_id":"ce4bhkp2rcd13ifvqgd0","pricing_plan_id":"cebpf4jnsgd1na2vs0mg"},{"bike_id":"f689521a-328c-4627-83e8-a25c4f32e99b","system_id":"levelo_inurba_marseille","lat":43.23193,"lon":5.35558,"is_reserved":false,"is_disabled":false,"rental_uris":{"android":"levelo://app?vid=f689521a-328c-4627-83e8-a25c4f32e99b","ios":"levelo://app?vid=f689521a-328c-4627-83e8-a25c4f32e99b"},"vehicle_type_id":"4","last_reported":1726808936,"current_range_meters":28000,"station_id":"ce4bhu92rcd13ifvqi70","pricing_plan_id":"cebpf4jnsgd1na2vs0mg"},{"bike_id":"0103eeda-09a7-4e2b-b881-e857ddcec39e","system_id":"levelo_inurba_marseille","lat":43.23189,"lon":5.39988,"is_reserved":false,"is_disabled":false,"rental_uris":{"android":"levelo://app?vid=0103eeda-09a7-4e2b-b881-e857ddcec39e","ios":"levelo://app?vid=0103eeda-09a7-4e2b-b881-e857ddcec39e"},"vehicle_type_id":"4","last_reported":1726808936,"current_range_meters":38400,"station_id":"ce4bhn12rcd13ifvqgqg","pricing_plan_id":"cebpf4jnsgd1na2vs0mg"},{"bike_id":"4c9dad28-bab3-4c54-867f-101b77a30cda","system_id":"levelo_inurba_marseille","lat":43.28464,"lon":5.35878,"is_reserved":false,"is_disabled":false,"rental_uris":{"android":"levelo://app?vid=4c9dad28-bab3-4c54-867f-101b77a30cda","ios":"levelo://app?vid=4c9dad28-bab3-4c54-867f-101b77a30cda"},"vehicle_type_id":"4","last_reported":1726808936,"current_range_meters":39200,"station_id":"ce4bhah2rcd13ifvqei0","pricing_plan_id":"cebpf4jnsgd1na2vs0mg"},{"bike_id":"8011d6fb-4c21-417a-bc0c-136e1770de02","system_id":"levelo_inurba_marseille","lat":43.28077,"lon":5.39659,"is_reserved":false,"is_disabled":false,"rental_uris":{"android":"levelo://app?vid=8011d6fb-4c21-417a-bc0c-136e1770de02","ios":"levelo://app?vid=8011d6fb-4c21-417a-bc0c-136e1770de02"},"vehicle_type_id":"4","last_reported":1726808936,"current_range_meters":27200,"station_id":"ce4bho12rcd13ifvqh2g","pricing_plan_id":"cebpf4jnsgd1na2vs0mg"},{"bike_id":"3f83789d-3dd0-43cc-a9bb-a5b70cdc879e","system_id":"levelo_inurba_marseille","lat":43.28714,"lon":5.37383,"is_reserved":false,"is_disabled":false,"rental_uris":{"android":"levelo://app?vid=3f83789d-3dd0-43cc-a9bb-a5b70cdc879e","ios":"levelo://app?vid=3f83789d-3dd0-43cc-a9bb-a5b70cdc879e"},"vehicle_type_id":"4","last_reported":1726808936,"current_range_meters":38800,"station_id":"ce4bh3p2rcd13ifvqdq0","pricing_plan_id":"cebpf4jnsgd1na2vs0mg"},{"bike_id":"a1c72085-5b87-40f4-ac75-5c75b15dd893","system_id":"levelo_inurba_marseille","lat":43.30877,"lon":5.39647,"is_reserved":false,"is_disabled":false,"rental_uris":{"android":"levelo://app?vid=a1c72085-5b87-40f4-ac75-5c75b15dd893","ios":"levelo://app?vid=a1c72085-5b87-40f4-ac75-5c75b15dd893"},"vehicle_type_id":"4","last_reported":1726808936,"current_range_meters":38400,"station_id":"ce4bh012rcd13ifvqcv0","pricing_plan_id":"cebpf4jnsgd1na2vs0mg"},{"bike_id":"e4fa3f62-1fe5-4c5b-b58f-e632e4545c8a","system_id":"levelo_inurba_marseille","lat":43.30534,"lon":5.38423,"is_reserved":false,"is_disabled":false,"rental_uris":{"android":"levelo://app?vid=e4fa3f62-1fe5-4c5b-b58f-e632e4545c8a","ios":"levelo://app?vid=e4fa3f62-1fe5-4c5b-b58f-e632e4545c8a"},"vehicle_type_id":"4","last_reported":1726808936,"current_range_meters":33600,"station_id":"ce4bgg92rcd13ifvqb30","pricing_plan_id":"cebpf4jnsgd1na2vs0mg"},{"bike_id":"26bef151-f653-458f-81df-3d744b453c90","system_id":"levelo_inurba_marseille","lat":43.30781,"lon":5.37657,"is_reserved":false,"is_disabled":false,"rental_uris":{"android":"levelo://app?vid=26bef151-f653-458f-81df-3d744b453c90","ios":"levelo://app?vid=26bef151-f653-458f-81df-3d744b453c90"},"vehicle_type_id":"4","last_reported":1726808936,"current_range_meters":38800,"station_id":"ce4bgv92rcd13ifvqcq0","pricing_plan_id":"cebpf4jnsgd1na2vs0mg"},{"bike_id":"a8841453-322d-4809-a2ca-4c41ea5ecf5f","system_id":"levelo_inurba_marseille","lat":43.30881,"lon":5.37182,"is_reserved":false,"is_disabled":false,"rental_uris":{"android":"levelo://app?vid=a8841453-322d-4809-a2ca-4c41ea5ecf5f","ios":"levelo://app?vid=a8841453-322d-4809-a2ca-4c41ea5ecf5f"},"vehicle_type_id":"4","last_reported":1726808936,"current_range_meters":39200,"station_id":"ce4bguh2rcd13ifvqckg","pricing_plan_id":"cebpf4jnsgd1na2vs0mg"},{"bike_id":"a38db75a-7cf4-4cbc-869d-3fddcd849192","system_id":"levelo_inurba_marseille","lat":43.27615,"lon":5.36111,"is_reserved":false,"is_disabled":false,"rental_uris":{"android":"levelo://app?vid=a38db75a-7cf4-4cbc-869d-3fddcd849192","ios":"levelo://app?vid=a38db75a-7cf4-4cbc-869d-3fddcd849192"},"vehicle_type_id":"4","last_reported":1726808936,"current_range_meters":22800,"station_id":"ce4bgj92rcd13ifvqbe0","pricing_plan_id":"cebpf4jnsgd1na2vs0mg"},{"bike_id":"01c0a89b-5cc3-4850-87d2-85f416966080","system_id":"levelo_inurba_marseille","lat":43.22938,"lon":5.3538,"is_reserved":false,"is_disabled":false,"rental_uris":{"android":"levelo://app?vid=01c0a89b-5cc3-4850-87d2-85f416966080","ios":"levelo://app?vid=01c0a89b-5cc3-4850-87d2-85f416966080"},"vehicle_type_id":"4","last_reported":1726808936,"current_range_meters":8000,"station_id":"cpo3532slgdg3j2ikp40","pricing_plan_id":"cebpf4jnsgd1na2vs0mg"},{"bike_id":"6c0db99a-70b1-4a8d-9cf8-cf54b7a9570b","system_id":"levelo_inurba_marseille","lat":43.30135,"lon":5.39872,"is_reserved":false,"is_disabled":false,"rental_uris":{"android":"levelo://app?vid=6c0db99a-70b1-4a8d-9cf8-cf54b7a9570b","ios":"levelo://app?vid=6c0db99a-70b1-4a8d-9cf8-cf54b7a9570b"},"vehicle_type_id":"4","last_reported":1726808936,"current_range_meters":4400,"station_id":"ce4bh0h2rcd13ifvqd40","pricing_plan_id":"cebpf4jnsgd1na2vs0mg"},{"bike_id":"002b0699-6ee9-40eb-887b-ba2bc729859f","system_id":"levelo_inurba_marseille","lat":43.23193,"lon":5.35555,"is_reserved":false,"is_disabled":false,"rental_uris":{"android":"levelo://app?vid=002b0699-6ee9-40eb-887b-ba2bc729859f","ios":"levelo://app?vid=002b0699-6ee9-40eb-887b-ba2bc729859f"},"vehicle_type_id":"4","last_reported":1726808936,"current_range_meters":4400,"station_id":"ce4bhu92rcd13ifvqi70","pricing_plan_id":"cebpf4jnsgd1na2vs0mg"},{"bike_id":"f2bd1591-a326-4e1c-8c09-520f09476d2c","system_id":"levelo_inurba_marseille","lat":43.28724,"lon":5.37934,"is_reserved":false,"is_disabled":false,"rental_uris":{"android":"levelo://app?vid=f2bd1591-a326-4e1c-8c09-520f09476d2c","ios":"levelo://app?vid=f2bd1591-a326-4e1c-8c09-520f09476d2c"},"vehicle_type_id":"4","last_reported":1726808936,"current_range_meters":38800,"station_id":"ce4bh9p2rcd13ifvqec0","pricing_plan_id":"cebpf4jnsgd1na2vs0mg"},{"bike_id":"66d06816-eba8-4801-9a61-acdd863ffb53","system_id":"levelo_inurba_marseille","lat":43.28451,"lon":5.35894,"is_reserved":false,"is_disabled":false,"rental_uris":{"android":"levelo://app?vid=66d06816-eba8-4801-9a61-acdd863ffb53","ios":"levelo://app?vid=66d06816-eba8-4801-9a61-acdd863ffb53"},"vehicle_type_id":"4","last_reported":1726808936,"current_range_meters":35600,"station_id":"ce4bhah2rcd13ifvqei0","pricing_plan_id":"cebpf4jnsgd1na2vs0mg"},{"bike_id":"e7f49efa-3502-496d-8b89-1f7f326aa469","system_id":"levelo_inurba_marseille","lat":43.28715,"lon":5.37944,"is_reserved":false,"is_disabled":false,"rental_uris":{"android":"levelo://app?vid=e7f49efa-3502-496d-8b89-1f7f326aa469","ios":"levelo://app?vid=e7f49efa-3502-496d-8b89-1f7f326aa469"},"vehicle_type_id":"4","last_reported":1726808936,"current_range_meters":16400,"station_id":"ce4bh9p2rcd13ifvqec0","pricing_plan_id":"cebpf4jnsgd1na2vs0mg"},{"bike_id":"9680a5ae-9565-4f16-a49c-6049cde2422f","system_id":"levelo_inurba_marseille","lat":43.29284,"lon":5.40128,"is_reserved":false,"is_disabled":false,"rental_uris":{"android":"levelo://app?vid=9680a5ae-9565-4f16-a49c-6049cde2422f","ios":"levelo://app?vid=9680a5ae-9565-4f16-a49c-6049cde2422f"},"vehicle_type_id":"4","last_reported":1726808936,"current_range_meters":38800,"station_id":"ce4bh312rcd13ifvqdk0","pricing_plan_id":"cebpf4jnsgd1na2vs0mg"},{"bike_id":"a45af2cd-4f72-4580-ad8f-84a671c0ebb6","system_id":"levelo_inurba_marseille","lat":43.28937,"lon":5.3963,"is_reserved":false,"is_disabled":false,"rental_uris":{"android":"levelo://app?vid=a45af2cd-4f72-4580-ad8f-84a671c0ebb6","ios":"levelo://app?vid=a45af2cd-4f72-4580-ad8f-84a671c0ebb6"},"vehicle_type_id":"4","last_reported":1726808936,"current_range_meters":38800,"station_id":"ce4bh3h2rcd13ifvqdn0","pricing_plan_id":"cebpf4jnsgd1na2vs0mg"},{"bike_id":"6b9383be-fe49-4edf-a2c3-91da8d95a18d","system_id":"levelo_inurba_marseille","lat":43.28433,"lon":5.39187,"is_reserved":false,"is_disabled":false,"rental_uris":{"android":"levelo://app?vid=6b9383be-fe49-4edf-a2c3-91da8d95a18d","ios":"levelo://app?vid=6b9383be-fe49-4edf-a2c3-91da8d95a18d"},"vehicle_type_id":"4","last_reported":1726808936,"current_range_meters":36400,"station_id":"ce4bhoh2rcd13ifvqh5g","pricing_plan_id":"cebpf4jnsgd1na2vs0mg"},{"bike_id":"6d902077-0c1e-4241-80b5-15b01977846d","system_id":"levelo_inurba_marseille","lat":43.32005,"lon":5.38157,"is_reserved":false,"is_disabled":false,"rental_uris":{"android":"levelo://app?vid=6d902077-0c1e-4241-80b5-15b01977846d","ios":"levelo://app?vid=6d902077-0c1e-4241-80b5-15b01977846d"},"vehicle_type_id":"4","last_reported":1726808936,"current_range_meters":32400,"station_id":"ce4bhr12rcd13ifvqhpg","pricing_plan_id":"cebpf4jnsgd1na2vs0mg"},{"bike_id":"b9b572af-72fa-4c7a-a3ee-919edcf036fc","system_id":"levelo_inurba_marseille","lat":43.28719,"lon":5.37924,"is_reserved":false,"is_disabled":false,"rental_uris":{"android":"levelo://app?vid=b9b572af-72fa-4c7a-a3ee-919edcf036fc","ios":"levelo://app?vid=b9b572af-72fa-4c7a-a3ee-919edcf036fc"},"vehicle_type_id":"4","last_reported":1726808936,"current_range_meters":39200,"station_id":"ce4bh9p2rcd13ifvqec0","pricing_plan_id":"cebpf4jnsgd1na2vs0mg"},{"bike_id":"f9f4f7c2-2d5c-4999-8d0a-382a8cb70e79","system_id":"levelo_inurba_marseille","lat":43.25106,"lon":5.40322,"is_reserved":false,"is_disabled":false,"rental_uris":{"android":"levelo://app?vid=f9f4f7c2-2d5c-4999-8d0a-382a8cb70e79","ios":"levelo://app?vid=f9f4f7c2-2d5c-4999-8d0a-382a8cb70e79"},"vehicle_type_id":"4","last_reported":1726808936,"current_range_meters":23200,"station_id":"ce4bhlh2rcd13ifvqgig","pricing_plan_id":"cebpf4jnsgd1na2vs0mg"},{"bike_id":"090066b5-bc4c-4c81-8784-47d2480abad0","system_id":"levelo_inurba_marseille","lat":43.31281,"lon":5.4017,"is_reserved":false,"is_disabled":false,"rental_uris":{"android":"levelo://app?vid=090066b5-bc4c-4c81-8784-47d2480abad0","ios":"levelo://app?vid=090066b5-bc4c-4c81-8784-47d2480abad0"},"vehicle_type_id":"4","last_reported":1726808936,"current_range_meters":39200,"station_id":"ce4bh092rcd13ifvqd30","pricing_plan_id":"cebpf4jnsgd1na2vs0mg"},{"bike_id":"8ee6d5db-cb8b-4219-a1d2-5a1a8206952f","system_id":"levelo_inurba_marseille","lat":43.29549,"lon":5.42287,"is_reserved":false,"is_disabled":false,"rental_uris":{"android":"levelo://app?vid=8ee6d5db-cb8b-4219-a1d2-5a1a8206952f","ios":"levelo://app?vid=8ee6d5db-cb8b-4219-a1d2-5a1a8206952f"},"vehicle_type_id":"4","last_reported":1726808936,"current_range_meters":38400,"station_id":"ce4bhph2rcd13ifvqhdg","pricing_plan_id":"cebpf4jnsgd1na2vs0mg"},{"bike_id":"55f93f12-4954-447d-a41a-29619dde2352","system_id":"levelo_inurba_marseille","lat":43.29566,"lon":5.39976,"is_reserved":false,"is_disabled":false,"rental_uris":{"android":"levelo://app?vid=55f93f12-4954-447d-a41a-29619dde2352","ios":"levelo://app?vid=55f93f12-4954-447d-a41a-29619dde2352"},"vehicle_type_id":"4","last_reported":1726808936,"current_range_meters":37600,"station_id":"ce4bh312rcd13ifvqdj0","pricing_plan_id":"cebpf4jnsgd1na2vs0mg"},{"bike_id":"0ff393b5-2680-4ab9-a61b-b35fece17fe2","system_id":"levelo_inurba_marseille","lat":43.34145,"lon":5.40899,"is_reserved":false,"is_disabled":false,"rental_uris":{"android":"levelo://app?vid=0ff393b5-2680-4ab9-a61b-b35fece17fe2","ios":"levelo://app?vid=0ff393b5-2680-4ab9-a61b-b35fece17fe2"},"vehicle_type_id":"4","last_reported":1726808936,"current_range_meters":38800,"station_id":"ce4bhqh2rcd13ifvqhlg","pricing_plan_id":"cebpf4jnsgd1na2vs0mg"},{"bike_id":"5767e1a9-48b0-4c74-8627-4d55bc18f357","system_id":"levelo_inurba_marseille","lat":43.25732,"lon":5.41104,"is_reserved":false,"is_disabled":false,"rental_uris":{"android":"levelo://app?vid=5767e1a9-48b0-4c74-8627-4d55bc18f357","ios":"levelo://app?vid=5767e1a9-48b0-4c74-8627-4d55bc18f357"},"vehicle_type_id":"4","last_reported":1726808936,"current_range_meters":19200,"station_id":"ce4bhkp2rcd13ifvqgd0","pricing_plan_id":"cebpf4jnsgd1na2vs0mg"},{"bike_id":"78de459a-8961-48d3-9d87-3a4dc50323f3","system_id":"levelo_inurba_marseille","lat":43.32361,"lon":5.38886,"is_reserved":false,"is_disabled":false,"rental_uris":{"android":"levelo://app?vid=78de459a-8961-48d3-9d87-3a4dc50323f3","ios":"levelo://app?vid=78de459a-8961-48d3-9d87-3a4dc50323f3"},"vehicle_type_id":"4","last_reported":1726808936,"current_range_meters":14000,"station_id":"ce4bhqp2rcd13ifvqhog","pricing_plan_id":"cebpf4jnsgd1na2vs0mg"},{"bike_id":"71125283-1892-4906-aee9-af171bd0b43d","system_id":"levelo_inurba_marseille","lat":43.28411,"lon":5.37509,"is_reserved":false,"is_disabled":false,"rental_uris":{"android":"levelo://app?vid=71125283-1892-4906-aee9-af171bd0b43d","ios":"levelo://app?vid=71125283-1892-4906-aee9-af171bd0b43d"},"vehicle_type_id":"4","last_reported":1726808936,"current_range_meters":13600,"station_id":"ce4bh412rcd13ifvqds0","pricing_plan_id":"cebpf4jnsgd1na2vs0mg"},{"bike_id":"38dadd8c-d3a2-4d23-ab13-29b99dc8b37a","system_id":"levelo_inurba_marseille","lat":43.3302,"lon":5.39044,"is_reserved":false,"is_disabled":false,"rental_uris":{"android":"levelo://app?vid=38dadd8c-d3a2-4d23-ab13-29b99dc8b37a","ios":"levelo://app?vid=38dadd8c-d3a2-4d23-ab13-29b99dc8b37a"},"vehicle_type_id":"4","last_reported":1726808936,"current_range_meters":13600,"station_id":"ce4bhr92rcd13ifvqhrg","pricing_plan_id":"cebpf4jnsgd1na2vs0mg"},{"bike_id":"7308fce8-1130-46c1-b85f-dfba511a6b63","system_id":"levelo_inurba_marseille","lat":43.27618,"lon":5.36109,"is_reserved":false,"is_disabled":false,"rental_uris":{"android":"levelo://app?vid=7308fce8-1130-46c1-b85f-dfba511a6b63","ios":"levelo://app?vid=7308fce8-1130-46c1-b85f-dfba511a6b63"},"vehicle_type_id":"4","last_reported":1726808936,"current_range_meters":36000,"station_id":"ce4bgj92rcd13ifvqbe0","pricing_plan_id":"cebpf4jnsgd1na2vs0mg"},{"bike_id":"8d47ac2c-6aff-4006-865b-6319f0339211","system_id":"levelo_inurba_marseille","lat":43.31758,"lon":5.39024,"is_reserved":false,"is_disabled":false,"rental_uris":{"android":"levelo://app?vid=8d47ac2c-6aff-4006-865b-6319f0339211","ios":"levelo://app?vid=8d47ac2c-6aff-4006-865b-6319f0339211"},"vehicle_type_id":"4","last_reported":1726808936,"current_range_meters":38000,"station_id":"ce4bhqp2rcd13ifvqhng","pricing_plan_id":"cebpf4jnsgd1na2vs0mg"},{"bike_id":"0f53cc12-21ea-4b2c-82be-e7ab4beb82bf","system_id":"levelo_inurba_marseille","lat":43.31758,"lon":5.39014,"is_reserved":false,"is_disabled":false,"rental_uris":{"android":"levelo://app?vid=0f53cc12-21ea-4b2c-82be-e7ab4beb82bf","ios":"levelo://app?vid=0f53cc12-21ea-4b2c-82be-e7ab4beb82bf"},"vehicle_type_id":"4","last_reported":1726808936,"current_range_meters":38800,"station_id":"ce4bhqp2rcd13ifvqhng","pricing_plan_id":"cebpf4jnsgd1na2vs0mg"},{"bike_id":"a698e1f2-7317-40bb-b95b-35bc0247aa63","system_id":"levelo_inurba_marseille","lat":43.25085,"lon":5.39517,"is_reserved":false,"is_disabled":false,"rental_uris":{"android":"levelo://app?vid=a698e1f2-7317-40bb-b95b-35bc0247aa63","ios":"levelo://app?vid=a698e1f2-7317-40bb-b95b-35bc0247aa63"},"vehicle_type_id":"4","last_reported":1726808936,"current_range_meters":6000,"station_id":"ce4bhm12rcd13ifvqgkg","pricing_plan_id":"cebpf4jnsgd1na2vs0mg"},{"bike_id":"fadac423-1102-471d-b12e-f79a7c476377","system_id":"levelo_inurba_marseille","lat":43.27905,"lon":5.38007,"is_reserved":false,"is_disabled":false,"rental_uris":{"android":"levelo://app?vid=fadac423-1102-471d-b12e-f79a7c476377","ios":"levelo://app?vid=fadac423-1102-471d-b12e-f79a7c476377"},"vehicle_type_id":"4","last_reported":1726808936,"current_range_meters":38800,"station_id":"ce4bhf92rcd13ifvqf50","pricing_plan_id":"cebpf4jnsgd1na2vs0mg"},{"bike_id":"dc11d2a6-2c02-4909-bc9c-9ffa2e13f9ad","system_id":"levelo_inurba_marseille","lat":43.29028,"lon":5.39969,"is_reserved":false,"is_disabled":false,"rental_uris":{"android":"levelo://app?vid=dc11d2a6-2c02-4909-bc9c-9ffa2e13f9ad","ios":"levelo://app?vid=dc11d2a6-2c02-4909-bc9c-9ffa2e13f9ad"},"vehicle_type_id":"4","last_reported":1726808936,"current_range_meters":11600,"station_id":"ce4bh392rcd13ifvqdm0","pricing_plan_id":"cebpf4jnsgd1na2vs0mg"},{"bike_id":"b153f585-91a7-4778-8e3b-fba7bd4d15f4","system_id":"levelo_inurba_marseille","lat":43.31353,"lon":5.36695,"is_reserved":false,"is_disabled":false,"rental_uris":{"android":"levelo://app?vid=b153f585-91a7-4778-8e3b-fba7bd4d15f4","ios":"levelo://app?vid=b153f585-91a7-4778-8e3b-fba7bd4d15f4"},"vehicle_type_id":"4","last_reported":1726808936,"current_range_meters":38000,"station_id":"ce4bgr92rcd13ifvqc6g","pricing_plan_id":"cebpf4jnsgd1na2vs0mg"},{"bike_id":"9d023a5c-b66e-4eb2-b1d7-6c9890b4a2a6","system_id":"levelo_inurba_marseille","lat":43.30933,"lon":5.40139,"is_reserved":false,"is_disabled":false,"rental_uris":{"android":"levelo://app?vid=9d023a5c-b66e-4eb2-b1d7-6c9890b4a2a6","ios":"levelo://app?vid=9d023a5c-b66e-4eb2-b1d7-6c9890b4a2a6"},"vehicle_type_id":"4","last_reported":1726808936,"current_range_meters":29600,"station_id":"ce4bgvp2rcd13ifvqct0","pricing_plan_id":"cebpf4jnsgd1na2vs0mg"},{"bike_id":"50d55f9e-693b-4ad6-b7e0-e2e3d87e19ea","system_id":"levelo_inurba_marseille","lat":43.27999,"lon":5.40016,"is_reserved":false,"is_disabled":false,"rental_uris":{"android":"levelo://app?vid=50d55f9e-693b-4ad6-b7e0-e2e3d87e19ea","ios":"levelo://app?vid=50d55f9e-693b-4ad6-b7e0-e2e3d87e19ea"},"vehicle_type_id":"4","last_reported":1726808936,"current_range_meters":34800,"station_id":"ce4bho92rcd13ifvqh4g","pricing_plan_id":"cebpf4jnsgd1na2vs0mg"},{"bike_id":"27c5c9f5-f14e-4a8b-9dc8-8a569cb24e34","system_id":"levelo_inurba_marseille","lat":43.28462,"lon":5.35884,"is_reserved":false,"is_disabled":false,"rental_uris":{"android":"levelo://app?vid=27c5c9f5-f14e-4a8b-9dc8-8a569cb24e34","ios":"levelo://app?vid=27c5c9f5-f14e-4a8b-9dc8-8a569cb24e34"},"vehicle_type_id":"4","last_reported":1726808936,"current_range_meters":14800,"station_id":"ce4bhah2rcd13ifvqei0","pricing_plan_id":"cebpf4jnsgd1na2vs0mg"},{"bike_id":"ccfcc1a2-5a3e-4b7b-90bb-4859c8028b50","system_id":"levelo_inurba_marseille","lat":43.29224,"lon":5.36067,"is_reserved":false,"is_disabled":false,"rental_uris":{"android":"levelo://app?vid=ccfcc1a2-5a3e-4b7b-90bb-4859c8028b50","ios":"levelo://app?vid=ccfcc1a2-5a3e-4b7b-90bb-4859c8028b50"},"vehicle_type_id":"4","last_reported":1726808936,"current_range_meters":20800,"station_id":"ce4bhbh2rcd13ifvqeqg","pricing_plan_id":"cebpf4jnsgd1na2vs0mg"},{"bike_id":"2c96f4ad-2c2e-44b8-8e08-a57b6c1eb2e5","system_id":"levelo_inurba_marseille","lat":43.33023,"lon":5.39041,"is_reserved":false,"is_disabled":false,"rental_uris":{"android":"levelo://app?vid=2c96f4ad-2c2e-44b8-8e08-a57b6c1eb2e5","ios":"levelo://app?vid=2c96f4ad-2c2e-44b8-8e08-a57b6c1eb2e5"},"vehicle_type_id":"4","last_reported":1726808936,"current_range_meters":30800,"station_id":"ce4bhr92rcd13ifvqhrg","pricing_plan_id":"cebpf4jnsgd1na2vs0mg"},{"bike_id":"c03a1ab9-85ba-4bc9-aa5b-ac7c1227d1a2","system_id":"levelo_inurba_marseille","lat":43.24543,"lon":5.39524,"is_reserved":false,"is_disabled":false,"rental_uris":{"android":"levelo://app?vid=c03a1ab9-85ba-4bc9-aa5b-ac7c1227d1a2","ios":"levelo://app?vid=c03a1ab9-85ba-4bc9-aa5b-ac7c1227d1a2"},"vehicle_type_id":"4","last_reported":1726808936,"current_range_meters":9600,"station_id":"ce4bhlp2rcd13ifvqgjg","pricing_plan_id":"cebpf4jnsgd1na2vs0mg"},{"bike_id":"4c230512-d70f-46c7-8713-1912d24b8631","system_id":"levelo_inurba_marseille","lat":43.28726,"lon":5.36077,"is_reserved":false,"is_disabled":false,"rental_uris":{"android":"levelo://app?vid=4c230512-d70f-46c7-8713-1912d24b8631","ios":"levelo://app?vid=4c230512-d70f-46c7-8713-1912d24b8631"},"vehicle_type_id":"4","last_reported":1726808936,"current_range_meters":16400,"station_id":"cki0cbj6b192h4jlfktg","pricing_plan_id":"cebpf4jnsgd1na2vs0mg"},{"bike_id":"247f8924-d2ca-48e7-b639-f5097299ef61","system_id":"levelo_inurba_marseille","lat":43.24388,"lon":5.37051,"is_reserved":false,"is_disabled":false,"rental_uris":{"android":"levelo://app?vid=247f8924-d2ca-48e7-b639-f5097299ef61","ios":"levelo://app?vid=247f8924-d2ca-48e7-b639-f5097299ef61"},"vehicle_type_id":"4","last_reported":1726808936,"current_range_meters":37600,"station_id":"ce4bhhh2rcd13ifvqfk0","pricing_plan_id":"cebpf4jnsgd1na2vs0mg"},{"bike_id":"e3678fe5-cd97-41c2-92f5-c59b10e32309","system_id":"levelo_inurba_marseille","lat":43.31535,"lon":5.38029,"is_reserved":false,"is_disabled":false,"rental_uris":{"android":"levelo://app?vid=e3678fe5-cd97-41c2-92f5-c59b10e32309","ios":"levelo://app?vid=e3678fe5-cd97-41c2-92f5-c59b10e32309"},"vehicle_type_id":"4","last_reported":1726808936,"current_range_meters":36000,"station_id":"ce4bhsp2rcd13ifvqi50","pricing_plan_id":"cebpf4jnsgd1na2vs0mg"},{"bike_id":"e9a5d37d-0cb5-44ff-a653-c77a5ca5838b","system_id":"levelo_inurba_marseille","lat":43.31761,"lon":5.3901,"is_reserved":false,"is_disabled":false,"rental_uris":{"android":"levelo://app?vid=e9a5d37d-0cb5-44ff-a653-c77a5ca5838b","ios":"levelo://app?vid=e9a5d37d-0cb5-44ff-a653-c77a5ca5838b"},"vehicle_type_id":"4","last_reported":1726808936,"current_range_meters":38000,"station_id":"ce4bhqp2rcd13ifvqhng","pricing_plan_id":"cebpf4jnsgd1na2vs0mg"},{"bike_id":"604c9531-be4f-4974-bfe2-bd7828d7386f","system_id":"levelo_inurba_marseille","lat":43.29892,"lon":5.43664,"is_reserved":false,"is_disabled":false,"rental_uris":{"android":"levelo://app?vid=604c9531-be4f-4974-bfe2-bd7828d7386f","ios":"levelo://app?vid=604c9531-be4f-4974-bfe2-bd7828d7386f"},"vehicle_type_id":"4","last_reported":1726808936,"current_range_meters":29600,"station_id":"ce4bhpp2rcd13ifvqhfg","pricing_plan_id":"cebpf4jnsgd1na2vs0mg"},{"bike_id":"44da3e59-dcf2-4354-910f-f3fece0ed467","system_id":"levelo_inurba_marseille","lat":43.27072,"lon":5.42278,"is_reserved":false,"is_disabled":false,"rental_uris":{"android":"levelo://app?vid=44da3e59-dcf2-4354-910f-f3fece0ed467","ios":"levelo://app?vid=44da3e59-dcf2-4354-910f-f3fece0ed467"},"vehicle_type_id":"4","last_reported":1726808936,"current_range_meters":38000,"station_id":"ce4bhk92rcd13ifvqgb0","pricing_plan_id":"cebpf4jnsgd1na2vs0mg"},{"bike_id":"eb2ef9af-e9bb-4b94-aee1-3fb33b5e66f9","system_id":"levelo_inurba_marseille","lat":43.27997,"lon":5.41655,"is_reserved":false,"is_disabled":false,"rental_uris":{"android":"levelo://app?vid=eb2ef9af-e9bb-4b94-aee1-3fb33b5e66f9","ios":"levelo://app?vid=eb2ef9af-e9bb-4b94-aee1-3fb33b5e66f9"},"vehicle_type_id":"4","last_reported":1726808936,"current_range_meters":38000,"station_id":"ce4bho12rcd13ifvqh1g","pricing_plan_id":"cebpf4jnsgd1na2vs0mg"},{"bike_id":"4959bfc8-f6c7-499c-b953-ea76d3f8d331","system_id":"levelo_inurba_marseille","lat":43.28108,"lon":5.37846,"is_reserved":false,"is_disabled":false,"rental_uris":{"android":"levelo://app?vid=4959bfc8-f6c7-499c-b953-ea76d3f8d331","ios":"levelo://app?vid=4959bfc8-f6c7-499c-b953-ea76d3f8d331"},"vehicle_type_id":"4","last_reported":1726808936,"current_range_meters":38400,"station_id":"ce4bha12rcd13ifvqee0","pricing_plan_id":"cebpf4jnsgd1na2vs0mg"},{"bike_id":"bbabc812-5d4f-4dde-ac4b-6c59e8a40a27","system_id":"levelo_inurba_marseille","lat":43.27491,"lon":5.42446,"is_reserved":false,"is_disabled":false,"rental_uris":{"android":"levelo://app?vid=bbabc812-5d4f-4dde-ac4b-6c59e8a40a27","ios":"levelo://app?vid=bbabc812-5d4f-4dde-ac4b-6c59e8a40a27"},"vehicle_type_id":"4","last_reported":1726808936,"current_range_meters":39200,"station_id":"ce4bhn92rcd13ifvqgrg","pricing_plan_id":"cebpf4jnsgd1na2vs0mg"},{"bike_id":"15bbdbd8-fa35-4790-b472-706c4e2f4e69","system_id":"levelo_inurba_marseille","lat":43.3053,"lon":5.37272,"is_reserved":false,"is_disabled":false,"rental_uris":{"android":"levelo://app?vid=15bbdbd8-fa35-4790-b472-706c4e2f4e69","ios":"levelo://app?vid=15bbdbd8-fa35-4790-b472-706c4e2f4e69"},"vehicle_type_id":"4","last_reported":1726808936,"current_range_meters":6800,"station_id":"","pricing_plan_id":"cebpf4jnsgd1na2vs0mg"},{"bike_id":"ef6e8a6b-dbc8-497d-adeb-1b246e1a7dec","system_id":"levelo_inurba_marseille","lat":43.24177,"lon":5.39741,"is_reserved":false,"is_disabled":false,"rental_uris":{"android":"levelo://app?vid=ef6e8a6b-dbc8-497d-adeb-1b246e1a7dec","ios":"levelo://app?vid=ef6e8a6b-dbc8-497d-adeb-1b246e1a7dec"},"vehicle_type_id":"4","last_reported":1726808936,"current_range_meters":38800,"station_id":"ce4bhn12rcd13ifvqgpg","pricing_plan_id":"cebpf4jnsgd1na2vs0mg"},{"bike_id":"9f8649e2-75d2-4d09-94ee-538fd13f9680","system_id":"levelo_inurba_marseille","lat":43.33605,"lon":5.41021,"is_reserved":false,"is_disabled":false,"rental_uris":{"android":"levelo://app?vid=9f8649e2-75d2-4d09-94ee-538fd13f9680","ios":"levelo://app?vid=9f8649e2-75d2-4d09-94ee-538fd13f9680"},"vehicle_type_id":"4","last_reported":1726808936,"current_range_meters":38400,"station_id":"ce4bhqh2rcd13ifvqhmg","pricing_plan_id":"cebpf4jnsgd1na2vs0mg"},{"bike_id":"05f6fc60-c8a7-45e7-88b7-036dbeb6c828","system_id":"levelo_inurba_marseille","lat":43.28461,"lon":5.35883,"is_reserved":false,"is_disabled":false,"rental_uris":{"android":"levelo://app?vid=05f6fc60-c8a7-45e7-88b7-036dbeb6c828","ios":"levelo://app?vid=05f6fc60-c8a7-45e7-88b7-036dbeb6c828"},"vehicle_type_id":"4","last_reported":1726808936,"current_range_meters":36800,"station_id":"ce4bhah2rcd13ifvqei0","pricing_plan_id":"cebpf4jnsgd1na2vs0mg"},{"bike_id":"eba8614c-0914-4ce7-a706-4d43d12ff0e3","system_id":"levelo_inurba_marseille","lat":43.28152,"lon":5.4265,"is_reserved":false,"is_disabled":false,"rental_uris":{"android":"levelo://app?vid=eba8614c-0914-4ce7-a706-4d43d12ff0e3","ios":"levelo://app?vid=eba8614c-0914-4ce7-a706-4d43d12ff0e3"},"vehicle_type_id":"4","last_reported":1726808936,"current_range_meters":33600,"station_id":"ce4bhnh2rcd13ifvqgug","pricing_plan_id":"cebpf4jnsgd1na2vs0mg"},{"bike_id":"19e488ac-aee4-4ad7-8ab4-d75eb27737c8","system_id":"levelo_inurba_marseille","lat":43.26681,"lon":5.38268,"is_reserved":false,"is_disabled":false,"rental_uris":{"android":"levelo://app?vid=19e488ac-aee4-4ad7-8ab4-d75eb27737c8","ios":"levelo://app?vid=19e488ac-aee4-4ad7-8ab4-d75eb27737c8"},"vehicle_type_id":"4","last_reported":1726808936,"current_range_meters":20000,"station_id":"ce4bhg92rcd13ifvqf90","pricing_plan_id":"cebpf4jnsgd1na2vs0mg"},{"bike_id":"d095a2de-cb44-4d0b-9d57-524091713fe6","system_id":"levelo_inurba_marseille","lat":43.29221,"lon":5.39335,"is_reserved":false,"is_disabled":false,"rental_uris":{"android":"levelo://app?vid=d095a2de-cb44-4d0b-9d57-524091713fe6","ios":"levelo://app?vid=d095a2de-cb44-4d0b-9d57-524091713fe6"},"vehicle_type_id":"4","last_reported":1726808936,"current_range_meters":18000,"station_id":"ce4bh192rcd13ifvqdd0","pricing_plan_id":"cebpf4jnsgd1na2vs0mg"},{"bike_id":"8eaa314a-4939-450e-bd5d-8fd92ab4246f","system_id":"levelo_inurba_marseille","lat":43.2718,"lon":5.40987,"is_reserved":false,"is_disabled":false,"rental_uris":{"android":"levelo://app?vid=8eaa314a-4939-450e-bd5d-8fd92ab4246f","ios":"levelo://app?vid=8eaa314a-4939-450e-bd5d-8fd92ab4246f"},"vehicle_type_id":"4","last_reported":1726808936,"current_range_meters":24800,"station_id":"ce4bhl12rcd13ifvqgf0","pricing_plan_id":"cebpf4jnsgd1na2vs0mg"},{"bike_id":"d448a30b-18a4-41c6-8b06-f0460d2a05d6","system_id":"levelo_inurba_marseille","lat":43.26806,"lon":5.40262,"is_reserved":false,"is_disabled":false,"rental_uris":{"android":"levelo://app?vid=d448a30b-18a4-41c6-8b06-f0460d2a05d6","ios":"levelo://app?vid=d448a30b-18a4-41c6-8b06-f0460d2a05d6"},"vehicle_type_id":"4","last_reported":1726808936,"current_range_meters":36000,"station_id":"ce501612rcd8frsf0b60","pricing_plan_id":"cebpf4jnsgd1na2vs0mg"},{"bike_id":"1bd9aea9-da31-4368-b338-3635b5620571","system_id":"levelo_inurba_marseille","lat":43.23959,"lon":5.36628,"is_reserved":false,"is_disabled":false,"rental_uris":{"android":"levelo://app?vid=1bd9aea9-da31-4368-b338-3635b5620571","ios":"levelo://app?vid=1bd9aea9-da31-4368-b338-3635b5620571"},"vehicle_type_id":"4","last_reported":1726808936,"current_range_meters":38400,"station_id":"ce4bhi12rcd13ifvqfp0","pricing_plan_id":"cebpf4jnsgd1na2vs0mg"},{"bike_id":"abc120c2-d08c-458b-8a0d-4c528b3fd4eb","system_id":"levelo_inurba_marseille","lat":43.31352,"lon":5.3849,"is_reserved":false,"is_disabled":false,"rental_uris":{"android":"levelo://app?vid=abc120c2-d08c-458b-8a0d-4c528b3fd4eb","ios":"levelo://app?vid=abc120c2-d08c-458b-8a0d-4c528b3fd4eb"},"vehicle_type_id":"4","last_reported":1726808936,"current_range_meters":12000,"station_id":"ce4bgt92rcd13ifvqcf0","pricing_plan_id":"cebpf4jnsgd1na2vs0mg"},{"bike_id":"64dcf5e2-6b57-4efa-badf-cd57405a7aa5","system_id":"levelo_inurba_marseille","lat":43.2757,"lon":5.38418,"is_reserved":false,"is_disabled":false,"rental_uris":{"android":"levelo://app?vid=64dcf5e2-6b57-4efa-badf-cd57405a7aa5","ios":"levelo://app?vid=64dcf5e2-6b57-4efa-badf-cd57405a7aa5"},"vehicle_type_id":"4","last_reported":1726808936,"current_range_meters":38800,"station_id":"ce4bhh92rcd13ifvqfi0","pricing_plan_id":"cebpf4jnsgd1na2vs0mg"},{"bike_id":"8bded9b1-4958-41a5-9529-392455536bc5","system_id":"levelo_inurba_marseille","lat":43.27496,"lon":5.4245,"is_reserved":false,"is_disabled":false,"rental_uris":{"android":"levelo://app?vid=8bded9b1-4958-41a5-9529-392455536bc5","ios":"levelo://app?vid=8bded9b1-4958-41a5-9529-392455536bc5"},"vehicle_type_id":"4","last_reported":1726808936,"current_range_meters":39200,"station_id":"ce4bhn92rcd13ifvqgrg","pricing_plan_id":"cebpf4jnsgd1na2vs0mg"},{"bike_id":"a2eb1526-071c-462b-ae89-1cca26b21959","system_id":"levelo_inurba_marseille","lat":43.31368,"lon":5.38495,"is_reserved":false,"is_disabled":false,"rental_uris":{"android":"levelo://app?vid=a2eb1526-071c-462b-ae89-1cca26b21959","ios":"levelo://app?vid=a2eb1526-071c-462b-ae89-1cca26b21959"},"vehicle_type_id":"4","last_reported":1726808936,"current_range_meters":8800,"station_id":"ce4bgt92rcd13ifvqcf0","pricing_plan_id":"cebpf4jnsgd1na2vs0mg"},{"bike_id":"8acce278-339f-48b4-a2c2-5b0882fa7192","system_id":"levelo_inurba_marseille","lat":43.29557,"lon":5.4229,"is_reserved":false,"is_disabled":false,"rental_uris":{"android":"levelo://app?vid=8acce278-339f-48b4-a2c2-5b0882fa7192","ios":"levelo://app?vid=8acce278-339f-48b4-a2c2-5b0882fa7192"},"vehicle_type_id":"4","last_reported":1726808936,"current_range_meters":37600,"station_id":"ce4bhph2rcd13ifvqhdg","pricing_plan_id":"cebpf4jnsgd1na2vs0mg"},{"bike_id":"a2a90ab3-4077-4755-9974-d0cba0a8c76c","system_id":"levelo_inurba_marseille","lat":43.27915,"lon":5.39577,"is_reserved":false,"is_disabled":false,"rental_uris":{"android":"levelo://app?vid=a2a90ab3-4077-4755-9974-d0cba0a8c76c","ios":"levelo://app?vid=a2a90ab3-4077-4755-9974-d0cba0a8c76c"},"vehicle_type_id":"4","last_reported":1726808936,"current_range_meters":38000,"station_id":"ce4bhf92rcd13ifvqf40","pricing_plan_id":"cebpf4jnsgd1na2vs0mg"},{"bike_id":"ad1b5db7-32ce-4597-b479-80397a334f8b","system_id":"levelo_inurba_marseille","lat":43.2871,"lon":5.3999,"is_reserved":false,"is_disabled":false,"rental_uris":{"android":"levelo://app?vid=ad1b5db7-32ce-4597-b479-80397a334f8b","ios":"levelo://app?vid=ad1b5db7-32ce-4597-b479-80397a334f8b"},"vehicle_type_id":"4","last_reported":1726808936,"current_range_meters":37600,"station_id":"ce4bho92rcd13ifvqh3g","pricing_plan_id":"cebpf4jnsgd1na2vs0mg"},{"bike_id":"4fa0ca0d-342c-4cd6-990b-f5e4ae40db2b","system_id":"levelo_inurba_marseille","lat":43.29962,"lon":5.41336,"is_reserved":false,"is_disabled":false,"rental_uris":{"android":"levelo://app?vid=4fa0ca0d-342c-4cd6-990b-f5e4ae40db2b","ios":"levelo://app?vid=4fa0ca0d-342c-4cd6-990b-f5e4ae40db2b"},"vehicle_type_id":"4","last_reported":1726808936,"current_range_meters":37600,"station_id":"ce4bhp12rcd13ifvqh9g","pricing_plan_id":"cebpf4jnsgd1na2vs0mg"},{"bike_id":"1b297945-7c8a-4e0e-b2c4-bc43a6c00be3","system_id":"levelo_inurba_marseille","lat":43.24652,"lon":5.38901,"is_reserved":false,"is_disabled":false,"rental_uris":{"android":"levelo://app?vid=1b297945-7c8a-4e0e-b2c4-bc43a6c00be3","ios":"levelo://app?vid=1b297945-7c8a-4e0e-b2c4-bc43a6c00be3"},"vehicle_type_id":"4","last_reported":1726808936,"current_range_meters":38400,"station_id":"ce4bhg12rcd13ifvqf60","pricing_plan_id":"cebpf4jnsgd1na2vs0mg"},{"bike_id":"cfc1d900-e8fd-4aae-99cd-fdad686708d5","system_id":"levelo_inurba_marseille","lat":43.24803,"lon":5.37451,"is_reserved":false,"is_disabled":false,"rental_uris":{"android":"levelo://app?vid=cfc1d900-e8fd-4aae-99cd-fdad686708d5","ios":"levelo://app?vid=cfc1d900-e8fd-4aae-99cd-fdad686708d5"},"vehicle_type_id":"4","last_reported":1726808936,"current_range_meters":38800,"station_id":"ce4bhgh2rcd13ifvqfb0","pricing_plan_id":"cebpf4jnsgd1na2vs0mg"},{"bike_id":"4ff3ee61-0e75-4e2f-a271-2747bb5f58c4","system_id":"levelo_inurba_marseille","lat":43.29589,"lon":5.37709,"is_reserved":false,"is_disabled":false,"rental_uris":{"android":"levelo://app?vid=4ff3ee61-0e75-4e2f-a271-2747bb5f58c4","ios":"levelo://app?vid=4ff3ee61-0e75-4e2f-a271-2747bb5f58c4"},"vehicle_type_id":"4","last_reported":1726808936,"current_range_meters":8800,"station_id":"ce4bgi92rcd13ifvqb90","pricing_plan_id":"cebpf4jnsgd1na2vs0mg"},{"bike_id":"2655847b-c944-4ffc-94ae-71d1dcc881d2","system_id":"levelo_inurba_marseille","lat":43.28464,"lon":5.35882,"is_reserved":false,"is_disabled":false,"rental_uris":{"android":"levelo://app?vid=2655847b-c944-4ffc-94ae-71d1dcc881d2","ios":"levelo://app?vid=2655847b-c944-4ffc-94ae-71d1dcc881d2"},"vehicle_type_id":"4","last_reported":1726808936,"current_range_meters":38400,"station_id":"ce4bhah2rcd13ifvqei0","pricing_plan_id":"cebpf4jnsgd1na2vs0mg"},{"bike_id":"f8571aad-5f92-4ec9-b9ed-faec8639629b","system_id":"levelo_inurba_marseille","lat":43.33614,"lon":5.41027,"is_reserved":false,"is_disabled":false,"rental_uris":{"android":"levelo://app?vid=f8571aad-5f92-4ec9-b9ed-faec8639629b","ios":"levelo://app?vid=f8571aad-5f92-4ec9-b9ed-faec8639629b"},"vehicle_type_id":"4","last_reported":1726808936,"current_range_meters":17600,"station_id":"ce4bhqh2rcd13ifvqhmg","pricing_plan_id":"cebpf4jnsgd1na2vs0mg"},{"bike_id":"851514ce-ccd0-4455-b3f4-33cd66ab8ec8","system_id":"levelo_inurba_marseille","lat":43.29435,"lon":5.39752,"is_reserved":false,"is_disabled":false,"rental_uris":{"android":"levelo://app?vid=851514ce-ccd0-4455-b3f4-33cd66ab8ec8","ios":"levelo://app?vid=851514ce-ccd0-4455-b3f4-33cd66ab8ec8"},"vehicle_type_id":"4","last_reported":1726808936,"current_range_meters":38800,"station_id":"ce4bh3h2rcd13ifvqdo0","pricing_plan_id":"cebpf4jnsgd1na2vs0mg"},{"bike_id":"4e517360-2841-479d-addb-3328895093b5","system_id":"levelo_inurba_marseille","lat":43.2792,"lon":5.39584,"is_reserved":false,"is_disabled":false,"rental_uris":{"android":"levelo://app?vid=4e517360-2841-479d-addb-3328895093b5","ios":"levelo://app?vid=4e517360-2841-479d-addb-3328895093b5"},"vehicle_type_id":"4","last_reported":1726808936,"current_range_meters":30000,"station_id":"ce4bhf92rcd13ifvqf40","pricing_plan_id":"cebpf4jnsgd1na2vs0mg"},{"bike_id":"8a12d865-b083-4883-b5aa-f97910a59200","system_id":"levelo_inurba_marseille","lat":43.30155,"lon":5.38078,"is_reserved":false,"is_disabled":false,"rental_uris":{"android":"levelo://app?vid=8a12d865-b083-4883-b5aa-f97910a59200","ios":"levelo://app?vid=8a12d865-b083-4883-b5aa-f97910a59200"},"vehicle_type_id":"4","last_reported":1726808936,"current_range_meters":33200,"station_id":"ce4bgjp2rcd13ifvqbh0","pricing_plan_id":"cebpf4jnsgd1na2vs0mg"},{"bike_id":"0eea45cd-262a-4294-bd18-097cf9e26a13","system_id":"levelo_inurba_marseille","lat":43.29874,"lon":5.39735,"is_reserved":false,"is_disabled":false,"rental_uris":{"android":"levelo://app?vid=0eea45cd-262a-4294-bd18-097cf9e26a13","ios":"levelo://app?vid=0eea45cd-262a-4294-bd18-097cf9e26a13"},"vehicle_type_id":"4","last_reported":1726808936,"current_range_meters":20400,"station_id":"ce4bh0h2rcd13ifvqd50","pricing_plan_id":"cebpf4jnsgd1na2vs0mg"},{"bike_id":"653d3593-2d3b-48e2-b00d-d852f743c76a","system_id":"levelo_inurba_marseille","lat":43.243853,"lon":5.370564,"is_reserved":false,"is_disabled":false,"rental_uris":{"android":"levelo://app?vid=653d3593-2d3b-48e2-b00d-d852f743c76a","ios":"levelo://app?vid=653d3593-2d3b-48e2-b00d-d852f743c76a"},"vehicle_type_id":"4","last_reported":1726808936,"current_range_meters":30400,"station_id":"ce4bhhh2rcd13ifvqfk0","pricing_plan_id":"cebpf4jnsgd1na2vs0mg"},{"bike_id":"4f9594be-eb89-451c-99e6-1d1b91e83878","system_id":"levelo_inurba_marseille","lat":43.28754,"lon":5.37841,"is_reserved":false,"is_disabled":false,"rental_uris":{"android":"levelo://app?vid=4f9594be-eb89-451c-99e6-1d1b91e83878","ios":"levelo://app?vid=4f9594be-eb89-451c-99e6-1d1b91e83878"},"vehicle_type_id":"4","last_reported":1726808936,"current_range_meters":9600,"station_id":"","pricing_plan_id":"cebpf4jnsgd1na2vs0mg"},{"bike_id":"80ee0a98-31d7-48cc-b3da-365638004004","system_id":"levelo_inurba_marseille","lat":43.29256,"lon":5.40907,"is_reserved":false,"is_disabled":false,"rental_uris":{"android":"levelo://app?vid=80ee0a98-31d7-48cc-b3da-365638004004","ios":"levelo://app?vid=80ee0a98-31d7-48cc-b3da-365638004004"},"vehicle_type_id":"4","last_reported":1726808936,"current_range_meters":36800,"station_id":"ce4bh192rcd13ifvqdc0","pricing_plan_id":"cebpf4jnsgd1na2vs0mg"},{"bike_id":"5705acbc-d503-4f36-a9f5-13b5f18aa34d","system_id":"levelo_inurba_marseille","lat":43.23964,"lon":5.36631,"is_reserved":false,"is_disabled":false,"rental_uris":{"android":"levelo://app?vid=5705acbc-d503-4f36-a9f5-13b5f18aa34d","ios":"levelo://app?vid=5705acbc-d503-4f36-a9f5-13b5f18aa34d"},"vehicle_type_id":"4","last_reported":1726808936,"current_range_meters":36000,"station_id":"ce4bhi12rcd13ifvqfp0","pricing_plan_id":"cebpf4jnsgd1na2vs0mg"},{"bike_id":"0ed4307e-7648-47c9-b89e-b537f75c4811","system_id":"levelo_inurba_marseille","lat":43.28931,"lon":5.38391,"is_reserved":false,"is_disabled":false,"rental_uris":{"android":"levelo://app?vid=0ed4307e-7648-47c9-b89e-b537f75c4811","ios":"levelo://app?vid=0ed4307e-7648-47c9-b89e-b537f75c4811"},"vehicle_type_id":"4","last_reported":1726808936,"current_range_meters":38400,"station_id":"ce4bh612rcd13ifvqe6g","pricing_plan_id":"cebpf4jnsgd1na2vs0mg"},{"bike_id":"11228085-23e5-4c89-842a-c1aca906e3a6","system_id":"levelo_inurba_marseille","lat":43.27993,"lon":5.41662,"is_reserved":false,"is_disabled":false,"rental_uris":{"android":"levelo://app?vid=11228085-23e5-4c89-842a-c1aca906e3a6","ios":"levelo://app?vid=11228085-23e5-4c89-842a-c1aca906e3a6"},"vehicle_type_id":"4","last_reported":1726808936,"current_range_meters":38400,"station_id":"ce4bho12rcd13ifvqh1g","pricing_plan_id":"cebpf4jnsgd1na2vs0mg"},{"bike_id":"a96ac643-0746-4fe4-b62f-d8dcd010aa5a","system_id":"levelo_inurba_marseille","lat":43.30658,"lon":5.4008,"is_reserved":false,"is_disabled":false,"rental_uris":{"android":"levelo://app?vid=a96ac643-0746-4fe4-b62f-d8dcd010aa5a","ios":"levelo://app?vid=a96ac643-0746-4fe4-b62f-d8dcd010aa5a"},"vehicle_type_id":"4","last_reported":1726808936,"current_range_meters":28400,"station_id":"ce4bh112rcd13ifvqda0","pricing_plan_id":"cebpf4jnsgd1na2vs0mg"},{"bike_id":"cd8e9929-c995-4a74-af9f-d79388bb1f25","system_id":"levelo_inurba_marseille","lat":43.28845,"lon":5.39309,"is_reserved":false,"is_disabled":false,"rental_uris":{"android":"levelo://app?vid=cd8e9929-c995-4a74-af9f-d79388bb1f25","ios":"levelo://app?vid=cd8e9929-c995-4a74-af9f-d79388bb1f25"},"vehicle_type_id":"4","last_reported":1726808936,"current_range_meters":38800,"station_id":"ce4bh2p2rcd13ifvqdi0","pricing_plan_id":"cebpf4jnsgd1na2vs0mg"},{"bike_id":"1cf8d2fc-1ecf-4480-bc64-4be82b898dfa","system_id":"levelo_inurba_marseille","lat":43.27211,"lon":5.39179,"is_reserved":false,"is_disabled":false,"rental_uris":{"android":"levelo://app?vid=1cf8d2fc-1ecf-4480-bc64-4be82b898dfa","ios":"levelo://app?vid=1cf8d2fc-1ecf-4480-bc64-4be82b898dfa"},"vehicle_type_id":"4","last_reported":1726808936,"current_range_meters":24800,"station_id":"ce4bhhp2rcd13ifvqfm0","pricing_plan_id":"cebpf4jnsgd1na2vs0mg"},{"bike_id":"76c87581-27ca-43ac-8e5f-b0e70d9e2fae","system_id":"levelo_inurba_marseille","lat":43.31174,"lon":5.38715,"is_reserved":false,"is_disabled":false,"rental_uris":{"android":"levelo://app?vid=76c87581-27ca-43ac-8e5f-b0e70d9e2fae","ios":"levelo://app?vid=76c87581-27ca-43ac-8e5f-b0e70d9e2fae"},"vehicle_type_id":"4","last_reported":1726808936,"current_range_meters":32000,"station_id":"ce4bgv12rcd13ifvqcp0","pricing_plan_id":"cebpf4jnsgd1na2vs0mg"},{"bike_id":"7b9dd459-340b-4978-bfb0-6c163a5263e8","system_id":"levelo_inurba_marseille","lat":43.23192,"lon":5.35547,"is_reserved":false,"is_disabled":false,"rental_uris":{"android":"levelo://app?vid=7b9dd459-340b-4978-bfb0-6c163a5263e8","ios":"levelo://app?vid=7b9dd459-340b-4978-bfb0-6c163a5263e8"},"vehicle_type_id":"4","last_reported":1726808936,"current_range_meters":39200,"station_id":"ce4bhu92rcd13ifvqi70","pricing_plan_id":"cebpf4jnsgd1na2vs0mg"},{"bike_id":"4f43dba0-3939-44ed-896a-3812c56c94e0","system_id":"levelo_inurba_marseille","lat":43.30148,"lon":5.38072,"is_reserved":false,"is_disabled":false,"rental_uris":{"android":"levelo://app?vid=4f43dba0-3939-44ed-896a-3812c56c94e0","ios":"levelo://app?vid=4f43dba0-3939-44ed-896a-3812c56c94e0"},"vehicle_type_id":"4","last_reported":1726808936,"current_range_meters":22400,"station_id":"ce4bgjp2rcd13ifvqbh0","pricing_plan_id":"cebpf4jnsgd1na2vs0mg"},{"bike_id":"e3d2cb34-c757-45ad-beac-0be6b9457278","system_id":"levelo_inurba_marseille","lat":43.30792,"lon":5.4352,"is_reserved":false,"is_disabled":false,"rental_uris":{"android":"levelo://app?vid=e3d2cb34-c757-45ad-beac-0be6b9457278","ios":"levelo://app?vid=e3d2cb34-c757-45ad-beac-0be6b9457278"},"vehicle_type_id":"4","last_reported":1726808936,"current_range_meters":36400,"station_id":"ce4bhph2rcd13ifvqheg","pricing_plan_id":"cebpf4jnsgd1na2vs0mg"},{"bike_id":"87440cd1-4d99-421b-9f62-83acc0dd5fa9","system_id":"levelo_inurba_marseille","lat":43.32362,"lon":5.3887,"is_reserved":false,"is_disabled":false,"rental_uris":{"android":"levelo://app?vid=87440cd1-4d99-421b-9f62-83acc0dd5fa9","ios":"levelo://app?vid=87440cd1-4d99-421b-9f62-83acc0dd5fa9"},"vehicle_type_id":"4","last_reported":1726808936,"current_range_meters":38000,"station_id":"ce4bhqp2rcd13ifvqhog","pricing_plan_id":"cebpf4jnsgd1na2vs0mg"},{"bike_id":"9e729b07-c21b-4a5f-90e0-e683331d2a23","system_id":"levelo_inurba_marseille","lat":43.299072,"lon":5.381474,"is_reserved":false,"is_disabled":false,"rental_uris":{"android":"levelo://app?vid=9e729b07-c21b-4a5f-90e0-e683331d2a23","ios":"levelo://app?vid=9e729b07-c21b-4a5f-90e0-e683331d2a23"},"vehicle_type_id":"4","last_reported":1726808936,"current_range_meters":26800,"station_id":"ce4bgj12rcd13ifvqbc0","pricing_plan_id":"cebpf4jnsgd1na2vs0mg"},{"bike_id":"e9c9223d-e953-45f3-bd5c-bec44b587a9c","system_id":"levelo_inurba_marseille","lat":43.23965,"lon":5.36621,"is_reserved":false,"is_disabled":false,"rental_uris":{"android":"levelo://app?vid=e9c9223d-e953-45f3-bd5c-bec44b587a9c","ios":"levelo://app?vid=e9c9223d-e953-45f3-bd5c-bec44b587a9c"},"vehicle_type_id":"4","last_reported":1726808936,"current_range_meters":36000,"station_id":"ce4bhi12rcd13ifvqfp0","pricing_plan_id":"cebpf4jnsgd1na2vs0mg"},{"bike_id":"4c4655a4-e772-438b-b3e4-800103382c6c","system_id":"levelo_inurba_marseille","lat":43.30926,"lon":5.40142,"is_reserved":false,"is_disabled":false,"rental_uris":{"android":"levelo://app?vid=4c4655a4-e772-438b-b3e4-800103382c6c","ios":"levelo://app?vid=4c4655a4-e772-438b-b3e4-800103382c6c"},"vehicle_type_id":"4","last_reported":1726808936,"current_range_meters":36800,"station_id":"ce4bgvp2rcd13ifvqct0","pricing_plan_id":"cebpf4jnsgd1na2vs0mg"},{"bike_id":"f0acb984-d113-4e73-b246-74f9b542af03","system_id":"levelo_inurba_marseille","lat":43.27902,"lon":5.37997,"is_reserved":false,"is_disabled":false,"rental_uris":{"android":"levelo://app?vid=f0acb984-d113-4e73-b246-74f9b542af03","ios":"levelo://app?vid=f0acb984-d113-4e73-b246-74f9b542af03"},"vehicle_type_id":"4","last_reported":1726808936,"current_range_meters":25600,"station_id":"ce4bhf92rcd13ifvqf50","pricing_plan_id":"cebpf4jnsgd1na2vs0mg"},{"bike_id":"59526314-6814-428f-9df0-ead1cf1c2777","system_id":"levelo_inurba_marseille","lat":43.25931,"lon":5.40908,"is_reserved":false,"is_disabled":false,"rental_uris":{"android":"levelo://app?vid=59526314-6814-428f-9df0-ead1cf1c2777","ios":"levelo://app?vid=59526314-6814-428f-9df0-ead1cf1c2777"},"vehicle_type_id":"4","last_reported":1726808936,"current_range_meters":36000,"station_id":"ce4bhm92rcd13ifvqglg","pricing_plan_id":"cebpf4jnsgd1na2vs0mg"},{"bike_id":"4a70404d-94fb-4a11-bd63-1233c2e225c9","system_id":"levelo_inurba_marseille","lat":43.30879,"lon":5.37188,"is_reserved":false,"is_disabled":false,"rental_uris":{"android":"levelo://app?vid=4a70404d-94fb-4a11-bd63-1233c2e225c9","ios":"levelo://app?vid=4a70404d-94fb-4a11-bd63-1233c2e225c9"},"vehicle_type_id":"4","last_reported":1726808936,"current_range_meters":29600,"station_id":"ce4bguh2rcd13ifvqckg","pricing_plan_id":"cebpf4jnsgd1na2vs0mg"},{"bike_id":"6f13a1fb-ded9-40a0-b73d-139c4544e9c2","system_id":"levelo_inurba_marseille","lat":43.28359,"lon":5.38626,"is_reserved":false,"is_disabled":false,"rental_uris":{"android":"levelo://app?vid=6f13a1fb-ded9-40a0-b73d-139c4544e9c2","ios":"levelo://app?vid=6f13a1fb-ded9-40a0-b73d-139c4544e9c2"},"vehicle_type_id":"4","last_reported":1726808936,"current_range_meters":39200,"station_id":"ce4bh492rcd13ifvqdvg","pricing_plan_id":"cebpf4jnsgd1na2vs0mg"},{"bike_id":"8ffa1982-6191-434e-b395-24a81023ee09","system_id":"levelo_inurba_marseille","lat":43.28349,"lon":5.381,"is_reserved":false,"is_disabled":false,"rental_uris":{"android":"levelo://app?vid=8ffa1982-6191-434e-b395-24a81023ee09","ios":"levelo://app?vid=8ffa1982-6191-434e-b395-24a81023ee09"},"vehicle_type_id":"4","last_reported":1726808936,"current_range_meters":17600,"station_id":"ce4bh412rcd13ifvqdr0","pricing_plan_id":"cebpf4jnsgd1na2vs0mg"},{"bike_id":"8f0ac399-c7ad-48ed-bf9e-bf052c987a8f","system_id":"levelo_inurba_marseille","lat":43.29048,"lon":5.39992,"is_reserved":false,"is_disabled":false,"rental_uris":{"android":"levelo://app?vid=8f0ac399-c7ad-48ed-bf9e-bf052c987a8f","ios":"levelo://app?vid=8f0ac399-c7ad-48ed-bf9e-bf052c987a8f"},"vehicle_type_id":"4","last_reported":1726808936,"current_range_meters":35600,"station_id":"ce4bh392rcd13ifvqdm0","pricing_plan_id":"cebpf4jnsgd1na2vs0mg"},{"bike_id":"adbd8eec-690c-42b7-a123-5fb22a29d79f","system_id":"levelo_inurba_marseille","lat":43.28464,"lon":5.35884,"is_reserved":false,"is_disabled":false,"rental_uris":{"android":"levelo://app?vid=adbd8eec-690c-42b7-a123-5fb22a29d79f","ios":"levelo://app?vid=adbd8eec-690c-42b7-a123-5fb22a29d79f"},"vehicle_type_id":"4","last_reported":1726808936,"current_range_meters":17600,"station_id":"ce4bhah2rcd13ifvqei0","pricing_plan_id":"cebpf4jnsgd1na2vs0mg"},{"bike_id":"68436e82-8f29-4a4c-a616-519feb06311f","system_id":"levelo_inurba_marseille","lat":43.26804,"lon":5.40267,"is_reserved":false,"is_disabled":false,"rental_uris":{"android":"levelo://app?vid=68436e82-8f29-4a4c-a616-519feb06311f","ios":"levelo://app?vid=68436e82-8f29-4a4c-a616-519feb06311f"},"vehicle_type_id":"4","last_reported":1726808936,"current_range_meters":17600,"station_id":"ce501612rcd8frsf0b60","pricing_plan_id":"cebpf4jnsgd1na2vs0mg"},{"bike_id":"35c8887b-df23-488d-81c5-d6b73b4441e3","system_id":"levelo_inurba_marseille","lat":43.30657,"lon":5.40078,"is_reserved":false,"is_disabled":false,"rental_uris":{"android":"levelo://app?vid=35c8887b-df23-488d-81c5-d6b73b4441e3","ios":"levelo://app?vid=35c8887b-df23-488d-81c5-d6b73b4441e3"},"vehicle_type_id":"4","last_reported":1726808936,"current_range_meters":24000,"station_id":"ce4bh112rcd13ifvqda0","pricing_plan_id":"cebpf4jnsgd1na2vs0mg"},{"bike_id":"a6138b45-7e28-438c-b576-0f9f8832e4f6","system_id":"levelo_inurba_marseille","lat":43.32652,"lon":5.40985,"is_reserved":false,"is_disabled":false,"rental_uris":{"android":"levelo://app?vid=a6138b45-7e28-438c-b576-0f9f8832e4f6","ios":"levelo://app?vid=a6138b45-7e28-438c-b576-0f9f8832e4f6"},"vehicle_type_id":"4","last_reported":1726808936,"current_range_meters":7200,"station_id":"ce4bhpp2rcd13ifvqhgg","pricing_plan_id":"cebpf4jnsgd1na2vs0mg"},{"bike_id":"7eda9d74-b296-4c68-a357-ea8d822d0b69","system_id":"levelo_inurba_marseille","lat":43.2848,"lon":5.38413,"is_reserved":false,"is_disabled":false,"rental_uris":{"android":"levelo://app?vid=7eda9d74-b296-4c68-a357-ea8d822d0b69","ios":"levelo://app?vid=7eda9d74-b296-4c68-a357-ea8d822d0b69"},"vehicle_type_id":"4","last_reported":1726808936,"current_range_meters":32800,"station_id":"ce4bh512rcd13ifvqe3g","pricing_plan_id":"cebpf4jnsgd1na2vs0mg"},{"bike_id":"e8838fc0-3cd4-4213-84e3-c33f37fcda59","system_id":"levelo_inurba_marseille","lat":43.25819,"lon":5.39425,"is_reserved":false,"is_disabled":false,"rental_uris":{"android":"levelo://app?vid=e8838fc0-3cd4-4213-84e3-c33f37fcda59","ios":"levelo://app?vid=e8838fc0-3cd4-4213-84e3-c33f37fcda59"},"vehicle_type_id":"4","last_reported":1726808936,"current_range_meters":39200,"station_id":"ce4bhip2rcd13ifvqft0","pricing_plan_id":"cebpf4jnsgd1na2vs0mg"},{"bike_id":"ff49b0a2-cff1-409f-80f9-91b5cc2e1ff5","system_id":"levelo_inurba_marseille","lat":43.28148,"lon":5.42637,"is_reserved":false,"is_disabled":false,"rental_uris":{"android":"levelo://app?vid=ff49b0a2-cff1-409f-80f9-91b5cc2e1ff5","ios":"levelo://app?vid=ff49b0a2-cff1-409f-80f9-91b5cc2e1ff5"},"vehicle_type_id":"4","last_reported":1726808936,"current_range_meters":23200,"station_id":"ce4bhnh2rcd13ifvqgug","pricing_plan_id":"cebpf4jnsgd1na2vs0mg"},{"bike_id":"ef180934-2dae-4833-acdd-ed74426bbff7","system_id":"levelo_inurba_marseille","lat":43.31328,"lon":5.39695,"is_reserved":false,"is_disabled":false,"rental_uris":{"android":"levelo://app?vid=ef180934-2dae-4833-acdd-ed74426bbff7","ios":"levelo://app?vid=ef180934-2dae-4833-acdd-ed74426bbff7"},"vehicle_type_id":"4","last_reported":1726808936,"current_range_meters":38800,"station_id":"ce4bgvp2rcd13ifvqcu0","pricing_plan_id":"cebpf4jnsgd1na2vs0mg"},{"bike_id":"3f4844a7-8837-4f90-9cc5-9a37bfd599bf","system_id":"levelo_inurba_marseille","lat":43.31687,"lon":5.40473,"is_reserved":false,"is_disabled":false,"rental_uris":{"android":"levelo://app?vid=3f4844a7-8837-4f90-9cc5-9a37bfd599bf","ios":"levelo://app?vid=3f4844a7-8837-4f90-9cc5-9a37bfd599bf"},"vehicle_type_id":"4","last_reported":1726808936,"current_range_meters":38800,"station_id":"ce4bh012rcd13ifvqd00","pricing_plan_id":"cebpf4jnsgd1na2vs0mg"},{"bike_id":"eb2bede7-1cfc-481d-95f0-4175f9ef21df","system_id":"levelo_inurba_marseille","lat":43.25939,"lon":5.40899,"is_reserved":false,"is_disabled":false,"rental_uris":{"android":"levelo://app?vid=eb2bede7-1cfc-481d-95f0-4175f9ef21df","ios":"levelo://app?vid=eb2bede7-1cfc-481d-95f0-4175f9ef21df"},"vehicle_type_id":"4","last_reported":1726808936,"current_range_meters":17600,"station_id":"ce4bhm92rcd13ifvqglg","pricing_plan_id":"cebpf4jnsgd1na2vs0mg"},{"bike_id":"2d0209a5-edfc-4ef2-af9a-5e4c23db38d5","system_id":"levelo_inurba_marseille","lat":43.24815,"lon":5.37463,"is_reserved":false,"is_disabled":false,"rental_uris":{"android":"levelo://app?vid=2d0209a5-edfc-4ef2-af9a-5e4c23db38d5","ios":"levelo://app?vid=2d0209a5-edfc-4ef2-af9a-5e4c23db38d5"},"vehicle_type_id":"4","last_reported":1726808936,"current_range_meters":35200,"station_id":"ce4bhgh2rcd13ifvqfb0","pricing_plan_id":"cebpf4jnsgd1na2vs0mg"},{"bike_id":"5f146c6e-3e3c-431f-824c-edb211f3b0a7","system_id":"levelo_inurba_marseille","lat":43.301053,"lon":5.387895,"is_reserved":false,"is_disabled":false,"rental_uris":{"android":"levelo://app?vid=5f146c6e-3e3c-431f-824c-edb211f3b0a7","ios":"levelo://app?vid=5f146c6e-3e3c-431f-824c-edb211f3b0a7"},"vehicle_type_id":"4","last_reported":1726808936,"current_range_meters":38800,"station_id":"ce4bghh2rcd13ifvqb60","pricing_plan_id":"cebpf4jnsgd1na2vs0mg"},{"bike_id":"f0358b7c-0d51-45cd-b0f4-25d08b472a8f","system_id":"levelo_inurba_marseille","lat":43.31712,"lon":5.3775,"is_reserved":false,"is_disabled":false,"rental_uris":{"android":"levelo://app?vid=f0358b7c-0d51-45cd-b0f4-25d08b472a8f","ios":"levelo://app?vid=f0358b7c-0d51-45cd-b0f4-25d08b472a8f"},"vehicle_type_id":"4","last_reported":1726808936,"current_range_meters":37600,"station_id":"ce4bgth2rcd13ifvqch0","pricing_plan_id":"cebpf4jnsgd1na2vs0mg"},{"bike_id":"604c71ac-7ebc-4458-a735-6962f31a4158","system_id":"levelo_inurba_marseille","lat":43.3016,"lon":5.38068,"is_reserved":false,"is_disabled":false,"rental_uris":{"android":"levelo://app?vid=604c71ac-7ebc-4458-a735-6962f31a4158","ios":"levelo://app?vid=604c71ac-7ebc-4458-a735-6962f31a4158"},"vehicle_type_id":"4","last_reported":1726808936,"current_range_meters":27200,"station_id":"ce4bgjp2rcd13ifvqbh0","pricing_plan_id":"cebpf4jnsgd1na2vs0mg"},{"bike_id":"93e94795-a222-4c33-8338-9093dd96735b","system_id":"levelo_inurba_marseille","lat":43.32546,"lon":5.41433,"is_reserved":false,"is_disabled":false,"rental_uris":{"android":"levelo://app?vid=93e94795-a222-4c33-8338-9093dd96735b","ios":"levelo://app?vid=93e94795-a222-4c33-8338-9093dd96735b"},"vehicle_type_id":"4","last_reported":1726808936,"current_range_meters":38800,"station_id":"ce4bhq12rcd13ifvqhhg","pricing_plan_id":"cebpf4jnsgd1na2vs0mg"},{"bike_id":"0bb22754-7c8b-4bd4-bec6-46166cf1031a","system_id":"levelo_inurba_marseille","lat":43.27952,"lon":5.41041,"is_reserved":false,"is_disabled":false,"rental_uris":{"android":"levelo://app?vid=0bb22754-7c8b-4bd4-bec6-46166cf1031a","ios":"levelo://app?vid=0bb22754-7c8b-4bd4-bec6-46166cf1031a"},"vehicle_type_id":"4","last_reported":1726808936,"current_range_meters":27200,"station_id":"ce4bhnp2rcd13ifvqh0g","pricing_plan_id":"cebpf4jnsgd1na2vs0mg"},{"bike_id":"ff5f6119-dd73-4e4e-8147-e66520e5ba8e","system_id":"levelo_inurba_marseille","lat":43.25734,"lon":5.41105,"is_reserved":false,"is_disabled":false,"rental_uris":{"android":"levelo://app?vid=ff5f6119-dd73-4e4e-8147-e66520e5ba8e","ios":"levelo://app?vid=ff5f6119-dd73-4e4e-8147-e66520e5ba8e"},"vehicle_type_id":"4","last_reported":1726808936,"current_range_meters":16000,"station_id":"ce4bhkp2rcd13ifvqgd0","pricing_plan_id":"cebpf4jnsgd1na2vs0mg"},{"bike_id":"b2e96364-fc4f-407d-a1dd-d52ffa2764ae","system_id":"levelo_inurba_marseille","lat":43.27616,"lon":5.36109,"is_reserved":false,"is_disabled":false,"rental_uris":{"android":"levelo://app?vid=b2e96364-fc4f-407d-a1dd-d52ffa2764ae","ios":"levelo://app?vid=b2e96364-fc4f-407d-a1dd-d52ffa2764ae"},"vehicle_type_id":"4","last_reported":1726808936,"current_range_meters":38800,"station_id":"ce4bgj92rcd13ifvqbe0","pricing_plan_id":"cebpf4jnsgd1na2vs0mg"},{"bike_id":"ba5b7b2a-8f33-406a-99d9-60143d2351b0","system_id":"levelo_inurba_marseille","lat":43.30932,"lon":5.40146,"is_reserved":false,"is_disabled":false,"rental_uris":{"android":"levelo://app?vid=ba5b7b2a-8f33-406a-99d9-60143d2351b0","ios":"levelo://app?vid=ba5b7b2a-8f33-406a-99d9-60143d2351b0"},"vehicle_type_id":"4","last_reported":1726808936,"current_range_meters":30400,"station_id":"ce4bgvp2rcd13ifvqct0","pricing_plan_id":"cebpf4jnsgd1na2vs0mg"},{"bike_id":"82ea35eb-356c-435a-af7e-f3943eee0033","system_id":"levelo_inurba_marseille","lat":43.31532,"lon":5.38023,"is_reserved":false,"is_disabled":false,"rental_uris":{"android":"levelo://app?vid=82ea35eb-356c-435a-af7e-f3943eee0033","ios":"levelo://app?vid=82ea35eb-356c-435a-af7e-f3943eee0033"},"vehicle_type_id":"4","last_reported":1726808936,"current_range_meters":38800,"station_id":"ce4bhsp2rcd13ifvqi50","pricing_plan_id":"cebpf4jnsgd1na2vs0mg"},{"bike_id":"902190e7-1fe9-4270-9546-498dac581307","system_id":"levelo_inurba_marseille","lat":43.28013,"lon":5.40595,"is_reserved":false,"is_disabled":false,"rental_uris":{"android":"levelo://app?vid=902190e7-1fe9-4270-9546-498dac581307","ios":"levelo://app?vid=902190e7-1fe9-4270-9546-498dac581307"},"vehicle_type_id":"4","last_reported":1726808936,"current_range_meters":32400,"station_id":"","pricing_plan_id":"cebpf4jnsgd1na2vs0mg"},{"bike_id":"22a01e63-45b7-4a09-976b-3064fba982c5","system_id":"levelo_inurba_marseille","lat":43.27207,"lon":5.39179,"is_reserved":false,"is_disabled":false,"rental_uris":{"android":"levelo://app?vid=22a01e63-45b7-4a09-976b-3064fba982c5","ios":"levelo://app?vid=22a01e63-45b7-4a09-976b-3064fba982c5"},"vehicle_type_id":"4","last_reported":1726808936,"current_range_meters":25600,"station_id":"ce4bhhp2rcd13ifvqfm0","pricing_plan_id":"cebpf4jnsgd1na2vs0mg"},{"bike_id":"ffe054b3-44bf-4c54-b418-d07f10908d45","system_id":"levelo_inurba_marseille","lat":43.28001,"lon":5.4002,"is_reserved":false,"is_disabled":false,"rental_uris":{"android":"levelo://app?vid=ffe054b3-44bf-4c54-b418-d07f10908d45","ios":"levelo://app?vid=ffe054b3-44bf-4c54-b418-d07f10908d45"},"vehicle_type_id":"4","last_reported":1726808936,"current_range_meters":26000,"station_id":"ce4bho92rcd13ifvqh4g","pricing_plan_id":"cebpf4jnsgd1na2vs0mg"},{"bike_id":"5357f56d-8fda-4848-92ec-00c39d374ad6","system_id":"levelo_inurba_marseille","lat":43.2846,"lon":5.35887,"is_reserved":false,"is_disabled":false,"rental_uris":{"android":"levelo://app?vid=5357f56d-8fda-4848-92ec-00c39d374ad6","ios":"levelo://app?vid=5357f56d-8fda-4848-92ec-00c39d374ad6"},"vehicle_type_id":"4","last_reported":1726808936,"current_range_meters":20800,"station_id":"ce4bhah2rcd13ifvqei0","pricing_plan_id":"cebpf4jnsgd1na2vs0mg"},{"bike_id":"c48441d3-1273-46e7-8012-ad8941a2e1c7","system_id":"levelo_inurba_marseille","lat":43.31284,"lon":5.40168,"is_reserved":false,"is_disabled":false,"rental_uris":{"android":"levelo://app?vid=c48441d3-1273-46e7-8012-ad8941a2e1c7","ios":"levelo://app?vid=c48441d3-1273-46e7-8012-ad8941a2e1c7"},"vehicle_type_id":"4","last_reported":1726808936,"current_range_meters":39200,"station_id":"ce4bh092rcd13ifvqd30","pricing_plan_id":"cebpf4jnsgd1na2vs0mg"},{"bike_id":"c72671e4-48d1-4590-84cd-1cd1b432d06a","system_id":"levelo_inurba_marseille","lat":43.31708,"lon":5.37743,"is_reserved":false,"is_disabled":false,"rental_uris":{"android":"levelo://app?vid=c72671e4-48d1-4590-84cd-1cd1b432d06a","ios":"levelo://app?vid=c72671e4-48d1-4590-84cd-1cd1b432d06a"},"vehicle_type_id":"4","last_reported":1726808936,"current_range_meters":37600,"station_id":"ce4bgth2rcd13ifvqch0","pricing_plan_id":"cebpf4jnsgd1na2vs0mg"},{"bike_id":"35cbddc5-7db1-44a5-9da8-38b5009c54c2","system_id":"levelo_inurba_marseille","lat":43.32764,"lon":5.39118,"is_reserved":false,"is_disabled":false,"rental_uris":{"android":"levelo://app?vid=35cbddc5-7db1-44a5-9da8-38b5009c54c2","ios":"levelo://app?vid=35cbddc5-7db1-44a5-9da8-38b5009c54c2"},"vehicle_type_id":"4","last_reported":1726808936,"current_range_meters":27200,"station_id":"","pricing_plan_id":"cebpf4jnsgd1na2vs0mg"},{"bike_id":"d0660a1f-1bec-4146-bdd3-6ca90ad03a3f","system_id":"levelo_inurba_marseille","lat":43.290253,"lon":5.378197,"is_reserved":false,"is_disabled":false,"rental_uris":{"android":"levelo://app?vid=d0660a1f-1bec-4146-bdd3-6ca90ad03a3f","ios":"levelo://app?vid=d0660a1f-1bec-4146-bdd3-6ca90ad03a3f"},"vehicle_type_id":"4","last_reported":1726808936,"current_range_meters":31200,"station_id":"ce4bgkh2rcd13ifvqbl0","pricing_plan_id":"cebpf4jnsgd1na2vs0mg"},{"bike_id":"c9e97f4d-5d65-4f0c-9d26-8cfeff2b6706","system_id":"levelo_inurba_marseille","lat":43.29876,"lon":5.39731,"is_reserved":false,"is_disabled":false,"rental_uris":{"android":"levelo://app?vid=c9e97f4d-5d65-4f0c-9d26-8cfeff2b6706","ios":"levelo://app?vid=c9e97f4d-5d65-4f0c-9d26-8cfeff2b6706"},"vehicle_type_id":"4","last_reported":1726808936,"current_range_meters":22400,"station_id":"ce4bh0h2rcd13ifvqd50","pricing_plan_id":"cebpf4jnsgd1na2vs0mg"},{"bike_id":"7c904801-7111-4d1d-a285-a9fb34472e47","system_id":"levelo_inurba_marseille","lat":43.29812,"lon":5.40404,"is_reserved":false,"is_disabled":false,"rental_uris":{"android":"levelo://app?vid=7c904801-7111-4d1d-a285-a9fb34472e47","ios":"levelo://app?vid=7c904801-7111-4d1d-a285-a9fb34472e47"},"vehicle_type_id":"4","last_reported":1726808936,"current_range_meters":38800,"station_id":"ce4bh112rcd13ifvqd90","pricing_plan_id":"cebpf4jnsgd1na2vs0mg"},{"bike_id":"db5bed51-afb9-4548-98e9-7b7ae226c501","system_id":"levelo_inurba_marseille","lat":43.33756,"lon":5.37453,"is_reserved":false,"is_disabled":false,"rental_uris":{"android":"levelo://app?vid=db5bed51-afb9-4548-98e9-7b7ae226c501","ios":"levelo://app?vid=db5bed51-afb9-4548-98e9-7b7ae226c501"},"vehicle_type_id":"4","last_reported":1726808936,"current_range_meters":18800,"station_id":"","pricing_plan_id":"cebpf4jnsgd1na2vs0mg"},{"bike_id":"9dad5afe-5050-419e-83a1-b8b898ac539b","system_id":"levelo_inurba_marseille","lat":43.301406,"lon":5.380597,"is_reserved":false,"is_disabled":false,"rental_uris":{"android":"levelo://app?vid=9dad5afe-5050-419e-83a1-b8b898ac539b","ios":"levelo://app?vid=9dad5afe-5050-419e-83a1-b8b898ac539b"},"vehicle_type_id":"4","last_reported":1726808936,"current_range_meters":14000,"station_id":"ce4bgjp2rcd13ifvqbh0","pricing_plan_id":"cebpf4jnsgd1na2vs0mg"},{"bike_id":"acf47c03-d493-46fb-9b5b-720a9b9aec60","system_id":"levelo_inurba_marseille","lat":43.27998,"lon":5.41654,"is_reserved":false,"is_disabled":false,"rental_uris":{"android":"levelo://app?vid=acf47c03-d493-46fb-9b5b-720a9b9aec60","ios":"levelo://app?vid=acf47c03-d493-46fb-9b5b-720a9b9aec60"},"vehicle_type_id":"4","last_reported":1726808936,"current_range_meters":38800,"station_id":"ce4bho12rcd13ifvqh1g","pricing_plan_id":"cebpf4jnsgd1na2vs0mg"},{"bike_id":"93c79a73-3e02-46ac-80e0-9576860eb50b","system_id":"levelo_inurba_marseille","lat":43.33021,"lon":5.39035,"is_reserved":false,"is_disabled":false,"rental_uris":{"android":"levelo://app?vid=93c79a73-3e02-46ac-80e0-9576860eb50b","ios":"levelo://app?vid=93c79a73-3e02-46ac-80e0-9576860eb50b"},"vehicle_type_id":"4","last_reported":1726808936,"current_range_meters":30800,"station_id":"ce4bhr92rcd13ifvqhrg","pricing_plan_id":"cebpf4jnsgd1na2vs0mg"},{"bike_id":"5e3713cc-3905-46af-88db-0f51de367560","system_id":"levelo_inurba_marseille","lat":43.30525,"lon":5.3842,"is_reserved":false,"is_disabled":false,"rental_uris":{"android":"levelo://app?vid=5e3713cc-3905-46af-88db-0f51de367560","ios":"levelo://app?vid=5e3713cc-3905-46af-88db-0f51de367560"},"vehicle_type_id":"4","last_reported":1726808936,"current_range_meters":39200,"station_id":"ce4bgg92rcd13ifvqb30","pricing_plan_id":"cebpf4jnsgd1na2vs0mg"},{"bike_id":"197dd2de-4ef5-48e2-a055-5c7602e802c9","system_id":"levelo_inurba_marseille","lat":43.30306,"lon":5.39212,"is_reserved":false,"is_disabled":false,"rental_uris":{"android":"levelo://app?vid=197dd2de-4ef5-48e2-a055-5c7602e802c9","ios":"levelo://app?vid=197dd2de-4ef5-48e2-a055-5c7602e802c9"},"vehicle_type_id":"4","last_reported":1726808936,"current_range_meters":27600,"station_id":"ce4bgkh2rcd13ifvqbk0","pricing_plan_id":"cebpf4jnsgd1na2vs0mg"},{"bike_id":"11bbcfc0-c539-42fc-900e-e85a08680b47","system_id":"levelo_inurba_marseille","lat":43.29789,"lon":5.39343,"is_reserved":false,"is_disabled":false,"rental_uris":{"android":"levelo://app?vid=11bbcfc0-c539-42fc-900e-e85a08680b47","ios":"levelo://app?vid=11bbcfc0-c539-42fc-900e-e85a08680b47"},"vehicle_type_id":"4","last_reported":1726808936,"current_range_meters":17600,"station_id":"chh1huq6cuj3fo74tm60","pricing_plan_id":"cebpf4jnsgd1na2vs0mg"},{"bike_id":"26f5c6c9-9ba1-4a1a-abde-84cca0ffc830","system_id":"levelo_inurba_marseille","lat":43.32287,"lon":5.40642,"is_reserved":false,"is_disabled":false,"rental_uris":{"android":"levelo://app?vid=26f5c6c9-9ba1-4a1a-abde-84cca0ffc830","ios":"levelo://app?vid=26f5c6c9-9ba1-4a1a-abde-84cca0ffc830"},"vehicle_type_id":"4","last_reported":1726808936,"current_range_meters":30000,"station_id":"ce4bhq92rcd13ifvqhjg","pricing_plan_id":"cebpf4jnsgd1na2vs0mg"},