{"last_updated":1760785620,"ttl":60,"version":"2.2","data":{"bikes":[{"bike_id":"4e41e1a6-edae-4040-b26a-38d4e57c9676","system_id":"levelo_inurba_marseille","lat":43.26557,"lon":5.37289,"is_reserved":false,"is_disabled":false,"rental_uris":{"android":"levelo://app?vid=4e41e1a6-edae-4040-b26a-38d4e57c9676","ios":"levelo://app?vid=4e41e1a6-edae-4040-b26a-38d4e57c9676"},"vehicle_type_id":"4","last_reported":1760785620,"current_range_meters":2800,"station_id":"ce4bhg12rcd13ifvqf70","pricing_plan_id":"cebpf4jnsgd1na2vs0mg"},{"bike_id":"aa098e78-c78b-49d0-b005-8004d1d28a9b","system_id":"levelo_inurba_marseille","lat":43.30887,"lon":5.39658,"is_reserved":false,"is_disabled":false,"rental_uris":{"android":"levelo://app?vid=aa098e78-c78b-49d0-b005-8004d1d28a9b","ios":"levelo://app?vid=aa098e78-c78b-49d0-b005-8004d1d28a9b"},"vehicle_type_id":"4","last_reported":1760785620,"current_range_meters":2800,"station_id":"ce4bh012rcd13ifvqcv0","pricing_plan_id":"cebpf4jnsgd1na2vs0mg"},{"bike_id":"be1c4bc2-ea26-4165-ae2c-40ac4665f215","system_id":"levelo_inurba_marseille","lat":43.29314,"lon":5.42701,"is_reserved":false,"is_disabled":true,"rental_uris":{"android":"levelo://app?vid=be1c4bc2-ea26-4165-ae2c-40ac4665f215","ios":"levelo://app?vid=be1c4bc2-ea26-4165-ae2c-40ac4665f215"},"vehicle_type_id":"4","last_reported":1760785620,"current_range_meters":2800,"station_id":"","pricing_plan_id":"cebpf4jnsgd1na2vs0mg"},{"bike_id":"395314b9-fea3-4a4a-8145-cf7ab2d4c961","system_id":"levelo_inurba_marseille","lat":43.3235,"lon":5.36727,"is_reserved":false,"is_disabled":false,"rental_uris":{"android":"levelo://app?vid=395314b9-fea3-4a4a-8145-cf7ab2d4c961","ios":"levelo://app?vid=395314b9-fea3-4a4a-8145-cf7ab2d4c961"},"vehicle_type_id":"4","last_reported":1760785620,"current_range_meters":3200,"station_id":"ce4bhsh2rcd13ifvqi2g","pricing_plan_id":"cebpf4jnsgd1na2vs0mg"},{"bike_id":"322095f2-e8e1-481f-ac29-8785ad5845ef","system_id":"levelo_inurba_marseille","lat":43.29708,"lon":5.3662,"is_reserved":false,"is_disabled":false,"rental_uris":{"android":"levelo://app?vid=322095f2-e8e1-481f-ac29-8785ad5845ef","ios":"levelo://app?vid=322095f2-e8e1-481f-ac29-8785ad5845ef"},"vehicle_type_id":"4","last_reported":1760785620,"current_range_meters":3600,"station_id":"ce4bgn12rcd13ifvqbt0","pricing_plan_id":"cebpf4jnsgd1na2vs0mg"},{"bike_id":"74553ada-5baa-4322-a623-723b51086ed8","system_id":"levelo_inurba_marseille","lat":43.247997,"lon":5.374474,"is_reserved":false,"is_disabled":false,"rental_uris":{"android":"levelo://app?vid=74553ada-5baa-4322-a623-723b51086ed8","ios":"levelo://app?vid=74553ada-5baa-4322-a623-723b51086ed8"},"vehicle_type_id":"4","last_reported":1760785620,"current_range_meters":3600,"station_id":"ce4bhgh2rcd13ifvqfb0","pricing_plan_id":"cebpf4jnsgd1na2vs0mg"},{"bike_id":"4df00325-9351-45d1-be2b-45362bcfbae7","system_id":"levelo_inurba_marseille","lat":43.29367,"lon":5.37868,"is_reserved":false,"is_disabled":false,"rental_uris":{"android":"levelo://app?vid=4df00325-9351-45d1-be2b-45362bcfbae7","ios":"levelo://app?vid=4df00325-9351-45d1-be2b-45362bcfbae7"},"vehicle_type_id":"4","last_reported":1760785620,"current_range_meters":3600,"station_id":"ce4bgjh2rcd13ifvqbf0","pricing_plan_id":"cebpf4jnsgd1na2vs0mg"},{"bike_id":"59cbcec3-cf99-452c-8cbb-2e503ec3902d","system_id":"levelo_inurba_marseille","lat":43.27563,"lon":5.38418,"is_reserved":false,"is_disabled":false,"rental_uris":{"android":"levelo://app?vid=59cbcec3-cf99-452c-8cbb-2e503ec3902d","ios":"levelo://app?vid=59cbcec3-cf99-452c-8cbb-2e503ec3902d"},"vehicle_type_id":"4","last_reported":1760785620,"current_range_meters":3600,"station_id":"ce4bhh92rcd13ifvqfi0","pricing_plan_id":"cebpf4jnsgd1na2vs0mg"},{"bike_id":"061ee75a-59c1-49d2-8f90-9871322a13e4","system_id":"levelo_inurba_marseille","lat":43.29705,"lon":5.37696,"is_reserved":false,"is_disabled":false,"rental_uris":{"android":"levelo://app?vid=061ee75a-59c1-49d2-8f90-9871322a13e4","ios":"levelo://app?vid=061ee75a-59c1-49d2-8f90-9871322a13e4"},"vehicle_type_id":"4","last_reported":1760785620,"current_range_meters":4000,"station_id":"ce4bgkh2rcd13ifvqbl0","pricing_plan_id":"cebpf4jnsgd1na2vs0mg"},{"bike_id":"dcbca3d0-5817-4e7d-b2ed-65473920904b","system_id":"levelo_inurba_marseille","lat":43.303114,"lon":5.369047,"is_reserved":false,"is_disabled":false,"rental_uris":{"android":"levelo://app?vid=dcbca3d0-5817-4e7d-b2ed-65473920904b","ios":"levelo://app?vid=dcbca3d0-5817-4e7d-b2ed-65473920904b"},"vehicle_type_id":"4","last_reported":1760785620,"current_range_meters":4000,"station_id":"ce4bgqh2rcd13ifvqc5g","pricing_plan_id":"cebpf4jnsgd1na2vs0mg"},{"bike_id":"b6556eb6-1b08-48db-81ba-f04eaa12cfdc","system_id":"levelo_inurba_marseille","lat":43.216774,"lon":5.346385,"is_reserved":false,"is_disabled":false,"rental_uris":{"android":"levelo://app?vid=b6556eb6-1b08-48db-81ba-f04eaa12cfdc","ios":"levelo://app?vid=b6556eb6-1b08-48db-81ba-f04eaa12cfdc"},"vehicle_type_id":"4","last_reported":1760785620,"current_range_meters":4400,"station_id":"","pricing_plan_id":"cebpf4jnsgd1na2vs0mg"},{"bike_id":"47b6a661-48b8-461f-9827-f48295e67bbf","system_id":"levelo_inurba_marseille","lat":43.2632,"lon":5.39837,"is_reserved":false,"is_disabled":false,"rental_uris":{"android":"levelo://app?vid=47b6a661-48b8-461f-9827-f48295e67bbf","ios":"levelo://app?vid=47b6a661-48b8-461f-9827-f48295e67bbf"},"vehicle_type_id":"4","last_reported":1760785620,"current_range_meters":4400,"station_id":"","pricing_plan_id":"cebpf4jnsgd1na2vs0mg"},{"bike_id":"121f55c8-5a85-4142-a96c-bf52eb873442","system_id":"levelo_inurba_marseille","lat":43.3046,"lon":5.36929,"is_reserved":false,"is_disabled":false,"rental_uris":{"android":"levelo://app?vid=121f55c8-5a85-4142-a96c-bf52eb873442","ios":"levelo://app?vid=121f55c8-5a85-4142-a96c-bf52eb873442"},"vehicle_type_id":"4","last_reported":1760785620,"current_range_meters":4400,"station_id":"","pricing_plan_id":"cebpf4jnsgd1na2vs0mg"},{"bike_id":"4d01285c-1bd5-4edc-a382-43bb35e7dfd5","system_id":"levelo_inurba_marseille","lat":43.305351,"lon":5.365558,"is_reserved":false,"is_disabled":false,"rental_uris":{"android":"levelo://app?vid=4d01285c-1bd5-4edc-a382-43bb35e7dfd5","ios":"levelo://app?vid=4d01285c-1bd5-4edc-a382-43bb35e7dfd5"},"vehicle_type_id":"4","last_reported":1760785620,"current_range_meters":4400,"station_id":"ce4bgs12rcd13ifvqcag","pricing_plan_id":"cebpf4jnsgd1na2vs0mg"},{"bike_id":"e257a5c9-b99e-4af1-ac4f-b017f1c8b418","system_id":"levelo_inurba_marseille","lat":43.33759,"lon":5.37438,"is_reserved":false,"is_disabled":false,"rental_uris":{"android":"levelo://app?vid=e257a5c9-b99e-4af1-ac4f-b017f1c8b418","ios":"levelo://app?vid=e257a5c9-b99e-4af1-ac4f-b017f1c8b418"},"vehicle_type_id":"4","last_reported":1760785620,"current_range_meters":4800,"station_id":"","pricing_plan_id":"cebpf4jnsgd1na2vs0mg"},{"bike_id":"6be2d9f0-e5d9-4e93-84fe-5f8efbc9191c","system_id":"levelo_inurba_marseille","lat":43.25008,"lon":5.38914,"is_reserved":false,"is_disabled":false,"rental_uris":{"android":"levelo://app?vid=6be2d9f0-e5d9-4e93-84fe-5f8efbc9191c","ios":"levelo://app?vid=6be2d9f0-e5d9-4e93-84fe-5f8efbc9191c"},"vehicle_type_id":"4","last_reported":1760785620,"current_range_meters":4800,"station_id":"ce4bhgp2rcd13ifvqfd0","pricing_plan_id":"cebpf4jnsgd1na2vs0mg"},{"bike_id":"ed188561-5aae-44c7-be2b-e9de50824746","system_id":"levelo_inurba_marseille","lat":43.24074,"lon":5.37762,"is_reserved":false,"is_disabled":false,"rental_uris":{"android":"levelo://app?vid=ed188561-5aae-44c7-be2b-e9de50824746","ios":"levelo://app?vid=ed188561-5aae-44c7-be2b-e9de50824746"},"vehicle_type_id":"4","last_reported":1760785620,"current_range_meters":4800,"station_id":"ce4bhnp2rcd13ifvqgvg","pricing_plan_id":"cebpf4jnsgd1na2vs0mg"},{"bike_id":"c015a7ad-9d36-400f-9ef8-b140c8376178","system_id":"levelo_inurba_marseille","lat":43.217422,"lon":5.346005,"is_reserved":false,"is_disabled":false,"rental_uris":{"android":"levelo://app?vid=c015a7ad-9d36-400f-9ef8-b140c8376178","ios":"levelo://app?vid=c015a7ad-9d36-400f-9ef8-b140c8376178"},"vehicle_type_id":"4","last_reported":1760785620,"current_range_meters":4800,"station_id":"st_cvj6r9ubvosntc0bgbag","pricing_plan_id":"cebpf4jnsgd1na2vs0mg"},{"bike_id":"14f1577a-5756-4fff-a2b9-babc7eb3037a","system_id":"levelo_inurba_marseille","lat":43.26202,"lon":5.37447,"is_reserved":false,"is_disabled":false,"rental_uris":{"android":"levelo://app?vid=14f1577a-5756-4fff-a2b9-babc7eb3037a","ios":"levelo://app?vid=14f1577a-5756-4fff-a2b9-babc7eb3037a"},"vehicle_type_id":"4","last_reported":1760785620,"current_range_meters":4800,"station_id":"ce4bhgp2rcd13ifvqfc0","pricing_plan_id":"cebpf4jnsgd1na2vs0mg"},{"bike_id":"f996be54-aab3-4ff8-9f4b-83a47b126af9","system_id":"levelo_inurba_marseille","lat":43.29507,"lon":5.37512,"is_reserved":false,"is_disabled":false,"rental_uris":{"android":"levelo://app?vid=f996be54-aab3-4ff8-9f4b-83a47b126af9","ios":"levelo://app?vid=f996be54-aab3-4ff8-9f4b-83a47b126af9"},"vehicle_type_id":"4","last_reported":1760785620,"current_range_meters":4800,"station_id":"ce4bgkp2rcd13ifvqbmg","pricing_plan_id":"cebpf4jnsgd1na2vs0mg"},{"bike_id":"54ce9837-844f-4383-9553-fafa528022f1","system_id":"levelo_inurba_marseille","lat":43.275734,"lon":5.384305,"is_reserved":false,"is_disabled":false,"rental_uris":{"android":"levelo://app?vid=54ce9837-844f-4383-9553-fafa528022f1","ios":"levelo://app?vid=54ce9837-844f-4383-9553-fafa528022f1"},"vehicle_type_id":"4","last_reported":1760785620,"current_range_meters":5600,"station_id":"ce4bhh92rcd13ifvqfi0","pricing_plan_id":"cebpf4jnsgd1na2vs0mg"},{"bike_id":"71ac0a35-c516-4438-8799-c13521ecc85f","system_id":"levelo_inurba_marseille","lat":43.241799,"lon":5.397366,"is_reserved":false,"is_disabled":false,"rental_uris":{"android":"levelo://app?vid=71ac0a35-c516-4438-8799-c13521ecc85f","ios":"levelo://app?vid=71ac0a35-c516-4438-8799-c13521ecc85f"},"vehicle_type_id":"4","last_reported":1760785620,"current_range_meters":5600,"station_id":"ce4bhn12rcd13ifvqgpg","pricing_plan_id":"cebpf4jnsgd1na2vs0mg"},{"bike_id":"48e8d341-9518-4cfc-9de9-e4325fec81c7","system_id":"levelo_inurba_marseille","lat":43.29311,"lon":5.37155,"is_reserved":false,"is_disabled":false,"rental_uris":{"android":"levelo://app?vid=48e8d341-9518-4cfc-9de9-e4325fec81c7","ios":"levelo://app?vid=48e8d341-9518-4cfc-9de9-e4325fec81c7"},"vehicle_type_id":"4","last_reported":1760785620,"current_range_meters":5600,"station_id":"ce4bgh92rcd13ifvqb40","pricing_plan_id":"cebpf4jnsgd1na2vs0mg"},{"bike_id":"239d16d8-88c7-4aee-8506-4f55eb58b91f","system_id":"levelo_inurba_marseille","lat":43.3082,"lon":5.43533,"is_reserved":false,"is_disabled":true,"rental_uris":{"android":"levelo://app?vid=239d16d8-88c7-4aee-8506-4f55eb58b91f","ios":"levelo://app?vid=239d16d8-88c7-4aee-8506-4f55eb58b91f"},"vehicle_type_id":"4","last_reported":1760785620,"current_range_meters":6000,"station_id":"ce4bhph2rcd13ifvqheg","pricing_plan_id":"cebpf4jnsgd1na2vs0mg"},{"bike_id":"d53102ee-7ea9-4620-9078-35b9e8e56add","system_id":"levelo_inurba_marseille","lat":43.29889,"lon":5.3891,"is_reserved":false,"is_disabled":false,"rental_uris":{"android":"levelo://app?vid=d53102ee-7ea9-4620-9078-35b9e8e56add","ios":"levelo://app?vid=d53102ee-7ea9-4620-9078-35b9e8e56add"},"vehicle_type_id":"4","last_reported":1760785620,"current_range_meters":6000,"station_id":"ce4bh392rcd13ifvqdl0","pricing_plan_id":"cebpf4jnsgd1na2vs0mg"},{"bike_id":"24d82d64-1145-442f-a9f5-19238b0b39ef","system_id":"levelo_inurba_marseille","lat":43.272133,"lon":5.391866,"is_reserved":false,"is_disabled":false,"rental_uris":{"android":"levelo://app?vid=24d82d64-1145-442f-a9f5-19238b0b39ef","ios":"levelo://app?vid=24d82d64-1145-442f-a9f5-19238b0b39ef"},"vehicle_type_id":"4","last_reported":1760785620,"current_range_meters":6400,"station_id":"","pricing_plan_id":"cebpf4jnsgd1na2vs0mg"},{"bike_id":"81e274d0-f810-4db3-9fef-dcd89afe1dba","system_id":"levelo_inurba_marseille","lat":43.279766,"lon":5.387452,"is_reserved":false,"is_disabled":false,"rental_uris":{"android":"levelo://app?vid=81e274d0-f810-4db3-9fef-dcd89afe1dba","ios":"levelo://app?vid=81e274d0-f810-4db3-9fef-dcd89afe1dba"},"vehicle_type_id":"4","last_reported":1760785620,"current_range_meters":6400,"station_id":"ce4bhg12rcd13ifvqf80","pricing_plan_id":"cebpf4jnsgd1na2vs0mg"},{"bike_id":"837692bb-f932-46c7-ab0c-6d7fd45b8f82","system_id":"levelo_inurba_marseille","lat":43.23568,"lon":5.37428,"is_reserved":false,"is_disabled":false,"rental_uris":{"android":"levelo://app?vid=837692bb-f932-46c7-ab0c-6d7fd45b8f82","ios":"levelo://app?vid=837692bb-f932-46c7-ab0c-6d7fd45b8f82"},"vehicle_type_id":"4","last_reported":1760785620,"current_range_meters":6400,"station_id":"","pricing_plan_id":"cebpf4jnsgd1na2vs0mg"},{"bike_id":"9d29654f-6bdf-4661-94f5-e1483b324558","system_id":"levelo_inurba_marseille","lat":43.29184,"lon":5.37142,"is_reserved":false,"is_disabled":false,"rental_uris":{"android":"levelo://app?vid=9d29654f-6bdf-4661-94f5-e1483b324558","ios":"levelo://app?vid=9d29654f-6bdf-4661-94f5-e1483b324558"},"vehicle_type_id":"4","last_reported":1760785620,"current_range_meters":6800,"station_id":"ce4bha92rcd13ifvqeh0","pricing_plan_id":"cebpf4jnsgd1na2vs0mg"},{"bike_id":"319ca0b6-643b-48b4-abfd-ce9e2dffe92f","system_id":"levelo_inurba_marseille","lat":43.22568,"lon":5.41628,"is_reserved":false,"is_disabled":false,"rental_uris":{"android":"levelo://app?vid=319ca0b6-643b-48b4-abfd-ce9e2dffe92f","ios":"levelo://app?vid=319ca0b6-643b-48b4-abfd-ce9e2dffe92f"},"vehicle_type_id":"4","last_reported":1760785620,"current_range_meters":6800,"station_id":"st_d2o4gvlbi1j2169b742g","pricing_plan_id":"cebpf4jnsgd1na2vs0mg"},{"bike_id":"7e3fb54d-5c98-4776-8294-28df74477e01","system_id":"levelo_inurba_marseille","lat":43.21754,"lon":5.34602,"is_reserved":false,"is_disabled":false,"rental_uris":{"android":"levelo://app?vid=7e3fb54d-5c98-4776-8294-28df74477e01","ios":"levelo://app?vid=7e3fb54d-5c98-4776-8294-28df74477e01"},"vehicle_type_id":"4","last_reported":1760785620,"current_range_meters":6800,"station_id":"st_cvj6r9ubvosntc0bgbag","pricing_plan_id":"cebpf4jnsgd1na2vs0mg"},{"bike_id":"bac603fd-ff54-4b80-a424-b7a77eaafea0","system_id":"levelo_inurba_marseille","lat":43.25581,"lon":5.38237,"is_reserved":false,"is_disabled":false,"rental_uris":{"android":"levelo://app?vid=bac603fd-ff54-4b80-a424-b7a77eaafea0","ios":"levelo://app?vid=bac603fd-ff54-4b80-a424-b7a77eaafea0"},"vehicle_type_id":"4","last_reported":1760785620,"current_range_meters":6800,"station_id":"ce4bhih2rcd13ifvqfs0","pricing_plan_id":"cebpf4jnsgd1na2vs0mg"},{"bike_id":"b198fdae-a02e-4380-b40a-23fa0f5e4197","system_id":"levelo_inurba_marseille","lat":43.28639,"lon":5.40689,"is_reserved":false,"is_disabled":false,"rental_uris":{"android":"levelo://app?vid=b198fdae-a02e-4380-b40a-23fa0f5e4197","ios":"levelo://app?vid=b198fdae-a02e-4380-b40a-23fa0f5e4197"},"vehicle_type_id":"4","last_reported":1760785620,"current_range_meters":6800,"station_id":"","pricing_plan_id":"cebpf4jnsgd1na2vs0mg"},{"bike_id":"baa476df-2953-46b7-a96d-caaff902d6dd","system_id":"levelo_inurba_marseille","lat":43.292478,"lon":5.368881,"is_reserved":false,"is_disabled":false,"rental_uris":{"android":"levelo://app?vid=baa476df-2953-46b7-a96d-caaff902d6dd","ios":"levelo://app?vid=baa476df-2953-46b7-a96d-caaff902d6dd"},"vehicle_type_id":"4","last_reported":1760785620,"current_range_meters":6800,"station_id":"ce4bht12rcd13ifvqi60","pricing_plan_id":"cebpf4jnsgd1na2vs0mg"},{"bike_id":"3a371d46-1254-48b5-951c-0369447a4ead","system_id":"levelo_inurba_marseille","lat":43.21753,"lon":5.34602,"is_reserved":false,"is_disabled":false,"rental_uris":{"android":"levelo://app?vid=3a371d46-1254-48b5-951c-0369447a4ead","ios":"levelo://app?vid=3a371d46-1254-48b5-951c-0369447a4ead"},"vehicle_type_id":"4","last_reported":1760785620,"current_range_meters":7200,"station_id":"st_cvj6r9ubvosntc0bgbag","pricing_plan_id":"cebpf4jnsgd1na2vs0mg"},{"bike_id":"ae6ad06d-3822-4b13-8391-5e51becf7a17","system_id":"levelo_inurba_marseille","lat":43.29888,"lon":5.39722,"is_reserved":false,"is_disabled":false,"rental_uris":{"android":"levelo://app?vid=ae6ad06d-3822-4b13-8391-5e51becf7a17","ios":"levelo://app?vid=ae6ad06d-3822-4b13-8391-5e51becf7a17"},"vehicle_type_id":"4","last_reported":1760785620,"current_range_meters":7200,"station_id":"ce4bh0h2rcd13ifvqd50","pricing_plan_id":"cebpf4jnsgd1na2vs0mg"},{"bike_id":"e6fa02b1-1d32-4f92-bc22-b739f0ec4b58","system_id":"levelo_inurba_marseille","lat":43.299153,"lon":5.43665,"is_reserved":false,"is_disabled":false,"rental_uris":{"android":"levelo://app?vid=e6fa02b1-1d32-4f92-bc22-b739f0ec4b58","ios":"levelo://app?vid=e6fa02b1-1d32-4f92-bc22-b739f0ec4b58"},"vehicle_type_id":"4","last_reported":1760785620,"current_range_meters":7200,"station_id":"ce4bhpp2rcd13ifvqhfg","pricing_plan_id":"cebpf4jnsgd1na2vs0mg"},{"bike_id":"416f580b-31c7-4ade-8604-dbd86eb8155f","system_id":"levelo_inurba_marseille","lat":43.28132,"lon":5.42161,"is_reserved":false,"is_disabled":false,"rental_uris":{"android":"levelo://app?vid=416f580b-31c7-4ade-8604-dbd86eb8155f","ios":"levelo://app?vid=416f580b-31c7-4ade-8604-dbd86eb8155f"},"vehicle_type_id":"4","last_reported":1760785620,"current_range_meters":7200,"station_id":"","pricing_plan_id":"cebpf4jnsgd1na2vs0mg"},{"bike_id":"edc2b540-f4d1-424e-9002-80823ed0b6b2","system_id":"levelo_inurba_marseille","lat":43.283835,"lon":5.370162,"is_reserved":false,"is_disabled":false,"rental_uris":{"android":"levelo://app?vid=edc2b540-f4d1-424e-9002-80823ed0b6b2","ios":"levelo://app?vid=edc2b540-f4d1-424e-9002-80823ed0b6b2"},"vehicle_type_id":"4","last_reported":1760785620,"current_range_meters":7200,"station_id":"","pricing_plan_id":"cebpf4jnsgd1na2vs0mg"},{"bike_id":"e0d880ea-4adf-41d3-a665-50e9bf39215b","system_id":"levelo_inurba_marseille","lat":43.2926,"lon":5.38435,"is_reserved":false,"is_disabled":false,"rental_uris":{"android":"levelo://app?vid=e0d880ea-4adf-41d3-a665-50e9bf39215b","ios":"levelo://app?vid=e0d880ea-4adf-41d3-a665-50e9bf39215b"},"vehicle_type_id":"4","last_reported":1760785620,"current_range_meters":7200,"station_id":"ce4bh692rcd13ifvqea0","pricing_plan_id":"cebpf4jnsgd1na2vs0mg"},{"bike_id":"49335714-259e-4728-a76d-8cc0cdbe974c","system_id":"levelo_inurba_marseille","lat":43.27374,"lon":5.36258,"is_reserved":false,"is_disabled":false,"rental_uris":{"android":"levelo://app?vid=49335714-259e-4728-a76d-8cc0cdbe974c","ios":"levelo://app?vid=49335714-259e-4728-a76d-8cc0cdbe974c"},"vehicle_type_id":"4","last_reported":1760785620,"current_range_meters":7200,"station_id":"ce4bhbh2rcd13ifvqeo0","pricing_plan_id":"cebpf4jnsgd1na2vs0mg"},{"bike_id":"9dd1d8fe-c2a8-4a70-a175-61f5f9fe7fd2","system_id":"levelo_inurba_marseille","lat":43.32136,"lon":5.38692,"is_reserved":false,"is_disabled":false,"rental_uris":{"android":"levelo://app?vid=9dd1d8fe-c2a8-4a70-a175-61f5f9fe7fd2","ios":"levelo://app?vid=9dd1d8fe-c2a8-4a70-a175-61f5f9fe7fd2"},"vehicle_type_id":"4","last_reported":1760785620,"current_range_meters":8000,"station_id":"","pricing_plan_id":"cebpf4jnsgd1na2vs0mg"},{"bike_id":"5556543b-c8ce-4c3c-8d65-609e8f5df9de","system_id":"levelo_inurba_marseille","lat":43.217925,"lon":5.345993,"is_reserved":false,"is_disabled":false,"rental_uris":{"android":"levelo://app?vid=5556543b-c8ce-4c3c-8d65-609e8f5df9de","ios":"levelo://app?vid=5556543b-c8ce-4c3c-8d65-609e8f5df9de"},"vehicle_type_id":"4","last_reported":1760785620,"current_range_meters":8000,"station_id":"","pricing_plan_id":"cebpf4jnsgd1na2vs0mg"},{"bike_id":"078dac6c-6e96-4a56-b537-b1f3490b0c49","system_id":"levelo_inurba_marseille","lat":43.28261,"lon":5.35068,"is_reserved":false,"is_disabled":false,"rental_uris":{"android":"levelo://app?vid=078dac6c-6e96-4a56-b537-b1f3490b0c49","ios":"levelo://app?vid=078dac6c-6e96-4a56-b537-b1f3490b0c49"},"vehicle_type_id":"4","last_reported":1760785620,"current_range_meters":8000,"station_id":"ce4bhbp2rcd13ifvqerg","pricing_plan_id":"cebpf4jnsgd1na2vs0mg"},{"bike_id":"e65a5080-d248-42db-becf-a00fdbba38c0","system_id":"levelo_inurba_marseille","lat":43.27957,"lon":5.4104,"is_reserved":false,"is_disabled":false,"rental_uris":{"android":"levelo://app?vid=e65a5080-d248-42db-becf-a00fdbba38c0","ios":"levelo://app?vid=e65a5080-d248-42db-becf-a00fdbba38c0"},"vehicle_type_id":"4","last_reported":1760785620,"current_range_meters":8000,"station_id":"ce4bhnp2rcd13ifvqh0g","pricing_plan_id":"cebpf4jnsgd1na2vs0mg"},{"bike_id":"0c01c257-728d-46a3-a07a-b79f81ce023c","system_id":"levelo_inurba_marseille","lat":43.29937,"lon":5.38625,"is_reserved":false,"is_disabled":false,"rental_uris":{"android":"levelo://app?vid=0c01c257-728d-46a3-a07a-b79f81ce023c","ios":"levelo://app?vid=0c01c257-728d-46a3-a07a-b79f81ce023c"},"vehicle_type_id":"4","last_reported":1760785620,"current_range_meters":8000,"station_id":"","pricing_plan_id":"cebpf4jnsgd1na2vs0mg"},{"bike_id":"2fad9211-819b-4892-bf52-014fbefdb6cb","system_id":"levelo_inurba_marseille","lat":43.301519,"lon":5.373953,"is_reserved":false,"is_disabled":false,"rental_uris":{"android":"levelo://app?vid=2fad9211-819b-4892-bf52-014fbefdb6cb","ios":"levelo://app?vid=2fad9211-819b-4892-bf52-014fbefdb6cb"},"vehicle_type_id":"4","last_reported":1760785620,"current_range_meters":8000,"station_id":"ce4bgs92rcd13ifvqcc0","pricing_plan_id":"cebpf4jnsgd1na2vs0mg"},{"bike_id":"17266aff-8a59-4bd1-a91d-49e08e53d11c","system_id":"levelo_inurba_marseille","lat":43.29498,"lon":5.40925,"is_reserved":false,"is_disabled":false,"rental_uris":{"android":"levelo://app?vid=17266aff-8a59-4bd1-a91d-49e08e53d11c","ios":"levelo://app?vid=17266aff-8a59-4bd1-a91d-49e08e53d11c"},"vehicle_type_id":"4","last_reported":1760785620,"current_range_meters":8000,"station_id":"","pricing_plan_id":"cebpf4jnsgd1na2vs0mg"},{"bike_id":"5fe6e873-dba1-40dd-bc65-77de126f2710","system_id":"levelo_inurba_marseille","lat":43.332893,"lon":5.395256,"is_reserved":false,"is_disabled":false,"rental_uris":{"android":"levelo://app?vid=5fe6e873-dba1-40dd-bc65-77de126f2710","ios":"levelo://app?vid=5fe6e873-dba1-40dd-bc65-77de126f2710"},"vehicle_type_id":"4","last_reported":1760785620,"current_range_meters":8000,"station_id":"","pricing_plan_id":"cebpf4jnsgd1na2vs0mg"},{"bike_id":"4afcb498-b105-4a2e-8f60-0cbd0a76d5ff","system_id":"levelo_inurba_marseille","lat":43.273879,"lon":5.362555,"is_reserved":false,"is_disabled":false,"rental_uris":{"android":"levelo://app?vid=4afcb498-b105-4a2e-8f60-0cbd0a76d5ff","ios":"levelo://app?vid=4afcb498-b105-4a2e-8f60-0cbd0a76d5ff"},"vehicle_type_id":"4","last_reported":1760785620,"current_range_meters":8000,"station_id":"ce4bhbp2rcd13ifvqerg","pricing_plan_id":"cebpf4jnsgd1na2vs0mg"},{"bike_id":"46b48211-f14e-447c-8d66-212148e0a1d2","system_id":"levelo_inurba_marseille","lat":43.290057,"lon":5.356199,"is_reserved":false,"is_disabled":false,"rental_uris":{"android":"levelo://app?vid=46b48211-f14e-447c-8d66-212148e0a1d2","ios":"levelo://app?vid=46b48211-f14e-447c-8d66-212148e0a1d2"},"vehicle_type_id":"4","last_reported":1760785620,"current_range_meters":8000,"station_id":"ce4bhb92rcd13ifvqen0","pricing_plan_id":"cebpf4jnsgd1na2vs0mg"},{"bike_id":"cfb3fcf1-7d43-4247-8d54-ff93bd89ba87","system_id":"levelo_inurba_marseille","lat":43.30704,"lon":5.3971,"is_reserved":false,"is_disabled":false,"rental_uris":{"android":"levelo://app?vid=cfb3fcf1-7d43-4247-8d54-ff93bd89ba87","ios":"levelo://app?vid=cfb3fcf1-7d43-4247-8d54-ff93bd89ba87"},"vehicle_type_id":"4","last_reported":1760785620,"current_range_meters":8000,"station_id":"","pricing_plan_id":"cebpf4jnsgd1na2vs0mg"},{"bike_id":"3b7dcef1-a053-42c6-a90b-2e90d183394e","system_id":"levelo_inurba_marseille","lat":43.22559,"lon":5.4164,"is_reserved":false,"is_disabled":false,"rental_uris":{"android":"levelo://app?vid=3b7dcef1-a053-42c6-a90b-2e90d183394e","ios":"levelo://app?vid=3b7dcef1-a053-42c6-a90b-2e90d183394e"},"vehicle_type_id":"4","last_reported":1760785620,"current_range_meters":8400,"station_id":"st_d2o4gvlbi1j2169b742g","pricing_plan_id":"cebpf4jnsgd1na2vs0mg"},{"bike_id":"81fb2d02-b736-476f-a095-f82f8a98897c","system_id":"levelo_inurba_marseille","lat":43.29049,"lon":5.39941,"is_reserved":false,"is_disabled":true,"rental_uris":{"android":"levelo://app?vid=81fb2d02-b736-476f-a095-f82f8a98897c","ios":"levelo://app?vid=81fb2d02-b736-476f-a095-f82f8a98897c"},"vehicle_type_id":"4","last_reported":1760785620,"current_range_meters":8400,"station_id":"ce4bh392rcd13ifvqdm0","pricing_plan_id":"cebpf4jnsgd1na2vs0mg"},{"bike_id":"0f9c20ae-f80b-4bc4-a84d-e94070c41d3b","system_id":"levelo_inurba_marseille","lat":43.2257,"lon":5.41625,"is_reserved":false,"is_disabled":false,"rental_uris":{"android":"levelo://app?vid=0f9c20ae-f80b-4bc4-a84d-e94070c41d3b","ios":"levelo://app?vid=0f9c20ae-f80b-4bc4-a84d-e94070c41d3b"},"vehicle_type_id":"4","last_reported":1760785620,"current_range_meters":8400,"station_id":"st_d2o4gvlbi1j2169b742g","pricing_plan_id":"cebpf4jnsgd1na2vs0mg"},{"bike_id":"3a3f7911-b742-4210-9052-10096912fde0","system_id":"levelo_inurba_marseille","lat":43.27071,"lon":5.42282,"is_reserved":false,"is_disabled":false,"rental_uris":{"android":"levelo://app?vid=3a3f7911-b742-4210-9052-10096912fde0","ios":"levelo://app?vid=3a3f7911-b742-4210-9052-10096912fde0"},"vehicle_type_id":"4","last_reported":1760785620,"current_range_meters":8400,"station_id":"ce4bhk92rcd13ifvqgb0","pricing_plan_id":"cebpf4jnsgd1na2vs0mg"},{"bike_id":"c5e45447-2956-450f-bd7e-88aaf308c04d","system_id":"levelo_inurba_marseille","lat":43.290038,"lon":5.365336,"is_reserved":false,"is_disabled":false,"rental_uris":{"android":"levelo://app?vid=c5e45447-2956-450f-bd7e-88aaf308c04d","ios":"levelo://app?vid=c5e45447-2956-450f-bd7e-88aaf308c04d"},"vehicle_type_id":"4","last_reported":1760785620,"current_range_meters":8800,"station_id":"","pricing_plan_id":"cebpf4jnsgd1na2vs0mg"},{"bike_id":"245a030c-0c43-41f8-a4cc-088d55252b06","system_id":"levelo_inurba_marseille","lat":43.244755,"lon":5.369334,"is_reserved":false,"is_disabled":false,"rental_uris":{"android":"levelo://app?vid=245a030c-0c43-41f8-a4cc-088d55252b06","ios":"levelo://app?vid=245a030c-0c43-41f8-a4cc-088d55252b06"},"vehicle_type_id":"4","last_reported":1760785620,"current_range_meters":8800,"station_id":"","pricing_plan_id":"cebpf4jnsgd1na2vs0mg"},{"bike_id":"8bd272a3-683a-4148-9970-3334beb0a457","system_id":"levelo_inurba_marseille","lat":43.285333,"lon":5.44098,"is_reserved":false,"is_disabled":false,"rental_uris":{"android":"levelo://app?vid=8bd272a3-683a-4148-9970-3334beb0a457","ios":"levelo://app?vid=8bd272a3-683a-4148-9970-3334beb0a457"},"vehicle_type_id":"4","last_reported":1760785620,"current_range_meters":8800,"station_id":"st_d3j3df2ikq2c7380ej80","pricing_plan_id":"cebpf4jnsgd1na2vs0mg"},{"bike_id":"0e82cd35-a2ba-4655-84da-ccef52daa419","system_id":"levelo_inurba_marseille","lat":43.273173,"lon":5.390712,"is_reserved":false,"is_disabled":false,"rental_uris":{"android":"levelo://app?vid=0e82cd35-a2ba-4655-84da-ccef52daa419","ios":"levelo://app?vid=0e82cd35-a2ba-4655-84da-ccef52daa419"},"vehicle_type_id":"4","last_reported":1760785620,"current_range_meters":8800,"station_id":"ce4bhgp2rcd13ifvqfe0","pricing_plan_id":"cebpf4jnsgd1na2vs0mg"},{"bike_id":"ec1118c7-0235-4ddf-a8cd-c66e9fbdcdaa","system_id":"levelo_inurba_marseille","lat":43.312952,"lon":5.385738,"is_reserved":false,"is_disabled":false,"rental_uris":{"android":"levelo://app?vid=ec1118c7-0235-4ddf-a8cd-c66e9fbdcdaa","ios":"levelo://app?vid=ec1118c7-0235-4ddf-a8cd-c66e9fbdcdaa"},"vehicle_type_id":"4","last_reported":1760785620,"current_range_meters":8800,"station_id":"ce4bgjh2rcd13ifvqbg0","pricing_plan_id":"cebpf4jnsgd1na2vs0mg"},{"bike_id":"d8e90b3a-59c2-4bce-b007-f0f950b904f1","system_id":"levelo_inurba_marseille","lat":43.262072,"lon":5.379351,"is_reserved":false,"is_disabled":false,"rental_uris":{"android":"levelo://app?vid=d8e90b3a-59c2-4bce-b007-f0f950b904f1","ios":"levelo://app?vid=d8e90b3a-59c2-4bce-b007-f0f950b904f1"},"vehicle_type_id":"4","last_reported":1760785620,"current_range_meters":8800,"station_id":"","pricing_plan_id":"cebpf4jnsgd1na2vs0mg"},{"bike_id":"a817b630-bbed-48d3-97f4-9bd571b9ebab","system_id":"levelo_inurba_marseille","lat":43.29996,"lon":5.373566,"is_reserved":false,"is_disabled":false,"rental_uris":{"android":"levelo://app?vid=a817b630-bbed-48d3-97f4-9bd571b9ebab","ios":"levelo://app?vid=a817b630-bbed-48d3-97f4-9bd571b9ebab"},"vehicle_type_id":"4","last_reported":1760785620,"current_range_meters":8800,"station_id":"","pricing_plan_id":"cebpf4jnsgd1na2vs0mg"},{"bike_id":"c39b9391-f7e9-4b17-908e-f5ab39ba0feb","system_id":"levelo_inurba_marseille","lat":43.28928,"lon":5.36643,"is_reserved":false,"is_disabled":false,"rental_uris":{"android":"levelo://app?vid=c39b9391-f7e9-4b17-908e-f5ab39ba0feb","ios":"levelo://app?vid=c39b9391-f7e9-4b17-908e-f5ab39ba0feb"},"vehicle_type_id":"4","last_reported":1760785620,"current_range_meters":8800,"station_id":"ce4bhap2rcd13ifvqek0","pricing_plan_id":"cebpf4jnsgd1na2vs0mg"},{"bike_id":"edee51fd-4c88-4d8f-b1ab-ab077164c788","system_id":"levelo_inurba_marseille","lat":43.24809,"lon":5.37458,"is_reserved":false,"is_disabled":false,"rental_uris":{"android":"levelo://app?vid=edee51fd-4c88-4d8f-b1ab-ab077164c788","ios":"levelo://app?vid=edee51fd-4c88-4d8f-b1ab-ab077164c788"},"vehicle_type_id":"4","last_reported":1760785620,"current_range_meters":9200,"station_id":"ce4bhgh2rcd13ifvqfb0","pricing_plan_id":"cebpf4jnsgd1na2vs0mg"},{"bike_id":"eaf73094-ad72-4926-85d6-16f3f0d7a30d","system_id":"levelo_inurba_marseille","lat":43.22563,"lon":5.41631,"is_reserved":false,"is_disabled":false,"rental_uris":{"android":"levelo://app?vid=eaf73094-ad72-4926-85d6-16f3f0d7a30d","ios":"levelo://app?vid=eaf73094-ad72-4926-85d6-16f3f0d7a30d"},"vehicle_type_id":"4","last_reported":1760785620,"current_range_meters":9200,"station_id":"st_d2o4gvlbi1j2169b742g","pricing_plan_id":"cebpf4jnsgd1na2vs0mg"},{"bike_id":"05945e29-7320-4e99-8605-3baf1bb8bd34","system_id":"levelo_inurba_marseille","lat":43.27324,"lon":5.39074,"is_reserved":false,"is_disabled":false,"rental_uris":{"android":"levelo://app?vid=05945e29-7320-4e99-8605-3baf1bb8bd34","ios":"levelo://app?vid=05945e29-7320-4e99-8605-3baf1bb8bd34"},"vehicle_type_id":"4","last_reported":1760785620,"current_range_meters":9200,"station_id":"ce4bhgp2rcd13ifvqfe0","pricing_plan_id":"cebpf4jnsgd1na2vs0mg"},{"bike_id":"97f7ee86-26df-49cd-839d-ab0851c4d39c","system_id":"levelo_inurba_marseille","lat":43.29843,"lon":5.36274,"is_reserved":false,"is_disabled":false,"rental_uris":{"android":"levelo://app?vid=97f7ee86-26df-49cd-839d-ab0851c4d39c","ios":"levelo://app?vid=97f7ee86-26df-49cd-839d-ab0851c4d39c"},"vehicle_type_id":"4","last_reported":1760785620,"current_range_meters":9200,"station_id":"ce4bgpp2rcd13ifvqc3g","pricing_plan_id":"cebpf4jnsgd1na2vs0mg"},{"bike_id":"7a3c1133-7584-4d9a-a301-26d00b89a328","system_id":"levelo_inurba_marseille","lat":43.2962,"lon":5.37722,"is_reserved":false,"is_disabled":false,"rental_uris":{"android":"levelo://app?vid=7a3c1133-7584-4d9a-a301-26d00b89a328","ios":"levelo://app?vid=7a3c1133-7584-4d9a-a301-26d00b89a328"},"vehicle_type_id":"4","last_reported":1760785620,"current_range_meters":9200,"station_id":"ce4bgi92rcd13ifvqb90","pricing_plan_id":"cebpf4jnsgd1na2vs0mg"},{"bike_id":"66523a68-41dd-4e7f-a6a4-6e2ff812245e","system_id":"levelo_inurba_marseille","lat":43.28075,"lon":5.39658,"is_reserved":false,"is_disabled":false,"rental_uris":{"android":"levelo://app?vid=66523a68-41dd-4e7f-a6a4-6e2ff812245e","ios":"levelo://app?vid=66523a68-41dd-4e7f-a6a4-6e2ff812245e"},"vehicle_type_id":"4","last_reported":1760785620,"current_range_meters":9200,"station_id":"ce4bho12rcd13ifvqh2g","pricing_plan_id":"cebpf4jnsgd1na2vs0mg"},{"bike_id":"059794a7-bbb4-4073-88a1-7cf38593c2e7","system_id":"levelo_inurba_marseille","lat":43.23787,"lon":5.36631,"is_reserved":false,"is_disabled":false,"rental_uris":{"android":"levelo://app?vid=059794a7-bbb4-4073-88a1-7cf38593c2e7","ios":"levelo://app?vid=059794a7-bbb4-4073-88a1-7cf38593c2e7"},"vehicle_type_id":"4","last_reported":1760785620,"current_range_meters":9600,"station_id":"st_d3nk18o9ro0c73en2l3g","pricing_plan_id":"cebpf4jnsgd1na2vs0mg"},{"bike_id":"7fc0cda4-3b38-447e-872d-f9b833784b7c","system_id":"levelo_inurba_marseille","lat":43.23959,"lon":5.36624,"is_reserved":false,"is_disabled":true,"rental_uris":{"android":"levelo://app?vid=7fc0cda4-3b38-447e-872d-f9b833784b7c","ios":"levelo://app?vid=7fc0cda4-3b38-447e-872d-f9b833784b7c"},"vehicle_type_id":"4","last_reported":1760785620,"current_range_meters":9600,"station_id":"ce4bhi12rcd13ifvqfp0","pricing_plan_id":"cebpf4jnsgd1na2vs0mg"},{"bike_id":"49ee0e95-6585-4802-8a1c-f0e12b25d374","system_id":"levelo_inurba_marseille","lat":43.30368,"lon":5.36505,"is_reserved":false,"is_disabled":false,"rental_uris":{"android":"levelo://app?vid=49ee0e95-6585-4802-8a1c-f0e12b25d374","ios":"levelo://app?vid=49ee0e95-6585-4802-8a1c-f0e12b25d374"},"vehicle_type_id":"4","last_reported":1760785620,"current_range_meters":9600,"station_id":"","pricing_plan_id":"cebpf4jnsgd1na2vs0mg"},{"bike_id":"4b08cfe7-5df1-4e29-905e-03a9992f8dfa","system_id":"levelo_inurba_marseille","lat":43.33775,"lon":5.37429,"is_reserved":false,"is_disabled":false,"rental_uris":{"android":"levelo://app?vid=4b08cfe7-5df1-4e29-905e-03a9992f8dfa","ios":"levelo://app?vid=4b08cfe7-5df1-4e29-905e-03a9992f8dfa"},"vehicle_type_id":"4","last_reported":1760785620,"current_range_meters":9600,"station_id":"","pricing_plan_id":"cebpf4jnsgd1na2vs0mg"},{"bike_id":"6651f61c-1fe4-4fa1-be9d-697a74379b42","system_id":"levelo_inurba_marseille","lat":43.24546,"lon":5.39523,"is_reserved":false,"is_disabled":false,"rental_uris":{"android":"levelo://app?vid=6651f61c-1fe4-4fa1-be9d-697a74379b42","ios":"levelo://app?vid=6651f61c-1fe4-4fa1-be9d-697a74379b42"},"vehicle_type_id":"4","last_reported":1760785620,"current_range_meters":9600,"station_id":"ce4bhlp2rcd13ifvqgjg","pricing_plan_id":"cebpf4jnsgd1na2vs0mg"},{"bike_id":"faf8bb46-6101-40b0-94e4-a98484e2dc68","system_id":"levelo_inurba_marseille","lat":43.28535,"lon":5.44096,"is_reserved":false,"is_disabled":false,"rental_uris":{"android":"levelo://app?vid=faf8bb46-6101-40b0-94e4-a98484e2dc68","ios":"levelo://app?vid=faf8bb46-6101-40b0-94e4-a98484e2dc68"},"vehicle_type_id":"4","last_reported":1760785620,"current_range_meters":9600,"station_id":"st_d3j3df2ikq2c7380ej80","pricing_plan_id":"cebpf4jnsgd1na2vs0mg"},{"bike_id":"cb7c9b4b-ee45-45e5-a5dc-95d35a7af956","system_id":"levelo_inurba_marseille","lat":43.28489,"lon":5.38557,"is_reserved":false,"is_disabled":false,"rental_uris":{"android":"levelo://app?vid=cb7c9b4b-ee45-45e5-a5dc-95d35a7af956","ios":"levelo://app?vid=cb7c9b4b-ee45-45e5-a5dc-95d35a7af956"},"vehicle_type_id":"4","last_reported":1760785620,"current_range_meters":9600,"station_id":"ce4bh8p2rcd13ifvqeb0","pricing_plan_id":"cebpf4jnsgd1na2vs0mg"},{"bike_id":"ffd73f9e-7f59-4f51-b194-0f67b9e7b826","system_id":"levelo_inurba_marseille","lat":43.33602,"lon":5.41033,"is_reserved":false,"is_disabled":false,"rental_uris":{"android":"levelo://app?vid=ffd73f9e-7f59-4f51-b194-0f67b9e7b826","ios":"levelo://app?vid=ffd73f9e-7f59-4f51-b194-0f67b9e7b826"},"vehicle_type_id":"4","last_reported":1760785620,"current_range_meters":9600,"station_id":"ce4bhqh2rcd13ifvqhmg","pricing_plan_id":"cebpf4jnsgd1na2vs0mg"},{"bike_id":"63bb1a4c-56f0-454a-a1cd-aecf8e3c6a2e","system_id":"levelo_inurba_marseille","lat":43.21743,"lon":5.34615,"is_reserved":false,"is_disabled":false,"rental_uris":{"android":"levelo://app?vid=63bb1a4c-56f0-454a-a1cd-aecf8e3c6a2e","ios":"levelo://app?vid=63bb1a4c-56f0-454a-a1cd-aecf8e3c6a2e"},"vehicle_type_id":"4","last_reported":1760785620,"current_range_meters":10000,"station_id":"st_cvj6r9ubvosntc0bgbag","pricing_plan_id":"cebpf4jnsgd1na2vs0mg"},{"bike_id":"b3edc609-7782-46af-831c-544f1d118f47","system_id":"levelo_inurba_marseille","lat":43.3081,"lon":5.4351,"is_reserved":false,"is_disabled":false,"rental_uris":{"android":"levelo://app?vid=b3edc609-7782-46af-831c-544f1d118f47","ios":"levelo://app?vid=b3edc609-7782-46af-831c-544f1d118f47"},"vehicle_type_id":"4","last_reported":1760785620,"current_range_meters":10000,"station_id":"ce4bhph2rcd13ifvqheg","pricing_plan_id":"cebpf4jnsgd1na2vs0mg"},{"bike_id":"2048e49e-c110-4270-bacd-7d1c2117d413","system_id":"levelo_inurba_marseille","lat":43.2293,"lon":5.35372,"is_reserved":false,"is_disabled":false,"rental_uris":{"android":"levelo://app?vid=2048e49e-c110-4270-bacd-7d1c2117d413","ios":"levelo://app?vid=2048e49e-c110-4270-bacd-7d1c2117d413"},"vehicle_type_id":"4","last_reported":1760785620,"current_range_meters":10800,"station_id":"cpo3532slgdg3j2ikp40","pricing_plan_id":"cebpf4jnsgd1na2vs0mg"},{"bike_id":"924ac669-be8b-47aa-9a8e-6f22baf815eb","system_id":"levelo_inurba_marseille","lat":43.337692,"lon":5.374734,"is_reserved":false,"is_disabled":false,"rental_uris":{"android":"levelo://app?vid=924ac669-be8b-47aa-9a8e-6f22baf815eb","ios":"levelo://app?vid=924ac669-be8b-47aa-9a8e-6f22baf815eb"},"vehicle_type_id":"4","last_reported":1760785620,"current_range_meters":10800,"station_id":"","pricing_plan_id":"cebpf4jnsgd1na2vs0mg"},{"bike_id":"c2d082d6-08ab-4d75-ae90-6d65d19ca507","system_id":"levelo_inurba_marseille","lat":43.29046,"lon":5.35919,"is_reserved":false,"is_disabled":true,"rental_uris":{"android":"levelo://app?vid=c2d082d6-08ab-4d75-ae90-6d65d19ca507","ios":"levelo://app?vid=c2d082d6-08ab-4d75-ae90-6d65d19ca507"},"vehicle_type_id":"4","last_reported":1760785620,"current_range_meters":10800,"station_id":"ce4bha92rcd13ifvqeg0","pricing_plan_id":"cebpf4jnsgd1na2vs0mg"},{"bike_id":"a3411cd9-721e-4707-87bc-ffafa71c833d","system_id":"levelo_inurba_marseille","lat":43.25859,"lon":5.399,"is_reserved":false,"is_disabled":false,"rental_uris":{"android":"levelo://app?vid=a3411cd9-721e-4707-87bc-ffafa71c833d","ios":"levelo://app?vid=a3411cd9-721e-4707-87bc-ffafa71c833d"},"vehicle_type_id":"4","last_reported":1760785620,"current_range_meters":10800,"station_id":"ce4bhl92rcd13ifvqghg","pricing_plan_id":"cebpf4jnsgd1na2vs0mg"},{"bike_id":"0f3cf1bd-4287-44a3-af8f-9cc5ad95a452","system_id":"levelo_inurba_marseille","lat":43.30144,"lon":5.37421,"is_reserved":false,"is_disabled":false,"rental_uris":{"android":"levelo://app?vid=0f3cf1bd-4287-44a3-af8f-9cc5ad95a452","ios":"levelo://app?vid=0f3cf1bd-4287-44a3-af8f-9cc5ad95a452"},"vehicle_type_id":"4","last_reported":1760785620,"current_range_meters":10800,"station_id":"ce4bgs92rcd13ifvqcc0","pricing_plan_id":"cebpf4jnsgd1na2vs0mg"},{"bike_id":"4ff0ec29-f5fe-48ce-bb87-2cf9f6cd30af","system_id":"levelo_inurba_marseille","lat":43.309327,"lon":5.401398,"is_reserved":false,"is_disabled":false,"rental_uris":{"android":"levelo://app?vid=4ff0ec29-f5fe-48ce-bb87-2cf9f6cd30af","ios":"levelo://app?vid=4ff0ec29-f5fe-48ce-bb87-2cf9f6cd30af"},"vehicle_type_id":"4","last_reported":1760785620,"current_range_meters":10800,"station_id":"ce4bgvp2rcd13ifvqct0","pricing_plan_id":"cebpf4jnsgd1na2vs0mg"},{"bike_id":"334e9934-b727-4859-880b-52e13ff2899f","system_id":"levelo_inurba_marseille","lat":43.32041,"lon":5.41555,"is_reserved":false,"is_disabled":false,"rental_uris":{"android":"levelo://app?vid=334e9934-b727-4859-880b-52e13ff2899f","ios":"levelo://app?vid=334e9934-b727-4859-880b-52e13ff2899f"},"vehicle_type_id":"4","last_reported":1760785620,"current_range_meters":11200,"station_id":"ce4bhq92rcd13ifvqhkg","pricing_plan_id":"cebpf4jnsgd1na2vs0mg"},{"bike_id":"c0a1a78b-11ac-4218-8e69-5bcabc2afa26","system_id":"levelo_inurba_marseille","lat":43.28048,"lon":5.36945,"is_reserved":false,"is_disabled":false,"rental_uris":{"android":"levelo://app?vid=c0a1a78b-11ac-4218-8e69-5bcabc2afa26","ios":"levelo://app?vid=c0a1a78b-11ac-4218-8e69-5bcabc2afa26"},"vehicle_type_id":"4","last_reported":1760785620,"current_range_meters":11200,"station_id":"ce4bha12rcd13ifvqef0","pricing_plan_id":"cebpf4jnsgd1na2vs0mg"},{"bike_id":"f93cd2a0-fd80-4ae4-86fe-1f767d8cc36c","system_id":"levelo_inurba_marseille","lat":43.30538,"lon":5.36545,"is_reserved":false,"is_disabled":false,"rental_uris":{"android":"levelo://app?vid=f93cd2a0-fd80-4ae4-86fe-1f767d8cc36c","ios":"levelo://app?vid=f93cd2a0-fd80-4ae4-86fe-1f767d8cc36c"},"vehicle_type_id":"4","last_reported":1760785620,"current_range_meters":11600,"station_id":"ce4bgs12rcd13ifvqcag","pricing_plan_id":"cebpf4jnsgd1na2vs0mg"},{"bike_id":"75b02a51-1325-435e-9661-29bb451a696a","system_id":"levelo_inurba_marseille","lat":43.31448,"lon":5.38488,"is_reserved":false,"is_disabled":false,"rental_uris":{"android":"levelo://app?vid=75b02a51-1325-435e-9661-29bb451a696a","ios":"levelo://app?vid=75b02a51-1325-435e-9661-29bb451a696a"},"vehicle_type_id":"4","last_reported":1760785620,"current_range_meters":11600,"station_id":"","pricing_plan_id":"cebpf4jnsgd1na2vs0mg"},{"bike_id":"a2041a0e-0549-490e-8bae-b4f7562275c2","system_id":"levelo_inurba_marseille","lat":43.284151,"lon":5.349774,"is_reserved":false,"is_disabled":false,"rental_uris":{"android":"levelo://app?vid=a2041a0e-0549-490e-8bae-b4f7562275c2","ios":"levelo://app?vid=a2041a0e-0549-490e-8bae-b4f7562275c2"},"vehicle_type_id":"4","last_reported":1760785620,"current_range_meters":11600,"station_id":"","pricing_plan_id":"cebpf4jnsgd1na2vs0mg"},{"bike_id":"6230d04f-515b-4e25-9514-543c606c85b2","system_id":"levelo_inurba_marseille","lat":43.29494,"lon":5.43308,"is_reserved":false,"is_disabled":false,"rental_uris":{"android":"levelo://app?vid=6230d04f-515b-4e25-9514-543c606c85b2","ios":"levelo://app?vid=6230d04f-515b-4e25-9514-543c606c85b2"},"vehicle_type_id":"4","last_reported":1760785620,"current_range_meters":11600,"station_id":"st_d3j5ugp08ojc73fj9d10","pricing_plan_id":"cebpf4jnsgd1na2vs0mg"},{"bike_id":"e5227e84-1f04-40cb-9893-598d6a21fc27","system_id":"levelo_inurba_marseille","lat":43.21747,"lon":5.34604,"is_reserved":false,"is_disabled":false,"rental_uris":{"android":"levelo://app?vid=e5227e84-1f04-40cb-9893-598d6a21fc27","ios":"levelo://app?vid=e5227e84-1f04-40cb-9893-598d6a21fc27"},"vehicle_type_id":"4","last_reported":1760785620,"current_range_meters":12000,"station_id":"st_cvj6r9ubvosntc0bgbag","pricing_plan_id":"cebpf4jnsgd1na2vs0mg"},{"bike_id":"13602366-f220-4faa-adc2-56e0b4a84c9c","system_id":"levelo_inurba_marseille","lat":43.29903,"lon":5.43667,"is_reserved":false,"is_disabled":true,"rental_uris":{"android":"levelo://app?vid=13602366-f220-4faa-adc2-56e0b4a84c9c","ios":"levelo://app?vid=13602366-f220-4faa-adc2-56e0b4a84c9c"},"vehicle_type_id":"4","last_reported":1760785620,"current_range_meters":12000,"station_id":"ce4bhpp2rcd13ifvqhfg","pricing_plan_id":"cebpf4jnsgd1na2vs0mg"},{"bike_id":"e082eb77-dff0-4841-8bc1-1b3492c0d507","system_id":"levelo_inurba_marseille","lat":43.27998,"lon":5.4165,"is_reserved":false,"is_disabled":false,"rental_uris":{"android":"levelo://app?vid=e082eb77-dff0-4841-8bc1-1b3492c0d507","ios":"levelo://app?vid=e082eb77-dff0-4841-8bc1-1b3492c0d507"},"vehicle_type_id":"4","last_reported":1760785620,"current_range_meters":12000,"station_id":"ce4bho12rcd13ifvqh1g","pricing_plan_id":"cebpf4jnsgd1na2vs0mg"},{"bike_id":"fad2b63f-2533-4c97-b3d2-88d6a2206de6","system_id":"levelo_inurba_marseille","lat":43.28413,"lon":5.34982,"is_reserved":false,"is_disabled":false,"rental_uris":{"android":"levelo://app?vid=fad2b63f-2533-4c97-b3d2-88d6a2206de6","ios":"levelo://app?vid=fad2b63f-2533-4c97-b3d2-88d6a2206de6"},"vehicle_type_id":"4","last_reported":1760785620,"current_range_meters":12400,"station_id":"ce4bhbh2rcd13ifvqepg","pricing_plan_id":"cebpf4jnsgd1na2vs0mg"},{"bike_id":"0b170382-a38a-48fc-b060-b901de311f1a","system_id":"levelo_inurba_marseille","lat":43.33047,"lon":5.39024,"is_reserved":false,"is_disabled":false,"rental_uris":{"android":"levelo://app?vid=0b170382-a38a-48fc-b060-b901de311f1a","ios":"levelo://app?vid=0b170382-a38a-48fc-b060-b901de311f1a"},"vehicle_type_id":"4","last_reported":1760785620,"current_range_meters":12400,"station_id":"ce4bhr92rcd13ifvqhrg","pricing_plan_id":"cebpf4jnsgd1na2vs0mg"},{"bike_id":"7cfc1bc3-025b-48bb-b9f7-97c89602159c","system_id":"levelo_inurba_marseille","lat":43.29429,"lon":5.39761,"is_reserved":false,"is_disabled":false,"rental_uris":{"android":"levelo://app?vid=7cfc1bc3-025b-48bb-b9f7-97c89602159c","ios":"levelo://app?vid=7cfc1bc3-025b-48bb-b9f7-97c89602159c"},"vehicle_type_id":"4","last_reported":1760785620,"current_range_meters":12400,"station_id":"ce4bh3h2rcd13ifvqdo0","pricing_plan_id":"cebpf4jnsgd1na2vs0mg"},{"bike_id":"6ffee3f4-5c98-48cb-9f1f-5bce901d89e5","system_id":"levelo_inurba_marseille","lat":43.23193,"lon":5.35555,"is_reserved":false,"is_disabled":false,"rental_uris":{"android":"levelo://app?vid=6ffee3f4-5c98-48cb-9f1f-5bce901d89e5","ios":"levelo://app?vid=6ffee3f4-5c98-48cb-9f1f-5bce901d89e5"},"vehicle_type_id":"4","last_reported":1760785620,"current_range_meters":12400,"station_id":"ce4bhu92rcd13ifvqi70","pricing_plan_id":"cebpf4jnsgd1na2vs0mg"},{"bike_id":"b8f8ca8d-d53b-4804-b280-f484f1b8b7a0","system_id":"levelo_inurba_marseille","lat":43.28038,"lon":5.369551,"is_reserved":false,"is_disabled":false,"rental_uris":{"android":"levelo://app?vid=b8f8ca8d-d53b-4804-b280-f484f1b8b7a0","ios":"levelo://app?vid=b8f8ca8d-d53b-4804-b280-f484f1b8b7a0"},"vehicle_type_id":"4","last_reported":1760785620,"current_range_meters":12400,"station_id":"ce4bha12rcd13ifvqef0","pricing_plan_id":"cebpf4jnsgd1na2vs0mg"},{"bike_id":"8c30526d-4d62-49e0-92a1-2ed039e24496","system_id":"levelo_inurba_marseille","lat":43.287035,"lon":5.383016,"is_reserved":false,"is_disabled":false,"rental_uris":{"android":"levelo://app?vid=8c30526d-4d62-49e0-92a1-2ed039e24496","ios":"levelo://app?vid=8c30526d-4d62-49e0-92a1-2ed039e24496"},"vehicle_type_id":"4","last_reported":1760785620,"current_range_meters":12800,"station_id":"","pricing_plan_id":"cebpf4jnsgd1na2vs0mg"},{"bike_id":"21631171-feb8-4b2d-b2fd-890648fc13a9","system_id":"levelo_inurba_marseille","lat":43.26554,"lon":5.37286,"is_reserved":false,"is_disabled":false,"rental_uris":{"android":"levelo://app?vid=21631171-feb8-4b2d-b2fd-890648fc13a9","ios":"levelo://app?vid=21631171-feb8-4b2d-b2fd-890648fc13a9"},"vehicle_type_id":"4","last_reported":1760785620,"current_range_meters":12800,"station_id":"ce4bhg12rcd13ifvqf70","pricing_plan_id":"cebpf4jnsgd1na2vs0mg"},{"bike_id":"10016a10-06c9-440f-a456-6a26a5cd8dfd","system_id":"levelo_inurba_marseille","lat":43.23951,"lon":5.36633,"is_reserved":false,"is_disabled":true,"rental_uris":{"android":"levelo://app?vid=10016a10-06c9-440f-a456-6a26a5cd8dfd","ios":"levelo://app?vid=10016a10-06c9-440f-a456-6a26a5cd8dfd"},"vehicle_type_id":"4","last_reported":1760785620,"current_range_meters":13600,"station_id":"ce4bhi12rcd13ifvqfp0","pricing_plan_id":"cebpf4jnsgd1na2vs0mg"},{"bike_id":"7e98c73c-0daf-470c-8187-471fc9a15ebd","system_id":"levelo_inurba_marseille","lat":43.24173,"lon":5.36383,"is_reserved":false,"is_disabled":false,"rental_uris":{"android":"levelo://app?vid=7e98c73c-0daf-470c-8187-471fc9a15ebd","ios":"levelo://app?vid=7e98c73c-0daf-470c-8187-471fc9a15ebd"},"vehicle_type_id":"4","last_reported":1760785620,"current_range_meters":13600,"station_id":"cpo36qri1sfpv3e86is0","pricing_plan_id":"cebpf4jnsgd1na2vs0mg"},{"bike_id":"e427aaaf-ebc8-4540-808e-fa07955f06df","system_id":"levelo_inurba_marseille","lat":43.25871,"lon":5.39412,"is_reserved":false,"is_disabled":false,"rental_uris":{"android":"levelo://app?vid=e427aaaf-ebc8-4540-808e-fa07955f06df","ios":"levelo://app?vid=e427aaaf-ebc8-4540-808e-fa07955f06df"},"vehicle_type_id":"4","last_reported":1760785620,"current_range_meters":13600,"station_id":"","pricing_plan_id":"cebpf4jnsgd1na2vs0mg"},{"bike_id":"d414b289-5cc2-4a85-92e2-d89ed29bf121","system_id":"levelo_inurba_marseille","lat":43.29913,"lon":5.4366,"is_reserved":false,"is_disabled":false,"rental_uris":{"android":"levelo://app?vid=d414b289-5cc2-4a85-92e2-d89ed29bf121","ios":"levelo://app?vid=d414b289-5cc2-4a85-92e2-d89ed29bf121"},"vehicle_type_id":"4","last_reported":1760785620,"current_range_meters":13600,"station_id":"ce4bhpp2rcd13ifvqhfg","pricing_plan_id":"cebpf4jnsgd1na2vs0mg"},{"bike_id":"b35843bb-8826-4f0d-a706-15255e94599e","system_id":"levelo_inurba_marseille","lat":43.27931,"lon":5.40378,"is_reserved":false,"is_disabled":false,"rental_uris":{"android":"levelo://app?vid=b35843bb-8826-4f0d-a706-15255e94599e","ios":"levelo://app?vid=b35843bb-8826-4f0d-a706-15255e94599e"},"vehicle_type_id":"4","last_reported":1760785620,"current_range_meters":13600,"station_id":"","pricing_plan_id":"cebpf4jnsgd1na2vs0mg"},{"bike_id":"499e5b10-0c05-4668-bb27-23e73d7521cd","system_id":"levelo_inurba_marseille","lat":43.251078,"lon":5.403213,"is_reserved":false,"is_disabled":false,"rental_uris":{"android":"levelo://app?vid=499e5b10-0c05-4668-bb27-23e73d7521cd","ios":"levelo://app?vid=499e5b10-0c05-4668-bb27-23e73d7521cd"},"vehicle_type_id":"4","last_reported":1760785620,"current_range_meters":13600,"station_id":"ce4bhlh2rcd13ifvqgig","pricing_plan_id":"cebpf4jnsgd1na2vs0mg"},{"bike_id":"0a414463-fe1a-4833-8a11-178a3c2c879a","system_id":"levelo_inurba_marseille","lat":43.29852,"lon":5.37897,"is_reserved":false,"is_disabled":false,"rental_uris":{"android":"levelo://app?vid=0a414463-fe1a-4833-8a11-178a3c2c879a","ios":"levelo://app?vid=0a414463-fe1a-4833-8a11-178a3c2c879a"},"vehicle_type_id":"4","last_reported":1760785620,"current_range_meters":14000,"station_id":"","pricing_plan_id":"cebpf4jnsgd1na2vs0mg"},{"bike_id":"ea883585-d0e4-4bcb-922c-57b2a3efdeac","system_id":"levelo_inurba_marseille","lat":43.30512,"lon":5.3681,"is_reserved":false,"is_disabled":false,"rental_uris":{"android":"levelo://app?vid=ea883585-d0e4-4bcb-922c-57b2a3efdeac","ios":"levelo://app?vid=ea883585-d0e4-4bcb-922c-57b2a3efdeac"},"vehicle_type_id":"4","last_reported":1760785620,"current_range_meters":14000,"station_id":"","pricing_plan_id":"cebpf4jnsgd1na2vs0mg"},{"bike_id":"4854c209-fce1-4834-be13-07df249b1ab8","system_id":"levelo_inurba_marseille","lat":43.211918,"lon":5.350793,"is_reserved":false,"is_disabled":false,"rental_uris":{"android":"levelo://app?vid=4854c209-fce1-4834-be13-07df249b1ab8","ios":"levelo://app?vid=4854c209-fce1-4834-be13-07df249b1ab8"},"vehicle_type_id":"4","last_reported":1760785620,"current_range_meters":14400,"station_id":"","pricing_plan_id":"cebpf4jnsgd1na2vs0mg"},{"bike_id":"e4c64875-bd7a-4464-a273-73ca51a12ab5","system_id":"levelo_inurba_marseille","lat":43.25878,"lon":5.39896,"is_reserved":false,"is_disabled":false,"rental_uris":{"android":"levelo://app?vid=e4c64875-bd7a-4464-a273-73ca51a12ab5","ios":"levelo://app?vid=e4c64875-bd7a-4464-a273-73ca51a12ab5"},"vehicle_type_id":"4","last_reported":1760785620,"current_range_meters":14400,"station_id":"ce4bhl92rcd13ifvqghg","pricing_plan_id":"cebpf4jnsgd1na2vs0mg"},{"bike_id":"8df55d1c-f117-4d7e-bf77-2c1831e1b3d7","system_id":"levelo_inurba_marseille","lat":43.23781,"lon":5.36636,"is_reserved":false,"is_disabled":false,"rental_uris":{"android":"levelo://app?vid=8df55d1c-f117-4d7e-bf77-2c1831e1b3d7","ios":"levelo://app?vid=8df55d1c-f117-4d7e-bf77-2c1831e1b3d7"},"vehicle_type_id":"4","last_reported":1760785620,"current_range_meters":14400,"station_id":"st_d3nk18o9ro0c73en2l3g","pricing_plan_id":"cebpf4jnsgd1na2vs0mg"},{"bike_id":"914ee771-300c-4322-bbb6-64019d3a52bf","system_id":"levelo_inurba_marseille","lat":43.33024,"lon":5.39041,"is_reserved":false,"is_disabled":false,"rental_uris":{"android":"levelo://app?vid=914ee771-300c-4322-bbb6-64019d3a52bf","ios":"levelo://app?vid=914ee771-300c-4322-bbb6-64019d3a52bf"},"vehicle_type_id":"4","last_reported":1760785620,"current_range_meters":14400,"station_id":"ce4bhr92rcd13ifvqhrg","pricing_plan_id":"cebpf4jnsgd1na2vs0mg"},{"bike_id":"b1db1391-3474-48f3-85bd-dfc79b190eda","system_id":"levelo_inurba_marseille","lat":43.29299,"lon":5.36103,"is_reserved":false,"is_disabled":false,"rental_uris":{"android":"levelo://app?vid=b1db1391-3474-48f3-85bd-dfc79b190eda","ios":"levelo://app?vid=b1db1391-3474-48f3-85bd-dfc79b190eda"},"vehicle_type_id":"4","last_reported":1760785620,"current_range_meters":14400,"station_id":"","pricing_plan_id":"cebpf4jnsgd1na2vs0mg"},{"bike_id":"ae6eb0f2-4874-4ceb-8d8c-7385a8266f58","system_id":"levelo_inurba_marseille","lat":43.29533,"lon":5.37918,"is_reserved":false,"is_disabled":false,"rental_uris":{"android":"levelo://app?vid=ae6eb0f2-4874-4ceb-8d8c-7385a8266f58","ios":"levelo://app?vid=ae6eb0f2-4874-4ceb-8d8c-7385a8266f58"},"vehicle_type_id":"4","last_reported":1760785620,"current_range_meters":14400,"station_id":"","pricing_plan_id":"cebpf4jnsgd1na2vs0mg"},{"bike_id":"23d41a40-c2c8-4b1b-ab87-58223543eb75","system_id":"levelo_inurba_marseille","lat":43.24172,"lon":5.36396,"is_reserved":false,"is_disabled":false,"rental_uris":{"android":"levelo://app?vid=23d41a40-c2c8-4b1b-ab87-58223543eb75","ios":"levelo://app?vid=23d41a40-c2c8-4b1b-ab87-58223543eb75"},"vehicle_type_id":"4","last_reported":1760785620,"current_range_meters":14800,"station_id":"cpo36qri1sfpv3e86is0","pricing_plan_id":"cebpf4jnsgd1na2vs0mg"},{"bike_id":"fd314a9d-f78f-4c54-ba38-b83db037eb7d","system_id":"levelo_inurba_marseille","lat":43.21196,"lon":5.3508,"is_reserved":false,"is_disabled":false,"rental_uris":{"android":"levelo://app?vid=fd314a9d-f78f-4c54-ba38-b83db037eb7d","ios":"levelo://app?vid=fd314a9d-f78f-4c54-ba38-b83db037eb7d"},"vehicle_type_id":"4","last_reported":1760785620,"current_range_meters":14800,"station_id":"","pricing_plan_id":"cebpf4jnsgd1na2vs0mg"},{"bike_id":"c8e7e487-2046-4072-98bc-53764ffcd62b","system_id":"levelo_inurba_marseille","lat":43.25832,"lon":5.3943,"is_reserved":false,"is_disabled":true,"rental_uris":{"android":"levelo://app?vid=c8e7e487-2046-4072-98bc-53764ffcd62b","ios":"levelo://app?vid=c8e7e487-2046-4072-98bc-53764ffcd62b"},"vehicle_type_id":"4","last_reported":1760785620,"current_range_meters":15200,"station_id":"ce4bhip2rcd13ifvqft0","pricing_plan_id":"cebpf4jnsgd1na2vs0mg"},{"bike_id":"5c984b9a-d3ae-46a5-8510-44106865f7d4","system_id":"levelo_inurba_marseille","lat":43.28614,"lon":5.35104,"is_reserved":false,"is_disabled":false,"rental_uris":{"android":"levelo://app?vid=5c984b9a-d3ae-46a5-8510-44106865f7d4","ios":"levelo://app?vid=5c984b9a-d3ae-46a5-8510-44106865f7d4"},"vehicle_type_id":"4","last_reported":1760785620,"current_range_meters":15200,"station_id":"ce4bhch2rcd13ifvqeug","pricing_plan_id":"cebpf4jnsgd1na2vs0mg"},{"bike_id":"1382b748-840e-4ecc-afc5-0fb4eeaeb841","system_id":"levelo_inurba_marseille","lat":43.311121,"lon":5.37767,"is_reserved":false,"is_disabled":false,"rental_uris":{"android":"levelo://app?vid=1382b748-840e-4ecc-afc5-0fb4eeaeb841","ios":"levelo://app?vid=1382b748-840e-4ecc-afc5-0fb4eeaeb841"},"vehicle_type_id":"4","last_reported":1760785620,"current_range_meters":15200,"station_id":"ce4bgt92rcd13ifvqcg0","pricing_plan_id":"cebpf4jnsgd1na2vs0mg"},{"bike_id":"b5384ef3-f722-490e-a099-66d8c4d1cd6b","system_id":"levelo_inurba_marseille","lat":43.28542,"lon":5.44111,"is_reserved":false,"is_disabled":false,"rental_uris":{"android":"levelo://app?vid=b5384ef3-f722-490e-a099-66d8c4d1cd6b","ios":"levelo://app?vid=b5384ef3-f722-490e-a099-66d8c4d1cd6b"},"vehicle_type_id":"4","last_reported":1760785620,"current_range_meters":15200,"station_id":"st_d3j3df2ikq2c7380ej80","pricing_plan_id":"cebpf4jnsgd1na2vs0mg"},{"bike_id":"fa68b210-55bb-4a86-a8f5-f651a77004e6","system_id":"levelo_inurba_marseille","lat":43.23201,"lon":5.35555,"is_reserved":false,"is_disabled":false,"rental_uris":{"android":"levelo://app?vid=fa68b210-55bb-4a86-a8f5-f651a77004e6","ios":"levelo://app?vid=fa68b210-55bb-4a86-a8f5-f651a77004e6"},"vehicle_type_id":"4","last_reported":1760785620,"current_range_meters":15200,"station_id":"ce4bhu92rcd13ifvqi70","pricing_plan_id":"cebpf4jnsgd1na2vs0mg"},{"bike_id":"4ffaffa9-a673-4f0c-b5d0-06335f8b50bf","system_id":"levelo_inurba_marseille","lat":43.30461,"lon":5.37902,"is_reserved":false,"is_disabled":false,"rental_uris":{"android":"levelo://app?vid=4ffaffa9-a673-4f0c-b5d0-06335f8b50bf","ios":"levelo://app?vid=4ffaffa9-a673-4f0c-b5d0-06335f8b50bf"},"vehicle_type_id":"4","last_reported":1760785620,"current_range_meters":15200,"station_id":"ce4bgup2rcd13ifvqcn0","pricing_plan_id":"cebpf4jnsgd1na2vs0mg"},{"bike_id":"25bd64c9-91bc-4c74-b712-6d069cdfe34d","system_id":"levelo_inurba_marseille","lat":43.32118,"lon":5.36776,"is_reserved":false,"is_disabled":false,"rental_uris":{"android":"levelo://app?vid=25bd64c9-91bc-4c74-b712-6d069cdfe34d","ios":"levelo://app?vid=25bd64c9-91bc-4c74-b712-6d069cdfe34d"},"vehicle_type_id":"4","last_reported":1760785620,"current_range_meters":16000,"station_id":"ce4bhrh2rcd13ifvqhug","pricing_plan_id":"cebpf4jnsgd1na2vs0mg"},{"bike_id":"b903c9e4-aca5-4c82-908f-1602a2c69b3c","system_id":"levelo_inurba_marseille","lat":43.30428,"lon":5.39745,"is_reserved":false,"is_disabled":false,"rental_uris":{"android":"levelo://app?vid=b903c9e4-aca5-4c82-908f-1602a2c69b3c","ios":"levelo://app?vid=b903c9e4-aca5-4c82-908f-1602a2c69b3c"},"vehicle_type_id":"4","last_reported":1760785620,"current_range_meters":16000,"station_id":"ce4bh092rcd13ifvqd20","pricing_plan_id":"cebpf4jnsgd1na2vs0mg"},{"bike_id":"81e2005e-24eb-402b-92c9-ffb66a9802cc","system_id":"levelo_inurba_marseille","lat":43.21765,"lon":5.34592,"is_reserved":false,"is_disabled":false,"rental_uris":{"android":"levelo://app?vid=81e2005e-24eb-402b-92c9-ffb66a9802cc","ios":"levelo://app?vid=81e2005e-24eb-402b-92c9-ffb66a9802cc"},"vehicle_type_id":"4","last_reported":1760785620,"current_range_meters":16000,"station_id":"st_cvj6r9ubvosntc0bgbag","pricing_plan_id":"cebpf4jnsgd1na2vs0mg"},{"bike_id":"365b1110-8604-4b2d-ad9b-3263b8a258f2","system_id":"levelo_inurba_marseille","lat":43.28655,"lon":5.3634,"is_reserved":false,"is_disabled":false,"rental_uris":{"android":"levelo://app?vid=365b1110-8604-4b2d-ad9b-3263b8a258f2","ios":"levelo://app?vid=365b1110-8604-4b2d-ad9b-3263b8a258f2"},"vehicle_type_id":"4","last_reported":1760785620,"current_range_meters":16000,"station_id":"ce4bhah2rcd13ifvqej0","pricing_plan_id":"cebpf4jnsgd1na2vs0mg"},{"bike_id":"25ed3717-f91b-4196-aeec-bd6ef906b6ec","system_id":"levelo_inurba_marseille","lat":43.25583,"lon":5.38247,"is_reserved":false,"is_disabled":false,"rental_uris":{"android":"levelo://app?vid=25ed3717-f91b-4196-aeec-bd6ef906b6ec","ios":"levelo://app?vid=25ed3717-f91b-4196-aeec-bd6ef906b6ec"},"vehicle_type_id":"4","last_reported":1760785620,"current_range_meters":16000,"station_id":"ce4bhih2rcd13ifvqfs0","pricing_plan_id":"cebpf4jnsgd1na2vs0mg"},{"bike_id":"a9df1999-35ba-4aea-bf41-5ab7d43175f1","system_id":"levelo_inurba_marseille","lat":43.24806,"lon":5.37458,"is_reserved":false,"is_disabled":false,"rental_uris":{"android":"levelo://app?vid=a9df1999-35ba-4aea-bf41-5ab7d43175f1","ios":"levelo://app?vid=a9df1999-35ba-4aea-bf41-5ab7d43175f1"},"vehicle_type_id":"4","last_reported":1760785620,"current_range_meters":16000,"station_id":"ce4bhgh2rcd13ifvqfb0","pricing_plan_id":"cebpf4jnsgd1na2vs0mg"},{"bike_id":"fececac8-6143-4864-9771-d1440c2a93fa","system_id":"levelo_inurba_marseille","lat":43.3014,"lon":5.38058,"is_reserved":false,"is_disabled":false,"rental_uris":{"android":"levelo://app?vid=fececac8-6143-4864-9771-d1440c2a93fa","ios":"levelo://app?vid=fececac8-6143-4864-9771-d1440c2a93fa"},"vehicle_type_id":"4","last_reported":1760785620,"current_range_meters":16000,"station_id":"ce4bgjp2rcd13ifvqbh0","pricing_plan_id":"cebpf4jnsgd1na2vs0mg"},{"bike_id":"05029208-e2a4-4c44-9426-d260dab5b35f","system_id":"levelo_inurba_marseille","lat":43.30148,"lon":5.38084,"is_reserved":false,"is_disabled":false,"rental_uris":{"android":"levelo://app?vid=05029208-e2a4-4c44-9426-d260dab5b35f","ios":"levelo://app?vid=05029208-e2a4-4c44-9426-d260dab5b35f"},"vehicle_type_id":"4","last_reported":1760785620,"current_range_meters":16000,"station_id":"ce4bgjp2rcd13ifvqbh0","pricing_plan_id":"cebpf4jnsgd1na2vs0mg"},{"bike_id":"ac6d2c4d-74a8-443d-a9f9-0d9807feacda","system_id":"levelo_inurba_marseille","lat":43.33772,"lon":5.37469,"is_reserved":false,"is_disabled":false,"rental_uris":{"android":"levelo://app?vid=ac6d2c4d-74a8-443d-a9f9-0d9807feacda","ios":"levelo://app?vid=ac6d2c4d-74a8-443d-a9f9-0d9807feacda"},"vehicle_type_id":"4","last_reported":1760785620,"current_range_meters":16000,"station_id":"","pricing_plan_id":"cebpf4jnsgd1na2vs0mg"},{"bike_id":"aa1879b4-3b59-4b9b-9f21-1f7c871f497b","system_id":"levelo_inurba_marseille","lat":43.29003,"lon":5.35607,"is_reserved":false,"is_disabled":false,"rental_uris":{"android":"levelo://app?vid=aa1879b4-3b59-4b9b-9f21-1f7c871f497b","ios":"levelo://app?vid=aa1879b4-3b59-4b9b-9f21-1f7c871f497b"},"vehicle_type_id":"4","last_reported":1760785620,"current_range_meters":16000,"station_id":"ce4bhb92rcd13ifvqen0","pricing_plan_id":"cebpf4jnsgd1na2vs0mg"},{"bike_id":"c55083d7-e5bf-4849-b8d6-26d228e62887","system_id":"levelo_inurba_marseille","lat":43.28536,"lon":5.44095,"is_reserved":false,"is_disabled":false,"rental_uris":{"android":"levelo://app?vid=c55083d7-e5bf-4849-b8d6-26d228e62887","ios":"levelo://app?vid=c55083d7-e5bf-4849-b8d6-26d228e62887"},"vehicle_type_id":"4","last_reported":1760785620,"current_range_meters":16000,"station_id":"st_d3j3df2ikq2c7380ej80","pricing_plan_id":"cebpf4jnsgd1na2vs0mg"},{"bike_id":"838f1281-243d-4dab-b767-d2b2473d95f0","system_id":"levelo_inurba_marseille","lat":43.217475,"lon":5.346038,"is_reserved":false,"is_disabled":false,"rental_uris":{"android":"levelo://app?vid=838f1281-243d-4dab-b767-d2b2473d95f0","ios":"levelo://app?vid=838f1281-243d-4dab-b767-d2b2473d95f0"},"vehicle_type_id":"4","last_reported":1760785620,"current_range_meters":16000,"station_id":"st_cvj6r9ubvosntc0bgbag","pricing_plan_id":"cebpf4jnsgd1na2vs0mg"},{"bike_id":"074be791-6c38-4f2f-8dd0-b227e073e27e","system_id":"levelo_inurba_marseille","lat":43.24173,"lon":5.3639,"is_reserved":false,"is_disabled":false,"rental_uris":{"android":"levelo://app?vid=074be791-6c38-4f2f-8dd0-b227e073e27e","ios":"levelo://app?vid=074be791-6c38-4f2f-8dd0-b227e073e27e"},"vehicle_type_id":"4","last_reported":1760785620,"current_range_meters":16400,"station_id":"cpo36qri1sfpv3e86is0","pricing_plan_id":"cebpf4jnsgd1na2vs0mg"},{"bike_id":"6426e4fa-7f79-410d-acfa-0a51b3b2658a","system_id":"levelo_inurba_marseille","lat":43.3125,"lon":5.40398,"is_reserved":false,"is_disabled":false,"rental_uris":{"android":"levelo://app?vid=6426e4fa-7f79-410d-acfa-0a51b3b2658a","ios":"levelo://app?vid=6426e4fa-7f79-410d-acfa-0a51b3b2658a"},"vehicle_type_id":"4","last_reported":1760785620,"current_range_meters":16400,"station_id":"","pricing_plan_id":"cebpf4jnsgd1na2vs0mg"},{"bike_id":"3f13991a-43fd-4b49-b31a-f84d43d4b745","system_id":"levelo_inurba_marseille","lat":43.28977,"lon":5.37173,"is_reserved":false,"is_disabled":false,"rental_uris":{"android":"levelo://app?vid=3f13991a-43fd-4b49-b31a-f84d43d4b745","ios":"levelo://app?vid=3f13991a-43fd-4b49-b31a-f84d43d4b745"},"vehicle_type_id":"4","last_reported":1760785620,"current_range_meters":16400,"station_id":"","pricing_plan_id":"cebpf4jnsgd1na2vs0mg"},{"bike_id":"bf2c3617-0e72-4f4a-8585-0c63bcbc4fce","system_id":"levelo_inurba_marseille","lat":43.28612,"lon":5.35103,"is_reserved":false,"is_disabled":true,"rental_uris":{"android":"levelo://app?vid=bf2c3617-0e72-4f4a-8585-0c63bcbc4fce","ios":"levelo://app?vid=bf2c3617-0e72-4f4a-8585-0c63bcbc4fce"},"vehicle_type_id":"4","last_reported":1760785620,"current_range_meters":16400,"station_id":"ce4bhch2rcd13ifvqeug","pricing_plan_id":"cebpf4jnsgd1na2vs0mg"},{"bike_id":"d712d0ff-3096-41ad-87d0-b640167ff060","system_id":"levelo_inurba_marseille","lat":43.31541,"lon":5.38512,"is_reserved":false,"is_disabled":false,"rental_uris":{"android":"levelo://app?vid=d712d0ff-3096-41ad-87d0-b640167ff060","ios":"levelo://app?vid=d712d0ff-3096-41ad-87d0-b640167ff060"},"vehicle_type_id":"4","last_reported":1760785620,"current_range_meters":16400,"station_id":"","pricing_plan_id":"cebpf4jnsgd1na2vs0mg"},{"bike_id":"cf4c14bf-7635-4f96-a4b6-ee6481db3804","system_id":"levelo_inurba_marseille","lat":43.32293,"lon":5.38287,"is_reserved":false,"is_disabled":false,"rental_uris":{"android":"levelo://app?vid=cf4c14bf-7635-4f96-a4b6-ee6481db3804","ios":"levelo://app?vid=cf4c14bf-7635-4f96-a4b6-ee6481db3804"},"vehicle_type_id":"4","last_reported":1760785620,"current_range_meters":16400,"station_id":"ce4bhr12rcd13ifvqhqg","pricing_plan_id":"cebpf4jnsgd1na2vs0mg"},{"bike_id":"3e9130f7-2dc2-48e9-a6a6-56327ea869ab","system_id":"levelo_inurba_marseille","lat":43.241668,"lon":5.363942,"is_reserved":false,"is_disabled":false,"rental_uris":{"android":"levelo://app?vid=3e9130f7-2dc2-48e9-a6a6-56327ea869ab","ios":"levelo://app?vid=3e9130f7-2dc2-48e9-a6a6-56327ea869ab"},"vehicle_type_id":"4","last_reported":1760785620,"current_range_meters":16400,"station_id":"cpo36qri1sfpv3e86is0","pricing_plan_id":"cebpf4jnsgd1na2vs0mg"},{"bike_id":"a7b3764b-b896-4840-bd7e-9880973af195","system_id":"levelo_inurba_marseille","lat":43.292287,"lon":5.360602,"is_reserved":false,"is_disabled":false,"rental_uris":{"android":"levelo://app?vid=a7b3764b-b896-4840-bd7e-9880973af195","ios":"levelo://app?vid=a7b3764b-b896-4840-bd7e-9880973af195"},"vehicle_type_id":"4","last_reported":1760785620,"current_range_meters":16400,"station_id":"","pricing_plan_id":"cebpf4jnsgd1na2vs0mg"},{"bike_id":"450389c3-960c-4328-be5d-321b14502538","system_id":"levelo_inurba_marseille","lat":43.23959,"lon":5.3663,"is_reserved":false,"is_disabled":false,"rental_uris":{"android":"levelo://app?vid=450389c3-960c-4328-be5d-321b14502538","ios":"levelo://app?vid=450389c3-960c-4328-be5d-321b14502538"},"vehicle_type_id":"4","last_reported":1760785620,"current_range_meters":16400,"station_id":"ce4bhi12rcd13ifvqfp0","pricing_plan_id":"cebpf4jnsgd1na2vs0mg"},{"bike_id":"37df761f-1566-4f72-a6b2-e45efea606d1","system_id":"levelo_inurba_marseille","lat":43.27919,"lon":5.39579,"is_reserved":false,"is_disabled":false,"rental_uris":{"android":"levelo://app?vid=37df761f-1566-4f72-a6b2-e45efea606d1","ios":"levelo://app?vid=37df761f-1566-4f72-a6b2-e45efea606d1"},"vehicle_type_id":"4","last_reported":1760785620,"current_range_meters":16400,"station_id":"ce4bhf92rcd13ifvqf40","pricing_plan_id":"cebpf4jnsgd1na2vs0mg"},{"bike_id":"b717240f-f7ff-401f-886b-8670ee4986c4","system_id":"levelo_inurba_marseille","lat":43.31322,"lon":5.39694,"is_reserved":false,"is_disabled":false,"rental_uris":{"android":"levelo://app?vid=b717240f-f7ff-401f-886b-8670ee4986c4","ios":"levelo://app?vid=b717240f-f7ff-401f-886b-8670ee4986c4"},"vehicle_type_id":"4","last_reported":1760785620,"current_range_meters":16400,"station_id":"ce4bgvp2rcd13ifvqcu0","pricing_plan_id":"cebpf4jnsgd1na2vs0mg"},{"bike_id":"a871b554-5c53-4ad7-9005-aa057a7bed08","system_id":"levelo_inurba_marseille","lat":43.2841,"lon":5.34999,"is_reserved":false,"is_disabled":false,"rental_uris":{"android":"levelo://app?vid=a871b554-5c53-4ad7-9005-aa057a7bed08","ios":"levelo://app?vid=a871b554-5c53-4ad7-9005-aa057a7bed08"},"vehicle_type_id":"4","last_reported":1760785620,"current_range_meters":16400,"station_id":"ce4bhbh2rcd13ifvqepg","pricing_plan_id":"cebpf4jnsgd1na2vs0mg"},{"bike_id":"c86efa65-0d7f-4ea0-91fd-02a7ce32d41a","system_id":"levelo_inurba_marseille","lat":43.28616,"lon":5.35103,"is_reserved":false,"is_disabled":false,"rental_uris":{"android":"levelo://app?vid=c86efa65-0d7f-4ea0-91fd-02a7ce32d41a","ios":"levelo://app?vid=c86efa65-0d7f-4ea0-91fd-02a7ce32d41a"},"vehicle_type_id":"4","last_reported":1760785620,"current_range_meters":16800,"station_id":"ce4bhch2rcd13ifvqeug","pricing_plan_id":"cebpf4jnsgd1na2vs0mg"},{"bike_id":"838aa66d-6981-4ac9-b6c1-d770c4877fde","system_id":"levelo_inurba_marseille","lat":43.27197,"lon":5.39157,"is_reserved":false,"is_disabled":false,"rental_uris":{"android":"levelo://app?vid=838aa66d-6981-4ac9-b6c1-d770c4877fde","ios":"levelo://app?vid=838aa66d-6981-4ac9-b6c1-d770c4877fde"},"vehicle_type_id":"4","last_reported":1760785620,"current_range_meters":16800,"station_id":"ce4bhhp2rcd13ifvqfm0","pricing_plan_id":"cebpf4jnsgd1na2vs0mg"},{"bike_id":"9fe23080-e461-4dd0-8023-6b23cc6c420c","system_id":"levelo_inurba_marseille","lat":43.295411,"lon":5.379458,"is_reserved":false,"is_disabled":false,"rental_uris":{"android":"levelo://app?vid=9fe23080-e461-4dd0-8023-6b23cc6c420c","ios":"levelo://app?vid=9fe23080-e461-4dd0-8023-6b23cc6c420c"},"vehicle_type_id":"4","last_reported":1760785620,"current_range_meters":16800,"station_id":"","pricing_plan_id":"cebpf4jnsgd1na2vs0mg"},{"bike_id":"0f935e3f-3b08-4632-aee2-43438e219df3","system_id":"levelo_inurba_marseille","lat":43.29224,"lon":5.3607,"is_reserved":false,"is_disabled":false,"rental_uris":{"android":"levelo://app?vid=0f935e3f-3b08-4632-aee2-43438e219df3","ios":"levelo://app?vid=0f935e3f-3b08-4632-aee2-43438e219df3"},"vehicle_type_id":"4","last_reported":1760785620,"current_range_meters":16800,"station_id":"ce4bhbh2rcd13ifvqeqg","pricing_plan_id":"cebpf4jnsgd1na2vs0mg"},{"bike_id":"d252b188-724f-452e-98b8-c669708cc7cc","system_id":"levelo_inurba_marseille","lat":43.29569,"lon":5.36716,"is_reserved":false,"is_disabled":false,"rental_uris":{"android":"levelo://app?vid=d252b188-724f-452e-98b8-c669708cc7cc","ios":"levelo://app?vid=d252b188-724f-452e-98b8-c669708cc7cc"},"vehicle_type_id":"4","last_reported":1760785620,"current_range_meters":16800,"station_id":"ce4bgph2rcd13ifvqc2g","pricing_plan_id":"cebpf4jnsgd1na2vs0mg"},{"bike_id":"6da9de72-3f1d-4789-a24f-e01432db5520","system_id":"levelo_inurba_marseille","lat":43.27185,"lon":5.4099,"is_reserved":false,"is_disabled":false,"rental_uris":{"android":"levelo://app?vid=6da9de72-3f1d-4789-a24f-e01432db5520","ios":"levelo://app?vid=6da9de72-3f1d-4789-a24f-e01432db5520"},"vehicle_type_id":"4","last_reported":1760785620,"current_range_meters":16800,"station_id":"ce4bhl12rcd13ifvqgf0","pricing_plan_id":"cebpf4jnsgd1na2vs0mg"},{"bike_id":"f4b21278-7a88-4f1e-8b50-4cb4a181722f","system_id":"levelo_inurba_marseille","lat":43.285352,"lon":5.441029,"is_reserved":false,"is_disabled":false,"rental_uris":{"android":"levelo://app?vid=f4b21278-7a88-4f1e-8b50-4cb4a181722f","ios":"levelo://app?vid=f4b21278-7a88-4f1e-8b50-4cb4a181722f"},"vehicle_type_id":"4","last_reported":1760785620,"current_range_meters":16800,"station_id":"st_d3j3df2ikq2c7380ej80","pricing_plan_id":"cebpf4jnsgd1na2vs0mg"},{"bike_id":"729b0120-d301-4c05-9244-843bc95c14d4","system_id":"levelo_inurba_marseille","lat":43.31362,"lon":5.38492,"is_reserved":false,"is_disabled":false,"rental_uris":{"android":"levelo://app?vid=729b0120-d301-4c05-9244-843bc95c14d4","ios":"levelo://app?vid=729b0120-d301-4c05-9244-843bc95c14d4"},"vehicle_type_id":"4","last_reported":1760785620,"current_range_meters":16800,"station_id":"ce4bgt92rcd13ifvqcf0","pricing_plan_id":"cebpf4jnsgd1na2vs0mg"},{"bike_id":"5c05df33-2c17-411c-a7d9-abb07e6e0c42","system_id":"levelo_inurba_marseille","lat":43.284421,"lon":5.350361,"is_reserved":false,"is_disabled":false,"rental_uris":{"android":"levelo://app?vid=5c05df33-2c17-411c-a7d9-abb07e6e0c42","ios":"levelo://app?vid=5c05df33-2c17-411c-a7d9-abb07e6e0c42"},"vehicle_type_id":"4","last_reported":1760785620,"current_range_meters":17200,"station_id":"ce4bhbp2rcd13ifvqerg","pricing_plan_id":"cebpf4jnsgd1na2vs0mg"},{"bike_id":"08e156f4-f389-47f2-a554-82d58ee52248","system_id":"levelo_inurba_marseille","lat":43.23781,"lon":5.36633,"is_reserved":false,"is_disabled":false,"rental_uris":{"android":"levelo://app?vid=08e156f4-f389-47f2-a554-82d58ee52248","ios":"levelo://app?vid=08e156f4-f389-47f2-a554-82d58ee52248"},"vehicle_type_id":"4","last_reported":1760785620,"current_range_meters":17200,"station_id":"st_d3nk18o9ro0c73en2l3g","pricing_plan_id":"cebpf4jnsgd1na2vs0mg"},{"bike_id":"f64141d1-4a8e-4104-9d09-d8a1136160dd","system_id":"levelo_inurba_marseille","lat":43.29279,"lon":5.36847,"is_reserved":false,"is_disabled":false,"rental_uris":{"android":"levelo://app?vid=f64141d1-4a8e-4104-9d09-d8a1136160dd","ios":"levelo://app?vid=f64141d1-4a8e-4104-9d09-d8a1136160dd"},"vehicle_type_id":"4","last_reported":1760785620,"current_range_meters":17200,"station_id":"ce4bhbp2rcd13ifvqesg","pricing_plan_id":"cebpf4jnsgd1na2vs0mg"},{"bike_id":"4d61a64f-16ce-43a8-8985-3f5b0b5d8ace","system_id":"levelo_inurba_marseille","lat":43.30154,"lon":5.36634,"is_reserved":false,"is_disabled":false,"rental_uris":{"android":"levelo://app?vid=4d61a64f-16ce-43a8-8985-3f5b0b5d8ace","ios":"levelo://app?vid=4d61a64f-16ce-43a8-8985-3f5b0b5d8ace"},"vehicle_type_id":"4","last_reported":1760785620,"current_range_meters":17200,"station_id":"ce4bgrh2rcd13ifvqc8g","pricing_plan_id":"cebpf4jnsgd1na2vs0mg"},{"bike_id":"599774d4-5d24-4284-92bf-2ebad3c49073","system_id":"levelo_inurba_marseille","lat":43.30178,"lon":5.36605,"is_reserved":false,"is_disabled":false,"rental_uris":{"android":"levelo://app?vid=599774d4-5d24-4284-92bf-2ebad3c49073","ios":"levelo://app?vid=599774d4-5d24-4284-92bf-2ebad3c49073"},"vehicle_type_id":"4","last_reported":1760785620,"current_range_meters":17200,"station_id":"ce4bgrh2rcd13ifvqc8g","pricing_plan_id":"cebpf4jnsgd1na2vs0mg"},{"bike_id":"edcb744a-1021-4493-86cd-94aad7a8dbc8","system_id":"levelo_inurba_marseille","lat":43.305967,"lon":5.374779,"is_reserved":false,"is_disabled":false,"rental_uris":{"android":"levelo://app?vid=edcb744a-1021-4493-86cd-94aad7a8dbc8","ios":"levelo://app?vid=edcb744a-1021-4493-86cd-94aad7a8dbc8"},"vehicle_type_id":"4","last_reported":1760785620,"current_range_meters":17200,"station_id":"","pricing_plan_id":"cebpf4jnsgd1na2vs0mg"},{"bike_id":"6cbc56d2-7ae4-434e-8dca-32e623ba30bb","system_id":"levelo_inurba_marseille","lat":43.273846,"lon":5.362595,"is_reserved":false,"is_disabled":false,"rental_uris":{"android":"levelo://app?vid=6cbc56d2-7ae4-434e-8dca-32e623ba30bb","ios":"levelo://app?vid=6cbc56d2-7ae4-434e-8dca-32e623ba30bb"},"vehicle_type_id":"4","last_reported":1760785620,"current_range_meters":17200,"station_id":"ce4bhbh2rcd13ifvqeo0","pricing_plan_id":"cebpf4jnsgd1na2vs0mg"},{"bike_id":"4a23c317-76a9-400a-acae-5f3e1322bc46","system_id":"levelo_inurba_marseille","lat":43.217533,"lon":5.346076,"is_reserved":false,"is_disabled":false,"rental_uris":{"android":"levelo://app?vid=4a23c317-76a9-400a-acae-5f3e1322bc46","ios":"levelo://app?vid=4a23c317-76a9-400a-acae-5f3e1322bc46"},"vehicle_type_id":"4","last_reported":1760785620,"current_range_meters":17200,"station_id":"","pricing_plan_id":"cebpf4jnsgd1na2vs0mg"},{"bike_id":"61dec82f-dae0-406f-a87b-574d0d1c43dd","system_id":"levelo_inurba_marseille","lat":43.30141,"lon":5.37424,"is_reserved":false,"is_disabled":false,"rental_uris":{"android":"levelo://app?vid=61dec82f-dae0-406f-a87b-574d0d1c43dd","ios":"levelo://app?vid=61dec82f-dae0-406f-a87b-574d0d1c43dd"},"vehicle_type_id":"4","last_reported":1760785620,"current_range_meters":17600,"station_id":"ce4bgs92rcd13ifvqcc0","pricing_plan_id":"cebpf4jnsgd1na2vs0mg"},{"bike_id":"6e25cdbd-18b6-4a38-a3d4-d2d5668a783c","system_id":"levelo_inurba_marseille","lat":43.28406,"lon":5.34988,"is_reserved":false,"is_disabled":false,"rental_uris":{"android":"levelo://app?vid=6e25cdbd-18b6-4a38-a3d4-d2d5668a783c","ios":"levelo://app?vid=6e25cdbd-18b6-4a38-a3d4-d2d5668a783c"},"vehicle_type_id":"4","last_reported":1760785620,"current_range_meters":17600,"station_id":"ce4bhbh2rcd13ifvqepg","pricing_plan_id":"cebpf4jnsgd1na2vs0mg"},{"bike_id":"6abe062a-30a3-4bd9-87d0-fe4d14339518","system_id":"levelo_inurba_marseille","lat":43.22571,"lon":5.41629,"is_reserved":false,"is_disabled":false,"rental_uris":{"android":"levelo://app?vid=6abe062a-30a3-4bd9-87d0-fe4d14339518","ios":"levelo://app?vid=6abe062a-30a3-4bd9-87d0-fe4d14339518"},"vehicle_type_id":"4","last_reported":1760785620,"current_range_meters":17600,"station_id":"st_d2o4gvlbi1j2169b742g","pricing_plan_id":"cebpf4jnsgd1na2vs0mg"},{"bike_id":"bd06fd3b-d55a-43de-9695-05009492448d","system_id":"levelo_inurba_marseille","lat":43.21744,"lon":5.34607,"is_reserved":false,"is_disabled":false,"rental_uris":{"android":"levelo://app?vid=bd06fd3b-d55a-43de-9695-05009492448d","ios":"levelo://app?vid=bd06fd3b-d55a-43de-9695-05009492448d"},"vehicle_type_id":"4","last_reported":1760785620,"current_range_meters":17600,"station_id":"st_cvj6r9ubvosntc0bgbag","pricing_plan_id":"cebpf4jnsgd1na2vs0mg"},{"bike_id":"9431ff7f-f44d-469e-9eb0-f9b90f058a4d","system_id":"levelo_inurba_marseille","lat":43.24388,"lon":5.37053,"is_reserved":false,"is_disabled":false,"rental_uris":{"android":"levelo://app?vid=9431ff7f-f44d-469e-9eb0-f9b90f058a4d","ios":"levelo://app?vid=9431ff7f-f44d-469e-9eb0-f9b90f058a4d"},"vehicle_type_id":"4","last_reported":1760785620,"current_range_meters":17600,"station_id":"ce4bhhh2rcd13ifvqfk0","pricing_plan_id":"cebpf4jnsgd1na2vs0mg"},{"bike_id":"59c76316-1cef-4513-8927-f7071c21e391","system_id":"levelo_inurba_marseille","lat":43.29375,"lon":5.37852,"is_reserved":false,"is_disabled":false,"rental_uris":{"android":"levelo://app?vid=59c76316-1cef-4513-8927-f7071c21e391","ios":"levelo://app?vid=59c76316-1cef-4513-8927-f7071c21e391"},"vehicle_type_id":"4","last_reported":1760785620,"current_range_meters":17600,"station_id":"ce4bgjh2rcd13ifvqbf0","pricing_plan_id":"cebpf4jnsgd1na2vs0mg"},{"bike_id":"1e887256-61fa-42dd-9723-68b5d461a392","system_id":"levelo_inurba_marseille","lat":43.240713,"lon":5.377613,"is_reserved":false,"is_disabled":false,"rental_uris":{"android":"levelo://app?vid=1e887256-61fa-42dd-9723-68b5d461a392","ios":"levelo://app?vid=1e887256-61fa-42dd-9723-68b5d461a392"},"vehicle_type_id":"4","last_reported":1760785620,"current_range_meters":17600,"station_id":"ce4bhnp2rcd13ifvqgvg","pricing_plan_id":"cebpf4jnsgd1na2vs0mg"},{"bike_id":"0c2c0333-c6e7-46b3-9da3-91f869a59c5c","system_id":"levelo_inurba_marseille","lat":43.29844,"lon":5.36275,"is_reserved":false,"is_disabled":false,"rental_uris":{"android":"levelo://app?vid=0c2c0333-c6e7-46b3-9da3-91f869a59c5c","ios":"levelo://app?vid=0c2c0333-c6e7-46b3-9da3-91f869a59c5c"},"vehicle_type_id":"4","last_reported":1760785620,"current_range_meters":17600,"station_id":"ce4bgpp2rcd13ifvqc3g","pricing_plan_id":"cebpf4jnsgd1na2vs0mg"},{"bike_id":"109ac308-54fd-47d6-af56-fc67913ab9d0","system_id":"levelo_inurba_marseille","lat":43.30125,"lon":5.43118,"is_reserved":false,"is_disabled":false,"rental_uris":{"android":"levelo://app?vid=109ac308-54fd-47d6-af56-fc67913ab9d0","ios":"levelo://app?vid=109ac308-54fd-47d6-af56-fc67913ab9d0"},"vehicle_type_id":"4","last_reported":1760785620,"current_range_meters":17600,"station_id":"st_d3js3co5814s73ftftug","pricing_plan_id":"cebpf4jnsgd1na2vs0mg"},{"bike_id":"7731dc5c-09a1-4f98-b8ff-e746392d2860","system_id":"levelo_inurba_marseille","lat":43.296212,"lon":5.3717,"is_reserved":false,"is_disabled":false,"rental_uris":{"android":"levelo://app?vid=7731dc5c-09a1-4f98-b8ff-e746392d2860","ios":"levelo://app?vid=7731dc5c-09a1-4f98-b8ff-e746392d2860"},"vehicle_type_id":"4","last_reported":1760785620,"current_range_meters":18000,"station_id":"","pricing_plan_id":"cebpf4jnsgd1na2vs0mg"},{"bike_id":"dfbb16fb-2eda-41cc-9e20-134eed548e29","system_id":"levelo_inurba_marseille","lat":43.30281,"lon":5.37689,"is_reserved":false,"is_disabled":false,"rental_uris":{"android":"levelo://app?vid=dfbb16fb-2eda-41cc-9e20-134eed548e29","ios":"levelo://app?vid=dfbb16fb-2eda-41cc-9e20-134eed548e29"},"vehicle_type_id":"4","last_reported":1760785620,"current_range_meters":18000,"station_id":"ce4bguh2rcd13ifvqcj0","pricing_plan_id":"cebpf4jnsgd1na2vs0mg"},{"bike_id":"86ce52f8-f590-4694-90e1-216ddc477b29","system_id":"levelo_inurba_marseille","lat":43.30968,"lon":5.3812,"is_reserved":false,"is_disabled":false,"rental_uris":{"android":"levelo://app?vid=86ce52f8-f590-4694-90e1-216ddc477b29","ios":"levelo://app?vid=86ce52f8-f590-4694-90e1-216ddc477b29"},"vehicle_type_id":"4","last_reported":1760785620,"current_range_meters":18000,"station_id":"","pricing_plan_id":"cebpf4jnsgd1na2vs0mg"},{"bike_id":"8cd818e3-a9e2-4f48-92b2-26306f507696","system_id":"levelo_inurba_marseille","lat":43.31349,"lon":5.37913,"is_reserved":false,"is_disabled":false,"rental_uris":{"android":"levelo://app?vid=8cd818e3-a9e2-4f48-92b2-26306f507696","ios":"levelo://app?vid=8cd818e3-a9e2-4f48-92b2-26306f507696"},"vehicle_type_id":"4","last_reported":1760785620,"current_range_meters":18000,"station_id":"","pricing_plan_id":"cebpf4jnsgd1na2vs0mg"},{"bike_id":"55451b7c-8dcd-41d0-8898-ee7dfb9c51f1","system_id":"levelo_inurba_marseille","lat":43.28623,"lon":5.35107,"is_reserved":false,"is_disabled":false,"rental_uris":{"android":"levelo://app?vid=55451b7c-8dcd-41d0-8898-ee7dfb9c51f1","ios":"levelo://app?vid=55451b7c-8dcd-41d0-8898-ee7dfb9c51f1"},"vehicle_type_id":"4","last_reported":1760785620,"current_range_meters":18000,"station_id":"ce4bhch2rcd13ifvqeug","pricing_plan_id":"cebpf4jnsgd1na2vs0mg"},{"bike_id":"2a7bc58a-d2a7-4761-ae41-f8cceede8138","system_id":"levelo_inurba_marseille","lat":43.21754,"lon":5.34588,"is_reserved":false,"is_disabled":false,"rental_uris":{"android":"levelo://app?vid=2a7bc58a-d2a7-4761-ae41-f8cceede8138","ios":"levelo://app?vid=2a7bc58a-d2a7-4761-ae41-f8cceede8138"},"vehicle_type_id":"4","last_reported":1760785620,"current_range_meters":18000,"station_id":"st_cvj6r9ubvosntc0bgbag","pricing_plan_id":"cebpf4jnsgd1na2vs0mg"},{"bike_id":"a3bea987-4c2d-47e9-ab2e-048f59a06e29","system_id":"levelo_inurba_marseille","lat":43.32356,"lon":5.36731,"is_reserved":false,"is_disabled":false,"rental_uris":{"android":"levelo://app?vid=a3bea987-4c2d-47e9-ab2e-048f59a06e29","ios":"levelo://app?vid=a3bea987-4c2d-47e9-ab2e-048f59a06e29"},"vehicle_type_id":"4","last_reported":1760785620,"current_range_meters":18000,"station_id":"ce4bhsh2rcd13ifvqi2g","pricing_plan_id":"cebpf4jnsgd1na2vs0mg"},{"bike_id":"9c724647-f74e-470c-9863-48aae8acdf3f","system_id":"levelo_inurba_marseille","lat":43.298606,"lon":5.363004,"is_reserved":false,"is_disabled":false,"rental_uris":{"android":"levelo://app?vid=9c724647-f74e-470c-9863-48aae8acdf3f","ios":"levelo://app?vid=9c724647-f74e-470c-9863-48aae8acdf3f"},"vehicle_type_id":"4","last_reported":1760785620,"current_range_meters":18000,"station_id":"ce4bgpp2rcd13ifvqc3g","pricing_plan_id":"cebpf4jnsgd1na2vs0mg"},{"bike_id":"5f145960-4d70-4d44-bafc-84d6817a8d75","system_id":"levelo_inurba_marseille","lat":43.29621,"lon":5.37163,"is_reserved":false,"is_disabled":false,"rental_uris":{"android":"levelo://app?vid=5f145960-4d70-4d44-bafc-84d6817a8d75","ios":"levelo://app?vid=5f145960-4d70-4d44-bafc-84d6817a8d75"},"vehicle_type_id":"4","last_reported":1760785620,"current_range_meters":18000,"station_id":"ce4bgnh2rcd13ifvqc0g","pricing_plan_id":"cebpf4jnsgd1na2vs0mg"},{"bike_id":"0f787efd-37ca-4060-a03d-15d3c3ce389f","system_id":"levelo_inurba_marseille","lat":43.29994,"lon":5.37349,"is_reserved":false,"is_disabled":false,"rental_uris":{"android":"levelo://app?vid=0f787efd-37ca-4060-a03d-15d3c3ce389f","ios":"levelo://app?vid=0f787efd-37ca-4060-a03d-15d3c3ce389f"},"vehicle_type_id":"4","last_reported":1760785620,"current_range_meters":18000,"station_id":"","pricing_plan_id":"cebpf4jnsgd1na2vs0mg"},{"bike_id":"8f6c99a9-2111-4ea5-ba4d-4bb0a3b06aa1","system_id":"levelo_inurba_marseille","lat":43.298154,"lon":5.4407,"is_reserved":false,"is_disabled":false,"rental_uris":{"android":"levelo://app?vid=8f6c99a9-2111-4ea5-ba4d-4bb0a3b06aa1","ios":"levelo://app?vid=8f6c99a9-2111-4ea5-ba4d-4bb0a3b06aa1"},"vehicle_type_id":"4","last_reported":1760785620,"current_range_meters":18800,"station_id":"st_d3jp68qikq2c7381ktn0","pricing_plan_id":"cebpf4jnsgd1na2vs0mg"},{"bike_id":"50b0c317-2203-48dc-b972-8f39b38a376e","system_id":"levelo_inurba_marseille","lat":43.30117,"lon":5.3987,"is_reserved":false,"is_disabled":true,"rental_uris":{"android":"levelo://app?vid=50b0c317-2203-48dc-b972-8f39b38a376e","ios":"levelo://app?vid=50b0c317-2203-48dc-b972-8f39b38a376e"},"vehicle_type_id":"4","last_reported":1760785620,"current_range_meters":18800,"station_id":"ce4bh0h2rcd13ifvqd40","pricing_plan_id":"cebpf4jnsgd1na2vs0mg"},{"bike_id":"fee86b44-9af0-4944-af11-1632ed4af603","system_id":"levelo_inurba_marseille","lat":43.28257,"lon":5.35067,"is_reserved":false,"is_disabled":false,"rental_uris":{"android":"levelo://app?vid=fee86b44-9af0-4944-af11-1632ed4af603","ios":"levelo://app?vid=fee86b44-9af0-4944-af11-1632ed4af603"},"vehicle_type_id":"4","last_reported":1760785620,"current_range_meters":18800,"station_id":"ce4bhbp2rcd13ifvqerg","pricing_plan_id":"cebpf4jnsgd1na2vs0mg"},{"bike_id":"7fd36eea-805d-4dce-89b5-46f277eaf158","system_id":"levelo_inurba_marseille","lat":43.305097,"lon":5.366695,"is_reserved":false,"is_disabled":false,"rental_uris":{"android":"levelo://app?vid=7fd36eea-805d-4dce-89b5-46f277eaf158","ios":"levelo://app?vid=7fd36eea-805d-4dce-89b5-46f277eaf158"},"vehicle_type_id":"4","last_reported":1760785620,"current_range_meters":18800,"station_id":"","pricing_plan_id":"cebpf4jnsgd1na2vs0mg"},{"bike_id":"3f9922fa-5fa2-4bb2-b6fe-411d28b8df2c","system_id":"levelo_inurba_marseille","lat":43.28455,"lon":5.38147,"is_reserved":false,"is_disabled":false,"rental_uris":{"android":"levelo://app?vid=3f9922fa-5fa2-4bb2-b6fe-411d28b8df2c","ios":"levelo://app?vid=3f9922fa-5fa2-4bb2-b6fe-411d28b8df2c"},"vehicle_type_id":"4","last_reported":1760785620,"current_range_meters":18800,"station_id":"","pricing_plan_id":"cebpf4jnsgd1na2vs0mg"},{"bike_id":"ec9b3e09-59b2-46f5-b30e-4f6e4b4da5d0","system_id":"levelo_inurba_marseille","lat":43.23787,"lon":5.366363,"is_reserved":false,"is_disabled":false,"rental_uris":{"android":"levelo://app?vid=ec9b3e09-59b2-46f5-b30e-4f6e4b4da5d0","ios":"levelo://app?vid=ec9b3e09-59b2-46f5-b30e-4f6e4b4da5d0"},"vehicle_type_id":"4","last_reported":1760785620,"current_range_meters":18800,"station_id":"st_d3nk18o9ro0c73en2l3g","pricing_plan_id":"cebpf4jnsgd1na2vs0mg"},{"bike_id":"312610b4-8cc6-4618-8030-01d2c8a572c6","system_id":"levelo_inurba_marseille","lat":43.29294,"lon":5.37428,"is_reserved":false,"is_disabled":false,"rental_uris":{"android":"levelo://app?vid=312610b4-8cc6-4618-8030-01d2c8a572c6","ios":"levelo://app?vid=312610b4-8cc6-4618-8030-01d2c8a572c6"},"vehicle_type_id":"4","last_reported":1760785620,"current_range_meters":18800,"station_id":"ce4bgi12rcd13ifvqb70","pricing_plan_id":"cebpf4jnsgd1na2vs0mg"},{"bike_id":"7a8ac50b-c3a4-490a-8f96-9c005f89ed5d","system_id":"levelo_inurba_marseille","lat":43.26521,"lon":5.39049,"is_reserved":false,"is_disabled":false,"rental_uris":{"android":"levelo://app?vid=7a8ac50b-c3a4-490a-8f96-9c005f89ed5d","ios":"levelo://app?vid=7a8ac50b-c3a4-490a-8f96-9c005f89ed5d"},"vehicle_type_id":"4","last_reported":1760785620,"current_range_meters":19200,"station_id":"","pricing_plan_id":"cebpf4jnsgd1na2vs0mg"},{"bike_id":"7b4102bf-aba1-447f-93de-ffef7042242e","system_id":"levelo_inurba_marseille","lat":43.277657,"lon":5.375991,"is_reserved":false,"is_disabled":false,"rental_uris":{"android":"levelo://app?vid=7b4102bf-aba1-447f-93de-ffef7042242e","ios":"levelo://app?vid=7b4102bf-aba1-447f-93de-ffef7042242e"},"vehicle_type_id":"4","last_reported":1760785620,"current_range_meters":19200,"station_id":"","pricing_plan_id":"cebpf4jnsgd1na2vs0mg"},{"bike_id":"6b06aa68-6da8-4f5c-bf18-9f5045bd8fa8","system_id":"levelo_inurba_marseille","lat":43.24191,"lon":5.363845,"is_reserved":false,"is_disabled":false,"rental_uris":{"android":"levelo://app?vid=6b06aa68-6da8-4f5c-bf18-9f5045bd8fa8","ios":"levelo://app?vid=6b06aa68-6da8-4f5c-bf18-9f5045bd8fa8"},"vehicle_type_id":"4","last_reported":1760785620,"current_range_meters":19200,"station_id":"cpo36qri1sfpv3e86is0","pricing_plan_id":"cebpf4jnsgd1na2vs0mg"},{"bike_id":"df73485a-42e3-465d-a21b-00e4764548ae","system_id":"levelo_inurba_marseille","lat":43.23784,"lon":5.36634,"is_reserved":false,"is_disabled":false,"rental_uris":{"android":"levelo://app?vid=df73485a-42e3-465d-a21b-00e4764548ae","ios":"levelo://app?vid=df73485a-42e3-465d-a21b-00e4764548ae"},"vehicle_type_id":"4","last_reported":1760785620,"current_range_meters":19200,"station_id":"st_d3nk18o9ro0c73en2l3g","pricing_plan_id":"cebpf4jnsgd1na2vs0mg"},{"bike_id":"b506d310-cbad-4631-89e6-cbd56349fc4d","system_id":"levelo_inurba_marseille","lat":43.29906,"lon":5.4365,"is_reserved":false,"is_disabled":false,"rental_uris":{"android":"levelo://app?vid=b506d310-cbad-4631-89e6-cbd56349fc4d","ios":"levelo://app?vid=b506d310-cbad-4631-89e6-cbd56349fc4d"},"vehicle_type_id":"4","last_reported":1760785620,"current_range_meters":19200,"station_id":"ce4bhpp2rcd13ifvqhfg","pricing_plan_id":"cebpf4jnsgd1na2vs0mg"},{"bike_id":"9e556ea8-ab47-40a7-92f9-52bd1b35f85d","system_id":"levelo_inurba_marseille","lat":43.24997,"lon":5.38929,"is_reserved":false,"is_disabled":false,"rental_uris":{"android":"levelo://app?vid=9e556ea8-ab47-40a7-92f9-52bd1b35f85d","ios":"levelo://app?vid=9e556ea8-ab47-40a7-92f9-52bd1b35f85d"},"vehicle_type_id":"4","last_reported":1760785620,"current_range_meters":19200,"station_id":"ce4bhgp2rcd13ifvqfd0","pricing_plan_id":"cebpf4jnsgd1na2vs0mg"},{"bike_id":"5d1f47ec-8cf5-4790-9e21-c06026e32919","system_id":"levelo_inurba_marseille","lat":43.240712,"lon":5.377617,"is_reserved":false,"is_disabled":false,"rental_uris":{"android":"levelo://app?vid=5d1f47ec-8cf5-4790-9e21-c06026e32919","ios":"levelo://app?vid=5d1f47ec-8cf5-4790-9e21-c06026e32919"},"vehicle_type_id":"4","last_reported":1760785620,"current_range_meters":19200,"station_id":"ce4bhnp2rcd13ifvqgvg","pricing_plan_id":"cebpf4jnsgd1na2vs0mg"},{"bike_id":"935ce31d-a9ed-4368-bc23-083d2a1458b8","system_id":"levelo_inurba_marseille","lat":43.30321,"lon":5.36902,"is_reserved":false,"is_disabled":false,"rental_uris":{"android":"levelo://app?vid=935ce31d-a9ed-4368-bc23-083d2a1458b8","ios":"levelo://app?vid=935ce31d-a9ed-4368-bc23-083d2a1458b8"},"vehicle_type_id":"4","last_reported":1760785620,"current_range_meters":19600,"station_id":"ce4bgqh2rcd13ifvqc5g","pricing_plan_id":"cebpf4jnsgd1na2vs0mg"},{"bike_id":"e434f9e9-68c9-4c6f-88e7-b25f8a550195","system_id":"levelo_inurba_marseille","lat":43.297093,"lon":5.381025,"is_reserved":false,"is_disabled":false,"rental_uris":{"android":"levelo://app?vid=e434f9e9-68c9-4c6f-88e7-b25f8a550195","ios":"levelo://app?vid=e434f9e9-68c9-4c6f-88e7-b25f8a550195"},"vehicle_type_id":"4","last_reported":1760785620,"current_range_meters":19600,"station_id":"","pricing_plan_id":"cebpf4jnsgd1na2vs0mg"},{"bike_id":"0c6ee780-2994-4cb9-a9c7-1a0dec5c1d01","system_id":"levelo_inurba_marseille","lat":43.23781,"lon":5.3662,"is_reserved":false,"is_disabled":false,"rental_uris":{"android":"levelo://app?vid=0c6ee780-2994-4cb9-a9c7-1a0dec5c1d01","ios":"levelo://app?vid=0c6ee780-2994-4cb9-a9c7-1a0dec5c1d01"},"vehicle_type_id":"4","last_reported":1760785620,"current_range_meters":19600,"station_id":"st_d3nk18o9ro0c73en2l3g","pricing_plan_id":"cebpf4jnsgd1na2vs0mg"},{"bike_id":"d43f3f0b-a234-4a84-acc2-4f02fc3451a7","system_id":"levelo_inurba_marseille","lat":43.24396,"lon":5.37061,"is_reserved":false,"is_disabled":true,"rental_uris":{"android":"levelo://app?vid=d43f3f0b-a234-4a84-acc2-4f02fc3451a7","ios":"levelo://app?vid=d43f3f0b-a234-4a84-acc2-4f02fc3451a7"},"vehicle_type_id":"4","last_reported":1760785620,"current_range_meters":19600,"station_id":"ce4bhhh2rcd13ifvqfk0","pricing_plan_id":"cebpf4jnsgd1na2vs0mg"},{"bike_id":"c22e92c8-3fe0-4c56-ab21-210e12f7f0b4","system_id":"levelo_inurba_marseille","lat":43.319469,"lon":5.415281,"is_reserved":false,"is_disabled":false,"rental_uris":{"android":"levelo://app?vid=c22e92c8-3fe0-4c56-ab21-210e12f7f0b4","ios":"levelo://app?vid=c22e92c8-3fe0-4c56-ab21-210e12f7f0b4"},"vehicle_type_id":"4","last_reported":1760785620,"current_range_meters":19600,"station_id":"","pricing_plan_id":"cebpf4jnsgd1na2vs0mg"},{"bike_id":"e49f1957-12ca-4f31-9218-007afff6f309","system_id":"levelo_inurba_marseille","lat":43.237837,"lon":5.366192,"is_reserved":false,"is_disabled":false,"rental_uris":{"android":"levelo://app?vid=e49f1957-12ca-4f31-9218-007afff6f309","ios":"levelo://app?vid=e49f1957-12ca-4f31-9218-007afff6f309"},"vehicle_type_id":"4","last_reported":1760785620,"current_range_meters":19600,"station_id":"st_d3nk18o9ro0c73en2l3g","pricing_plan_id":"cebpf4jnsgd1na2vs0mg"},{"bike_id":"9652283e-21f4-4490-ac9e-ffa9429f0005","system_id":"levelo_inurba_marseille","lat":43.29068,"lon":5.40544,"is_reserved":false,"is_disabled":false,"rental_uris":{"android":"levelo://app?vid=9652283e-21f4-4490-ac9e-ffa9429f0005","ios":"levelo://app?vid=9652283e-21f4-4490-ac9e-ffa9429f0005"},"vehicle_type_id":"4","last_reported":1760785620,"current_range_meters":19600,"station_id":"","pricing_plan_id":"cebpf4jnsgd1na2vs0mg"},{"bike_id":"f9615a0d-59d5-4530-9451-f51dd89f7040","system_id":"levelo_inurba_marseille","lat":43.29854,"lon":5.36269,"is_reserved":false,"is_disabled":false,"rental_uris":{"android":"levelo://app?vid=f9615a0d-59d5-4530-9451-f51dd89f7040","ios":"levelo://app?vid=f9615a0d-59d5-4530-9451-f51dd89f7040"},"vehicle_type_id":"4","last_reported":1760785620,"current_range_meters":19600,"station_id":"ce4bgpp2rcd13ifvqc3g","pricing_plan_id":"cebpf4jnsgd1na2vs0mg"},{"bike_id":"5c8f8534-1c64-4a83-8ba1-59c8ae8a6542","system_id":"levelo_inurba_marseille","lat":43.279731,"lon":5.387416,"is_reserved":false,"is_disabled":false,"rental_uris":{"android":"levelo://app?vid=5c8f8534-1c64-4a83-8ba1-59c8ae8a6542","ios":"levelo://app?vid=5c8f8534-1c64-4a83-8ba1-59c8ae8a6542"},"vehicle_type_id":"4","last_reported":1760785620,"current_range_meters":19600,"station_id":"ce4bhg12rcd13ifvqf80","pricing_plan_id":"cebpf4jnsgd1na2vs0mg"},{"bike_id":"53599387-c007-48a2-8c30-0691d207f546","system_id":"levelo_inurba_marseille","lat":43.273773,"lon":5.362651,"is_reserved":false,"is_disabled":false,"rental_uris":{"android":"levelo://app?vid=53599387-c007-48a2-8c30-0691d207f546","ios":"levelo://app?vid=53599387-c007-48a2-8c30-0691d207f546"},"vehicle_type_id":"4","last_reported":1760785620,"current_range_meters":19600,"station_id":"ce4bhbh2rcd13ifvqeo0","pricing_plan_id":"cebpf4jnsgd1na2vs0mg"},{"bike_id":"d1668fd5-d05d-42a9-b5d1-4388db8ac6a3","system_id":"levelo_inurba_marseille","lat":43.31764,"lon":5.39029,"is_reserved":false,"is_disabled":false,"rental_uris":{"android":"levelo://app?vid=d1668fd5-d05d-42a9-b5d1-4388db8ac6a3","ios":"levelo://app?vid=d1668fd5-d05d-42a9-b5d1-4388db8ac6a3"},"vehicle_type_id":"4","last_reported":1760785620,"current_range_meters":19600,"station_id":"ce4bhqp2rcd13ifvqhng","pricing_plan_id":"cebpf4jnsgd1na2vs0mg"},{"bike_id":"28cea3f5-2bb1-41df-ba10-15386141f061","system_id":"levelo_inurba_marseille","lat":43.24079,"lon":5.37759,"is_reserved":false,"is_disabled":false,"rental_uris":{"android":"levelo://app?vid=28cea3f5-2bb1-41df-ba10-15386141f061","ios":"levelo://app?vid=28cea3f5-2bb1-41df-ba10-15386141f061"},"vehicle_type_id":"4","last_reported":1760785620,"current_range_meters":19600,"station_id":"ce4bhnp2rcd13ifvqgvg","pricing_plan_id":"cebpf4jnsgd1na2vs0mg"},{"bike_id":"312ef4e4-67dc-4313-869f-4da441ae8bca","system_id":"levelo_inurba_marseille","lat":43.30102,"lon":5.39064,"is_reserved":false,"is_disabled":false,"rental_uris":{"android":"levelo://app?vid=312ef4e4-67dc-4313-869f-4da441ae8bca","ios":"levelo://app?vid=312ef4e4-67dc-4313-869f-4da441ae8bca"},"vehicle_type_id":"4","last_reported":1760785620,"current_range_meters":19600,"station_id":"ce4bh192rcd13ifvqdb0","pricing_plan_id":"cebpf4jnsgd1na2vs0mg"},{"bike_id":"953f0f91-35e1-457d-ade3-a9a3adf23708","system_id":"levelo_inurba_marseille","lat":43.21761,"lon":5.34589,"is_reserved":false,"is_disabled":false,"rental_uris":{"android":"levelo://app?vid=953f0f91-35e1-457d-ade3-a9a3adf23708","ios":"levelo://app?vid=953f0f91-35e1-457d-ade3-a9a3adf23708"},"vehicle_type_id":"4","last_reported":1760785620,"current_range_meters":20000,"station_id":"st_cvj6r9ubvosntc0bgbag","pricing_plan_id":"cebpf4jnsgd1na2vs0mg"},{"bike_id":"9f25b450-6fed-4b3d-ae3b-91b2c5c78a89","system_id":"levelo_inurba_marseille","lat":43.29869,"lon":5.38429,"is_reserved":false,"is_disabled":false,"rental_uris":{"android":"levelo://app?vid=9f25b450-6fed-4b3d-ae3b-91b2c5c78a89","ios":"levelo://app?vid=9f25b450-6fed-4b3d-ae3b-91b2c5c78a89"},"vehicle_type_id":"4","last_reported":1760785620,"current_range_meters":20000,"station_id":"","pricing_plan_id":"cebpf4jnsgd1na2vs0mg"},{"bike_id":"95b11048-a16a-4978-850d-f323bd33cba1","system_id":"levelo_inurba_marseille","lat":43.28262,"lon":5.35075,"is_reserved":false,"is_disabled":false,"rental_uris":{"android":"levelo://app?vid=95b11048-a16a-4978-850d-f323bd33cba1","ios":"levelo://app?vid=95b11048-a16a-4978-850d-f323bd33cba1"},"vehicle_type_id":"4","last_reported":1760785620,"current_range_meters":20000,"station_id":"ce4bhbp2rcd13ifvqerg","pricing_plan_id":"cebpf4jnsgd1na2vs0mg"},{"bike_id":"b4b1b068-2451-4cbc-b82a-9d32c90919df","system_id":"levelo_inurba_marseille","lat":43.2408,"lon":5.37755,"is_reserved":false,"is_disabled":false,"rental_uris":{"android":"levelo://app?vid=b4b1b068-2451-4cbc-b82a-9d32c90919df","ios":"levelo://app?vid=b4b1b068-2451-4cbc-b82a-9d32c90919df"},"vehicle_type_id":"4","last_reported":1760785620,"current_range_meters":20000,"station_id":"ce4bhnp2rcd13ifvqgvg","pricing_plan_id":"cebpf4jnsgd1na2vs0mg"},{"bike_id":"8b9ef284-f57e-43ad-9332-2ba9d0b1b211","system_id":"levelo_inurba_marseille","lat":43.237909,"lon":5.366321,"is_reserved":false,"is_disabled":false,"rental_uris":{"android":"levelo://app?vid=8b9ef284-f57e-43ad-9332-2ba9d0b1b211","ios":"levelo://app?vid=8b9ef284-f57e-43ad-9332-2ba9d0b1b211"},"vehicle_type_id":"4","last_reported":1760785620,"current_range_meters":20000,"station_id":"st_d3nk18o9ro0c73en2l3g","pricing_plan_id":"cebpf4jnsgd1na2vs0mg"},{"bike_id":"550c0721-935a-46c9-96e4-4eefb5bc1524","system_id":"levelo_inurba_marseille","lat":43.25821,"lon":5.39436,"is_reserved":false,"is_disabled":false,"rental_uris":{"android":"levelo://app?vid=550c0721-935a-46c9-96e4-4eefb5bc1524","ios":"levelo://app?vid=550c0721-935a-46c9-96e4-4eefb5bc1524"},"vehicle_type_id":"4","last_reported":1760785620,"current_range_meters":20000,"station_id":"ce4bhip2rcd13ifvqft0","pricing_plan_id":"cebpf4jnsgd1na2vs0mg"},{"bike_id":"f1ad9d1d-9c06-41a3-9d14-eb8ccc0cf505","system_id":"levelo_inurba_marseille","lat":43.30387,"lon":5.4247,"is_reserved":false,"is_disabled":false,"rental_uris":{"android":"levelo://app?vid=f1ad9d1d-9c06-41a3-9d14-eb8ccc0cf505","ios":"levelo://app?vid=f1ad9d1d-9c06-41a3-9d14-eb8ccc0cf505"},"vehicle_type_id":"4","last_reported":1760785620,"current_range_meters":20000,"station_id":"ce4bhoh2rcd13ifvqh6g","pricing_plan_id":"cebpf4jnsgd1na2vs0mg"},{"bike_id":"e96ba344-d233-4b52-9dbb-e32acc796d1f","system_id":"levelo_inurba_marseille","lat":43.239679,"lon":5.366383,"is_reserved":false,"is_disabled":false,"rental_uris":{"android":"levelo://app?vid=e96ba344-d233-4b52-9dbb-e32acc796d1f","ios":"levelo://app?vid=e96ba344-d233-4b52-9dbb-e32acc796d1f"},"vehicle_type_id":"4","last_reported":1760785620,"current_range_meters":20000,"station_id":"ce4bhi12rcd13ifvqfp0","pricing_plan_id":"cebpf4jnsgd1na2vs0mg"},{"bike_id":"836dc977-33cb-4fdc-b43c-5cbf669af7a4","system_id":"levelo_inurba_marseille","lat":43.22568,"lon":5.41631,"is_reserved":false,"is_disabled":false,"rental_uris":{"android":"levelo://app?vid=836dc977-33cb-4fdc-b43c-5cbf669af7a4","ios":"levelo://app?vid=836dc977-33cb-4fdc-b43c-5cbf669af7a4"},"vehicle_type_id":"4","last_reported":1760785620,"current_range_meters":20000,"station_id":"st_d2o4gvlbi1j2169b742g","pricing_plan_id":"cebpf4jnsgd1na2vs0mg"},{"bike_id":"373173bb-e120-4d4a-a6c0-cc19bd85ea89","system_id":"levelo_inurba_marseille","lat":43.23156,"lon":5.43706,"is_reserved":false,"is_disabled":false,"rental_uris":{"android":"levelo://app?vid=373173bb-e120-4d4a-a6c0-cc19bd85ea89","ios":"levelo://app?vid=373173bb-e120-4d4a-a6c0-cc19bd85ea89"},"vehicle_type_id":"4","last_reported":1760785620,"current_range_meters":20400,"station_id":"ce4bhmp2rcd13ifvqgog","pricing_plan_id":"cebpf4jnsgd1na2vs0mg"},{"bike_id":"d9dbd1b8-9174-4b47-9f3e-adfffcf7d908","system_id":"levelo_inurba_marseille","lat":43.29486,"lon":5.43298,"is_reserved":false,"is_disabled":false,"rental_uris":{"android":"levelo://app?vid=d9dbd1b8-9174-4b47-9f3e-adfffcf7d908","ios":"levelo://app?vid=d9dbd1b8-9174-4b47-9f3e-adfffcf7d908"},