{"last_updated":1748924249,"ttl":60,"version":"2.2","data":{"bikes":[{"bike_id":"5736accb-991c-4877-a612-8be882a83c2f","system_id":"levelo_inurba_marseille","lat":43.33771,"lon":5.37424,"is_reserved":false,"is_disabled":true,"rental_uris":{"android":"levelo://app?vid=5736accb-991c-4877-a612-8be882a83c2f","ios":"levelo://app?vid=5736accb-991c-4877-a612-8be882a83c2f"},"vehicle_type_id":"4","last_reported":1748924249,"current_range_meters":0,"station_id":"","pricing_plan_id":"cebpf4jnsgd1na2vs0mg"},{"bike_id":"55a5c057-4e97-4693-8616-8ebd3dc507dc","system_id":"levelo_inurba_marseille","lat":43.337499,"lon":5.374469,"is_reserved":false,"is_disabled":true,"rental_uris":{"android":"levelo://app?vid=55a5c057-4e97-4693-8616-8ebd3dc507dc","ios":"levelo://app?vid=55a5c057-4e97-4693-8616-8ebd3dc507dc"},"vehicle_type_id":"4","last_reported":1748924249,"current_range_meters":0,"station_id":"","pricing_plan_id":"cebpf4jnsgd1na2vs0mg"},{"bike_id":"58872a66-6d13-4e73-8bc3-e26429814b74","system_id":"levelo_inurba_marseille","lat":43.337444,"lon":5.374475,"is_reserved":false,"is_disabled":true,"rental_uris":{"android":"levelo://app?vid=58872a66-6d13-4e73-8bc3-e26429814b74","ios":"levelo://app?vid=58872a66-6d13-4e73-8bc3-e26429814b74"},"vehicle_type_id":"4","last_reported":1748924249,"current_range_meters":0,"station_id":"","pricing_plan_id":"cebpf4jnsgd1na2vs0mg"},{"bike_id":"aedab83c-b9e3-4c27-91f4-79f4c3b37920","system_id":"levelo_inurba_marseille","lat":43.337444,"lon":5.374475,"is_reserved":false,"is_disabled":true,"rental_uris":{"android":"levelo://app?vid=aedab83c-b9e3-4c27-91f4-79f4c3b37920","ios":"levelo://app?vid=aedab83c-b9e3-4c27-91f4-79f4c3b37920"},"vehicle_type_id":"4","last_reported":1748924249,"current_range_meters":0,"station_id":"","pricing_plan_id":"cebpf4jnsgd1na2vs0mg"},{"bike_id":"6e7e5163-991a-4d7d-9c2b-4faf721e9959","system_id":"levelo_inurba_marseille","lat":43.2792,"lon":5.35324,"is_reserved":false,"is_disabled":true,"rental_uris":{"android":"levelo://app?vid=6e7e5163-991a-4d7d-9c2b-4faf721e9959","ios":"levelo://app?vid=6e7e5163-991a-4d7d-9c2b-4faf721e9959"},"vehicle_type_id":"4","last_reported":1748924249,"current_range_meters":0,"station_id":"","pricing_plan_id":"cebpf4jnsgd1na2vs0mg"},{"bike_id":"f037ee10-e332-42b1-85a9-1479fc53e8a3","system_id":"levelo_inurba_marseille","lat":43.2885,"lon":5.39308,"is_reserved":false,"is_disabled":true,"rental_uris":{"android":"levelo://app?vid=f037ee10-e332-42b1-85a9-1479fc53e8a3","ios":"levelo://app?vid=f037ee10-e332-42b1-85a9-1479fc53e8a3"},"vehicle_type_id":"4","last_reported":1748924249,"current_range_meters":0,"station_id":"ce4bh2p2rcd13ifvqdi0","pricing_plan_id":"cebpf4jnsgd1na2vs0mg"},{"bike_id":"c4124a3c-1f46-4a64-aa09-bc62ef2e15bd","system_id":"levelo_inurba_marseille","lat":43.231938,"lon":5.355521,"is_reserved":false,"is_disabled":true,"rental_uris":{"android":"levelo://app?vid=c4124a3c-1f46-4a64-aa09-bc62ef2e15bd","ios":"levelo://app?vid=c4124a3c-1f46-4a64-aa09-bc62ef2e15bd"},"vehicle_type_id":"4","last_reported":1748924249,"current_range_meters":800,"station_id":"ce4bhu92rcd13ifvqi70","pricing_plan_id":"cebpf4jnsgd1na2vs0mg"},{"bike_id":"d8bc9440-8e34-43c6-9111-b440ae186694","system_id":"levelo_inurba_marseille","lat":43.296381,"lon":5.40617,"is_reserved":false,"is_disabled":true,"rental_uris":{"android":"levelo://app?vid=d8bc9440-8e34-43c6-9111-b440ae186694","ios":"levelo://app?vid=d8bc9440-8e34-43c6-9111-b440ae186694"},"vehicle_type_id":"4","last_reported":1748924249,"current_range_meters":1600,"station_id":"ce4bh0h2rcd13ifvqd60","pricing_plan_id":"cebpf4jnsgd1na2vs0mg"},{"bike_id":"f83fb654-1d88-4708-a49f-9185650bfc20","system_id":"levelo_inurba_marseille","lat":43.34146,"lon":5.40914,"is_reserved":false,"is_disabled":true,"rental_uris":{"android":"levelo://app?vid=f83fb654-1d88-4708-a49f-9185650bfc20","ios":"levelo://app?vid=f83fb654-1d88-4708-a49f-9185650bfc20"},"vehicle_type_id":"4","last_reported":1748924249,"current_range_meters":1600,"station_id":"ce4bhqh2rcd13ifvqhlg","pricing_plan_id":"cebpf4jnsgd1na2vs0mg"},{"bike_id":"5dead81c-52cf-467b-885d-461d40fb80a5","system_id":"levelo_inurba_marseille","lat":43.251,"lon":5.40971,"is_reserved":false,"is_disabled":false,"rental_uris":{"android":"levelo://app?vid=5dead81c-52cf-467b-885d-461d40fb80a5","ios":"levelo://app?vid=5dead81c-52cf-467b-885d-461d40fb80a5"},"vehicle_type_id":"4","last_reported":1748924249,"current_range_meters":6400,"station_id":"","pricing_plan_id":"cebpf4jnsgd1na2vs0mg"},{"bike_id":"907989c4-217b-4f7b-9ff7-4afa285967be","system_id":"levelo_inurba_marseille","lat":43.30938,"lon":5.401566,"is_reserved":false,"is_disabled":false,"rental_uris":{"android":"levelo://app?vid=907989c4-217b-4f7b-9ff7-4afa285967be","ios":"levelo://app?vid=907989c4-217b-4f7b-9ff7-4afa285967be"},"vehicle_type_id":"4","last_reported":1748924249,"current_range_meters":6400,"station_id":"ce4bgvp2rcd13ifvqct0","pricing_plan_id":"cebpf4jnsgd1na2vs0mg"},{"bike_id":"d72d5a5e-a033-4555-a5b7-2e9b101d2f01","system_id":"levelo_inurba_marseille","lat":43.24365,"lon":5.41131,"is_reserved":false,"is_disabled":false,"rental_uris":{"android":"levelo://app?vid=d72d5a5e-a033-4555-a5b7-2e9b101d2f01","ios":"levelo://app?vid=d72d5a5e-a033-4555-a5b7-2e9b101d2f01"},"vehicle_type_id":"4","last_reported":1748924249,"current_range_meters":6800,"station_id":"","pricing_plan_id":"cebpf4jnsgd1na2vs0mg"},{"bike_id":"7b99b595-58cd-41da-b22e-d23123bcfb40","system_id":"levelo_inurba_marseille","lat":43.30947,"lon":5.40155,"is_reserved":false,"is_disabled":false,"rental_uris":{"android":"levelo://app?vid=7b99b595-58cd-41da-b22e-d23123bcfb40","ios":"levelo://app?vid=7b99b595-58cd-41da-b22e-d23123bcfb40"},"vehicle_type_id":"4","last_reported":1748924249,"current_range_meters":6800,"station_id":"ce4bgvp2rcd13ifvqct0","pricing_plan_id":"cebpf4jnsgd1na2vs0mg"},{"bike_id":"37a58c92-30a2-4013-86fc-a45750203582","system_id":"levelo_inurba_marseille","lat":43.286758,"lon":5.363525,"is_reserved":false,"is_disabled":false,"rental_uris":{"android":"levelo://app?vid=37a58c92-30a2-4013-86fc-a45750203582","ios":"levelo://app?vid=37a58c92-30a2-4013-86fc-a45750203582"},"vehicle_type_id":"4","last_reported":1748924249,"current_range_meters":7200,"station_id":"ce4bhah2rcd13ifvqej0","pricing_plan_id":"cebpf4jnsgd1na2vs0mg"},{"bike_id":"d45b21d6-a25d-4782-a877-8ec3ad66b1ca","system_id":"levelo_inurba_marseille","lat":43.28708,"lon":5.39967,"is_reserved":false,"is_disabled":false,"rental_uris":{"android":"levelo://app?vid=d45b21d6-a25d-4782-a877-8ec3ad66b1ca","ios":"levelo://app?vid=d45b21d6-a25d-4782-a877-8ec3ad66b1ca"},"vehicle_type_id":"4","last_reported":1748924249,"current_range_meters":7200,"station_id":"ce4bho92rcd13ifvqh3g","pricing_plan_id":"cebpf4jnsgd1na2vs0mg"},{"bike_id":"881498e7-33fc-4c1c-a65b-3c31d2a03915","system_id":"levelo_inurba_marseille","lat":43.337297,"lon":5.391945,"is_reserved":false,"is_disabled":false,"rental_uris":{"android":"levelo://app?vid=881498e7-33fc-4c1c-a65b-3c31d2a03915","ios":"levelo://app?vid=881498e7-33fc-4c1c-a65b-3c31d2a03915"},"vehicle_type_id":"4","last_reported":1748924249,"current_range_meters":7200,"station_id":"ce4bhr92rcd13ifvqhsg","pricing_plan_id":"cebpf4jnsgd1na2vs0mg"},{"bike_id":"d3f423ab-1bb1-4815-b53c-12de902293af","system_id":"levelo_inurba_marseille","lat":43.2921,"lon":5.4001,"is_reserved":false,"is_disabled":false,"rental_uris":{"android":"levelo://app?vid=d3f423ab-1bb1-4815-b53c-12de902293af","ios":"levelo://app?vid=d3f423ab-1bb1-4815-b53c-12de902293af"},"vehicle_type_id":"4","last_reported":1748924249,"current_range_meters":8000,"station_id":"","pricing_plan_id":"cebpf4jnsgd1na2vs0mg"},{"bike_id":"cfb4b455-d1cd-43d0-a6bd-48b2bcbc4252","system_id":"levelo_inurba_marseille","lat":43.29966,"lon":5.37504,"is_reserved":false,"is_disabled":false,"rental_uris":{"android":"levelo://app?vid=cfb4b455-d1cd-43d0-a6bd-48b2bcbc4252","ios":"levelo://app?vid=cfb4b455-d1cd-43d0-a6bd-48b2bcbc4252"},"vehicle_type_id":"4","last_reported":1748924249,"current_range_meters":8000,"station_id":"ce4bgjh2rcd13ifvqbg0","pricing_plan_id":"cebpf4jnsgd1na2vs0mg"},{"bike_id":"402e2a1f-cc55-477e-bcd5-2fc00f0f3e35","system_id":"levelo_inurba_marseille","lat":43.30163,"lon":5.38087,"is_reserved":false,"is_disabled":false,"rental_uris":{"android":"levelo://app?vid=402e2a1f-cc55-477e-bcd5-2fc00f0f3e35","ios":"levelo://app?vid=402e2a1f-cc55-477e-bcd5-2fc00f0f3e35"},"vehicle_type_id":"4","last_reported":1748924249,"current_range_meters":8400,"station_id":"ce4bgjp2rcd13ifvqbh0","pricing_plan_id":"cebpf4jnsgd1na2vs0mg"},{"bike_id":"373de251-b091-46b3-a90c-0e7feb7c624c","system_id":"levelo_inurba_marseille","lat":43.29946,"lon":5.36533,"is_reserved":false,"is_disabled":false,"rental_uris":{"android":"levelo://app?vid=373de251-b091-46b3-a90c-0e7feb7c624c","ios":"levelo://app?vid=373de251-b091-46b3-a90c-0e7feb7c624c"},"vehicle_type_id":"4","last_reported":1748924249,"current_range_meters":8400,"station_id":"ce4bgm92rcd13ifvqbr0","pricing_plan_id":"cebpf4jnsgd1na2vs0mg"},{"bike_id":"f724b12b-1b5c-45c2-9a71-0251cc3e9a9a","system_id":"levelo_inurba_marseille","lat":43.29023,"lon":5.4,"is_reserved":false,"is_disabled":false,"rental_uris":{"android":"levelo://app?vid=f724b12b-1b5c-45c2-9a71-0251cc3e9a9a","ios":"levelo://app?vid=f724b12b-1b5c-45c2-9a71-0251cc3e9a9a"},"vehicle_type_id":"4","last_reported":1748924249,"current_range_meters":8400,"station_id":"ce4bh392rcd13ifvqdm0","pricing_plan_id":"cebpf4jnsgd1na2vs0mg"},{"bike_id":"2fe63ade-f157-4876-b5f4-d6f719b9159f","system_id":"levelo_inurba_marseille","lat":43.23182,"lon":5.39987,"is_reserved":false,"is_disabled":false,"rental_uris":{"android":"levelo://app?vid=2fe63ade-f157-4876-b5f4-d6f719b9159f","ios":"levelo://app?vid=2fe63ade-f157-4876-b5f4-d6f719b9159f"},"vehicle_type_id":"4","last_reported":1748924249,"current_range_meters":8400,"station_id":"ce4bhn12rcd13ifvqgqg","pricing_plan_id":"cebpf4jnsgd1na2vs0mg"},{"bike_id":"24b5a71f-fabf-4fa6-9fec-f2c7385ad3aa","system_id":"levelo_inurba_marseille","lat":43.330235,"lon":5.390431,"is_reserved":false,"is_disabled":false,"rental_uris":{"android":"levelo://app?vid=24b5a71f-fabf-4fa6-9fec-f2c7385ad3aa","ios":"levelo://app?vid=24b5a71f-fabf-4fa6-9fec-f2c7385ad3aa"},"vehicle_type_id":"4","last_reported":1748924249,"current_range_meters":8400,"station_id":"ce4bhr92rcd13ifvqhrg","pricing_plan_id":"cebpf4jnsgd1na2vs0mg"},{"bike_id":"a0888236-4e90-4aeb-b880-7b9acc4d2d36","system_id":"levelo_inurba_marseille","lat":43.33023,"lon":5.39033,"is_reserved":false,"is_disabled":false,"rental_uris":{"android":"levelo://app?vid=a0888236-4e90-4aeb-b880-7b9acc4d2d36","ios":"levelo://app?vid=a0888236-4e90-4aeb-b880-7b9acc4d2d36"},"vehicle_type_id":"4","last_reported":1748924249,"current_range_meters":8400,"station_id":"ce4bhr92rcd13ifvqhrg","pricing_plan_id":"cebpf4jnsgd1na2vs0mg"},{"bike_id":"3d2db1e7-cd60-40ea-99ff-eeecb7bc43b6","system_id":"levelo_inurba_marseille","lat":43.287273,"lon":5.360997,"is_reserved":false,"is_disabled":false,"rental_uris":{"android":"levelo://app?vid=3d2db1e7-cd60-40ea-99ff-eeecb7bc43b6","ios":"levelo://app?vid=3d2db1e7-cd60-40ea-99ff-eeecb7bc43b6"},"vehicle_type_id":"4","last_reported":1748924249,"current_range_meters":8400,"station_id":"cki0cbj6b192h4jlfktg","pricing_plan_id":"cebpf4jnsgd1na2vs0mg"},{"bike_id":"acdfb4ec-72f4-4860-9958-ed448301f50b","system_id":"levelo_inurba_marseille","lat":43.300742,"lon":5.379339,"is_reserved":false,"is_disabled":false,"rental_uris":{"android":"levelo://app?vid=acdfb4ec-72f4-4860-9958-ed448301f50b","ios":"levelo://app?vid=acdfb4ec-72f4-4860-9958-ed448301f50b"},"vehicle_type_id":"4","last_reported":1748924249,"current_range_meters":9200,"station_id":"","pricing_plan_id":"cebpf4jnsgd1na2vs0mg"},{"bike_id":"e0206ce0-57ad-47ea-a466-3f8b3e6d08b7","system_id":"levelo_inurba_marseille","lat":43.271987,"lon":5.39153,"is_reserved":false,"is_disabled":false,"rental_uris":{"android":"levelo://app?vid=e0206ce0-57ad-47ea-a466-3f8b3e6d08b7","ios":"levelo://app?vid=e0206ce0-57ad-47ea-a466-3f8b3e6d08b7"},"vehicle_type_id":"4","last_reported":1748924249,"current_range_meters":9200,"station_id":"ce4bhhp2rcd13ifvqfm0","pricing_plan_id":"cebpf4jnsgd1na2vs0mg"},{"bike_id":"f1c8c7e1-3f34-4d38-a503-caa580ebde75","system_id":"levelo_inurba_marseille","lat":43.22501,"lon":5.34789,"is_reserved":false,"is_disabled":false,"rental_uris":{"android":"levelo://app?vid=f1c8c7e1-3f34-4d38-a503-caa580ebde75","ios":"levelo://app?vid=f1c8c7e1-3f34-4d38-a503-caa580ebde75"},"vehicle_type_id":"4","last_reported":1748924249,"current_range_meters":9200,"station_id":"st_cvj5dfep6f1abm77gieg","pricing_plan_id":"cebpf4jnsgd1na2vs0mg"},{"bike_id":"f9ba8850-482d-43cd-93c6-da015477c7af","system_id":"levelo_inurba_marseille","lat":43.286199,"lon":5.383443,"is_reserved":false,"is_disabled":false,"rental_uris":{"android":"levelo://app?vid=f9ba8850-482d-43cd-93c6-da015477c7af","ios":"levelo://app?vid=f9ba8850-482d-43cd-93c6-da015477c7af"},"vehicle_type_id":"4","last_reported":1748924249,"current_range_meters":9600,"station_id":"","pricing_plan_id":"cebpf4jnsgd1na2vs0mg"},{"bike_id":"113d0131-8168-44ff-af6f-a57421e1ccf2","system_id":"levelo_inurba_marseille","lat":43.309362,"lon":5.401397,"is_reserved":false,"is_disabled":false,"rental_uris":{"android":"levelo://app?vid=113d0131-8168-44ff-af6f-a57421e1ccf2","ios":"levelo://app?vid=113d0131-8168-44ff-af6f-a57421e1ccf2"},"vehicle_type_id":"4","last_reported":1748924249,"current_range_meters":9600,"station_id":"ce4bgvp2rcd13ifvqct0","pricing_plan_id":"cebpf4jnsgd1na2vs0mg"},{"bike_id":"cd693c4f-7556-46d4-b51d-98253789afd6","system_id":"levelo_inurba_marseille","lat":43.28424,"lon":5.37517,"is_reserved":false,"is_disabled":false,"rental_uris":{"android":"levelo://app?vid=cd693c4f-7556-46d4-b51d-98253789afd6","ios":"levelo://app?vid=cd693c4f-7556-46d4-b51d-98253789afd6"},"vehicle_type_id":"4","last_reported":1748924249,"current_range_meters":9600,"station_id":"ce4bh412rcd13ifvqds0","pricing_plan_id":"cebpf4jnsgd1na2vs0mg"},{"bike_id":"da621413-ecd9-4a2a-bf25-0aa4b6011687","system_id":"levelo_inurba_marseille","lat":43.317063,"lon":5.404424,"is_reserved":false,"is_disabled":false,"rental_uris":{"android":"levelo://app?vid=da621413-ecd9-4a2a-bf25-0aa4b6011687","ios":"levelo://app?vid=da621413-ecd9-4a2a-bf25-0aa4b6011687"},"vehicle_type_id":"4","last_reported":1748924249,"current_range_meters":10000,"station_id":"ce4bh012rcd13ifvqd00","pricing_plan_id":"cebpf4jnsgd1na2vs0mg"},{"bike_id":"6e97afee-9337-497f-907b-0dcf237dc3c0","system_id":"levelo_inurba_marseille","lat":43.287243,"lon":5.360911,"is_reserved":false,"is_disabled":false,"rental_uris":{"android":"levelo://app?vid=6e97afee-9337-497f-907b-0dcf237dc3c0","ios":"levelo://app?vid=6e97afee-9337-497f-907b-0dcf237dc3c0"},"vehicle_type_id":"4","last_reported":1748924249,"current_range_meters":10000,"station_id":"cki0cbj6b192h4jlfktg","pricing_plan_id":"cebpf4jnsgd1na2vs0mg"},{"bike_id":"d33dd8e7-72ba-4302-905c-8a138456e3bc","system_id":"levelo_inurba_marseille","lat":43.309249,"lon":5.401445,"is_reserved":false,"is_disabled":false,"rental_uris":{"android":"levelo://app?vid=d33dd8e7-72ba-4302-905c-8a138456e3bc","ios":"levelo://app?vid=d33dd8e7-72ba-4302-905c-8a138456e3bc"},"vehicle_type_id":"4","last_reported":1748924249,"current_range_meters":10800,"station_id":"ce4bgvp2rcd13ifvqct0","pricing_plan_id":"cebpf4jnsgd1na2vs0mg"},{"bike_id":"cfd8a61b-5b9f-4b59-b997-bf8355304b02","system_id":"levelo_inurba_marseille","lat":43.288346,"lon":5.358508,"is_reserved":false,"is_disabled":false,"rental_uris":{"android":"levelo://app?vid=cfd8a61b-5b9f-4b59-b997-bf8355304b02","ios":"levelo://app?vid=cfd8a61b-5b9f-4b59-b997-bf8355304b02"},"vehicle_type_id":"4","last_reported":1748924249,"current_range_meters":10800,"station_id":"ce4bhb12rcd13ifvqem0","pricing_plan_id":"cebpf4jnsgd1na2vs0mg"},{"bike_id":"5b0c04c7-3e5d-4981-ba91-7d65704822b2","system_id":"levelo_inurba_marseille","lat":43.279163,"lon":5.380009,"is_reserved":false,"is_disabled":false,"rental_uris":{"android":"levelo://app?vid=5b0c04c7-3e5d-4981-ba91-7d65704822b2","ios":"levelo://app?vid=5b0c04c7-3e5d-4981-ba91-7d65704822b2"},"vehicle_type_id":"4","last_reported":1748924249,"current_range_meters":10800,"station_id":"ce4bhf92rcd13ifvqf50","pricing_plan_id":"cebpf4jnsgd1na2vs0mg"},{"bike_id":"bb739d32-2c8e-47cd-a6d0-fd3534d6015f","system_id":"levelo_inurba_marseille","lat":43.28695,"lon":5.39978,"is_reserved":false,"is_disabled":false,"rental_uris":{"android":"levelo://app?vid=bb739d32-2c8e-47cd-a6d0-fd3534d6015f","ios":"levelo://app?vid=bb739d32-2c8e-47cd-a6d0-fd3534d6015f"},"vehicle_type_id":"4","last_reported":1748924249,"current_range_meters":10800,"station_id":"ce4bho92rcd13ifvqh3g","pricing_plan_id":"cebpf4jnsgd1na2vs0mg"},{"bike_id":"fa62253e-e4db-42d1-9a63-6ab16922bf00","system_id":"levelo_inurba_marseille","lat":43.320135,"lon":5.368268,"is_reserved":false,"is_disabled":false,"rental_uris":{"android":"levelo://app?vid=fa62253e-e4db-42d1-9a63-6ab16922bf00","ios":"levelo://app?vid=fa62253e-e4db-42d1-9a63-6ab16922bf00"},"vehicle_type_id":"4","last_reported":1748924249,"current_range_meters":11200,"station_id":"","pricing_plan_id":"cebpf4jnsgd1na2vs0mg"},{"bike_id":"a51a6ac0-de50-4d8d-ae05-649618da1b16","system_id":"levelo_inurba_marseille","lat":43.30075,"lon":5.37558,"is_reserved":false,"is_disabled":false,"rental_uris":{"android":"levelo://app?vid=a51a6ac0-de50-4d8d-ae05-649618da1b16","ios":"levelo://app?vid=a51a6ac0-de50-4d8d-ae05-649618da1b16"},"vehicle_type_id":"4","last_reported":1748924249,"current_range_meters":11200,"station_id":"","pricing_plan_id":"cebpf4jnsgd1na2vs0mg"},{"bike_id":"9b8faa06-2806-4de2-b0e4-fcb9710ee2db","system_id":"levelo_inurba_marseille","lat":43.29777,"lon":5.38111,"is_reserved":false,"is_disabled":false,"rental_uris":{"android":"levelo://app?vid=9b8faa06-2806-4de2-b0e4-fcb9710ee2db","ios":"levelo://app?vid=9b8faa06-2806-4de2-b0e4-fcb9710ee2db"},"vehicle_type_id":"4","last_reported":1748924249,"current_range_meters":11200,"station_id":"ce4bgip2rcd13ifvqbb0","pricing_plan_id":"cebpf4jnsgd1na2vs0mg"},{"bike_id":"09e2d14a-4e1b-4edd-9db4-b62dee8c4a48","system_id":"levelo_inurba_marseille","lat":43.309239,"lon":5.401527,"is_reserved":false,"is_disabled":false,"rental_uris":{"android":"levelo://app?vid=09e2d14a-4e1b-4edd-9db4-b62dee8c4a48","ios":"levelo://app?vid=09e2d14a-4e1b-4edd-9db4-b62dee8c4a48"},"vehicle_type_id":"4","last_reported":1748924249,"current_range_meters":11200,"station_id":"ce4bgvp2rcd13ifvqct0","pricing_plan_id":"cebpf4jnsgd1na2vs0mg"},{"bike_id":"fb040055-bfdb-41da-aaec-942d312aca01","system_id":"levelo_inurba_marseille","lat":43.30672,"lon":5.40124,"is_reserved":false,"is_disabled":false,"rental_uris":{"android":"levelo://app?vid=fb040055-bfdb-41da-aaec-942d312aca01","ios":"levelo://app?vid=fb040055-bfdb-41da-aaec-942d312aca01"},"vehicle_type_id":"4","last_reported":1748924249,"current_range_meters":11200,"station_id":"ce4bh112rcd13ifvqda0","pricing_plan_id":"cebpf4jnsgd1na2vs0mg"},{"bike_id":"132751d0-a1d2-4547-8139-b08ba3b87187","system_id":"levelo_inurba_marseille","lat":43.323412,"lon":5.406225,"is_reserved":false,"is_disabled":false,"rental_uris":{"android":"levelo://app?vid=132751d0-a1d2-4547-8139-b08ba3b87187","ios":"levelo://app?vid=132751d0-a1d2-4547-8139-b08ba3b87187"},"vehicle_type_id":"4","last_reported":1748924249,"current_range_meters":11200,"station_id":"ce4bhq92rcd13ifvqhjg","pricing_plan_id":"cebpf4jnsgd1na2vs0mg"},{"bike_id":"3082751b-d3f4-42ac-b6c0-bf946931c7e5","system_id":"levelo_inurba_marseille","lat":43.211892,"lon":5.350738,"is_reserved":false,"is_disabled":false,"rental_uris":{"android":"levelo://app?vid=3082751b-d3f4-42ac-b6c0-bf946931c7e5","ios":"levelo://app?vid=3082751b-d3f4-42ac-b6c0-bf946931c7e5"},"vehicle_type_id":"4","last_reported":1748924249,"current_range_meters":11200,"station_id":"st_cvj6sg6p6f1abm77japg","pricing_plan_id":"cebpf4jnsgd1na2vs0mg"},{"bike_id":"0575ebc2-a1c1-4d0f-be68-0632a9189d20","system_id":"levelo_inurba_marseille","lat":43.282163,"lon":5.390517,"is_reserved":false,"is_disabled":false,"rental_uris":{"android":"levelo://app?vid=0575ebc2-a1c1-4d0f-be68-0632a9189d20","ios":"levelo://app?vid=0575ebc2-a1c1-4d0f-be68-0632a9189d20"},"vehicle_type_id":"4","last_reported":1748924249,"current_range_meters":11600,"station_id":"","pricing_plan_id":"cebpf4jnsgd1na2vs0mg"},{"bike_id":"9873ea8e-c2af-49bc-9f62-b61d54c33967","system_id":"levelo_inurba_marseille","lat":43.2893,"lon":5.36404,"is_reserved":false,"is_disabled":false,"rental_uris":{"android":"levelo://app?vid=9873ea8e-c2af-49bc-9f62-b61d54c33967","ios":"levelo://app?vid=9873ea8e-c2af-49bc-9f62-b61d54c33967"},"vehicle_type_id":"4","last_reported":1748924249,"current_range_meters":11600,"station_id":"ce4bhc92rcd13ifvqetg","pricing_plan_id":"cebpf4jnsgd1na2vs0mg"},{"bike_id":"900d1018-62d7-44ad-a7bd-2d294560b817","system_id":"levelo_inurba_marseille","lat":43.251085,"lon":5.403309,"is_reserved":false,"is_disabled":false,"rental_uris":{"android":"levelo://app?vid=900d1018-62d7-44ad-a7bd-2d294560b817","ios":"levelo://app?vid=900d1018-62d7-44ad-a7bd-2d294560b817"},"vehicle_type_id":"4","last_reported":1748924249,"current_range_meters":11600,"station_id":"ce4bhlh2rcd13ifvqgig","pricing_plan_id":"cebpf4jnsgd1na2vs0mg"},{"bike_id":"25bb10df-011f-4179-aa26-1d1dd6e6598f","system_id":"levelo_inurba_marseille","lat":43.31181,"lon":5.40193,"is_reserved":false,"is_disabled":false,"rental_uris":{"android":"levelo://app?vid=25bb10df-011f-4179-aa26-1d1dd6e6598f","ios":"levelo://app?vid=25bb10df-011f-4179-aa26-1d1dd6e6598f"},"vehicle_type_id":"4","last_reported":1748924249,"current_range_meters":12000,"station_id":"","pricing_plan_id":"cebpf4jnsgd1na2vs0mg"},{"bike_id":"a33c9ded-afda-47fd-87fa-ac593a798cfa","system_id":"levelo_inurba_marseille","lat":43.268643,"lon":5.389108,"is_reserved":false,"is_disabled":false,"rental_uris":{"android":"levelo://app?vid=a33c9ded-afda-47fd-87fa-ac593a798cfa","ios":"levelo://app?vid=a33c9ded-afda-47fd-87fa-ac593a798cfa"},"vehicle_type_id":"4","last_reported":1748924249,"current_range_meters":12000,"station_id":"","pricing_plan_id":"cebpf4jnsgd1na2vs0mg"},{"bike_id":"dcc954dd-b31c-407a-a6c4-56ff51393cba","system_id":"levelo_inurba_marseille","lat":43.30932,"lon":5.40145,"is_reserved":false,"is_disabled":false,"rental_uris":{"android":"levelo://app?vid=dcc954dd-b31c-407a-a6c4-56ff51393cba","ios":"levelo://app?vid=dcc954dd-b31c-407a-a6c4-56ff51393cba"},"vehicle_type_id":"4","last_reported":1748924249,"current_range_meters":12000,"station_id":"ce4bgvp2rcd13ifvqct0","pricing_plan_id":"cebpf4jnsgd1na2vs0mg"},{"bike_id":"aab1d16a-9f0c-4100-bb72-0114cbb59630","system_id":"levelo_inurba_marseille","lat":43.28433,"lon":5.37524,"is_reserved":false,"is_disabled":false,"rental_uris":{"android":"levelo://app?vid=aab1d16a-9f0c-4100-bb72-0114cbb59630","ios":"levelo://app?vid=aab1d16a-9f0c-4100-bb72-0114cbb59630"},"vehicle_type_id":"4","last_reported":1748924249,"current_range_meters":12000,"station_id":"ce4bh412rcd13ifvqds0","pricing_plan_id":"cebpf4jnsgd1na2vs0mg"},{"bike_id":"9b5f546d-e25a-4080-ba47-25b7850f5bd3","system_id":"levelo_inurba_marseille","lat":43.28729,"lon":5.36104,"is_reserved":false,"is_disabled":false,"rental_uris":{"android":"levelo://app?vid=9b5f546d-e25a-4080-ba47-25b7850f5bd3","ios":"levelo://app?vid=9b5f546d-e25a-4080-ba47-25b7850f5bd3"},"vehicle_type_id":"4","last_reported":1748924249,"current_range_meters":12000,"station_id":"cki0cbj6b192h4jlfktg","pricing_plan_id":"cebpf4jnsgd1na2vs0mg"},{"bike_id":"d144d0a6-8442-4d6c-b649-3639d789aa9f","system_id":"levelo_inurba_marseille","lat":43.294714,"lon":5.386566,"is_reserved":false,"is_disabled":false,"rental_uris":{"android":"levelo://app?vid=d144d0a6-8442-4d6c-b649-3639d789aa9f","ios":"levelo://app?vid=d144d0a6-8442-4d6c-b649-3639d789aa9f"},"vehicle_type_id":"4","last_reported":1748924249,"current_range_meters":12400,"station_id":"","pricing_plan_id":"cebpf4jnsgd1na2vs0mg"},{"bike_id":"e289ab91-0bec-45a1-90d3-6439ba734579","system_id":"levelo_inurba_marseille","lat":43.30442,"lon":5.38888,"is_reserved":false,"is_disabled":false,"rental_uris":{"android":"levelo://app?vid=e289ab91-0bec-45a1-90d3-6439ba734579","ios":"levelo://app?vid=e289ab91-0bec-45a1-90d3-6439ba734579"},"vehicle_type_id":"4","last_reported":1748924249,"current_range_meters":12800,"station_id":"ce4bgk12rcd13ifvqbi0","pricing_plan_id":"cebpf4jnsgd1na2vs0mg"},{"bike_id":"0ad7a620-d49a-4300-a404-a0ee7002ef3a","system_id":"levelo_inurba_marseille","lat":43.28478,"lon":5.38584,"is_reserved":false,"is_disabled":false,"rental_uris":{"android":"levelo://app?vid=0ad7a620-d49a-4300-a404-a0ee7002ef3a","ios":"levelo://app?vid=0ad7a620-d49a-4300-a404-a0ee7002ef3a"},"vehicle_type_id":"4","last_reported":1748924249,"current_range_meters":12800,"station_id":"ce4bh8p2rcd13ifvqeb0","pricing_plan_id":"cebpf4jnsgd1na2vs0mg"},{"bike_id":"cf9a9959-303f-40f9-b57e-3ca93b1edd13","system_id":"levelo_inurba_marseille","lat":43.288459,"lon":5.358491,"is_reserved":false,"is_disabled":false,"rental_uris":{"android":"levelo://app?vid=cf9a9959-303f-40f9-b57e-3ca93b1edd13","ios":"levelo://app?vid=cf9a9959-303f-40f9-b57e-3ca93b1edd13"},"vehicle_type_id":"4","last_reported":1748924249,"current_range_meters":12800,"station_id":"ce4bhb12rcd13ifvqem0","pricing_plan_id":"cebpf4jnsgd1na2vs0mg"},{"bike_id":"9a552693-b4be-48c5-8478-6bfdd9c37449","system_id":"levelo_inurba_marseille","lat":43.25099,"lon":5.40349,"is_reserved":false,"is_disabled":false,"rental_uris":{"android":"levelo://app?vid=9a552693-b4be-48c5-8478-6bfdd9c37449","ios":"levelo://app?vid=9a552693-b4be-48c5-8478-6bfdd9c37449"},"vehicle_type_id":"4","last_reported":1748924249,"current_range_meters":12800,"station_id":"ce4bhlh2rcd13ifvqgig","pricing_plan_id":"cebpf4jnsgd1na2vs0mg"},{"bike_id":"53196814-6051-40e4-bd7e-568c420b5ed1","system_id":"levelo_inurba_marseille","lat":43.251095,"lon":5.403158,"is_reserved":false,"is_disabled":false,"rental_uris":{"android":"levelo://app?vid=53196814-6051-40e4-bd7e-568c420b5ed1","ios":"levelo://app?vid=53196814-6051-40e4-bd7e-568c420b5ed1"},"vehicle_type_id":"4","last_reported":1748924249,"current_range_meters":13600,"station_id":"ce4bhlh2rcd13ifvqgig","pricing_plan_id":"cebpf4jnsgd1na2vs0mg"},{"bike_id":"44ae72ad-2a29-4306-829f-e2d7b277057b","system_id":"levelo_inurba_marseille","lat":43.306504,"lon":5.400687,"is_reserved":false,"is_disabled":false,"rental_uris":{"android":"levelo://app?vid=44ae72ad-2a29-4306-829f-e2d7b277057b","ios":"levelo://app?vid=44ae72ad-2a29-4306-829f-e2d7b277057b"},"vehicle_type_id":"4","last_reported":1748924249,"current_range_meters":14000,"station_id":"ce4bh112rcd13ifvqda0","pricing_plan_id":"cebpf4jnsgd1na2vs0mg"},{"bike_id":"c9f2be1b-2f8c-4441-adc0-d5dcc13ac72f","system_id":"levelo_inurba_marseille","lat":43.32426,"lon":5.37388,"is_reserved":false,"is_disabled":false,"rental_uris":{"android":"levelo://app?vid=c9f2be1b-2f8c-4441-adc0-d5dcc13ac72f","ios":"levelo://app?vid=c9f2be1b-2f8c-4441-adc0-d5dcc13ac72f"},"vehicle_type_id":"4","last_reported":1748924249,"current_range_meters":14400,"station_id":"","pricing_plan_id":"cebpf4jnsgd1na2vs0mg"},{"bike_id":"fe449715-63e8-4bb0-ab50-1ce780da3af6","system_id":"levelo_inurba_marseille","lat":43.311159,"lon":5.377656,"is_reserved":false,"is_disabled":false,"rental_uris":{"android":"levelo://app?vid=fe449715-63e8-4bb0-ab50-1ce780da3af6","ios":"levelo://app?vid=fe449715-63e8-4bb0-ab50-1ce780da3af6"},"vehicle_type_id":"4","last_reported":1748924249,"current_range_meters":14400,"station_id":"ce4bgt92rcd13ifvqcg0","pricing_plan_id":"cebpf4jnsgd1na2vs0mg"},{"bike_id":"063c29b9-1301-46d1-9308-5957595af501","system_id":"levelo_inurba_marseille","lat":43.309371,"lon":5.401506,"is_reserved":false,"is_disabled":false,"rental_uris":{"android":"levelo://app?vid=063c29b9-1301-46d1-9308-5957595af501","ios":"levelo://app?vid=063c29b9-1301-46d1-9308-5957595af501"},"vehicle_type_id":"4","last_reported":1748924249,"current_range_meters":14400,"station_id":"ce4bgvp2rcd13ifvqct0","pricing_plan_id":"cebpf4jnsgd1na2vs0mg"},{"bike_id":"82762f70-216b-4762-9e82-daaa45d19a35","system_id":"levelo_inurba_marseille","lat":43.241688,"lon":5.364024,"is_reserved":false,"is_disabled":false,"rental_uris":{"android":"levelo://app?vid=82762f70-216b-4762-9e82-daaa45d19a35","ios":"levelo://app?vid=82762f70-216b-4762-9e82-daaa45d19a35"},"vehicle_type_id":"4","last_reported":1748924249,"current_range_meters":14400,"station_id":"cpo36qri1sfpv3e86is0","pricing_plan_id":"cebpf4jnsgd1na2vs0mg"},{"bike_id":"807dc310-c340-49f0-b30e-302b8f9ae441","system_id":"levelo_inurba_marseille","lat":43.27326,"lon":5.39092,"is_reserved":false,"is_disabled":false,"rental_uris":{"android":"levelo://app?vid=807dc310-c340-49f0-b30e-302b8f9ae441","ios":"levelo://app?vid=807dc310-c340-49f0-b30e-302b8f9ae441"},"vehicle_type_id":"4","last_reported":1748924249,"current_range_meters":14800,"station_id":"ce4bhgp2rcd13ifvqfe0","pricing_plan_id":"cebpf4jnsgd1na2vs0mg"},{"bike_id":"6c7dc0b6-cea1-43c5-94ac-b10f8cfc40be","system_id":"levelo_inurba_marseille","lat":43.33037,"lon":5.39041,"is_reserved":false,"is_disabled":false,"rental_uris":{"android":"levelo://app?vid=6c7dc0b6-cea1-43c5-94ac-b10f8cfc40be","ios":"levelo://app?vid=6c7dc0b6-cea1-43c5-94ac-b10f8cfc40be"},"vehicle_type_id":"4","last_reported":1748924249,"current_range_meters":14800,"station_id":"ce4bhr92rcd13ifvqhrg","pricing_plan_id":"cebpf4jnsgd1na2vs0mg"},{"bike_id":"c61aa0f8-37eb-4f90-b064-55fcc4e26378","system_id":"levelo_inurba_marseille","lat":43.28347,"lon":5.38101,"is_reserved":false,"is_disabled":false,"rental_uris":{"android":"levelo://app?vid=c61aa0f8-37eb-4f90-b064-55fcc4e26378","ios":"levelo://app?vid=c61aa0f8-37eb-4f90-b064-55fcc4e26378"},"vehicle_type_id":"4","last_reported":1748924249,"current_range_meters":15200,"station_id":"ce4bh412rcd13ifvqdr0","pricing_plan_id":"cebpf4jnsgd1na2vs0mg"},{"bike_id":"6e9b1509-cd7a-4fe1-b391-c56a939874cd","system_id":"levelo_inurba_marseille","lat":43.28418,"lon":5.3499,"is_reserved":false,"is_disabled":false,"rental_uris":{"android":"levelo://app?vid=6e9b1509-cd7a-4fe1-b391-c56a939874cd","ios":"levelo://app?vid=6e9b1509-cd7a-4fe1-b391-c56a939874cd"},"vehicle_type_id":"4","last_reported":1748924249,"current_range_meters":15200,"station_id":"ce4bhbh2rcd13ifvqepg","pricing_plan_id":"cebpf4jnsgd1na2vs0mg"},{"bike_id":"e31c84f5-c44b-48e2-adf2-52a2beace6c7","system_id":"levelo_inurba_marseille","lat":43.317263,"lon":5.374303,"is_reserved":false,"is_disabled":false,"rental_uris":{"android":"levelo://app?vid=e31c84f5-c44b-48e2-adf2-52a2beace6c7","ios":"levelo://app?vid=e31c84f5-c44b-48e2-adf2-52a2beace6c7"},"vehicle_type_id":"4","last_reported":1748924249,"current_range_meters":16000,"station_id":"","pricing_plan_id":"cebpf4jnsgd1na2vs0mg"},{"bike_id":"64c320f3-8739-4026-9c50-8263b15c7ee9","system_id":"levelo_inurba_marseille","lat":43.30466,"lon":5.38925,"is_reserved":false,"is_disabled":false,"rental_uris":{"android":"levelo://app?vid=64c320f3-8739-4026-9c50-8263b15c7ee9","ios":"levelo://app?vid=64c320f3-8739-4026-9c50-8263b15c7ee9"},"vehicle_type_id":"4","last_reported":1748924249,"current_range_meters":16000,"station_id":"ce4bgk12rcd13ifvqbi0","pricing_plan_id":"cebpf4jnsgd1na2vs0mg"},{"bike_id":"abd1a18a-034f-460d-b1a6-574249a9d126","system_id":"levelo_inurba_marseille","lat":43.30941,"lon":5.40153,"is_reserved":false,"is_disabled":false,"rental_uris":{"android":"levelo://app?vid=abd1a18a-034f-460d-b1a6-574249a9d126","ios":"levelo://app?vid=abd1a18a-034f-460d-b1a6-574249a9d126"},"vehicle_type_id":"4","last_reported":1748924249,"current_range_meters":16000,"station_id":"ce4bgvp2rcd13ifvqct0","pricing_plan_id":"cebpf4jnsgd1na2vs0mg"},{"bike_id":"b788ecf4-1f87-4b82-9984-bd97a0c41edc","system_id":"levelo_inurba_marseille","lat":43.28859,"lon":5.39312,"is_reserved":false,"is_disabled":false,"rental_uris":{"android":"levelo://app?vid=b788ecf4-1f87-4b82-9984-bd97a0c41edc","ios":"levelo://app?vid=b788ecf4-1f87-4b82-9984-bd97a0c41edc"},"vehicle_type_id":"4","last_reported":1748924249,"current_range_meters":16000,"station_id":"ce4bh2p2rcd13ifvqdi0","pricing_plan_id":"cebpf4jnsgd1na2vs0mg"},{"bike_id":"d6b4f83b-af76-4e61-9127-05c693f1fcc0","system_id":"levelo_inurba_marseille","lat":43.240704,"lon":5.377728,"is_reserved":false,"is_disabled":false,"rental_uris":{"android":"levelo://app?vid=d6b4f83b-af76-4e61-9127-05c693f1fcc0","ios":"levelo://app?vid=d6b4f83b-af76-4e61-9127-05c693f1fcc0"},"vehicle_type_id":"4","last_reported":1748924249,"current_range_meters":16000,"station_id":"ce4bhnp2rcd13ifvqgvg","pricing_plan_id":"cebpf4jnsgd1na2vs0mg"},{"bike_id":"89fe64c7-aff6-494e-8271-d9c172c2b8af","system_id":"levelo_inurba_marseille","lat":43.27957,"lon":5.41037,"is_reserved":false,"is_disabled":false,"rental_uris":{"android":"levelo://app?vid=89fe64c7-aff6-494e-8271-d9c172c2b8af","ios":"levelo://app?vid=89fe64c7-aff6-494e-8271-d9c172c2b8af"},"vehicle_type_id":"4","last_reported":1748924249,"current_range_meters":16000,"station_id":"ce4bhnp2rcd13ifvqh0g","pricing_plan_id":"cebpf4jnsgd1na2vs0mg"},{"bike_id":"8756fb07-7ca7-47ca-9987-8fa6fdbad341","system_id":"levelo_inurba_marseille","lat":43.326563,"lon":5.409942,"is_reserved":false,"is_disabled":false,"rental_uris":{"android":"levelo://app?vid=8756fb07-7ca7-47ca-9987-8fa6fdbad341","ios":"levelo://app?vid=8756fb07-7ca7-47ca-9987-8fa6fdbad341"},"vehicle_type_id":"4","last_reported":1748924249,"current_range_meters":16000,"station_id":"ce4bhpp2rcd13ifvqhgg","pricing_plan_id":"cebpf4jnsgd1na2vs0mg"},{"bike_id":"56ebd079-5325-4146-a252-c6e09bfabc00","system_id":"levelo_inurba_marseille","lat":43.318951,"lon":5.407424,"is_reserved":false,"is_disabled":false,"rental_uris":{"android":"levelo://app?vid=56ebd079-5325-4146-a252-c6e09bfabc00","ios":"levelo://app?vid=56ebd079-5325-4146-a252-c6e09bfabc00"},"vehicle_type_id":"4","last_reported":1748924249,"current_range_meters":16000,"station_id":"ce4bhq12rcd13ifvqhig","pricing_plan_id":"cebpf4jnsgd1na2vs0mg"},{"bike_id":"b7557344-82f1-4a35-96d4-b128a1446f19","system_id":"levelo_inurba_marseille","lat":43.32373,"lon":5.38912,"is_reserved":false,"is_disabled":false,"rental_uris":{"android":"levelo://app?vid=b7557344-82f1-4a35-96d4-b128a1446f19","ios":"levelo://app?vid=b7557344-82f1-4a35-96d4-b128a1446f19"},"vehicle_type_id":"4","last_reported":1748924249,"current_range_meters":16000,"station_id":"ce4bhqp2rcd13ifvqhog","pricing_plan_id":"cebpf4jnsgd1na2vs0mg"},{"bike_id":"1cb7c0a1-48f8-49ab-9106-52040059037c","system_id":"levelo_inurba_marseille","lat":43.23057,"lon":5.35488,"is_reserved":false,"is_disabled":false,"rental_uris":{"android":"levelo://app?vid=1cb7c0a1-48f8-49ab-9106-52040059037c","ios":"levelo://app?vid=1cb7c0a1-48f8-49ab-9106-52040059037c"},"vehicle_type_id":"4","last_reported":1748924249,"current_range_meters":16000,"station_id":"cpo3342slgdg3j2ifvpg","pricing_plan_id":"cebpf4jnsgd1na2vs0mg"},{"bike_id":"91e2ebb5-9aae-49b8-891c-7675c71ef12d","system_id":"levelo_inurba_marseille","lat":43.30855,"lon":5.39616,"is_reserved":false,"is_disabled":false,"rental_uris":{"android":"levelo://app?vid=91e2ebb5-9aae-49b8-891c-7675c71ef12d","ios":"levelo://app?vid=91e2ebb5-9aae-49b8-891c-7675c71ef12d"},"vehicle_type_id":"4","last_reported":1748924249,"current_range_meters":16400,"station_id":"","pricing_plan_id":"cebpf4jnsgd1na2vs0mg"},{"bike_id":"a082cfc8-70c0-4316-b58b-8dca0406cb1a","system_id":"levelo_inurba_marseille","lat":43.25448,"lon":5.41858,"is_reserved":false,"is_disabled":false,"rental_uris":{"android":"levelo://app?vid=a082cfc8-70c0-4316-b58b-8dca0406cb1a","ios":"levelo://app?vid=a082cfc8-70c0-4316-b58b-8dca0406cb1a"},"vehicle_type_id":"4","last_reported":1748924249,"current_range_meters":16400,"station_id":"","pricing_plan_id":"cebpf4jnsgd1na2vs0mg"},{"bike_id":"dba232dd-05ec-4177-8fee-3d3dc476d851","system_id":"levelo_inurba_marseille","lat":43.279879,"lon":5.416519,"is_reserved":false,"is_disabled":false,"rental_uris":{"android":"levelo://app?vid=dba232dd-05ec-4177-8fee-3d3dc476d851","ios":"levelo://app?vid=dba232dd-05ec-4177-8fee-3d3dc476d851"},"vehicle_type_id":"4","last_reported":1748924249,"current_range_meters":16400,"station_id":"ce4bho12rcd13ifvqh1g","pricing_plan_id":"cebpf4jnsgd1na2vs0mg"},{"bike_id":"6db8da9d-ed27-45cf-9935-6e37c99d0be9","system_id":"levelo_inurba_marseille","lat":43.26227,"lon":5.40153,"is_reserved":false,"is_disabled":false,"rental_uris":{"android":"levelo://app?vid=6db8da9d-ed27-45cf-9935-6e37c99d0be9","ios":"levelo://app?vid=6db8da9d-ed27-45cf-9935-6e37c99d0be9"},"vehicle_type_id":"4","last_reported":1748924249,"current_range_meters":16800,"station_id":"","pricing_plan_id":"cebpf4jnsgd1na2vs0mg"},{"bike_id":"d637341d-e5b5-41b1-9b2c-0a3f7fc6d4c4","system_id":"levelo_inurba_marseille","lat":43.302525,"lon":5.400791,"is_reserved":false,"is_disabled":false,"rental_uris":{"android":"levelo://app?vid=d637341d-e5b5-41b1-9b2c-0a3f7fc6d4c4","ios":"levelo://app?vid=d637341d-e5b5-41b1-9b2c-0a3f7fc6d4c4"},"vehicle_type_id":"4","last_reported":1748924249,"current_range_meters":16800,"station_id":"ce4bgvh2rcd13ifvqcs0","pricing_plan_id":"cebpf4jnsgd1na2vs0mg"},{"bike_id":"8e45c534-9f38-4aaf-bfc0-20831aa0c778","system_id":"levelo_inurba_marseille","lat":43.26074,"lon":5.39383,"is_reserved":false,"is_disabled":false,"rental_uris":{"android":"levelo://app?vid=8e45c534-9f38-4aaf-bfc0-20831aa0c778","ios":"levelo://app?vid=8e45c534-9f38-4aaf-bfc0-20831aa0c778"},"vehicle_type_id":"4","last_reported":1748924249,"current_range_meters":16800,"station_id":"ce4bhh92rcd13ifvqfj0","pricing_plan_id":"cebpf4jnsgd1na2vs0mg"},{"bike_id":"e7db7c67-114d-485f-9f39-1875e977dab5","system_id":"levelo_inurba_marseille","lat":43.279558,"lon":5.410443,"is_reserved":false,"is_disabled":false,"rental_uris":{"android":"levelo://app?vid=e7db7c67-114d-485f-9f39-1875e977dab5","ios":"levelo://app?vid=e7db7c67-114d-485f-9f39-1875e977dab5"},"vehicle_type_id":"4","last_reported":1748924249,"current_range_meters":16800,"station_id":"ce4bhnp2rcd13ifvqh0g","pricing_plan_id":"cebpf4jnsgd1na2vs0mg"},{"bike_id":"859fcab1-74b2-40a1-b9e6-866c899a681e","system_id":"levelo_inurba_marseille","lat":43.279885,"lon":5.400168,"is_reserved":false,"is_disabled":false,"rental_uris":{"android":"levelo://app?vid=859fcab1-74b2-40a1-b9e6-866c899a681e","ios":"levelo://app?vid=859fcab1-74b2-40a1-b9e6-866c899a681e"},"vehicle_type_id":"4","last_reported":1748924249,"current_range_meters":16800,"station_id":"ce4bho92rcd13ifvqh4g","pricing_plan_id":"cebpf4jnsgd1na2vs0mg"},{"bike_id":"4e17c123-8236-4a02-a8a2-a61cdc625d7e","system_id":"levelo_inurba_marseille","lat":43.30483,"lon":5.37073,"is_reserved":false,"is_disabled":false,"rental_uris":{"android":"levelo://app?vid=4e17c123-8236-4a02-a8a2-a61cdc625d7e","ios":"levelo://app?vid=4e17c123-8236-4a02-a8a2-a61cdc625d7e"},"vehicle_type_id":"4","last_reported":1748924249,"current_range_meters":17200,"station_id":"","pricing_plan_id":"cebpf4jnsgd1na2vs0mg"},{"bike_id":"821e87fa-7583-4681-a870-c6e73af33580","system_id":"levelo_inurba_marseille","lat":43.281502,"lon":5.426646,"is_reserved":false,"is_disabled":false,"rental_uris":{"android":"levelo://app?vid=821e87fa-7583-4681-a870-c6e73af33580","ios":"levelo://app?vid=821e87fa-7583-4681-a870-c6e73af33580"},"vehicle_type_id":"4","last_reported":1748924249,"current_range_meters":17200,"station_id":"ce4bhnh2rcd13ifvqgug","pricing_plan_id":"cebpf4jnsgd1na2vs0mg"},{"bike_id":"75b78a8c-e650-4bd1-8ece-c515b3b1ca86","system_id":"levelo_inurba_marseille","lat":43.240729,"lon":5.377573,"is_reserved":false,"is_disabled":false,"rental_uris":{"android":"levelo://app?vid=75b78a8c-e650-4bd1-8ece-c515b3b1ca86","ios":"levelo://app?vid=75b78a8c-e650-4bd1-8ece-c515b3b1ca86"},"vehicle_type_id":"4","last_reported":1748924249,"current_range_meters":17200,"station_id":"ce4bhnp2rcd13ifvqgvg","pricing_plan_id":"cebpf4jnsgd1na2vs0mg"},{"bike_id":"e073c3b9-579e-431b-8c54-b6a28caa0933","system_id":"levelo_inurba_marseille","lat":43.229289,"lon":5.353876,"is_reserved":false,"is_disabled":false,"rental_uris":{"android":"levelo://app?vid=e073c3b9-579e-431b-8c54-b6a28caa0933","ios":"levelo://app?vid=e073c3b9-579e-431b-8c54-b6a28caa0933"},"vehicle_type_id":"4","last_reported":1748924249,"current_range_meters":17200,"station_id":"cpo3532slgdg3j2ikp40","pricing_plan_id":"cebpf4jnsgd1na2vs0mg"},{"bike_id":"d51ebfd8-5b80-4263-8a36-a1c01e067738","system_id":"levelo_inurba_marseille","lat":43.30532,"lon":5.384295,"is_reserved":false,"is_disabled":false,"rental_uris":{"android":"levelo://app?vid=d51ebfd8-5b80-4263-8a36-a1c01e067738","ios":"levelo://app?vid=d51ebfd8-5b80-4263-8a36-a1c01e067738"},"vehicle_type_id":"4","last_reported":1748924249,"current_range_meters":17600,"station_id":"ce4bgg92rcd13ifvqb30","pricing_plan_id":"cebpf4jnsgd1na2vs0mg"},{"bike_id":"6a1d81c6-deed-4676-a232-253b9c013538","system_id":"levelo_inurba_marseille","lat":43.304455,"lon":5.388768,"is_reserved":false,"is_disabled":false,"rental_uris":{"android":"levelo://app?vid=6a1d81c6-deed-4676-a232-253b9c013538","ios":"levelo://app?vid=6a1d81c6-deed-4676-a232-253b9c013538"},"vehicle_type_id":"4","last_reported":1748924249,"current_range_meters":17600,"station_id":"ce4bgk12rcd13ifvqbi0","pricing_plan_id":"cebpf4jnsgd1na2vs0mg"},{"bike_id":"9577edff-be42-4822-a3a7-3ee7b299d51a","system_id":"levelo_inurba_marseille","lat":43.307773,"lon":5.376513,"is_reserved":false,"is_disabled":false,"rental_uris":{"android":"levelo://app?vid=9577edff-be42-4822-a3a7-3ee7b299d51a","ios":"levelo://app?vid=9577edff-be42-4822-a3a7-3ee7b299d51a"},"vehicle_type_id":"4","last_reported":1748924249,"current_range_meters":17600,"station_id":"ce4bgv92rcd13ifvqcq0","pricing_plan_id":"cebpf4jnsgd1na2vs0mg"},{"bike_id":"1e12e4a7-50d2-4f23-bde2-5b38c292e40a","system_id":"levelo_inurba_marseille","lat":43.31763,"lon":5.40407,"is_reserved":false,"is_disabled":false,"rental_uris":{"android":"levelo://app?vid=1e12e4a7-50d2-4f23-bde2-5b38c292e40a","ios":"levelo://app?vid=1e12e4a7-50d2-4f23-bde2-5b38c292e40a"},"vehicle_type_id":"4","last_reported":1748924249,"current_range_meters":17600,"station_id":"ce4bh012rcd13ifvqd00","pricing_plan_id":"cebpf4jnsgd1na2vs0mg"},{"bike_id":"3c8e7a18-de47-410f-938b-d8977225abf3","system_id":"levelo_inurba_marseille","lat":43.29275,"lon":5.40142,"is_reserved":false,"is_disabled":false,"rental_uris":{"android":"levelo://app?vid=3c8e7a18-de47-410f-938b-d8977225abf3","ios":"levelo://app?vid=3c8e7a18-de47-410f-938b-d8977225abf3"},"vehicle_type_id":"4","last_reported":1748924249,"current_range_meters":17600,"station_id":"ce4bh312rcd13ifvqdk0","pricing_plan_id":"cebpf4jnsgd1na2vs0mg"},{"bike_id":"96425785-67ec-44b8-ac35-6530cd1939ae","system_id":"levelo_inurba_marseille","lat":43.24172,"lon":5.39718,"is_reserved":false,"is_disabled":false,"rental_uris":{"android":"levelo://app?vid=96425785-67ec-44b8-ac35-6530cd1939ae","ios":"levelo://app?vid=96425785-67ec-44b8-ac35-6530cd1939ae"},"vehicle_type_id":"4","last_reported":1748924249,"current_range_meters":17600,"station_id":"ce4bhn12rcd13ifvqgpg","pricing_plan_id":"cebpf4jnsgd1na2vs0mg"},{"bike_id":"bae57be5-cdae-42d5-be07-b232b26642d0","system_id":"levelo_inurba_marseille","lat":43.32351,"lon":5.40599,"is_reserved":false,"is_disabled":false,"rental_uris":{"android":"levelo://app?vid=bae57be5-cdae-42d5-be07-b232b26642d0","ios":"levelo://app?vid=bae57be5-cdae-42d5-be07-b232b26642d0"},"vehicle_type_id":"4","last_reported":1748924249,"current_range_meters":17600,"station_id":"ce4bhq92rcd13ifvqhjg","pricing_plan_id":"cebpf4jnsgd1na2vs0mg"},{"bike_id":"0b356486-7882-4a7b-adf5-4fabd328daf9","system_id":"levelo_inurba_marseille","lat":43.287233,"lon":5.360873,"is_reserved":false,"is_disabled":false,"rental_uris":{"android":"levelo://app?vid=0b356486-7882-4a7b-adf5-4fabd328daf9","ios":"levelo://app?vid=0b356486-7882-4a7b-adf5-4fabd328daf9"},"vehicle_type_id":"4","last_reported":1748924249,"current_range_meters":17600,"station_id":"cki0cbj6b192h4jlfktg","pricing_plan_id":"cebpf4jnsgd1na2vs0mg"},{"bike_id":"a062fae3-bf19-4ed3-b11f-bbec44e3344b","system_id":"levelo_inurba_marseille","lat":43.320934,"lon":5.407778,"is_reserved":false,"is_disabled":false,"rental_uris":{"android":"levelo://app?vid=a062fae3-bf19-4ed3-b11f-bbec44e3344b","ios":"levelo://app?vid=a062fae3-bf19-4ed3-b11f-bbec44e3344b"},"vehicle_type_id":"4","last_reported":1748924249,"current_range_meters":18000,"station_id":"","pricing_plan_id":"cebpf4jnsgd1na2vs0mg"},{"bike_id":"03c8c524-d600-4d9e-aa7f-f80a900da483","system_id":"levelo_inurba_marseille","lat":43.27949,"lon":5.4104,"is_reserved":false,"is_disabled":false,"rental_uris":{"android":"levelo://app?vid=03c8c524-d600-4d9e-aa7f-f80a900da483","ios":"levelo://app?vid=03c8c524-d600-4d9e-aa7f-f80a900da483"},"vehicle_type_id":"4","last_reported":1748924249,"current_range_meters":18000,"station_id":"ce4bhnp2rcd13ifvqh0g","pricing_plan_id":"cebpf4jnsgd1na2vs0mg"},{"bike_id":"23976131-e815-4c78-b392-beb17b57ea0f","system_id":"levelo_inurba_marseille","lat":43.341474,"lon":5.409041,"is_reserved":false,"is_disabled":false,"rental_uris":{"android":"levelo://app?vid=23976131-e815-4c78-b392-beb17b57ea0f","ios":"levelo://app?vid=23976131-e815-4c78-b392-beb17b57ea0f"},"vehicle_type_id":"4","last_reported":1748924249,"current_range_meters":18000,"station_id":"ce4bhqh2rcd13ifvqhlg","pricing_plan_id":"cebpf4jnsgd1na2vs0mg"},{"bike_id":"5b536054-600d-4e23-8558-f74f4f3ec365","system_id":"levelo_inurba_marseille","lat":43.33015,"lon":5.39041,"is_reserved":false,"is_disabled":false,"rental_uris":{"android":"levelo://app?vid=5b536054-600d-4e23-8558-f74f4f3ec365","ios":"levelo://app?vid=5b536054-600d-4e23-8558-f74f4f3ec365"},"vehicle_type_id":"4","last_reported":1748924249,"current_range_meters":18000,"station_id":"ce4bhr92rcd13ifvqhrg","pricing_plan_id":"cebpf4jnsgd1na2vs0mg"},{"bike_id":"f0d34e7f-8103-46e9-a438-c85d36f28543","system_id":"levelo_inurba_marseille","lat":43.278706,"lon":5.354354,"is_reserved":false,"is_disabled":false,"rental_uris":{"android":"levelo://app?vid=f0d34e7f-8103-46e9-a438-c85d36f28543","ios":"levelo://app?vid=f0d34e7f-8103-46e9-a438-c85d36f28543"},"vehicle_type_id":"4","last_reported":1748924249,"current_range_meters":18800,"station_id":"","pricing_plan_id":"cebpf4jnsgd1na2vs0mg"},{"bike_id":"6aca9468-6d9e-40f6-8b33-c8f85482b39d","system_id":"levelo_inurba_marseille","lat":43.30159,"lon":5.38086,"is_reserved":false,"is_disabled":false,"rental_uris":{"android":"levelo://app?vid=6aca9468-6d9e-40f6-8b33-c8f85482b39d","ios":"levelo://app?vid=6aca9468-6d9e-40f6-8b33-c8f85482b39d"},"vehicle_type_id":"4","last_reported":1748924249,"current_range_meters":18800,"station_id":"ce4bgjp2rcd13ifvqbh0","pricing_plan_id":"cebpf4jnsgd1na2vs0mg"},{"bike_id":"5078f4c3-6e97-4a53-af7c-872f764df23c","system_id":"levelo_inurba_marseille","lat":43.309285,"lon":5.401464,"is_reserved":false,"is_disabled":false,"rental_uris":{"android":"levelo://app?vid=5078f4c3-6e97-4a53-af7c-872f764df23c","ios":"levelo://app?vid=5078f4c3-6e97-4a53-af7c-872f764df23c"},"vehicle_type_id":"4","last_reported":1748924249,"current_range_meters":18800,"station_id":"ce4bgvp2rcd13ifvqct0","pricing_plan_id":"cebpf4jnsgd1na2vs0mg"},{"bike_id":"afd16c10-99dc-4900-b89b-fa3b07370883","system_id":"levelo_inurba_marseille","lat":43.28442,"lon":5.35899,"is_reserved":false,"is_disabled":false,"rental_uris":{"android":"levelo://app?vid=afd16c10-99dc-4900-b89b-fa3b07370883","ios":"levelo://app?vid=afd16c10-99dc-4900-b89b-fa3b07370883"},"vehicle_type_id":"4","last_reported":1748924249,"current_range_meters":18800,"station_id":"ce4bhah2rcd13ifvqei0","pricing_plan_id":"cebpf4jnsgd1na2vs0mg"},{"bike_id":"fb596a8f-b4d3-43a2-8ca3-55a861bd54ea","system_id":"levelo_inurba_marseille","lat":43.288546,"lon":5.358539,"is_reserved":false,"is_disabled":false,"rental_uris":{"android":"levelo://app?vid=fb596a8f-b4d3-43a2-8ca3-55a861bd54ea","ios":"levelo://app?vid=fb596a8f-b4d3-43a2-8ca3-55a861bd54ea"},"vehicle_type_id":"4","last_reported":1748924249,"current_range_meters":18800,"station_id":"ce4bhb12rcd13ifvqem0","pricing_plan_id":"cebpf4jnsgd1na2vs0mg"},{"bike_id":"cba1e804-be3e-4e4a-bae3-175ff233b5ce","system_id":"levelo_inurba_marseille","lat":43.28154,"lon":5.42648,"is_reserved":false,"is_disabled":false,"rental_uris":{"android":"levelo://app?vid=cba1e804-be3e-4e4a-bae3-175ff233b5ce","ios":"levelo://app?vid=cba1e804-be3e-4e4a-bae3-175ff233b5ce"},"vehicle_type_id":"4","last_reported":1748924249,"current_range_meters":18800,"station_id":"ce4bhnh2rcd13ifvqgug","pricing_plan_id":"cebpf4jnsgd1na2vs0mg"},{"bike_id":"f499ec0f-5b97-4106-9d62-953eecf013c2","system_id":"levelo_inurba_marseille","lat":43.240696,"lon":5.37763,"is_reserved":false,"is_disabled":false,"rental_uris":{"android":"levelo://app?vid=f499ec0f-5b97-4106-9d62-953eecf013c2","ios":"levelo://app?vid=f499ec0f-5b97-4106-9d62-953eecf013c2"},"vehicle_type_id":"4","last_reported":1748924249,"current_range_meters":18800,"station_id":"ce4bhnp2rcd13ifvqgvg","pricing_plan_id":"cebpf4jnsgd1na2vs0mg"},{"bike_id":"22f839c0-7837-49f4-b4b1-6cd233d79363","system_id":"levelo_inurba_marseille","lat":43.299039,"lon":5.436611,"is_reserved":false,"is_disabled":false,"rental_uris":{"android":"levelo://app?vid=22f839c0-7837-49f4-b4b1-6cd233d79363","ios":"levelo://app?vid=22f839c0-7837-49f4-b4b1-6cd233d79363"},"vehicle_type_id":"4","last_reported":1748924249,"current_range_meters":18800,"station_id":"ce4bhpp2rcd13ifvqhfg","pricing_plan_id":"cebpf4jnsgd1na2vs0mg"},{"bike_id":"fe4fdd90-43e4-402f-8db4-2169a76a80fb","system_id":"levelo_inurba_marseille","lat":43.290419,"lon":5.399526,"is_reserved":false,"is_disabled":false,"rental_uris":{"android":"levelo://app?vid=fe4fdd90-43e4-402f-8db4-2169a76a80fb","ios":"levelo://app?vid=fe4fdd90-43e4-402f-8db4-2169a76a80fb"},"vehicle_type_id":"4","last_reported":1748924249,"current_range_meters":19200,"station_id":"ce4bh392rcd13ifvqdm0","pricing_plan_id":"cebpf4jnsgd1na2vs0mg"},{"bike_id":"a3dfb24d-2bc1-4dbc-b2b2-807b9fa8d499","system_id":"levelo_inurba_marseille","lat":43.307998,"lon":5.435316,"is_reserved":false,"is_disabled":false,"rental_uris":{"android":"levelo://app?vid=a3dfb24d-2bc1-4dbc-b2b2-807b9fa8d499","ios":"levelo://app?vid=a3dfb24d-2bc1-4dbc-b2b2-807b9fa8d499"},"vehicle_type_id":"4","last_reported":1748924249,"current_range_meters":19200,"station_id":"ce4bhph2rcd13ifvqheg","pricing_plan_id":"cebpf4jnsgd1na2vs0mg"},{"bike_id":"7b2dbc74-1a85-494d-9e5e-f3ffacd55231","system_id":"levelo_inurba_marseille","lat":43.309319,"lon":5.401437,"is_reserved":false,"is_disabled":false,"rental_uris":{"android":"levelo://app?vid=7b2dbc74-1a85-494d-9e5e-f3ffacd55231","ios":"levelo://app?vid=7b2dbc74-1a85-494d-9e5e-f3ffacd55231"},"vehicle_type_id":"4","last_reported":1748924249,"current_range_meters":19600,"station_id":"ce4bgvp2rcd13ifvqct0","pricing_plan_id":"cebpf4jnsgd1na2vs0mg"},{"bike_id":"50f2762f-7ef4-4d8a-8d1e-6ecf8747f020","system_id":"levelo_inurba_marseille","lat":43.309319,"lon":5.401446,"is_reserved":false,"is_disabled":false,"rental_uris":{"android":"levelo://app?vid=50f2762f-7ef4-4d8a-8d1e-6ecf8747f020","ios":"levelo://app?vid=50f2762f-7ef4-4d8a-8d1e-6ecf8747f020"},"vehicle_type_id":"4","last_reported":1748924249,"current_range_meters":19600,"station_id":"ce4bgvp2rcd13ifvqct0","pricing_plan_id":"cebpf4jnsgd1na2vs0mg"},{"bike_id":"62956cae-5e9e-4b89-8455-cf68c1489f6a","system_id":"levelo_inurba_marseille","lat":43.292548,"lon":5.409048,"is_reserved":false,"is_disabled":false,"rental_uris":{"android":"levelo://app?vid=62956cae-5e9e-4b89-8455-cf68c1489f6a","ios":"levelo://app?vid=62956cae-5e9e-4b89-8455-cf68c1489f6a"},"vehicle_type_id":"4","last_reported":1748924249,"current_range_meters":19600,"station_id":"ce4bh192rcd13ifvqdc0","pricing_plan_id":"cebpf4jnsgd1na2vs0mg"},{"bike_id":"da26f9ff-4cda-48ab-9722-2ad8b0e7cac4","system_id":"levelo_inurba_marseille","lat":43.284061,"lon":5.375186,"is_reserved":false,"is_disabled":false,"rental_uris":{"android":"levelo://app?vid=da26f9ff-4cda-48ab-9722-2ad8b0e7cac4","ios":"levelo://app?vid=da26f9ff-4cda-48ab-9722-2ad8b0e7cac4"},"vehicle_type_id":"4","last_reported":1748924249,"current_range_meters":19600,"station_id":"ce4bh412rcd13ifvqds0","pricing_plan_id":"cebpf4jnsgd1na2vs0mg"},{"bike_id":"826b2db6-1579-4beb-a849-09c1cda03041","system_id":"levelo_inurba_marseille","lat":43.279062,"lon":5.380038,"is_reserved":false,"is_disabled":false,"rental_uris":{"android":"levelo://app?vid=826b2db6-1579-4beb-a849-09c1cda03041","ios":"levelo://app?vid=826b2db6-1579-4beb-a849-09c1cda03041"},"vehicle_type_id":"4","last_reported":1748924249,"current_range_meters":19600,"station_id":"ce4bhf92rcd13ifvqf50","pricing_plan_id":"cebpf4jnsgd1na2vs0mg"},{"bike_id":"ba04a7a3-0ee0-4a4a-a541-5893a2d59118","system_id":"levelo_inurba_marseille","lat":43.258291,"lon":5.394179,"is_reserved":false,"is_disabled":false,"rental_uris":{"android":"levelo://app?vid=ba04a7a3-0ee0-4a4a-a541-5893a2d59118","ios":"levelo://app?vid=ba04a7a3-0ee0-4a4a-a541-5893a2d59118"},"vehicle_type_id":"4","last_reported":1748924249,"current_range_meters":19600,"station_id":"ce4bhip2rcd13ifvqft0","pricing_plan_id":"cebpf4jnsgd1na2vs0mg"},{"bike_id":"d132d9b5-c167-4dfd-afdf-58198eef141b","system_id":"levelo_inurba_marseille","lat":43.24545,"lon":5.39541,"is_reserved":false,"is_disabled":false,"rental_uris":{"android":"levelo://app?vid=d132d9b5-c167-4dfd-afdf-58198eef141b","ios":"levelo://app?vid=d132d9b5-c167-4dfd-afdf-58198eef141b"},"vehicle_type_id":"4","last_reported":1748924249,"current_range_meters":19600,"station_id":"ce4bhlp2rcd13ifvqgjg","pricing_plan_id":"cebpf4jnsgd1na2vs0mg"},{"bike_id":"e5ffc1cb-a704-403e-ab7b-31df1fc02011","system_id":"levelo_inurba_marseille","lat":43.27944,"lon":5.41043,"is_reserved":false,"is_disabled":false,"rental_uris":{"android":"levelo://app?vid=e5ffc1cb-a704-403e-ab7b-31df1fc02011","ios":"levelo://app?vid=e5ffc1cb-a704-403e-ab7b-31df1fc02011"},"vehicle_type_id":"4","last_reported":1748924249,"current_range_meters":19600,"station_id":"ce4bhnp2rcd13ifvqh0g","pricing_plan_id":"cebpf4jnsgd1na2vs0mg"},{"bike_id":"2a804f07-ef43-4ee0-aa11-f4b6cb9df5af","system_id":"levelo_inurba_marseille","lat":43.297858,"lon":5.393629,"is_reserved":false,"is_disabled":false,"rental_uris":{"android":"levelo://app?vid=2a804f07-ef43-4ee0-aa11-f4b6cb9df5af","ios":"levelo://app?vid=2a804f07-ef43-4ee0-aa11-f4b6cb9df5af"},"vehicle_type_id":"4","last_reported":1748924249,"current_range_meters":19600,"station_id":"chh1huq6cuj3fo74tm60","pricing_plan_id":"cebpf4jnsgd1na2vs0mg"},{"bike_id":"d509d84e-f359-4ef5-8817-0a56485e7e15","system_id":"levelo_inurba_marseille","lat":43.23896,"lon":5.38851,"is_reserved":false,"is_disabled":false,"rental_uris":{"android":"levelo://app?vid=d509d84e-f359-4ef5-8817-0a56485e7e15","ios":"levelo://app?vid=d509d84e-f359-4ef5-8817-0a56485e7e15"},"vehicle_type_id":"4","last_reported":1748924249,"current_range_meters":20000,"station_id":"","pricing_plan_id":"cebpf4jnsgd1na2vs0mg"},{"bike_id":"574f3d6d-6f63-413d-812b-ec9cbd923100","system_id":"levelo_inurba_marseille","lat":43.29631,"lon":5.406,"is_reserved":false,"is_disabled":false,"rental_uris":{"android":"levelo://app?vid=574f3d6d-6f63-413d-812b-ec9cbd923100","ios":"levelo://app?vid=574f3d6d-6f63-413d-812b-ec9cbd923100"},"vehicle_type_id":"4","last_reported":1748924249,"current_range_meters":20000,"station_id":"ce4bh0h2rcd13ifvqd60","pricing_plan_id":"cebpf4jnsgd1na2vs0mg"},{"bike_id":"71af0257-4ccb-49c9-89e1-f5353687ca7e","system_id":"levelo_inurba_marseille","lat":43.300737,"lon":5.390747,"is_reserved":false,"is_disabled":false,"rental_uris":{"android":"levelo://app?vid=71af0257-4ccb-49c9-89e1-f5353687ca7e","ios":"levelo://app?vid=71af0257-4ccb-49c9-89e1-f5353687ca7e"},"vehicle_type_id":"4","last_reported":1748924249,"current_range_meters":20000,"station_id":"ce4bh192rcd13ifvqdb0","pricing_plan_id":"cebpf4jnsgd1na2vs0mg"},{"bike_id":"48da913c-189e-4adb-8b41-df2f525f675f","system_id":"levelo_inurba_marseille","lat":43.278977,"lon":5.379978,"is_reserved":false,"is_disabled":false,"rental_uris":{"android":"levelo://app?vid=48da913c-189e-4adb-8b41-df2f525f675f","ios":"levelo://app?vid=48da913c-189e-4adb-8b41-df2f525f675f"},"vehicle_type_id":"4","last_reported":1748924249,"current_range_meters":20000,"station_id":"ce4bhf92rcd13ifvqf50","pricing_plan_id":"cebpf4jnsgd1na2vs0mg"},{"bike_id":"c2e1d283-a417-4a2a-b2e7-7c87606a7a42","system_id":"levelo_inurba_marseille","lat":43.251059,"lon":5.40316,"is_reserved":false,"is_disabled":false,"rental_uris":{"android":"levelo://app?vid=c2e1d283-a417-4a2a-b2e7-7c87606a7a42","ios":"levelo://app?vid=c2e1d283-a417-4a2a-b2e7-7c87606a7a42"},"vehicle_type_id":"4","last_reported":1748924249,"current_range_meters":20000,"station_id":"ce4bhlh2rcd13ifvqgig","pricing_plan_id":"cebpf4jnsgd1na2vs0mg"},{"bike_id":"2a6dca92-5f50-417b-99c5-6c535ece6724","system_id":"levelo_inurba_marseille","lat":43.274958,"lon":5.424503,"is_reserved":false,"is_disabled":false,"rental_uris":{"android":"levelo://app?vid=2a6dca92-5f50-417b-99c5-6c535ece6724","ios":"levelo://app?vid=2a6dca92-5f50-417b-99c5-6c535ece6724"},"vehicle_type_id":"4","last_reported":1748924249,"current_range_meters":20000,"station_id":"ce4bhn92rcd13ifvqgrg","pricing_plan_id":"cebpf4jnsgd1na2vs0mg"},{"bike_id":"143434d9-c66a-4f6f-95e1-671fee3703ec","system_id":"levelo_inurba_marseille","lat":43.25322,"lon":5.377037,"is_reserved":false,"is_disabled":false,"rental_uris":{"android":"levelo://app?vid=143434d9-c66a-4f6f-95e1-671fee3703ec","ios":"levelo://app?vid=143434d9-c66a-4f6f-95e1-671fee3703ec"},"vehicle_type_id":"4","last_reported":1748924249,"current_range_meters":20400,"station_id":"","pricing_plan_id":"cebpf4jnsgd1na2vs0mg"},{"bike_id":"974f370c-97c1-408b-8bbb-7e476b676ad0","system_id":"levelo_inurba_marseille","lat":43.309329,"lon":5.401574,"is_reserved":false,"is_disabled":false,"rental_uris":{"android":"levelo://app?vid=974f370c-97c1-408b-8bbb-7e476b676ad0","ios":"levelo://app?vid=974f370c-97c1-408b-8bbb-7e476b676ad0"},"vehicle_type_id":"4","last_reported":1748924249,"current_range_meters":20400,"station_id":"ce4bgvp2rcd13ifvqct0","pricing_plan_id":"cebpf4jnsgd1na2vs0mg"},{"bike_id":"2cf5c3dc-6026-40f6-970c-d851d11de452","system_id":"levelo_inurba_marseille","lat":43.3023,"lon":5.39468,"is_reserved":false,"is_disabled":false,"rental_uris":{"android":"levelo://app?vid=2cf5c3dc-6026-40f6-970c-d851d11de452","ios":"levelo://app?vid=2cf5c3dc-6026-40f6-970c-d851d11de452"},"vehicle_type_id":"4","last_reported":1748924249,"current_range_meters":20400,"station_id":"ce4bh0p2rcd13ifvqd70","pricing_plan_id":"cebpf4jnsgd1na2vs0mg"},{"bike_id":"ceb1816b-c7e3-4924-824e-780e5d9cb515","system_id":"levelo_inurba_marseille","lat":43.250997,"lon":5.403443,"is_reserved":false,"is_disabled":false,"rental_uris":{"android":"levelo://app?vid=ceb1816b-c7e3-4924-824e-780e5d9cb515","ios":"levelo://app?vid=ceb1816b-c7e3-4924-824e-780e5d9cb515"},"vehicle_type_id":"4","last_reported":1748924249,"current_range_meters":20400,"station_id":"ce4bhlh2rcd13ifvqgig","pricing_plan_id":"cebpf4jnsgd1na2vs0mg"},{"bike_id":"34b7e1b4-c575-42aa-8b50-351efdd5d94b","system_id":"levelo_inurba_marseille","lat":43.30226,"lon":5.43798,"is_reserved":false,"is_disabled":false,"rental_uris":{"android":"levelo://app?vid=34b7e1b4-c575-42aa-8b50-351efdd5d94b","ios":"levelo://app?vid=34b7e1b4-c575-42aa-8b50-351efdd5d94b"},"vehicle_type_id":"4","last_reported":1748924249,"current_range_meters":20800,"station_id":"","pricing_plan_id":"cebpf4jnsgd1na2vs0mg"},{"bike_id":"ddea05cf-725e-4434-ada8-8766d2fc8394","system_id":"levelo_inurba_marseille","lat":43.289366,"lon":5.364044,"is_reserved":false,"is_disabled":false,"rental_uris":{"android":"levelo://app?vid=ddea05cf-725e-4434-ada8-8766d2fc8394","ios":"levelo://app?vid=ddea05cf-725e-4434-ada8-8766d2fc8394"},"vehicle_type_id":"4","last_reported":1748924249,"current_range_meters":20800,"station_id":"ce4bhc92rcd13ifvqetg","pricing_plan_id":"cebpf4jnsgd1na2vs0mg"},{"bike_id":"39465794-52fd-4ae0-a617-b2ec2aa583f4","system_id":"levelo_inurba_marseille","lat":43.287068,"lon":5.399754,"is_reserved":false,"is_disabled":false,"rental_uris":{"android":"levelo://app?vid=39465794-52fd-4ae0-a617-b2ec2aa583f4","ios":"levelo://app?vid=39465794-52fd-4ae0-a617-b2ec2aa583f4"},"vehicle_type_id":"4","last_reported":1748924249,"current_range_meters":20800,"station_id":"ce4bho92rcd13ifvqh3g","pricing_plan_id":"cebpf4jnsgd1na2vs0mg"},{"bike_id":"392aba08-8c80-4f58-bd27-a0f1e97f2380","system_id":"levelo_inurba_marseille","lat":43.341511,"lon":5.409034,"is_reserved":false,"is_disabled":false,"rental_uris":{"android":"levelo://app?vid=392aba08-8c80-4f58-bd27-a0f1e97f2380","ios":"levelo://app?vid=392aba08-8c80-4f58-bd27-a0f1e97f2380"},"vehicle_type_id":"4","last_reported":1748924249,"current_range_meters":20800,"station_id":"ce4bhqh2rcd13ifvqhlg","pricing_plan_id":"cebpf4jnsgd1na2vs0mg"},{"bike_id":"cba6c288-7603-41a8-92a6-e8587baf262b","system_id":"levelo_inurba_marseille","lat":43.33724,"lon":5.39192,"is_reserved":false,"is_disabled":false,"rental_uris":{"android":"levelo://app?vid=cba6c288-7603-41a8-92a6-e8587baf262b","ios":"levelo://app?vid=cba6c288-7603-41a8-92a6-e8587baf262b"},"vehicle_type_id":"4","last_reported":1748924249,"current_range_meters":20800,"station_id":"ce4bhr92rcd13ifvqhsg","pricing_plan_id":"cebpf4jnsgd1na2vs0mg"},{"bike_id":"4dd90fe0-496f-4cdd-b1ae-d82718f691e0","system_id":"levelo_inurba_marseille","lat":43.27906,"lon":5.42272,"is_reserved":false,"is_disabled":false,"rental_uris":{"android":"levelo://app?vid=4dd90fe0-496f-4cdd-b1ae-d82718f691e0","ios":"levelo://app?vid=4dd90fe0-496f-4cdd-b1ae-d82718f691e0"},"vehicle_type_id":"4","last_reported":1748924249,"current_range_meters":21600,"station_id":"","pricing_plan_id":"cebpf4jnsgd1na2vs0mg"},{"bike_id":"2aded04a-397e-4bac-ad97-190ef70931da","system_id":"levelo_inurba_marseille","lat":43.298084,"lon":5.382402,"is_reserved":false,"is_disabled":false,"rental_uris":{"android":"levelo://app?vid=2aded04a-397e-4bac-ad97-190ef70931da","ios":"levelo://app?vid=2aded04a-397e-4bac-ad97-190ef70931da"},"vehicle_type_id":"4","last_reported":1748924249,"current_range_meters":21600,"station_id":"","pricing_plan_id":"cebpf4jnsgd1na2vs0mg"},{"bike_id":"d066c01f-0db1-47e0-823d-32ee04588d8a","system_id":"levelo_inurba_marseille","lat":43.284494,"lon":5.358838,"is_reserved":false,"is_disabled":false,"rental_uris":{"android":"levelo://app?vid=d066c01f-0db1-47e0-823d-32ee04588d8a","ios":"levelo://app?vid=d066c01f-0db1-47e0-823d-32ee04588d8a"},"vehicle_type_id":"4","last_reported":1748924249,"current_range_meters":22000,"station_id":"ce4bhah2rcd13ifvqei0","pricing_plan_id":"cebpf4jnsgd1na2vs0mg"},{"bike_id":"a11ea1a8-2e68-484b-8edf-fe757e754272","system_id":"levelo_inurba_marseille","lat":43.278164,"lon":5.407231,"is_reserved":false,"is_disabled":false,"rental_uris":{"android":"levelo://app?vid=a11ea1a8-2e68-484b-8edf-fe757e754272","ios":"levelo://app?vid=a11ea1a8-2e68-484b-8edf-fe757e754272"},"vehicle_type_id":"4","last_reported":1748924249,"current_range_meters":22000,"station_id":"ce4bhnh2rcd13ifvqgtg","pricing_plan_id":"cebpf4jnsgd1na2vs0mg"},{"bike_id":"adbcccf8-9c48-436d-a4d1-feedad9e753f","system_id":"levelo_inurba_marseille","lat":43.28686,"lon":5.39986,"is_reserved":false,"is_disabled":false,"rental_uris":{"android":"levelo://app?vid=adbcccf8-9c48-436d-a4d1-feedad9e753f","ios":"levelo://app?vid=adbcccf8-9c48-436d-a4d1-feedad9e753f"},"vehicle_type_id":"4","last_reported":1748924249,"current_range_meters":22000,"station_id":"ce4bho92rcd13ifvqh3g","pricing_plan_id":"cebpf4jnsgd1na2vs0mg"},{"bike_id":"bd15d3c1-5fc5-4006-9923-c4638e3da994","system_id":"levelo_inurba_marseille","lat":43.301075,"lon":5.371115,"is_reserved":false,"is_disabled":false,"rental_uris":{"android":"levelo://app?vid=bd15d3c1-5fc5-4006-9923-c4638e3da994","ios":"levelo://app?vid=bd15d3c1-5fc5-4006-9923-c4638e3da994"},"vehicle_type_id":"4","last_reported":1748924249,"current_range_meters":22400,"station_id":"","pricing_plan_id":"cebpf4jnsgd1na2vs0mg"},{"bike_id":"01732b13-da80-4366-932e-2c059e98b438","system_id":"levelo_inurba_marseille","lat":43.25134,"lon":5.40342,"is_reserved":false,"is_disabled":false,"rental_uris":{"android":"levelo://app?vid=01732b13-da80-4366-932e-2c059e98b438","ios":"levelo://app?vid=01732b13-da80-4366-932e-2c059e98b438"},"vehicle_type_id":"4","last_reported":1748924249,"current_range_meters":22400,"station_id":"ce4bhlh2rcd13ifvqgig","pricing_plan_id":"cebpf4jnsgd1na2vs0mg"},{"bike_id":"aade0917-1da7-445e-b146-a15c7cfad8e7","system_id":"levelo_inurba_marseille","lat":43.31073,"lon":5.38354,"is_reserved":false,"is_disabled":false,"rental_uris":{"android":"levelo://app?vid=aade0917-1da7-445e-b146-a15c7cfad8e7","ios":"levelo://app?vid=aade0917-1da7-445e-b146-a15c7cfad8e7"},"vehicle_type_id":"4","last_reported":1748924249,"current_range_meters":22800,"station_id":"ce4bgv92rcd13ifvqcr0","pricing_plan_id":"cebpf4jnsgd1na2vs0mg"},{"bike_id":"5f9a7fd7-13e0-49d3-9c07-abd21e72ce50","system_id":"levelo_inurba_marseille","lat":43.2886,"lon":5.39353,"is_reserved":false,"is_disabled":false,"rental_uris":{"android":"levelo://app?vid=5f9a7fd7-13e0-49d3-9c07-abd21e72ce50","ios":"levelo://app?vid=5f9a7fd7-13e0-49d3-9c07-abd21e72ce50"},"vehicle_type_id":"4","last_reported":1748924249,"current_range_meters":22800,"station_id":"ce4bh2p2rcd13ifvqdi0","pricing_plan_id":"cebpf4jnsgd1na2vs0mg"},{"bike_id":"98c734dd-e4aa-447d-891b-d6b331d7f13e","system_id":"levelo_inurba_marseille","lat":43.25805,"lon":5.39429,"is_reserved":false,"is_disabled":false,"rental_uris":{"android":"levelo://app?vid=98c734dd-e4aa-447d-891b-d6b331d7f13e","ios":"levelo://app?vid=98c734dd-e4aa-447d-891b-d6b331d7f13e"},"vehicle_type_id":"4","last_reported":1748924249,"current_range_meters":22800,"station_id":"ce4bhip2rcd13ifvqft0","pricing_plan_id":"cebpf4jnsgd1na2vs0mg"},{"bike_id":"8b13bdc1-d9ad-402b-9335-01bd02d81f63","system_id":"levelo_inurba_marseille","lat":43.31069,"lon":5.39076,"is_reserved":false,"is_disabled":false,"rental_uris":{"android":"levelo://app?vid=8b13bdc1-d9ad-402b-9335-01bd02d81f63","ios":"levelo://app?vid=8b13bdc1-d9ad-402b-9335-01bd02d81f63"},"vehicle_type_id":"4","last_reported":1748924249,"current_range_meters":23200,"station_id":"","pricing_plan_id":"cebpf4jnsgd1na2vs0mg"},{"bike_id":"242dd9ad-391b-48c1-bf2b-54dee401d2c8","system_id":"levelo_inurba_marseille","lat":43.30646,"lon":5.39401,"is_reserved":false,"is_disabled":false,"rental_uris":{"android":"levelo://app?vid=242dd9ad-391b-48c1-bf2b-54dee401d2c8","ios":"levelo://app?vid=242dd9ad-391b-48c1-bf2b-54dee401d2c8"},"vehicle_type_id":"4","last_reported":1748924249,"current_range_meters":23200,"station_id":"","pricing_plan_id":"cebpf4jnsgd1na2vs0mg"},{"bike_id":"ebe74412-cf5d-4fc0-9c5d-8a4d4f311a58","system_id":"levelo_inurba_marseille","lat":43.305407,"lon":5.384317,"is_reserved":false,"is_disabled":false,"rental_uris":{"android":"levelo://app?vid=ebe74412-cf5d-4fc0-9c5d-8a4d4f311a58","ios":"levelo://app?vid=ebe74412-cf5d-4fc0-9c5d-8a4d4f311a58"},"vehicle_type_id":"4","last_reported":1748924249,"current_range_meters":23200,"station_id":"ce4bgg92rcd13ifvqb30","pricing_plan_id":"cebpf4jnsgd1na2vs0mg"},{"bike_id":"b183d439-fff7-4e93-8b99-4c4f0b79b089","system_id":"levelo_inurba_marseille","lat":43.28494,"lon":5.38462,"is_reserved":false,"is_disabled":false,"rental_uris":{"android":"levelo://app?vid=b183d439-fff7-4e93-8b99-4c4f0b79b089","ios":"levelo://app?vid=b183d439-fff7-4e93-8b99-4c4f0b79b089"},"vehicle_type_id":"4","last_reported":1748924249,"current_range_meters":23200,"station_id":"ce4bh512rcd13ifvqe3g","pricing_plan_id":"cebpf4jnsgd1na2vs0mg"},{"bike_id":"ac5b47c0-5d5e-4d23-b348-7365b4042b2c","system_id":"levelo_inurba_marseille","lat":43.25122,"lon":5.40338,"is_reserved":false,"is_disabled":false,"rental_uris":{"android":"levelo://app?vid=ac5b47c0-5d5e-4d23-b348-7365b4042b2c","ios":"levelo://app?vid=ac5b47c0-5d5e-4d23-b348-7365b4042b2c"},"vehicle_type_id":"4","last_reported":1748924249,"current_range_meters":23200,"station_id":"ce4bhlh2rcd13ifvqgig","pricing_plan_id":"cebpf4jnsgd1na2vs0mg"},{"bike_id":"613cc675-3da8-4431-90a7-c12f688e1bcb","system_id":"levelo_inurba_marseille","lat":43.323469,"lon":5.406111,"is_reserved":false,"is_disabled":false,"rental_uris":{"android":"levelo://app?vid=613cc675-3da8-4431-90a7-c12f688e1bcb","ios":"levelo://app?vid=613cc675-3da8-4431-90a7-c12f688e1bcb"},"vehicle_type_id":"4","last_reported":1748924249,"current_range_meters":23200,"station_id":"ce4bhq92rcd13ifvqhjg","pricing_plan_id":"cebpf4jnsgd1na2vs0mg"},{"bike_id":"852f3dcb-4089-41d7-b875-f2de25375e9e","system_id":"levelo_inurba_marseille","lat":43.323665,"lon":5.367592,"is_reserved":false,"is_disabled":false,"rental_uris":{"android":"levelo://app?vid=852f3dcb-4089-41d7-b875-f2de25375e9e","ios":"levelo://app?vid=852f3dcb-4089-41d7-b875-f2de25375e9e"},"vehicle_type_id":"4","last_reported":1748924249,"current_range_meters":23200,"station_id":"ce4bhsh2rcd13ifvqi2g","pricing_plan_id":"cebpf4jnsgd1na2vs0mg"},{"bike_id":"e23ab2ae-5b8e-40fb-8b13-57527b7d52b5","system_id":"levelo_inurba_marseille","lat":43.307103,"lon":5.392347,"is_reserved":false,"is_disabled":false,"rental_uris":{"android":"levelo://app?vid=e23ab2ae-5b8e-40fb-8b13-57527b7d52b5","ios":"levelo://app?vid=e23ab2ae-5b8e-40fb-8b13-57527b7d52b5"},"vehicle_type_id":"4","last_reported":1748924249,"current_range_meters":24000,"station_id":"","pricing_plan_id":"cebpf4jnsgd1na2vs0mg"},{"bike_id":"da71f552-d9e5-46af-bdef-e0177c564da4","system_id":"levelo_inurba_marseille","lat":43.305346,"lon":5.384341,"is_reserved":false,"is_disabled":false,"rental_uris":{"android":"levelo://app?vid=da71f552-d9e5-46af-bdef-e0177c564da4","ios":"levelo://app?vid=da71f552-d9e5-46af-bdef-e0177c564da4"},"vehicle_type_id":"4","last_reported":1748924249,"current_range_meters":24000,"station_id":"ce4bgg92rcd13ifvqb30","pricing_plan_id":"cebpf4jnsgd1na2vs0mg"},{"bike_id":"eb9494f7-4470-4580-a1ff-810cdfe4a23c","system_id":"levelo_inurba_marseille","lat":43.30144,"lon":5.38083,"is_reserved":false,"is_disabled":false,"rental_uris":{"android":"levelo://app?vid=eb9494f7-4470-4580-a1ff-810cdfe4a23c","ios":"levelo://app?vid=eb9494f7-4470-4580-a1ff-810cdfe4a23c"},"vehicle_type_id":"4","last_reported":1748924249,"current_range_meters":24000,"station_id":"ce4bgjp2rcd13ifvqbh0","pricing_plan_id":"cebpf4jnsgd1na2vs0mg"},{"bike_id":"ae12006e-928c-4407-9cac-db14247c6373","system_id":"levelo_inurba_marseille","lat":43.307818,"lon":5.376496,"is_reserved":false,"is_disabled":false,"rental_uris":{"android":"levelo://app?vid=ae12006e-928c-4407-9cac-db14247c6373","ios":"levelo://app?vid=ae12006e-928c-4407-9cac-db14247c6373"},"vehicle_type_id":"4","last_reported":1748924249,"current_range_meters":24000,"station_id":"ce4bgv92rcd13ifvqcq0","pricing_plan_id":"cebpf4jnsgd1na2vs0mg"},{"bike_id":"eec6d8b3-6953-42e3-81ad-17cf49e99da0","system_id":"levelo_inurba_marseille","lat":43.308826,"lon":5.396363,"is_reserved":false,"is_disabled":false,"rental_uris":{"android":"levelo://app?vid=eec6d8b3-6953-42e3-81ad-17cf49e99da0","ios":"levelo://app?vid=eec6d8b3-6953-42e3-81ad-17cf49e99da0"},"vehicle_type_id":"4","last_reported":1748924249,"current_range_meters":24000,"station_id":"ce4bh012rcd13ifvqcv0","pricing_plan_id":"cebpf4jnsgd1na2vs0mg"},{"bike_id":"ed299fa1-925b-4a9e-8ee3-fac742afba04","system_id":"levelo_inurba_marseille","lat":43.29599,"lon":5.40627,"is_reserved":false,"is_disabled":false,"rental_uris":{"android":"levelo://app?vid=ed299fa1-925b-4a9e-8ee3-fac742afba04","ios":"levelo://app?vid=ed299fa1-925b-4a9e-8ee3-fac742afba04"},"vehicle_type_id":"4","last_reported":1748924249,"current_range_meters":24000,"station_id":"ce4bh0h2rcd13ifvqd60","pricing_plan_id":"cebpf4jnsgd1na2vs0mg"},{"bike_id":"ab0d9efe-d350-4123-b1ec-bad84efde48b","system_id":"levelo_inurba_marseille","lat":43.306504,"lon":5.400769,"is_reserved":false,"is_disabled":false,"rental_uris":{"android":"levelo://app?vid=ab0d9efe-d350-4123-b1ec-bad84efde48b","ios":"levelo://app?vid=ab0d9efe-d350-4123-b1ec-bad84efde48b"},"vehicle_type_id":"4","last_reported":1748924249,"current_range_meters":24000,"station_id":"ce4bh112rcd13ifvqda0","pricing_plan_id":"cebpf4jnsgd1na2vs0mg"},{"bike_id":"99f0b70b-0749-4613-8f0b-52750b17cc5a","system_id":"levelo_inurba_marseille","lat":43.29281,"lon":5.40114,"is_reserved":false,"is_disabled":false,"rental_uris":{"android":"levelo://app?vid=99f0b70b-0749-4613-8f0b-52750b17cc5a","ios":"levelo://app?vid=99f0b70b-0749-4613-8f0b-52750b17cc5a"},"vehicle_type_id":"4","last_reported":1748924249,"current_range_meters":24000,"station_id":"ce4bh312rcd13ifvqdk0","pricing_plan_id":"cebpf4jnsgd1na2vs0mg"},{"bike_id":"67079772-4496-419f-8f60-de37ff9300e4","system_id":"levelo_inurba_marseille","lat":43.28454,"lon":5.35888,"is_reserved":false,"is_disabled":false,"rental_uris":{"android":"levelo://app?vid=67079772-4496-419f-8f60-de37ff9300e4","ios":"levelo://app?vid=67079772-4496-419f-8f60-de37ff9300e4"},"vehicle_type_id":"4","last_reported":1748924249,"current_range_meters":24000,"station_id":"ce4bhah2rcd13ifvqei0","pricing_plan_id":"cebpf4jnsgd1na2vs0mg"},{"bike_id":"05dd8858-2240-4ec1-a8bd-ad471b03b4f3","system_id":"levelo_inurba_marseille","lat":43.288455,"lon":5.35865,"is_reserved":false,"is_disabled":false,"rental_uris":{"android":"levelo://app?vid=05dd8858-2240-4ec1-a8bd-ad471b03b4f3","ios":"levelo://app?vid=05dd8858-2240-4ec1-a8bd-ad471b03b4f3"},"vehicle_type_id":"4","last_reported":1748924249,"current_range_meters":24000,"station_id":"ce4bhb12rcd13ifvqem0","pricing_plan_id":"cebpf4jnsgd1na2vs0mg"},{"bike_id":"6559785d-3acd-4919-b049-5abbbb8cf9ca","system_id":"levelo_inurba_marseille","lat":43.32282,"lon":5.3829,"is_reserved":false,"is_disabled":false,"rental_uris":{"android":"levelo://app?vid=6559785d-3acd-4919-b049-5abbbb8cf9ca","ios":"levelo://app?vid=6559785d-3acd-4919-b049-5abbbb8cf9ca"},"vehicle_type_id":"4","last_reported":1748924249,"current_range_meters":24000,"station_id":"ce4bhr12rcd13ifvqhqg","pricing_plan_id":"cebpf4jnsgd1na2vs0mg"},{"bike_id":"9f55290d-8d98-428e-9d44-dcf0ffb64500","system_id":"levelo_inurba_marseille","lat":43.31173,"lon":5.3873,"is_reserved":false,"is_disabled":false,"rental_uris":{"android":"levelo://app?vid=9f55290d-8d98-428e-9d44-dcf0ffb64500","ios":"levelo://app?vid=9f55290d-8d98-428e-9d44-dcf0ffb64500"},"vehicle_type_id":"4","last_reported":1748924249,"current_range_meters":24400,"station_id":"ce4bgv12rcd13ifvqcp0","pricing_plan_id":"cebpf4jnsgd1na2vs0mg"},{"bike_id":"56711115-8717-4aaa-a15c-b5e0caa24e6d","system_id":"levelo_inurba_marseille","lat":43.28851,"lon":5.3931,"is_reserved":false,"is_disabled":false,"rental_uris":{"android":"levelo://app?vid=56711115-8717-4aaa-a15c-b5e0caa24e6d","ios":"levelo://app?vid=56711115-8717-4aaa-a15c-b5e0caa24e6d"},"vehicle_type_id":"4","last_reported":1748924249,"current_range_meters":24400,"station_id":"ce4bh2p2rcd13ifvqdi0","pricing_plan_id":"cebpf4jnsgd1na2vs0mg"},{"bike_id":"2acb9976-18d4-480b-9828-39ad05b56efc","system_id":"levelo_inurba_marseille","lat":43.284576,"lon":5.358972,"is_reserved":false,"is_disabled":false,"rental_uris":{"android":"levelo://app?vid=2acb9976-18d4-480b-9828-39ad05b56efc","ios":"levelo://app?vid=2acb9976-18d4-480b-9828-39ad05b56efc"},"vehicle_type_id":"4","last_reported":1748924249,"current_range_meters":24400,"station_id":"ce4bhah2rcd13ifvqei0","pricing_plan_id":"cebpf4jnsgd1na2vs0mg"},{"bike_id":"538fbf07-6c51-4c2b-b04c-60b124695884","system_id":"levelo_inurba_marseille","lat":43.28872,"lon":5.35838,"is_reserved":false,"is_disabled":false,"rental_uris":{"android":"levelo://app?vid=538fbf07-6c51-4c2b-b04c-60b124695884","ios":"levelo://app?vid=538fbf07-6c51-4c2b-b04c-60b124695884"},"vehicle_type_id":"4","last_reported":1748924249,"current_range_meters":24400,"station_id":"ce4bhb12rcd13ifvqem0","pricing_plan_id":"cebpf4jnsgd1na2vs0mg"},{"bike_id":"3599c5ae-f3b1-45fb-99a2-304e99bbbd96","system_id":"levelo_inurba_marseille","lat":43.241799,"lon":5.397258,"is_reserved":false,"is_disabled":false,"rental_uris":{"android":"levelo://app?vid=3599c5ae-f3b1-45fb-99a2-304e99bbbd96","ios":"levelo://app?vid=3599c5ae-f3b1-45fb-99a2-304e99bbbd96"},"vehicle_type_id":"4","last_reported":1748924249,"current_range_meters":24400,"station_id":"ce4bhn12rcd13ifvqgpg","pricing_plan_id":"cebpf4jnsgd1na2vs0mg"},{"bike_id":"7a060143-f967-47f8-948b-b90c816a6520","system_id":"levelo_inurba_marseille","lat":43.24162,"lon":5.39729,"is_reserved":false,"is_disabled":false,"rental_uris":{"android":"levelo://app?vid=7a060143-f967-47f8-948b-b90c816a6520","ios":"levelo://app?vid=7a060143-f967-47f8-948b-b90c816a6520"},"vehicle_type_id":"4","last_reported":1748924249,"current_range_meters":24400,"station_id":"ce4bhn12rcd13ifvqgpg","pricing_plan_id":"cebpf4jnsgd1na2vs0mg"},{"bike_id":"42e5de30-2d32-429b-8b1d-e095ea273922","system_id":"levelo_inurba_marseille","lat":43.23163,"lon":5.40002,"is_reserved":false,"is_disabled":false,"rental_uris":{"android":"levelo://app?vid=42e5de30-2d32-429b-8b1d-e095ea273922","ios":"levelo://app?vid=42e5de30-2d32-429b-8b1d-e095ea273922"},"vehicle_type_id":"4","last_reported":1748924249,"current_range_meters":24400,"station_id":"ce4bhn12rcd13ifvqgqg","pricing_plan_id":"cebpf4jnsgd1na2vs0mg"},{"bike_id":"b4fbf2ea-2eb9-4fcd-84d9-fe31c8409b2e","system_id":"levelo_inurba_marseille","lat":43.308007,"lon":5.381563,"is_reserved":false,"is_disabled":false,"rental_uris":{"android":"levelo://app?vid=b4fbf2ea-2eb9-4fcd-84d9-fe31c8409b2e","ios":"levelo://app?vid=b4fbf2ea-2eb9-4fcd-84d9-fe31c8409b2e"},"vehicle_type_id":"4","last_reported":1748924249,"current_range_meters":24800,"station_id":"ce4bgt12rcd13ifvqce0","pricing_plan_id":"cebpf4jnsgd1na2vs0mg"},{"bike_id":"23e204a8-ae58-4c70-acc1-8b7210317b05","system_id":"levelo_inurba_marseille","lat":43.28702,"lon":5.37393,"is_reserved":false,"is_disabled":false,"rental_uris":{"android":"levelo://app?vid=23e204a8-ae58-4c70-acc1-8b7210317b05","ios":"levelo://app?vid=23e204a8-ae58-4c70-acc1-8b7210317b05"},"vehicle_type_id":"4","last_reported":1748924249,"current_range_meters":24800,"station_id":"ce4bh3p2rcd13ifvqdq0","pricing_plan_id":"cebpf4jnsgd1na2vs0mg"},{"bike_id":"0e69b15d-a3ea-4bef-966d-63fadb738ab1","system_id":"levelo_inurba_marseille","lat":43.28418,"lon":5.37536,"is_reserved":false,"is_disabled":false,"rental_uris":{"android":"levelo://app?vid=0e69b15d-a3ea-4bef-966d-63fadb738ab1","ios":"levelo://app?vid=0e69b15d-a3ea-4bef-966d-63fadb738ab1"},"vehicle_type_id":"4","last_reported":1748924249,"current_range_meters":24800,"station_id":"ce4bh412rcd13ifvqds0","pricing_plan_id":"cebpf4jnsgd1na2vs0mg"},{"bike_id":"a0001732-78ec-4f7f-8baa-567b12cd9b54","system_id":"levelo_inurba_marseille","lat":43.284594,"lon":5.35894,"is_reserved":false,"is_disabled":false,"rental_uris":{"android":"levelo://app?vid=a0001732-78ec-4f7f-8baa-567b12cd9b54","ios":"levelo://app?vid=a0001732-78ec-4f7f-8baa-567b12cd9b54"},"vehicle_type_id":"4","last_reported":1748924249,"current_range_meters":24800,"station_id":"ce4bhah2rcd13ifvqei0","pricing_plan_id":"cebpf4jnsgd1na2vs0mg"},{"bike_id":"2fff380a-d7bc-4388-862d-11e5e84c0c37","system_id":"levelo_inurba_marseille","lat":43.27507,"lon":5.42447,"is_reserved":false,"is_disabled":false,"rental_uris":{"android":"levelo://app?vid=2fff380a-d7bc-4388-862d-11e5e84c0c37","ios":"levelo://app?vid=2fff380a-d7bc-4388-862d-11e5e84c0c37"},"vehicle_type_id":"4","last_reported":1748924249,"current_range_meters":24800,"station_id":"ce4bhn92rcd13ifvqgrg","pricing_plan_id":"cebpf4jnsgd1na2vs0mg"},{"bike_id":"635015c2-6fba-4c8e-bb9b-ed6db39ca0b8","system_id":"levelo_inurba_marseille","lat":43.281511,"lon":5.426483,"is_reserved":false,"is_disabled":false,"rental_uris":{"android":"levelo://app?vid=635015c2-6fba-4c8e-bb9b-ed6db39ca0b8","ios":"levelo://app?vid=635015c2-6fba-4c8e-bb9b-ed6db39ca0b8"},"vehicle_type_id":"4","last_reported":1748924249,"current_range_meters":24800,"station_id":"ce4bhnh2rcd13ifvqgug","pricing_plan_id":"cebpf4jnsgd1na2vs0mg"},{"bike_id":"f4831d0d-68d7-418e-b50e-5e455fb4c280","system_id":"levelo_inurba_marseille","lat":43.341461,"lon":5.409039,"is_reserved":false,"is_disabled":false,"rental_uris":{"android":"levelo://app?vid=f4831d0d-68d7-418e-b50e-5e455fb4c280","ios":"levelo://app?vid=f4831d0d-68d7-418e-b50e-5e455fb4c280"},"vehicle_type_id":"4","last_reported":1748924249,"current_range_meters":24800,"station_id":"ce4bhqh2rcd13ifvqhlg","pricing_plan_id":"cebpf4jnsgd1na2vs0mg"},{"bike_id":"4056785d-fe19-4951-b63e-18b5d3919fc8","system_id":"levelo_inurba_marseille","lat":43.3373,"lon":5.391859,"is_reserved":false,"is_disabled":false,"rental_uris":{"android":"levelo://app?vid=4056785d-fe19-4951-b63e-18b5d3919fc8","ios":"levelo://app?vid=4056785d-fe19-4951-b63e-18b5d3919fc8"},"vehicle_type_id":"4","last_reported":1748924249,"current_range_meters":24800,"station_id":"ce4bhr92rcd13ifvqhsg","pricing_plan_id":"cebpf4jnsgd1na2vs0mg"},{"bike_id":"2253fc92-d94c-4b6d-9b00-aecc3e3c4e8f","system_id":"levelo_inurba_marseille","lat":43.298072,"lon":5.404111,"is_reserved":false,"is_disabled":false,"rental_uris":{"android":"levelo://app?vid=2253fc92-d94c-4b6d-9b00-aecc3e3c4e8f","ios":"levelo://app?vid=2253fc92-d94c-4b6d-9b00-aecc3e3c4e8f"},"vehicle_type_id":"4","last_reported":1748924249,"current_range_meters":25200,"station_id":"ce4bh112rcd13ifvqd90","pricing_plan_id":"cebpf4jnsgd1na2vs0mg"},{"bike_id":"758bea52-6e48-4fee-885b-8f6c986bae16","system_id":"levelo_inurba_marseille","lat":43.28571,"lon":5.39485,"is_reserved":false,"is_disabled":false,"rental_uris":{"android":"levelo://app?vid=758bea52-6e48-4fee-885b-8f6c986bae16","ios":"levelo://app?vid=758bea52-6e48-4fee-885b-8f6c986bae16"},"vehicle_type_id":"4","last_reported":1748924249,"current_range_meters":25200,"station_id":"ce4bh292rcd13ifvqdg0","pricing_plan_id":"cebpf4jnsgd1na2vs0mg"},{"bike_id":"d66a0bf9-0780-42a2-8e10-921c1e58a1e1","system_id":"levelo_inurba_marseille","lat":43.28095,"lon":5.39655,"is_reserved":false,"is_disabled":false,"rental_uris":{"android":"levelo://app?vid=d66a0bf9-0780-42a2-8e10-921c1e58a1e1","ios":"levelo://app?vid=d66a0bf9-0780-42a2-8e10-921c1e58a1e1"},"vehicle_type_id":"4","last_reported":1748924249,"current_range_meters":25200,"station_id":"ce4bho12rcd13ifvqh2g","pricing_plan_id":"cebpf4jnsgd1na2vs0mg"},{"bike_id":"f319dc46-1225-4c54-a7e5-d9497324daf9","system_id":"levelo_inurba_marseille","lat":43.30472,"lon":5.37905,"is_reserved":false,"is_disabled":false,"rental_uris":{"android":"levelo://app?vid=f319dc46-1225-4c54-a7e5-d9497324daf9","ios":"levelo://app?vid=f319dc46-1225-4c54-a7e5-d9497324daf9"},"vehicle_type_id":"4","last_reported":1748924249,"current_range_meters":25600,"station_id":"ce4bgup2rcd13ifvqcn0","pricing_plan_id":"cebpf4jnsgd1na2vs0mg"},{"bike_id":"59e5f6ef-f08a-434c-ad78-5ad16f2c41f0","system_id":"levelo_inurba_marseille","lat":43.31059,"lon":5.38353,"is_reserved":false,"is_disabled":false,"rental_uris":{"android":"levelo://app?vid=59e5f6ef-f08a-434c-ad78-5ad16f2c41f0","ios":"levelo://app?vid=59e5f6ef-f08a-434c-ad78-5ad16f2c41f0"},"vehicle_type_id":"4","last_reported":1748924249,"current_range_meters":25600,"station_id":"ce4bgv92rcd13ifvqcr0","pricing_plan_id":"cebpf4jnsgd1na2vs0mg"},{"bike_id":"efad2ba9-2415-4214-bb49-234487517d62","system_id":"levelo_inurba_marseille","lat":43.31315,"lon":5.39719,"is_reserved":false,"is_disabled":false,"rental_uris":{"android":"levelo://app?vid=efad2ba9-2415-4214-bb49-234487517d62","ios":"levelo://app?vid=efad2ba9-2415-4214-bb49-234487517d62"},"vehicle_type_id":"4","last_reported":1748924249,"current_range_meters":25600,"station_id":"ce4bgvp2rcd13ifvqcu0","pricing_plan_id":"cebpf4jnsgd1na2vs0mg"},{"bike_id":"58b1b58a-df22-44aa-8621-8935f047f3a2","system_id":"levelo_inurba_marseille","lat":43.316921,"lon":5.404669,"is_reserved":false,"is_disabled":false,"rental_uris":{"android":"levelo://app?vid=58b1b58a-df22-44aa-8621-8935f047f3a2","ios":"levelo://app?vid=58b1b58a-df22-44aa-8621-8935f047f3a2"},"vehicle_type_id":"4","last_reported":1748924249,"current_range_meters":25600,"station_id":"ce4bh012rcd13ifvqd00","pricing_plan_id":"cebpf4jnsgd1na2vs0mg"},{"bike_id":"93ab5466-bf17-4adc-9851-d9d22300bf23","system_id":"levelo_inurba_marseille","lat":43.29195,"lon":5.393241,"is_reserved":false,"is_disabled":false,"rental_uris":{"android":"levelo://app?vid=93ab5466-bf17-4adc-9851-d9d22300bf23","ios":"levelo://app?vid=93ab5466-bf17-4adc-9851-d9d22300bf23"},"vehicle_type_id":"4","last_reported":1748924249,"current_range_meters":25600,"station_id":"ce4bh192rcd13ifvqdd0","pricing_plan_id":"cebpf4jnsgd1na2vs0mg"},{"bike_id":"860b7b09-6bff-4105-b03f-da385af72bcc","system_id":"levelo_inurba_marseille","lat":43.292774,"lon":5.401281,"is_reserved":false,"is_disabled":false,"rental_uris":{"android":"levelo://app?vid=860b7b09-6bff-4105-b03f-da385af72bcc","ios":"levelo://app?vid=860b7b09-6bff-4105-b03f-da385af72bcc"},"vehicle_type_id":"4","last_reported":1748924249,"current_range_meters":25600,"station_id":"ce4bh312rcd13ifvqdk0","pricing_plan_id":"cebpf4jnsgd1na2vs0mg"},{"bike_id":"67d4efbc-cc1c-496e-886f-66b154f64977","system_id":"levelo_inurba_marseille","lat":43.30936,"lon":5.40155,"is_reserved":false,"is_disabled":false,"rental_uris":{"android":"levelo://app?vid=67d4efbc-cc1c-496e-886f-66b154f64977","ios":"levelo://app?vid=67d4efbc-cc1c-496e-886f-66b154f64977"},"vehicle_type_id":"4","last_reported":1748924249,"current_range_meters":26000,"station_id":"ce4bgvp2rcd13ifvqct0","pricing_plan_id":"cebpf4jnsgd1na2vs0mg"},{"bike_id":"b357ff8d-9043-4978-b714-9bbab24911fe","system_id":"levelo_inurba_marseille","lat":43.283516,"lon":5.38106,"is_reserved":false,"is_disabled":false,"rental_uris":{"android":"levelo://app?vid=b357ff8d-9043-4978-b714-9bbab24911fe","ios":"levelo://app?vid=b357ff8d-9043-4978-b714-9bbab24911fe"},"vehicle_type_id":"4","last_reported":1748924249,"current_range_meters":26000,"station_id":"ce4bh412rcd13ifvqdr0","pricing_plan_id":"cebpf4jnsgd1na2vs0mg"},{"bike_id":"bd869e11-425f-40cb-a1bb-2089b869b2b9","system_id":"levelo_inurba_marseille","lat":43.28032,"lon":5.369435,"is_reserved":false,"is_disabled":false,"rental_uris":{"android":"levelo://app?vid=bd869e11-425f-40cb-a1bb-2089b869b2b9","ios":"levelo://app?vid=bd869e11-425f-40cb-a1bb-2089b869b2b9"},"vehicle_type_id":"4","last_reported":1748924249,"current_range_meters":26000,"station_id":"ce4bha12rcd13ifvqef0","pricing_plan_id":"cebpf4jnsgd1na2vs0mg"},{"bike_id":"6b118ba1-515e-42a7-8559-b3c09aca0e8f","system_id":"levelo_inurba_marseille","lat":43.2846,"lon":5.35878,"is_reserved":false,"is_disabled":false,"rental_uris":{"android":"levelo://app?vid=6b118ba1-515e-42a7-8559-b3c09aca0e8f","ios":"levelo://app?vid=6b118ba1-515e-42a7-8559-b3c09aca0e8f"},"vehicle_type_id":"4","last_reported":1748924249,"current_range_meters":26000,"station_id":"ce4bhah2rcd13ifvqei0","pricing_plan_id":"cebpf4jnsgd1na2vs0mg"},{"bike_id":"0eb8eb3d-c867-4f47-8e78-7b0305a506d3","system_id":"levelo_inurba_marseille","lat":43.27542,"lon":5.38449,"is_reserved":false,"is_disabled":false,"rental_uris":{"android":"levelo://app?vid=0eb8eb3d-c867-4f47-8e78-7b0305a506d3","ios":"levelo://app?vid=0eb8eb3d-c867-4f47-8e78-7b0305a506d3"},"vehicle_type_id":"4","last_reported":1748924249,"current_range_meters":26000,"station_id":"ce4bhh92rcd13ifvqfi0","pricing_plan_id":"cebpf4jnsgd1na2vs0mg"},{"bike_id":"2e4c0820-6d4e-47ec-ad7f-23967998dda6","system_id":"levelo_inurba_marseille","lat":43.28719,"lon":5.36088,"is_reserved":false,"is_disabled":false,"rental_uris":{"android":"levelo://app?vid=2e4c0820-6d4e-47ec-ad7f-23967998dda6","ios":"levelo://app?vid=2e4c0820-6d4e-47ec-ad7f-23967998dda6"},"vehicle_type_id":"4","last_reported":1748924249,"current_range_meters":26000,"station_id":"cki0cbj6b192h4jlfktg","pricing_plan_id":"cebpf4jnsgd1na2vs0mg"},{"bike_id":"ca2b4112-4fef-425f-8408-e7dbef746677","system_id":"levelo_inurba_marseille","lat":43.268133,"lon":5.410927,"is_reserved":false,"is_disabled":false,"rental_uris":{"android":"levelo://app?vid=ca2b4112-4fef-425f-8408-e7dbef746677","ios":"levelo://app?vid=ca2b4112-4fef-425f-8408-e7dbef746677"},"vehicle_type_id":"4","last_reported":1748924249,"current_range_meters":26800,"station_id":"","pricing_plan_id":"cebpf4jnsgd1na2vs0mg"},{"bike_id":"aa6523e9-a158-4f31-95ca-19a3a506a676","system_id":"levelo_inurba_marseille","lat":43.293145,"lon":5.355667,"is_reserved":false,"is_disabled":false,"rental_uris":{"android":"levelo://app?vid=aa6523e9-a158-4f31-95ca-19a3a506a676","ios":"levelo://app?vid=aa6523e9-a158-4f31-95ca-19a3a506a676"},"vehicle_type_id":"4","last_reported":1748924249,"current_range_meters":26800,"station_id":"","pricing_plan_id":"cebpf4jnsgd1na2vs0mg"},{"bike_id":"1cddc135-bfc5-4d94-a21d-02f1f0289092","system_id":"levelo_inurba_marseille","lat":43.29896,"lon":5.38922,"is_reserved":false,"is_disabled":false,"rental_uris":{"android":"levelo://app?vid=1cddc135-bfc5-4d94-a21d-02f1f0289092","ios":"levelo://app?vid=1cddc135-bfc5-4d94-a21d-02f1f0289092"},"vehicle_type_id":"4","last_reported":1748924249,"current_range_meters":26800,"station_id":"ce4bh392rcd13ifvqdl0","pricing_plan_id":"cebpf4jnsgd1na2vs0mg"},{"bike_id":"374cd527-9934-47bb-97cc-568919738d49","system_id":"levelo_inurba_marseille","lat":43.28677,"lon":5.36356,"is_reserved":false,"is_disabled":false,"rental_uris":{"android":"levelo://app?vid=374cd527-9934-47bb-97cc-568919738d49","ios":"levelo://app?vid=374cd527-9934-47bb-97cc-568919738d49"},"vehicle_type_id":"4","last_reported":1748924249,"current_range_meters":26800,"station_id":"ce4bhah2rcd13ifvqej0","pricing_plan_id":"cebpf4jnsgd1na2vs0mg"},{"bike_id":"ef8ba81d-f335-41e7-8151-da08c856b7d9","system_id":"levelo_inurba_marseille","lat":43.279178,"lon":5.395827,"is_reserved":false,"is_disabled":false,"rental_uris":{"android":"levelo://app?vid=ef8ba81d-f335-41e7-8151-da08c856b7d9","ios":"levelo://app?vid=ef8ba81d-f335-41e7-8151-da08c856b7d9"},"vehicle_type_id":"4","last_reported":1748924249,"current_range_meters":26800,"station_id":"ce4bhf92rcd13ifvqf40","pricing_plan_id":"cebpf4jnsgd1na2vs0mg"},{"bike_id":"96fcc6cc-ae04-4af4-a9dd-2829eeeb22b6","system_id":"levelo_inurba_marseille","lat":43.262235,"lon":5.404555,"is_reserved":false,"is_disabled":false,"rental_uris":{"android":"levelo://app?vid=96fcc6cc-ae04-4af4-a9dd-2829eeeb22b6","ios":"levelo://app?vid=96fcc6cc-ae04-4af4-a9dd-2829eeeb22b6"},"vehicle_type_id":"4","last_reported":1748924249,"current_range_meters":26800,"station_id":"ce4bhmh2rcd13ifvqgmg","pricing_plan_id":"cebpf4jnsgd1na2vs0mg"},{"bike_id":"559348d5-05c1-4858-96dd-fe5b3c5e9765","system_id":"levelo_inurba_marseille","lat":43.297862,"lon":5.393422,"is_reserved":false,"is_disabled":false,"rental_uris":{"android":"levelo://app?vid=559348d5-05c1-4858-96dd-fe5b3c5e9765","ios":"levelo://app?vid=559348d5-05c1-4858-96dd-fe5b3c5e9765"},"vehicle_type_id":"4","last_reported":1748924249,"current_range_meters":26800,"station_id":"chh1huq6cuj3fo74tm60","pricing_plan_id":"cebpf4jnsgd1na2vs0mg"},{"bike_id":"fe02529b-0cc0-420a-94b3-f91d2ac9e933","system_id":"levelo_inurba_marseille","lat":43.229383,"lon":5.35376,"is_reserved":false,"is_disabled":false,"rental_uris":{"android":"levelo://app?vid=fe02529b-0cc0-420a-94b3-f91d2ac9e933","ios":"levelo://app?vid=fe02529b-0cc0-420a-94b3-f91d2ac9e933"},"vehicle_type_id":"4","last_reported":1748924249,"current_range_meters":26800,"station_id":"cpo3532slgdg3j2ikp40","pricing_plan_id":"cebpf4jnsgd1na2vs0mg"},{"bike_id":"092145e9-df52-46c3-981f-0967eedc6b89","system_id":"levelo_inurba_marseille","lat":43.280548,"lon":5.440167,"is_reserved":false,"is_disabled":false,"rental_uris":{"android":"levelo://app?vid=092145e9-df52-46c3-981f-0967eedc6b89","ios":"levelo://app?vid=092145e9-df52-46c3-981f-0967eedc6b89"},"vehicle_type_id":"4","last_reported":1748924249,"current_range_meters":27200,"station_id":"","pricing_plan_id":"cebpf4jnsgd1na2vs0mg"},{"bike_id":"abbfed7c-3e7d-47e8-b137-442e6e172a19","system_id":"levelo_inurba_marseille","lat":43.30521,"lon":5.38427,"is_reserved":false,"is_disabled":false,"rental_uris":{"android":"levelo://app?vid=abbfed7c-3e7d-47e8-b137-442e6e172a19","ios":"levelo://app?vid=abbfed7c-3e7d-47e8-b137-442e6e172a19"},"vehicle_type_id":"4","last_reported":1748924249,"current_range_meters":27200,"station_id":"ce4bgg92rcd13ifvqb30","pricing_plan_id":"cebpf4jnsgd1na2vs0mg"},{"bike_id":"ff925acd-7c36-4893-868d-66181478b8b5","system_id":"levelo_inurba_marseille","lat":43.309294,"lon":5.401428,"is_reserved":false,"is_disabled":false,"rental_uris":{"android":"levelo://app?vid=ff925acd-7c36-4893-868d-66181478b8b5","ios":"levelo://app?vid=ff925acd-7c36-4893-868d-66181478b8b5"},"vehicle_type_id":"4","last_reported":1748924249,"current_range_meters":27200,"station_id":"ce4bgvp2rcd13ifvqct0","pricing_plan_id":"cebpf4jnsgd1na2vs0mg"},{"bike_id":"b8b7dd67-2171-42c8-a41b-19f0a0d3ddc4","system_id":"levelo_inurba_marseille","lat":43.292508,"lon":5.409029,"is_reserved":false,"is_disabled":false,"rental_uris":{"android":"levelo://app?vid=b8b7dd67-2171-42c8-a41b-19f0a0d3ddc4","ios":"levelo://app?vid=b8b7dd67-2171-42c8-a41b-19f0a0d3ddc4"},"vehicle_type_id":"4","last_reported":1748924249,"current_range_meters":27200,"station_id":"ce4bh192rcd13ifvqdc0","pricing_plan_id":"cebpf4jnsgd1na2vs0mg"},{"bike_id":"40554dc5-7fae-46d3-b5cf-8e279d1f4388","system_id":"levelo_inurba_marseille","lat":43.28851,"lon":5.39298,"is_reserved":false,"is_disabled":false,"rental_uris":{"android":"levelo://app?vid=40554dc5-7fae-46d3-b5cf-8e279d1f4388","ios":"levelo://app?vid=40554dc5-7fae-46d3-b5cf-8e279d1f4388"},"vehicle_type_id":"4","last_reported":1748924249,"current_range_meters":27200,"station_id":"ce4bh2p2rcd13ifvqdi0","pricing_plan_id":"cebpf4jnsgd1na2vs0mg"},{"bike_id":"e85aa47c-a744-4b89-9b9c-46532a52b2ad","system_id":"levelo_inurba_marseille","lat":43.292797,"lon":5.401153,"is_reserved":false,"is_disabled":false,"rental_uris":{"android":"levelo://app?vid=e85aa47c-a744-4b89-9b9c-46532a52b2ad","ios":"levelo://app?vid=e85aa47c-a744-4b89-9b9c-46532a52b2ad"},"vehicle_type_id":"4","last_reported":1748924249,"current_range_meters":27200,"station_id":"ce4bh312rcd13ifvqdk0","pricing_plan_id":"cebpf4jnsgd1na2vs0mg"},{"bike_id":"6db35f09-1b69-4034-939c-674ebef6c5de","system_id":"levelo_inurba_marseille","lat":43.28677,"lon":5.36356,"is_reserved":false,"is_disabled":false,"rental_uris":{"android":"levelo://app?vid=6db35f09-1b69-4034-939c-674ebef6c5de","ios":"levelo://app?vid=6db35f09-1b69-4034-939c-674ebef6c5de"},"vehicle_type_id":"4","last_reported":1748924249,"current_range_meters":27200,"station_id":"ce4bhah2rcd13ifvqej0","pricing_plan_id":"cebpf4jnsgd1na2vs0mg"},{"bike_id":"8da85645-8554-4ece-935a-4054eb45a9f4","system_id":"levelo_inurba_marseille","lat":43.260698,"lon":5.394139,"is_reserved":false,"is_disabled":false,"rental_uris":{"android":"levelo://app?vid=8da85645-8554-4ece-935a-4054eb45a9f4","ios":"levelo://app?vid=8da85645-8554-4ece-935a-4054eb45a9f4"},"vehicle_type_id":"4","last_reported":1748924249,"current_range_meters":27200,"station_id":"ce4bhh92rcd13ifvqfj0","pricing_plan_id":"cebpf4jnsgd1na2vs0mg"},{"bike_id":"ec623874-acce-4d5b-a7a4-745c7bfc9170","system_id":"levelo_inurba_marseille","lat":43.26055,"lon":5.39385,"is_reserved":false,"is_disabled":false,"rental_uris":{"android":"levelo://app?vid=ec623874-acce-4d5b-a7a4-745c7bfc9170","ios":"levelo://app?vid=ec623874-acce-4d5b-a7a4-745c7bfc9170"},"vehicle_type_id":"4","last_reported":1748924249,"current_range_meters":27200,"station_id":"ce4bhh92rcd13ifvqfj0","pricing_plan_id":"cebpf4jnsgd1na2vs0mg"},{"bike_id":"55f9bc0b-2bed-45bb-92f3-79805c3d0c82","system_id":"levelo_inurba_marseille","lat":43.24075,"lon":5.3777,"is_reserved":false,"is_disabled":false,"rental_uris":{"android":"levelo://app?vid=55f9bc0b-2bed-45bb-92f3-79805c3d0c82","ios":"levelo://app?vid=55f9bc0b-2bed-45bb-92f3-79805c3d0c82"},"vehicle_type_id":"4","last_reported":1748924249,"current_range_meters":27200,"station_id":"ce4bhnp2rcd13ifvqgvg","pricing_plan_id":"cebpf4jnsgd1na2vs0mg"},{"bike_id":"41636751-4d9f-4be6-ad1d-0a6d9bae00a8","system_id":"levelo_inurba_marseille","lat":43.323639,"lon":5.388893,"is_reserved":false,"is_disabled":false,"rental_uris":{"android":"levelo://app?vid=41636751-4d9f-4be6-ad1d-0a6d9bae00a8","ios":"levelo://app?vid=41636751-4d9f-4be6-ad1d-0a6d9bae00a8"},"vehicle_type_id":"4","last_reported":1748924249,"current_range_meters":27200,"station_id":"ce4bhqp2rcd13ifvqhog","pricing_plan_id":"cebpf4jnsgd1na2vs0mg"},{"bike_id":"70e191f6-de80-410f-b5ec-0cd5b1fbb2d6","system_id":"levelo_inurba_marseille","lat":43.292607,"lon":5.376179,"is_reserved":false,"is_disabled":false,"rental_uris":{"android":"levelo://app?vid=70e191f6-de80-410f-b5ec-0cd5b1fbb2d6","ios":"levelo://app?vid=70e191f6-de80-410f-b5ec-0cd5b1fbb2d6"},"vehicle_type_id":"4","last_reported":1748924249,"current_range_meters":27600,"station_id":"ce4bgi12rcd13ifvqb80","pricing_plan_id":"cebpf4jnsgd1na2vs0mg"},{"bike_id":"b4d17f78-9aed-4f0a-ab42-7c278d6e37d4","system_id":"levelo_inurba_marseille","lat":43.30144,"lon":5.38094,"is_reserved":false,"is_disabled":false,"rental_uris":{"android":"levelo://app?vid=b4d17f78-9aed-4f0a-ab42-7c278d6e37d4","ios":"levelo://app?vid=b4d17f78-9aed-4f0a-ab42-7c278d6e37d4"},"vehicle_type_id":"4","last_reported":1748924249,"current_range_meters":27600,"station_id":"ce4bgjp2rcd13ifvqbh0","pricing_plan_id":"cebpf4jnsgd1na2vs0mg"},{"bike_id":"dc89f316-a9d9-4edd-bd37-846e1c0d24d5","system_id":"levelo_inurba_marseille","lat":43.31511,"lon":5.373,"is_reserved":false,"is_disabled":false,"rental_uris":{"android":"levelo://app?vid=dc89f316-a9d9-4edd-bd37-846e1c0d24d5","ios":"levelo://app?vid=dc89f316-a9d9-4edd-bd37-846e1c0d24d5"},"vehicle_type_id":"4","last_reported":1748924249,"current_range_meters":27600,"station_id":"ce4bgt12rcd13ifvqcd0","pricing_plan_id":"cebpf4jnsgd1na2vs0mg"},{"bike_id":"74713cc3-5db1-48fc-a422-4adc732a40cd","system_id":"levelo_inurba_marseille","lat":43.30952,"lon":5.39032,"is_reserved":false,"is_disabled":false,"rental_uris":{"android":"levelo://app?vid=74713cc3-5db1-48fc-a422-4adc732a40cd","ios":"levelo://app?vid=74713cc3-5db1-48fc-a422-4adc732a40cd"},"vehicle_type_id":"4","last_reported":1748924249,"current_range_meters":27600,"station_id":"ce4bgup2rcd13ifvqco0","pricing_plan_id":"cebpf4jnsgd1na2vs0mg"},{"bike_id":"6102f042-f8cd-46e6-959c-0c404b47dba8","system_id":"levelo_inurba_marseille","lat":43.31171,"lon":5.38723,"is_reserved":false,"is_disabled":false,"rental_uris":{"android":"levelo://app?vid=6102f042-f8cd-46e6-959c-0c404b47dba8","ios":"levelo://app?vid=6102f042-f8cd-46e6-959c-0c404b47dba8"},"vehicle_type_id":"4","last_reported":1748924249,"current_range_meters":27600,"station_id":"ce4bgv12rcd13ifvqcp0","pricing_plan_id":"cebpf4jnsgd1na2vs0mg"},{"bike_id":"00f3b283-5903-4e6d-b0ad-40f245afdea8","system_id":"levelo_inurba_marseille","lat":43.310636,"lon":5.38347,"is_reserved":false,"is_disabled":false,"rental_uris":{"android":"levelo://app?vid=00f3b283-5903-4e6d-b0ad-40f245afdea8","ios":"levelo://app?vid=00f3b283-5903-4e6d-b0ad-40f245afdea8"},"vehicle_type_id":"4","last_reported":1748924249,"current_range_meters":27600,"station_id":"ce4bgv92rcd13ifvqcr0","pricing_plan_id":"cebpf4jnsgd1na2vs0mg"},{"bike_id":"8b2630dc-df3f-4fdb-b956-2b639bcae928","system_id":"levelo_inurba_marseille","lat":43.30207,"lon":5.39473,"is_reserved":false,"is_disabled":false,"rental_uris":{"android":"levelo://app?vid=8b2630dc-df3f-4fdb-b956-2b639bcae928","ios":"levelo://app?vid=8b2630dc-df3f-4fdb-b956-2b639bcae928"},"vehicle_type_id":"4","last_reported":1748924249,"current_range_meters":27600,"station_id":"ce4bh0p2rcd13ifvqd70","pricing_plan_id":"cebpf4jnsgd1na2vs0mg"},{"bike_id":"7fe058fb-5ed6-40be-a27a-e4db941ddc2c","system_id":"levelo_inurba_marseille","lat":43.28973,"lon":5.37847,"is_reserved":false,"is_disabled":false,"rental_uris":{"android":"levelo://app?vid=7fe058fb-5ed6-40be-a27a-e4db941ddc2c","ios":"levelo://app?vid=7fe058fb-5ed6-40be-a27a-e4db941ddc2c"},