{"last_updated":1767270228,"ttl":60,"version":"2.2","data":{"bikes":[{"bike_id":"2728229d-fa51-4d90-8db4-07cf86efccb2","system_id":"levelo_inurba_marseille","lat":43.28488,"lon":5.3844,"is_reserved":false,"is_disabled":false,"rental_uris":{"android":"levelo://app?vid=2728229d-fa51-4d90-8db4-07cf86efccb2","ios":"levelo://app?vid=2728229d-fa51-4d90-8db4-07cf86efccb2"},"vehicle_type_id":"4","last_reported":1767270228,"current_range_meters":2800,"station_id":"ce4bh512rcd13ifvqe3g","pricing_plan_id":"cebpf4jnsgd1na2vs0mg"},{"bike_id":"7c6af272-d854-4cac-a893-c6faf1234d18","system_id":"levelo_inurba_marseille","lat":43.2703,"lon":5.38346,"is_reserved":false,"is_disabled":false,"rental_uris":{"android":"levelo://app?vid=7c6af272-d854-4cac-a893-c6faf1234d18","ios":"levelo://app?vid=7c6af272-d854-4cac-a893-c6faf1234d18"},"vehicle_type_id":"4","last_reported":1767270228,"current_range_meters":2800,"station_id":"st_d3n2fo6cfp8s73cte1j0","pricing_plan_id":"cebpf4jnsgd1na2vs0mg"},{"bike_id":"c2b69443-bbd5-4d10-9d30-b4aae281dfc1","system_id":"levelo_inurba_marseille","lat":43.30672,"lon":5.37125,"is_reserved":false,"is_disabled":false,"rental_uris":{"android":"levelo://app?vid=c2b69443-bbd5-4d10-9d30-b4aae281dfc1","ios":"levelo://app?vid=c2b69443-bbd5-4d10-9d30-b4aae281dfc1"},"vehicle_type_id":"4","last_reported":1767270228,"current_range_meters":2800,"station_id":"","pricing_plan_id":"cebpf4jnsgd1na2vs0mg"},{"bike_id":"ec5fae6d-47b5-4030-bf64-4af050af9ecb","system_id":"levelo_inurba_marseille","lat":43.309238,"lon":5.377974,"is_reserved":false,"is_disabled":false,"rental_uris":{"android":"levelo://app?vid=ec5fae6d-47b5-4030-bf64-4af050af9ecb","ios":"levelo://app?vid=ec5fae6d-47b5-4030-bf64-4af050af9ecb"},"vehicle_type_id":"4","last_reported":1767270228,"current_range_meters":2800,"station_id":"","pricing_plan_id":"cebpf4jnsgd1na2vs0mg"},{"bike_id":"eb2fdd5b-6fe1-4bc3-aa4d-73259e546202","system_id":"levelo_inurba_marseille","lat":43.21189,"lon":5.350768,"is_reserved":false,"is_disabled":false,"rental_uris":{"android":"levelo://app?vid=eb2fdd5b-6fe1-4bc3-aa4d-73259e546202","ios":"levelo://app?vid=eb2fdd5b-6fe1-4bc3-aa4d-73259e546202"},"vehicle_type_id":"4","last_reported":1767270228,"current_range_meters":3200,"station_id":"","pricing_plan_id":"cebpf4jnsgd1na2vs0mg"},{"bike_id":"742f1e99-972a-4415-9c07-2696da1383a1","system_id":"levelo_inurba_marseille","lat":43.29646,"lon":5.40587,"is_reserved":false,"is_disabled":false,"rental_uris":{"android":"levelo://app?vid=742f1e99-972a-4415-9c07-2696da1383a1","ios":"levelo://app?vid=742f1e99-972a-4415-9c07-2696da1383a1"},"vehicle_type_id":"4","last_reported":1767270228,"current_range_meters":3200,"station_id":"","pricing_plan_id":"cebpf4jnsgd1na2vs0mg"},{"bike_id":"9f5385c4-adba-4bab-ac38-ffd56c8961e7","system_id":"levelo_inurba_marseille","lat":43.300807,"lon":5.390817,"is_reserved":false,"is_disabled":false,"rental_uris":{"android":"levelo://app?vid=9f5385c4-adba-4bab-ac38-ffd56c8961e7","ios":"levelo://app?vid=9f5385c4-adba-4bab-ac38-ffd56c8961e7"},"vehicle_type_id":"4","last_reported":1767270228,"current_range_meters":3200,"station_id":"ce4bh192rcd13ifvqdb0","pricing_plan_id":"cebpf4jnsgd1na2vs0mg"},{"bike_id":"791f7aa6-90af-427c-8ef2-9b3001e89fc8","system_id":"levelo_inurba_marseille","lat":43.26783,"lon":5.39425,"is_reserved":false,"is_disabled":true,"rental_uris":{"android":"levelo://app?vid=791f7aa6-90af-427c-8ef2-9b3001e89fc8","ios":"levelo://app?vid=791f7aa6-90af-427c-8ef2-9b3001e89fc8"},"vehicle_type_id":"4","last_reported":1767270228,"current_range_meters":3200,"station_id":"ce4bhh12rcd13ifvqfg0","pricing_plan_id":"cebpf4jnsgd1na2vs0mg"},{"bike_id":"7ffa139d-12cf-4bd9-80a2-d52887e64753","system_id":"levelo_inurba_marseille","lat":43.28476,"lon":5.38421,"is_reserved":false,"is_disabled":false,"rental_uris":{"android":"levelo://app?vid=7ffa139d-12cf-4bd9-80a2-d52887e64753","ios":"levelo://app?vid=7ffa139d-12cf-4bd9-80a2-d52887e64753"},"vehicle_type_id":"4","last_reported":1767270228,"current_range_meters":3200,"station_id":"ce4bh512rcd13ifvqe3g","pricing_plan_id":"cebpf4jnsgd1na2vs0mg"},{"bike_id":"0681f0ab-bd3d-4d2a-bc25-77be0ba39983","system_id":"levelo_inurba_marseille","lat":43.255795,"lon":5.382255,"is_reserved":false,"is_disabled":false,"rental_uris":{"android":"levelo://app?vid=0681f0ab-bd3d-4d2a-bc25-77be0ba39983","ios":"levelo://app?vid=0681f0ab-bd3d-4d2a-bc25-77be0ba39983"},"vehicle_type_id":"4","last_reported":1767270228,"current_range_meters":3200,"station_id":"ce4bhih2rcd13ifvqfs0","pricing_plan_id":"cebpf4jnsgd1na2vs0mg"},{"bike_id":"f518484d-ffe6-4fda-af48-80cc156f7b2c","system_id":"levelo_inurba_marseille","lat":43.28465,"lon":5.35891,"is_reserved":false,"is_disabled":false,"rental_uris":{"android":"levelo://app?vid=f518484d-ffe6-4fda-af48-80cc156f7b2c","ios":"levelo://app?vid=f518484d-ffe6-4fda-af48-80cc156f7b2c"},"vehicle_type_id":"4","last_reported":1767270228,"current_range_meters":3200,"station_id":"ce4bhah2rcd13ifvqei0","pricing_plan_id":"cebpf4jnsgd1na2vs0mg"},{"bike_id":"057433b7-e98f-433e-82bb-8e9d9fcb3558","system_id":"levelo_inurba_marseille","lat":43.3065,"lon":5.40099,"is_reserved":false,"is_disabled":false,"rental_uris":{"android":"levelo://app?vid=057433b7-e98f-433e-82bb-8e9d9fcb3558","ios":"levelo://app?vid=057433b7-e98f-433e-82bb-8e9d9fcb3558"},"vehicle_type_id":"4","last_reported":1767270228,"current_range_meters":3200,"station_id":"ce4bh112rcd13ifvqda0","pricing_plan_id":"cebpf4jnsgd1na2vs0mg"},{"bike_id":"d2b442bb-7bdc-499e-99e9-d8b15513c65a","system_id":"levelo_inurba_marseille","lat":43.21188,"lon":5.35076,"is_reserved":false,"is_disabled":false,"rental_uris":{"android":"levelo://app?vid=d2b442bb-7bdc-499e-99e9-d8b15513c65a","ios":"levelo://app?vid=d2b442bb-7bdc-499e-99e9-d8b15513c65a"},"vehicle_type_id":"4","last_reported":1767270228,"current_range_meters":3600,"station_id":"st_cvj6sg6p6f1abm77japg","pricing_plan_id":"cebpf4jnsgd1na2vs0mg"},{"bike_id":"fd659dde-36ac-40e2-99ca-f3c26d5026ef","system_id":"levelo_inurba_marseille","lat":43.30761,"lon":5.37648,"is_reserved":false,"is_disabled":false,"rental_uris":{"android":"levelo://app?vid=fd659dde-36ac-40e2-99ca-f3c26d5026ef","ios":"levelo://app?vid=fd659dde-36ac-40e2-99ca-f3c26d5026ef"},"vehicle_type_id":"4","last_reported":1767270228,"current_range_meters":3600,"station_id":"ce4bgv92rcd13ifvqcq0","pricing_plan_id":"cebpf4jnsgd1na2vs0mg"},{"bike_id":"3ae180a1-ad81-4fbd-8d8e-5122c1af76f4","system_id":"levelo_inurba_marseille","lat":43.337444,"lon":5.374475,"is_reserved":false,"is_disabled":false,"rental_uris":{"android":"levelo://app?vid=3ae180a1-ad81-4fbd-8d8e-5122c1af76f4","ios":"levelo://app?vid=3ae180a1-ad81-4fbd-8d8e-5122c1af76f4"},"vehicle_type_id":"4","last_reported":1767270228,"current_range_meters":3600,"station_id":"","pricing_plan_id":"cebpf4jnsgd1na2vs0mg"},{"bike_id":"bed3589e-0a73-4fa8-8125-6091baea9fd3","system_id":"levelo_inurba_marseille","lat":43.30878,"lon":5.39657,"is_reserved":false,"is_disabled":false,"rental_uris":{"android":"levelo://app?vid=bed3589e-0a73-4fa8-8125-6091baea9fd3","ios":"levelo://app?vid=bed3589e-0a73-4fa8-8125-6091baea9fd3"},"vehicle_type_id":"4","last_reported":1767270228,"current_range_meters":3600,"station_id":"ce4bh012rcd13ifvqcv0","pricing_plan_id":"cebpf4jnsgd1na2vs0mg"},{"bike_id":"765e8bfe-8308-456c-8971-1b882d11e99b","system_id":"levelo_inurba_marseille","lat":43.29363,"lon":5.37855,"is_reserved":false,"is_disabled":false,"rental_uris":{"android":"levelo://app?vid=765e8bfe-8308-456c-8971-1b882d11e99b","ios":"levelo://app?vid=765e8bfe-8308-456c-8971-1b882d11e99b"},"vehicle_type_id":"4","last_reported":1767270228,"current_range_meters":3600,"station_id":"ce4bgjh2rcd13ifvqbf0","pricing_plan_id":"cebpf4jnsgd1na2vs0mg"},{"bike_id":"0c959b9d-da8d-4850-bd59-de9409bdbed5","system_id":"levelo_inurba_marseille","lat":43.28469,"lon":5.38398,"is_reserved":false,"is_disabled":false,"rental_uris":{"android":"levelo://app?vid=0c959b9d-da8d-4850-bd59-de9409bdbed5","ios":"levelo://app?vid=0c959b9d-da8d-4850-bd59-de9409bdbed5"},"vehicle_type_id":"4","last_reported":1767270228,"current_range_meters":4000,"station_id":"ce4bh512rcd13ifvqe3g","pricing_plan_id":"cebpf4jnsgd1na2vs0mg"},{"bike_id":"f591bc23-6dfd-4e5f-b7c7-6174e4097efe","system_id":"levelo_inurba_marseille","lat":43.2815,"lon":5.42665,"is_reserved":false,"is_disabled":false,"rental_uris":{"android":"levelo://app?vid=f591bc23-6dfd-4e5f-b7c7-6174e4097efe","ios":"levelo://app?vid=f591bc23-6dfd-4e5f-b7c7-6174e4097efe"},"vehicle_type_id":"4","last_reported":1767270228,"current_range_meters":4000,"station_id":"ce4bhnh2rcd13ifvqgug","pricing_plan_id":"cebpf4jnsgd1na2vs0mg"},{"bike_id":"929d525b-b958-4f8b-b144-c10aec153a90","system_id":"levelo_inurba_marseille","lat":43.29717,"lon":5.36622,"is_reserved":false,"is_disabled":false,"rental_uris":{"android":"levelo://app?vid=929d525b-b958-4f8b-b144-c10aec153a90","ios":"levelo://app?vid=929d525b-b958-4f8b-b144-c10aec153a90"},"vehicle_type_id":"4","last_reported":1767270228,"current_range_meters":4000,"station_id":"ce4bgn12rcd13ifvqbt0","pricing_plan_id":"cebpf4jnsgd1na2vs0mg"},{"bike_id":"b3555a12-93cc-4978-ab1d-5cb868684f96","system_id":"levelo_inurba_marseille","lat":43.2989,"lon":5.39756,"is_reserved":false,"is_disabled":false,"rental_uris":{"android":"levelo://app?vid=b3555a12-93cc-4978-ab1d-5cb868684f96","ios":"levelo://app?vid=b3555a12-93cc-4978-ab1d-5cb868684f96"},"vehicle_type_id":"4","last_reported":1767270228,"current_range_meters":4000,"station_id":"ce4bh0h2rcd13ifvqd50","pricing_plan_id":"cebpf4jnsgd1na2vs0mg"},{"bike_id":"46386cbd-db1a-43d1-a5f4-555eaa0db9a6","system_id":"levelo_inurba_marseille","lat":43.28257,"lon":5.3506,"is_reserved":false,"is_disabled":false,"rental_uris":{"android":"levelo://app?vid=46386cbd-db1a-43d1-a5f4-555eaa0db9a6","ios":"levelo://app?vid=46386cbd-db1a-43d1-a5f4-555eaa0db9a6"},"vehicle_type_id":"4","last_reported":1767270228,"current_range_meters":4000,"station_id":"ce4bhbp2rcd13ifvqerg","pricing_plan_id":"cebpf4jnsgd1na2vs0mg"},{"bike_id":"33c9eaf0-680b-4a68-82f8-7d87f07e6e13","system_id":"levelo_inurba_marseille","lat":43.26461,"lon":5.39534,"is_reserved":false,"is_disabled":false,"rental_uris":{"android":"levelo://app?vid=33c9eaf0-680b-4a68-82f8-7d87f07e6e13","ios":"levelo://app?vid=33c9eaf0-680b-4a68-82f8-7d87f07e6e13"},"vehicle_type_id":"4","last_reported":1767270228,"current_range_meters":4400,"station_id":"ce4bhi12rcd13ifvqfq0","pricing_plan_id":"cebpf4jnsgd1na2vs0mg"},{"bike_id":"6351cb0c-5d89-409e-bbb0-728ecc36c4e7","system_id":"levelo_inurba_marseille","lat":43.2621,"lon":5.37439,"is_reserved":false,"is_disabled":false,"rental_uris":{"android":"levelo://app?vid=6351cb0c-5d89-409e-bbb0-728ecc36c4e7","ios":"levelo://app?vid=6351cb0c-5d89-409e-bbb0-728ecc36c4e7"},"vehicle_type_id":"4","last_reported":1767270228,"current_range_meters":4400,"station_id":"ce4bhgp2rcd13ifvqfc0","pricing_plan_id":"cebpf4jnsgd1na2vs0mg"},{"bike_id":"b9fe624b-5f79-478c-8b92-041224fcacce","system_id":"levelo_inurba_marseille","lat":43.286133,"lon":5.3987,"is_reserved":false,"is_disabled":false,"rental_uris":{"android":"levelo://app?vid=b9fe624b-5f79-478c-8b92-041224fcacce","ios":"levelo://app?vid=b9fe624b-5f79-478c-8b92-041224fcacce"},"vehicle_type_id":"4","last_reported":1767270228,"current_range_meters":4400,"station_id":"st_d4a7ka997mjs738ck50g","pricing_plan_id":"cebpf4jnsgd1na2vs0mg"},{"bike_id":"c030322a-0c52-4e80-91e9-43aa6ec3f9f1","system_id":"levelo_inurba_marseille","lat":43.21194,"lon":5.350721,"is_reserved":false,"is_disabled":false,"rental_uris":{"android":"levelo://app?vid=c030322a-0c52-4e80-91e9-43aa6ec3f9f1","ios":"levelo://app?vid=c030322a-0c52-4e80-91e9-43aa6ec3f9f1"},"vehicle_type_id":"4","last_reported":1767270228,"current_range_meters":4400,"station_id":"st_cvj6sg6p6f1abm77japg","pricing_plan_id":"cebpf4jnsgd1na2vs0mg"},{"bike_id":"29bbd316-a3ba-4fba-9255-99b4397329c1","system_id":"levelo_inurba_marseille","lat":43.24984,"lon":5.40454,"is_reserved":false,"is_disabled":false,"rental_uris":{"android":"levelo://app?vid=29bbd316-a3ba-4fba-9255-99b4397329c1","ios":"levelo://app?vid=29bbd316-a3ba-4fba-9255-99b4397329c1"},"vehicle_type_id":"4","last_reported":1767270228,"current_range_meters":4400,"station_id":"st_d2ngiaodas8pm72gd1h0","pricing_plan_id":"cebpf4jnsgd1na2vs0mg"},{"bike_id":"65bcb155-d26f-40af-9b01-2b9a18976370","system_id":"levelo_inurba_marseille","lat":43.29977,"lon":5.3718,"is_reserved":false,"is_disabled":true,"rental_uris":{"android":"levelo://app?vid=65bcb155-d26f-40af-9b01-2b9a18976370","ios":"levelo://app?vid=65bcb155-d26f-40af-9b01-2b9a18976370"},"vehicle_type_id":"4","last_reported":1767270228,"current_range_meters":4400,"station_id":"ce4bgr92rcd13ifvqc7g","pricing_plan_id":"cebpf4jnsgd1na2vs0mg"},{"bike_id":"9ce3dc9f-f62c-499a-98dc-3a924e3ec5df","system_id":"levelo_inurba_marseille","lat":43.26938,"lon":5.40245,"is_reserved":false,"is_disabled":false,"rental_uris":{"android":"levelo://app?vid=9ce3dc9f-f62c-499a-98dc-3a924e3ec5df","ios":"levelo://app?vid=9ce3dc9f-f62c-499a-98dc-3a924e3ec5df"},"vehicle_type_id":"4","last_reported":1767270228,"current_range_meters":4400,"station_id":"cjm6bp8fraef2m0cb0m0","pricing_plan_id":"cebpf4jnsgd1na2vs0mg"},{"bike_id":"efd33062-2cef-445f-af98-648f578e9c2a","system_id":"levelo_inurba_marseille","lat":43.32615,"lon":5.41987,"is_reserved":false,"is_disabled":false,"rental_uris":{"android":"levelo://app?vid=efd33062-2cef-445f-af98-648f578e9c2a","ios":"levelo://app?vid=efd33062-2cef-445f-af98-648f578e9c2a"},"vehicle_type_id":"4","last_reported":1767270228,"current_range_meters":4800,"station_id":"","pricing_plan_id":"cebpf4jnsgd1na2vs0mg"},{"bike_id":"5c3723ae-13f9-448d-9385-5664e312af00","system_id":"levelo_inurba_marseille","lat":43.30515,"lon":5.36575,"is_reserved":false,"is_disabled":false,"rental_uris":{"android":"levelo://app?vid=5c3723ae-13f9-448d-9385-5664e312af00","ios":"levelo://app?vid=5c3723ae-13f9-448d-9385-5664e312af00"},"vehicle_type_id":"4","last_reported":1767270228,"current_range_meters":4800,"station_id":"ce4bgs12rcd13ifvqcag","pricing_plan_id":"cebpf4jnsgd1na2vs0mg"},{"bike_id":"dc9feb7e-742c-4c15-83bb-7db4fa4848d4","system_id":"levelo_inurba_marseille","lat":43.3226,"lon":5.38956,"is_reserved":false,"is_disabled":false,"rental_uris":{"android":"levelo://app?vid=dc9feb7e-742c-4c15-83bb-7db4fa4848d4","ios":"levelo://app?vid=dc9feb7e-742c-4c15-83bb-7db4fa4848d4"},"vehicle_type_id":"4","last_reported":1767270228,"current_range_meters":4800,"station_id":"","pricing_plan_id":"cebpf4jnsgd1na2vs0mg"},{"bike_id":"54f6ec4b-5c5e-4e7c-a924-d8d70c9ee744","system_id":"levelo_inurba_marseille","lat":43.30285,"lon":5.39611,"is_reserved":false,"is_disabled":false,"rental_uris":{"android":"levelo://app?vid=54f6ec4b-5c5e-4e7c-a924-d8d70c9ee744","ios":"levelo://app?vid=54f6ec4b-5c5e-4e7c-a924-d8d70c9ee744"},"vehicle_type_id":"4","last_reported":1767270228,"current_range_meters":4800,"station_id":"","pricing_plan_id":"cebpf4jnsgd1na2vs0mg"},{"bike_id":"8b03412a-810b-4a8f-91ea-45d30d05d0ee","system_id":"levelo_inurba_marseille","lat":43.231302,"lon":5.39978,"is_reserved":false,"is_disabled":false,"rental_uris":{"android":"levelo://app?vid=8b03412a-810b-4a8f-91ea-45d30d05d0ee","ios":"levelo://app?vid=8b03412a-810b-4a8f-91ea-45d30d05d0ee"},"vehicle_type_id":"4","last_reported":1767270228,"current_range_meters":4800,"station_id":"","pricing_plan_id":"cebpf4jnsgd1na2vs0mg"},{"bike_id":"f69f3b06-8276-4071-9678-936028de3372","system_id":"levelo_inurba_marseille","lat":43.298791,"lon":5.39755,"is_reserved":false,"is_disabled":false,"rental_uris":{"android":"levelo://app?vid=f69f3b06-8276-4071-9678-936028de3372","ios":"levelo://app?vid=f69f3b06-8276-4071-9678-936028de3372"},"vehicle_type_id":"4","last_reported":1767270228,"current_range_meters":4800,"station_id":"ce4bh0h2rcd13ifvqd50","pricing_plan_id":"cebpf4jnsgd1na2vs0mg"},{"bike_id":"d0270600-771e-498c-90ba-ff23f7347b4c","system_id":"levelo_inurba_marseille","lat":43.29605,"lon":5.37714,"is_reserved":false,"is_disabled":false,"rental_uris":{"android":"levelo://app?vid=d0270600-771e-498c-90ba-ff23f7347b4c","ios":"levelo://app?vid=d0270600-771e-498c-90ba-ff23f7347b4c"},"vehicle_type_id":"4","last_reported":1767270228,"current_range_meters":4800,"station_id":"ce4bgi92rcd13ifvqb90","pricing_plan_id":"cebpf4jnsgd1na2vs0mg"},{"bike_id":"2f776167-fd8c-4bf2-b226-79f6121d295b","system_id":"levelo_inurba_marseille","lat":43.31709,"lon":5.43709,"is_reserved":false,"is_disabled":false,"rental_uris":{"android":"levelo://app?vid=2f776167-fd8c-4bf2-b226-79f6121d295b","ios":"levelo://app?vid=2f776167-fd8c-4bf2-b226-79f6121d295b"},"vehicle_type_id":"4","last_reported":1767270228,"current_range_meters":4800,"station_id":"ce4bhp92rcd13ifvqhcg","pricing_plan_id":"cebpf4jnsgd1na2vs0mg"},{"bike_id":"0fa76090-b264-4d7f-a0bc-7de1e50f19da","system_id":"levelo_inurba_marseille","lat":43.280192,"lon":5.404153,"is_reserved":false,"is_disabled":false,"rental_uris":{"android":"levelo://app?vid=0fa76090-b264-4d7f-a0bc-7de1e50f19da","ios":"levelo://app?vid=0fa76090-b264-4d7f-a0bc-7de1e50f19da"},"vehicle_type_id":"4","last_reported":1767270228,"current_range_meters":4800,"station_id":"","pricing_plan_id":"cebpf4jnsgd1na2vs0mg"},{"bike_id":"bc942189-f5d1-440e-be40-abf6e52870fe","system_id":"levelo_inurba_marseille","lat":43.27618,"lon":5.36108,"is_reserved":false,"is_disabled":false,"rental_uris":{"android":"levelo://app?vid=bc942189-f5d1-440e-be40-abf6e52870fe","ios":"levelo://app?vid=bc942189-f5d1-440e-be40-abf6e52870fe"},"vehicle_type_id":"4","last_reported":1767270228,"current_range_meters":4800,"station_id":"ce4bgj92rcd13ifvqbe0","pricing_plan_id":"cebpf4jnsgd1na2vs0mg"},{"bike_id":"41069fea-96c4-45bf-816c-b1152be2e8c4","system_id":"levelo_inurba_marseille","lat":43.253254,"lon":5.421633,"is_reserved":false,"is_disabled":false,"rental_uris":{"android":"levelo://app?vid=41069fea-96c4-45bf-816c-b1152be2e8c4","ios":"levelo://app?vid=41069fea-96c4-45bf-816c-b1152be2e8c4"},"vehicle_type_id":"4","last_reported":1767270228,"current_range_meters":5600,"station_id":"st_d2m65c5bi1j21697t3ng","pricing_plan_id":"cebpf4jnsgd1na2vs0mg"},{"bike_id":"9cf20d61-ddfa-467e-90ea-ddf7859b95f0","system_id":"levelo_inurba_marseille","lat":43.30375,"lon":5.42498,"is_reserved":false,"is_disabled":false,"rental_uris":{"android":"levelo://app?vid=9cf20d61-ddfa-467e-90ea-ddf7859b95f0","ios":"levelo://app?vid=9cf20d61-ddfa-467e-90ea-ddf7859b95f0"},"vehicle_type_id":"4","last_reported":1767270228,"current_range_meters":5600,"station_id":"ce4bhoh2rcd13ifvqh6g","pricing_plan_id":"cebpf4jnsgd1na2vs0mg"},{"bike_id":"dce28840-1b59-4930-917a-12d88071d00f","system_id":"levelo_inurba_marseille","lat":43.28545,"lon":5.44102,"is_reserved":false,"is_disabled":false,"rental_uris":{"android":"levelo://app?vid=dce28840-1b59-4930-917a-12d88071d00f","ios":"levelo://app?vid=dce28840-1b59-4930-917a-12d88071d00f"},"vehicle_type_id":"4","last_reported":1767270228,"current_range_meters":5600,"station_id":"st_d3j3df2ikq2c7380ej80","pricing_plan_id":"cebpf4jnsgd1na2vs0mg"},{"bike_id":"3aff02c6-2c85-49b8-a901-010765c4cee2","system_id":"levelo_inurba_marseille","lat":43.29541,"lon":5.38542,"is_reserved":false,"is_disabled":false,"rental_uris":{"android":"levelo://app?vid=3aff02c6-2c85-49b8-a901-010765c4cee2","ios":"levelo://app?vid=3aff02c6-2c85-49b8-a901-010765c4cee2"},"vehicle_type_id":"4","last_reported":1767270228,"current_range_meters":5600,"station_id":"ce4bghh2rcd13ifvqb60","pricing_plan_id":"cebpf4jnsgd1na2vs0mg"},{"bike_id":"a661872f-aa9c-48cf-bf60-351a124e6f6d","system_id":"levelo_inurba_marseille","lat":43.27364,"lon":5.36267,"is_reserved":false,"is_disabled":false,"rental_uris":{"android":"levelo://app?vid=a661872f-aa9c-48cf-bf60-351a124e6f6d","ios":"levelo://app?vid=a661872f-aa9c-48cf-bf60-351a124e6f6d"},"vehicle_type_id":"4","last_reported":1767270228,"current_range_meters":5600,"station_id":"ce4bhbh2rcd13ifvqeo0","pricing_plan_id":"cebpf4jnsgd1na2vs0mg"},{"bike_id":"a274e1f3-90e8-4548-9a2a-4f53c59abc4e","system_id":"levelo_inurba_marseille","lat":43.31705,"lon":5.40463,"is_reserved":false,"is_disabled":true,"rental_uris":{"android":"levelo://app?vid=a274e1f3-90e8-4548-9a2a-4f53c59abc4e","ios":"levelo://app?vid=a274e1f3-90e8-4548-9a2a-4f53c59abc4e"},"vehicle_type_id":"4","last_reported":1767270228,"current_range_meters":5600,"station_id":"ce4bh012rcd13ifvqd00","pricing_plan_id":"cebpf4jnsgd1na2vs0mg"},{"bike_id":"c0efa7e8-7f6b-4a9e-941b-890ff80e593b","system_id":"levelo_inurba_marseille","lat":43.28004,"lon":5.40005,"is_reserved":false,"is_disabled":false,"rental_uris":{"android":"levelo://app?vid=c0efa7e8-7f6b-4a9e-941b-890ff80e593b","ios":"levelo://app?vid=c0efa7e8-7f6b-4a9e-941b-890ff80e593b"},"vehicle_type_id":"4","last_reported":1767270228,"current_range_meters":5600,"station_id":"ce4bho92rcd13ifvqh4g","pricing_plan_id":"cebpf4jnsgd1na2vs0mg"},{"bike_id":"75e40aa5-86f4-4c52-877f-db96fa56d725","system_id":"levelo_inurba_marseille","lat":43.2902,"lon":5.356,"is_reserved":false,"is_disabled":false,"rental_uris":{"android":"levelo://app?vid=75e40aa5-86f4-4c52-877f-db96fa56d725","ios":"levelo://app?vid=75e40aa5-86f4-4c52-877f-db96fa56d725"},"vehicle_type_id":"4","last_reported":1767270228,"current_range_meters":5600,"station_id":"ce4bhb92rcd13ifvqen0","pricing_plan_id":"cebpf4jnsgd1na2vs0mg"},{"bike_id":"6f4bee2f-cd13-4795-ad2d-1a3729b8f445","system_id":"levelo_inurba_marseille","lat":43.27364,"lon":5.36257,"is_reserved":false,"is_disabled":false,"rental_uris":{"android":"levelo://app?vid=6f4bee2f-cd13-4795-ad2d-1a3729b8f445","ios":"levelo://app?vid=6f4bee2f-cd13-4795-ad2d-1a3729b8f445"},"vehicle_type_id":"4","last_reported":1767270228,"current_range_meters":5600,"station_id":"ce4bhbh2rcd13ifvqeo0","pricing_plan_id":"cebpf4jnsgd1na2vs0mg"},{"bike_id":"d5aa2f86-7ff9-4ea7-a371-c60f3ae2c8ed","system_id":"levelo_inurba_marseille","lat":43.29266,"lon":5.38434,"is_reserved":false,"is_disabled":false,"rental_uris":{"android":"levelo://app?vid=d5aa2f86-7ff9-4ea7-a371-c60f3ae2c8ed","ios":"levelo://app?vid=d5aa2f86-7ff9-4ea7-a371-c60f3ae2c8ed"},"vehicle_type_id":"4","last_reported":1767270228,"current_range_meters":5600,"station_id":"ce4bh692rcd13ifvqea0","pricing_plan_id":"cebpf4jnsgd1na2vs0mg"},{"bike_id":"b9f5bb9a-d9aa-4714-a9ae-ceaed3ab533e","system_id":"levelo_inurba_marseille","lat":43.29643,"lon":5.38045,"is_reserved":false,"is_disabled":false,"rental_uris":{"android":"levelo://app?vid=b9f5bb9a-d9aa-4714-a9ae-ceaed3ab533e","ios":"levelo://app?vid=b9f5bb9a-d9aa-4714-a9ae-ceaed3ab533e"},"vehicle_type_id":"4","last_reported":1767270228,"current_range_meters":5600,"station_id":"","pricing_plan_id":"cebpf4jnsgd1na2vs0mg"},{"bike_id":"9a2077a2-cebc-468c-82f9-fecda68a9ec3","system_id":"levelo_inurba_marseille","lat":43.2949,"lon":5.40896,"is_reserved":false,"is_disabled":false,"rental_uris":{"android":"levelo://app?vid=9a2077a2-cebc-468c-82f9-fecda68a9ec3","ios":"levelo://app?vid=9a2077a2-cebc-468c-82f9-fecda68a9ec3"},"vehicle_type_id":"4","last_reported":1767270228,"current_range_meters":5600,"station_id":"","pricing_plan_id":"cebpf4jnsgd1na2vs0mg"},{"bike_id":"0ab0ac30-af99-432a-96b6-33a463626c8b","system_id":"levelo_inurba_marseille","lat":43.29201,"lon":5.35804,"is_reserved":false,"is_disabled":false,"rental_uris":{"android":"levelo://app?vid=0ab0ac30-af99-432a-96b6-33a463626c8b","ios":"levelo://app?vid=0ab0ac30-af99-432a-96b6-33a463626c8b"},"vehicle_type_id":"4","last_reported":1767270228,"current_range_meters":6000,"station_id":"ce4bhb12rcd13ifvqel0","pricing_plan_id":"cebpf4jnsgd1na2vs0mg"},{"bike_id":"681c5b2e-33f5-44fa-b4bf-54d0eaea0b39","system_id":"levelo_inurba_marseille","lat":43.29387,"lon":5.3805,"is_reserved":false,"is_disabled":false,"rental_uris":{"android":"levelo://app?vid=681c5b2e-33f5-44fa-b4bf-54d0eaea0b39","ios":"levelo://app?vid=681c5b2e-33f5-44fa-b4bf-54d0eaea0b39"},"vehicle_type_id":"4","last_reported":1767270228,"current_range_meters":6000,"station_id":"","pricing_plan_id":"cebpf4jnsgd1na2vs0mg"},{"bike_id":"1485075b-1bb5-48d2-b0e5-402379126b05","system_id":"levelo_inurba_marseille","lat":43.298592,"lon":5.381032,"is_reserved":false,"is_disabled":false,"rental_uris":{"android":"levelo://app?vid=1485075b-1bb5-48d2-b0e5-402379126b05","ios":"levelo://app?vid=1485075b-1bb5-48d2-b0e5-402379126b05"},"vehicle_type_id":"4","last_reported":1767270228,"current_range_meters":6000,"station_id":"","pricing_plan_id":"cebpf4jnsgd1na2vs0mg"},{"bike_id":"149a94e7-8065-4440-a1ab-1ba416a8f181","system_id":"levelo_inurba_marseille","lat":43.28478,"lon":5.48399,"is_reserved":false,"is_disabled":false,"rental_uris":{"android":"levelo://app?vid=149a94e7-8065-4440-a1ab-1ba416a8f181","ios":"levelo://app?vid=149a94e7-8065-4440-a1ab-1ba416a8f181"},"vehicle_type_id":"4","last_reported":1767270228,"current_range_meters":6000,"station_id":"","pricing_plan_id":"cebpf4jnsgd1na2vs0mg"},{"bike_id":"d2c40b22-565d-4a49-bb53-f72047eca32b","system_id":"levelo_inurba_marseille","lat":43.26961,"lon":5.38615,"is_reserved":false,"is_disabled":false,"rental_uris":{"android":"levelo://app?vid=d2c40b22-565d-4a49-bb53-f72047eca32b","ios":"levelo://app?vid=d2c40b22-565d-4a49-bb53-f72047eca32b"},"vehicle_type_id":"4","last_reported":1767270228,"current_range_meters":6000,"station_id":"ce4bhh92rcd13ifvqfh0","pricing_plan_id":"cebpf4jnsgd1na2vs0mg"},{"bike_id":"5265762e-9468-4f8e-963d-e1d647f4d72d","system_id":"levelo_inurba_marseille","lat":43.337444,"lon":5.374475,"is_reserved":false,"is_disabled":false,"rental_uris":{"android":"levelo://app?vid=5265762e-9468-4f8e-963d-e1d647f4d72d","ios":"levelo://app?vid=5265762e-9468-4f8e-963d-e1d647f4d72d"},"vehicle_type_id":"4","last_reported":1767270228,"current_range_meters":6400,"station_id":"","pricing_plan_id":"cebpf4jnsgd1na2vs0mg"},{"bike_id":"5ac76dd4-8341-4c0d-b496-0898a4870a5a","system_id":"levelo_inurba_marseille","lat":43.29426,"lon":5.41305,"is_reserved":false,"is_disabled":false,"rental_uris":{"android":"levelo://app?vid=5ac76dd4-8341-4c0d-b496-0898a4870a5a","ios":"levelo://app?vid=5ac76dd4-8341-4c0d-b496-0898a4870a5a"},"vehicle_type_id":"4","last_reported":1767270228,"current_range_meters":6400,"station_id":"","pricing_plan_id":"cebpf4jnsgd1na2vs0mg"},{"bike_id":"e93c83d5-bafc-41ab-b80f-422d8d8d6d2a","system_id":"levelo_inurba_marseille","lat":43.26848,"lon":5.40078,"is_reserved":false,"is_disabled":false,"rental_uris":{"android":"levelo://app?vid=e93c83d5-bafc-41ab-b80f-422d8d8d6d2a","ios":"levelo://app?vid=e93c83d5-bafc-41ab-b80f-422d8d8d6d2a"},"vehicle_type_id":"4","last_reported":1767270228,"current_range_meters":6400,"station_id":"","pricing_plan_id":"cebpf4jnsgd1na2vs0mg"},{"bike_id":"8c9f703d-219a-46f5-bb1d-6f7b59f09c24","system_id":"levelo_inurba_marseille","lat":43.30177,"lon":5.37414,"is_reserved":false,"is_disabled":false,"rental_uris":{"android":"levelo://app?vid=8c9f703d-219a-46f5-bb1d-6f7b59f09c24","ios":"levelo://app?vid=8c9f703d-219a-46f5-bb1d-6f7b59f09c24"},"vehicle_type_id":"4","last_reported":1767270228,"current_range_meters":6400,"station_id":"ce4bgs92rcd13ifvqcc0","pricing_plan_id":"cebpf4jnsgd1na2vs0mg"},{"bike_id":"e36d6924-1acb-4f76-b7f5-6671bd5c277c","system_id":"levelo_inurba_marseille","lat":43.27998,"lon":5.40007,"is_reserved":false,"is_disabled":false,"rental_uris":{"android":"levelo://app?vid=e36d6924-1acb-4f76-b7f5-6671bd5c277c","ios":"levelo://app?vid=e36d6924-1acb-4f76-b7f5-6671bd5c277c"},"vehicle_type_id":"4","last_reported":1767270228,"current_range_meters":6400,"station_id":"ce4bho92rcd13ifvqh4g","pricing_plan_id":"cebpf4jnsgd1na2vs0mg"},{"bike_id":"78ed77cb-47f0-4c82-bf8a-f958576ec953","system_id":"levelo_inurba_marseille","lat":43.281453,"lon":5.426473,"is_reserved":false,"is_disabled":false,"rental_uris":{"android":"levelo://app?vid=78ed77cb-47f0-4c82-bf8a-f958576ec953","ios":"levelo://app?vid=78ed77cb-47f0-4c82-bf8a-f958576ec953"},"vehicle_type_id":"4","last_reported":1767270228,"current_range_meters":6400,"station_id":"ce4bhnh2rcd13ifvqgug","pricing_plan_id":"cebpf4jnsgd1na2vs0mg"},{"bike_id":"d1041711-ecb4-4070-8b9f-37a4fa94dae7","system_id":"levelo_inurba_marseille","lat":43.33606,"lon":5.4104,"is_reserved":false,"is_disabled":false,"rental_uris":{"android":"levelo://app?vid=d1041711-ecb4-4070-8b9f-37a4fa94dae7","ios":"levelo://app?vid=d1041711-ecb4-4070-8b9f-37a4fa94dae7"},"vehicle_type_id":"4","last_reported":1767270228,"current_range_meters":6400,"station_id":"ce4bhqh2rcd13ifvqhmg","pricing_plan_id":"cebpf4jnsgd1na2vs0mg"},{"bike_id":"53922ae6-0f6f-44b9-ac28-2a5752332516","system_id":"levelo_inurba_marseille","lat":43.29238,"lon":5.36117,"is_reserved":false,"is_disabled":false,"rental_uris":{"android":"levelo://app?vid=53922ae6-0f6f-44b9-ac28-2a5752332516","ios":"levelo://app?vid=53922ae6-0f6f-44b9-ac28-2a5752332516"},"vehicle_type_id":"4","last_reported":1767270228,"current_range_meters":6400,"station_id":"ce4bhbh2rcd13ifvqeqg","pricing_plan_id":"cebpf4jnsgd1na2vs0mg"},{"bike_id":"e9a5eb2f-5342-4378-8fc6-06fbe17d605d","system_id":"levelo_inurba_marseille","lat":43.29561,"lon":5.40004,"is_reserved":false,"is_disabled":false,"rental_uris":{"android":"levelo://app?vid=e9a5eb2f-5342-4378-8fc6-06fbe17d605d","ios":"levelo://app?vid=e9a5eb2f-5342-4378-8fc6-06fbe17d605d"},"vehicle_type_id":"4","last_reported":1767270228,"current_range_meters":6400,"station_id":"ce4bh312rcd13ifvqdj0","pricing_plan_id":"cebpf4jnsgd1na2vs0mg"},{"bike_id":"535d562b-448c-43ac-86cc-1d98462f2032","system_id":"levelo_inurba_marseille","lat":43.27919,"lon":5.39584,"is_reserved":false,"is_disabled":false,"rental_uris":{"android":"levelo://app?vid=535d562b-448c-43ac-86cc-1d98462f2032","ios":"levelo://app?vid=535d562b-448c-43ac-86cc-1d98462f2032"},"vehicle_type_id":"4","last_reported":1767270228,"current_range_meters":6400,"station_id":"ce4bhf92rcd13ifvqf40","pricing_plan_id":"cebpf4jnsgd1na2vs0mg"},{"bike_id":"b965a0de-43c2-44b3-b7bc-6d25cc902e81","system_id":"levelo_inurba_marseille","lat":43.28611,"lon":5.39872,"is_reserved":false,"is_disabled":false,"rental_uris":{"android":"levelo://app?vid=b965a0de-43c2-44b3-b7bc-6d25cc902e81","ios":"levelo://app?vid=b965a0de-43c2-44b3-b7bc-6d25cc902e81"},"vehicle_type_id":"4","last_reported":1767270228,"current_range_meters":6400,"station_id":"st_d4a7ka997mjs738ck50g","pricing_plan_id":"cebpf4jnsgd1na2vs0mg"},{"bike_id":"32a7b5d7-5af3-4910-b418-797951028920","system_id":"levelo_inurba_marseille","lat":43.29134,"lon":5.38534,"is_reserved":false,"is_disabled":false,"rental_uris":{"android":"levelo://app?vid=32a7b5d7-5af3-4910-b418-797951028920","ios":"levelo://app?vid=32a7b5d7-5af3-4910-b418-797951028920"},"vehicle_type_id":"4","last_reported":1767270228,"current_range_meters":6400,"station_id":"","pricing_plan_id":"cebpf4jnsgd1na2vs0mg"},{"bike_id":"49998141-cac4-4767-a907-b8a3171a3b09","system_id":"levelo_inurba_marseille","lat":43.29154,"lon":5.38502,"is_reserved":false,"is_disabled":false,"rental_uris":{"android":"levelo://app?vid=49998141-cac4-4767-a907-b8a3171a3b09","ios":"levelo://app?vid=49998141-cac4-4767-a907-b8a3171a3b09"},"vehicle_type_id":"4","last_reported":1767270228,"current_range_meters":6400,"station_id":"","pricing_plan_id":"cebpf4jnsgd1na2vs0mg"},{"bike_id":"32069464-6b57-49de-8170-1a30dcf84fab","system_id":"levelo_inurba_marseille","lat":43.26197,"lon":5.37442,"is_reserved":false,"is_disabled":false,"rental_uris":{"android":"levelo://app?vid=32069464-6b57-49de-8170-1a30dcf84fab","ios":"levelo://app?vid=32069464-6b57-49de-8170-1a30dcf84fab"},"vehicle_type_id":"4","last_reported":1767270228,"current_range_meters":6400,"station_id":"ce4bhgp2rcd13ifvqfc0","pricing_plan_id":"cebpf4jnsgd1na2vs0mg"},{"bike_id":"b7142933-5bc0-4beb-a4ab-a3152aae03ce","system_id":"levelo_inurba_marseille","lat":43.26017,"lon":5.41759,"is_reserved":false,"is_disabled":false,"rental_uris":{"android":"levelo://app?vid=b7142933-5bc0-4beb-a4ab-a3152aae03ce","ios":"levelo://app?vid=b7142933-5bc0-4beb-a4ab-a3152aae03ce"},"vehicle_type_id":"4","last_reported":1767270228,"current_range_meters":6400,"station_id":"","pricing_plan_id":"cebpf4jnsgd1na2vs0mg"},{"bike_id":"2441f6d1-5f03-4661-8059-2a0f0760e94b","system_id":"levelo_inurba_marseille","lat":43.21738,"lon":5.34605,"is_reserved":false,"is_disabled":false,"rental_uris":{"android":"levelo://app?vid=2441f6d1-5f03-4661-8059-2a0f0760e94b","ios":"levelo://app?vid=2441f6d1-5f03-4661-8059-2a0f0760e94b"},"vehicle_type_id":"4","last_reported":1767270228,"current_range_meters":6400,"station_id":"","pricing_plan_id":"cebpf4jnsgd1na2vs0mg"},{"bike_id":"0c9ca243-897c-4d38-8127-8933d39eb60f","system_id":"levelo_inurba_marseille","lat":43.28864,"lon":5.42522,"is_reserved":false,"is_disabled":false,"rental_uris":{"android":"levelo://app?vid=0c9ca243-897c-4d38-8127-8933d39eb60f","ios":"levelo://app?vid=0c9ca243-897c-4d38-8127-8933d39eb60f"},"vehicle_type_id":"4","last_reported":1767270228,"current_range_meters":6400,"station_id":"st_d3b462108ojc7389ooeg","pricing_plan_id":"cebpf4jnsgd1na2vs0mg"},{"bike_id":"73ffe705-5471-4050-890d-67e3966b70ed","system_id":"levelo_inurba_marseille","lat":43.30124,"lon":5.43116,"is_reserved":false,"is_disabled":false,"rental_uris":{"android":"levelo://app?vid=73ffe705-5471-4050-890d-67e3966b70ed","ios":"levelo://app?vid=73ffe705-5471-4050-890d-67e3966b70ed"},"vehicle_type_id":"4","last_reported":1767270228,"current_range_meters":6400,"station_id":"st_d3js3co5814s73ftftug","pricing_plan_id":"cebpf4jnsgd1na2vs0mg"},{"bike_id":"90dac6f2-4e58-4623-b929-4f8d06ec1c31","system_id":"levelo_inurba_marseille","lat":43.28499,"lon":5.42526,"is_reserved":false,"is_disabled":false,"rental_uris":{"android":"levelo://app?vid=90dac6f2-4e58-4623-b929-4f8d06ec1c31","ios":"levelo://app?vid=90dac6f2-4e58-4623-b929-4f8d06ec1c31"},"vehicle_type_id":"4","last_reported":1767270228,"current_range_meters":6800,"station_id":"","pricing_plan_id":"cebpf4jnsgd1na2vs0mg"},{"bike_id":"abf838d6-6712-4300-adda-f8cd4c1d329b","system_id":"levelo_inurba_marseille","lat":43.28399,"lon":5.37512,"is_reserved":false,"is_disabled":false,"rental_uris":{"android":"levelo://app?vid=abf838d6-6712-4300-adda-f8cd4c1d329b","ios":"levelo://app?vid=abf838d6-6712-4300-adda-f8cd4c1d329b"},"vehicle_type_id":"4","last_reported":1767270228,"current_range_meters":6800,"station_id":"ce4bh412rcd13ifvqds0","pricing_plan_id":"cebpf4jnsgd1na2vs0mg"},{"bike_id":"2b23942c-0d5b-4193-b718-e6099c5527d3","system_id":"levelo_inurba_marseille","lat":43.23203,"lon":5.35562,"is_reserved":false,"is_disabled":false,"rental_uris":{"android":"levelo://app?vid=2b23942c-0d5b-4193-b718-e6099c5527d3","ios":"levelo://app?vid=2b23942c-0d5b-4193-b718-e6099c5527d3"},"vehicle_type_id":"4","last_reported":1767270228,"current_range_meters":6800,"station_id":"ce4bhu92rcd13ifvqi70","pricing_plan_id":"cebpf4jnsgd1na2vs0mg"},{"bike_id":"8fa53ddb-80a9-4b81-a17d-6b07554edef4","system_id":"levelo_inurba_marseille","lat":43.28474,"lon":5.48398,"is_reserved":false,"is_disabled":false,"rental_uris":{"android":"levelo://app?vid=8fa53ddb-80a9-4b81-a17d-6b07554edef4","ios":"levelo://app?vid=8fa53ddb-80a9-4b81-a17d-6b07554edef4"},"vehicle_type_id":"4","last_reported":1767270228,"current_range_meters":6800,"station_id":"st_d3svhcjqgbts73a3dn0g","pricing_plan_id":"cebpf4jnsgd1na2vs0mg"},{"bike_id":"19c8fae4-b80c-498c-a4ef-76cc1120fdb3","system_id":"levelo_inurba_marseille","lat":43.27952,"lon":5.41054,"is_reserved":false,"is_disabled":false,"rental_uris":{"android":"levelo://app?vid=19c8fae4-b80c-498c-a4ef-76cc1120fdb3","ios":"levelo://app?vid=19c8fae4-b80c-498c-a4ef-76cc1120fdb3"},"vehicle_type_id":"4","last_reported":1767270228,"current_range_meters":6800,"station_id":"ce4bhnp2rcd13ifvqh0g","pricing_plan_id":"cebpf4jnsgd1na2vs0mg"},{"bike_id":"2d4772b7-d16b-4cb4-a135-dc76b6fe23e3","system_id":"levelo_inurba_marseille","lat":43.279664,"lon":5.400388,"is_reserved":false,"is_disabled":false,"rental_uris":{"android":"levelo://app?vid=2d4772b7-d16b-4cb4-a135-dc76b6fe23e3","ios":"levelo://app?vid=2d4772b7-d16b-4cb4-a135-dc76b6fe23e3"},"vehicle_type_id":"4","last_reported":1767270228,"current_range_meters":6800,"station_id":"ce4bho92rcd13ifvqh4g","pricing_plan_id":"cebpf4jnsgd1na2vs0mg"},{"bike_id":"6c5a0f93-b4f0-4709-9bde-46b446fc69f4","system_id":"levelo_inurba_marseille","lat":43.22557,"lon":5.41621,"is_reserved":false,"is_disabled":false,"rental_uris":{"android":"levelo://app?vid=6c5a0f93-b4f0-4709-9bde-46b446fc69f4","ios":"levelo://app?vid=6c5a0f93-b4f0-4709-9bde-46b446fc69f4"},"vehicle_type_id":"4","last_reported":1767270228,"current_range_meters":6800,"station_id":"st_d2o4gvlbi1j2169b742g","pricing_plan_id":"cebpf4jnsgd1na2vs0mg"},{"bike_id":"650cf425-f87e-4c30-9156-354d5fef94cd","system_id":"levelo_inurba_marseille","lat":43.30091,"lon":5.3674,"is_reserved":false,"is_disabled":false,"rental_uris":{"android":"levelo://app?vid=650cf425-f87e-4c30-9156-354d5fef94cd","ios":"levelo://app?vid=650cf425-f87e-4c30-9156-354d5fef94cd"},"vehicle_type_id":"4","last_reported":1767270228,"current_range_meters":6800,"station_id":"","pricing_plan_id":"cebpf4jnsgd1na2vs0mg"},{"bike_id":"94f95b46-e6bf-4a80-a009-33ee47ec8d03","system_id":"levelo_inurba_marseille","lat":43.29621,"lon":5.37393,"is_reserved":false,"is_disabled":false,"rental_uris":{"android":"levelo://app?vid=94f95b46-e6bf-4a80-a009-33ee47ec8d03","ios":"levelo://app?vid=94f95b46-e6bf-4a80-a009-33ee47ec8d03"},"vehicle_type_id":"4","last_reported":1767270228,"current_range_meters":6800,"station_id":"","pricing_plan_id":"cebpf4jnsgd1na2vs0mg"},{"bike_id":"0b1c31df-6053-46ae-a996-bd44648b6dc1","system_id":"levelo_inurba_marseille","lat":43.29198,"lon":5.39343,"is_reserved":false,"is_disabled":false,"rental_uris":{"android":"levelo://app?vid=0b1c31df-6053-46ae-a996-bd44648b6dc1","ios":"levelo://app?vid=0b1c31df-6053-46ae-a996-bd44648b6dc1"},"vehicle_type_id":"4","last_reported":1767270228,"current_range_meters":6800,"station_id":"ce4bh192rcd13ifvqdd0","pricing_plan_id":"cebpf4jnsgd1na2vs0mg"},{"bike_id":"3efa1c66-708c-4389-b392-0111e929cac8","system_id":"levelo_inurba_marseille","lat":43.21741,"lon":5.34608,"is_reserved":false,"is_disabled":false,"rental_uris":{"android":"levelo://app?vid=3efa1c66-708c-4389-b392-0111e929cac8","ios":"levelo://app?vid=3efa1c66-708c-4389-b392-0111e929cac8"},"vehicle_type_id":"4","last_reported":1767270228,"current_range_meters":6800,"station_id":"st_cvj6r9ubvosntc0bgbag","pricing_plan_id":"cebpf4jnsgd1na2vs0mg"},{"bike_id":"578a71bb-64e1-47bd-b879-135e1cb23531","system_id":"levelo_inurba_marseille","lat":43.21738,"lon":5.34606,"is_reserved":false,"is_disabled":false,"rental_uris":{"android":"levelo://app?vid=578a71bb-64e1-47bd-b879-135e1cb23531","ios":"levelo://app?vid=578a71bb-64e1-47bd-b879-135e1cb23531"},"vehicle_type_id":"4","last_reported":1767270228,"current_range_meters":6800,"station_id":"","pricing_plan_id":"cebpf4jnsgd1na2vs0mg"},{"bike_id":"43464ac5-5123-4584-a572-085a071fa175","system_id":"levelo_inurba_marseille","lat":43.3238,"lon":5.40404,"is_reserved":false,"is_disabled":false,"rental_uris":{"android":"levelo://app?vid=43464ac5-5123-4584-a572-085a071fa175","ios":"levelo://app?vid=43464ac5-5123-4584-a572-085a071fa175"},"vehicle_type_id":"4","last_reported":1767270228,"current_range_meters":6800,"station_id":"","pricing_plan_id":"cebpf4jnsgd1na2vs0mg"},{"bike_id":"cec40206-1ec2-463d-b5bf-d8cd8001719a","system_id":"levelo_inurba_marseille","lat":43.29435,"lon":5.39739,"is_reserved":false,"is_disabled":false,"rental_uris":{"android":"levelo://app?vid=cec40206-1ec2-463d-b5bf-d8cd8001719a","ios":"levelo://app?vid=cec40206-1ec2-463d-b5bf-d8cd8001719a"},"vehicle_type_id":"4","last_reported":1767270228,"current_range_meters":7200,"station_id":"ce4bh3h2rcd13ifvqdo0","pricing_plan_id":"cebpf4jnsgd1na2vs0mg"},{"bike_id":"10a390a4-7b09-4b4f-b7ce-d970c07cc5ce","system_id":"levelo_inurba_marseille","lat":43.2871,"lon":5.38692,"is_reserved":false,"is_disabled":false,"rental_uris":{"android":"levelo://app?vid=10a390a4-7b09-4b4f-b7ce-d970c07cc5ce","ios":"levelo://app?vid=10a390a4-7b09-4b4f-b7ce-d970c07cc5ce"},"vehicle_type_id":"4","last_reported":1767270228,"current_range_meters":7200,"station_id":"","pricing_plan_id":"cebpf4jnsgd1na2vs0mg"},{"bike_id":"a8800cd5-9636-49e9-b1fe-ec75f21420d4","system_id":"levelo_inurba_marseille","lat":43.22564,"lon":5.41625,"is_reserved":false,"is_disabled":false,"rental_uris":{"android":"levelo://app?vid=a8800cd5-9636-49e9-b1fe-ec75f21420d4","ios":"levelo://app?vid=a8800cd5-9636-49e9-b1fe-ec75f21420d4"},"vehicle_type_id":"4","last_reported":1767270228,"current_range_meters":7200,"station_id":"st_d2o4gvlbi1j2169b742g","pricing_plan_id":"cebpf4jnsgd1na2vs0mg"},{"bike_id":"e038a1b3-3d4f-47d4-b1ff-a265b74bb66e","system_id":"levelo_inurba_marseille","lat":43.29981,"lon":5.37201,"is_reserved":false,"is_disabled":false,"rental_uris":{"android":"levelo://app?vid=e038a1b3-3d4f-47d4-b1ff-a265b74bb66e","ios":"levelo://app?vid=e038a1b3-3d4f-47d4-b1ff-a265b74bb66e"},"vehicle_type_id":"4","last_reported":1767270228,"current_range_meters":7200,"station_id":"ce4bgr92rcd13ifvqc7g","pricing_plan_id":"cebpf4jnsgd1na2vs0mg"},{"bike_id":"ce67c5e5-ed4e-4d13-9434-20cdfb1c04e4","system_id":"levelo_inurba_marseille","lat":43.28997,"lon":5.35615,"is_reserved":false,"is_disabled":false,"rental_uris":{"android":"levelo://app?vid=ce67c5e5-ed4e-4d13-9434-20cdfb1c04e4","ios":"levelo://app?vid=ce67c5e5-ed4e-4d13-9434-20cdfb1c04e4"},"vehicle_type_id":"4","last_reported":1767270228,"current_range_meters":7200,"station_id":"ce4bhb92rcd13ifvqen0","pricing_plan_id":"cebpf4jnsgd1na2vs0mg"},{"bike_id":"fc337b37-f69c-4985-a9c7-06c71d029de8","system_id":"levelo_inurba_marseille","lat":43.26782,"lon":5.39451,"is_reserved":false,"is_disabled":false,"rental_uris":{"android":"levelo://app?vid=fc337b37-f69c-4985-a9c7-06c71d029de8","ios":"levelo://app?vid=fc337b37-f69c-4985-a9c7-06c71d029de8"},"vehicle_type_id":"4","last_reported":1767270228,"current_range_meters":7200,"station_id":"ce4bhh12rcd13ifvqfg0","pricing_plan_id":"cebpf4jnsgd1na2vs0mg"},{"bike_id":"e9d34b14-a11a-49cf-b8d8-99a6e9a6e979","system_id":"levelo_inurba_marseille","lat":43.23775,"lon":5.36635,"is_reserved":false,"is_disabled":false,"rental_uris":{"android":"levelo://app?vid=e9d34b14-a11a-49cf-b8d8-99a6e9a6e979","ios":"levelo://app?vid=e9d34b14-a11a-49cf-b8d8-99a6e9a6e979"},"vehicle_type_id":"4","last_reported":1767270228,"current_range_meters":7200,"station_id":"st_d3nk18o9ro0c73en2l3g","pricing_plan_id":"cebpf4jnsgd1na2vs0mg"},{"bike_id":"d285cd77-c7b4-4ad4-ad28-ed6edfeaa990","system_id":"levelo_inurba_marseille","lat":43.29624,"lon":5.38055,"is_reserved":false,"is_disabled":true,"rental_uris":{"android":"levelo://app?vid=d285cd77-c7b4-4ad4-ad28-ed6edfeaa990","ios":"levelo://app?vid=d285cd77-c7b4-4ad4-ad28-ed6edfeaa990"},"vehicle_type_id":"4","last_reported":1767270228,"current_range_meters":7200,"station_id":"","pricing_plan_id":"cebpf4jnsgd1na2vs0mg"},{"bike_id":"49a01a11-8673-492e-9b5e-b92964e4e9ba","system_id":"levelo_inurba_marseille","lat":43.28141,"lon":5.42643,"is_reserved":false,"is_disabled":false,"rental_uris":{"android":"levelo://app?vid=49a01a11-8673-492e-9b5e-b92964e4e9ba","ios":"levelo://app?vid=49a01a11-8673-492e-9b5e-b92964e4e9ba"},"vehicle_type_id":"4","last_reported":1767270228,"current_range_meters":7200,"station_id":"ce4bhnh2rcd13ifvqgug","pricing_plan_id":"cebpf4jnsgd1na2vs0mg"},{"bike_id":"0bdb43fd-6847-4467-a3df-7130d8ce96d5","system_id":"levelo_inurba_marseille","lat":43.29591,"lon":5.40026,"is_reserved":false,"is_disabled":false,"rental_uris":{"android":"levelo://app?vid=0bdb43fd-6847-4467-a3df-7130d8ce96d5","ios":"levelo://app?vid=0bdb43fd-6847-4467-a3df-7130d8ce96d5"},"vehicle_type_id":"4","last_reported":1767270228,"current_range_meters":7200,"station_id":"","pricing_plan_id":"cebpf4jnsgd1na2vs0mg"},{"bike_id":"ae16ff2f-039d-4cdf-a936-aa3dd9f21d44","system_id":"levelo_inurba_marseille","lat":43.27059,"lon":5.38305,"is_reserved":false,"is_disabled":false,"rental_uris":{"android":"levelo://app?vid=ae16ff2f-039d-4cdf-a936-aa3dd9f21d44","ios":"levelo://app?vid=ae16ff2f-039d-4cdf-a936-aa3dd9f21d44"},"vehicle_type_id":"4","last_reported":1767270228,"current_range_meters":8000,"station_id":"st_d3n2fo6cfp8s73cte1j0","pricing_plan_id":"cebpf4jnsgd1na2vs0mg"},{"bike_id":"e091a64d-3bea-4eb4-be23-0d33eb28eebf","system_id":"levelo_inurba_marseille","lat":43.26931,"lon":5.4027,"is_reserved":false,"is_disabled":false,"rental_uris":{"android":"levelo://app?vid=e091a64d-3bea-4eb4-be23-0d33eb28eebf","ios":"levelo://app?vid=e091a64d-3bea-4eb4-be23-0d33eb28eebf"},"vehicle_type_id":"4","last_reported":1767270228,"current_range_meters":8000,"station_id":"cjm6bp8fraef2m0cb0m0","pricing_plan_id":"cebpf4jnsgd1na2vs0mg"},{"bike_id":"3282aea1-9bed-44e6-a833-eea50b551ac8","system_id":"levelo_inurba_marseille","lat":43.26944,"lon":5.38937,"is_reserved":false,"is_disabled":false,"rental_uris":{"android":"levelo://app?vid=3282aea1-9bed-44e6-a833-eea50b551ac8","ios":"levelo://app?vid=3282aea1-9bed-44e6-a833-eea50b551ac8"},"vehicle_type_id":"4","last_reported":1767270228,"current_range_meters":8000,"station_id":"ce4bhhh2rcd13ifvqfl0","pricing_plan_id":"cebpf4jnsgd1na2vs0mg"},{"bike_id":"4372a42a-b334-4e8f-9141-9b6d15dd3e03","system_id":"levelo_inurba_marseille","lat":43.28486,"lon":5.4839,"is_reserved":false,"is_disabled":false,"rental_uris":{"android":"levelo://app?vid=4372a42a-b334-4e8f-9141-9b6d15dd3e03","ios":"levelo://app?vid=4372a42a-b334-4e8f-9141-9b6d15dd3e03"},"vehicle_type_id":"4","last_reported":1767270228,"current_range_meters":8000,"station_id":"","pricing_plan_id":"cebpf4jnsgd1na2vs0mg"},{"bike_id":"a02fb672-5bdf-46c8-9fc1-e8fcbc8dc4d2","system_id":"levelo_inurba_marseille","lat":43.30245,"lon":5.38616,"is_reserved":false,"is_disabled":false,"rental_uris":{"android":"levelo://app?vid=a02fb672-5bdf-46c8-9fc1-e8fcbc8dc4d2","ios":"levelo://app?vid=a02fb672-5bdf-46c8-9fc1-e8fcbc8dc4d2"},"vehicle_type_id":"4","last_reported":1767270228,"current_range_meters":8000,"station_id":"","pricing_plan_id":"cebpf4jnsgd1na2vs0mg"},{"bike_id":"bb76a84a-e98e-48d3-9c1a-cb33c8071e80","system_id":"levelo_inurba_marseille","lat":43.31326,"lon":5.3973,"is_reserved":false,"is_disabled":false,"rental_uris":{"android":"levelo://app?vid=bb76a84a-e98e-48d3-9c1a-cb33c8071e80","ios":"levelo://app?vid=bb76a84a-e98e-48d3-9c1a-cb33c8071e80"},"vehicle_type_id":"4","last_reported":1767270228,"current_range_meters":8000,"station_id":"ce4bgvp2rcd13ifvqcu0","pricing_plan_id":"cebpf4jnsgd1na2vs0mg"},{"bike_id":"307c193b-b40d-4078-a6d3-6820c7325bfa","system_id":"levelo_inurba_marseille","lat":43.21749,"lon":5.34605,"is_reserved":false,"is_disabled":false,"rental_uris":{"android":"levelo://app?vid=307c193b-b40d-4078-a6d3-6820c7325bfa","ios":"levelo://app?vid=307c193b-b40d-4078-a6d3-6820c7325bfa"},"vehicle_type_id":"4","last_reported":1767270228,"current_range_meters":8000,"station_id":"","pricing_plan_id":"cebpf4jnsgd1na2vs0mg"},{"bike_id":"9b31c737-9919-4753-902d-88d0177986b8","system_id":"levelo_inurba_marseille","lat":43.28856,"lon":5.42521,"is_reserved":false,"is_disabled":false,"rental_uris":{"android":"levelo://app?vid=9b31c737-9919-4753-902d-88d0177986b8","ios":"levelo://app?vid=9b31c737-9919-4753-902d-88d0177986b8"},"vehicle_type_id":"4","last_reported":1767270228,"current_range_meters":8000,"station_id":"st_d3b462108ojc7389ooeg","pricing_plan_id":"cebpf4jnsgd1na2vs0mg"},{"bike_id":"9e1c64d3-e7b9-49f4-8f17-a4e4b7f40d5a","system_id":"levelo_inurba_marseille","lat":43.24638,"lon":5.38849,"is_reserved":false,"is_disabled":false,"rental_uris":{"android":"levelo://app?vid=9e1c64d3-e7b9-49f4-8f17-a4e4b7f40d5a","ios":"levelo://app?vid=9e1c64d3-e7b9-49f4-8f17-a4e4b7f40d5a"},"vehicle_type_id":"4","last_reported":1767270228,"current_range_meters":8000,"station_id":"ce4bhg12rcd13ifvqf60","pricing_plan_id":"cebpf4jnsgd1na2vs0mg"},{"bike_id":"d89c4ab8-b836-426b-99a2-352e690cd836","system_id":"levelo_inurba_marseille","lat":43.30792,"lon":5.38149,"is_reserved":false,"is_disabled":false,"rental_uris":{"android":"levelo://app?vid=d89c4ab8-b836-426b-99a2-352e690cd836","ios":"levelo://app?vid=d89c4ab8-b836-426b-99a2-352e690cd836"},"vehicle_type_id":"4","last_reported":1767270228,"current_range_meters":8000,"station_id":"ce4bgt12rcd13ifvqce0","pricing_plan_id":"cebpf4jnsgd1na2vs0mg"},{"bike_id":"2a92eb68-3fcb-4c5e-aa8a-499824b82d0a","system_id":"levelo_inurba_marseille","lat":43.28414,"lon":5.37509,"is_reserved":false,"is_disabled":false,"rental_uris":{"android":"levelo://app?vid=2a92eb68-3fcb-4c5e-aa8a-499824b82d0a","ios":"levelo://app?vid=2a92eb68-3fcb-4c5e-aa8a-499824b82d0a"},"vehicle_type_id":"4","last_reported":1767270228,"current_range_meters":8000,"station_id":"ce4bh412rcd13ifvqds0","pricing_plan_id":"cebpf4jnsgd1na2vs0mg"},{"bike_id":"1e979309-d823-4aaf-b851-f1be8461cefe","system_id":"levelo_inurba_marseille","lat":43.28491,"lon":5.48413,"is_reserved":false,"is_disabled":false,"rental_uris":{"android":"levelo://app?vid=1e979309-d823-4aaf-b851-f1be8461cefe","ios":"levelo://app?vid=1e979309-d823-4aaf-b851-f1be8461cefe"},"vehicle_type_id":"4","last_reported":1767270228,"current_range_meters":8000,"station_id":"st_d3svhcjqgbts73a3dn0g","pricing_plan_id":"cebpf4jnsgd1na2vs0mg"},{"bike_id":"f297e1d0-d6d1-470d-832a-7cfd1d704b5f","system_id":"levelo_inurba_marseille","lat":43.26937,"lon":5.39293,"is_reserved":false,"is_disabled":false,"rental_uris":{"android":"levelo://app?vid=f297e1d0-d6d1-470d-832a-7cfd1d704b5f","ios":"levelo://app?vid=f297e1d0-d6d1-470d-832a-7cfd1d704b5f"},"vehicle_type_id":"4","last_reported":1767270228,"current_range_meters":8000,"station_id":"","pricing_plan_id":"cebpf4jnsgd1na2vs0mg"},{"bike_id":"a36ff912-4b43-4ad7-857d-860a265dd910","system_id":"levelo_inurba_marseille","lat":43.30163,"lon":5.38086,"is_reserved":false,"is_disabled":false,"rental_uris":{"android":"levelo://app?vid=a36ff912-4b43-4ad7-857d-860a265dd910","ios":"levelo://app?vid=a36ff912-4b43-4ad7-857d-860a265dd910"},"vehicle_type_id":"4","last_reported":1767270228,"current_range_meters":8000,"station_id":"ce4bgjp2rcd13ifvqbh0","pricing_plan_id":"cebpf4jnsgd1na2vs0mg"},{"bike_id":"56cedb5f-d017-4472-b5e7-d37bea82a31a","system_id":"levelo_inurba_marseille","lat":43.32476,"lon":5.38308,"is_reserved":false,"is_disabled":false,"rental_uris":{"android":"levelo://app?vid=56cedb5f-d017-4472-b5e7-d37bea82a31a","ios":"levelo://app?vid=56cedb5f-d017-4472-b5e7-d37bea82a31a"},"vehicle_type_id":"4","last_reported":1767270228,"current_range_meters":8000,"station_id":"st_d4asgbiv49dc73anf9m0","pricing_plan_id":"cebpf4jnsgd1na2vs0mg"},{"bike_id":"7df75586-262d-4ec2-8f98-c0691702c6c8","system_id":"levelo_inurba_marseille","lat":43.28173,"lon":5.42663,"is_reserved":false,"is_disabled":false,"rental_uris":{"android":"levelo://app?vid=7df75586-262d-4ec2-8f98-c0691702c6c8","ios":"levelo://app?vid=7df75586-262d-4ec2-8f98-c0691702c6c8"},"vehicle_type_id":"4","last_reported":1767270228,"current_range_meters":8000,"station_id":"ce4bhnh2rcd13ifvqgug","pricing_plan_id":"cebpf4jnsgd1na2vs0mg"},{"bike_id":"edb144c4-7934-4963-a970-3320a0ca02a8","system_id":"levelo_inurba_marseille","lat":43.21745,"lon":5.34608,"is_reserved":false,"is_disabled":false,"rental_uris":{"android":"levelo://app?vid=edb144c4-7934-4963-a970-3320a0ca02a8","ios":"levelo://app?vid=edb144c4-7934-4963-a970-3320a0ca02a8"},"vehicle_type_id":"4","last_reported":1767270228,"current_range_meters":8000,"station_id":"st_cvj6r9ubvosntc0bgbag","pricing_plan_id":"cebpf4jnsgd1na2vs0mg"},{"bike_id":"f9e9fd89-b7c6-4e84-90bb-2a2dc045365a","system_id":"levelo_inurba_marseille","lat":43.25935,"lon":5.4088,"is_reserved":false,"is_disabled":false,"rental_uris":{"android":"levelo://app?vid=f9e9fd89-b7c6-4e84-90bb-2a2dc045365a","ios":"levelo://app?vid=f9e9fd89-b7c6-4e84-90bb-2a2dc045365a"},"vehicle_type_id":"4","last_reported":1767270228,"current_range_meters":8000,"station_id":"ce4bhm92rcd13ifvqglg","pricing_plan_id":"cebpf4jnsgd1na2vs0mg"},{"bike_id":"dc1d1fd3-287c-4df2-89a3-973e9127dcfe","system_id":"levelo_inurba_marseille","lat":43.24648,"lon":5.43153,"is_reserved":false,"is_disabled":false,"rental_uris":{"android":"levelo://app?vid=dc1d1fd3-287c-4df2-89a3-973e9127dcfe","ios":"levelo://app?vid=dc1d1fd3-287c-4df2-89a3-973e9127dcfe"},"vehicle_type_id":"4","last_reported":1767270228,"current_range_meters":8400,"station_id":"st_d2m6c4gdas8pm72e190g","pricing_plan_id":"cebpf4jnsgd1na2vs0mg"},{"bike_id":"4b612c97-f84b-459a-bc6d-0cd90c252bf8","system_id":"levelo_inurba_marseille","lat":43.26517,"lon":5.37956,"is_reserved":false,"is_disabled":false,"rental_uris":{"android":"levelo://app?vid=4b612c97-f84b-459a-bc6d-0cd90c252bf8","ios":"levelo://app?vid=4b612c97-f84b-459a-bc6d-0cd90c252bf8"},"vehicle_type_id":"4","last_reported":1767270228,"current_range_meters":8400,"station_id":"","pricing_plan_id":"cebpf4jnsgd1na2vs0mg"},{"bike_id":"8a9cb631-63e9-428f-b283-78ab220c7b5c","system_id":"levelo_inurba_marseille","lat":43.30312,"lon":5.40453,"is_reserved":false,"is_disabled":false,"rental_uris":{"android":"levelo://app?vid=8a9cb631-63e9-428f-b283-78ab220c7b5c","ios":"levelo://app?vid=8a9cb631-63e9-428f-b283-78ab220c7b5c"},"vehicle_type_id":"4","last_reported":1767270228,"current_range_meters":8400,"station_id":"ce4bh012rcd13ifvqd10","pricing_plan_id":"cebpf4jnsgd1na2vs0mg"},{"bike_id":"b5f80a1c-7345-44ae-9c2d-843287ace1f8","system_id":"levelo_inurba_marseille","lat":43.27437,"lon":5.42413,"is_reserved":false,"is_disabled":false,"rental_uris":{"android":"levelo://app?vid=b5f80a1c-7345-44ae-9c2d-843287ace1f8","ios":"levelo://app?vid=b5f80a1c-7345-44ae-9c2d-843287ace1f8"},"vehicle_type_id":"4","last_reported":1767270228,"current_range_meters":8400,"station_id":"","pricing_plan_id":"cebpf4jnsgd1na2vs0mg"},{"bike_id":"25f3b82f-06ca-4f8f-a005-18bf90572843","system_id":"levelo_inurba_marseille","lat":43.3017,"lon":5.36605,"is_reserved":false,"is_disabled":false,"rental_uris":{"android":"levelo://app?vid=25f3b82f-06ca-4f8f-a005-18bf90572843","ios":"levelo://app?vid=25f3b82f-06ca-4f8f-a005-18bf90572843"},"vehicle_type_id":"4","last_reported":1767270228,"current_range_meters":8400,"station_id":"ce4bgrh2rcd13ifvqc8g","pricing_plan_id":"cebpf4jnsgd1na2vs0mg"},{"bike_id":"9e5dafc7-f2da-4d0b-b668-e32cc043ceb4","system_id":"levelo_inurba_marseille","lat":43.28047,"lon":5.40073,"is_reserved":false,"is_disabled":false,"rental_uris":{"android":"levelo://app?vid=9e5dafc7-f2da-4d0b-b668-e32cc043ceb4","ios":"levelo://app?vid=9e5dafc7-f2da-4d0b-b668-e32cc043ceb4"},"vehicle_type_id":"4","last_reported":1767270228,"current_range_meters":8400,"station_id":"","pricing_plan_id":"cebpf4jnsgd1na2vs0mg"},{"bike_id":"1a670a54-1840-4940-b62b-05b0e394ae95","system_id":"levelo_inurba_marseille","lat":43.28426,"lon":5.35,"is_reserved":false,"is_disabled":false,"rental_uris":{"android":"levelo://app?vid=1a670a54-1840-4940-b62b-05b0e394ae95","ios":"levelo://app?vid=1a670a54-1840-4940-b62b-05b0e394ae95"},"vehicle_type_id":"4","last_reported":1767270228,"current_range_meters":8400,"station_id":"ce4bhbh2rcd13ifvqepg","pricing_plan_id":"cebpf4jnsgd1na2vs0mg"},{"bike_id":"d49fd2c9-dca5-4864-87e0-359520dd27b8","system_id":"levelo_inurba_marseille","lat":43.2612,"lon":5.39754,"is_reserved":false,"is_disabled":false,"rental_uris":{"android":"levelo://app?vid=d49fd2c9-dca5-4864-87e0-359520dd27b8","ios":"levelo://app?vid=d49fd2c9-dca5-4864-87e0-359520dd27b8"},"vehicle_type_id":"4","last_reported":1767270228,"current_range_meters":8400,"station_id":"","pricing_plan_id":"cebpf4jnsgd1na2vs0mg"},{"bike_id":"6ecf1b80-ca59-4b5e-a8b2-1d2fef34a0e5","system_id":"levelo_inurba_marseille","lat":43.28692,"lon":5.37943,"is_reserved":false,"is_disabled":false,"rental_uris":{"android":"levelo://app?vid=6ecf1b80-ca59-4b5e-a8b2-1d2fef34a0e5","ios":"levelo://app?vid=6ecf1b80-ca59-4b5e-a8b2-1d2fef34a0e5"},"vehicle_type_id":"4","last_reported":1767270228,"current_range_meters":8400,"station_id":"ce4bh9p2rcd13ifvqec0","pricing_plan_id":"cebpf4jnsgd1na2vs0mg"},{"bike_id":"ca2a4141-2d11-4724-ae9a-5df9c6e34715","system_id":"levelo_inurba_marseille","lat":43.24652,"lon":5.38905,"is_reserved":false,"is_disabled":false,"rental_uris":{"android":"levelo://app?vid=ca2a4141-2d11-4724-ae9a-5df9c6e34715","ios":"levelo://app?vid=ca2a4141-2d11-4724-ae9a-5df9c6e34715"},"vehicle_type_id":"4","last_reported":1767270228,"current_range_meters":8400,"station_id":"ce4bhg12rcd13ifvqf60","pricing_plan_id":"cebpf4jnsgd1na2vs0mg"},{"bike_id":"f489c472-ee6d-42dd-8be8-3a531cfd3f02","system_id":"levelo_inurba_marseille","lat":43.2877,"lon":5.45483,"is_reserved":false,"is_disabled":false,"rental_uris":{"android":"levelo://app?vid=f489c472-ee6d-42dd-8be8-3a531cfd3f02","ios":"levelo://app?vid=f489c472-ee6d-42dd-8be8-3a531cfd3f02"},"vehicle_type_id":"4","last_reported":1767270228,"current_range_meters":8400,"station_id":"","pricing_plan_id":"cebpf4jnsgd1na2vs0mg"},{"bike_id":"8f36adfd-9702-444f-9761-701cb7e1083e","system_id":"levelo_inurba_marseille","lat":43.28949,"lon":5.36391,"is_reserved":false,"is_disabled":false,"rental_uris":{"android":"levelo://app?vid=8f36adfd-9702-444f-9761-701cb7e1083e","ios":"levelo://app?vid=8f36adfd-9702-444f-9761-701cb7e1083e"},"vehicle_type_id":"4","last_reported":1767270228,"current_range_meters":8800,"station_id":"ce4bhc92rcd13ifvqetg","pricing_plan_id":"cebpf4jnsgd1na2vs0mg"},{"bike_id":"240f90c0-9144-4a3b-a221-7e86b8542577","system_id":"levelo_inurba_marseille","lat":43.26806,"lon":5.40264,"is_reserved":false,"is_disabled":false,"rental_uris":{"android":"levelo://app?vid=240f90c0-9144-4a3b-a221-7e86b8542577","ios":"levelo://app?vid=240f90c0-9144-4a3b-a221-7e86b8542577"},"vehicle_type_id":"4","last_reported":1767270228,"current_range_meters":8800,"station_id":"ce501612rcd8frsf0b60","pricing_plan_id":"cebpf4jnsgd1na2vs0mg"},{"bike_id":"8ed4747c-ffc4-4952-a58f-ccece03fc778","system_id":"levelo_inurba_marseille","lat":43.27178,"lon":5.40995,"is_reserved":false,"is_disabled":false,"rental_uris":{"android":"levelo://app?vid=8ed4747c-ffc4-4952-a58f-ccece03fc778","ios":"levelo://app?vid=8ed4747c-ffc4-4952-a58f-ccece03fc778"},"vehicle_type_id":"4","last_reported":1767270228,"current_range_meters":8800,"station_id":"ce4bhl12rcd13ifvqgf0","pricing_plan_id":"cebpf4jnsgd1na2vs0mg"},{"bike_id":"6e8619ec-a3bf-4d04-895c-caf3015d08fa","system_id":"levelo_inurba_marseille","lat":43.29197,"lon":5.35798,"is_reserved":false,"is_disabled":false,"rental_uris":{"android":"levelo://app?vid=6e8619ec-a3bf-4d04-895c-caf3015d08fa","ios":"levelo://app?vid=6e8619ec-a3bf-4d04-895c-caf3015d08fa"},"vehicle_type_id":"4","last_reported":1767270228,"current_range_meters":8800,"station_id":"ce4bhb12rcd13ifvqel0","pricing_plan_id":"cebpf4jnsgd1na2vs0mg"},{"bike_id":"65586352-19ee-4979-8cba-b52cca760c9d","system_id":"levelo_inurba_marseille","lat":43.29236,"lon":5.38761,"is_reserved":false,"is_disabled":false,"rental_uris":{"android":"levelo://app?vid=65586352-19ee-4979-8cba-b52cca760c9d","ios":"levelo://app?vid=65586352-19ee-4979-8cba-b52cca760c9d"},"vehicle_type_id":"4","last_reported":1767270228,"current_range_meters":8800,"station_id":"","pricing_plan_id":"cebpf4jnsgd1na2vs0mg"},{"bike_id":"89da9f1f-320c-40d1-85bc-bfe896dcaaea","system_id":"levelo_inurba_marseille","lat":43.324958,"lon":5.383064,"is_reserved":false,"is_disabled":false,"rental_uris":{"android":"levelo://app?vid=89da9f1f-320c-40d1-85bc-bfe896dcaaea","ios":"levelo://app?vid=89da9f1f-320c-40d1-85bc-bfe896dcaaea"},"vehicle_type_id":"4","last_reported":1767270228,"current_range_meters":8800,"station_id":"st_d4asgbiv49dc73anf9m0","pricing_plan_id":"cebpf4jnsgd1na2vs0mg"},{"bike_id":"1763bda5-9a2f-4323-b228-f44726653fd8","system_id":"levelo_inurba_marseille","lat":43.28387,"lon":5.3499,"is_reserved":false,"is_disabled":false,"rental_uris":{"android":"levelo://app?vid=1763bda5-9a2f-4323-b228-f44726653fd8","ios":"levelo://app?vid=1763bda5-9a2f-4323-b228-f44726653fd8"},"vehicle_type_id":"4","last_reported":1767270228,"current_range_meters":8800,"station_id":"ce4bhbh2rcd13ifvqepg","pricing_plan_id":"cebpf4jnsgd1na2vs0mg"},{"bike_id":"0d8b64dc-d3a4-4c37-80be-c48d945a81e3","system_id":"levelo_inurba_marseille","lat":43.284764,"lon":5.384348,"is_reserved":false,"is_disabled":true,"rental_uris":{"android":"levelo://app?vid=0d8b64dc-d3a4-4c37-80be-c48d945a81e3","ios":"levelo://app?vid=0d8b64dc-d3a4-4c37-80be-c48d945a81e3"},"vehicle_type_id":"4","last_reported":1767270228,"current_range_meters":8800,"station_id":"ce4bh512rcd13ifvqe3g","pricing_plan_id":"cebpf4jnsgd1na2vs0mg"},{"bike_id":"47502a4f-6643-4d86-adaf-d4a1bda6584d","system_id":"levelo_inurba_marseille","lat":43.30319,"lon":5.4044,"is_reserved":false,"is_disabled":false,"rental_uris":{"android":"levelo://app?vid=47502a4f-6643-4d86-adaf-d4a1bda6584d","ios":"levelo://app?vid=47502a4f-6643-4d86-adaf-d4a1bda6584d"},"vehicle_type_id":"4","last_reported":1767270228,"current_range_meters":8800,"station_id":"ce4bh012rcd13ifvqd10","pricing_plan_id":"cebpf4jnsgd1na2vs0mg"},{"bike_id":"59b9f952-f261-4669-9bf2-ec09f3352df3","system_id":"levelo_inurba_marseille","lat":43.27054,"lon":5.42292,"is_reserved":false,"is_disabled":false,"rental_uris":{"android":"levelo://app?vid=59b9f952-f261-4669-9bf2-ec09f3352df3","ios":"levelo://app?vid=59b9f952-f261-4669-9bf2-ec09f3352df3"},"vehicle_type_id":"4","last_reported":1767270228,"current_range_meters":8800,"station_id":"ce4bhk92rcd13ifvqgb0","pricing_plan_id":"cebpf4jnsgd1na2vs0mg"},{"bike_id":"0d03a8fa-7148-4ce5-a94e-d9e9b10fbc8d","system_id":"levelo_inurba_marseille","lat":43.29308,"lon":5.3718,"is_reserved":false,"is_disabled":false,"rental_uris":{"android":"levelo://app?vid=0d03a8fa-7148-4ce5-a94e-d9e9b10fbc8d","ios":"levelo://app?vid=0d03a8fa-7148-4ce5-a94e-d9e9b10fbc8d"},"vehicle_type_id":"4","last_reported":1767270228,"current_range_meters":8800,"station_id":"ce4bgh92rcd13ifvqb40","pricing_plan_id":"cebpf4jnsgd1na2vs0mg"},{"bike_id":"f50376ee-187b-422c-bfb2-3bcff51c7529","system_id":"levelo_inurba_marseille","lat":43.29014,"lon":5.35597,"is_reserved":false,"is_disabled":false,"rental_uris":{"android":"levelo://app?vid=f50376ee-187b-422c-bfb2-3bcff51c7529","ios":"levelo://app?vid=f50376ee-187b-422c-bfb2-3bcff51c7529"},"vehicle_type_id":"4","last_reported":1767270228,"current_range_meters":8800,"station_id":"ce4bhb92rcd13ifvqen0","pricing_plan_id":"cebpf4jnsgd1na2vs0mg"},{"bike_id":"6bda29c0-298a-4931-b152-ee72aefab1c3","system_id":"levelo_inurba_marseille","lat":43.29792,"lon":5.37658,"is_reserved":false,"is_disabled":false,"rental_uris":{"android":"levelo://app?vid=6bda29c0-298a-4931-b152-ee72aefab1c3","ios":"levelo://app?vid=6bda29c0-298a-4931-b152-ee72aefab1c3"},"vehicle_type_id":"4","last_reported":1767270228,"current_range_meters":8800,"station_id":"","pricing_plan_id":"cebpf4jnsgd1na2vs0mg"},{"bike_id":"cf6a00e2-19c9-4b7e-83b3-96ba1f241707","system_id":"levelo_inurba_marseille","lat":43.28612,"lon":5.35103,"is_reserved":false,"is_disabled":false,"rental_uris":{"android":"levelo://app?vid=cf6a00e2-19c9-4b7e-83b3-96ba1f241707","ios":"levelo://app?vid=cf6a00e2-19c9-4b7e-83b3-96ba1f241707"},"vehicle_type_id":"4","last_reported":1767270228,"current_range_meters":8800,"station_id":"ce4bhch2rcd13ifvqeug","pricing_plan_id":"cebpf4jnsgd1na2vs0mg"},{"bike_id":"94df3df3-9727-4996-9e08-be0e33bcc3bf","system_id":"levelo_inurba_marseille","lat":43.25867,"lon":5.39898,"is_reserved":false,"is_disabled":false,"rental_uris":{"android":"levelo://app?vid=94df3df3-9727-4996-9e08-be0e33bcc3bf","ios":"levelo://app?vid=94df3df3-9727-4996-9e08-be0e33bcc3bf"},"vehicle_type_id":"4","last_reported":1767270228,"current_range_meters":9200,"station_id":"ce4bhl92rcd13ifvqghg","pricing_plan_id":"cebpf4jnsgd1na2vs0mg"},{"bike_id":"061bf87f-3ebd-4602-992d-adc6d4472a7e","system_id":"levelo_inurba_marseille","lat":43.23789,"lon":5.36648,"is_reserved":false,"is_disabled":false,"rental_uris":{"android":"levelo://app?vid=061bf87f-3ebd-4602-992d-adc6d4472a7e","ios":"levelo://app?vid=061bf87f-3ebd-4602-992d-adc6d4472a7e"},"vehicle_type_id":"4","last_reported":1767270228,"current_range_meters":9200,"station_id":"st_d3nk18o9ro0c73en2l3g","pricing_plan_id":"cebpf4jnsgd1na2vs0mg"},{"bike_id":"67057471-b7f6-4964-9f3d-d28fd0a7dcdb","system_id":"levelo_inurba_marseille","lat":43.31898,"lon":5.40715,"is_reserved":false,"is_disabled":true,"rental_uris":{"android":"levelo://app?vid=67057471-b7f6-4964-9f3d-d28fd0a7dcdb","ios":"levelo://app?vid=67057471-b7f6-4964-9f3d-d28fd0a7dcdb"},"vehicle_type_id":"4","last_reported":1767270228,"current_range_meters":9200,"station_id":"ce4bhq12rcd13ifvqhig","pricing_plan_id":"cebpf4jnsgd1na2vs0mg"},{"bike_id":"f86a25f1-ea9e-4c4d-8fca-5f1887ab98fa","system_id":"levelo_inurba_marseille","lat":43.28483,"lon":5.38423,"is_reserved":false,"is_disabled":false,"rental_uris":{"android":"levelo://app?vid=f86a25f1-ea9e-4c4d-8fca-5f1887ab98fa","ios":"levelo://app?vid=f86a25f1-ea9e-4c4d-8fca-5f1887ab98fa"},"vehicle_type_id":"4","last_reported":1767270228,"current_range_meters":9200,"station_id":"ce4bh512rcd13ifvqe3g","pricing_plan_id":"cebpf4jnsgd1na2vs0mg"},{"bike_id":"f6c9c2e6-3051-4bbb-a763-1a3397a19876","system_id":"levelo_inurba_marseille","lat":43.30198,"lon":5.39468,"is_reserved":false,"is_disabled":false,"rental_uris":{"android":"levelo://app?vid=f6c9c2e6-3051-4bbb-a763-1a3397a19876","ios":"levelo://app?vid=f6c9c2e6-3051-4bbb-a763-1a3397a19876"},"vehicle_type_id":"4","last_reported":1767270228,"current_range_meters":9200,"station_id":"ce4bh0p2rcd13ifvqd70","pricing_plan_id":"cebpf4jnsgd1na2vs0mg"},{"bike_id":"fc63ef86-bb4e-4618-b1e1-9557ca500b2e","system_id":"levelo_inurba_marseille","lat":43.26366,"lon":5.41081,"is_reserved":false,"is_disabled":false,"rental_uris":{"android":"levelo://app?vid=fc63ef86-bb4e-4618-b1e1-9557ca500b2e","ios":"levelo://app?vid=fc63ef86-bb4e-4618-b1e1-9557ca500b2e"},"vehicle_type_id":"4","last_reported":1767270228,"current_range_meters":9200,"station_id":"st_d4e5ca6na9uc73bfl5fg","pricing_plan_id":"cebpf4jnsgd1na2vs0mg"},{"bike_id":"d4c6dc95-f402-4619-8161-a90cb01a834e","system_id":"levelo_inurba_marseille","lat":43.2891,"lon":5.42478,"is_reserved":false,"is_disabled":false,"rental_uris":{"android":"levelo://app?vid=d4c6dc95-f402-4619-8161-a90cb01a834e","ios":"levelo://app?vid=d4c6dc95-f402-4619-8161-a90cb01a834e"},"vehicle_type_id":"4","last_reported":1767270228,"current_range_meters":9200,"station_id":"","pricing_plan_id":"cebpf4jnsgd1na2vs0mg"},{"bike_id":"5453f188-2635-490f-b8b5-4489446de567","system_id":"levelo_inurba_marseille","lat":43.303,"lon":5.40449,"is_reserved":false,"is_disabled":false,"rental_uris":{"android":"levelo://app?vid=5453f188-2635-490f-b8b5-4489446de567","ios":"levelo://app?vid=5453f188-2635-490f-b8b5-4489446de567"},"vehicle_type_id":"4","last_reported":1767270228,"current_range_meters":9200,"station_id":"ce4bh012rcd13ifvqd10","pricing_plan_id":"cebpf4jnsgd1na2vs0mg"},{"bike_id":"7f8bc2f4-3256-4176-a803-fa7e148de4c6","system_id":"levelo_inurba_marseille","lat":43.2436,"lon":5.40891,"is_reserved":false,"is_disabled":false,"rental_uris":{"android":"levelo://app?vid=7f8bc2f4-3256-4176-a803-fa7e148de4c6","ios":"levelo://app?vid=7f8bc2f4-3256-4176-a803-fa7e148de4c6"},"vehicle_type_id":"4","last_reported":1767270228,"current_range_meters":9200,"station_id":"","pricing_plan_id":"cebpf4jnsgd1na2vs0mg"},{"bike_id":"83a5ad5a-fe84-4c67-bbe0-e18050e1f9a3","system_id":"levelo_inurba_marseille","lat":43.27677,"lon":5.38875,"is_reserved":false,"is_disabled":false,"rental_uris":{"android":"levelo://app?vid=83a5ad5a-fe84-4c67-bbe0-e18050e1f9a3","ios":"levelo://app?vid=83a5ad5a-fe84-4c67-bbe0-e18050e1f9a3"},"vehicle_type_id":"4","last_reported":1767270228,"current_range_meters":9200,"station_id":"ce4bhi12rcd13ifvqfo0","pricing_plan_id":"cebpf4jnsgd1na2vs0mg"},{"bike_id":"ea5031e4-b749-4d48-ba29-71e8d8d5383b","system_id":"levelo_inurba_marseille","lat":43.26402,"lon":5.37394,"is_reserved":false,"is_disabled":false,"rental_uris":{"android":"levelo://app?vid=ea5031e4-b749-4d48-ba29-71e8d8d5383b","ios":"levelo://app?vid=ea5031e4-b749-4d48-ba29-71e8d8d5383b"},"vehicle_type_id":"4","last_reported":1767270228,"current_range_meters":9200,"station_id":"","pricing_plan_id":"cebpf4jnsgd1na2vs0mg"},{"bike_id":"27f62b3e-34a5-44c0-b8d2-5a7048902926","system_id":"levelo_inurba_marseille","lat":43.29561,"lon":5.38174,"is_reserved":false,"is_disabled":false,"rental_uris":{"android":"levelo://app?vid=27f62b3e-34a5-44c0-b8d2-5a7048902926","ios":"levelo://app?vid=27f62b3e-34a5-44c0-b8d2-5a7048902926"},"vehicle_type_id":"4","last_reported":1767270228,"current_range_meters":9600,"station_id":"","pricing_plan_id":"cebpf4jnsgd1na2vs0mg"},{"bike_id":"a37546a5-5ed0-437a-8b08-467eedf47722","system_id":"levelo_inurba_marseille","lat":43.24543,"lon":5.39523,"is_reserved":false,"is_disabled":false,"rental_uris":{"android":"levelo://app?vid=a37546a5-5ed0-437a-8b08-467eedf47722","ios":"levelo://app?vid=a37546a5-5ed0-437a-8b08-467eedf47722"},"vehicle_type_id":"4","last_reported":1767270228,"current_range_meters":9600,"station_id":"ce4bhlp2rcd13ifvqgjg","pricing_plan_id":"cebpf4jnsgd1na2vs0mg"},{"bike_id":"833f040f-d0af-41ac-b103-c33ebe1a5661","system_id":"levelo_inurba_marseille","lat":43.2854,"lon":5.440912,"is_reserved":false,"is_disabled":false,"rental_uris":{"android":"levelo://app?vid=833f040f-d0af-41ac-b103-c33ebe1a5661","ios":"levelo://app?vid=833f040f-d0af-41ac-b103-c33ebe1a5661"},"vehicle_type_id":"4","last_reported":1767270228,"current_range_meters":9600,"station_id":"st_d3j3df2ikq2c7380ej80","pricing_plan_id":"cebpf4jnsgd1na2vs0mg"},{"bike_id":"2e432000-19e4-474b-acb8-4742408d8ecf","system_id":"levelo_inurba_marseille","lat":43.29646,"lon":5.37955,"is_reserved":false,"is_disabled":false,"rental_uris":{"android":"levelo://app?vid=2e432000-19e4-474b-acb8-4742408d8ecf","ios":"levelo://app?vid=2e432000-19e4-474b-acb8-4742408d8ecf"},"vehicle_type_id":"4","last_reported":1767270228,"current_range_meters":9600,"station_id":"","pricing_plan_id":"cebpf4jnsgd1na2vs0mg"},{"bike_id":"7aa8deaf-4e60-441f-b4fa-11775b88c73b","system_id":"levelo_inurba_marseille","lat":43.29587,"lon":5.4031,"is_reserved":false,"is_disabled":true,"rental_uris":{"android":"levelo://app?vid=7aa8deaf-4e60-441f-b4fa-11775b88c73b","ios":"levelo://app?vid=7aa8deaf-4e60-441f-b4fa-11775b88c73b"},"vehicle_type_id":"4","last_reported":1767270228,"current_range_meters":9600,"station_id":"","pricing_plan_id":"cebpf4jnsgd1na2vs0mg"},{"bike_id":"71feabac-18bb-4c38-9f1c-553d18ed10d6","system_id":"levelo_inurba_marseille","lat":43.29603,"lon":5.37178,"is_reserved":false,"is_disabled":false,"rental_uris":{"android":"levelo://app?vid=71feabac-18bb-4c38-9f1c-553d18ed10d6","ios":"levelo://app?vid=71feabac-18bb-4c38-9f1c-553d18ed10d6"},"vehicle_type_id":"4","last_reported":1767270228,"current_range_meters":9600,"station_id":"ce4bgnh2rcd13ifvqc0g","pricing_plan_id":"cebpf4jnsgd1na2vs0mg"},{"bike_id":"475de299-2917-42da-9347-8b67ff473f85","system_id":"levelo_inurba_marseille","lat":43.30125,"lon":5.43117,"is_reserved":false,"is_disabled":false,"rental_uris":{"android":"levelo://app?vid=475de299-2917-42da-9347-8b67ff473f85","ios":"levelo://app?vid=475de299-2917-42da-9347-8b67ff473f85"},"vehicle_type_id":"4","last_reported":1767270228,"current_range_meters":9600,"station_id":"st_d3js3co5814s73ftftug","pricing_plan_id":"cebpf4jnsgd1na2vs0mg"},{"bike_id":"c0a53d93-3656-40f0-aa26-27efa5b7f7e7","system_id":"levelo_inurba_marseille","lat":43.28176,"lon":5.39041,"is_reserved":false,"is_disabled":false,"rental_uris":{"android":"levelo://app?vid=c0a53d93-3656-40f0-aa26-27efa5b7f7e7","ios":"levelo://app?vid=c0a53d93-3656-40f0-aa26-27efa5b7f7e7"},"vehicle_type_id":"4","last_reported":1767270228,"current_range_meters":9600,"station_id":"ce4bhn92rcd13ifvqgsg","pricing_plan_id":"cebpf4jnsgd1na2vs0mg"},{"bike_id":"452e61f9-0a77-43c5-8274-72b2302dd4da","system_id":"levelo_inurba_marseille","lat":43.26209,"lon":5.37436,"is_reserved":false,"is_disabled":false,"rental_uris":{"android":"levelo://app?vid=452e61f9-0a77-43c5-8274-72b2302dd4da","ios":"levelo://app?vid=452e61f9-0a77-43c5-8274-72b2302dd4da"},"vehicle_type_id":"4","last_reported":1767270228,"current_range_meters":10000,"station_id":"ce4bhgp2rcd13ifvqfc0","pricing_plan_id":"cebpf4jnsgd1na2vs0mg"},{"bike_id":"f1108872-5fa5-476f-80f4-3a1cd6f15393","system_id":"levelo_inurba_marseille","lat":43.29277,"lon":5.40124,"is_reserved":false,"is_disabled":false,"rental_uris":{"android":"levelo://app?vid=f1108872-5fa5-476f-80f4-3a1cd6f15393","ios":"levelo://app?vid=f1108872-5fa5-476f-80f4-3a1cd6f15393"},"vehicle_type_id":"4","last_reported":1767270228,"current_range_meters":10000,"station_id":"ce4bh312rcd13ifvqdk0","pricing_plan_id":"cebpf4jnsgd1na2vs0mg"},{"bike_id":"3501ff75-149d-4276-833a-80688a400562","system_id":"levelo_inurba_marseille","lat":43.27278,"lon":5.36304,"is_reserved":false,"is_disabled":false,"rental_uris":{"android":"levelo://app?vid=3501ff75-149d-4276-833a-80688a400562","ios":"levelo://app?vid=3501ff75-149d-4276-833a-80688a400562"},"vehicle_type_id":"4","last_reported":1767270228,"current_range_meters":10000,"station_id":"","pricing_plan_id":"cebpf4jnsgd1na2vs0mg"},{"bike_id":"bab8f5ce-6ea3-45fd-aa21-29b68816a77a","system_id":"levelo_inurba_marseille","lat":43.26504,"lon":5.39574,"is_reserved":false,"is_disabled":false,"rental_uris":{"android":"levelo://app?vid=bab8f5ce-6ea3-45fd-aa21-29b68816a77a","ios":"levelo://app?vid=bab8f5ce-6ea3-45fd-aa21-29b68816a77a"},"vehicle_type_id":"4","last_reported":1767270228,"current_range_meters":10000,"station_id":"ce4bhi12rcd13ifvqfq0","pricing_plan_id":"cebpf4jnsgd1na2vs0mg"},{"bike_id":"a4bf83f6-5478-4dbd-a08e-d579e90306ee","system_id":"levelo_inurba_marseille","lat":43.33601,"lon":5.41042,"is_reserved":false,"is_disabled":false,"rental_uris":{"android":"levelo://app?vid=a4bf83f6-5478-4dbd-a08e-d579e90306ee","ios":"levelo://app?vid=a4bf83f6-5478-4dbd-a08e-d579e90306ee"},"vehicle_type_id":"4","last_reported":1767270228,"current_range_meters":10000,"station_id":"ce4bhqh2rcd13ifvqhmg","pricing_plan_id":"cebpf4jnsgd1na2vs0mg"},{"bike_id":"81586eb2-5997-4a7f-910d-f12ada7984c8","system_id":"levelo_inurba_marseille","lat":43.29887,"lon":5.38629,"is_reserved":false,"is_disabled":false,"rental_uris":{"android":"levelo://app?vid=81586eb2-5997-4a7f-910d-f12ada7984c8","ios":"levelo://app?vid=81586eb2-5997-4a7f-910d-f12ada7984c8"},"vehicle_type_id":"4","last_reported":1767270228,"current_range_meters":10000,"station_id":"","pricing_plan_id":"cebpf4jnsgd1na2vs0mg"},{"bike_id":"9cd33af6-41d1-41ec-a4f6-c787448ebf12","system_id":"levelo_inurba_marseille","lat":43.31264,"lon":5.40167,"is_reserved":false,"is_disabled":false,"rental_uris":{"android":"levelo://app?vid=9cd33af6-41d1-41ec-a4f6-c787448ebf12","ios":"levelo://app?vid=9cd33af6-41d1-41ec-a4f6-c787448ebf12"},"vehicle_type_id":"4","last_reported":1767270228,"current_range_meters":10000,"station_id":"ce4bh092rcd13ifvqd30","pricing_plan_id":"cebpf4jnsgd1na2vs0mg"},{"bike_id":"f3a4c2fd-c27a-4ca6-bbe5-3949d2a88808","system_id":"levelo_inurba_marseille","lat":43.28577,"lon":5.42982,"is_reserved":false,"is_disabled":false,"rental_uris":{"android":"levelo://app?vid=f3a4c2fd-c27a-4ca6-bbe5-3949d2a88808","ios":"levelo://app?vid=f3a4c2fd-c27a-4ca6-bbe5-3949d2a88808"},"vehicle_type_id":"4","last_reported":1767270228,"current_range_meters":10000,"station_id":"","pricing_plan_id":"cebpf4jnsgd1na2vs0mg"},{"bike_id":"406f64a0-da6e-49db-a7ac-d7a777f3175c","system_id":"levelo_inurba_marseille","lat":43.2733,"lon":5.39075,"is_reserved":false,"is_disabled":false,"rental_uris":{"android":"levelo://app?vid=406f64a0-da6e-49db-a7ac-d7a777f3175c","ios":"levelo://app?vid=406f64a0-da6e-49db-a7ac-d7a777f3175c"},"vehicle_type_id":"4","last_reported":1767270228,"current_range_meters":10000,"station_id":"ce4bhgp2rcd13ifvqfe0","pricing_plan_id":"cebpf4jnsgd1na2vs0mg"},{"bike_id":"3fd00cb0-0645-4a8c-874a-2e0df62cb4f5","system_id":"levelo_inurba_marseille","lat":43.29732,"lon":5.38077,"is_reserved":false,"is_disabled":false,"rental_uris":{"android":"levelo://app?vid=3fd00cb0-0645-4a8c-874a-2e0df62cb4f5","ios":"levelo://app?vid=3fd00cb0-0645-4a8c-874a-2e0df62cb4f5"},"vehicle_type_id":"4","last_reported":1767270228,"current_range_meters":10000,"station_id":"","pricing_plan_id":"cebpf4jnsgd1na2vs0mg"},{"bike_id":"da51a696-5705-48cd-a174-f63e3c15d9de","system_id":"levelo_inurba_marseille","lat":43.28866,"lon":5.42528,"is_reserved":false,"is_disabled":false,"rental_uris":{"android":"levelo://app?vid=da51a696-5705-48cd-a174-f63e3c15d9de","ios":"levelo://app?vid=da51a696-5705-48cd-a174-f63e3c15d9de"},"vehicle_type_id":"4","last_reported":1767270228,"current_range_meters":10000,"station_id":"st_d3b462108ojc7389ooeg","pricing_plan_id":"cebpf4jnsgd1na2vs0mg"},{"bike_id":"bebec6bc-9df3-406e-90bc-396ce2b3b0b3","system_id":"levelo_inurba_marseille","lat":43.2637,"lon":5.3741,"is_reserved":false,"is_disabled":false,"rental_uris":{"android":"levelo://app?vid=bebec6bc-9df3-406e-90bc-396ce2b3b0b3","ios":"levelo://app?vid=bebec6bc-9df3-406e-90bc-396ce2b3b0b3"},"vehicle_type_id":"4","last_reported":1767270228,"current_range_meters":10000,"station_id":"","pricing_plan_id":"cebpf4jnsgd1na2vs0mg"},{"bike_id":"1e76a634-1236-4429-a6ca-562668962923","system_id":"levelo_inurba_marseille","lat":43.2522,"lon":5.39434,"is_reserved":false,"is_disabled":false,"rental_uris":{"android":"levelo://app?vid=1e76a634-1236-4429-a6ca-562668962923","ios":"levelo://app?vid=1e76a634-1236-4429-a6ca-562668962923"},"vehicle_type_id":"4","last_reported":1767270228,"current_range_meters":10800,"station_id":"","pricing_plan_id":"cebpf4jnsgd1na2vs0mg"},{"bike_id":"5294767e-dd69-4945-8c8e-03dd74e904a7","system_id":"levelo_inurba_marseille","lat":43.23062,"lon":5.3549,"is_reserved":false,"is_disabled":false,"rental_uris":{"android":"levelo://app?vid=5294767e-dd69-4945-8c8e-03dd74e904a7","ios":"levelo://app?vid=5294767e-dd69-4945-8c8e-03dd74e904a7"},"vehicle_type_id":"4","last_reported":1767270228,"current_range_meters":10800,"station_id":"cpo3342slgdg3j2ifvpg","pricing_plan_id":"cebpf4jnsgd1na2vs0mg"},{"bike_id":"54045760-2072-46e5-a5c4-00c3b9646aa6","system_id":"levelo_inurba_marseille","lat":43.29973,"lon":5.37193,"is_reserved":false,"is_disabled":false,"rental_uris":{"android":"levelo://app?vid=54045760-2072-46e5-a5c4-00c3b9646aa6","ios":"levelo://app?vid=54045760-2072-46e5-a5c4-00c3b9646aa6"},"vehicle_type_id":"4","last_reported":1767270228,"current_range_meters":10800,"station_id":"ce4bgr92rcd13ifvqc7g","pricing_plan_id":"cebpf4jnsgd1na2vs0mg"},{"bike_id":"41853112-4688-4aa7-ade9-19232fbbbc52","system_id":"levelo_inurba_marseille","lat":43.30318,"lon":5.40438,"is_reserved":false,"is_disabled":false,"rental_uris":{"android":"levelo://app?vid=41853112-4688-4aa7-ade9-19232fbbbc52","ios":"levelo://app?vid=41853112-4688-4aa7-ade9-19232fbbbc52"},"vehicle_type_id":"4","last_reported":1767270228,"current_range_meters":10800,"station_id":"ce4bh012rcd13ifvqd10","pricing_plan_id":"cebpf4jnsgd1na2vs0mg"},{"bike_id":"b6c2de47-37fa-44c1-ae2a-ab2b9c904820","system_id":"levelo_inurba_marseille","lat":43.28486,"lon":5.38447,"is_reserved":false,"is_disabled":false,"rental_uris":{"android":"levelo://app?vid=b6c2de47-37fa-44c1-ae2a-ab2b9c904820","ios":"levelo://app?vid=b6c2de47-37fa-44c1-ae2a-ab2b9c904820"},"vehicle_type_id":"4","last_reported":1767270228,"current_range_meters":10800,"station_id":"ce4bh512rcd13ifvqe3g","pricing_plan_id":"cebpf4jnsgd1na2vs0mg"},{"bike_id":"d8431e58-d3e8-4456-9570-729e3ebbcc73","system_id":"levelo_inurba_marseille","lat":43.301753,"lon":5.372722,"is_reserved":false,"is_disabled":false,"rental_uris":{"android":"levelo://app?vid=d8431e58-d3e8-4456-9570-729e3ebbcc73","ios":"levelo://app?vid=d8431e58-d3e8-4456-9570-729e3ebbcc73"},"vehicle_type_id":"4","last_reported":1767270228,"current_range_meters":10800,"station_id":"","pricing_plan_id":"cebpf4jnsgd1na2vs0mg"},{"bike_id":"27eab711-3794-4c67-b72c-787e5b4b546b","system_id":"levelo_inurba_marseille","lat":43.25575,"lon":5.3823,"is_reserved":false,"is_disabled":false,"rental_uris":{"android":"levelo://app?vid=27eab711-3794-4c67-b72c-787e5b4b546b","ios":"levelo://app?vid=27eab711-3794-4c67-b72c-787e5b4b546b"},"vehicle_type_id":"4","last_reported":1767270228,"current_range_meters":10800,"station_id":"ce4bhih2rcd13ifvqfs0","pricing_plan_id":"cebpf4jnsgd1na2vs0mg"},{"bike_id":"25f1743a-a2b2-454e-84ce-5c43f5ea30d3","system_id":"levelo_inurba_marseille","lat":43.29896,"lon":5.43689,"is_reserved":false,"is_disabled":false,"rental_uris":{"android":"levelo://app?vid=25f1743a-a2b2-454e-84ce-5c43f5ea30d3","ios":"levelo://app?vid=25f1743a-a2b2-454e-84ce-5c43f5ea30d3"},"vehicle_type_id":"4","last_reported":1767270228,"current_range_meters":10800,"station_id":"ce4bhpp2rcd13ifvqhfg","pricing_plan_id":"cebpf4jnsgd1na2vs0mg"},{"bike_id":"43c1a78b-d396-4314-be34-9c431dabef43","system_id":"levelo_inurba_marseille","lat":43.270489,"lon":5.42275,"is_reserved":false,"is_disabled":false,"rental_uris":{"android":"levelo://app?vid=43c1a78b-d396-4314-be34-9c431dabef43","ios":"levelo://app?vid=43c1a78b-d396-4314-be34-9c431dabef43"},"vehicle_type_id":"4","last_reported":1767270228,"current_range_meters":10800,"station_id":"ce4bhk92rcd13ifvqgb0","pricing_plan_id":"cebpf4jnsgd1na2vs0mg"},{"bike_id":"8537bd71-cf9f-4a1e-b237-98f63cc73108","system_id":"levelo_inurba_marseille","lat":43.26497,"lon":5.39557,"is_reserved":false,"is_disabled":false,"rental_uris":{"android":"levelo://app?vid=8537bd71-cf9f-4a1e-b237-98f63cc73108","ios":"levelo://app?vid=8537bd71-cf9f-4a1e-b237-98f63cc73108"},"vehicle_type_id":"4","last_reported":1767270228,"current_range_meters":10800,"station_id":"ce4bhi12rcd13ifvqfq0","pricing_plan_id":"cebpf4jnsgd1na2vs0mg"},{"bike_id":"e0decbbd-66f2-41ff-95bf-ae2a7b2f4e23","system_id":"levelo_inurba_marseille","lat":43.2858,"lon":5.42628,"is_reserved":false,"is_disabled":false,"rental_uris":{"android":"levelo://app?vid=e0decbbd-66f2-41ff-95bf-ae2a7b2f4e23","ios":"levelo://app?vid=e0decbbd-66f2-41ff-95bf-ae2a7b2f4e23"},"vehicle_type_id":"4","last_reported":1767270228,"current_range_meters":10800,"station_id":"","pricing_plan_id":"cebpf4jnsgd1na2vs0mg"},{"bike_id":"6f93ceb0-8049-4b2f-a48c-1c31e97d62f9","system_id":"levelo_inurba_marseille","lat":43.28262,"lon":5.3506,"is_reserved":false,"is_disabled":false,"rental_uris":{"android":"levelo://app?vid=6f93ceb0-8049-4b2f-a48c-1c31e97d62f9","ios":"levelo://app?vid=6f93ceb0-8049-4b2f-a48c-1c31e97d62f9"},"vehicle_type_id":"4","last_reported":1767270228,"current_range_meters":10800,"station_id":"ce4bhbp2rcd13ifvqerg","pricing_plan_id":"cebpf4jnsgd1na2vs0mg"},{"bike_id":"f7cc14a3-8c73-4fca-a4c6-edd380709817","system_id":"levelo_inurba_marseille","lat":43.3353,"lon":5.37462,"is_reserved":false,"is_disabled":false,"rental_uris":{"android":"levelo://app?vid=f7cc14a3-8c73-4fca-a4c6-edd380709817","ios":"levelo://app?vid=f7cc14a3-8c73-4fca-a4c6-edd380709817"},"vehicle_type_id":"4","last_reported":1767270228,"current_range_meters":10800,"station_id":"st_d46tts09ee8s73dlu43g","pricing_plan_id":"cebpf4jnsgd1na2vs0mg"},{"bike_id":"9a253175-fef0-4c75-a8d8-bb357322efb0","system_id":"levelo_inurba_marseille","lat":43.21186,"lon":5.35075,"is_reserved":false,"is_disabled":false,"rental_uris":{"android":"levelo://app?vid=9a253175-fef0-4c75-a8d8-bb357322efb0","ios":"levelo://app?vid=9a253175-fef0-4c75-a8d8-bb357322efb0"},"vehicle_type_id":"4","last_reported":1767270228,"current_range_meters":10800,"station_id":"st_cvj6sg6p6f1abm77japg","pricing_plan_id":"cebpf4jnsgd1na2vs0mg"},{"bike_id":"76499c74-973d-426f-8f6d-e26d239c3972","system_id":"levelo_inurba_marseille","lat":43.27936,"lon":5.43595,"is_reserved":false,"is_disabled":false,"rental_uris":{"android":"levelo://app?vid=76499c74-973d-426f-8f6d-e26d239c3972","ios":"levelo://app?vid=76499c74-973d-426f-8f6d-e26d239c3972"},"vehicle_type_id":"4","last_reported":1767270228,"current_range_meters":10800,"station_id":"","pricing_plan_id":"cebpf4jnsgd1na2vs0mg"},{"bike_id":"78cb6752-e206-48c8-ab5a-fdfba15196a7","system_id":"levelo_inurba_marseille","lat":43.27647,"lon":5.38926,"is_reserved":false,"is_disabled":false,"rental_uris":{"android":"levelo://app?vid=78cb6752-e206-48c8-ab5a-fdfba15196a7","ios":"levelo://app?vid=78cb6752-e206-48c8-ab5a-fdfba15196a7"},"vehicle_type_id":"4","last_reported":1767270228,"current_range_meters":11200,"station_id":"","pricing_plan_id":"cebpf4jnsgd1na2vs0mg"},{"bike_id":"62bbb4f8-cd37-4703-914d-4c2cbb4345e1","system_id":"levelo_inurba_marseille","lat":43.28067,"lon":5.39657,"is_reserved":false,"is_disabled":false,"rental_uris":{"android":"levelo://app?vid=62bbb4f8-cd37-4703-914d-4c2cbb4345e1","ios":"levelo://app?vid=62bbb4f8-cd37-4703-914d-4c2cbb4345e1"},"vehicle_type_id":"4","last_reported":1767270228,"current_range_meters":11200,"station_id":"ce4bho12rcd13ifvqh2g","pricing_plan_id":"cebpf4jnsgd1na2vs0mg"},{"bike_id":"1976f061-e064-45cd-9d75-48c90f29fe4d","system_id":"levelo_inurba_marseille","lat":43.28411,"lon":5.34984,"is_reserved":false,"is_disabled":false,"rental_uris":{"android":"levelo://app?vid=1976f061-e064-45cd-9d75-48c90f29fe4d","ios":"levelo://app?vid=1976f061-e064-45cd-9d75-48c90f29fe4d"},"vehicle_type_id":"4","last_reported":1767270228,"current_range_meters":11200,"station_id":"ce4bhbh2rcd13ifvqepg","pricing_plan_id":"cebpf4jnsgd1na2vs0mg"},{"bike_id":"1e16f8d7-2cd8-4d3d-9227-16bd1b9fe708","system_id":"levelo_inurba_marseille","lat":43.29522,"lon":5.37441,"is_reserved":false,"is_disabled":false,"rental_uris":{"android":"levelo://app?vid=1e16f8d7-2cd8-4d3d-9227-16bd1b9fe708","ios":"levelo://app?vid=1e16f8d7-2cd8-4d3d-9227-16bd1b9fe708"},"vehicle_type_id":"4","last_reported":1767270228,"current_range_meters":11200,"station_id":"","pricing_plan_id":"cebpf4jnsgd1na2vs0mg"},{"bike_id":"32cbcd6b-22a0-47d3-ae4c-55539767b9a6","system_id":"levelo_inurba_marseille","lat":43.30854,"lon":5.39679,"is_reserved":false,"is_disabled":false,"rental_uris":{"android":"levelo://app?vid=32cbcd6b-22a0-47d3-ae4c-55539767b9a6","ios":"levelo://app?vid=32cbcd6b-22a0-47d3-ae4c-55539767b9a6"},"vehicle_type_id":"4","last_reported":1767270228,"current_range_meters":11200,"station_id":"","pricing_plan_id":"cebpf4jnsgd1na2vs0mg"},{"bike_id":"08793bdf-bae6-4989-a3e8-8fa2dc512947","system_id":"levelo_inurba_marseille","lat":43.21186,"lon":5.3507,"is_reserved":false,"is_disabled":false,"rental_uris":{"android":"levelo://app?vid=08793bdf-bae6-4989-a3e8-8fa2dc512947","ios":"levelo://app?vid=08793bdf-bae6-4989-a3e8-8fa2dc512947"},"vehicle_type_id":"4","last_reported":1767270228,"current_range_meters":11200,"station_id":"st_cvj6sg6p6f1abm77japg","pricing_plan_id":"cebpf4jnsgd1na2vs0mg"},{"bike_id":"1498f079-e300-4265-837b-8da7d97aca06","system_id":"levelo_inurba_marseille","lat":43.241655,"lon":5.363917,"is_reserved":false,"is_disabled":false,"rental_uris":{"android":"levelo://app?vid=1498f079-e300-4265-837b-8da7d97aca06","ios":"levelo://app?vid=1498f079-e300-4265-837b-8da7d97aca06"},"vehicle_type_id":"4","last_reported":1767270228,"current_range_meters":11200,"station_id":"cpo36qri1sfpv3e86is0","pricing_plan_id":"cebpf4jnsgd1na2vs0mg"},{"bike_id":"961a4b80-6a80-41fc-af4e-cb7c655480a6","system_id":"levelo_inurba_marseille","lat":43.28308,"lon":5.39748,"is_reserved":false,"is_disabled":true,"rental_uris":{"android":"levelo://app?vid=961a4b80-6a80-41fc-af4e-cb7c655480a6","ios":"levelo://app?vid=961a4b80-6a80-41fc-af4e-cb7c655480a6"},"vehicle_type_id":"4","last_reported":1767270228,"current_range_meters":11200,"station_id":"","pricing_plan_id":"cebpf4jnsgd1na2vs0mg"},{"bike_id":"bf0e9831-c74b-4b77-afac-4e525f8e3fd0","system_id":"levelo_inurba_marseille","lat":43.24374,"lon":5.37068,"is_reserved":false,"is_disabled":false,"rental_uris":{"android":"levelo://app?vid=bf0e9831-c74b-4b77-afac-4e525f8e3fd0","ios":"levelo://app?vid=bf0e9831-c74b-4b77-afac-4e525f8e3fd0"},"vehicle_type_id":"4","last_reported":1767270228,"current_range_meters":11200,"station_id":"ce4bhhh2rcd13ifvqfk0","pricing_plan_id":"cebpf4jnsgd1na2vs0mg"},{"bike_id":"5c697cf1-3155-402b-bc5c-8bfef5fdb183","system_id":"levelo_inurba_marseille","lat":43.2994,"lon":5.38524,"is_reserved":false,"is_disabled":false,"rental_uris":{"android":"levelo://app?vid=5c697cf1-3155-402b-bc5c-8bfef5fdb183","ios":"levelo://app?vid=5c697cf1-3155-402b-bc5c-8bfef5fdb183"},"vehicle_type_id":"4","last_reported":1767270228,"current_range_meters":11600,"station_id":"ce4bgj92rcd13ifvqbd0","pricing_plan_id":"cebpf4jnsgd1na2vs0mg"},{"bike_id":"3bd56a81-7473-4fbf-a7cc-9e5f3cf3d658","system_id":"levelo_inurba_marseille","lat":43.29312,"lon":5.37173,"is_reserved":false,"is_disabled":false,"rental_uris":{"android":"levelo://app?vid=3bd56a81-7473-4fbf-a7cc-9e5f3cf3d658","ios":"levelo://app?vid=3bd56a81-7473-4fbf-a7cc-9e5f3cf3d658"},"vehicle_type_id":"4","last_reported":1767270228,"current_range_meters":11600,"station_id":"ce4bgh92rcd13ifvqb40","pricing_plan_id":"cebpf4jnsgd1na2vs0mg"},{"bike_id":"a63eff76-4348-433b-98e8-106875d368d9","system_id":"levelo_inurba_marseille","lat":43.31108,"lon":5.37276,"is_reserved":false,"is_disabled":false,"rental_uris":{"android":"levelo://app?vid=a63eff76-4348-433b-98e8-106875d368d9","ios":"levelo://app?vid=a63eff76-4348-433b-98e8-106875d368d9"},"vehicle_type_id":"4","last_reported":1767270228,"current_range_meters":11600,"station_id":"","pricing_plan_id":"cebpf4jnsgd1na2vs0mg"},{"bike_id":"ca9f06f9-0b53-4b1c-9fb4-6f7effb97bd6","system_id":"levelo_inurba_marseille","lat":43.29971,"lon":5.38488,"is_reserved":false,"is_disabled":false,"rental_uris":{"android":"levelo://app?vid=ca9f06f9-0b53-4b1c-9fb4-6f7effb97bd6","ios":"levelo://app?vid=ca9f06f9-0b53-4b1c-9fb4-6f7effb97bd6"},"vehicle_type_id":"4","last_reported":1767270228,"current_range_meters":11600,"station_id":"ce4bgj92rcd13ifvqbd0","pricing_plan_id":"cebpf4jnsgd1na2vs0mg"},{"bike_id":"ab98afa8-4907-4b9f-b6c6-75e71a064cde","system_id":"levelo_inurba_marseille","lat":43.25721,"lon":5.4111,"is_reserved":false,"is_disabled":false,"rental_uris":{"android":"levelo://app?vid=ab98afa8-4907-4b9f-b6c6-75e71a064cde","ios":"levelo://app?vid=ab98afa8-4907-4b9f-b6c6-75e71a064cde"},"vehicle_type_id":"4","last_reported":1767270228,"current_range_meters":11600,"station_id":"ce4bhkp2rcd13ifvqgd0","pricing_plan_id":"cebpf4jnsgd1na2vs0mg"},{"bike_id":"adee5904-d2f9-48c4-ad58-68d27b5bb40a","system_id":"levelo_inurba_marseille","lat":43.2927,"lon":5.37677,"is_reserved":false,"is_disabled":false,"rental_uris":{"android":"levelo://app?vid=adee5904-d2f9-48c4-ad58-68d27b5bb40a","ios":"levelo://app?vid=adee5904-d2f9-48c4-ad58-68d27b5bb40a"},"vehicle_type_id":"4","last_reported":1767270228,"current_range_meters":11600,"station_id":"ce4bgi12rcd13ifvqb80","pricing_plan_id":"cebpf4jnsgd1na2vs0mg"},{"bike_id":"a0e8834d-99dc-498c-bfc6-c375b2aebdc7","system_id":"levelo_inurba_marseille","lat":43.287504,"lon":5.365728,"is_reserved":false,"is_disabled":false,"rental_uris":{"android":"levelo://app?vid=a0e8834d-99dc-498c-bfc6-c375b2aebdc7","ios":"levelo://app?vid=a0e8834d-99dc-498c-bfc6-c375b2aebdc7"},"vehicle_type_id":"4","last_reported":1767270228,"current_range_meters":11600,"station_id":"","pricing_plan_id":"cebpf4jnsgd1na2vs0mg"},{"bike_id":"23d0c535-0253-46f8-8540-1651c38cce64","system_id":"levelo_inurba_marseille","lat":43.29258,"lon":5.40153,"is_reserved":false,"is_disabled":false,"rental_uris":{"android":"levelo://app?vid=23d0c535-0253-46f8-8540-1651c38cce64","ios":"levelo://app?vid=23d0c535-0253-46f8-8540-1651c38cce64"},"vehicle_type_id":"4","last_reported":1767270228,"current_range_meters":11600,"station_id":"ce4bh312rcd13ifvqdk0","pricing_plan_id":"cebpf4jnsgd1na2vs0mg"},{"bike_id":"d99b13b5-676a-4683-9b8f-e98b0c012379","system_id":"levelo_inurba_marseille","lat":43.25092,"lon":5.39526,"is_reserved":false,"is_disabled":false,"rental_uris":{"android":"levelo://app?vid=d99b13b5-676a-4683-9b8f-e98b0c012379","ios":"levelo://app?vid=d99b13b5-676a-4683-9b8f-e98b0c012379"},"vehicle_type_id":"4","last_reported":1767270228,"current_range_meters":11600,"station_id":"ce4bhm12rcd13ifvqgkg","pricing_plan_id":"cebpf4jnsgd1na2vs0mg"},{"bike_id":"220bcbb8-d084-46f7-b7f0-2087be5795cf","system_id":"levelo_inurba_marseille","lat":43.26342,"lon":5.41015,"is_reserved":false,"is_disabled":false,"rental_uris":{"android":"levelo://app?vid=220bcbb8-d084-46f7-b7f0-2087be5795cf","ios":"levelo://app?vid=220bcbb8-d084-46f7-b7f0-2087be5795cf"},"vehicle_type_id":"4","last_reported":1767270228,"current_range_meters":11600,"station_id":"","pricing_plan_id":"cebpf4jnsgd1na2vs0mg"},{"bike_id":"550df961-164e-4b10-94a9-f710c45dd1c9","system_id":"levelo_inurba_marseille","lat":43.28605,"lon":5.39891,"is_reserved":false,"is_disabled":false,"rental_uris":{"android":"levelo://app?vid=550df961-164e-4b10-94a9-f710c45dd1c9","ios":"levelo://app?vid=550df961-164e-4b10-94a9-f710c45dd1c9"},"vehicle_type_id":"4","last_reported":1767270228,"current_range_meters":11600,"station_id":"st_d4a7ka997mjs738ck50g","pricing_plan_id":"cebpf4jnsgd1na2vs0mg"},{"bike_id":"b7c65842-363d-43c4-92b2-529d07ea43d3","system_id":"levelo_inurba_marseille","lat":43.28406,"lon":5.34996,"is_reserved":false,"is_disabled":false,"rental_uris":{"android":"levelo://app?vid=b7c65842-363d-43c4-92b2-529d07ea43d3","ios":"levelo://app?vid=b7c65842-363d-43c4-92b2-529d07ea43d3"},"vehicle_type_id":"4","last_reported":1767270228,"current_range_meters":12000,"station_id":"ce4bhbh2rcd13ifvqepg","pricing_plan_id":"cebpf4jnsgd1na2vs0mg"},{"bike_id":"f8e99eeb-ec00-4f2e-9eec-fff39d2541d2","system_id":"levelo_inurba_marseille","lat":43.31323,"lon":5.39696,"is_reserved":false,"is_disabled":true,"rental_uris":{"android":"levelo://app?vid=f8e99eeb-ec00-4f2e-9eec-fff39d2541d2","ios":"levelo://app?vid=f8e99eeb-ec00-4f2e-9eec-fff39d2541d2"},"vehicle_type_id":"4","last_reported":1767270228,"current_range_meters":12000,"station_id":"ce4bgvp2rcd13ifvqcu0","pricing_plan_id":"cebpf4jnsgd1na2vs0mg"},{"bike_id":"fb5c9063-168c-414e-ac58-b82ef6d48a72","system_id":"levelo_inurba_marseille","lat":43.29705,"lon":5.37151,"is_reserved":false,"is_disabled":false,"rental_uris":{"android":"levelo://app?vid=fb5c9063-168c-414e-ac58-b82ef6d48a72","ios":"levelo://app?vid=fb5c9063-168c-414e-ac58-b82ef6d48a72"},"vehicle_type_id":"4","last_reported":1767270228,"current_range_meters":12000,"station_id":"","pricing_plan_id":"cebpf4jnsgd1na2vs0mg"},{"bike_id":"33d27fd2-4a0f-447b-b143-0f1e96c92703","system_id":"levelo_inurba_marseille","lat":43.31274,"lon":5.37923,"is_reserved":false,"is_disabled":false,"rental_uris":{"android":"levelo://app?vid=33d27fd2-4a0f-447b-b143-0f1e96c92703","ios":"levelo://app?vid=33d27fd2-4a0f-447b-b143-0f1e96c92703"},"vehicle_type_id":"4","last_reported":1767270228,"current_range_meters":12000,"station_id":"","pricing_plan_id":"cebpf4jnsgd1na2vs0mg"},{"bike_id":"e0d874b5-14d4-4ed6-ad4e-e34d0583933d","system_id":"levelo_inurba_marseille","lat":43.31213,"lon":5.36859,"is_reserved":false,"is_disabled":false,"rental_uris":{"android":"levelo://app?vid=e0d874b5-14d4-4ed6-ad4e-e34d0583933d","ios":"levelo://app?vid=e0d874b5-14d4-4ed6-ad4e-e34d0583933d"},"vehicle_type_id":"4","last_reported":1767270228,"current_range_meters":12000,"station_id":"ce4bgl92rcd13ifvqbq0","pricing_plan_id":"cebpf4jnsgd1na2vs0mg"},{"bike_id":"ba4d9c7a-7aca-4b85-9206-966a264e9e7b","system_id":"levelo_inurba_marseille","lat":43.31479,"lon":5.3881,"is_reserved":false,"is_disabled":false,"rental_uris":{"android":"levelo://app?vid=ba4d9c7a-7aca-4b85-9206-966a264e9e7b","ios":"levelo://app?vid=ba4d9c7a-7aca-4b85-9206-966a264e9e7b"},"vehicle_type_id":"4","last_reported":1767270228,"current_range_meters":12000,"station_id":"","pricing_plan_id":"cebpf4jnsgd1na2vs0mg"},{"bike_id":"26707781-8c4d-45fb-abb8-9784fa4796ac","system_id":"levelo_inurba_marseille","lat":43.32365,"lon":5.36724,"is_reserved":false,"is_disabled":false,"rental_uris":{"android":"levelo://app?vid=26707781-8c4d-45fb-abb8-9784fa4796ac","ios":"levelo://app?vid=26707781-8c4d-45fb-abb8-9784fa4796ac"},"vehicle_type_id":"4","last_reported":1767270228,"current_range_meters":12000,"station_id":"ce4bhsh2rcd13ifvqi2g","pricing_plan_id":"cebpf4jnsgd1na2vs0mg"},{"bike_id":"34c978d5-47ad-4b2a-8a2f-906f7fa23f12","system_id":"levelo_inurba_marseille","lat":43.24468,"lon":5.42535,"is_reserved":false,"is_disabled":false,"rental_uris":{"android":"levelo://app?vid=34c978d5-47ad-4b2a-8a2f-906f7fa23f12","ios":"levelo://app?vid=34c978d5-47ad-4b2a-8a2f-906f7fa23f12"},"vehicle_type_id":"4","last_reported":1767270228,"current_range_meters":12000,"station_id":"st_d4a3vfp97mjs738cd8kg","pricing_plan_id":"cebpf4jnsgd1na2vs0mg"},{"bike_id":"50a1ce80-e2ae-4637-b1b3-c5d653d75cd1","system_id":"levelo_inurba_marseille","lat":43.318882,"lon":5.390166,"is_reserved":false,"is_disabled":false,"rental_uris":{"android":"levelo://app?vid=50a1ce80-e2ae-4637-b1b3-c5d653d75cd1","ios":"levelo://app?vid=50a1ce80-e2ae-4637-b1b3-c5d653d75cd1"},"vehicle_type_id":"4","last_reported":1767270228,"current_range_meters":12000,"station_id":"","pricing_plan_id":"cebpf4jnsgd1na2vs0mg"},{"bike_id":"aae83613-d180-4239-9800-5e6ea52a6395","system_id":"levelo_inurba_marseille","lat":43.312355,"lon":5.368573,"is_reserved":false,"is_disabled":false,"rental_uris":{"android":"levelo://app?vid=aae83613-d180-4239-9800-5e6ea52a6395","ios":"levelo://app?vid=aae83613-d180-4239-9800-5e6ea52a6395"},"vehicle_type_id":"4","last_reported":1767270228,"current_range_meters":12000,"station_id":"ce4bgl92rcd13ifvqbq0","pricing_plan_id":"cebpf4jnsgd1na2vs0mg"},{"bike_id":"92d581a7-30a5-40b9-9406-f8b8db093a1c","system_id":"levelo_inurba_marseille","lat":43.29898,"lon":5.43671,"is_reserved":false,"is_disabled":false,"rental_uris":{"android":"levelo://app?vid=92d581a7-30a5-40b9-9406-f8b8db093a1c","ios":"levelo://app?vid=92d581a7-30a5-40b9-9406-f8b8db093a1c"},"vehicle_type_id":"4","last_reported":1767270228,"current_range_meters":12000,"station_id":"ce4bhpp2rcd13ifvqhfg","pricing_plan_id":"cebpf4jnsgd1na2vs0mg"},{"bike_id":"328debb6-db5e-4c60-b5c3-44e2124d0bbc","system_id":"levelo_inurba_marseille","lat":43.29676,"lon":5.37759,"is_reserved":false,"is_disabled":true,"rental_uris":{"android":"levelo://app?vid=328debb6-db5e-4c60-b5c3-44e2124d0bbc","ios":"levelo://app?vid=328debb6-db5e-4c60-b5c3-44e2124d0bbc"},"vehicle_type_id":"4","last_reported":1767270228,"current_range_meters":12000,"station_id":"ce4bgkp2rcd13ifvqbmg","pricing_plan_id":"cebpf4jnsgd1na2vs0mg"},{"bike_id":"ead1444d-eac1-417f-b268-ce9ed5abb843","system_id":"levelo_inurba_marseille","lat":43.29694,"lon":5.37317,"is_reserved":false,"is_disabled":false,"rental_uris":{"android":"levelo://app?vid=ead1444d-eac1-417f-b268-ce9ed5abb843","ios":"levelo://app?vid=ead1444d-eac1-417f-b268-ce9ed5abb843"},"vehicle_type_id":"4","last_reported":1767270228,"current_range_meters":12000,"station_id":"ce4bgk12rcd13ifvqbj0","pricing_plan_id":"cebpf4jnsgd1na2vs0mg"},{"bike_id":"6871c455-5904-4967-9b63-12e497daa9e7","system_id":"levelo_inurba_marseille","lat":43.27065,"lon":5.38332,"is_reserved":false,"is_disabled":false,"rental_uris":{"android":"levelo://app?vid=6871c455-5904-4967-9b63-12e497daa9e7","ios":"levelo://app?vid=6871c455-5904-4967-9b63-12e497daa9e7"},"vehicle_type_id":"4","last_reported":1767270228,"current_range_meters":12000,"station_id":"st_d3n2fo6cfp8s73cte1j0","pricing_plan_id":"cebpf4jnsgd1na2vs0mg"},{"bike_id":"1f4701d5-d340-4df9-98f7-8c976bc059e9","system_id":"levelo_inurba_marseille","lat":43.282659,"lon":5.35082,"is_reserved":false,"is_disabled":false,"rental_uris":{"android":"levelo://app?vid=1f4701d5-d340-4df9-98f7-8c976bc059e9","ios":"levelo://app?vid=1f4701d5-d340-4df9-98f7-8c976bc059e9"},"vehicle_type_id":"4","last_reported":1767270228,"current_range_meters":12000,"station_id":"ce4bhbp2rcd13ifvqerg","pricing_plan_id":"cebpf4jnsgd1na2vs0mg"},{"bike_id":"7ad11f56-6124-475a-8a9c-acbe7a5750ff","system_id":"levelo_inurba_marseille","lat":43.29984,"lon":5.38454,"is_reserved":false,"is_disabled":false,"rental_uris":{"android":"levelo://app?vid=7ad11f56-6124-475a-8a9c-acbe7a5750ff","ios":"levelo://app?vid=7ad11f56-6124-475a-8a9c-acbe7a5750ff"},