{"last_updated":1734675370,"ttl":60,"version":"2.2","data":{"bikes":[{"bike_id":"54875f41-5c01-46fb-845c-1af949b2d947","system_id":"levelo_inurba_marseille","lat":43.28928,"lon":5.384,"is_reserved":false,"is_disabled":false,"rental_uris":{"android":"levelo://app?vid=54875f41-5c01-46fb-845c-1af949b2d947","ios":"levelo://app?vid=54875f41-5c01-46fb-845c-1af949b2d947"},"vehicle_type_id":"4","last_reported":1734675371,"current_range_meters":27200,"station_id":"ce4bh612rcd13ifvqe6g","pricing_plan_id":"cebpf4jnsgd1na2vs0mg"},{"bike_id":"74dc27b5-e2a4-4b1e-9dc3-5894ac4bda0a","system_id":"levelo_inurba_marseille","lat":43.297969,"lon":5.371137,"is_reserved":false,"is_disabled":false,"rental_uris":{"android":"levelo://app?vid=74dc27b5-e2a4-4b1e-9dc3-5894ac4bda0a","ios":"levelo://app?vid=74dc27b5-e2a4-4b1e-9dc3-5894ac4bda0a"},"vehicle_type_id":"4","last_reported":1734675371,"current_range_meters":37600,"station_id":"ce4bgop2rcd13ifvqc1g","pricing_plan_id":"cebpf4jnsgd1na2vs0mg"},{"bike_id":"eb156c91-5c91-4664-a66b-8fb17c1b7811","system_id":"levelo_inurba_marseille","lat":43.28443,"lon":5.39184,"is_reserved":false,"is_disabled":false,"rental_uris":{"android":"levelo://app?vid=eb156c91-5c91-4664-a66b-8fb17c1b7811","ios":"levelo://app?vid=eb156c91-5c91-4664-a66b-8fb17c1b7811"},"vehicle_type_id":"4","last_reported":1734675371,"current_range_meters":38000,"station_id":"ce4bhoh2rcd13ifvqh5g","pricing_plan_id":"cebpf4jnsgd1na2vs0mg"},{"bike_id":"d8e2b32b-975c-4ebb-8a62-f249de1e3a1d","system_id":"levelo_inurba_marseille","lat":43.28457,"lon":5.35883,"is_reserved":false,"is_disabled":false,"rental_uris":{"android":"levelo://app?vid=d8e2b32b-975c-4ebb-8a62-f249de1e3a1d","ios":"levelo://app?vid=d8e2b32b-975c-4ebb-8a62-f249de1e3a1d"},"vehicle_type_id":"4","last_reported":1734675371,"current_range_meters":22800,"station_id":"ce4bhah2rcd13ifvqei0","pricing_plan_id":"cebpf4jnsgd1na2vs0mg"},{"bike_id":"833e0ce7-81be-4cf2-b37a-2cc4539e9a27","system_id":"levelo_inurba_marseille","lat":43.30152,"lon":5.38083,"is_reserved":false,"is_disabled":false,"rental_uris":{"android":"levelo://app?vid=833e0ce7-81be-4cf2-b37a-2cc4539e9a27","ios":"levelo://app?vid=833e0ce7-81be-4cf2-b37a-2cc4539e9a27"},"vehicle_type_id":"4","last_reported":1734675371,"current_range_meters":38000,"station_id":"ce4bgjp2rcd13ifvqbh0","pricing_plan_id":"cebpf4jnsgd1na2vs0mg"},{"bike_id":"0b3c962c-40d1-4375-b60d-644d72aaacf1","system_id":"levelo_inurba_marseille","lat":43.28015,"lon":5.40412,"is_reserved":false,"is_disabled":true,"rental_uris":{"android":"levelo://app?vid=0b3c962c-40d1-4375-b60d-644d72aaacf1","ios":"levelo://app?vid=0b3c962c-40d1-4375-b60d-644d72aaacf1"},"vehicle_type_id":"4","last_reported":1734675371,"current_range_meters":0,"station_id":"","pricing_plan_id":"cebpf4jnsgd1na2vs0mg"},{"bike_id":"67ab154a-5ebb-400b-8fe1-02ec2579bea3","system_id":"levelo_inurba_marseille","lat":43.31276,"lon":5.40167,"is_reserved":false,"is_disabled":false,"rental_uris":{"android":"levelo://app?vid=67ab154a-5ebb-400b-8fe1-02ec2579bea3","ios":"levelo://app?vid=67ab154a-5ebb-400b-8fe1-02ec2579bea3"},"vehicle_type_id":"4","last_reported":1734675371,"current_range_meters":39200,"station_id":"ce4bh092rcd13ifvqd30","pricing_plan_id":"cebpf4jnsgd1na2vs0mg"},{"bike_id":"b3ca4fe4-550c-42a3-b98d-0ca615b243f9","system_id":"levelo_inurba_marseille","lat":43.28727,"lon":5.360881,"is_reserved":false,"is_disabled":false,"rental_uris":{"android":"levelo://app?vid=b3ca4fe4-550c-42a3-b98d-0ca615b243f9","ios":"levelo://app?vid=b3ca4fe4-550c-42a3-b98d-0ca615b243f9"},"vehicle_type_id":"4","last_reported":1734675371,"current_range_meters":19200,"station_id":"cki0cbj6b192h4jlfktg","pricing_plan_id":"cebpf4jnsgd1na2vs0mg"},{"bike_id":"c5b80322-ab04-49bd-a2c6-ab8bceab3a4c","system_id":"levelo_inurba_marseille","lat":43.27051,"lon":5.40262,"is_reserved":false,"is_disabled":true,"rental_uris":{"android":"levelo://app?vid=c5b80322-ab04-49bd-a2c6-ab8bceab3a4c","ios":"levelo://app?vid=c5b80322-ab04-49bd-a2c6-ab8bceab3a4c"},"vehicle_type_id":"4","last_reported":1734675371,"current_range_meters":1200,"station_id":"ce4bhk92rcd13ifvqgc0","pricing_plan_id":"cebpf4jnsgd1na2vs0mg"},{"bike_id":"6dbd45f5-882d-4325-9c7e-f0f72386c6da","system_id":"levelo_inurba_marseille","lat":43.23865,"lon":5.37401,"is_reserved":false,"is_disabled":false,"rental_uris":{"android":"levelo://app?vid=6dbd45f5-882d-4325-9c7e-f0f72386c6da","ios":"levelo://app?vid=6dbd45f5-882d-4325-9c7e-f0f72386c6da"},"vehicle_type_id":"4","last_reported":1734675371,"current_range_meters":6400,"station_id":"","pricing_plan_id":"cebpf4jnsgd1na2vs0mg"},{"bike_id":"1cdfd12b-6391-4ec2-a79d-92933987f841","system_id":"levelo_inurba_marseille","lat":43.295931,"lon":5.367293,"is_reserved":false,"is_disabled":false,"rental_uris":{"android":"levelo://app?vid=1cdfd12b-6391-4ec2-a79d-92933987f841","ios":"levelo://app?vid=1cdfd12b-6391-4ec2-a79d-92933987f841"},"vehicle_type_id":"4","last_reported":1734675371,"current_range_meters":38400,"station_id":"ce4bgph2rcd13ifvqc2g","pricing_plan_id":"cebpf4jnsgd1na2vs0mg"},{"bike_id":"7f9162df-4aa2-4343-90f5-549390574e85","system_id":"levelo_inurba_marseille","lat":43.28938,"lon":5.36398,"is_reserved":false,"is_disabled":false,"rental_uris":{"android":"levelo://app?vid=7f9162df-4aa2-4343-90f5-549390574e85","ios":"levelo://app?vid=7f9162df-4aa2-4343-90f5-549390574e85"},"vehicle_type_id":"4","last_reported":1734675371,"current_range_meters":38800,"station_id":"ce4bhc92rcd13ifvqetg","pricing_plan_id":"cebpf4jnsgd1na2vs0mg"},{"bike_id":"93cd12d2-ee52-454b-a1c6-a2a94b1185da","system_id":"levelo_inurba_marseille","lat":43.24813,"lon":5.3745,"is_reserved":false,"is_disabled":false,"rental_uris":{"android":"levelo://app?vid=93cd12d2-ee52-454b-a1c6-a2a94b1185da","ios":"levelo://app?vid=93cd12d2-ee52-454b-a1c6-a2a94b1185da"},"vehicle_type_id":"4","last_reported":1734675371,"current_range_meters":38800,"station_id":"ce4bhgh2rcd13ifvqfb0","pricing_plan_id":"cebpf4jnsgd1na2vs0mg"},{"bike_id":"02bf8158-426b-4335-9b97-c473816a1fd2","system_id":"levelo_inurba_marseille","lat":43.25836,"lon":5.3944,"is_reserved":false,"is_disabled":false,"rental_uris":{"android":"levelo://app?vid=02bf8158-426b-4335-9b97-c473816a1fd2","ios":"levelo://app?vid=02bf8158-426b-4335-9b97-c473816a1fd2"},"vehicle_type_id":"4","last_reported":1734675371,"current_range_meters":38800,"station_id":"ce4bhip2rcd13ifvqft0","pricing_plan_id":"cebpf4jnsgd1na2vs0mg"},{"bike_id":"5b3c1ffc-f106-4d19-bf23-7476188deeb8","system_id":"levelo_inurba_marseille","lat":43.308863,"lon":5.378124,"is_reserved":false,"is_disabled":false,"rental_uris":{"android":"levelo://app?vid=5b3c1ffc-f106-4d19-bf23-7476188deeb8","ios":"levelo://app?vid=5b3c1ffc-f106-4d19-bf23-7476188deeb8"},"vehicle_type_id":"4","last_reported":1734675371,"current_range_meters":19200,"station_id":"","pricing_plan_id":"cebpf4jnsgd1na2vs0mg"},{"bike_id":"c7f24469-1136-4e21-b84a-0a12ce3b4eea","system_id":"levelo_inurba_marseille","lat":43.31696,"lon":5.40465,"is_reserved":false,"is_disabled":false,"rental_uris":{"android":"levelo://app?vid=c7f24469-1136-4e21-b84a-0a12ce3b4eea","ios":"levelo://app?vid=c7f24469-1136-4e21-b84a-0a12ce3b4eea"},"vehicle_type_id":"4","last_reported":1734675371,"current_range_meters":5600,"station_id":"ce4bh012rcd13ifvqd00","pricing_plan_id":"cebpf4jnsgd1na2vs0mg"},{"bike_id":"cc50149b-a9a4-4cf7-b279-15886a00ebba","system_id":"levelo_inurba_marseille","lat":43.26492,"lon":5.39553,"is_reserved":false,"is_disabled":false,"rental_uris":{"android":"levelo://app?vid=cc50149b-a9a4-4cf7-b279-15886a00ebba","ios":"levelo://app?vid=cc50149b-a9a4-4cf7-b279-15886a00ebba"},"vehicle_type_id":"4","last_reported":1734675371,"current_range_meters":9200,"station_id":"ce4bhi12rcd13ifvqfq0","pricing_plan_id":"cebpf4jnsgd1na2vs0mg"},{"bike_id":"efea8024-8644-43d9-8d41-62d113bb42ec","system_id":"levelo_inurba_marseille","lat":43.29527,"lon":5.39045,"is_reserved":false,"is_disabled":false,"rental_uris":{"android":"levelo://app?vid=efea8024-8644-43d9-8d41-62d113bb42ec","ios":"levelo://app?vid=efea8024-8644-43d9-8d41-62d113bb42ec"},"vehicle_type_id":"4","last_reported":1734675371,"current_range_meters":38000,"station_id":"ce4bh3p2rcd13ifvqdp0","pricing_plan_id":"cebpf4jnsgd1na2vs0mg"},{"bike_id":"50e8c085-3461-45ec-8e3b-89417f65dc70","system_id":"levelo_inurba_marseille","lat":43.27057,"lon":5.40257,"is_reserved":false,"is_disabled":false,"rental_uris":{"android":"levelo://app?vid=50e8c085-3461-45ec-8e3b-89417f65dc70","ios":"levelo://app?vid=50e8c085-3461-45ec-8e3b-89417f65dc70"},"vehicle_type_id":"4","last_reported":1734675371,"current_range_meters":32800,"station_id":"ce4bhk92rcd13ifvqgc0","pricing_plan_id":"cebpf4jnsgd1na2vs0mg"},{"bike_id":"b3631b15-1bf5-47b8-ba47-85c40ffe4d8d","system_id":"levelo_inurba_marseille","lat":43.296269,"lon":5.406047,"is_reserved":false,"is_disabled":false,"rental_uris":{"android":"levelo://app?vid=b3631b15-1bf5-47b8-ba47-85c40ffe4d8d","ios":"levelo://app?vid=b3631b15-1bf5-47b8-ba47-85c40ffe4d8d"},"vehicle_type_id":"4","last_reported":1734675371,"current_range_meters":38800,"station_id":"ce4bh0h2rcd13ifvqd60","pricing_plan_id":"cebpf4jnsgd1na2vs0mg"},{"bike_id":"f6cc3e67-b6ce-417b-9a39-9488e4fff010","system_id":"levelo_inurba_marseille","lat":43.28439,"lon":5.391811,"is_reserved":false,"is_disabled":false,"rental_uris":{"android":"levelo://app?vid=f6cc3e67-b6ce-417b-9a39-9488e4fff010","ios":"levelo://app?vid=f6cc3e67-b6ce-417b-9a39-9488e4fff010"},"vehicle_type_id":"4","last_reported":1734675371,"current_range_meters":28400,"station_id":"ce4bhoh2rcd13ifvqh5g","pricing_plan_id":"cebpf4jnsgd1na2vs0mg"},{"bike_id":"85f27a5d-9af7-4b09-a20c-f802a8f11d6d","system_id":"levelo_inurba_marseille","lat":43.3266,"lon":5.40987,"is_reserved":false,"is_disabled":false,"rental_uris":{"android":"levelo://app?vid=85f27a5d-9af7-4b09-a20c-f802a8f11d6d","ios":"levelo://app?vid=85f27a5d-9af7-4b09-a20c-f802a8f11d6d"},"vehicle_type_id":"4","last_reported":1734675371,"current_range_meters":12000,"station_id":"ce4bhpp2rcd13ifvqhgg","pricing_plan_id":"cebpf4jnsgd1na2vs0mg"},{"bike_id":"d34bdf4f-71bc-4ae4-b273-f3852ddc692a","system_id":"levelo_inurba_marseille","lat":43.33756,"lon":5.37472,"is_reserved":false,"is_disabled":false,"rental_uris":{"android":"levelo://app?vid=d34bdf4f-71bc-4ae4-b273-f3852ddc692a","ios":"levelo://app?vid=d34bdf4f-71bc-4ae4-b273-f3852ddc692a"},"vehicle_type_id":"4","last_reported":1734675371,"current_range_meters":34000,"station_id":"","pricing_plan_id":"cebpf4jnsgd1na2vs0mg"},{"bike_id":"f64d73d0-f96c-4455-a454-0974d8a22425","system_id":"levelo_inurba_marseille","lat":43.30603,"lon":5.37226,"is_reserved":false,"is_disabled":false,"rental_uris":{"android":"levelo://app?vid=f64d73d0-f96c-4455-a454-0974d8a22425","ios":"levelo://app?vid=f64d73d0-f96c-4455-a454-0974d8a22425"},"vehicle_type_id":"4","last_reported":1734675371,"current_range_meters":36400,"station_id":"ce4bgqh2rcd13ifvqc4g","pricing_plan_id":"cebpf4jnsgd1na2vs0mg"},{"bike_id":"64ede71d-097c-4cc5-9d7f-15e785be5875","system_id":"levelo_inurba_marseille","lat":43.29567,"lon":5.39973,"is_reserved":false,"is_disabled":false,"rental_uris":{"android":"levelo://app?vid=64ede71d-097c-4cc5-9d7f-15e785be5875","ios":"levelo://app?vid=64ede71d-097c-4cc5-9d7f-15e785be5875"},"vehicle_type_id":"4","last_reported":1734675371,"current_range_meters":38800,"station_id":"ce4bh312rcd13ifvqdj0","pricing_plan_id":"cebpf4jnsgd1na2vs0mg"},{"bike_id":"6183d038-4dbc-4850-8b8c-35e77c60c9af","system_id":"levelo_inurba_marseille","lat":43.279146,"lon":5.395844,"is_reserved":false,"is_disabled":false,"rental_uris":{"android":"levelo://app?vid=6183d038-4dbc-4850-8b8c-35e77c60c9af","ios":"levelo://app?vid=6183d038-4dbc-4850-8b8c-35e77c60c9af"},"vehicle_type_id":"4","last_reported":1734675371,"current_range_meters":15200,"station_id":"ce4bhf92rcd13ifvqf40","pricing_plan_id":"cebpf4jnsgd1na2vs0mg"},{"bike_id":"c7a472ed-6dc3-4cde-83b8-4deb8af0b49b","system_id":"levelo_inurba_marseille","lat":43.24391,"lon":5.37051,"is_reserved":false,"is_disabled":false,"rental_uris":{"android":"levelo://app?vid=c7a472ed-6dc3-4cde-83b8-4deb8af0b49b","ios":"levelo://app?vid=c7a472ed-6dc3-4cde-83b8-4deb8af0b49b"},"vehicle_type_id":"4","last_reported":1734675371,"current_range_meters":23200,"station_id":"ce4bhhh2rcd13ifvqfk0","pricing_plan_id":"cebpf4jnsgd1na2vs0mg"},{"bike_id":"af375b95-98ed-4d0c-a1db-a5220a0cbfa9","system_id":"levelo_inurba_marseille","lat":43.31676,"lon":5.40494,"is_reserved":false,"is_disabled":false,"rental_uris":{"android":"levelo://app?vid=af375b95-98ed-4d0c-a1db-a5220a0cbfa9","ios":"levelo://app?vid=af375b95-98ed-4d0c-a1db-a5220a0cbfa9"},"vehicle_type_id":"4","last_reported":1734675371,"current_range_meters":38000,"station_id":"ce4bh012rcd13ifvqd00","pricing_plan_id":"cebpf4jnsgd1na2vs0mg"},{"bike_id":"d4c569b2-7d9f-4359-9e19-4375123c6764","system_id":"levelo_inurba_marseille","lat":43.248064,"lon":5.374616,"is_reserved":false,"is_disabled":false,"rental_uris":{"android":"levelo://app?vid=d4c569b2-7d9f-4359-9e19-4375123c6764","ios":"levelo://app?vid=d4c569b2-7d9f-4359-9e19-4375123c6764"},"vehicle_type_id":"4","last_reported":1734675371,"current_range_meters":24800,"station_id":"ce4bhgh2rcd13ifvqfb0","pricing_plan_id":"cebpf4jnsgd1na2vs0mg"},{"bike_id":"b042baac-48e3-41d4-beca-2c2cc4a183f1","system_id":"levelo_inurba_marseille","lat":43.23197,"lon":5.35506,"is_reserved":false,"is_disabled":false,"rental_uris":{"android":"levelo://app?vid=b042baac-48e3-41d4-beca-2c2cc4a183f1","ios":"levelo://app?vid=b042baac-48e3-41d4-beca-2c2cc4a183f1"},"vehicle_type_id":"4","last_reported":1734675371,"current_range_meters":38400,"station_id":"ce4bhu92rcd13ifvqi70","pricing_plan_id":"cebpf4jnsgd1na2vs0mg"},{"bike_id":"2b16d6df-47e4-4298-b057-3deace416976","system_id":"levelo_inurba_marseille","lat":43.29962,"lon":5.41312,"is_reserved":false,"is_disabled":false,"rental_uris":{"android":"levelo://app?vid=2b16d6df-47e4-4298-b057-3deace416976","ios":"levelo://app?vid=2b16d6df-47e4-4298-b057-3deace416976"},"vehicle_type_id":"4","last_reported":1734675371,"current_range_meters":38800,"station_id":"ce4bhp12rcd13ifvqh9g","pricing_plan_id":"cebpf4jnsgd1na2vs0mg"},{"bike_id":"b0a13592-7cce-4d9c-b407-7810a71613ab","system_id":"levelo_inurba_marseille","lat":43.2873,"lon":5.36108,"is_reserved":false,"is_disabled":false,"rental_uris":{"android":"levelo://app?vid=b0a13592-7cce-4d9c-b407-7810a71613ab","ios":"levelo://app?vid=b0a13592-7cce-4d9c-b407-7810a71613ab"},"vehicle_type_id":"4","last_reported":1734675371,"current_range_meters":36800,"station_id":"cki0cbj6b192h4jlfktg","pricing_plan_id":"cebpf4jnsgd1na2vs0mg"},{"bike_id":"a3490aca-cd3e-423c-b291-413d54e7a9b6","system_id":"levelo_inurba_marseille","lat":43.29718,"lon":5.37692,"is_reserved":false,"is_disabled":false,"rental_uris":{"android":"levelo://app?vid=a3490aca-cd3e-423c-b291-413d54e7a9b6","ios":"levelo://app?vid=a3490aca-cd3e-423c-b291-413d54e7a9b6"},"vehicle_type_id":"4","last_reported":1734675371,"current_range_meters":39200,"station_id":"ce4bgkh2rcd13ifvqbl0","pricing_plan_id":"cebpf4jnsgd1na2vs0mg"},{"bike_id":"48402390-8bf8-4527-8226-790169c2cea8","system_id":"levelo_inurba_marseille","lat":43.24079,"lon":5.37771,"is_reserved":false,"is_disabled":false,"rental_uris":{"android":"levelo://app?vid=48402390-8bf8-4527-8226-790169c2cea8","ios":"levelo://app?vid=48402390-8bf8-4527-8226-790169c2cea8"},"vehicle_type_id":"4","last_reported":1734675371,"current_range_meters":39200,"station_id":"ce4bhnp2rcd13ifvqgvg","pricing_plan_id":"cebpf4jnsgd1na2vs0mg"},{"bike_id":"8c4ecedf-c52e-488a-b2f9-f8570f79cdde","system_id":"levelo_inurba_marseille","lat":43.28085,"lon":5.3964,"is_reserved":false,"is_disabled":false,"rental_uris":{"android":"levelo://app?vid=8c4ecedf-c52e-488a-b2f9-f8570f79cdde","ios":"levelo://app?vid=8c4ecedf-c52e-488a-b2f9-f8570f79cdde"},"vehicle_type_id":"4","last_reported":1734675371,"current_range_meters":38800,"station_id":"ce4bho12rcd13ifvqh2g","pricing_plan_id":"cebpf4jnsgd1na2vs0mg"},{"bike_id":"3f35c514-84c7-403c-be41-f914dbb94369","system_id":"levelo_inurba_marseille","lat":43.24639,"lon":5.38899,"is_reserved":false,"is_disabled":false,"rental_uris":{"android":"levelo://app?vid=3f35c514-84c7-403c-be41-f914dbb94369","ios":"levelo://app?vid=3f35c514-84c7-403c-be41-f914dbb94369"},"vehicle_type_id":"4","last_reported":1734675371,"current_range_meters":38800,"station_id":"ce4bhg12rcd13ifvqf60","pricing_plan_id":"cebpf4jnsgd1na2vs0mg"},{"bike_id":"27572b69-5a13-49f8-ad75-4b6f705686e5","system_id":"levelo_inurba_marseille","lat":43.28105,"lon":5.37836,"is_reserved":false,"is_disabled":false,"rental_uris":{"android":"levelo://app?vid=27572b69-5a13-49f8-ad75-4b6f705686e5","ios":"levelo://app?vid=27572b69-5a13-49f8-ad75-4b6f705686e5"},"vehicle_type_id":"4","last_reported":1734675371,"current_range_meters":36400,"station_id":"ce4bha12rcd13ifvqee0","pricing_plan_id":"cebpf4jnsgd1na2vs0mg"},{"bike_id":"f20cd36c-a895-444d-b8aa-a67ddb893a61","system_id":"levelo_inurba_marseille","lat":43.30675,"lon":5.40109,"is_reserved":false,"is_disabled":true,"rental_uris":{"android":"levelo://app?vid=f20cd36c-a895-444d-b8aa-a67ddb893a61","ios":"levelo://app?vid=f20cd36c-a895-444d-b8aa-a67ddb893a61"},"vehicle_type_id":"4","last_reported":1734675371,"current_range_meters":6000,"station_id":"ce4bh112rcd13ifvqda0","pricing_plan_id":"cebpf4jnsgd1na2vs0mg"},{"bike_id":"6d32b82e-979e-4c43-81da-d68e20cc1423","system_id":"levelo_inurba_marseille","lat":43.31717,"lon":5.42405,"is_reserved":false,"is_disabled":false,"rental_uris":{"android":"levelo://app?vid=6d32b82e-979e-4c43-81da-d68e20cc1423","ios":"levelo://app?vid=6d32b82e-979e-4c43-81da-d68e20cc1423"},"vehicle_type_id":"4","last_reported":1734675371,"current_range_meters":28400,"station_id":"ce4bhp92rcd13ifvqhbg","pricing_plan_id":"cebpf4jnsgd1na2vs0mg"},{"bike_id":"45eef7a2-7813-485d-b132-f34196de9793","system_id":"levelo_inurba_marseille","lat":43.287251,"lon":5.361062,"is_reserved":false,"is_disabled":false,"rental_uris":{"android":"levelo://app?vid=45eef7a2-7813-485d-b132-f34196de9793","ios":"levelo://app?vid=45eef7a2-7813-485d-b132-f34196de9793"},"vehicle_type_id":"4","last_reported":1734675371,"current_range_meters":22400,"station_id":"cki0cbj6b192h4jlfktg","pricing_plan_id":"cebpf4jnsgd1na2vs0mg"},{"bike_id":"7d8b4789-db38-4881-a12e-8303c1c118b0","system_id":"levelo_inurba_marseille","lat":43.30549,"lon":5.36693,"is_reserved":false,"is_disabled":false,"rental_uris":{"android":"levelo://app?vid=7d8b4789-db38-4881-a12e-8303c1c118b0","ios":"levelo://app?vid=7d8b4789-db38-4881-a12e-8303c1c118b0"},"vehicle_type_id":"4","last_reported":1734675371,"current_range_meters":39200,"station_id":"ce4bgrp2rcd13ifvqc9g","pricing_plan_id":"cebpf4jnsgd1na2vs0mg"},{"bike_id":"9afc83b9-38a8-4ff9-84e2-df7804219fd8","system_id":"levelo_inurba_marseille","lat":43.29277,"lon":5.40111,"is_reserved":false,"is_disabled":false,"rental_uris":{"android":"levelo://app?vid=9afc83b9-38a8-4ff9-84e2-df7804219fd8","ios":"levelo://app?vid=9afc83b9-38a8-4ff9-84e2-df7804219fd8"},"vehicle_type_id":"4","last_reported":1734675371,"current_range_meters":30000,"station_id":"ce4bh312rcd13ifvqdk0","pricing_plan_id":"cebpf4jnsgd1na2vs0mg"},{"bike_id":"06690fa9-3aa8-4c94-b9e7-7e6a3aa7dc5c","system_id":"levelo_inurba_marseille","lat":43.28659,"lon":5.36354,"is_reserved":false,"is_disabled":false,"rental_uris":{"android":"levelo://app?vid=06690fa9-3aa8-4c94-b9e7-7e6a3aa7dc5c","ios":"levelo://app?vid=06690fa9-3aa8-4c94-b9e7-7e6a3aa7dc5c"},"vehicle_type_id":"4","last_reported":1734675371,"current_range_meters":38800,"station_id":"ce4bhah2rcd13ifvqej0","pricing_plan_id":"cebpf4jnsgd1na2vs0mg"},{"bike_id":"c2f562b7-e571-418d-8c7d-e6c36c6f1b41","system_id":"levelo_inurba_marseille","lat":43.28675,"lon":5.36352,"is_reserved":false,"is_disabled":false,"rental_uris":{"android":"levelo://app?vid=c2f562b7-e571-418d-8c7d-e6c36c6f1b41","ios":"levelo://app?vid=c2f562b7-e571-418d-8c7d-e6c36c6f1b41"},"vehicle_type_id":"4","last_reported":1734675371,"current_range_meters":38800,"station_id":"ce4bhah2rcd13ifvqej0","pricing_plan_id":"cebpf4jnsgd1na2vs0mg"},{"bike_id":"fd516522-efeb-4c3a-b168-4e7991d4eb25","system_id":"levelo_inurba_marseille","lat":43.24081,"lon":5.37754,"is_reserved":false,"is_disabled":false,"rental_uris":{"android":"levelo://app?vid=fd516522-efeb-4c3a-b168-4e7991d4eb25","ios":"levelo://app?vid=fd516522-efeb-4c3a-b168-4e7991d4eb25"},"vehicle_type_id":"4","last_reported":1734675371,"current_range_meters":22800,"station_id":"ce4bhnp2rcd13ifvqgvg","pricing_plan_id":"cebpf4jnsgd1na2vs0mg"},{"bike_id":"aea0bc00-6957-410b-8879-acc061f81159","system_id":"levelo_inurba_marseille","lat":43.31887,"lon":5.40735,"is_reserved":false,"is_disabled":false,"rental_uris":{"android":"levelo://app?vid=aea0bc00-6957-410b-8879-acc061f81159","ios":"levelo://app?vid=aea0bc00-6957-410b-8879-acc061f81159"},"vehicle_type_id":"4","last_reported":1734675371,"current_range_meters":10000,"station_id":"ce4bhq12rcd13ifvqhig","pricing_plan_id":"cebpf4jnsgd1na2vs0mg"},{"bike_id":"33ab6395-1ea8-4014-8aec-23b0d3576df2","system_id":"levelo_inurba_marseille","lat":43.29634,"lon":5.38026,"is_reserved":false,"is_disabled":false,"rental_uris":{"android":"levelo://app?vid=33ab6395-1ea8-4014-8aec-23b0d3576df2","ios":"levelo://app?vid=33ab6395-1ea8-4014-8aec-23b0d3576df2"},"vehicle_type_id":"4","last_reported":1734675371,"current_range_meters":24400,"station_id":"","pricing_plan_id":"cebpf4jnsgd1na2vs0mg"},{"bike_id":"744a824f-4b40-4cbc-a6d2-44c6b8019656","system_id":"levelo_inurba_marseille","lat":43.30782,"lon":5.37657,"is_reserved":false,"is_disabled":false,"rental_uris":{"android":"levelo://app?vid=744a824f-4b40-4cbc-a6d2-44c6b8019656","ios":"levelo://app?vid=744a824f-4b40-4cbc-a6d2-44c6b8019656"},"vehicle_type_id":"4","last_reported":1734675371,"current_range_meters":9200,"station_id":"ce4bgv92rcd13ifvqcq0","pricing_plan_id":"cebpf4jnsgd1na2vs0mg"},{"bike_id":"e3abb7e0-9fa8-46b1-a69d-69b2f3b7f2a3","system_id":"levelo_inurba_marseille","lat":43.28112,"lon":5.37855,"is_reserved":false,"is_disabled":false,"rental_uris":{"android":"levelo://app?vid=e3abb7e0-9fa8-46b1-a69d-69b2f3b7f2a3","ios":"levelo://app?vid=e3abb7e0-9fa8-46b1-a69d-69b2f3b7f2a3"},"vehicle_type_id":"4","last_reported":1734675371,"current_range_meters":38800,"station_id":"ce4bha12rcd13ifvqee0","pricing_plan_id":"cebpf4jnsgd1na2vs0mg"},{"bike_id":"43ba8124-a8f0-438a-a4f1-fd9db2a2589e","system_id":"levelo_inurba_marseille","lat":43.33022,"lon":5.39037,"is_reserved":false,"is_disabled":false,"rental_uris":{"android":"levelo://app?vid=43ba8124-a8f0-438a-a4f1-fd9db2a2589e","ios":"levelo://app?vid=43ba8124-a8f0-438a-a4f1-fd9db2a2589e"},"vehicle_type_id":"4","last_reported":1734675371,"current_range_meters":22000,"station_id":"ce4bhr92rcd13ifvqhrg","pricing_plan_id":"cebpf4jnsgd1na2vs0mg"},{"bike_id":"059c4b4c-5951-4c74-b8de-98b868edecea","system_id":"levelo_inurba_marseille","lat":43.32488,"lon":5.36557,"is_reserved":false,"is_disabled":false,"rental_uris":{"android":"levelo://app?vid=059c4b4c-5951-4c74-b8de-98b868edecea","ios":"levelo://app?vid=059c4b4c-5951-4c74-b8de-98b868edecea"},"vehicle_type_id":"4","last_reported":1734675371,"current_range_meters":38000,"station_id":"ce4bhs12rcd13ifvqhvg","pricing_plan_id":"cebpf4jnsgd1na2vs0mg"},{"bike_id":"8c8f4e1b-28fe-4493-9f74-e159ef26eecd","system_id":"levelo_inurba_marseille","lat":43.32056,"lon":5.41568,"is_reserved":false,"is_disabled":false,"rental_uris":{"android":"levelo://app?vid=8c8f4e1b-28fe-4493-9f74-e159ef26eecd","ios":"levelo://app?vid=8c8f4e1b-28fe-4493-9f74-e159ef26eecd"},"vehicle_type_id":"4","last_reported":1734675371,"current_range_meters":37600,"station_id":"ce4bhq92rcd13ifvqhkg","pricing_plan_id":"cebpf4jnsgd1na2vs0mg"},{"bike_id":"eefe5394-be96-435c-b7cb-e39b00dbbce0","system_id":"levelo_inurba_marseille","lat":43.26944,"lon":5.40247,"is_reserved":false,"is_disabled":false,"rental_uris":{"android":"levelo://app?vid=eefe5394-be96-435c-b7cb-e39b00dbbce0","ios":"levelo://app?vid=eefe5394-be96-435c-b7cb-e39b00dbbce0"},"vehicle_type_id":"4","last_reported":1734675371,"current_range_meters":38400,"station_id":"cjm6bp8fraef2m0cb0m0","pricing_plan_id":"cebpf4jnsgd1na2vs0mg"},{"bike_id":"c5d3dda4-9397-4823-9c8b-ea8eda2ab949","system_id":"levelo_inurba_marseille","lat":43.23949,"lon":5.36657,"is_reserved":false,"is_disabled":false,"rental_uris":{"android":"levelo://app?vid=c5d3dda4-9397-4823-9c8b-ea8eda2ab949","ios":"levelo://app?vid=c5d3dda4-9397-4823-9c8b-ea8eda2ab949"},"vehicle_type_id":"4","last_reported":1734675371,"current_range_meters":36000,"station_id":"ce4bhi12rcd13ifvqfp0","pricing_plan_id":"cebpf4jnsgd1na2vs0mg"},{"bike_id":"bf06a9eb-8c15-4b16-83ce-1a9bc0374842","system_id":"levelo_inurba_marseille","lat":43.28717,"lon":5.3999,"is_reserved":false,"is_disabled":false,"rental_uris":{"android":"levelo://app?vid=bf06a9eb-8c15-4b16-83ce-1a9bc0374842","ios":"levelo://app?vid=bf06a9eb-8c15-4b16-83ce-1a9bc0374842"},"vehicle_type_id":"4","last_reported":1734675371,"current_range_meters":30800,"station_id":"ce4bho92rcd13ifvqh3g","pricing_plan_id":"cebpf4jnsgd1na2vs0mg"},{"bike_id":"46198677-8181-458c-98d7-2b979410eb9a","system_id":"levelo_inurba_marseille","lat":43.28371,"lon":5.38628,"is_reserved":false,"is_disabled":false,"rental_uris":{"android":"levelo://app?vid=46198677-8181-458c-98d7-2b979410eb9a","ios":"levelo://app?vid=46198677-8181-458c-98d7-2b979410eb9a"},"vehicle_type_id":"4","last_reported":1734675371,"current_range_meters":36800,"station_id":"ce4bh492rcd13ifvqdvg","pricing_plan_id":"cebpf4jnsgd1na2vs0mg"},{"bike_id":"873fe369-0c50-48a9-b4aa-a5854dc957cf","system_id":"levelo_inurba_marseille","lat":43.31497,"lon":5.37323,"is_reserved":false,"is_disabled":false,"rental_uris":{"android":"levelo://app?vid=873fe369-0c50-48a9-b4aa-a5854dc957cf","ios":"levelo://app?vid=873fe369-0c50-48a9-b4aa-a5854dc957cf"},"vehicle_type_id":"4","last_reported":1734675371,"current_range_meters":10800,"station_id":"ce4bgt12rcd13ifvqcd0","pricing_plan_id":"cebpf4jnsgd1na2vs0mg"},{"bike_id":"b11dec3c-37ae-4e5f-a182-7db8571c22d2","system_id":"levelo_inurba_marseille","lat":43.29911,"lon":5.43683,"is_reserved":false,"is_disabled":false,"rental_uris":{"android":"levelo://app?vid=b11dec3c-37ae-4e5f-a182-7db8571c22d2","ios":"levelo://app?vid=b11dec3c-37ae-4e5f-a182-7db8571c22d2"},"vehicle_type_id":"4","last_reported":1734675371,"current_range_meters":34000,"station_id":"ce4bhpp2rcd13ifvqhfg","pricing_plan_id":"cebpf4jnsgd1na2vs0mg"},{"bike_id":"38cd9618-79a9-4f99-a82d-b058223cf2c2","system_id":"levelo_inurba_marseille","lat":43.31269,"lon":5.40172,"is_reserved":false,"is_disabled":false,"rental_uris":{"android":"levelo://app?vid=38cd9618-79a9-4f99-a82d-b058223cf2c2","ios":"levelo://app?vid=38cd9618-79a9-4f99-a82d-b058223cf2c2"},"vehicle_type_id":"4","last_reported":1734675371,"current_range_meters":39200,"station_id":"ce4bh092rcd13ifvqd30","pricing_plan_id":"cebpf4jnsgd1na2vs0mg"},{"bike_id":"72492ff3-d3e5-4b81-822b-1d3357339451","system_id":"levelo_inurba_marseille","lat":43.2909,"lon":5.39867,"is_reserved":false,"is_disabled":true,"rental_uris":{"android":"levelo://app?vid=72492ff3-d3e5-4b81-822b-1d3357339451","ios":"levelo://app?vid=72492ff3-d3e5-4b81-822b-1d3357339451"},"vehicle_type_id":"4","last_reported":1734675371,"current_range_meters":32800,"station_id":"","pricing_plan_id":"cebpf4jnsgd1na2vs0mg"},{"bike_id":"5ad6b2aa-0559-42ee-b90e-7d6b2e938e1d","system_id":"levelo_inurba_marseille","lat":43.29568,"lon":5.39973,"is_reserved":false,"is_disabled":false,"rental_uris":{"android":"levelo://app?vid=5ad6b2aa-0559-42ee-b90e-7d6b2e938e1d","ios":"levelo://app?vid=5ad6b2aa-0559-42ee-b90e-7d6b2e938e1d"},"vehicle_type_id":"4","last_reported":1734675371,"current_range_meters":17600,"station_id":"ce4bh312rcd13ifvqdj0","pricing_plan_id":"cebpf4jnsgd1na2vs0mg"},{"bike_id":"68cc3280-8c90-422e-b1e6-051d15979724","system_id":"levelo_inurba_marseille","lat":43.23188,"lon":5.39988,"is_reserved":false,"is_disabled":false,"rental_uris":{"android":"levelo://app?vid=68cc3280-8c90-422e-b1e6-051d15979724","ios":"levelo://app?vid=68cc3280-8c90-422e-b1e6-051d15979724"},"vehicle_type_id":"4","last_reported":1734675371,"current_range_meters":18800,"station_id":"ce4bhn12rcd13ifvqgqg","pricing_plan_id":"cebpf4jnsgd1na2vs0mg"},{"bike_id":"2f3ffe14-db03-4fbe-b9e8-6285c689975c","system_id":"levelo_inurba_marseille","lat":43.313234,"lon":5.397033,"is_reserved":false,"is_disabled":false,"rental_uris":{"android":"levelo://app?vid=2f3ffe14-db03-4fbe-b9e8-6285c689975c","ios":"levelo://app?vid=2f3ffe14-db03-4fbe-b9e8-6285c689975c"},"vehicle_type_id":"4","last_reported":1734675371,"current_range_meters":16400,"station_id":"ce4bgvp2rcd13ifvqcu0","pricing_plan_id":"cebpf4jnsgd1na2vs0mg"},{"bike_id":"c6eac602-9754-4e9d-8972-87c49c925ed4","system_id":"levelo_inurba_marseille","lat":43.27828,"lon":5.40689,"is_reserved":false,"is_disabled":false,"rental_uris":{"android":"levelo://app?vid=c6eac602-9754-4e9d-8972-87c49c925ed4","ios":"levelo://app?vid=c6eac602-9754-4e9d-8972-87c49c925ed4"},"vehicle_type_id":"4","last_reported":1734675371,"current_range_meters":38400,"station_id":"ce4bhnh2rcd13ifvqgtg","pricing_plan_id":"cebpf4jnsgd1na2vs0mg"},{"bike_id":"829137e0-4e72-4164-b199-ceb19f2bf2f1","system_id":"levelo_inurba_marseille","lat":43.30811,"lon":5.37622,"is_reserved":false,"is_disabled":false,"rental_uris":{"android":"levelo://app?vid=829137e0-4e72-4164-b199-ceb19f2bf2f1","ios":"levelo://app?vid=829137e0-4e72-4164-b199-ceb19f2bf2f1"},"vehicle_type_id":"4","last_reported":1734675371,"current_range_meters":38800,"station_id":"ce4bgv92rcd13ifvqcq0","pricing_plan_id":"cebpf4jnsgd1na2vs0mg"},{"bike_id":"d2b6250e-1a99-4d78-85b8-f81a5abc2f21","system_id":"levelo_inurba_marseille","lat":43.315256,"lon":5.380325,"is_reserved":false,"is_disabled":false,"rental_uris":{"android":"levelo://app?vid=d2b6250e-1a99-4d78-85b8-f81a5abc2f21","ios":"levelo://app?vid=d2b6250e-1a99-4d78-85b8-f81a5abc2f21"},"vehicle_type_id":"4","last_reported":1734675371,"current_range_meters":38800,"station_id":"ce4bhsp2rcd13ifvqi50","pricing_plan_id":"cebpf4jnsgd1na2vs0mg"},{"bike_id":"b3c94148-282c-49ef-bed3-a778d2e917e9","system_id":"levelo_inurba_marseille","lat":43.30163,"lon":5.38086,"is_reserved":false,"is_disabled":false,"rental_uris":{"android":"levelo://app?vid=b3c94148-282c-49ef-bed3-a778d2e917e9","ios":"levelo://app?vid=b3c94148-282c-49ef-bed3-a778d2e917e9"},"vehicle_type_id":"4","last_reported":1734675371,"current_range_meters":34000,"station_id":"ce4bgjp2rcd13ifvqbh0","pricing_plan_id":"cebpf4jnsgd1na2vs0mg"},{"bike_id":"370b1eb6-4f45-4760-84c5-106172693f5d","system_id":"levelo_inurba_marseille","lat":43.239614,"lon":5.366364,"is_reserved":false,"is_disabled":false,"rental_uris":{"android":"levelo://app?vid=370b1eb6-4f45-4760-84c5-106172693f5d","ios":"levelo://app?vid=370b1eb6-4f45-4760-84c5-106172693f5d"},"vehicle_type_id":"4","last_reported":1734675371,"current_range_meters":24800,"station_id":"ce4bhi12rcd13ifvqfp0","pricing_plan_id":"cebpf4jnsgd1na2vs0mg"},{"bike_id":"82708ae4-5cdd-4128-a268-1d1384767351","system_id":"levelo_inurba_marseille","lat":43.28037,"lon":5.41703,"is_reserved":false,"is_disabled":false,"rental_uris":{"android":"levelo://app?vid=82708ae4-5cdd-4128-a268-1d1384767351","ios":"levelo://app?vid=82708ae4-5cdd-4128-a268-1d1384767351"},"vehicle_type_id":"4","last_reported":1734675371,"current_range_meters":38800,"station_id":"ce4bho12rcd13ifvqh1g","pricing_plan_id":"cebpf4jnsgd1na2vs0mg"},{"bike_id":"782bcbf2-b7de-4b04-bebc-aaa0329dd90c","system_id":"levelo_inurba_marseille","lat":43.231949,"lon":5.355557,"is_reserved":false,"is_disabled":false,"rental_uris":{"android":"levelo://app?vid=782bcbf2-b7de-4b04-bebc-aaa0329dd90c","ios":"levelo://app?vid=782bcbf2-b7de-4b04-bebc-aaa0329dd90c"},"vehicle_type_id":"4","last_reported":1734675371,"current_range_meters":37600,"station_id":"ce4bhu92rcd13ifvqi70","pricing_plan_id":"cebpf4jnsgd1na2vs0mg"},{"bike_id":"37a27d0f-052c-4fc2-bbb9-7ae126b9828e","system_id":"levelo_inurba_marseille","lat":43.30888,"lon":5.39642,"is_reserved":false,"is_disabled":false,"rental_uris":{"android":"levelo://app?vid=37a27d0f-052c-4fc2-bbb9-7ae126b9828e","ios":"levelo://app?vid=37a27d0f-052c-4fc2-bbb9-7ae126b9828e"},"vehicle_type_id":"4","last_reported":1734675371,"current_range_meters":8800,"station_id":"ce4bh012rcd13ifvqcv0","pricing_plan_id":"cebpf4jnsgd1na2vs0mg"},{"bike_id":"67e590f7-0feb-4571-9ae2-729bb19e5be9","system_id":"levelo_inurba_marseille","lat":43.28458,"lon":5.35888,"is_reserved":false,"is_disabled":false,"rental_uris":{"android":"levelo://app?vid=67e590f7-0feb-4571-9ae2-729bb19e5be9","ios":"levelo://app?vid=67e590f7-0feb-4571-9ae2-729bb19e5be9"},"vehicle_type_id":"4","last_reported":1734675371,"current_range_meters":16400,"station_id":"ce4bhah2rcd13ifvqei0","pricing_plan_id":"cebpf4jnsgd1na2vs0mg"},{"bike_id":"dbd0b47d-ec34-4ebc-bdd0-384628bcbaf8","system_id":"levelo_inurba_marseille","lat":43.30151,"lon":5.38088,"is_reserved":false,"is_disabled":false,"rental_uris":{"android":"levelo://app?vid=dbd0b47d-ec34-4ebc-bdd0-384628bcbaf8","ios":"levelo://app?vid=dbd0b47d-ec34-4ebc-bdd0-384628bcbaf8"},"vehicle_type_id":"4","last_reported":1734675371,"current_range_meters":14800,"station_id":"ce4bgjp2rcd13ifvqbh0","pricing_plan_id":"cebpf4jnsgd1na2vs0mg"},{"bike_id":"334f42dd-a5e4-4137-bac8-2ce3b68842c1","system_id":"levelo_inurba_marseille","lat":43.31713,"lon":5.37764,"is_reserved":false,"is_disabled":false,"rental_uris":{"android":"levelo://app?vid=334f42dd-a5e4-4137-bac8-2ce3b68842c1","ios":"levelo://app?vid=334f42dd-a5e4-4137-bac8-2ce3b68842c1"},"vehicle_type_id":"4","last_reported":1734675371,"current_range_meters":14400,"station_id":"ce4bgth2rcd13ifvqch0","pricing_plan_id":"cebpf4jnsgd1na2vs0mg"},{"bike_id":"96ff88dc-8cf7-4b0f-a345-fa00220da932","system_id":"levelo_inurba_marseille","lat":43.274158,"lon":5.42401,"is_reserved":false,"is_disabled":true,"rental_uris":{"android":"levelo://app?vid=96ff88dc-8cf7-4b0f-a345-fa00220da932","ios":"levelo://app?vid=96ff88dc-8cf7-4b0f-a345-fa00220da932"},"vehicle_type_id":"4","last_reported":1734675371,"current_range_meters":0,"station_id":"","pricing_plan_id":"cebpf4jnsgd1na2vs0mg"},{"bike_id":"1897ad2d-5c02-4d9f-ba4c-937899dfbdc3","system_id":"levelo_inurba_marseille","lat":43.24394,"lon":5.37027,"is_reserved":false,"is_disabled":false,"rental_uris":{"android":"levelo://app?vid=1897ad2d-5c02-4d9f-ba4c-937899dfbdc3","ios":"levelo://app?vid=1897ad2d-5c02-4d9f-ba4c-937899dfbdc3"},"vehicle_type_id":"4","last_reported":1734675371,"current_range_meters":38800,"station_id":"ce4bhhh2rcd13ifvqfk0","pricing_plan_id":"cebpf4jnsgd1na2vs0mg"},{"bike_id":"e9e5d726-62e1-4b6b-a23c-0a4951c24076","system_id":"levelo_inurba_marseille","lat":43.24102,"lon":5.39701,"is_reserved":false,"is_disabled":true,"rental_uris":{"android":"levelo://app?vid=e9e5d726-62e1-4b6b-a23c-0a4951c24076","ios":"levelo://app?vid=e9e5d726-62e1-4b6b-a23c-0a4951c24076"},"vehicle_type_id":"4","last_reported":1734675371,"current_range_meters":0,"station_id":"","pricing_plan_id":"cebpf4jnsgd1na2vs0mg"},{"bike_id":"65beeeaa-6e76-40b2-ae80-6ac75a3b3354","system_id":"levelo_inurba_marseille","lat":43.29444,"lon":5.39743,"is_reserved":false,"is_disabled":false,"rental_uris":{"android":"levelo://app?vid=65beeeaa-6e76-40b2-ae80-6ac75a3b3354","ios":"levelo://app?vid=65beeeaa-6e76-40b2-ae80-6ac75a3b3354"},"vehicle_type_id":"4","last_reported":1734675371,"current_range_meters":38800,"station_id":"ce4bh3h2rcd13ifvqdo0","pricing_plan_id":"cebpf4jnsgd1na2vs0mg"},{"bike_id":"e2d5bb68-b78d-4d1a-9d46-f9895ac2b623","system_id":"levelo_inurba_marseille","lat":43.28458,"lon":5.35884,"is_reserved":false,"is_disabled":false,"rental_uris":{"android":"levelo://app?vid=e2d5bb68-b78d-4d1a-9d46-f9895ac2b623","ios":"levelo://app?vid=e2d5bb68-b78d-4d1a-9d46-f9895ac2b623"},"vehicle_type_id":"4","last_reported":1734675371,"current_range_meters":28400,"station_id":"ce4bhah2rcd13ifvqei0","pricing_plan_id":"cebpf4jnsgd1na2vs0mg"},{"bike_id":"d544ae98-0128-4d06-9321-3538d08c4bd5","system_id":"levelo_inurba_marseille","lat":43.27907,"lon":5.38011,"is_reserved":false,"is_disabled":false,"rental_uris":{"android":"levelo://app?vid=d544ae98-0128-4d06-9321-3538d08c4bd5","ios":"levelo://app?vid=d544ae98-0128-4d06-9321-3538d08c4bd5"},"vehicle_type_id":"4","last_reported":1734675371,"current_range_meters":38800,"station_id":"ce4bhf92rcd13ifvqf50","pricing_plan_id":"cebpf4jnsgd1na2vs0mg"},{"bike_id":"76149aba-788f-404a-9c6c-040f61c91c7a","system_id":"levelo_inurba_marseille","lat":43.2318,"lon":5.39993,"is_reserved":false,"is_disabled":false,"rental_uris":{"android":"levelo://app?vid=76149aba-788f-404a-9c6c-040f61c91c7a","ios":"levelo://app?vid=76149aba-788f-404a-9c6c-040f61c91c7a"},"vehicle_type_id":"4","last_reported":1734675371,"current_range_meters":31200,"station_id":"ce4bhn12rcd13ifvqgqg","pricing_plan_id":"cebpf4jnsgd1na2vs0mg"},{"bike_id":"b1a2df37-d29f-4953-a6b3-eae5e781ec46","system_id":"levelo_inurba_marseille","lat":43.30329,"lon":5.36909,"is_reserved":false,"is_disabled":false,"rental_uris":{"android":"levelo://app?vid=b1a2df37-d29f-4953-a6b3-eae5e781ec46","ios":"levelo://app?vid=b1a2df37-d29f-4953-a6b3-eae5e781ec46"},"vehicle_type_id":"4","last_reported":1734675371,"current_range_meters":38000,"station_id":"ce4bgqh2rcd13ifvqc5g","pricing_plan_id":"cebpf4jnsgd1na2vs0mg"},{"bike_id":"953976a9-1efe-4cab-b65b-47af6062dd40","system_id":"levelo_inurba_marseille","lat":43.29256,"lon":5.40117,"is_reserved":false,"is_disabled":false,"rental_uris":{"android":"levelo://app?vid=953976a9-1efe-4cab-b65b-47af6062dd40","ios":"levelo://app?vid=953976a9-1efe-4cab-b65b-47af6062dd40"},"vehicle_type_id":"4","last_reported":1734675371,"current_range_meters":38800,"station_id":"ce4bh312rcd13ifvqdk0","pricing_plan_id":"cebpf4jnsgd1na2vs0mg"},{"bike_id":"7d3284d5-3f82-4c96-9ecc-ae4492d2655a","system_id":"levelo_inurba_marseille","lat":43.33021,"lon":5.39026,"is_reserved":false,"is_disabled":false,"rental_uris":{"android":"levelo://app?vid=7d3284d5-3f82-4c96-9ecc-ae4492d2655a","ios":"levelo://app?vid=7d3284d5-3f82-4c96-9ecc-ae4492d2655a"},"vehicle_type_id":"4","last_reported":1734675371,"current_range_meters":38800,"station_id":"ce4bhr92rcd13ifvqhrg","pricing_plan_id":"cebpf4jnsgd1na2vs0mg"},{"bike_id":"330bf880-e1f5-4f4a-b329-f0f879268631","system_id":"levelo_inurba_marseille","lat":43.28859,"lon":5.39325,"is_reserved":false,"is_disabled":true,"rental_uris":{"android":"levelo://app?vid=330bf880-e1f5-4f4a-b329-f0f879268631","ios":"levelo://app?vid=330bf880-e1f5-4f4a-b329-f0f879268631"},"vehicle_type_id":"4","last_reported":1734675371,"current_range_meters":16400,"station_id":"ce4bh2p2rcd13ifvqdi0","pricing_plan_id":"cebpf4jnsgd1na2vs0mg"},{"bike_id":"44127e4e-8e84-4a38-89f7-8f4efb63f7a5","system_id":"levelo_inurba_marseille","lat":43.31202,"lon":5.3676,"is_reserved":false,"is_disabled":true,"rental_uris":{"android":"levelo://app?vid=44127e4e-8e84-4a38-89f7-8f4efb63f7a5","ios":"levelo://app?vid=44127e4e-8e84-4a38-89f7-8f4efb63f7a5"},"vehicle_type_id":"4","last_reported":1734675371,"current_range_meters":0,"station_id":"","pricing_plan_id":"cebpf4jnsgd1na2vs0mg"},{"bike_id":"4c5cdf28-9f8a-48e8-9806-9dada88c6695","system_id":"levelo_inurba_marseille","lat":43.2846,"lon":5.35889,"is_reserved":false,"is_disabled":false,"rental_uris":{"android":"levelo://app?vid=4c5cdf28-9f8a-48e8-9806-9dada88c6695","ios":"levelo://app?vid=4c5cdf28-9f8a-48e8-9806-9dada88c6695"},"vehicle_type_id":"4","last_reported":1734675371,"current_range_meters":39200,"station_id":"ce4bhah2rcd13ifvqei0","pricing_plan_id":"cebpf4jnsgd1na2vs0mg"},{"bike_id":"97cab776-4259-40ee-b032-772a62a22e75","system_id":"levelo_inurba_marseille","lat":43.30795,"lon":5.38159,"is_reserved":false,"is_disabled":false,"rental_uris":{"android":"levelo://app?vid=97cab776-4259-40ee-b032-772a62a22e75","ios":"levelo://app?vid=97cab776-4259-40ee-b032-772a62a22e75"},"vehicle_type_id":"4","last_reported":1734675371,"current_range_meters":26800,"station_id":"ce4bgt12rcd13ifvqce0","pricing_plan_id":"cebpf4jnsgd1na2vs0mg"},{"bike_id":"60c24abf-7634-4c1d-be8e-3905917c0f35","system_id":"levelo_inurba_marseille","lat":43.26055,"lon":5.39399,"is_reserved":false,"is_disabled":false,"rental_uris":{"android":"levelo://app?vid=60c24abf-7634-4c1d-be8e-3905917c0f35","ios":"levelo://app?vid=60c24abf-7634-4c1d-be8e-3905917c0f35"},"vehicle_type_id":"4","last_reported":1734675371,"current_range_meters":26800,"station_id":"ce4bhh92rcd13ifvqfj0","pricing_plan_id":"cebpf4jnsgd1na2vs0mg"},{"bike_id":"672fcf6f-8699-4143-9c5f-2e6d1ee3aa80","system_id":"levelo_inurba_marseille","lat":43.305624,"lon":5.366997,"is_reserved":false,"is_disabled":true,"rental_uris":{"android":"levelo://app?vid=672fcf6f-8699-4143-9c5f-2e6d1ee3aa80","ios":"levelo://app?vid=672fcf6f-8699-4143-9c5f-2e6d1ee3aa80"},"vehicle_type_id":"4","last_reported":1734675371,"current_range_meters":37600,"station_id":"ce4bgrp2rcd13ifvqc9g","pricing_plan_id":"cebpf4jnsgd1na2vs0mg"},{"bike_id":"ff1810ea-7920-431d-a554-3cf458736fb3","system_id":"levelo_inurba_marseille","lat":43.2757,"lon":5.38419,"is_reserved":false,"is_disabled":false,"rental_uris":{"android":"levelo://app?vid=ff1810ea-7920-431d-a554-3cf458736fb3","ios":"levelo://app?vid=ff1810ea-7920-431d-a554-3cf458736fb3"},"vehicle_type_id":"4","last_reported":1734675371,"current_range_meters":8400,"station_id":"ce4bhh92rcd13ifvqfi0","pricing_plan_id":"cebpf4jnsgd1na2vs0mg"},{"bike_id":"fa450f79-0071-470a-a8a0-47379ffcc822","system_id":"levelo_inurba_marseille","lat":43.25088,"lon":5.39526,"is_reserved":false,"is_disabled":false,"rental_uris":{"android":"levelo://app?vid=fa450f79-0071-470a-a8a0-47379ffcc822","ios":"levelo://app?vid=fa450f79-0071-470a-a8a0-47379ffcc822"},"vehicle_type_id":"4","last_reported":1734675371,"current_range_meters":12000,"station_id":"ce4bhm12rcd13ifvqgkg","pricing_plan_id":"cebpf4jnsgd1na2vs0mg"},{"bike_id":"53225117-64cd-44e0-b31e-41b53bb91e3d","system_id":"levelo_inurba_marseille","lat":43.29268,"lon":5.40124,"is_reserved":false,"is_disabled":false,"rental_uris":{"android":"levelo://app?vid=53225117-64cd-44e0-b31e-41b53bb91e3d","ios":"levelo://app?vid=53225117-64cd-44e0-b31e-41b53bb91e3d"},"vehicle_type_id":"4","last_reported":1734675371,"current_range_meters":34800,"station_id":"ce4bh312rcd13ifvqdk0","pricing_plan_id":"cebpf4jnsgd1na2vs0mg"},{"bike_id":"4f73da72-222a-4c2d-b874-d3da61ddef3b","system_id":"levelo_inurba_marseille","lat":43.30468,"lon":5.37915,"is_reserved":false,"is_disabled":false,"rental_uris":{"android":"levelo://app?vid=4f73da72-222a-4c2d-b874-d3da61ddef3b","ios":"levelo://app?vid=4f73da72-222a-4c2d-b874-d3da61ddef3b"},"vehicle_type_id":"4","last_reported":1734675371,"current_range_meters":38800,"station_id":"ce4bgup2rcd13ifvqcn0","pricing_plan_id":"cebpf4jnsgd1na2vs0mg"},{"bike_id":"1ed431a0-c404-460c-8b06-9b7816088b4f","system_id":"levelo_inurba_marseille","lat":43.323396,"lon":5.406275,"is_reserved":false,"is_disabled":false,"rental_uris":{"android":"levelo://app?vid=1ed431a0-c404-460c-8b06-9b7816088b4f","ios":"levelo://app?vid=1ed431a0-c404-460c-8b06-9b7816088b4f"},"vehicle_type_id":"4","last_reported":1734675371,"current_range_meters":38800,"station_id":"ce4bhq92rcd13ifvqhjg","pricing_plan_id":"cebpf4jnsgd1na2vs0mg"},{"bike_id":"88d0fca1-50cd-440e-a583-785fe0c07914","system_id":"levelo_inurba_marseille","lat":43.28516,"lon":5.37895,"is_reserved":false,"is_disabled":false,"rental_uris":{"android":"levelo://app?vid=88d0fca1-50cd-440e-a583-785fe0c07914","ios":"levelo://app?vid=88d0fca1-50cd-440e-a583-785fe0c07914"},"vehicle_type_id":"4","last_reported":1734675371,"current_range_meters":6400,"station_id":"","pricing_plan_id":"cebpf4jnsgd1na2vs0mg"},{"bike_id":"62159b96-70de-4225-a341-fe8203f1c374","system_id":"levelo_inurba_marseille","lat":43.28957,"lon":5.39627,"is_reserved":false,"is_disabled":true,"rental_uris":{"android":"levelo://app?vid=62159b96-70de-4225-a341-fe8203f1c374","ios":"levelo://app?vid=62159b96-70de-4225-a341-fe8203f1c374"},"vehicle_type_id":"4","last_reported":1734675371,"current_range_meters":32800,"station_id":"ce4bh3h2rcd13ifvqdn0","pricing_plan_id":"cebpf4jnsgd1na2vs0mg"},{"bike_id":"2dacc22b-21f2-457f-adbd-cb97739ce1fb","system_id":"levelo_inurba_marseille","lat":43.30809,"lon":5.38154,"is_reserved":false,"is_disabled":false,"rental_uris":{"android":"levelo://app?vid=2dacc22b-21f2-457f-adbd-cb97739ce1fb","ios":"levelo://app?vid=2dacc22b-21f2-457f-adbd-cb97739ce1fb"},"vehicle_type_id":"4","last_reported":1734675371,"current_range_meters":38800,"station_id":"ce4bgt12rcd13ifvqce0","pricing_plan_id":"cebpf4jnsgd1na2vs0mg"},{"bike_id":"b2e19a8e-8e33-4ed1-b6d7-38b21066e137","system_id":"levelo_inurba_marseille","lat":43.30471,"lon":5.379,"is_reserved":false,"is_disabled":false,"rental_uris":{"android":"levelo://app?vid=b2e19a8e-8e33-4ed1-b6d7-38b21066e137","ios":"levelo://app?vid=b2e19a8e-8e33-4ed1-b6d7-38b21066e137"},"vehicle_type_id":"4","last_reported":1734675371,"current_range_meters":38400,"station_id":"ce4bgup2rcd13ifvqcn0","pricing_plan_id":"cebpf4jnsgd1na2vs0mg"},{"bike_id":"6886b48a-7daa-4176-bd66-d74cdac84460","system_id":"levelo_inurba_marseille","lat":43.27797,"lon":5.39242,"is_reserved":false,"is_disabled":false,"rental_uris":{"android":"levelo://app?vid=6886b48a-7daa-4176-bd66-d74cdac84460","ios":"levelo://app?vid=6886b48a-7daa-4176-bd66-d74cdac84460"},"vehicle_type_id":"4","last_reported":1734675371,"current_range_meters":22400,"station_id":"ce4bhjp2rcd13ifvqga0","pricing_plan_id":"cebpf4jnsgd1na2vs0mg"},{"bike_id":"828f29bb-8a05-4746-9fe7-aa1022149514","system_id":"levelo_inurba_marseille","lat":43.33612,"lon":5.41036,"is_reserved":false,"is_disabled":true,"rental_uris":{"android":"levelo://app?vid=828f29bb-8a05-4746-9fe7-aa1022149514","ios":"levelo://app?vid=828f29bb-8a05-4746-9fe7-aa1022149514"},"vehicle_type_id":"4","last_reported":1734675371,"current_range_meters":800,"station_id":"ce4bhqh2rcd13ifvqhmg","pricing_plan_id":"cebpf4jnsgd1na2vs0mg"},{"bike_id":"ba6d6cc5-18f5-44d3-b547-a7f751edf6c1","system_id":"levelo_inurba_marseille","lat":43.3089,"lon":5.37199,"is_reserved":false,"is_disabled":false,"rental_uris":{"android":"levelo://app?vid=ba6d6cc5-18f5-44d3-b547-a7f751edf6c1","ios":"levelo://app?vid=ba6d6cc5-18f5-44d3-b547-a7f751edf6c1"},"vehicle_type_id":"4","last_reported":1734675371,"current_range_meters":24400,"station_id":"ce4bguh2rcd13ifvqckg","pricing_plan_id":"cebpf4jnsgd1na2vs0mg"},{"bike_id":"c8a9df44-c9a1-43c7-addd-475d94f4c5ab","system_id":"levelo_inurba_marseille","lat":43.27317,"lon":5.39097,"is_reserved":false,"is_disabled":true,"rental_uris":{"android":"levelo://app?vid=c8a9df44-c9a1-43c7-addd-475d94f4c5ab","ios":"levelo://app?vid=c8a9df44-c9a1-43c7-addd-475d94f4c5ab"},"vehicle_type_id":"4","last_reported":1734675371,"current_range_meters":37600,"station_id":"ce4bhgp2rcd13ifvqfe0","pricing_plan_id":"cebpf4jnsgd1na2vs0mg"},{"bike_id":"eeb165cd-0850-4135-b307-a7a2de607d7b","system_id":"levelo_inurba_marseille","lat":43.28609,"lon":5.37067,"is_reserved":false,"is_disabled":false,"rental_uris":{"android":"levelo://app?vid=eeb165cd-0850-4135-b307-a7a2de607d7b","ios":"levelo://app?vid=eeb165cd-0850-4135-b307-a7a2de607d7b"},"vehicle_type_id":"4","last_reported":1734675371,"current_range_meters":38000,"station_id":"ce4bht12rcd13ifvqi60","pricing_plan_id":"cebpf4jnsgd1na2vs0mg"},{"bike_id":"2b532d77-94d9-4ea3-bbc7-758726074f05","system_id":"levelo_inurba_marseille","lat":43.29443,"lon":5.39749,"is_reserved":false,"is_disabled":false,"rental_uris":{"android":"levelo://app?vid=2b532d77-94d9-4ea3-bbc7-758726074f05","ios":"levelo://app?vid=2b532d77-94d9-4ea3-bbc7-758726074f05"},"vehicle_type_id":"4","last_reported":1734675371,"current_range_meters":36400,"station_id":"ce4bh3h2rcd13ifvqdo0","pricing_plan_id":"cebpf4jnsgd1na2vs0mg"},{"bike_id":"bde16004-2a0c-4fc8-acdd-f812d033bf70","system_id":"levelo_inurba_marseille","lat":43.26065,"lon":5.39388,"is_reserved":false,"is_disabled":false,"rental_uris":{"android":"levelo://app?vid=bde16004-2a0c-4fc8-acdd-f812d033bf70","ios":"levelo://app?vid=bde16004-2a0c-4fc8-acdd-f812d033bf70"},"vehicle_type_id":"4","last_reported":1734675371,"current_range_meters":9200,"station_id":"ce4bhh92rcd13ifvqfj0","pricing_plan_id":"cebpf4jnsgd1na2vs0mg"},{"bike_id":"a2ffdd54-5331-4e30-b1a2-d9d954b150f4","system_id":"levelo_inurba_marseille","lat":43.25724,"lon":5.41107,"is_reserved":false,"is_disabled":false,"rental_uris":{"android":"levelo://app?vid=a2ffdd54-5331-4e30-b1a2-d9d954b150f4","ios":"levelo://app?vid=a2ffdd54-5331-4e30-b1a2-d9d954b150f4"},"vehicle_type_id":"4","last_reported":1734675371,"current_range_meters":30400,"station_id":"ce4bhkp2rcd13ifvqgd0","pricing_plan_id":"cebpf4jnsgd1na2vs0mg"},{"bike_id":"8f4264b7-e591-4639-b93d-9d277d055e89","system_id":"levelo_inurba_marseille","lat":43.287,"lon":5.37949,"is_reserved":false,"is_disabled":false,"rental_uris":{"android":"levelo://app?vid=8f4264b7-e591-4639-b93d-9d277d055e89","ios":"levelo://app?vid=8f4264b7-e591-4639-b93d-9d277d055e89"},"vehicle_type_id":"4","last_reported":1734675371,"current_range_meters":11600,"station_id":"ce4bh9p2rcd13ifvqec0","pricing_plan_id":"cebpf4jnsgd1na2vs0mg"},{"bike_id":"8feb334f-b96d-4160-ba78-1811ff906a49","system_id":"levelo_inurba_marseille","lat":43.30307,"lon":5.3691,"is_reserved":false,"is_disabled":true,"rental_uris":{"android":"levelo://app?vid=8feb334f-b96d-4160-ba78-1811ff906a49","ios":"levelo://app?vid=8feb334f-b96d-4160-ba78-1811ff906a49"},"vehicle_type_id":"4","last_reported":1734675371,"current_range_meters":34800,"station_id":"ce4bgqh2rcd13ifvqc5g","pricing_plan_id":"cebpf4jnsgd1na2vs0mg"},{"bike_id":"df609213-4f03-423d-a027-9336b146a373","system_id":"levelo_inurba_marseille","lat":43.27574,"lon":5.3841,"is_reserved":false,"is_disabled":false,"rental_uris":{"android":"levelo://app?vid=df609213-4f03-423d-a027-9336b146a373","ios":"levelo://app?vid=df609213-4f03-423d-a027-9336b146a373"},"vehicle_type_id":"4","last_reported":1734675371,"current_range_meters":38800,"station_id":"ce4bhh92rcd13ifvqfi0","pricing_plan_id":"cebpf4jnsgd1na2vs0mg"},{"bike_id":"dbee7c97-fde6-4a28-acc8-a36a3f552bf4","system_id":"levelo_inurba_marseille","lat":43.32293,"lon":5.38253,"is_reserved":false,"is_disabled":false,"rental_uris":{"android":"levelo://app?vid=dbee7c97-fde6-4a28-acc8-a36a3f552bf4","ios":"levelo://app?vid=dbee7c97-fde6-4a28-acc8-a36a3f552bf4"},"vehicle_type_id":"4","last_reported":1734675371,"current_range_meters":32400,"station_id":"ce4bhr12rcd13ifvqhqg","pricing_plan_id":"cebpf4jnsgd1na2vs0mg"},{"bike_id":"a2556b02-a46f-40fc-83fb-d4423cb32ea6","system_id":"levelo_inurba_marseille","lat":43.28102,"lon":5.37858,"is_reserved":false,"is_disabled":false,"rental_uris":{"android":"levelo://app?vid=a2556b02-a46f-40fc-83fb-d4423cb32ea6","ios":"levelo://app?vid=a2556b02-a46f-40fc-83fb-d4423cb32ea6"},"vehicle_type_id":"4","last_reported":1734675371,"current_range_meters":28000,"station_id":"ce4bha12rcd13ifvqee0","pricing_plan_id":"cebpf4jnsgd1na2vs0mg"},{"bike_id":"b6275950-f469-4e2f-b75e-19cc4edf958f","system_id":"levelo_inurba_marseille","lat":43.28106,"lon":5.37839,"is_reserved":false,"is_disabled":false,"rental_uris":{"android":"levelo://app?vid=b6275950-f469-4e2f-b75e-19cc4edf958f","ios":"levelo://app?vid=b6275950-f469-4e2f-b75e-19cc4edf958f"},"vehicle_type_id":"4","last_reported":1734675371,"current_range_meters":38800,"station_id":"ce4bha12rcd13ifvqee0","pricing_plan_id":"cebpf4jnsgd1na2vs0mg"},{"bike_id":"30cf218e-0565-4b4d-b831-6b6e7547fc40","system_id":"levelo_inurba_marseille","lat":43.26806,"lon":5.40282,"is_reserved":false,"is_disabled":false,"rental_uris":{"android":"levelo://app?vid=30cf218e-0565-4b4d-b831-6b6e7547fc40","ios":"levelo://app?vid=30cf218e-0565-4b4d-b831-6b6e7547fc40"},"vehicle_type_id":"4","last_reported":1734675371,"current_range_meters":38400,"station_id":"ce501612rcd8frsf0b60","pricing_plan_id":"cebpf4jnsgd1na2vs0mg"},{"bike_id":"1523dc94-0891-4575-beed-3fcdab759697","system_id":"levelo_inurba_marseille","lat":43.27675,"lon":5.389,"is_reserved":false,"is_disabled":false,"rental_uris":{"android":"levelo://app?vid=1523dc94-0891-4575-beed-3fcdab759697","ios":"levelo://app?vid=1523dc94-0891-4575-beed-3fcdab759697"},"vehicle_type_id":"4","last_reported":1734675371,"current_range_meters":21600,"station_id":"ce4bhi12rcd13ifvqfo0","pricing_plan_id":"cebpf4jnsgd1na2vs0mg"},{"bike_id":"cf2e7baf-9e0e-4bd4-8444-ec58980d7b80","system_id":"levelo_inurba_marseille","lat":43.29294,"lon":5.401,"is_reserved":false,"is_disabled":false,"rental_uris":{"android":"levelo://app?vid=cf2e7baf-9e0e-4bd4-8444-ec58980d7b80","ios":"levelo://app?vid=cf2e7baf-9e0e-4bd4-8444-ec58980d7b80"},"vehicle_type_id":"4","last_reported":1734675371,"current_range_meters":38000,"station_id":"ce4bh312rcd13ifvqdk0","pricing_plan_id":"cebpf4jnsgd1na2vs0mg"},{"bike_id":"9a06eca5-8061-4c0a-9595-d63a5bc30c6a","system_id":"levelo_inurba_marseille","lat":43.26684,"lon":5.38264,"is_reserved":false,"is_disabled":false,"rental_uris":{"android":"levelo://app?vid=9a06eca5-8061-4c0a-9595-d63a5bc30c6a","ios":"levelo://app?vid=9a06eca5-8061-4c0a-9595-d63a5bc30c6a"},"vehicle_type_id":"4","last_reported":1734675371,"current_range_meters":38000,"station_id":"ce4bhg92rcd13ifvqf90","pricing_plan_id":"cebpf4jnsgd1na2vs0mg"},{"bike_id":"a7bd7bc1-c16b-4abb-8be9-d1f3aeaacda7","system_id":"levelo_inurba_marseille","lat":43.27209,"lon":5.39186,"is_reserved":false,"is_disabled":false,"rental_uris":{"android":"levelo://app?vid=a7bd7bc1-c16b-4abb-8be9-d1f3aeaacda7","ios":"levelo://app?vid=a7bd7bc1-c16b-4abb-8be9-d1f3aeaacda7"},"vehicle_type_id":"4","last_reported":1734675371,"current_range_meters":4000,"station_id":"ce4bhhp2rcd13ifvqfm0","pricing_plan_id":"cebpf4jnsgd1na2vs0mg"},{"bike_id":"d0a27a7a-9419-422d-a3d3-16b8293896ad","system_id":"levelo_inurba_marseille","lat":43.2815,"lon":5.42643,"is_reserved":false,"is_disabled":false,"rental_uris":{"android":"levelo://app?vid=d0a27a7a-9419-422d-a3d3-16b8293896ad","ios":"levelo://app?vid=d0a27a7a-9419-422d-a3d3-16b8293896ad"},"vehicle_type_id":"4","last_reported":1734675371,"current_range_meters":33200,"station_id":"ce4bhnh2rcd13ifvqgug","pricing_plan_id":"cebpf4jnsgd1na2vs0mg"},{"bike_id":"8417b700-ae98-45dd-8f9e-a85d1d752cc3","system_id":"levelo_inurba_marseille","lat":43.26056,"lon":5.39403,"is_reserved":false,"is_disabled":false,"rental_uris":{"android":"levelo://app?vid=8417b700-ae98-45dd-8f9e-a85d1d752cc3","ios":"levelo://app?vid=8417b700-ae98-45dd-8f9e-a85d1d752cc3"},"vehicle_type_id":"4","last_reported":1734675371,"current_range_meters":38800,"station_id":"ce4bhh92rcd13ifvqfj0","pricing_plan_id":"cebpf4jnsgd1na2vs0mg"},{"bike_id":"27238c48-0e58-4f0d-822b-5e122cd4e6c8","system_id":"levelo_inurba_marseille","lat":43.29534,"lon":5.39052,"is_reserved":false,"is_disabled":false,"rental_uris":{"android":"levelo://app?vid=27238c48-0e58-4f0d-822b-5e122cd4e6c8","ios":"levelo://app?vid=27238c48-0e58-4f0d-822b-5e122cd4e6c8"},"vehicle_type_id":"4","last_reported":1734675371,"current_range_meters":38800,"station_id":"ce4bh3p2rcd13ifvqdp0","pricing_plan_id":"cebpf4jnsgd1na2vs0mg"},{"bike_id":"9d5bb083-6232-4085-bf47-80f689b54900","system_id":"levelo_inurba_marseille","lat":43.278218,"lon":5.392034,"is_reserved":false,"is_disabled":false,"rental_uris":{"android":"levelo://app?vid=9d5bb083-6232-4085-bf47-80f689b54900","ios":"levelo://app?vid=9d5bb083-6232-4085-bf47-80f689b54900"},"vehicle_type_id":"4","last_reported":1734675371,"current_range_meters":32400,"station_id":"ce4bhjp2rcd13ifvqga0","pricing_plan_id":"cebpf4jnsgd1na2vs0mg"},{"bike_id":"17b2d2b0-9855-46b4-a478-0bd9c7277056","system_id":"levelo_inurba_marseille","lat":43.30786,"lon":5.37656,"is_reserved":false,"is_disabled":false,"rental_uris":{"android":"levelo://app?vid=17b2d2b0-9855-46b4-a478-0bd9c7277056","ios":"levelo://app?vid=17b2d2b0-9855-46b4-a478-0bd9c7277056"},"vehicle_type_id":"4","last_reported":1734675371,"current_range_meters":31200,"station_id":"ce4bgv92rcd13ifvqcq0","pricing_plan_id":"cebpf4jnsgd1na2vs0mg"},{"bike_id":"4828f3b9-c720-46e9-9ac1-272643fdf3d6","system_id":"levelo_inurba_marseille","lat":43.28013,"lon":5.36922,"is_reserved":false,"is_disabled":false,"rental_uris":{"android":"levelo://app?vid=4828f3b9-c720-46e9-9ac1-272643fdf3d6","ios":"levelo://app?vid=4828f3b9-c720-46e9-9ac1-272643fdf3d6"},"vehicle_type_id":"4","last_reported":1734675371,"current_range_meters":28000,"station_id":"ce4bha12rcd13ifvqef0","pricing_plan_id":"cebpf4jnsgd1na2vs0mg"},{"bike_id":"d8cb74fb-2e66-4676-9372-3a68dd91f521","system_id":"levelo_inurba_marseille","lat":43.26943,"lon":5.40253,"is_reserved":false,"is_disabled":false,"rental_uris":{"android":"levelo://app?vid=d8cb74fb-2e66-4676-9372-3a68dd91f521","ios":"levelo://app?vid=d8cb74fb-2e66-4676-9372-3a68dd91f521"},"vehicle_type_id":"4","last_reported":1734675371,"current_range_meters":36000,"station_id":"cjm6bp8fraef2m0cb0m0","pricing_plan_id":"cebpf4jnsgd1na2vs0mg"},{"bike_id":"01ac8352-e33d-4bd4-bb93-d7381b658f36","system_id":"levelo_inurba_marseille","lat":43.32362,"lon":5.38878,"is_reserved":false,"is_disabled":false,"rental_uris":{"android":"levelo://app?vid=01ac8352-e33d-4bd4-bb93-d7381b658f36","ios":"levelo://app?vid=01ac8352-e33d-4bd4-bb93-d7381b658f36"},"vehicle_type_id":"4","last_reported":1734675371,"current_range_meters":10000,"station_id":"ce4bhqp2rcd13ifvqhog","pricing_plan_id":"cebpf4jnsgd1na2vs0mg"},{"bike_id":"f0598eeb-6636-4202-bc3a-c35fdb37b2a3","system_id":"levelo_inurba_marseille","lat":43.30156,"lon":5.3809,"is_reserved":false,"is_disabled":false,"rental_uris":{"android":"levelo://app?vid=f0598eeb-6636-4202-bc3a-c35fdb37b2a3","ios":"levelo://app?vid=f0598eeb-6636-4202-bc3a-c35fdb37b2a3"},"vehicle_type_id":"4","last_reported":1734675371,"current_range_meters":23200,"station_id":"ce4bgjp2rcd13ifvqbh0","pricing_plan_id":"cebpf4jnsgd1na2vs0mg"},{"bike_id":"29218885-1c50-43e0-a925-2ca4c134e5a9","system_id":"levelo_inurba_marseille","lat":43.30922,"lon":5.40163,"is_reserved":false,"is_disabled":false,"rental_uris":{"android":"levelo://app?vid=29218885-1c50-43e0-a925-2ca4c134e5a9","ios":"levelo://app?vid=29218885-1c50-43e0-a925-2ca4c134e5a9"},"vehicle_type_id":"4","last_reported":1734675371,"current_range_meters":39200,"station_id":"ce4bgvp2rcd13ifvqct0","pricing_plan_id":"cebpf4jnsgd1na2vs0mg"},{"bike_id":"35861a55-57b4-4559-b653-1c0df57e52e5","system_id":"levelo_inurba_marseille","lat":43.286395,"lon":5.370905,"is_reserved":false,"is_disabled":false,"rental_uris":{"android":"levelo://app?vid=35861a55-57b4-4559-b653-1c0df57e52e5","ios":"levelo://app?vid=35861a55-57b4-4559-b653-1c0df57e52e5"},"vehicle_type_id":"4","last_reported":1734675371,"current_range_meters":24800,"station_id":"ce4bht12rcd13ifvqi60","pricing_plan_id":"cebpf4jnsgd1na2vs0mg"},{"bike_id":"cab86ff4-25c9-48f7-8191-c68aca23ca9e","system_id":"levelo_inurba_marseille","lat":43.31323,"lon":5.39711,"is_reserved":false,"is_disabled":false,"rental_uris":{"android":"levelo://app?vid=cab86ff4-25c9-48f7-8191-c68aca23ca9e","ios":"levelo://app?vid=cab86ff4-25c9-48f7-8191-c68aca23ca9e"},"vehicle_type_id":"4","last_reported":1734675371,"current_range_meters":27600,"station_id":"ce4bgvp2rcd13ifvqcu0","pricing_plan_id":"cebpf4jnsgd1na2vs0mg"},{"bike_id":"e11ff63e-0717-486d-a2a1-93b56a446cc0","system_id":"levelo_inurba_marseille","lat":43.28569,"lon":5.39496,"is_reserved":false,"is_disabled":false,"rental_uris":{"android":"levelo://app?vid=e11ff63e-0717-486d-a2a1-93b56a446cc0","ios":"levelo://app?vid=e11ff63e-0717-486d-a2a1-93b56a446cc0"},"vehicle_type_id":"4","last_reported":1734675371,"current_range_meters":37600,"station_id":"ce4bh292rcd13ifvqdg0","pricing_plan_id":"cebpf4jnsgd1na2vs0mg"},{"bike_id":"6dd7ced6-a614-45f4-afdd-d21affa34a4d","system_id":"levelo_inurba_marseille","lat":43.28459,"lon":5.35883,"is_reserved":false,"is_disabled":false,"rental_uris":{"android":"levelo://app?vid=6dd7ced6-a614-45f4-afdd-d21affa34a4d","ios":"levelo://app?vid=6dd7ced6-a614-45f4-afdd-d21affa34a4d"},"vehicle_type_id":"4","last_reported":1734675371,"current_range_meters":35200,"station_id":"ce4bhah2rcd13ifvqei0","pricing_plan_id":"cebpf4jnsgd1na2vs0mg"},{"bike_id":"1908cece-809f-4547-a252-1da450c21f63","system_id":"levelo_inurba_marseille","lat":43.27811,"lon":5.40714,"is_reserved":false,"is_disabled":false,"rental_uris":{"android":"levelo://app?vid=1908cece-809f-4547-a252-1da450c21f63","ios":"levelo://app?vid=1908cece-809f-4547-a252-1da450c21f63"},"vehicle_type_id":"4","last_reported":1734675371,"current_range_meters":9200,"station_id":"ce4bhnh2rcd13ifvqgtg","pricing_plan_id":"cebpf4jnsgd1na2vs0mg"},{"bike_id":"1a68502e-0c82-4ff7-adaa-b1f1c834aa3c","system_id":"levelo_inurba_marseille","lat":43.29947,"lon":5.37486,"is_reserved":false,"is_disabled":false,"rental_uris":{"android":"levelo://app?vid=1a68502e-0c82-4ff7-adaa-b1f1c834aa3c","ios":"levelo://app?vid=1a68502e-0c82-4ff7-adaa-b1f1c834aa3c"},"vehicle_type_id":"4","last_reported":1734675371,"current_range_meters":38800,"station_id":"ce4bgjh2rcd13ifvqbg0","pricing_plan_id":"cebpf4jnsgd1na2vs0mg"},{"bike_id":"483e2d7b-f381-4bb0-980b-5f84f21e758c","system_id":"levelo_inurba_marseille","lat":43.308865,"lon":5.371947,"is_reserved":false,"is_disabled":false,"rental_uris":{"android":"levelo://app?vid=483e2d7b-f381-4bb0-980b-5f84f21e758c","ios":"levelo://app?vid=483e2d7b-f381-4bb0-980b-5f84f21e758c"},"vehicle_type_id":"4","last_reported":1734675371,"current_range_meters":34000,"station_id":"ce4bguh2rcd13ifvqckg","pricing_plan_id":"cebpf4jnsgd1na2vs0mg"},{"bike_id":"0fb9cb1f-b409-436c-9807-5e6abde7a9a2","system_id":"levelo_inurba_marseille","lat":43.27209,"lon":5.39184,"is_reserved":false,"is_disabled":false,"rental_uris":{"android":"levelo://app?vid=0fb9cb1f-b409-436c-9807-5e6abde7a9a2","ios":"levelo://app?vid=0fb9cb1f-b409-436c-9807-5e6abde7a9a2"},"vehicle_type_id":"4","last_reported":1734675371,"current_range_meters":30000,"station_id":"ce4bhhp2rcd13ifvqfm0","pricing_plan_id":"cebpf4jnsgd1na2vs0mg"},{"bike_id":"ebd47528-01fd-4c50-a324-ec3f739871b7","system_id":"levelo_inurba_marseille","lat":43.25109,"lon":5.40329,"is_reserved":false,"is_disabled":false,"rental_uris":{"android":"levelo://app?vid=ebd47528-01fd-4c50-a324-ec3f739871b7","ios":"levelo://app?vid=ebd47528-01fd-4c50-a324-ec3f739871b7"},"vehicle_type_id":"4","last_reported":1734675371,"current_range_meters":38800,"station_id":"ce4bhlh2rcd13ifvqgig","pricing_plan_id":"cebpf4jnsgd1na2vs0mg"},{"bike_id":"54e70cf4-747d-46d5-b82a-0db168c3cd10","system_id":"levelo_inurba_marseille","lat":43.30934,"lon":5.40157,"is_reserved":false,"is_disabled":false,"rental_uris":{"android":"levelo://app?vid=54e70cf4-747d-46d5-b82a-0db168c3cd10","ios":"levelo://app?vid=54e70cf4-747d-46d5-b82a-0db168c3cd10"},"vehicle_type_id":"4","last_reported":1734675371,"current_range_meters":26800,"station_id":"ce4bgvp2rcd13ifvqct0","pricing_plan_id":"cebpf4jnsgd1na2vs0mg"},{"bike_id":"b656703b-5f9c-4ddb-a72b-2fd26c35adc0","system_id":"levelo_inurba_marseille","lat":43.3133,"lon":5.39682,"is_reserved":false,"is_disabled":false,"rental_uris":{"android":"levelo://app?vid=b656703b-5f9c-4ddb-a72b-2fd26c35adc0","ios":"levelo://app?vid=b656703b-5f9c-4ddb-a72b-2fd26c35adc0"},"vehicle_type_id":"4","last_reported":1734675371,"current_range_meters":19200,"station_id":"ce4bgvp2rcd13ifvqcu0","pricing_plan_id":"cebpf4jnsgd1na2vs0mg"},{"bike_id":"1e0316a7-c772-4e4f-ba09-e85d38a4f137","system_id":"levelo_inurba_marseille","lat":43.31717,"lon":5.37759,"is_reserved":false,"is_disabled":false,"rental_uris":{"android":"levelo://app?vid=1e0316a7-c772-4e4f-ba09-e85d38a4f137","ios":"levelo://app?vid=1e0316a7-c772-4e4f-ba09-e85d38a4f137"},"vehicle_type_id":"4","last_reported":1734675371,"current_range_meters":38800,"station_id":"ce4bgth2rcd13ifvqch0","pricing_plan_id":"cebpf4jnsgd1na2vs0mg"},{"bike_id":"a509fddf-8539-48ef-b6b8-17a653bdc903","system_id":"levelo_inurba_marseille","lat":43.31279,"lon":5.40159,"is_reserved":false,"is_disabled":false,"rental_uris":{"android":"levelo://app?vid=a509fddf-8539-48ef-b6b8-17a653bdc903","ios":"levelo://app?vid=a509fddf-8539-48ef-b6b8-17a653bdc903"},"vehicle_type_id":"4","last_reported":1734675371,"current_range_meters":28800,"station_id":"ce4bh092rcd13ifvqd30","pricing_plan_id":"cebpf4jnsgd1na2vs0mg"},{"bike_id":"d03d3e55-b313-4f91-a0c3-6838be182556","system_id":"levelo_inurba_marseille","lat":43.3303,"lon":5.39031,"is_reserved":false,"is_disabled":false,"rental_uris":{"android":"levelo://app?vid=d03d3e55-b313-4f91-a0c3-6838be182556","ios":"levelo://app?vid=d03d3e55-b313-4f91-a0c3-6838be182556"},"vehicle_type_id":"4","last_reported":1734675371,"current_range_meters":26800,"station_id":"ce4bhr92rcd13ifvqhrg","pricing_plan_id":"cebpf4jnsgd1na2vs0mg"},{"bike_id":"d4a92d73-458f-4633-b078-8b09bedbb320","system_id":"levelo_inurba_marseille","lat":43.313313,"lon":5.396956,"is_reserved":false,"is_disabled":false,"rental_uris":{"android":"levelo://app?vid=d4a92d73-458f-4633-b078-8b09bedbb320","ios":"levelo://app?vid=d4a92d73-458f-4633-b078-8b09bedbb320"},"vehicle_type_id":"4","last_reported":1734675371,"current_range_meters":38800,"station_id":"ce4bgvp2rcd13ifvqcu0","pricing_plan_id":"cebpf4jnsgd1na2vs0mg"},{"bike_id":"e91219f7-cc33-492e-9b45-4476bf3bccec","system_id":"levelo_inurba_marseille","lat":43.280958,"lon":5.378516,"is_reserved":false,"is_disabled":false,"rental_uris":{"android":"levelo://app?vid=e91219f7-cc33-492e-9b45-4476bf3bccec","ios":"levelo://app?vid=e91219f7-cc33-492e-9b45-4476bf3bccec"},"vehicle_type_id":"4","last_reported":1734675371,"current_range_meters":30400,"station_id":"ce4bha12rcd13ifvqee0","pricing_plan_id":"cebpf4jnsgd1na2vs0mg"},{"bike_id":"2a12bde8-ca1e-4ca8-8cbb-8dbf9a638106","system_id":"levelo_inurba_marseille","lat":43.23219,"lon":5.35538,"is_reserved":false,"is_disabled":false,"rental_uris":{"android":"levelo://app?vid=2a12bde8-ca1e-4ca8-8cbb-8dbf9a638106","ios":"levelo://app?vid=2a12bde8-ca1e-4ca8-8cbb-8dbf9a638106"},"vehicle_type_id":"4","last_reported":1734675371,"current_range_meters":26800,"station_id":"ce4bhu92rcd13ifvqi70","pricing_plan_id":"cebpf4jnsgd1na2vs0mg"},{"bike_id":"82b98b08-cf84-40f3-a0a4-1136038c5b5f","system_id":"levelo_inurba_marseille","lat":43.28866,"lon":5.35825,"is_reserved":false,"is_disabled":false,"rental_uris":{"android":"levelo://app?vid=82b98b08-cf84-40f3-a0a4-1136038c5b5f","ios":"levelo://app?vid=82b98b08-cf84-40f3-a0a4-1136038c5b5f"},"vehicle_type_id":"4","last_reported":1734675371,"current_range_meters":36000,"station_id":"ce4bhb12rcd13ifvqem0","pricing_plan_id":"cebpf4jnsgd1na2vs0mg"},{"bike_id":"5cd0e186-dad6-403c-9513-a3f3abdcc32e","system_id":"levelo_inurba_marseille","lat":43.25088,"lon":5.39516,"is_reserved":false,"is_disabled":false,"rental_uris":{"android":"levelo://app?vid=5cd0e186-dad6-403c-9513-a3f3abdcc32e","ios":"levelo://app?vid=5cd0e186-dad6-403c-9513-a3f3abdcc32e"},"vehicle_type_id":"4","last_reported":1734675371,"current_range_meters":28000,"station_id":"ce4bhm12rcd13ifvqgkg","pricing_plan_id":"cebpf4jnsgd1na2vs0mg"},{"bike_id":"6fb965ff-afdd-4346-a208-14ec8ac80b7e","system_id":"levelo_inurba_marseille","lat":43.2978,"lon":5.37072,"is_reserved":false,"is_disabled":false,"rental_uris":{"android":"levelo://app?vid=6fb965ff-afdd-4346-a208-14ec8ac80b7e","ios":"levelo://app?vid=6fb965ff-afdd-4346-a208-14ec8ac80b7e"},"vehicle_type_id":"4","last_reported":1734675371,"current_range_meters":27600,"station_id":"ce4bgop2rcd13ifvqc1g","pricing_plan_id":"cebpf4jnsgd1na2vs0mg"},{"bike_id":"09e160dc-9004-4761-890b-e2fd94af8faa","system_id":"levelo_inurba_marseille","lat":43.308795,"lon":5.396371,"is_reserved":false,"is_disabled":false,"rental_uris":{"android":"levelo://app?vid=09e160dc-9004-4761-890b-e2fd94af8faa","ios":"levelo://app?vid=09e160dc-9004-4761-890b-e2fd94af8faa"},"vehicle_type_id":"4","last_reported":1734675371,"current_range_meters":30000,"station_id":"ce4bh012rcd13ifvqcv0","pricing_plan_id":"cebpf4jnsgd1na2vs0mg"},{"bike_id":"488d1b6e-8fe1-4d87-96e0-c96b51a4705c","system_id":"levelo_inurba_marseille","lat":43.28663,"lon":5.36358,"is_reserved":false,"is_disabled":false,"rental_uris":{"android":"levelo://app?vid=488d1b6e-8fe1-4d87-96e0-c96b51a4705c","ios":"levelo://app?vid=488d1b6e-8fe1-4d87-96e0-c96b51a4705c"},"vehicle_type_id":"4","last_reported":1734675371,"current_range_meters":22000,"station_id":"ce4bhah2rcd13ifvqej0","pricing_plan_id":"cebpf4jnsgd1na2vs0mg"},{"bike_id":"0f146cb9-691b-489e-b41e-01d8015c60f5","system_id":"levelo_inurba_marseille","lat":43.275578,"lon":5.38429,"is_reserved":false,"is_disabled":false,"rental_uris":{"android":"levelo://app?vid=0f146cb9-691b-489e-b41e-01d8015c60f5","ios":"levelo://app?vid=0f146cb9-691b-489e-b41e-01d8015c60f5"},"vehicle_type_id":"4","last_reported":1734675371,"current_range_meters":29600,"station_id":"ce4bhh92rcd13ifvqfi0","pricing_plan_id":"cebpf4jnsgd1na2vs0mg"},{"bike_id":"98ba4139-6d1f-429e-ab93-4be025a36b21","system_id":"levelo_inurba_marseille","lat":43.26807,"lon":5.40266,"is_reserved":false,"is_disabled":false,"rental_uris":{"android":"levelo://app?vid=98ba4139-6d1f-429e-ab93-4be025a36b21","ios":"levelo://app?vid=98ba4139-6d1f-429e-ab93-4be025a36b21"},"vehicle_type_id":"4","last_reported":1734675371,"current_range_meters":36800,"station_id":"ce501612rcd8frsf0b60","pricing_plan_id":"cebpf4jnsgd1na2vs0mg"},{"bike_id":"b002d028-e42c-46e2-93ce-a18a7a90546e","system_id":"levelo_inurba_marseille","lat":43.322861,"lon":5.382914,"is_reserved":false,"is_disabled":false,"rental_uris":{"android":"levelo://app?vid=b002d028-e42c-46e2-93ce-a18a7a90546e","ios":"levelo://app?vid=b002d028-e42c-46e2-93ce-a18a7a90546e"},"vehicle_type_id":"4","last_reported":1734675371,"current_range_meters":18800,"station_id":"ce4bhr12rcd13ifvqhqg","pricing_plan_id":"cebpf4jnsgd1na2vs0mg"},{"bike_id":"8d2d1fc5-8995-4400-8cfc-148fb6ed4a6d","system_id":"levelo_inurba_marseille","lat":43.274979,"lon":5.424496,"is_reserved":false,"is_disabled":false,"rental_uris":{"android":"levelo://app?vid=8d2d1fc5-8995-4400-8cfc-148fb6ed4a6d","ios":"levelo://app?vid=8d2d1fc5-8995-4400-8cfc-148fb6ed4a6d"},"vehicle_type_id":"4","last_reported":1734675371,"current_range_meters":36400,"station_id":"ce4bhn92rcd13ifvqgrg","pricing_plan_id":"cebpf4jnsgd1na2vs0mg"},{"bike_id":"39d6556a-c954-43ed-b77e-24523ab497d1","system_id":"levelo_inurba_marseille","lat":43.267914,"lon":5.394203,"is_reserved":false,"is_disabled":false,"rental_uris":{"android":"levelo://app?vid=39d6556a-c954-43ed-b77e-24523ab497d1","ios":"levelo://app?vid=39d6556a-c954-43ed-b77e-24523ab497d1"},"vehicle_type_id":"4","last_reported":1734675371,"current_range_meters":38000,"station_id":"ce4bhh12rcd13ifvqfg0","pricing_plan_id":"cebpf4jnsgd1na2vs0mg"},{"bike_id":"6d8117da-c4a6-4650-838f-66d0b7dfbeba","system_id":"levelo_inurba_marseille","lat":43.30532,"lon":5.36714,"is_reserved":false,"is_disabled":false,"rental_uris":{"android":"levelo://app?vid=6d8117da-c4a6-4650-838f-66d0b7dfbeba","ios":"levelo://app?vid=6d8117da-c4a6-4650-838f-66d0b7dfbeba"},"vehicle_type_id":"4","last_reported":1734675371,"current_range_meters":38800,"station_id":"ce4bgrp2rcd13ifvqc9g","pricing_plan_id":"cebpf4jnsgd1na2vs0mg"},{"bike_id":"f23efe61-0104-4164-a2df-9fbf471f6daa","system_id":"levelo_inurba_marseille","lat":43.26486,"lon":5.39558,"is_reserved":false,"is_disabled":true,"rental_uris":{"android":"levelo://app?vid=f23efe61-0104-4164-a2df-9fbf471f6daa","ios":"levelo://app?vid=f23efe61-0104-4164-a2df-9fbf471f6daa"},"vehicle_type_id":"4","last_reported":1734675371,"current_range_meters":1200,"station_id":"ce4bhi12rcd13ifvqfq0","pricing_plan_id":"cebpf4jnsgd1na2vs0mg"},{"bike_id":"f2ff2dce-6089-40f8-878d-6d1e366cd3a9","system_id":"levelo_inurba_marseille","lat":43.30949,"lon":5.40118,"is_reserved":false,"is_disabled":false,"rental_uris":{"android":"levelo://app?vid=f2ff2dce-6089-40f8-878d-6d1e366cd3a9","ios":"levelo://app?vid=f2ff2dce-6089-40f8-878d-6d1e366cd3a9"},"vehicle_type_id":"4","last_reported":1734675371,"current_range_meters":39200,"station_id":"ce4bgvp2rcd13ifvqct0","pricing_plan_id":"cebpf4jnsgd1na2vs0mg"},{"bike_id":"94e6a837-692a-4c6e-860f-bd56f9eee603","system_id":"levelo_inurba_marseille","lat":43.30787,"lon":5.37641,"is_reserved":false,"is_disabled":false,"rental_uris":{"android":"levelo://app?vid=94e6a837-692a-4c6e-860f-bd56f9eee603","ios":"levelo://app?vid=94e6a837-692a-4c6e-860f-bd56f9eee603"},"vehicle_type_id":"4","last_reported":1734675371,"current_range_meters":36400,"station_id":"ce4bgv92rcd13ifvqcq0","pricing_plan_id":"cebpf4jnsgd1na2vs0mg"},{"bike_id":"b44f9236-c33f-43b3-ab7e-0f32e9951c9e","system_id":"levelo_inurba_marseille","lat":43.23189,"lon":5.3556,"is_reserved":false,"is_disabled":false,"rental_uris":{"android":"levelo://app?vid=b44f9236-c33f-43b3-ab7e-0f32e9951c9e","ios":"levelo://app?vid=b44f9236-c33f-43b3-ab7e-0f32e9951c9e"},"vehicle_type_id":"4","last_reported":1734675371,"current_range_meters":8000,"station_id":"ce4bhu92rcd13ifvqi70","pricing_plan_id":"cebpf4jnsgd1na2vs0mg"},{"bike_id":"4620dcd9-c3a6-4871-8162-c4a28f6d33ca","system_id":"levelo_inurba_marseille","lat":43.31885,"lon":5.40733,"is_reserved":false,"is_disabled":true,"rental_uris":{"android":"levelo://app?vid=4620dcd9-c3a6-4871-8162-c4a28f6d33ca","ios":"levelo://app?vid=4620dcd9-c3a6-4871-8162-c4a28f6d33ca"},"vehicle_type_id":"4","last_reported":1734675371,"current_range_meters":38800,"station_id":"ce4bhq12rcd13ifvqhig","pricing_plan_id":"cebpf4jnsgd1na2vs0mg"},{"bike_id":"7cdaab41-d6a9-411c-91af-08e1cd111a45","system_id":"levelo_inurba_marseille","lat":43.307696,"lon":5.402584,"is_reserved":false,"is_disabled":false,"rental_uris":{"android":"levelo://app?vid=7cdaab41-d6a9-411c-91af-08e1cd111a45","ios":"levelo://app?vid=7cdaab41-d6a9-411c-91af-08e1cd111a45"},"vehicle_type_id":"4","last_reported":1734675371,"current_range_meters":12800,"station_id":"","pricing_plan_id":"cebpf4jnsgd1na2vs0mg"},{"bike_id":"a4f8f860-7da9-41b3-ba5c-03c4bf52b373","system_id":"levelo_inurba_marseille","lat":43.313254,"lon":5.396914,"is_reserved":false,"is_disabled":true,"rental_uris":{"android":"levelo://app?vid=a4f8f860-7da9-41b3-ba5c-03c4bf52b373","ios":"levelo://app?vid=a4f8f860-7da9-41b3-ba5c-03c4bf52b373"},"vehicle_type_id":"4","last_reported":1734675371,"current_range_meters":0,"station_id":"ce4bgvp2rcd13ifvqcu0","pricing_plan_id":"cebpf4jnsgd1na2vs0mg"},{"bike_id":"bc03db78-13f5-4eb3-8825-1473e4d86c90","system_id":"levelo_inurba_marseille","lat":43.297861,"lon":5.393473,"is_reserved":false,"is_disabled":false,"rental_uris":{"android":"levelo://app?vid=bc03db78-13f5-4eb3-8825-1473e4d86c90","ios":"levelo://app?vid=bc03db78-13f5-4eb3-8825-1473e4d86c90"},"vehicle_type_id":"4","last_reported":1734675371,"current_range_meters":38800,"station_id":"chh1huq6cuj3fo74tm60","pricing_plan_id":"cebpf4jnsgd1na2vs0mg"},{"bike_id":"e547e21c-1484-4643-b569-ed0cf2a32d36","system_id":"levelo_inurba_marseille","lat":43.24681,"lon":5.38164,"is_reserved":false,"is_disabled":false,"rental_uris":{"android":"levelo://app?vid=e547e21c-1484-4643-b569-ed0cf2a32d36","ios":"levelo://app?vid=e547e21c-1484-4643-b569-ed0cf2a32d36"},"vehicle_type_id":"4","last_reported":1734675371,"current_range_meters":38800,"station_id":"ce4bhih2rcd13ifvqfr0","pricing_plan_id":"cebpf4jnsgd1na2vs0mg"},{"bike_id":"b5b3837f-5e02-4def-9495-b31b79600261","system_id":"levelo_inurba_marseille","lat":43.32345,"lon":5.40623,"is_reserved":false,"is_disabled":false,"rental_uris":{"android":"levelo://app?vid=b5b3837f-5e02-4def-9495-b31b79600261","ios":"levelo://app?vid=b5b3837f-5e02-4def-9495-b31b79600261"},"vehicle_type_id":"4","last_reported":1734675371,"current_range_meters":24400,"station_id":"ce4bhq92rcd13ifvqhjg","pricing_plan_id":"cebpf4jnsgd1na2vs0mg"},{"bike_id":"4b6932e5-8250-4775-ae99-f3af739f32e3","system_id":"levelo_inurba_marseille","lat":43.31529,"lon":5.38031,"is_reserved":false,"is_disabled":false,"rental_uris":{"android":"levelo://app?vid=4b6932e5-8250-4775-ae99-f3af739f32e3","ios":"levelo://app?vid=4b6932e5-8250-4775-ae99-f3af739f32e3"},"vehicle_type_id":"4","last_reported":1734675371,"current_range_meters":38800,"station_id":"ce4bhsp2rcd13ifvqi50","pricing_plan_id":"cebpf4jnsgd1na2vs0mg"},{"bike_id":"48bd608f-85bc-4b07-9175-79b02463ae92","system_id":"levelo_inurba_marseille","lat":43.29558,"lon":5.42281,"is_reserved":false,"is_disabled":false,"rental_uris":{"android":"levelo://app?vid=48bd608f-85bc-4b07-9175-79b02463ae92","ios":"levelo://app?vid=48bd608f-85bc-4b07-9175-79b02463ae92"},"vehicle_type_id":"4","last_reported":1734675371,"current_range_meters":37600,"station_id":"ce4bhph2rcd13ifvqhdg","pricing_plan_id":"cebpf4jnsgd1na2vs0mg"},{"bike_id":"91fa51fa-26c0-476b-a8da-1fe47651254d","system_id":"levelo_inurba_marseille","lat":43.3043,"lon":5.39749,"is_reserved":false,"is_disabled":false,"rental_uris":{"android":"levelo://app?vid=91fa51fa-26c0-476b-a8da-1fe47651254d","ios":"levelo://app?vid=91fa51fa-26c0-476b-a8da-1fe47651254d"},"vehicle_type_id":"4","last_reported":1734675371,"current_range_meters":38800,"station_id":"ce4bh092rcd13ifvqd20","pricing_plan_id":"cebpf4jnsgd1na2vs0mg"},{"bike_id":"0ee567dd-8d1f-4513-95d0-49b3aea08c53","system_id":"levelo_inurba_marseille","lat":43.308825,"lon":5.372018,"is_reserved":false,"is_disabled":true,"rental_uris":{"android":"levelo://app?vid=0ee567dd-8d1f-4513-95d0-49b3aea08c53","ios":"levelo://app?vid=0ee567dd-8d1f-4513-95d0-49b3aea08c53"},"vehicle_type_id":"4","last_reported":1734675371,"current_range_meters":25600,"station_id":"ce4bguh2rcd13ifvqckg","pricing_plan_id":"cebpf4jnsgd1na2vs0mg"},{"bike_id":"b52c10f4-1f06-453c-bfdf-7d6729ecfe9c","system_id":"levelo_inurba_marseille","lat":43.23181,"lon":5.39985,"is_reserved":false,"is_disabled":false,"rental_uris":{"android":"levelo://app?vid=b52c10f4-1f06-453c-bfdf-7d6729ecfe9c","ios":"levelo://app?vid=b52c10f4-1f06-453c-bfdf-7d6729ecfe9c"},"vehicle_type_id":"4","last_reported":1734675371,"current_range_meters":37600,"station_id":"ce4bhn12rcd13ifvqgqg","pricing_plan_id":"cebpf4jnsgd1na2vs0mg"},{"bike_id":"5c909c62-734e-4a3b-87af-fa5b1774cce4","system_id":"levelo_inurba_marseille","lat":43.231915,"lon":5.399748,"is_reserved":false,"is_disabled":false,"rental_uris":{"android":"levelo://app?vid=5c909c62-734e-4a3b-87af-fa5b1774cce4","ios":"levelo://app?vid=5c909c62-734e-4a3b-87af-fa5b1774cce4"},"vehicle_type_id":"4","last_reported":1734675371,"current_range_meters":34800,"station_id":"ce4bhn12rcd13ifvqgqg","pricing_plan_id":"cebpf4jnsgd1na2vs0mg"},{"bike_id":"87ea2282-7236-454a-a021-e08bfe13ea3d","system_id":"levelo_inurba_marseille","lat":43.280309,"lon":5.369494,"is_reserved":false,"is_disabled":false,"rental_uris":{"android":"levelo://app?vid=87ea2282-7236-454a-a021-e08bfe13ea3d","ios":"levelo://app?vid=87ea2282-7236-454a-a021-e08bfe13ea3d"},"vehicle_type_id":"4","last_reported":1734675371,"current_range_meters":38800,"station_id":"ce4bha12rcd13ifvqef0","pricing_plan_id":"cebpf4jnsgd1na2vs0mg"},{"bike_id":"dcbe64cd-9357-420f-b290-dbaf86f13455","system_id":"levelo_inurba_marseille","lat":43.330205,"lon":5.390453,"is_reserved":false,"is_disabled":false,"rental_uris":{"android":"levelo://app?vid=dcbe64cd-9357-420f-b290-dbaf86f13455","ios":"levelo://app?vid=dcbe64cd-9357-420f-b290-dbaf86f13455"},"vehicle_type_id":"4","last_reported":1734675371,"current_range_meters":38000,"station_id":"ce4bhr92rcd13ifvqhrg","pricing_plan_id":"cebpf4jnsgd1na2vs0mg"},{"bike_id":"ef7d54be-eb07-4abe-8e15-37878e589c6b","system_id":"levelo_inurba_marseille","lat":43.29788,"lon":5.38105,"is_reserved":false,"is_disabled":false,"rental_uris":{"android":"levelo://app?vid=ef7d54be-eb07-4abe-8e15-37878e589c6b","ios":"levelo://app?vid=ef7d54be-eb07-4abe-8e15-37878e589c6b"},"vehicle_type_id":"4","last_reported":1734675371,"current_range_meters":38800,"station_id":"ce4bgip2rcd13ifvqbb0","pricing_plan_id":"cebpf4jnsgd1na2vs0mg"},{"bike_id":"3b95446e-20a9-4546-b9fb-c65f80c1f79c","system_id":"levelo_inurba_marseille","lat":43.260669,"lon":5.394044,"is_reserved":false,"is_disabled":false,"rental_uris":{"android":"levelo://app?vid=3b95446e-20a9-4546-b9fb-c65f80c1f79c","ios":"levelo://app?vid=3b95446e-20a9-4546-b9fb-c65f80c1f79c"},"vehicle_type_id":"4","last_reported":1734675371,"current_range_meters":32000,"station_id":"ce4bhh92rcd13ifvqfj0","pricing_plan_id":"cebpf4jnsgd1na2vs0mg"},{"bike_id":"44464573-5630-404b-a999-698ba48ab6b8","system_id":"levelo_inurba_marseille","lat":43.27181,"lon":5.40984,"is_reserved":false,"is_disabled":false,"rental_uris":{"android":"levelo://app?vid=44464573-5630-404b-a999-698ba48ab6b8","ios":"levelo://app?vid=44464573-5630-404b-a999-698ba48ab6b8"},"vehicle_type_id":"4","last_reported":1734675371,"current_range_meters":38800,"station_id":"ce4bhl12rcd13ifvqgf0","pricing_plan_id":"cebpf4jnsgd1na2vs0mg"},{"bike_id":"6092e4d7-956b-4a00-a15b-04d401a7abe3","system_id":"levelo_inurba_marseille","lat":43.284836,"lon":5.384303,"is_reserved":false,"is_disabled":true,"rental_uris":{"android":"levelo://app?vid=6092e4d7-956b-4a00-a15b-04d401a7abe3","ios":"levelo://app?vid=6092e4d7-956b-4a00-a15b-04d401a7abe3"},"vehicle_type_id":"4","last_reported":1734675371,"current_range_meters":28000,"station_id":"ce4bh512rcd13ifvqe3g","pricing_plan_id":"cebpf4jnsgd1na2vs0mg"},{"bike_id":"2e0a4273-9b64-4eb1-8d1b-b8e55991eb0a","system_id":"levelo_inurba_marseille","lat":43.27266,"lon":5.40077,"is_reserved":false,"is_disabled":true,"rental_uris":{"android":"levelo://app?vid=2e0a4273-9b64-4eb1-8d1b-b8e55991eb0a","ios":"levelo://app?vid=2e0a4273-9b64-4eb1-8d1b-b8e55991eb0a"},"vehicle_type_id":"4","last_reported":1734675371,"current_range_meters":400,"station_id":"","pricing_plan_id":"cebpf4jnsgd1na2vs0mg"},{"bike_id":"d7dc678d-eb38-44c8-8258-0fa0627b8d3a","system_id":"levelo_inurba_marseille","lat":43.3053,"lon":5.36709,"is_reserved":false,"is_disabled":false,"rental_uris":{"android":"levelo://app?vid=d7dc678d-eb38-44c8-8258-0fa0627b8d3a","ios":"levelo://app?vid=d7dc678d-eb38-44c8-8258-0fa0627b8d3a"},"vehicle_type_id":"4","last_reported":1734675371,"current_range_meters":39200,"station_id":"ce4bgrp2rcd13ifvqc9g","pricing_plan_id":"cebpf4jnsgd1na2vs0mg"},{"bike_id":"3c8fa5c9-de8f-4837-ad65-0da846e013c3","system_id":"levelo_inurba_marseille","lat":43.31764,"lon":5.39011,"is_reserved":false,"is_disabled":false,"rental_uris":{"android":"levelo://app?vid=3c8fa5c9-de8f-4837-ad65-0da846e013c3","ios":"levelo://app?vid=3c8fa5c9-de8f-4837-ad65-0da846e013c3"},"vehicle_type_id":"4","last_reported":1734675371,"current_range_meters":38800,"station_id":"ce4bhqp2rcd13ifvqhng","pricing_plan_id":"cebpf4jnsgd1na2vs0mg"},{"bike_id":"f957ffa3-7b76-4b18-bb62-81627d313cf8","system_id":"levelo_inurba_marseille","lat":43.23201,"lon":5.35557,"is_reserved":false,"is_disabled":false,"rental_uris":{"android":"levelo://app?vid=f957ffa3-7b76-4b18-bb62-81627d313cf8","ios":"levelo://app?vid=f957ffa3-7b76-4b18-bb62-81627d313cf8"},"vehicle_type_id":"4","last_reported":1734675371,"current_range_meters":30800,"station_id":"ce4bhu92rcd13ifvqi70","pricing_plan_id":"cebpf4jnsgd1na2vs0mg"},{"bike_id":"5dd95ec7-a282-40a6-a0fe-4e2e61de4064","system_id":"levelo_inurba_marseille","lat":43.26359,"lon":5.40145,"is_reserved":false,"is_disabled":false,"rental_uris":{"android":"levelo://app?vid=5dd95ec7-a282-40a6-a0fe-4e2e61de4064","ios":"levelo://app?vid=5dd95ec7-a282-40a6-a0fe-4e2e61de4064"},"vehicle_type_id":"4","last_reported":1734675371,"current_range_meters":8800,"station_id":"","pricing_plan_id":"cebpf4jnsgd1na2vs0mg"},{"bike_id":"ea250787-a964-475c-a6e4-f63368322e5b","system_id":"levelo_inurba_marseille","lat":43.29587,"lon":5.36738,"is_reserved":false,"is_disabled":false,"rental_uris":{"android":"levelo://app?vid=ea250787-a964-475c-a6e4-f63368322e5b","ios":"levelo://app?vid=ea250787-a964-475c-a6e4-f63368322e5b"},"vehicle_type_id":"4","last_reported":1734675371,"current_range_meters":38000,"station_id":"ce4bgph2rcd13ifvqc2g","pricing_plan_id":"cebpf4jnsgd1na2vs0mg"},{"bike_id":"d1d3f939-ae16-4460-bbf5-de1f2c0be33c","system_id":"levelo_inurba_marseille","lat":43.28951,"lon":5.364,"is_reserved":false,"is_disabled":false,"rental_uris":{"android":"levelo://app?vid=d1d3f939-ae16-4460-bbf5-de1f2c0be33c","ios":"levelo://app?vid=d1d3f939-ae16-4460-bbf5-de1f2c0be33c"},"vehicle_type_id":"4","last_reported":1734675371,"current_range_meters":37600,"station_id":"ce4bhc92rcd13ifvqetg","pricing_plan_id":"cebpf4jnsgd1na2vs0mg"},{"bike_id":"e8c93777-462e-411a-87fd-c1960f8befd3","system_id":"levelo_inurba_marseille","lat":43.2677,"lon":5.3947,"is_reserved":false,"is_disabled":false,"rental_uris":{"android":"levelo://app?vid=e8c93777-462e-411a-87fd-c1960f8befd3","ios":"levelo://app?vid=e8c93777-462e-411a-87fd-c1960f8befd3"},"vehicle_type_id":"4","last_reported":1734675371,"current_range_meters":26800,"station_id":"ce4bhh12rcd13ifvqfg0","pricing_plan_id":"cebpf4jnsgd1na2vs0mg"},{"bike_id":"5f95dcdc-b7ed-4b2d-bb9c-c1b46e433a17","system_id":"levelo_inurba_marseille","lat":43.31362,"lon":5.39679,"is_reserved":false,"is_disabled":false,"rental_uris":{"android":"levelo://app?vid=5f95dcdc-b7ed-4b2d-bb9c-c1b46e433a17","ios":"levelo://app?vid=5f95dcdc-b7ed-4b2d-bb9c-c1b46e433a17"},"vehicle_type_id":"4","last_reported":1734675371,"current_range_meters":35600,"station_id":"ce4bgvp2rcd13ifvqcu0","pricing_plan_id":"cebpf4jnsgd1na2vs0mg"},{"bike_id":"2256e953-e04c-4a1a-96b7-b03d74e4d2b6","system_id":"levelo_inurba_marseille","lat":43.24822,"lon":5.37475,"is_reserved":false,"is_disabled":false,"rental_uris":{"android":"levelo://app?vid=2256e953-e04c-4a1a-96b7-b03d74e4d2b6","ios":"levelo://app?vid=2256e953-e04c-4a1a-96b7-b03d74e4d2b6"},"vehicle_type_id":"4","last_reported":1734675371,"current_range_meters":38800,"station_id":"ce4bhgh2rcd13ifvqfb0","pricing_plan_id":"cebpf4jnsgd1na2vs0mg"},{"bike_id":"9af43466-4df0-442d-9893-09cf91f9e7e1","system_id":"levelo_inurba_marseille","lat":43.287055,"lon":5.399846,"is_reserved":false,"is_disabled":false,"rental_uris":{"android":"levelo://app?vid=9af43466-4df0-442d-9893-09cf91f9e7e1","ios":"levelo://app?vid=9af43466-4df0-442d-9893-09cf91f9e7e1"},"vehicle_type_id":"4","last_reported":1734675371,"current_range_meters":26800,"station_id":"ce4bho92rcd13ifvqh3g","pricing_plan_id":"cebpf4jnsgd1na2vs0mg"},{"bike_id":"2708ebca-ead0-431b-8ee5-75b909288afb","system_id":"levelo_inurba_marseille","lat":43.28107,"lon":5.37852,"is_reserved":false,"is_disabled":false,"rental_uris":{"android":"levelo://app?vid=2708ebca-ead0-431b-8ee5-75b909288afb","ios":"levelo://app?vid=2708ebca-ead0-431b-8ee5-75b909288afb"},"vehicle_type_id":"4","last_reported":1734675371,"current_range_meters":28400,"station_id":"ce4bha12rcd13ifvqee0","pricing_plan_id":"cebpf4jnsgd1na2vs0mg"},{"bike_id":"a9cd1d06-8a2c-4c4c-baee-9aade9fe9567","system_id":"levelo_inurba_marseille","lat":43.24679,"lon":5.38171,"is_reserved":false,"is_disabled":false,"rental_uris":{"android":"levelo://app?vid=a9cd1d06-8a2c-4c4c-baee-9aade9fe9567","ios":"levelo://app?vid=a9cd1d06-8a2c-4c4c-baee-9aade9fe9567"},"vehicle_type_id":"4","last_reported":1734675371,"current_range_meters":28000,"station_id":"ce4bhih2rcd13ifvqfr0","pricing_plan_id":"cebpf4jnsgd1na2vs0mg"},{"bike_id":"19f34006-1dba-4c03-b59a-0511830589aa","system_id":"levelo_inurba_marseille","lat":43.24821,"lon":5.37442,"is_reserved":false,"is_disabled":false,"rental_uris":{"android":"levelo://app?vid=19f34006-1dba-4c03-b59a-0511830589aa","ios":"levelo://app?vid=19f34006-1dba-4c03-b59a-0511830589aa"},"vehicle_type_id":"4","last_reported":1734675371,"current_range_meters":27200,"station_id":"ce4bhgh2rcd13ifvqfb0","pricing_plan_id":"cebpf4jnsgd1na2vs0mg"},{"bike_id":"c74db8c8-c410-49c5-9f2f-32f849d1937b","system_id":"levelo_inurba_marseille","lat":43.2719,"lon":5.409952,"is_reserved":false,"is_disabled":false,"rental_uris":{"android":"levelo://app?vid=c74db8c8-c410-49c5-9f2f-32f849d1937b","ios":"levelo://app?vid=c74db8c8-c410-49c5-9f2f-32f849d1937b"},"vehicle_type_id":"4","last_reported":1734675371,"current_range_meters":38800,"station_id":"ce4bhl12rcd13ifvqgf0","pricing_plan_id":"cebpf4jnsgd1na2vs0mg"},{"bike_id":"d9820f35-2ea1-45b1-ab36-efca94736467","system_id":"levelo_inurba_marseille","lat":43.31689,"lon":5.37729,"is_reserved":false,"is_disabled":false,"rental_uris":{"android":"levelo://app?vid=d9820f35-2ea1-45b1-ab36-efca94736467","ios":"levelo://app?vid=d9820f35-2ea1-45b1-ab36-efca94736467"},"vehicle_type_id":"4","last_reported":1734675371,"current_range_meters":38800,"station_id":"ce4bgth2rcd13ifvqch0","pricing_plan_id":"cebpf4jnsgd1na2vs0mg"},{"bike_id":"1b1a2e05-7d27-49d9-b772-faf5b7588ac5","system_id":"levelo_inurba_marseille","lat":43.29879,"lon":5.38913,"is_reserved":false,"is_disabled":true,"rental_uris":{"android":"levelo://app?vid=1b1a2e05-7d27-49d9-b772-faf5b7588ac5","ios":"levelo://app?vid=1b1a2e05-7d27-49d9-b772-faf5b7588ac5"},"vehicle_type_id":"4","last_reported":1734675371,"current_range_meters":0,"station_id":"ce4bh392rcd13ifvqdl0","pricing_plan_id":"cebpf4jnsgd1na2vs0mg"},{"bike_id":"2ea5ebc2-554f-4583-b0a6-c2d852bdc972","system_id":"levelo_inurba_marseille","lat":43.281068,"lon":5.378507,"is_reserved":false,"is_disabled":false,"rental_uris":{"android":"levelo://app?vid=2ea5ebc2-554f-4583-b0a6-c2d852bdc972","ios":"levelo://app?vid=2ea5ebc2-554f-4583-b0a6-c2d852bdc972"},"vehicle_type_id":"4","last_reported":1734675371,"current_range_meters":38800,"station_id":"ce4bha12rcd13ifvqee0","pricing_plan_id":"cebpf4jnsgd1na2vs0mg"},{"bike_id":"998bb76c-9ad8-4edd-b4fe-7e09c8e7f623","system_id":"levelo_inurba_marseille","lat":43.31334,"lon":5.38508,"is_reserved":false,"is_disabled":false,"rental_uris":{"android":"levelo://app?vid=998bb76c-9ad8-4edd-b4fe-7e09c8e7f623","ios":"levelo://app?vid=998bb76c-9ad8-4edd-b4fe-7e09c8e7f623"},"vehicle_type_id":"4","last_reported":1734675371,"current_range_meters":38800,"station_id":"ce4bgt92rcd13ifvqcf0","pricing_plan_id":"cebpf4jnsgd1na2vs0mg"},{"bike_id":"9932f0ef-901c-478b-81c6-b5f135d19e67","system_id":"levelo_inurba_marseille","lat":43.27569,"lon":5.38406,"is_reserved":false,"is_disabled":false,"rental_uris":{"android":"levelo://app?vid=9932f0ef-901c-478b-81c6-b5f135d19e67","ios":"levelo://app?vid=9932f0ef-901c-478b-81c6-b5f135d19e67"},"vehicle_type_id":"4","last_reported":1734675371,"current_range_meters":26800,"station_id":"ce4bhh92rcd13ifvqfi0","pricing_plan_id":"cebpf4jnsgd1na2vs0mg"},{"bike_id":"5603a317-67ad-45ec-b74c-449c1f451360","system_id":"levelo_inurba_marseille","lat":43.312846,"lon":5.375891,"is_reserved":false,"is_disabled":false,"rental_uris":{"android":"levelo://app?vid=5603a317-67ad-45ec-b74c-449c1f451360","ios":"levelo://app?vid=5603a317-67ad-45ec-b74c-449c1f451360"},"vehicle_type_id":"4","last_reported":1734675371,"current_range_meters":35200,"station_id":"ce4bgr92rcd13ifvqc6g","pricing_plan_id":"cebpf4jnsgd1na2vs0mg"},{"bike_id":"cc91e18c-31a1-4d61-8bec-2d478014f9b7","system_id":"levelo_inurba_marseille","lat":43.27379,"lon":5.36258,"is_reserved":false,"is_disabled":false,"rental_uris":{"android":"levelo://app?vid=cc91e18c-31a1-4d61-8bec-2d478014f9b7","ios":"levelo://app?vid=cc91e18c-31a1-4d61-8bec-2d478014f9b7"},"vehicle_type_id":"4","last_reported":1734675371,"current_range_meters":30000,"station_id":"ce4bhbh2rcd13ifvqeo0","pricing_plan_id":"cebpf4jnsgd1na2vs0mg"},{"bike_id":"fdfb3580-1002-4881-8a39-36cd06d2a7b8","system_id":"levelo_inurba_marseille","lat":43.282691,"lon":5.350762,"is_reserved":false,"is_disabled":false,"rental_uris":{"android":"levelo://app?vid=fdfb3580-1002-4881-8a39-36cd06d2a7b8","ios":"levelo://app?vid=fdfb3580-1002-4881-8a39-36cd06d2a7b8"},"vehicle_type_id":"4","last_reported":1734675371,"current_range_meters":35600,"station_id":"ce4bhbp2rcd13ifvqerg","pricing_plan_id":"cebpf4jnsgd1na2vs0mg"},{"bike_id":"494c8398-822e-42ee-a7f1-dfd664d1fba7","system_id":"levelo_inurba_marseille","lat":43.23197,"lon":5.35543,"is_reserved":false,"is_disabled":false,"rental_uris":{"android":"levelo://app?vid=494c8398-822e-42ee-a7f1-dfd664d1fba7","ios":"levelo://app?vid=494c8398-822e-42ee-a7f1-dfd664d1fba7"},"vehicle_type_id":"4","last_reported":1734675371,"current_range_meters":36400,"station_id":"ce4bhu92rcd13ifvqi70","pricing_plan_id":"cebpf4jnsgd1na2vs0mg"},{"bike_id":"16c58b96-bed5-4beb-9756-42ede896921f","system_id":"levelo_inurba_marseille","lat":43.28268,"lon":5.3506,"is_reserved":false,"is_disabled":false,"rental_uris":{"android":"levelo://app?vid=16c58b96-bed5-4beb-9756-42ede896921f","ios":"levelo://app?vid=16c58b96-bed5-4beb-9756-42ede896921f"},"vehicle_type_id":"4","last_reported":1734675371,"current_range_meters":39200,"station_id":"ce4bhbp2rcd13ifvqerg","pricing_plan_id":"cebpf4jnsgd1na2vs0mg"},{"bike_id":"3c413c58-d255-428b-86c8-72567e764cd9","system_id":"levelo_inurba_marseille","lat":43.28472,"lon":5.35891,"is_reserved":false,"is_disabled":false,"rental_uris":{"android":"levelo://app?vid=3c413c58-d255-428b-86c8-72567e764cd9","ios":"levelo://app?vid=3c413c58-d255-428b-86c8-72567e764cd9"},"vehicle_type_id":"4","last_reported":1734675371,"current_range_meters":39200,"station_id":"ce4bhah2rcd13ifvqei0","pricing_plan_id":"cebpf4jnsgd1na2vs0mg"},{"bike_id":"55fa967f-e3e3-42c4-9dd1-2bcbb5fc2d4d","system_id":"levelo_inurba_marseille","lat":43.27219,"lon":5.391,"is_reserved":false,"is_disabled":false,"rental_uris":{"android":"levelo://app?vid=55fa967f-e3e3-42c4-9dd1-2bcbb5fc2d4d","ios":"levelo://app?vid=55fa967f-e3e3-42c4-9dd1-2bcbb5fc2d4d"},"vehicle_type_id":"4","last_reported":1734675371,"current_range_meters":25600,"station_id":"","pricing_plan_id":"cebpf4jnsgd1na2vs0mg"},{"bike_id":"9e0a9920-d1ae-4ccd-a58f-c78416388400","system_id":"levelo_inurba_marseille","lat":43.27312,"lon":5.3908,"is_reserved":false,"is_disabled":false,"rental_uris":{"android":"levelo://app?vid=9e0a9920-d1ae-4ccd-a58f-c78416388400","ios":"levelo://app?vid=9e0a9920-d1ae-4ccd-a58f-c78416388400"},"vehicle_type_id":"4","last_reported":1734675371,"current_range_meters":36000,"station_id":"ce4bhgp2rcd13ifvqfe0","pricing_plan_id":"cebpf4jnsgd1na2vs0mg"},{"bike_id":"7bfec84b-7e68-4dee-b7d9-d000b6d72f50","system_id":"levelo_inurba_marseille","lat":43.29632,"lon":5.38139,"is_reserved":false,"is_disabled":false,"rental_uris":{"android":"levelo://app?vid=7bfec84b-7e68-4dee-b7d9-d000b6d72f50","ios":"levelo://app?vid=7bfec84b-7e68-4dee-b7d9-d000b6d72f50"},"vehicle_type_id":"4","last_reported":1734675371,"current_range_meters":36000,"station_id":"ce4bgl12rcd13ifvqbo0","pricing_plan_id":"cebpf4jnsgd1na2vs0mg"},{"bike_id":"8e8ddb40-dfef-4f41-8fd9-8dfe2942b813","system_id":"levelo_inurba_marseille","lat":43.31481,"lon":5.372849,"is_reserved":false,"is_disabled":false,"rental_uris":{"android":"levelo://app?vid=8e8ddb40-dfef-4f41-8fd9-8dfe2942b813","ios":"levelo://app?vid=8e8ddb40-dfef-4f41-8fd9-8dfe2942b813"},"vehicle_type_id":"4","last_reported":1734675371,"current_range_meters":12400,"station_id":"ce4bgt12rcd13ifvqcd0","pricing_plan_id":"cebpf4jnsgd1na2vs0mg"},{"bike_id":"a2eba22b-b0ee-4005-9bf3-576bb458d391","system_id":"levelo_inurba_marseille","lat":43.279651,"lon":5.387544,"is_reserved":false,"is_disabled":true,"rental_uris":{"android":"levelo://app?vid=a2eba22b-b0ee-4005-9bf3-576bb458d391","ios":"levelo://app?vid=a2eba22b-b0ee-4005-9bf3-576bb458d391"},"vehicle_type_id":"4","last_reported":1734675371,"current_range_meters":0,"station_id":"","pricing_plan_id":"cebpf4jnsgd1na2vs0mg"},{"bike_id":"c5fe3df7-38c6-4417-926a-4940de79602c","system_id":"levelo_inurba_marseille","lat":43.29871,"lon":5.39729,"is_reserved":false,"is_disabled":false,"rental_uris":{"android":"levelo://app?vid=c5fe3df7-38c6-4417-926a-4940de79602c","ios":"levelo://app?vid=c5fe3df7-38c6-4417-926a-4940de79602c"},"vehicle_type_id":"4","last_reported":1734675371,"current_range_meters":35600,"station_id":"ce4bh0h2rcd13ifvqd50","pricing_plan_id":"cebpf4jnsgd1na2vs0mg"},{"bike_id":"fcf6f42c-9492-49dd-a9e6-322a50636e12","system_id":"levelo_inurba_marseille","lat":43.317058,"lon":5.377489,"is_reserved":false,"is_disabled":false,"rental_uris":{"android":"levelo://app?vid=fcf6f42c-9492-49dd-a9e6-322a50636e12","ios":"levelo://app?vid=fcf6f42c-9492-49dd-a9e6-322a50636e12"},"vehicle_type_id":"4","last_reported":1734675371,"current_range_meters":12000,"station_id":"ce4bgth2rcd13ifvqch0","pricing_plan_id":"cebpf4jnsgd1na2vs0mg"},{"bike_id":"6e868a60-9f88-474e-adb5-72cc44996f9b","system_id":"levelo_inurba_marseille","lat":43.295251,"lon":5.375084,"is_reserved":false,"is_disabled":true,"rental_uris":{"android":"levelo://app?vid=6e868a60-9f88-474e-adb5-72cc44996f9b","ios":"levelo://app?vid=6e868a60-9f88-474e-adb5-72cc44996f9b"},"vehicle_type_id":"4","last_reported":1734675371,"current_range_meters":37600,"station_id":"ce4bgkp2rcd13ifvqbmg","pricing_plan_id":"cebpf4jnsgd1na2vs0mg"},{"bike_id":"7defd0b3-fac9-4d6e-9dc8-be201cdc19ab","system_id":"levelo_inurba_marseille","lat":43.30197,"lon":5.36641,"is_reserved":false,"is_disabled":false,"rental_uris":{"android":"levelo://app?vid=7defd0b3-fac9-4d6e-9dc8-be201cdc19ab","ios":"levelo://app?vid=7defd0b3-fac9-4d6e-9dc8-be201cdc19ab"},"vehicle_type_id":"4","last_reported":1734675371,"current_range_meters":38000,"station_id":"ce4bgrh2rcd13ifvqc8g","pricing_plan_id":"cebpf4jnsgd1na2vs0mg"},{"bike_id":"33053ff6-38ab-43c8-9125-f013294c4031","system_id":"levelo_inurba_marseille","lat":43.31359,"lon":5.39734,"is_reserved":false,"is_disabled":false,"rental_uris":{"android":"levelo://app?vid=33053ff6-38ab-43c8-9125-f013294c4031","ios":"levelo://app?vid=33053ff6-38ab-43c8-9125-f013294c4031"},"vehicle_type_id":"4","last_reported":1734675371,"current_range_meters":27200,"station_id":"","pricing_plan_id":"cebpf4jnsgd1na2vs0mg"},{"bike_id":"f384362e-dca0-4d89-b509-4071c545130d","system_id":"levelo_inurba_marseille","lat":43.26569,"lon":5.37262,"is_reserved":false,"is_disabled":false,"rental_uris":{"android":"levelo://app?vid=f384362e-dca0-4d89-b509-4071c545130d","ios":"levelo://app?vid=f384362e-dca0-4d89-b509-4071c545130d"},"vehicle_type_id":"4","last_reported":1734675371,"current_range_meters":10000,"station_id":"ce4bhg12rcd13ifvqf70","pricing_plan_id":"cebpf4jnsgd1na2vs0mg"},{"bike_id":"c4d77169-efde-47b4-8d25-cd14f52b865c","system_id":"levelo_inurba_marseille","lat":43.31269,"lon":5.4016,"is_reserved":false,"is_disabled":false,"rental_uris":{"android":"levelo://app?vid=c4d77169-efde-47b4-8d25-cd14f52b865c","ios":"levelo://app?vid=c4d77169-efde-47b4-8d25-cd14f52b865c"},"vehicle_type_id":"4","last_reported":1734675371,"current_range_meters":30400,"station_id":"ce4bh092rcd13ifvqd30","pricing_plan_id":"cebpf4jnsgd1na2vs0mg"},{"bike_id":"d991a769-c76b-481b-b307-89203b26e944","system_id":"levelo_inurba_marseille","lat":43.31063,"lon":5.38429,"is_reserved":false,"is_disabled":false,"rental_uris":{"android":"levelo://app?vid=d991a769-c76b-481b-b307-89203b26e944","ios":"levelo://app?vid=d991a769-c76b-481b-b307-89203b26e944"},"vehicle_type_id":"4","last_reported":1734675371,"current_range_meters":27200,"station_id":"","pricing_plan_id":"cebpf4jnsgd1na2vs0mg"},{"bike_id":"22b56c3e-0719-469c-8304-eab26f5c8724","system_id":"levelo_inurba_marseille","lat":43.27347,"lon":5.39135,"is_reserved":false,"is_disabled":false,"rental_uris":{"android":"levelo://app?vid=22b56c3e-0719-469c-8304-eab26f5c8724","ios":"levelo://app?vid=22b56c3e-0719-469c-8304-eab26f5c8724"},"vehicle_type_id":"4","last_reported":1734675371,"current_range_meters":39200,"station_id":"ce4bhgp2rcd13ifvqfe0","pricing_plan_id":"cebpf4jnsgd1na2vs0mg"},{"bike_id":"ac7c5f56-daad-496c-965f-9103737000e8","system_id":"levelo_inurba_marseille","lat":43.23967,"lon":5.36653,"is_reserved":false,"is_disabled":false,"rental_uris":{"android":"levelo://app?vid=ac7c5f56-daad-496c-965f-9103737000e8","ios":"levelo://app?vid=ac7c5f56-daad-496c-965f-9103737000e8"},"vehicle_type_id":"4","last_reported":1734675371,"current_range_meters":38800,"station_id":"ce4bhi12rcd13ifvqfp0","pricing_plan_id":"cebpf4jnsgd1na2vs0mg"},