{"last_updated":1778565383,"ttl":60,"version":"2.2","data":{"bikes":[{"bike_id":"e62e2a16-f5fb-4577-964b-dc55ad026512","system_id":"levelo_inurba_marseille","lat":43.29059,"lon":5.37115,"is_reserved":false,"is_disabled":false,"rental_uris":{"android":"levelo://app?vid=e62e2a16-f5fb-4577-964b-dc55ad026512","ios":"levelo://app?vid=e62e2a16-f5fb-4577-964b-dc55ad026512"},"vehicle_type_id":"4","last_reported":1778565383,"current_range_meters":800,"station_id":"ce4bh5p2rcd13ifvqe4g","pricing_plan_id":"cebpf4jnsgd1na2vs0mg"},{"bike_id":"207a8382-4f8e-414a-b663-b936b851358d","system_id":"levelo_inurba_marseille","lat":43.248092,"lon":5.374632,"is_reserved":false,"is_disabled":false,"rental_uris":{"android":"levelo://app?vid=207a8382-4f8e-414a-b663-b936b851358d","ios":"levelo://app?vid=207a8382-4f8e-414a-b663-b936b851358d"},"vehicle_type_id":"4","last_reported":1778565383,"current_range_meters":2800,"station_id":"ce4bhgh2rcd13ifvqfb0","pricing_plan_id":"cebpf4jnsgd1na2vs0mg"},{"bike_id":"f18bce17-4386-46f4-8bdf-68c7a7fe4f54","system_id":"levelo_inurba_marseille","lat":43.24712,"lon":5.38133,"is_reserved":false,"is_disabled":false,"rental_uris":{"android":"levelo://app?vid=f18bce17-4386-46f4-8bdf-68c7a7fe4f54","ios":"levelo://app?vid=f18bce17-4386-46f4-8bdf-68c7a7fe4f54"},"vehicle_type_id":"4","last_reported":1778565383,"current_range_meters":2800,"station_id":"ce4bhih2rcd13ifvqfr0","pricing_plan_id":"cebpf4jnsgd1na2vs0mg"},{"bike_id":"74cf2492-fad4-415d-b928-60a43876c69e","system_id":"levelo_inurba_marseille","lat":43.32969,"lon":5.37741,"is_reserved":false,"is_disabled":false,"rental_uris":{"android":"levelo://app?vid=74cf2492-fad4-415d-b928-60a43876c69e","ios":"levelo://app?vid=74cf2492-fad4-415d-b928-60a43876c69e"},"vehicle_type_id":"4","last_reported":1778565383,"current_range_meters":2800,"station_id":"","pricing_plan_id":"cebpf4jnsgd1na2vs0mg"},{"bike_id":"0af1d21e-4846-49ea-b2e7-4b8ff311934b","system_id":"levelo_inurba_marseille","lat":43.2512,"lon":5.40326,"is_reserved":false,"is_disabled":false,"rental_uris":{"android":"levelo://app?vid=0af1d21e-4846-49ea-b2e7-4b8ff311934b","ios":"levelo://app?vid=0af1d21e-4846-49ea-b2e7-4b8ff311934b"},"vehicle_type_id":"4","last_reported":1778565383,"current_range_meters":3200,"station_id":"ce4bhlh2rcd13ifvqgig","pricing_plan_id":"cebpf4jnsgd1na2vs0mg"},{"bike_id":"2bfab8ee-b744-46ab-b536-33ab10d88185","system_id":"levelo_inurba_marseille","lat":43.30152,"lon":5.38073,"is_reserved":false,"is_disabled":true,"rental_uris":{"android":"levelo://app?vid=2bfab8ee-b744-46ab-b536-33ab10d88185","ios":"levelo://app?vid=2bfab8ee-b744-46ab-b536-33ab10d88185"},"vehicle_type_id":"4","last_reported":1778565383,"current_range_meters":3200,"station_id":"ce4bgjp2rcd13ifvqbh0","pricing_plan_id":"cebpf4jnsgd1na2vs0mg"},{"bike_id":"1ebafb0c-edaf-4689-aaa4-ac41aecc6cfa","system_id":"levelo_inurba_marseille","lat":43.30481,"lon":5.37907,"is_reserved":false,"is_disabled":false,"rental_uris":{"android":"levelo://app?vid=1ebafb0c-edaf-4689-aaa4-ac41aecc6cfa","ios":"levelo://app?vid=1ebafb0c-edaf-4689-aaa4-ac41aecc6cfa"},"vehicle_type_id":"4","last_reported":1778565383,"current_range_meters":3200,"station_id":"ce4bgup2rcd13ifvqcn0","pricing_plan_id":"cebpf4jnsgd1na2vs0mg"},{"bike_id":"06c0a46f-0af1-46b9-ab0d-c42b77dc68f8","system_id":"levelo_inurba_marseille","lat":43.26552,"lon":5.37301,"is_reserved":false,"is_disabled":false,"rental_uris":{"android":"levelo://app?vid=06c0a46f-0af1-46b9-ab0d-c42b77dc68f8","ios":"levelo://app?vid=06c0a46f-0af1-46b9-ab0d-c42b77dc68f8"},"vehicle_type_id":"4","last_reported":1778565383,"current_range_meters":3200,"station_id":"ce4bhg12rcd13ifvqf70","pricing_plan_id":"cebpf4jnsgd1na2vs0mg"},{"bike_id":"cc31a10a-cee4-4525-94fd-2ae48732b4b5","system_id":"levelo_inurba_marseille","lat":43.31496,"lon":5.39757,"is_reserved":false,"is_disabled":false,"rental_uris":{"android":"levelo://app?vid=cc31a10a-cee4-4525-94fd-2ae48732b4b5","ios":"levelo://app?vid=cc31a10a-cee4-4525-94fd-2ae48732b4b5"},"vehicle_type_id":"4","last_reported":1778565383,"current_range_meters":3200,"station_id":"","pricing_plan_id":"cebpf4jnsgd1na2vs0mg"},{"bike_id":"045cea16-e5d8-4c1f-baa3-efcae79af3fd","system_id":"levelo_inurba_marseille","lat":43.25569,"lon":5.3824,"is_reserved":false,"is_disabled":false,"rental_uris":{"android":"levelo://app?vid=045cea16-e5d8-4c1f-baa3-efcae79af3fd","ios":"levelo://app?vid=045cea16-e5d8-4c1f-baa3-efcae79af3fd"},"vehicle_type_id":"4","last_reported":1778565383,"current_range_meters":3200,"station_id":"ce4bhih2rcd13ifvqfs0","pricing_plan_id":"cebpf4jnsgd1na2vs0mg"},{"bike_id":"e79e7475-6601-45bd-b55f-7e536edda3f3","system_id":"levelo_inurba_marseille","lat":43.24667,"lon":5.43126,"is_reserved":false,"is_disabled":false,"rental_uris":{"android":"levelo://app?vid=e79e7475-6601-45bd-b55f-7e536edda3f3","ios":"levelo://app?vid=e79e7475-6601-45bd-b55f-7e536edda3f3"},"vehicle_type_id":"4","last_reported":1778565383,"current_range_meters":3200,"station_id":"st_d2m6c4gdas8pm72e190g","pricing_plan_id":"cebpf4jnsgd1na2vs0mg"},{"bike_id":"ee920908-ca36-4b99-8b0c-a3575a4d1543","system_id":"levelo_inurba_marseille","lat":43.21199,"lon":5.35083,"is_reserved":false,"is_disabled":true,"rental_uris":{"android":"levelo://app?vid=ee920908-ca36-4b99-8b0c-a3575a4d1543","ios":"levelo://app?vid=ee920908-ca36-4b99-8b0c-a3575a4d1543"},"vehicle_type_id":"4","last_reported":1778565383,"current_range_meters":3200,"station_id":"st_cvj6sg6p6f1abm77japg","pricing_plan_id":"cebpf4jnsgd1na2vs0mg"},{"bike_id":"33acace2-f19d-4078-ba91-80af6674c921","system_id":"levelo_inurba_marseille","lat":43.26565,"lon":5.39016,"is_reserved":false,"is_disabled":false,"rental_uris":{"android":"levelo://app?vid=33acace2-f19d-4078-ba91-80af6674c921","ios":"levelo://app?vid=33acace2-f19d-4078-ba91-80af6674c921"},"vehicle_type_id":"4","last_reported":1778565383,"current_range_meters":3200,"station_id":"ce4bhe12rcd13ifvqf30","pricing_plan_id":"cebpf4jnsgd1na2vs0mg"},{"bike_id":"c2db077b-6988-4aa6-89d7-fd29e1ee1a5f","system_id":"levelo_inurba_marseille","lat":43.323557,"lon":5.367368,"is_reserved":false,"is_disabled":false,"rental_uris":{"android":"levelo://app?vid=c2db077b-6988-4aa6-89d7-fd29e1ee1a5f","ios":"levelo://app?vid=c2db077b-6988-4aa6-89d7-fd29e1ee1a5f"},"vehicle_type_id":"4","last_reported":1778565383,"current_range_meters":3200,"station_id":"ce4bhsh2rcd13ifvqi2g","pricing_plan_id":"cebpf4jnsgd1na2vs0mg"},{"bike_id":"50b4680a-ab10-402f-a93c-77bb0428cd91","system_id":"levelo_inurba_marseille","lat":43.24645,"lon":5.38906,"is_reserved":false,"is_disabled":false,"rental_uris":{"android":"levelo://app?vid=50b4680a-ab10-402f-a93c-77bb0428cd91","ios":"levelo://app?vid=50b4680a-ab10-402f-a93c-77bb0428cd91"},"vehicle_type_id":"4","last_reported":1778565383,"current_range_meters":3600,"station_id":"ce4bhg12rcd13ifvqf60","pricing_plan_id":"cebpf4jnsgd1na2vs0mg"},{"bike_id":"752e1c57-ad75-42d3-8d40-ca89ff2597f5","system_id":"levelo_inurba_marseille","lat":43.28737,"lon":5.37933,"is_reserved":false,"is_disabled":true,"rental_uris":{"android":"levelo://app?vid=752e1c57-ad75-42d3-8d40-ca89ff2597f5","ios":"levelo://app?vid=752e1c57-ad75-42d3-8d40-ca89ff2597f5"},"vehicle_type_id":"4","last_reported":1778565383,"current_range_meters":3600,"station_id":"ce4bh9p2rcd13ifvqec0","pricing_plan_id":"cebpf4jnsgd1na2vs0mg"},{"bike_id":"8d47185f-c2e6-450d-91fa-3944f6decea5","system_id":"levelo_inurba_marseille","lat":43.24488,"lon":5.42558,"is_reserved":false,"is_disabled":false,"rental_uris":{"android":"levelo://app?vid=8d47185f-c2e6-450d-91fa-3944f6decea5","ios":"levelo://app?vid=8d47185f-c2e6-450d-91fa-3944f6decea5"},"vehicle_type_id":"4","last_reported":1778565383,"current_range_meters":3600,"station_id":"st_d4a3vfp97mjs738cd8kg","pricing_plan_id":"cebpf4jnsgd1na2vs0mg"},{"bike_id":"90a522bc-c528-44ce-81e5-f220d9ac0ea0","system_id":"levelo_inurba_marseille","lat":43.28235,"lon":5.39081,"is_reserved":false,"is_disabled":false,"rental_uris":{"android":"levelo://app?vid=90a522bc-c528-44ce-81e5-f220d9ac0ea0","ios":"levelo://app?vid=90a522bc-c528-44ce-81e5-f220d9ac0ea0"},"vehicle_type_id":"4","last_reported":1778565383,"current_range_meters":3600,"station_id":"ce4bhn92rcd13ifvqgsg","pricing_plan_id":"cebpf4jnsgd1na2vs0mg"},{"bike_id":"2e3f998d-5cf9-4b1a-a523-d8bba941aa4f","system_id":"levelo_inurba_marseille","lat":43.28696,"lon":5.46682,"is_reserved":false,"is_disabled":false,"rental_uris":{"android":"levelo://app?vid=2e3f998d-5cf9-4b1a-a523-d8bba941aa4f","ios":"levelo://app?vid=2e3f998d-5cf9-4b1a-a523-d8bba941aa4f"},"vehicle_type_id":"4","last_reported":1778565383,"current_range_meters":3600,"station_id":"st_d6tc3vkotcvc738tfjhg","pricing_plan_id":"cebpf4jnsgd1na2vs0mg"},{"bike_id":"2afe9fef-d53a-48d2-81f4-ced24038c3e0","system_id":"levelo_inurba_marseille","lat":43.30801,"lon":5.38154,"is_reserved":false,"is_disabled":false,"rental_uris":{"android":"levelo://app?vid=2afe9fef-d53a-48d2-81f4-ced24038c3e0","ios":"levelo://app?vid=2afe9fef-d53a-48d2-81f4-ced24038c3e0"},"vehicle_type_id":"4","last_reported":1778565383,"current_range_meters":3600,"station_id":"ce4bgt12rcd13ifvqce0","pricing_plan_id":"cebpf4jnsgd1na2vs0mg"},{"bike_id":"3bbd4f9c-3477-4050-8f28-2445a8fc493c","system_id":"levelo_inurba_marseille","lat":43.31316,"lon":5.402,"is_reserved":false,"is_disabled":false,"rental_uris":{"android":"levelo://app?vid=3bbd4f9c-3477-4050-8f28-2445a8fc493c","ios":"levelo://app?vid=3bbd4f9c-3477-4050-8f28-2445a8fc493c"},"vehicle_type_id":"4","last_reported":1778565383,"current_range_meters":3600,"station_id":"ce4bh092rcd13ifvqd30","pricing_plan_id":"cebpf4jnsgd1na2vs0mg"},{"bike_id":"06f91362-11ca-4c4f-967c-1471d58acebb","system_id":"levelo_inurba_marseille","lat":43.29041,"lon":5.39967,"is_reserved":false,"is_disabled":false,"rental_uris":{"android":"levelo://app?vid=06f91362-11ca-4c4f-967c-1471d58acebb","ios":"levelo://app?vid=06f91362-11ca-4c4f-967c-1471d58acebb"},"vehicle_type_id":"4","last_reported":1778565383,"current_range_meters":3600,"station_id":"ce4bh392rcd13ifvqdm0","pricing_plan_id":"cebpf4jnsgd1na2vs0mg"},{"bike_id":"ef3ede60-2ac6-457c-ba08-84233d53988c","system_id":"levelo_inurba_marseille","lat":43.240723,"lon":5.377543,"is_reserved":false,"is_disabled":false,"rental_uris":{"android":"levelo://app?vid=ef3ede60-2ac6-457c-ba08-84233d53988c","ios":"levelo://app?vid=ef3ede60-2ac6-457c-ba08-84233d53988c"},"vehicle_type_id":"4","last_reported":1778565383,"current_range_meters":3600,"station_id":"ce4bhnp2rcd13ifvqgvg","pricing_plan_id":"cebpf4jnsgd1na2vs0mg"},{"bike_id":"e4cc4bac-5201-4d40-b79a-79bb220b3259","system_id":"levelo_inurba_marseille","lat":43.26375,"lon":5.41072,"is_reserved":false,"is_disabled":false,"rental_uris":{"android":"levelo://app?vid=e4cc4bac-5201-4d40-b79a-79bb220b3259","ios":"levelo://app?vid=e4cc4bac-5201-4d40-b79a-79bb220b3259"},"vehicle_type_id":"4","last_reported":1778565383,"current_range_meters":3600,"station_id":"st_d4e5ca6na9uc73bfl5fg","pricing_plan_id":"cebpf4jnsgd1na2vs0mg"},{"bike_id":"3dd9144e-2149-498f-a246-1f2d24551db3","system_id":"levelo_inurba_marseille","lat":43.23986,"lon":5.36604,"is_reserved":false,"is_disabled":false,"rental_uris":{"android":"levelo://app?vid=3dd9144e-2149-498f-a246-1f2d24551db3","ios":"levelo://app?vid=3dd9144e-2149-498f-a246-1f2d24551db3"},"vehicle_type_id":"4","last_reported":1778565383,"current_range_meters":3600,"station_id":"ce4bhi12rcd13ifvqfp0","pricing_plan_id":"cebpf4jnsgd1na2vs0mg"},{"bike_id":"2f2bab8d-235f-4952-abc5-c763ff969fbb","system_id":"levelo_inurba_marseille","lat":43.30207,"lon":5.38061,"is_reserved":false,"is_disabled":false,"rental_uris":{"android":"levelo://app?vid=2f2bab8d-235f-4952-abc5-c763ff969fbb","ios":"levelo://app?vid=2f2bab8d-235f-4952-abc5-c763ff969fbb"},"vehicle_type_id":"4","last_reported":1778565383,"current_range_meters":3600,"station_id":"","pricing_plan_id":"cebpf4jnsgd1na2vs0mg"},{"bike_id":"d98fb2f3-77d5-45bb-8ad5-31d465f519ba","system_id":"levelo_inurba_marseille","lat":43.28004,"lon":5.40007,"is_reserved":false,"is_disabled":false,"rental_uris":{"android":"levelo://app?vid=d98fb2f3-77d5-45bb-8ad5-31d465f519ba","ios":"levelo://app?vid=d98fb2f3-77d5-45bb-8ad5-31d465f519ba"},"vehicle_type_id":"4","last_reported":1778565383,"current_range_meters":3600,"station_id":"ce4bho92rcd13ifvqh4g","pricing_plan_id":"cebpf4jnsgd1na2vs0mg"},{"bike_id":"c9496fdf-efd1-433c-9f91-6ac4b2235342","system_id":"levelo_inurba_marseille","lat":43.25819,"lon":5.39776,"is_reserved":false,"is_disabled":true,"rental_uris":{"android":"levelo://app?vid=c9496fdf-efd1-433c-9f91-6ac4b2235342","ios":"levelo://app?vid=c9496fdf-efd1-433c-9f91-6ac4b2235342"},"vehicle_type_id":"4","last_reported":1778565383,"current_range_meters":3600,"station_id":"ce4bhl92rcd13ifvqghg","pricing_plan_id":"cebpf4jnsgd1na2vs0mg"},{"bike_id":"f308cfe5-87e6-468a-bc29-78343b922486","system_id":"levelo_inurba_marseille","lat":43.24627,"lon":5.4314,"is_reserved":false,"is_disabled":false,"rental_uris":{"android":"levelo://app?vid=f308cfe5-87e6-468a-bc29-78343b922486","ios":"levelo://app?vid=f308cfe5-87e6-468a-bc29-78343b922486"},"vehicle_type_id":"4","last_reported":1778565383,"current_range_meters":4000,"station_id":"st_d2m6c4gdas8pm72e190g","pricing_plan_id":"cebpf4jnsgd1na2vs0mg"},{"bike_id":"0d5563dc-c830-486c-ab29-523fb431214e","system_id":"levelo_inurba_marseille","lat":43.2958,"lon":5.37512,"is_reserved":false,"is_disabled":true,"rental_uris":{"android":"levelo://app?vid=0d5563dc-c830-486c-ab29-523fb431214e","ios":"levelo://app?vid=0d5563dc-c830-486c-ab29-523fb431214e"},"vehicle_type_id":"4","last_reported":1778565383,"current_range_meters":4000,"station_id":"ce4bgh92rcd13ifvqb50","pricing_plan_id":"cebpf4jnsgd1na2vs0mg"},{"bike_id":"caade880-e6d4-43c5-a7bf-ad0670546e65","system_id":"levelo_inurba_marseille","lat":43.29556,"lon":5.38247,"is_reserved":false,"is_disabled":false,"rental_uris":{"android":"levelo://app?vid=caade880-e6d4-43c5-a7bf-ad0670546e65","ios":"levelo://app?vid=caade880-e6d4-43c5-a7bf-ad0670546e65"},"vehicle_type_id":"4","last_reported":1778565383,"current_range_meters":4000,"station_id":"","pricing_plan_id":"cebpf4jnsgd1na2vs0mg"},{"bike_id":"6fc36b85-3872-460e-bd7b-64eabcd53200","system_id":"levelo_inurba_marseille","lat":43.24458,"lon":5.41078,"is_reserved":false,"is_disabled":false,"rental_uris":{"android":"levelo://app?vid=6fc36b85-3872-460e-bd7b-64eabcd53200","ios":"levelo://app?vid=6fc36b85-3872-460e-bd7b-64eabcd53200"},"vehicle_type_id":"4","last_reported":1778565383,"current_range_meters":4000,"station_id":"","pricing_plan_id":"cebpf4jnsgd1na2vs0mg"},{"bike_id":"01d22cc4-40f8-4e00-91ae-42031c615e01","system_id":"levelo_inurba_marseille","lat":43.24412,"lon":5.37067,"is_reserved":false,"is_disabled":false,"rental_uris":{"android":"levelo://app?vid=01d22cc4-40f8-4e00-91ae-42031c615e01","ios":"levelo://app?vid=01d22cc4-40f8-4e00-91ae-42031c615e01"},"vehicle_type_id":"4","last_reported":1778565383,"current_range_meters":4000,"station_id":"ce4bhhh2rcd13ifvqfk0","pricing_plan_id":"cebpf4jnsgd1na2vs0mg"},{"bike_id":"99e1db61-7277-47f8-ad94-68117b07283b","system_id":"levelo_inurba_marseille","lat":43.29485,"lon":5.38668,"is_reserved":false,"is_disabled":false,"rental_uris":{"android":"levelo://app?vid=99e1db61-7277-47f8-ad94-68117b07283b","ios":"levelo://app?vid=99e1db61-7277-47f8-ad94-68117b07283b"},"vehicle_type_id":"4","last_reported":1778565383,"current_range_meters":4000,"station_id":"","pricing_plan_id":"cebpf4jnsgd1na2vs0mg"},{"bike_id":"3c279179-a7c9-4c30-a58b-fc66204da332","system_id":"levelo_inurba_marseille","lat":43.25336,"lon":5.42159,"is_reserved":false,"is_disabled":false,"rental_uris":{"android":"levelo://app?vid=3c279179-a7c9-4c30-a58b-fc66204da332","ios":"levelo://app?vid=3c279179-a7c9-4c30-a58b-fc66204da332"},"vehicle_type_id":"4","last_reported":1778565383,"current_range_meters":4000,"station_id":"st_d2m65c5bi1j21697t3ng","pricing_plan_id":"cebpf4jnsgd1na2vs0mg"},{"bike_id":"47873adf-be04-430d-9717-36875448450b","system_id":"levelo_inurba_marseille","lat":43.30428,"lon":5.39744,"is_reserved":false,"is_disabled":false,"rental_uris":{"android":"levelo://app?vid=47873adf-be04-430d-9717-36875448450b","ios":"levelo://app?vid=47873adf-be04-430d-9717-36875448450b"},"vehicle_type_id":"4","last_reported":1778565383,"current_range_meters":4000,"station_id":"ce4bh092rcd13ifvqd20","pricing_plan_id":"cebpf4jnsgd1na2vs0mg"},{"bike_id":"bec89d50-c96c-4317-beee-1ccbdbd294eb","system_id":"levelo_inurba_marseille","lat":43.28686,"lon":5.46697,"is_reserved":false,"is_disabled":false,"rental_uris":{"android":"levelo://app?vid=bec89d50-c96c-4317-beee-1ccbdbd294eb","ios":"levelo://app?vid=bec89d50-c96c-4317-beee-1ccbdbd294eb"},"vehicle_type_id":"4","last_reported":1778565383,"current_range_meters":4000,"station_id":"st_d6tc3vkotcvc738tfjhg","pricing_plan_id":"cebpf4jnsgd1na2vs0mg"},{"bike_id":"444b6d57-4a4c-40d5-91e4-bda1155e37f5","system_id":"levelo_inurba_marseille","lat":43.28716,"lon":5.37947,"is_reserved":false,"is_disabled":false,"rental_uris":{"android":"levelo://app?vid=444b6d57-4a4c-40d5-91e4-bda1155e37f5","ios":"levelo://app?vid=444b6d57-4a4c-40d5-91e4-bda1155e37f5"},"vehicle_type_id":"4","last_reported":1778565383,"current_range_meters":4000,"station_id":"ce4bh9p2rcd13ifvqec0","pricing_plan_id":"cebpf4jnsgd1na2vs0mg"},{"bike_id":"d0b3528c-b9d7-45a9-bf7d-22a88319872d","system_id":"levelo_inurba_marseille","lat":43.30225,"lon":5.39468,"is_reserved":false,"is_disabled":false,"rental_uris":{"android":"levelo://app?vid=d0b3528c-b9d7-45a9-bf7d-22a88319872d","ios":"levelo://app?vid=d0b3528c-b9d7-45a9-bf7d-22a88319872d"},"vehicle_type_id":"4","last_reported":1778565383,"current_range_meters":4000,"station_id":"ce4bh0p2rcd13ifvqd70","pricing_plan_id":"cebpf4jnsgd1na2vs0mg"},{"bike_id":"6ca0ba6e-3cf7-4611-91bc-57ac6c9d8a37","system_id":"levelo_inurba_marseille","lat":43.32371,"lon":5.38885,"is_reserved":false,"is_disabled":false,"rental_uris":{"android":"levelo://app?vid=6ca0ba6e-3cf7-4611-91bc-57ac6c9d8a37","ios":"levelo://app?vid=6ca0ba6e-3cf7-4611-91bc-57ac6c9d8a37"},"vehicle_type_id":"4","last_reported":1778565383,"current_range_meters":4000,"station_id":"ce4bhqp2rcd13ifvqhog","pricing_plan_id":"cebpf4jnsgd1na2vs0mg"},{"bike_id":"1a9284b8-e26d-4596-9102-3af379d582dd","system_id":"levelo_inurba_marseille","lat":43.25029,"lon":5.38897,"is_reserved":false,"is_disabled":false,"rental_uris":{"android":"levelo://app?vid=1a9284b8-e26d-4596-9102-3af379d582dd","ios":"levelo://app?vid=1a9284b8-e26d-4596-9102-3af379d582dd"},"vehicle_type_id":"4","last_reported":1778565383,"current_range_meters":4000,"station_id":"ce4bhgp2rcd13ifvqfd0","pricing_plan_id":"cebpf4jnsgd1na2vs0mg"},{"bike_id":"e4f0328e-957b-4d3c-89a2-d53024f8a76f","system_id":"levelo_inurba_marseille","lat":43.33565,"lon":5.3744,"is_reserved":false,"is_disabled":false,"rental_uris":{"android":"levelo://app?vid=e4f0328e-957b-4d3c-89a2-d53024f8a76f","ios":"levelo://app?vid=e4f0328e-957b-4d3c-89a2-d53024f8a76f"},"vehicle_type_id":"4","last_reported":1778565383,"current_range_meters":4400,"station_id":"st_d46tts09ee8s73dlu43g","pricing_plan_id":"cebpf4jnsgd1na2vs0mg"},{"bike_id":"87514419-3931-4bbd-b202-06d2c7c9b863","system_id":"levelo_inurba_marseille","lat":43.27551,"lon":5.38423,"is_reserved":false,"is_disabled":false,"rental_uris":{"android":"levelo://app?vid=87514419-3931-4bbd-b202-06d2c7c9b863","ios":"levelo://app?vid=87514419-3931-4bbd-b202-06d2c7c9b863"},"vehicle_type_id":"4","last_reported":1778565383,"current_range_meters":4400,"station_id":"ce4bhh92rcd13ifvqfi0","pricing_plan_id":"cebpf4jnsgd1na2vs0mg"},{"bike_id":"f327c7c8-116b-4f09-8f90-cd9141acb7a3","system_id":"levelo_inurba_marseille","lat":43.2815,"lon":5.4264,"is_reserved":false,"is_disabled":true,"rental_uris":{"android":"levelo://app?vid=f327c7c8-116b-4f09-8f90-cd9141acb7a3","ios":"levelo://app?vid=f327c7c8-116b-4f09-8f90-cd9141acb7a3"},"vehicle_type_id":"4","last_reported":1778565383,"current_range_meters":4400,"station_id":"ce4bhnh2rcd13ifvqgug","pricing_plan_id":"cebpf4jnsgd1na2vs0mg"},{"bike_id":"76b4ef3c-9562-4293-b1d3-b9c27a765c98","system_id":"levelo_inurba_marseille","lat":43.27077,"lon":5.38303,"is_reserved":false,"is_disabled":false,"rental_uris":{"android":"levelo://app?vid=76b4ef3c-9562-4293-b1d3-b9c27a765c98","ios":"levelo://app?vid=76b4ef3c-9562-4293-b1d3-b9c27a765c98"},"vehicle_type_id":"4","last_reported":1778565383,"current_range_meters":4400,"station_id":"st_d3n2fo6cfp8s73cte1j0","pricing_plan_id":"cebpf4jnsgd1na2vs0mg"},{"bike_id":"ad9166af-e82f-4567-939a-858290d88557","system_id":"levelo_inurba_marseille","lat":43.26955,"lon":5.38633,"is_reserved":false,"is_disabled":false,"rental_uris":{"android":"levelo://app?vid=ad9166af-e82f-4567-939a-858290d88557","ios":"levelo://app?vid=ad9166af-e82f-4567-939a-858290d88557"},"vehicle_type_id":"4","last_reported":1778565383,"current_range_meters":4400,"station_id":"ce4bhh92rcd13ifvqfh0","pricing_plan_id":"cebpf4jnsgd1na2vs0mg"},{"bike_id":"29560c2f-4dc9-48e5-aeee-a01d2b95bb17","system_id":"levelo_inurba_marseille","lat":43.2962,"lon":5.37727,"is_reserved":false,"is_disabled":true,"rental_uris":{"android":"levelo://app?vid=29560c2f-4dc9-48e5-aeee-a01d2b95bb17","ios":"levelo://app?vid=29560c2f-4dc9-48e5-aeee-a01d2b95bb17"},"vehicle_type_id":"4","last_reported":1778565383,"current_range_meters":4400,"station_id":"ce4bgi92rcd13ifvqb90","pricing_plan_id":"cebpf4jnsgd1na2vs0mg"},{"bike_id":"99edba21-bf46-423c-b03f-f691ed02fe63","system_id":"levelo_inurba_marseille","lat":43.26567,"lon":5.37328,"is_reserved":false,"is_disabled":false,"rental_uris":{"android":"levelo://app?vid=99edba21-bf46-423c-b03f-f691ed02fe63","ios":"levelo://app?vid=99edba21-bf46-423c-b03f-f691ed02fe63"},"vehicle_type_id":"4","last_reported":1778565383,"current_range_meters":4400,"station_id":"ce4bhg12rcd13ifvqf70","pricing_plan_id":"cebpf4jnsgd1na2vs0mg"},{"bike_id":"283fbecc-c602-48b9-81d7-83b2c9e5953a","system_id":"levelo_inurba_marseille","lat":43.21207,"lon":5.35077,"is_reserved":false,"is_disabled":false,"rental_uris":{"android":"levelo://app?vid=283fbecc-c602-48b9-81d7-83b2c9e5953a","ios":"levelo://app?vid=283fbecc-c602-48b9-81d7-83b2c9e5953a"},"vehicle_type_id":"4","last_reported":1778565383,"current_range_meters":4400,"station_id":"st_cvj6sg6p6f1abm77japg","pricing_plan_id":"cebpf4jnsgd1na2vs0mg"},{"bike_id":"69f5786b-5f1d-436a-9d97-91568846f5ab","system_id":"levelo_inurba_marseille","lat":43.33157,"lon":5.37682,"is_reserved":false,"is_disabled":false,"rental_uris":{"android":"levelo://app?vid=69f5786b-5f1d-436a-9d97-91568846f5ab","ios":"levelo://app?vid=69f5786b-5f1d-436a-9d97-91568846f5ab"},"vehicle_type_id":"4","last_reported":1778565383,"current_range_meters":4400,"station_id":"st_d46cu089ee8s73dldbu0","pricing_plan_id":"cebpf4jnsgd1na2vs0mg"},{"bike_id":"f04a4d4d-bcc8-4dc0-be47-efed2508f9df","system_id":"levelo_inurba_marseille","lat":43.33594,"lon":5.41018,"is_reserved":false,"is_disabled":false,"rental_uris":{"android":"levelo://app?vid=f04a4d4d-bcc8-4dc0-be47-efed2508f9df","ios":"levelo://app?vid=f04a4d4d-bcc8-4dc0-be47-efed2508f9df"},"vehicle_type_id":"4","last_reported":1778565383,"current_range_meters":4400,"station_id":"ce4bhqh2rcd13ifvqhmg","pricing_plan_id":"cebpf4jnsgd1na2vs0mg"},{"bike_id":"733eba2b-8829-4388-9aab-673db5fc2e2b","system_id":"levelo_inurba_marseille","lat":43.24643,"lon":5.43121,"is_reserved":false,"is_disabled":true,"rental_uris":{"android":"levelo://app?vid=733eba2b-8829-4388-9aab-673db5fc2e2b","ios":"levelo://app?vid=733eba2b-8829-4388-9aab-673db5fc2e2b"},"vehicle_type_id":"4","last_reported":1778565383,"current_range_meters":4400,"station_id":"st_d2m6c4gdas8pm72e190g","pricing_plan_id":"cebpf4jnsgd1na2vs0mg"},{"bike_id":"67b4f852-f0f0-46f1-93d6-3cf622387f59","system_id":"levelo_inurba_marseille","lat":43.24642,"lon":5.38903,"is_reserved":false,"is_disabled":false,"rental_uris":{"android":"levelo://app?vid=67b4f852-f0f0-46f1-93d6-3cf622387f59","ios":"levelo://app?vid=67b4f852-f0f0-46f1-93d6-3cf622387f59"},"vehicle_type_id":"4","last_reported":1778565383,"current_range_meters":4400,"station_id":"ce4bhg12rcd13ifvqf60","pricing_plan_id":"cebpf4jnsgd1na2vs0mg"},{"bike_id":"a16ba1ca-1a5e-4086-8b44-b2700bec399d","system_id":"levelo_inurba_marseille","lat":43.337444,"lon":5.374475,"is_reserved":false,"is_disabled":false,"rental_uris":{"android":"levelo://app?vid=a16ba1ca-1a5e-4086-8b44-b2700bec399d","ios":"levelo://app?vid=a16ba1ca-1a5e-4086-8b44-b2700bec399d"},"vehicle_type_id":"4","last_reported":1778565383,"current_range_meters":4800,"station_id":"ce4bgjh2rcd13ifvqbf0","pricing_plan_id":"cebpf4jnsgd1na2vs0mg"},{"bike_id":"842ea713-5cdb-479e-9c81-6df7c4cf63bf","system_id":"levelo_inurba_marseille","lat":43.29976,"lon":5.37164,"is_reserved":false,"is_disabled":false,"rental_uris":{"android":"levelo://app?vid=842ea713-5cdb-479e-9c81-6df7c4cf63bf","ios":"levelo://app?vid=842ea713-5cdb-479e-9c81-6df7c4cf63bf"},"vehicle_type_id":"4","last_reported":1778565383,"current_range_meters":4800,"station_id":"ce4bgr92rcd13ifvqc7g","pricing_plan_id":"cebpf4jnsgd1na2vs0mg"},{"bike_id":"28d8d16f-e6c6-4f84-875a-19c171c77197","system_id":"levelo_inurba_marseille","lat":43.27827,"lon":5.40708,"is_reserved":false,"is_disabled":false,"rental_uris":{"android":"levelo://app?vid=28d8d16f-e6c6-4f84-875a-19c171c77197","ios":"levelo://app?vid=28d8d16f-e6c6-4f84-875a-19c171c77197"},"vehicle_type_id":"4","last_reported":1778565383,"current_range_meters":4800,"station_id":"ce4bhnh2rcd13ifvqgtg","pricing_plan_id":"cebpf4jnsgd1na2vs0mg"},{"bike_id":"4bd82e55-1b41-41d3-a9fc-3c328e3efac9","system_id":"levelo_inurba_marseille","lat":43.3317,"lon":5.37697,"is_reserved":false,"is_disabled":false,"rental_uris":{"android":"levelo://app?vid=4bd82e55-1b41-41d3-a9fc-3c328e3efac9","ios":"levelo://app?vid=4bd82e55-1b41-41d3-a9fc-3c328e3efac9"},"vehicle_type_id":"4","last_reported":1778565383,"current_range_meters":4800,"station_id":"st_d46cu089ee8s73dldbu0","pricing_plan_id":"cebpf4jnsgd1na2vs0mg"},{"bike_id":"34c3f082-e192-498a-b986-4fc66c3ce824","system_id":"levelo_inurba_marseille","lat":43.28402,"lon":5.3751,"is_reserved":false,"is_disabled":false,"rental_uris":{"android":"levelo://app?vid=34c3f082-e192-498a-b986-4fc66c3ce824","ios":"levelo://app?vid=34c3f082-e192-498a-b986-4fc66c3ce824"},"vehicle_type_id":"4","last_reported":1778565383,"current_range_meters":4800,"station_id":"ce4bh412rcd13ifvqds0","pricing_plan_id":"cebpf4jnsgd1na2vs0mg"},{"bike_id":"33ecd161-ed98-48c0-8567-1fea89ca6299","system_id":"levelo_inurba_marseille","lat":43.24799,"lon":5.37461,"is_reserved":false,"is_disabled":false,"rental_uris":{"android":"levelo://app?vid=33ecd161-ed98-48c0-8567-1fea89ca6299","ios":"levelo://app?vid=33ecd161-ed98-48c0-8567-1fea89ca6299"},"vehicle_type_id":"4","last_reported":1778565383,"current_range_meters":4800,"station_id":"ce4bhgh2rcd13ifvqfb0","pricing_plan_id":"cebpf4jnsgd1na2vs0mg"},{"bike_id":"5f7e548b-870a-4609-981f-9fe7c5bac3ad","system_id":"levelo_inurba_marseille","lat":43.28152,"lon":5.42637,"is_reserved":false,"is_disabled":false,"rental_uris":{"android":"levelo://app?vid=5f7e548b-870a-4609-981f-9fe7c5bac3ad","ios":"levelo://app?vid=5f7e548b-870a-4609-981f-9fe7c5bac3ad"},"vehicle_type_id":"4","last_reported":1778565383,"current_range_meters":4800,"station_id":"ce4bhnh2rcd13ifvqgug","pricing_plan_id":"cebpf4jnsgd1na2vs0mg"},{"bike_id":"70c32609-f59c-4608-837f-24f1ca3629ee","system_id":"levelo_inurba_marseille","lat":43.29205,"lon":5.42691,"is_reserved":false,"is_disabled":false,"rental_uris":{"android":"levelo://app?vid=70c32609-f59c-4608-837f-24f1ca3629ee","ios":"levelo://app?vid=70c32609-f59c-4608-837f-24f1ca3629ee"},"vehicle_type_id":"4","last_reported":1778565383,"current_range_meters":4800,"station_id":"","pricing_plan_id":"cebpf4jnsgd1na2vs0mg"},{"bike_id":"cb12c086-b9a1-4f94-9afe-141514e838dc","system_id":"levelo_inurba_marseille","lat":43.3118,"lon":5.38702,"is_reserved":false,"is_disabled":true,"rental_uris":{"android":"levelo://app?vid=cb12c086-b9a1-4f94-9afe-141514e838dc","ios":"levelo://app?vid=cb12c086-b9a1-4f94-9afe-141514e838dc"},"vehicle_type_id":"4","last_reported":1778565383,"current_range_meters":5600,"station_id":"ce4bgv12rcd13ifvqcp0","pricing_plan_id":"cebpf4jnsgd1na2vs0mg"},{"bike_id":"29e5ea6a-a853-4a3c-992d-843ed945b0c5","system_id":"levelo_inurba_marseille","lat":43.29615,"lon":5.37663,"is_reserved":false,"is_disabled":true,"rental_uris":{"android":"levelo://app?vid=29e5ea6a-a853-4a3c-992d-843ed945b0c5","ios":"levelo://app?vid=29e5ea6a-a853-4a3c-992d-843ed945b0c5"},"vehicle_type_id":"4","last_reported":1778565383,"current_range_meters":5600,"station_id":"ce4bgi92rcd13ifvqb90","pricing_plan_id":"cebpf4jnsgd1na2vs0mg"},{"bike_id":"144fe1e3-381b-4310-a6ce-dc1e02634d09","system_id":"levelo_inurba_marseille","lat":43.30317,"lon":5.39198,"is_reserved":false,"is_disabled":false,"rental_uris":{"android":"levelo://app?vid=144fe1e3-381b-4310-a6ce-dc1e02634d09","ios":"levelo://app?vid=144fe1e3-381b-4310-a6ce-dc1e02634d09"},"vehicle_type_id":"4","last_reported":1778565383,"current_range_meters":5600,"station_id":"ce4bgkh2rcd13ifvqbk0","pricing_plan_id":"cebpf4jnsgd1na2vs0mg"},{"bike_id":"856b8ff9-c9d8-42fe-b8c1-9890bb3ba2b8","system_id":"levelo_inurba_marseille","lat":43.32004,"lon":5.38141,"is_reserved":false,"is_disabled":false,"rental_uris":{"android":"levelo://app?vid=856b8ff9-c9d8-42fe-b8c1-9890bb3ba2b8","ios":"levelo://app?vid=856b8ff9-c9d8-42fe-b8c1-9890bb3ba2b8"},"vehicle_type_id":"4","last_reported":1778565383,"current_range_meters":5600,"station_id":"ce4bhr12rcd13ifvqhpg","pricing_plan_id":"cebpf4jnsgd1na2vs0mg"},{"bike_id":"557c8c26-f11c-46ac-9717-40b02ee8a457","system_id":"levelo_inurba_marseille","lat":43.23191,"lon":5.35523,"is_reserved":false,"is_disabled":false,"rental_uris":{"android":"levelo://app?vid=557c8c26-f11c-46ac-9717-40b02ee8a457","ios":"levelo://app?vid=557c8c26-f11c-46ac-9717-40b02ee8a457"},"vehicle_type_id":"4","last_reported":1778565383,"current_range_meters":5600,"station_id":"ce4bhu92rcd13ifvqi70","pricing_plan_id":"cebpf4jnsgd1na2vs0mg"},{"bike_id":"1031f455-2ade-483d-beab-f57817acadc2","system_id":"levelo_inurba_marseille","lat":43.21789,"lon":5.34587,"is_reserved":false,"is_disabled":true,"rental_uris":{"android":"levelo://app?vid=1031f455-2ade-483d-beab-f57817acadc2","ios":"levelo://app?vid=1031f455-2ade-483d-beab-f57817acadc2"},"vehicle_type_id":"4","last_reported":1778565383,"current_range_meters":5600,"station_id":"","pricing_plan_id":"cebpf4jnsgd1na2vs0mg"},{"bike_id":"2b6859e3-f1d4-4b2e-8ec3-944173d3cbf5","system_id":"levelo_inurba_marseille","lat":43.28508,"lon":5.4838,"is_reserved":false,"is_disabled":false,"rental_uris":{"android":"levelo://app?vid=2b6859e3-f1d4-4b2e-8ec3-944173d3cbf5","ios":"levelo://app?vid=2b6859e3-f1d4-4b2e-8ec3-944173d3cbf5"},"vehicle_type_id":"4","last_reported":1778565383,"current_range_meters":5600,"station_id":"","pricing_plan_id":"cebpf4jnsgd1na2vs0mg"},{"bike_id":"8e0cfe5b-64e0-4829-80c8-d847580d0b17","system_id":"levelo_inurba_marseille","lat":43.29727,"lon":5.36603,"is_reserved":false,"is_disabled":true,"rental_uris":{"android":"levelo://app?vid=8e0cfe5b-64e0-4829-80c8-d847580d0b17","ios":"levelo://app?vid=8e0cfe5b-64e0-4829-80c8-d847580d0b17"},"vehicle_type_id":"4","last_reported":1778565383,"current_range_meters":6000,"station_id":"ce4bgn12rcd13ifvqbt0","pricing_plan_id":"cebpf4jnsgd1na2vs0mg"},{"bike_id":"bebe7c5e-4f59-44a7-b1cd-791c575c307c","system_id":"levelo_inurba_marseille","lat":43.29559,"lon":5.39882,"is_reserved":false,"is_disabled":false,"rental_uris":{"android":"levelo://app?vid=bebe7c5e-4f59-44a7-b1cd-791c575c307c","ios":"levelo://app?vid=bebe7c5e-4f59-44a7-b1cd-791c575c307c"},"vehicle_type_id":"4","last_reported":1778565383,"current_range_meters":6000,"station_id":"","pricing_plan_id":"cebpf4jnsgd1na2vs0mg"},{"bike_id":"ce830c04-38ba-456b-89df-a8c658ada13b","system_id":"levelo_inurba_marseille","lat":43.2417,"lon":5.36403,"is_reserved":false,"is_disabled":false,"rental_uris":{"android":"levelo://app?vid=ce830c04-38ba-456b-89df-a8c658ada13b","ios":"levelo://app?vid=ce830c04-38ba-456b-89df-a8c658ada13b"},"vehicle_type_id":"4","last_reported":1778565383,"current_range_meters":6000,"station_id":"cpo36qri1sfpv3e86is0","pricing_plan_id":"cebpf4jnsgd1na2vs0mg"},{"bike_id":"c16c2e40-c2bb-4eda-8719-dc43fd517dad","system_id":"levelo_inurba_marseille","lat":43.23903,"lon":5.37457,"is_reserved":false,"is_disabled":false,"rental_uris":{"android":"levelo://app?vid=c16c2e40-c2bb-4eda-8719-dc43fd517dad","ios":"levelo://app?vid=c16c2e40-c2bb-4eda-8719-dc43fd517dad"},"vehicle_type_id":"4","last_reported":1778565383,"current_range_meters":6000,"station_id":"st_d6sm7csbq4hs73f8fpjg","pricing_plan_id":"cebpf4jnsgd1na2vs0mg"},{"bike_id":"41c5852a-6867-478f-9c09-8cac8dd4f689","system_id":"levelo_inurba_marseille","lat":43.2961,"lon":5.37722,"is_reserved":false,"is_disabled":false,"rental_uris":{"android":"levelo://app?vid=41c5852a-6867-478f-9c09-8cac8dd4f689","ios":"levelo://app?vid=41c5852a-6867-478f-9c09-8cac8dd4f689"},"vehicle_type_id":"4","last_reported":1778565383,"current_range_meters":6000,"station_id":"ce4bgi92rcd13ifvqb90","pricing_plan_id":"cebpf4jnsgd1na2vs0mg"},{"bike_id":"0bbed456-e411-45ba-8bc4-9abf109e1f10","system_id":"levelo_inurba_marseille","lat":43.24673,"lon":5.38152,"is_reserved":false,"is_disabled":false,"rental_uris":{"android":"levelo://app?vid=0bbed456-e411-45ba-8bc4-9abf109e1f10","ios":"levelo://app?vid=0bbed456-e411-45ba-8bc4-9abf109e1f10"},"vehicle_type_id":"4","last_reported":1778565383,"current_range_meters":6000,"station_id":"ce4bhih2rcd13ifvqfr0","pricing_plan_id":"cebpf4jnsgd1na2vs0mg"},{"bike_id":"c2d010b6-f59f-4168-b2f8-133389cde735","system_id":"levelo_inurba_marseille","lat":43.29786,"lon":5.38093,"is_reserved":false,"is_disabled":false,"rental_uris":{"android":"levelo://app?vid=c2d010b6-f59f-4168-b2f8-133389cde735","ios":"levelo://app?vid=c2d010b6-f59f-4168-b2f8-133389cde735"},"vehicle_type_id":"4","last_reported":1778565383,"current_range_meters":6000,"station_id":"ce4bgip2rcd13ifvqbb0","pricing_plan_id":"cebpf4jnsgd1na2vs0mg"},{"bike_id":"5a009147-eadb-4a84-af27-f4b3cebe13da","system_id":"levelo_inurba_marseille","lat":43.28789,"lon":5.42422,"is_reserved":false,"is_disabled":false,"rental_uris":{"android":"levelo://app?vid=5a009147-eadb-4a84-af27-f4b3cebe13da","ios":"levelo://app?vid=5a009147-eadb-4a84-af27-f4b3cebe13da"},"vehicle_type_id":"4","last_reported":1778565383,"current_range_meters":6000,"station_id":"","pricing_plan_id":"cebpf4jnsgd1na2vs0mg"},{"bike_id":"358eaf33-4eb0-49e1-990d-90f8bb84a823","system_id":"levelo_inurba_marseille","lat":43.21782,"lon":5.34599,"is_reserved":false,"is_disabled":false,"rental_uris":{"android":"levelo://app?vid=358eaf33-4eb0-49e1-990d-90f8bb84a823","ios":"levelo://app?vid=358eaf33-4eb0-49e1-990d-90f8bb84a823"},"vehicle_type_id":"4","last_reported":1778565383,"current_range_meters":6000,"station_id":"st_cvj6r9ubvosntc0bgbag","pricing_plan_id":"cebpf4jnsgd1na2vs0mg"},{"bike_id":"d34d9b3c-b11b-482a-8b12-8b20a9c34a97","system_id":"levelo_inurba_marseille","lat":43.26241,"lon":5.40441,"is_reserved":false,"is_disabled":false,"rental_uris":{"android":"levelo://app?vid=d34d9b3c-b11b-482a-8b12-8b20a9c34a97","ios":"levelo://app?vid=d34d9b3c-b11b-482a-8b12-8b20a9c34a97"},"vehicle_type_id":"4","last_reported":1778565383,"current_range_meters":6000,"station_id":"ce4bhmh2rcd13ifvqgmg","pricing_plan_id":"cebpf4jnsgd1na2vs0mg"},{"bike_id":"689226c6-1e9e-485f-8595-207929d88422","system_id":"levelo_inurba_marseille","lat":43.283464,"lon":5.381031,"is_reserved":false,"is_disabled":false,"rental_uris":{"android":"levelo://app?vid=689226c6-1e9e-485f-8595-207929d88422","ios":"levelo://app?vid=689226c6-1e9e-485f-8595-207929d88422"},"vehicle_type_id":"4","last_reported":1778565383,"current_range_meters":6000,"station_id":"ce4bh412rcd13ifvqdr0","pricing_plan_id":"cebpf4jnsgd1na2vs0mg"},{"bike_id":"f3632ab7-3b9b-46de-90be-92905498dcae","system_id":"levelo_inurba_marseille","lat":43.25075,"lon":5.39739,"is_reserved":false,"is_disabled":false,"rental_uris":{"android":"levelo://app?vid=f3632ab7-3b9b-46de-90be-92905498dcae","ios":"levelo://app?vid=f3632ab7-3b9b-46de-90be-92905498dcae"},"vehicle_type_id":"4","last_reported":1778565383,"current_range_meters":6000,"station_id":"","pricing_plan_id":"cebpf4jnsgd1na2vs0mg"},{"bike_id":"572434e9-c3de-4e9c-8941-b77c601c4077","system_id":"levelo_inurba_marseille","lat":43.31497,"lon":5.37299,"is_reserved":false,"is_disabled":false,"rental_uris":{"android":"levelo://app?vid=572434e9-c3de-4e9c-8941-b77c601c4077","ios":"levelo://app?vid=572434e9-c3de-4e9c-8941-b77c601c4077"},"vehicle_type_id":"4","last_reported":1778565383,"current_range_meters":6400,"station_id":"ce4bgt12rcd13ifvqcd0","pricing_plan_id":"cebpf4jnsgd1na2vs0mg"},{"bike_id":"50fe92ba-b16e-469b-b37f-5d52c3389552","system_id":"levelo_inurba_marseille","lat":43.26204,"lon":5.38751,"is_reserved":false,"is_disabled":false,"rental_uris":{"android":"levelo://app?vid=50fe92ba-b16e-469b-b37f-5d52c3389552","ios":"levelo://app?vid=50fe92ba-b16e-469b-b37f-5d52c3389552"},"vehicle_type_id":"4","last_reported":1778565383,"current_range_meters":6400,"station_id":"","pricing_plan_id":"cebpf4jnsgd1na2vs0mg"},{"bike_id":"f20fe0fd-4f43-48bd-b9bf-73003a7f1c75","system_id":"levelo_inurba_marseille","lat":43.28186,"lon":5.42616,"is_reserved":false,"is_disabled":false,"rental_uris":{"android":"levelo://app?vid=f20fe0fd-4f43-48bd-b9bf-73003a7f1c75","ios":"levelo://app?vid=f20fe0fd-4f43-48bd-b9bf-73003a7f1c75"},"vehicle_type_id":"4","last_reported":1778565383,"current_range_meters":6400,"station_id":"ce4bhnh2rcd13ifvqgug","pricing_plan_id":"cebpf4jnsgd1na2vs0mg"},{"bike_id":"367dc72d-85e7-47be-a3a9-33b51c973e02","system_id":"levelo_inurba_marseille","lat":43.305934,"lon":5.393645,"is_reserved":false,"is_disabled":false,"rental_uris":{"android":"levelo://app?vid=367dc72d-85e7-47be-a3a9-33b51c973e02","ios":"levelo://app?vid=367dc72d-85e7-47be-a3a9-33b51c973e02"},"vehicle_type_id":"4","last_reported":1778565383,"current_range_meters":6400,"station_id":"ce4bh0p2rcd13ifvqd80","pricing_plan_id":"cebpf4jnsgd1na2vs0mg"},{"bike_id":"c3bdf52d-9b64-4799-b77d-82718505e74f","system_id":"levelo_inurba_marseille","lat":43.29232,"lon":5.36068,"is_reserved":false,"is_disabled":false,"rental_uris":{"android":"levelo://app?vid=c3bdf52d-9b64-4799-b77d-82718505e74f","ios":"levelo://app?vid=c3bdf52d-9b64-4799-b77d-82718505e74f"},"vehicle_type_id":"4","last_reported":1778565383,"current_range_meters":6400,"station_id":"ce4bhbh2rcd13ifvqeqg","pricing_plan_id":"cebpf4jnsgd1na2vs0mg"},{"bike_id":"fe48a501-4a27-47f7-9666-23f09f33f5c9","system_id":"levelo_inurba_marseille","lat":43.28873,"lon":5.3589,"is_reserved":false,"is_disabled":true,"rental_uris":{"android":"levelo://app?vid=fe48a501-4a27-47f7-9666-23f09f33f5c9","ios":"levelo://app?vid=fe48a501-4a27-47f7-9666-23f09f33f5c9"},"vehicle_type_id":"4","last_reported":1778565383,"current_range_meters":6400,"station_id":"ce4bhb12rcd13ifvqem0","pricing_plan_id":"cebpf4jnsgd1na2vs0mg"},{"bike_id":"7e1b38ff-e6a1-4783-b781-70f4de02e020","system_id":"levelo_inurba_marseille","lat":43.24664,"lon":5.38147,"is_reserved":false,"is_disabled":false,"rental_uris":{"android":"levelo://app?vid=7e1b38ff-e6a1-4783-b781-70f4de02e020","ios":"levelo://app?vid=7e1b38ff-e6a1-4783-b781-70f4de02e020"},"vehicle_type_id":"4","last_reported":1778565383,"current_range_meters":6400,"station_id":"ce4bhih2rcd13ifvqfr0","pricing_plan_id":"cebpf4jnsgd1na2vs0mg"},{"bike_id":"1c7b09d1-3cd3-4303-bc19-bf899ba81994","system_id":"levelo_inurba_marseille","lat":43.293542,"lon":5.3785,"is_reserved":false,"is_disabled":false,"rental_uris":{"android":"levelo://app?vid=1c7b09d1-3cd3-4303-bc19-bf899ba81994","ios":"levelo://app?vid=1c7b09d1-3cd3-4303-bc19-bf899ba81994"},"vehicle_type_id":"4","last_reported":1778565383,"current_range_meters":6400,"station_id":"ce4bgjh2rcd13ifvqbf0","pricing_plan_id":"cebpf4jnsgd1na2vs0mg"},{"bike_id":"b09ede44-2e78-440e-9a90-41105f252202","system_id":"levelo_inurba_marseille","lat":43.24657,"lon":5.38886,"is_reserved":false,"is_disabled":false,"rental_uris":{"android":"levelo://app?vid=b09ede44-2e78-440e-9a90-41105f252202","ios":"levelo://app?vid=b09ede44-2e78-440e-9a90-41105f252202"},"vehicle_type_id":"4","last_reported":1778565383,"current_range_meters":6400,"station_id":"ce4bhg12rcd13ifvqf60","pricing_plan_id":"cebpf4jnsgd1na2vs0mg"},{"bike_id":"32e2b136-cab2-4e4d-bdde-4ac72bd1e2ba","system_id":"levelo_inurba_marseille","lat":43.26551,"lon":5.37272,"is_reserved":false,"is_disabled":false,"rental_uris":{"android":"levelo://app?vid=32e2b136-cab2-4e4d-bdde-4ac72bd1e2ba","ios":"levelo://app?vid=32e2b136-cab2-4e4d-bdde-4ac72bd1e2ba"},"vehicle_type_id":"4","last_reported":1778565383,"current_range_meters":6400,"station_id":"ce4bhg12rcd13ifvqf70","pricing_plan_id":"cebpf4jnsgd1na2vs0mg"},{"bike_id":"772eec52-c9ed-4998-b4b9-8fb913f5e42e","system_id":"levelo_inurba_marseille","lat":43.34143,"lon":5.40907,"is_reserved":false,"is_disabled":false,"rental_uris":{"android":"levelo://app?vid=772eec52-c9ed-4998-b4b9-8fb913f5e42e","ios":"levelo://app?vid=772eec52-c9ed-4998-b4b9-8fb913f5e42e"},"vehicle_type_id":"4","last_reported":1778565383,"current_range_meters":6400,"station_id":"ce4bhqh2rcd13ifvqhlg","pricing_plan_id":"cebpf4jnsgd1na2vs0mg"},{"bike_id":"67fa8470-d422-4ffc-879f-c68e3a6705e1","system_id":"levelo_inurba_marseille","lat":43.26538,"lon":5.39024,"is_reserved":false,"is_disabled":true,"rental_uris":{"android":"levelo://app?vid=67fa8470-d422-4ffc-879f-c68e3a6705e1","ios":"levelo://app?vid=67fa8470-d422-4ffc-879f-c68e3a6705e1"},"vehicle_type_id":"4","last_reported":1778565383,"current_range_meters":6800,"station_id":"ce4bhe12rcd13ifvqf30","pricing_plan_id":"cebpf4jnsgd1na2vs0mg"},{"bike_id":"db96a94d-2480-4cd0-9989-0906a4d125e8","system_id":"levelo_inurba_marseille","lat":43.24699,"lon":5.38102,"is_reserved":false,"is_disabled":false,"rental_uris":{"android":"levelo://app?vid=db96a94d-2480-4cd0-9989-0906a4d125e8","ios":"levelo://app?vid=db96a94d-2480-4cd0-9989-0906a4d125e8"},"vehicle_type_id":"4","last_reported":1778565383,"current_range_meters":6800,"station_id":"ce4bhih2rcd13ifvqfr0","pricing_plan_id":"cebpf4jnsgd1na2vs0mg"},{"bike_id":"3586752d-6136-4beb-8f7b-d8d621fbcc67","system_id":"levelo_inurba_marseille","lat":43.27584,"lon":5.35891,"is_reserved":false,"is_disabled":false,"rental_uris":{"android":"levelo://app?vid=3586752d-6136-4beb-8f7b-d8d621fbcc67","ios":"levelo://app?vid=3586752d-6136-4beb-8f7b-d8d621fbcc67"},"vehicle_type_id":"4","last_reported":1778565383,"current_range_meters":6800,"station_id":"","pricing_plan_id":"cebpf4jnsgd1na2vs0mg"},{"bike_id":"8158d380-d9d4-4a33-850e-9c7002b0b16b","system_id":"levelo_inurba_marseille","lat":43.28702,"lon":5.39962,"is_reserved":false,"is_disabled":true,"rental_uris":{"android":"levelo://app?vid=8158d380-d9d4-4a33-850e-9c7002b0b16b","ios":"levelo://app?vid=8158d380-d9d4-4a33-850e-9c7002b0b16b"},"vehicle_type_id":"4","last_reported":1778565383,"current_range_meters":6800,"station_id":"ce4bho92rcd13ifvqh3g","pricing_plan_id":"cebpf4jnsgd1na2vs0mg"},{"bike_id":"c9388b3b-2cb7-4b7d-838b-879cc6602b2c","system_id":"levelo_inurba_marseille","lat":43.28714,"lon":5.46669,"is_reserved":false,"is_disabled":false,"rental_uris":{"android":"levelo://app?vid=c9388b3b-2cb7-4b7d-838b-879cc6602b2c","ios":"levelo://app?vid=c9388b3b-2cb7-4b7d-838b-879cc6602b2c"},"vehicle_type_id":"4","last_reported":1778565383,"current_range_meters":6800,"station_id":"st_d6tc3vkotcvc738tfjhg","pricing_plan_id":"cebpf4jnsgd1na2vs0mg"},{"bike_id":"1dcbcf6f-af5e-43f3-8c8e-30b1e95308b1","system_id":"levelo_inurba_marseille","lat":43.23796,"lon":5.36629,"is_reserved":false,"is_disabled":true,"rental_uris":{"android":"levelo://app?vid=1dcbcf6f-af5e-43f3-8c8e-30b1e95308b1","ios":"levelo://app?vid=1dcbcf6f-af5e-43f3-8c8e-30b1e95308b1"},"vehicle_type_id":"4","last_reported":1778565383,"current_range_meters":6800,"station_id":"st_d3nk18o9ro0c73en2l3g","pricing_plan_id":"cebpf4jnsgd1na2vs0mg"},{"bike_id":"4c2ffeee-0a65-40b4-aa39-789ceba6538b","system_id":"levelo_inurba_marseille","lat":43.29252,"lon":5.40162,"is_reserved":false,"is_disabled":false,"rental_uris":{"android":"levelo://app?vid=4c2ffeee-0a65-40b4-aa39-789ceba6538b","ios":"levelo://app?vid=4c2ffeee-0a65-40b4-aa39-789ceba6538b"},"vehicle_type_id":"4","last_reported":1778565383,"current_range_meters":6800,"station_id":"ce4bh312rcd13ifvqdk0","pricing_plan_id":"cebpf4jnsgd1na2vs0mg"},{"bike_id":"a71d29bc-6936-4ea8-9878-3138f5e979b0","system_id":"levelo_inurba_marseille","lat":43.25082,"lon":5.39514,"is_reserved":false,"is_disabled":false,"rental_uris":{"android":"levelo://app?vid=a71d29bc-6936-4ea8-9878-3138f5e979b0","ios":"levelo://app?vid=a71d29bc-6936-4ea8-9878-3138f5e979b0"},"vehicle_type_id":"4","last_reported":1778565383,"current_range_meters":6800,"station_id":"","pricing_plan_id":"cebpf4jnsgd1na2vs0mg"},{"bike_id":"b380826e-7b8f-4d67-ab13-8c285e713372","system_id":"levelo_inurba_marseille","lat":43.25094,"lon":5.39531,"is_reserved":false,"is_disabled":false,"rental_uris":{"android":"levelo://app?vid=b380826e-7b8f-4d67-ab13-8c285e713372","ios":"levelo://app?vid=b380826e-7b8f-4d67-ab13-8c285e713372"},"vehicle_type_id":"4","last_reported":1778565383,"current_range_meters":6800,"station_id":"ce4bhm12rcd13ifvqgkg","pricing_plan_id":"cebpf4jnsgd1na2vs0mg"},{"bike_id":"6dfe858e-7378-4c9b-9be4-032949d8707e","system_id":"levelo_inurba_marseille","lat":43.30506,"lon":5.45981,"is_reserved":false,"is_disabled":false,"rental_uris":{"android":"levelo://app?vid=6dfe858e-7378-4c9b-9be4-032949d8707e","ios":"levelo://app?vid=6dfe858e-7378-4c9b-9be4-032949d8707e"},"vehicle_type_id":"4","last_reported":1778565383,"current_range_meters":6800,"station_id":"","pricing_plan_id":"cebpf4jnsgd1na2vs0mg"},{"bike_id":"f1658423-417c-4356-852a-b6b3b4447005","system_id":"levelo_inurba_marseille","lat":43.28463,"lon":5.39216,"is_reserved":false,"is_disabled":false,"rental_uris":{"android":"levelo://app?vid=f1658423-417c-4356-852a-b6b3b4447005","ios":"levelo://app?vid=f1658423-417c-4356-852a-b6b3b4447005"},"vehicle_type_id":"4","last_reported":1778565383,"current_range_meters":6800,"station_id":"ce4bhoh2rcd13ifvqh5g","pricing_plan_id":"cebpf4jnsgd1na2vs0mg"},{"bike_id":"3041b904-5076-4e36-bb46-c6adf7e57c1d","system_id":"levelo_inurba_marseille","lat":43.31182,"lon":5.36906,"is_reserved":false,"is_disabled":true,"rental_uris":{"android":"levelo://app?vid=3041b904-5076-4e36-bb46-c6adf7e57c1d","ios":"levelo://app?vid=3041b904-5076-4e36-bb46-c6adf7e57c1d"},"vehicle_type_id":"4","last_reported":1778565383,"current_range_meters":6800,"station_id":"ce4bgl92rcd13ifvqbq0","pricing_plan_id":"cebpf4jnsgd1na2vs0mg"},{"bike_id":"3f035d77-efd1-4d41-a986-ad7f6c1a12f6","system_id":"levelo_inurba_marseille","lat":43.21207,"lon":5.35058,"is_reserved":false,"is_disabled":false,"rental_uris":{"android":"levelo://app?vid=3f035d77-efd1-4d41-a986-ad7f6c1a12f6","ios":"levelo://app?vid=3f035d77-efd1-4d41-a986-ad7f6c1a12f6"},"vehicle_type_id":"4","last_reported":1778565383,"current_range_meters":6800,"station_id":"st_cvj6sg6p6f1abm77japg","pricing_plan_id":"cebpf4jnsgd1na2vs0mg"},{"bike_id":"b5380900-8f6e-4398-bc5c-d177a515d282","system_id":"levelo_inurba_marseille","lat":43.30171,"lon":5.38067,"is_reserved":false,"is_disabled":false,"rental_uris":{"android":"levelo://app?vid=b5380900-8f6e-4398-bc5c-d177a515d282","ios":"levelo://app?vid=b5380900-8f6e-4398-bc5c-d177a515d282"},"vehicle_type_id":"4","last_reported":1778565383,"current_range_meters":6800,"station_id":"ce4bgjp2rcd13ifvqbh0","pricing_plan_id":"cebpf4jnsgd1na2vs0mg"},{"bike_id":"1fd1b3e1-d932-469b-8a89-8dcb6f84a891","system_id":"levelo_inurba_marseille","lat":43.3188,"lon":5.40975,"is_reserved":false,"is_disabled":false,"rental_uris":{"android":"levelo://app?vid=1fd1b3e1-d932-469b-8a89-8dcb6f84a891","ios":"levelo://app?vid=1fd1b3e1-d932-469b-8a89-8dcb6f84a891"},"vehicle_type_id":"4","last_reported":1778565383,"current_range_meters":6800,"station_id":"","pricing_plan_id":"cebpf4jnsgd1na2vs0mg"},{"bike_id":"475b379f-701f-4736-aebe-f0de1a286a15","system_id":"levelo_inurba_marseille","lat":43.27909,"lon":5.4107,"is_reserved":false,"is_disabled":true,"rental_uris":{"android":"levelo://app?vid=475b379f-701f-4736-aebe-f0de1a286a15","ios":"levelo://app?vid=475b379f-701f-4736-aebe-f0de1a286a15"},"vehicle_type_id":"4","last_reported":1778565383,"current_range_meters":6800,"station_id":"ce4bhnp2rcd13ifvqh0g","pricing_plan_id":"cebpf4jnsgd1na2vs0mg"},{"bike_id":"42d788f0-fa3d-48f5-bbd8-9962146b5c0e","system_id":"levelo_inurba_marseille","lat":43.28926,"lon":5.38395,"is_reserved":false,"is_disabled":false,"rental_uris":{"android":"levelo://app?vid=42d788f0-fa3d-48f5-bbd8-9962146b5c0e","ios":"levelo://app?vid=42d788f0-fa3d-48f5-bbd8-9962146b5c0e"},"vehicle_type_id":"4","last_reported":1778565383,"current_range_meters":6800,"station_id":"ce4bh612rcd13ifvqe6g","pricing_plan_id":"cebpf4jnsgd1na2vs0mg"},{"bike_id":"ceb07c37-d587-4bb6-9b3d-06337d3854d6","system_id":"levelo_inurba_marseille","lat":43.30464,"lon":5.37885,"is_reserved":false,"is_disabled":true,"rental_uris":{"android":"levelo://app?vid=ceb07c37-d587-4bb6-9b3d-06337d3854d6","ios":"levelo://app?vid=ceb07c37-d587-4bb6-9b3d-06337d3854d6"},"vehicle_type_id":"4","last_reported":1778565383,"current_range_meters":6800,"station_id":"ce4bgup2rcd13ifvqcn0","pricing_plan_id":"cebpf4jnsgd1na2vs0mg"},{"bike_id":"11831cfa-39cb-4161-af7d-5dac5853ab75","system_id":"levelo_inurba_marseille","lat":43.31737,"lon":5.4048,"is_reserved":false,"is_disabled":false,"rental_uris":{"android":"levelo://app?vid=11831cfa-39cb-4161-af7d-5dac5853ab75","ios":"levelo://app?vid=11831cfa-39cb-4161-af7d-5dac5853ab75"},"vehicle_type_id":"4","last_reported":1778565383,"current_range_meters":6800,"station_id":"","pricing_plan_id":"cebpf4jnsgd1na2vs0mg"},{"bike_id":"29dacb7c-40b0-4af0-b0c6-3fb31d21f46d","system_id":"levelo_inurba_marseille","lat":43.23131,"lon":5.44469,"is_reserved":false,"is_disabled":false,"rental_uris":{"android":"levelo://app?vid=29dacb7c-40b0-4af0-b0c6-3fb31d21f46d","ios":"levelo://app?vid=29dacb7c-40b0-4af0-b0c6-3fb31d21f46d"},"vehicle_type_id":"4","last_reported":1778565383,"current_range_meters":6800,"station_id":"","pricing_plan_id":"cebpf4jnsgd1na2vs0mg"},{"bike_id":"788c4291-b55d-4ac3-bb5f-9db4701181ad","system_id":"levelo_inurba_marseille","lat":43.24647,"lon":5.38916,"is_reserved":false,"is_disabled":false,"rental_uris":{"android":"levelo://app?vid=788c4291-b55d-4ac3-bb5f-9db4701181ad","ios":"levelo://app?vid=788c4291-b55d-4ac3-bb5f-9db4701181ad"},"vehicle_type_id":"4","last_reported":1778565383,"current_range_meters":6800,"station_id":"ce4bhg12rcd13ifvqf60","pricing_plan_id":"cebpf4jnsgd1na2vs0mg"},{"bike_id":"6d2c5b52-6182-4052-b4c5-8f2387180cf1","system_id":"levelo_inurba_marseille","lat":43.28211,"lon":5.39062,"is_reserved":false,"is_disabled":false,"rental_uris":{"android":"levelo://app?vid=6d2c5b52-6182-4052-b4c5-8f2387180cf1","ios":"levelo://app?vid=6d2c5b52-6182-4052-b4c5-8f2387180cf1"},"vehicle_type_id":"4","last_reported":1778565383,"current_range_meters":6800,"station_id":"ce4bhn92rcd13ifvqgsg","pricing_plan_id":"cebpf4jnsgd1na2vs0mg"},{"bike_id":"3ab91696-705d-4b48-9229-7b83e1ad5c10","system_id":"levelo_inurba_marseille","lat":43.31757,"lon":5.39007,"is_reserved":false,"is_disabled":false,"rental_uris":{"android":"levelo://app?vid=3ab91696-705d-4b48-9229-7b83e1ad5c10","ios":"levelo://app?vid=3ab91696-705d-4b48-9229-7b83e1ad5c10"},"vehicle_type_id":"4","last_reported":1778565383,"current_range_meters":6800,"station_id":"ce4bhqp2rcd13ifvqhng","pricing_plan_id":"cebpf4jnsgd1na2vs0mg"},{"bike_id":"cea9b10f-9bb4-464c-9dee-8406c38bd293","system_id":"levelo_inurba_marseille","lat":43.28938,"lon":5.39636,"is_reserved":false,"is_disabled":false,"rental_uris":{"android":"levelo://app?vid=cea9b10f-9bb4-464c-9dee-8406c38bd293","ios":"levelo://app?vid=cea9b10f-9bb4-464c-9dee-8406c38bd293"},"vehicle_type_id":"4","last_reported":1778565383,"current_range_meters":7200,"station_id":"ce4bh3h2rcd13ifvqdn0","pricing_plan_id":"cebpf4jnsgd1na2vs0mg"},{"bike_id":"bf2280cc-a6fc-4cd0-974b-b874d0b0011b","system_id":"levelo_inurba_marseille","lat":43.24702,"lon":5.381,"is_reserved":false,"is_disabled":false,"rental_uris":{"android":"levelo://app?vid=bf2280cc-a6fc-4cd0-974b-b874d0b0011b","ios":"levelo://app?vid=bf2280cc-a6fc-4cd0-974b-b874d0b0011b"},"vehicle_type_id":"4","last_reported":1778565383,"current_range_meters":7200,"station_id":"","pricing_plan_id":"cebpf4jnsgd1na2vs0mg"},{"bike_id":"e73743a2-5ec0-408e-8140-53c8847ff93c","system_id":"levelo_inurba_marseille","lat":43.28558,"lon":5.38313,"is_reserved":false,"is_disabled":false,"rental_uris":{"android":"levelo://app?vid=e73743a2-5ec0-408e-8140-53c8847ff93c","ios":"levelo://app?vid=e73743a2-5ec0-408e-8140-53c8847ff93c"},"vehicle_type_id":"4","last_reported":1778565383,"current_range_meters":7200,"station_id":"","pricing_plan_id":"cebpf4jnsgd1na2vs0mg"},{"bike_id":"a9d5ddd1-667e-4d2c-8e68-398a8aa7204f","system_id":"levelo_inurba_marseille","lat":43.28406,"lon":5.37507,"is_reserved":false,"is_disabled":false,"rental_uris":{"android":"levelo://app?vid=a9d5ddd1-667e-4d2c-8e68-398a8aa7204f","ios":"levelo://app?vid=a9d5ddd1-667e-4d2c-8e68-398a8aa7204f"},"vehicle_type_id":"4","last_reported":1778565383,"current_range_meters":7200,"station_id":"ce4bh412rcd13ifvqds0","pricing_plan_id":"cebpf4jnsgd1na2vs0mg"},{"bike_id":"30407ef9-41ef-4119-bfb5-4c7bab044802","system_id":"levelo_inurba_marseille","lat":43.30675,"lon":5.40078,"is_reserved":false,"is_disabled":false,"rental_uris":{"android":"levelo://app?vid=30407ef9-41ef-4119-bfb5-4c7bab044802","ios":"levelo://app?vid=30407ef9-41ef-4119-bfb5-4c7bab044802"},"vehicle_type_id":"4","last_reported":1778565383,"current_range_meters":7200,"station_id":"ce4bh112rcd13ifvqda0","pricing_plan_id":"cebpf4jnsgd1na2vs0mg"},{"bike_id":"9fa89428-5f35-4918-8886-c28995319b63","system_id":"levelo_inurba_marseille","lat":43.301622,"lon":5.374299,"is_reserved":false,"is_disabled":false,"rental_uris":{"android":"levelo://app?vid=9fa89428-5f35-4918-8886-c28995319b63","ios":"levelo://app?vid=9fa89428-5f35-4918-8886-c28995319b63"},"vehicle_type_id":"4","last_reported":1778565383,"current_range_meters":7200,"station_id":"ce4bgs92rcd13ifvqcc0","pricing_plan_id":"cebpf4jnsgd1na2vs0mg"},{"bike_id":"534c59ae-5774-45a8-a7ae-d31d66b4ed73","system_id":"levelo_inurba_marseille","lat":43.29171,"lon":5.39936,"is_reserved":false,"is_disabled":false,"rental_uris":{"android":"levelo://app?vid=534c59ae-5774-45a8-a7ae-d31d66b4ed73","ios":"levelo://app?vid=534c59ae-5774-45a8-a7ae-d31d66b4ed73"},"vehicle_type_id":"4","last_reported":1778565383,"current_range_meters":7200,"station_id":"ce4bh392rcd13ifvqdm0","pricing_plan_id":"cebpf4jnsgd1na2vs0mg"},{"bike_id":"29a0fb7f-6e1f-46aa-8225-fab21dcb0f3e","system_id":"levelo_inurba_marseille","lat":43.25037,"lon":5.38919,"is_reserved":false,"is_disabled":false,"rental_uris":{"android":"levelo://app?vid=29a0fb7f-6e1f-46aa-8225-fab21dcb0f3e","ios":"levelo://app?vid=29a0fb7f-6e1f-46aa-8225-fab21dcb0f3e"},"vehicle_type_id":"4","last_reported":1778565383,"current_range_meters":7200,"station_id":"ce4bhgp2rcd13ifvqfd0","pricing_plan_id":"cebpf4jnsgd1na2vs0mg"},{"bike_id":"84abe30d-18ed-4ebb-a6d1-5f44a21a3a6c","system_id":"levelo_inurba_marseille","lat":43.24802,"lon":5.37478,"is_reserved":false,"is_disabled":false,"rental_uris":{"android":"levelo://app?vid=84abe30d-18ed-4ebb-a6d1-5f44a21a3a6c","ios":"levelo://app?vid=84abe30d-18ed-4ebb-a6d1-5f44a21a3a6c"},"vehicle_type_id":"4","last_reported":1778565383,"current_range_meters":7200,"station_id":"ce4bhgh2rcd13ifvqfb0","pricing_plan_id":"cebpf4jnsgd1na2vs0mg"},{"bike_id":"df2208b9-4d67-40d8-9783-0bc1dc3fbb89","system_id":"levelo_inurba_marseille","lat":43.30226,"lon":5.38152,"is_reserved":false,"is_disabled":false,"rental_uris":{"android":"levelo://app?vid=df2208b9-4d67-40d8-9783-0bc1dc3fbb89","ios":"levelo://app?vid=df2208b9-4d67-40d8-9783-0bc1dc3fbb89"},"vehicle_type_id":"4","last_reported":1778565383,"current_range_meters":7200,"station_id":"ce4bgjp2rcd13ifvqbh0","pricing_plan_id":"cebpf4jnsgd1na2vs0mg"},{"bike_id":"a606aa12-75dc-4b76-9866-3d915af8d5a6","system_id":"levelo_inurba_marseille","lat":43.28151,"lon":5.42636,"is_reserved":false,"is_disabled":false,"rental_uris":{"android":"levelo://app?vid=a606aa12-75dc-4b76-9866-3d915af8d5a6","ios":"levelo://app?vid=a606aa12-75dc-4b76-9866-3d915af8d5a6"},"vehicle_type_id":"4","last_reported":1778565383,"current_range_meters":7200,"station_id":"ce4bhnh2rcd13ifvqgug","pricing_plan_id":"cebpf4jnsgd1na2vs0mg"},{"bike_id":"616e411b-0f6c-421c-98e8-5ded0ac51e9f","system_id":"levelo_inurba_marseille","lat":43.240779,"lon":5.377577,"is_reserved":false,"is_disabled":false,"rental_uris":{"android":"levelo://app?vid=616e411b-0f6c-421c-98e8-5ded0ac51e9f","ios":"levelo://app?vid=616e411b-0f6c-421c-98e8-5ded0ac51e9f"},"vehicle_type_id":"4","last_reported":1778565383,"current_range_meters":7200,"station_id":"ce4bhnp2rcd13ifvqgvg","pricing_plan_id":"cebpf4jnsgd1na2vs0mg"},{"bike_id":"92bc6c86-cb53-401b-b9b8-d417af32eaa0","system_id":"levelo_inurba_marseille","lat":43.23895,"lon":5.37455,"is_reserved":false,"is_disabled":false,"rental_uris":{"android":"levelo://app?vid=92bc6c86-cb53-401b-b9b8-d417af32eaa0","ios":"levelo://app?vid=92bc6c86-cb53-401b-b9b8-d417af32eaa0"},"vehicle_type_id":"4","last_reported":1778565383,"current_range_meters":7200,"station_id":"st_d6sm7csbq4hs73f8fpjg","pricing_plan_id":"cebpf4jnsgd1na2vs0mg"},{"bike_id":"7bee9ecd-0f3f-4d9c-8518-bd4a87e3d659","system_id":"levelo_inurba_marseille","lat":43.29035,"lon":5.42847,"is_reserved":false,"is_disabled":false,"rental_uris":{"android":"levelo://app?vid=7bee9ecd-0f3f-4d9c-8518-bd4a87e3d659","ios":"levelo://app?vid=7bee9ecd-0f3f-4d9c-8518-bd4a87e3d659"},"vehicle_type_id":"4","last_reported":1778565383,"current_range_meters":7200,"station_id":"","pricing_plan_id":"cebpf4jnsgd1na2vs0mg"},{"bike_id":"7b6ce61a-0df0-46ff-a8bf-e9aaa2809514","system_id":"levelo_inurba_marseille","lat":43.29196,"lon":5.39335,"is_reserved":false,"is_disabled":false,"rental_uris":{"android":"levelo://app?vid=7b6ce61a-0df0-46ff-a8bf-e9aaa2809514","ios":"levelo://app?vid=7b6ce61a-0df0-46ff-a8bf-e9aaa2809514"},"vehicle_type_id":"4","last_reported":1778565383,"current_range_meters":8000,"station_id":"ce4bh192rcd13ifvqdd0","pricing_plan_id":"cebpf4jnsgd1na2vs0mg"},{"bike_id":"db233b6b-ed18-4f37-ab3b-29a07ede8b73","system_id":"levelo_inurba_marseille","lat":43.25489,"lon":5.37647,"is_reserved":false,"is_disabled":false,"rental_uris":{"android":"levelo://app?vid=db233b6b-ed18-4f37-ab3b-29a07ede8b73","ios":"levelo://app?vid=db233b6b-ed18-4f37-ab3b-29a07ede8b73"},"vehicle_type_id":"4","last_reported":1778565383,"current_range_meters":8000,"station_id":"ce4bhh12rcd13ifvqff0","pricing_plan_id":"cebpf4jnsgd1na2vs0mg"},{"bike_id":"f42967d2-489a-48e1-a27f-d69e989e14a1","system_id":"levelo_inurba_marseille","lat":43.31233,"lon":5.38071,"is_reserved":false,"is_disabled":false,"rental_uris":{"android":"levelo://app?vid=f42967d2-489a-48e1-a27f-d69e989e14a1","ios":"levelo://app?vid=f42967d2-489a-48e1-a27f-d69e989e14a1"},"vehicle_type_id":"4","last_reported":1778565383,"current_range_meters":8000,"station_id":"","pricing_plan_id":"cebpf4jnsgd1na2vs0mg"},{"bike_id":"12d9210c-c7ef-4e80-b9b3-8c31a2fbf5b2","system_id":"levelo_inurba_marseille","lat":43.31458,"lon":5.38552,"is_reserved":false,"is_disabled":false,"rental_uris":{"android":"levelo://app?vid=12d9210c-c7ef-4e80-b9b3-8c31a2fbf5b2","ios":"levelo://app?vid=12d9210c-c7ef-4e80-b9b3-8c31a2fbf5b2"},"vehicle_type_id":"4","last_reported":1778565383,"current_range_meters":8000,"station_id":"ce4bgt92rcd13ifvqcf0","pricing_plan_id":"cebpf4jnsgd1na2vs0mg"},{"bike_id":"949a9a80-18bf-4dc2-ab41-6f58fd5b097b","system_id":"levelo_inurba_marseille","lat":43.28258,"lon":5.39062,"is_reserved":false,"is_disabled":false,"rental_uris":{"android":"levelo://app?vid=949a9a80-18bf-4dc2-ab41-6f58fd5b097b","ios":"levelo://app?vid=949a9a80-18bf-4dc2-ab41-6f58fd5b097b"},"vehicle_type_id":"4","last_reported":1778565383,"current_range_meters":8000,"station_id":"ce4bhn92rcd13ifvqgsg","pricing_plan_id":"cebpf4jnsgd1na2vs0mg"},{"bike_id":"52a558e8-1ba1-4d3e-8069-da0c0776c4d2","system_id":"levelo_inurba_marseille","lat":43.28403,"lon":5.37514,"is_reserved":false,"is_disabled":false,"rental_uris":{"android":"levelo://app?vid=52a558e8-1ba1-4d3e-8069-da0c0776c4d2","ios":"levelo://app?vid=52a558e8-1ba1-4d3e-8069-da0c0776c4d2"},"vehicle_type_id":"4","last_reported":1778565383,"current_range_meters":8000,"station_id":"ce4bh412rcd13ifvqds0","pricing_plan_id":"cebpf4jnsgd1na2vs0mg"},{"bike_id":"f62cf51d-4460-4c5f-9c9c-22d593c3cf14","system_id":"levelo_inurba_marseille","lat":43.2801,"lon":5.41669,"is_reserved":false,"is_disabled":false,"rental_uris":{"android":"levelo://app?vid=f62cf51d-4460-4c5f-9c9c-22d593c3cf14","ios":"levelo://app?vid=f62cf51d-4460-4c5f-9c9c-22d593c3cf14"},"vehicle_type_id":"4","last_reported":1778565383,"current_range_meters":8000,"station_id":"ce4bho12rcd13ifvqh1g","pricing_plan_id":"cebpf4jnsgd1na2vs0mg"},{"bike_id":"15354813-f6a2-4ffa-b238-0bebee99b1bd","system_id":"levelo_inurba_marseille","lat":43.24816,"lon":5.37449,"is_reserved":false,"is_disabled":false,"rental_uris":{"android":"levelo://app?vid=15354813-f6a2-4ffa-b238-0bebee99b1bd","ios":"levelo://app?vid=15354813-f6a2-4ffa-b238-0bebee99b1bd"},"vehicle_type_id":"4","last_reported":1778565383,"current_range_meters":8000,"station_id":"ce4bhgh2rcd13ifvqfb0","pricing_plan_id":"cebpf4jnsgd1na2vs0mg"},{"bike_id":"8f7d64dc-399b-4779-91c5-2f5fcb7aad7e","system_id":"levelo_inurba_marseille","lat":43.24817,"lon":5.37448,"is_reserved":false,"is_disabled":false,"rental_uris":{"android":"levelo://app?vid=8f7d64dc-399b-4779-91c5-2f5fcb7aad7e","ios":"levelo://app?vid=8f7d64dc-399b-4779-91c5-2f5fcb7aad7e"},"vehicle_type_id":"4","last_reported":1778565383,"current_range_meters":8000,"station_id":"ce4bhgh2rcd13ifvqfb0","pricing_plan_id":"cebpf4jnsgd1na2vs0mg"},{"bike_id":"66bb778f-8cf8-4298-89d3-e698d2c68cf6","system_id":"levelo_inurba_marseille","lat":43.24541,"lon":5.3952,"is_reserved":false,"is_disabled":false,"rental_uris":{"android":"levelo://app?vid=66bb778f-8cf8-4298-89d3-e698d2c68cf6","ios":"levelo://app?vid=66bb778f-8cf8-4298-89d3-e698d2c68cf6"},"vehicle_type_id":"4","last_reported":1778565383,"current_range_meters":8000,"station_id":"ce4bhlp2rcd13ifvqgjg","pricing_plan_id":"cebpf4jnsgd1na2vs0mg"},{"bike_id":"7b3989c9-30d3-478a-9d85-24b30f0f59af","system_id":"levelo_inurba_marseille","lat":43.29596,"lon":5.37727,"is_reserved":false,"is_disabled":false,"rental_uris":{"android":"levelo://app?vid=7b3989c9-30d3-478a-9d85-24b30f0f59af","ios":"levelo://app?vid=7b3989c9-30d3-478a-9d85-24b30f0f59af"},"vehicle_type_id":"4","last_reported":1778565383,"current_range_meters":8000,"station_id":"ce4bgi92rcd13ifvqb90","pricing_plan_id":"cebpf4jnsgd1na2vs0mg"},{"bike_id":"f39edd84-9ed6-4f79-8710-76b6438a632c","system_id":"levelo_inurba_marseille","lat":43.30922,"lon":5.40141,"is_reserved":false,"is_disabled":false,"rental_uris":{"android":"levelo://app?vid=f39edd84-9ed6-4f79-8710-76b6438a632c","ios":"levelo://app?vid=f39edd84-9ed6-4f79-8710-76b6438a632c"},"vehicle_type_id":"4","last_reported":1778565383,"current_range_meters":8000,"station_id":"ce4bgvp2rcd13ifvqct0","pricing_plan_id":"cebpf4jnsgd1na2vs0mg"},{"bike_id":"53404d13-b30d-49e4-b74f-9f77f9f3c8fd","system_id":"levelo_inurba_marseille","lat":43.29374,"lon":5.37856,"is_reserved":false,"is_disabled":true,"rental_uris":{"android":"levelo://app?vid=53404d13-b30d-49e4-b74f-9f77f9f3c8fd","ios":"levelo://app?vid=53404d13-b30d-49e4-b74f-9f77f9f3c8fd"},"vehicle_type_id":"4","last_reported":1778565383,"current_range_meters":8000,"station_id":"ce4bgjh2rcd13ifvqbf0","pricing_plan_id":"cebpf4jnsgd1na2vs0mg"},{"bike_id":"e2bd0b8a-f90b-4073-9c2d-96a86422e527","system_id":"levelo_inurba_marseille","lat":43.30164,"lon":5.38102,"is_reserved":false,"is_disabled":false,"rental_uris":{"android":"levelo://app?vid=e2bd0b8a-f90b-4073-9c2d-96a86422e527","ios":"levelo://app?vid=e2bd0b8a-f90b-4073-9c2d-96a86422e527"},"vehicle_type_id":"4","last_reported":1778565383,"current_range_meters":8000,"station_id":"ce4bgjp2rcd13ifvqbh0","pricing_plan_id":"cebpf4jnsgd1na2vs0mg"},{"bike_id":"a980af66-26ec-46d6-9015-d28b64804fc3","system_id":"levelo_inurba_marseille","lat":43.25099,"lon":5.39478,"is_reserved":false,"is_disabled":false,"rental_uris":{"android":"levelo://app?vid=a980af66-26ec-46d6-9015-d28b64804fc3","ios":"levelo://app?vid=a980af66-26ec-46d6-9015-d28b64804fc3"},"vehicle_type_id":"4","last_reported":1778565383,"current_range_meters":8000,"station_id":"ce4bhm12rcd13ifvqgkg","pricing_plan_id":"cebpf4jnsgd1na2vs0mg"},{"bike_id":"24aa629d-5014-4018-abb5-d38aa3ba6a71","system_id":"levelo_inurba_marseille","lat":43.29323,"lon":5.37197,"is_reserved":false,"is_disabled":true,"rental_uris":{"android":"levelo://app?vid=24aa629d-5014-4018-abb5-d38aa3ba6a71","ios":"levelo://app?vid=24aa629d-5014-4018-abb5-d38aa3ba6a71"},"vehicle_type_id":"4","last_reported":1778565383,"current_range_meters":8000,"station_id":"ce4bgh92rcd13ifvqb40","pricing_plan_id":"cebpf4jnsgd1na2vs0mg"},{"bike_id":"36592853-fa29-4b45-99bc-dd41446d0bde","system_id":"levelo_inurba_marseille","lat":43.337518,"lon":5.374433,"is_reserved":false,"is_disabled":false,"rental_uris":{"android":"levelo://app?vid=36592853-fa29-4b45-99bc-dd41446d0bde","ios":"levelo://app?vid=36592853-fa29-4b45-99bc-dd41446d0bde"},"vehicle_type_id":"4","last_reported":1778565383,"current_range_meters":8000,"station_id":"","pricing_plan_id":"cebpf4jnsgd1na2vs0mg"},{"bike_id":"d33539b1-aca9-41e7-9ff4-73263fe5fd3b","system_id":"levelo_inurba_marseille","lat":43.29809,"lon":5.38086,"is_reserved":false,"is_disabled":false,"rental_uris":{"android":"levelo://app?vid=d33539b1-aca9-41e7-9ff4-73263fe5fd3b","ios":"levelo://app?vid=d33539b1-aca9-41e7-9ff4-73263fe5fd3b"},"vehicle_type_id":"4","last_reported":1778565383,"current_range_meters":8000,"station_id":"ce4bgip2rcd13ifvqbb0","pricing_plan_id":"cebpf4jnsgd1na2vs0mg"},{"bike_id":"8ac90312-2c01-46ae-81ea-3fc64f4c6704","system_id":"levelo_inurba_marseille","lat":43.29134,"lon":5.43262,"is_reserved":false,"is_disabled":false,"rental_uris":{"android":"levelo://app?vid=8ac90312-2c01-46ae-81ea-3fc64f4c6704","ios":"levelo://app?vid=8ac90312-2c01-46ae-81ea-3fc64f4c6704"},"vehicle_type_id":"4","last_reported":1778565383,"current_range_meters":8000,"station_id":"","pricing_plan_id":"cebpf4jnsgd1na2vs0mg"},{"bike_id":"9a3a1c9e-a920-40af-a899-bdfdfc4eb700","system_id":"levelo_inurba_marseille","lat":43.25087,"lon":5.39522,"is_reserved":false,"is_disabled":false,"rental_uris":{"android":"levelo://app?vid=9a3a1c9e-a920-40af-a899-bdfdfc4eb700","ios":"levelo://app?vid=9a3a1c9e-a920-40af-a899-bdfdfc4eb700"},"vehicle_type_id":"4","last_reported":1778565383,"current_range_meters":8000,"station_id":"ce4bhm12rcd13ifvqgkg","pricing_plan_id":"cebpf4jnsgd1na2vs0mg"},{"bike_id":"8a22222f-e497-4108-9cd5-24115a8a4a3c","system_id":"levelo_inurba_marseille","lat":43.28219,"lon":5.39043,"is_reserved":false,"is_disabled":false,"rental_uris":{"android":"levelo://app?vid=8a22222f-e497-4108-9cd5-24115a8a4a3c","ios":"levelo://app?vid=8a22222f-e497-4108-9cd5-24115a8a4a3c"},"vehicle_type_id":"4","last_reported":1778565383,"current_range_meters":8000,"station_id":"ce4bhn92rcd13ifvqgsg","pricing_plan_id":"cebpf4jnsgd1na2vs0mg"},{"bike_id":"17e9e249-9188-48ea-abc5-3986d5c6bf0f","system_id":"levelo_inurba_marseille","lat":43.26815,"lon":5.39452,"is_reserved":false,"is_disabled":true,"rental_uris":{"android":"levelo://app?vid=17e9e249-9188-48ea-abc5-3986d5c6bf0f","ios":"levelo://app?vid=17e9e249-9188-48ea-abc5-3986d5c6bf0f"},"vehicle_type_id":"4","last_reported":1778565383,"current_range_meters":8400,"station_id":"ce4bhh12rcd13ifvqfg0","pricing_plan_id":"cebpf4jnsgd1na2vs0mg"},{"bike_id":"583c4ac3-3afb-4767-a094-b922f2a8b48f","system_id":"levelo_inurba_marseille","lat":43.25595,"lon":5.38252,"is_reserved":false,"is_disabled":false,"rental_uris":{"android":"levelo://app?vid=583c4ac3-3afb-4767-a094-b922f2a8b48f","ios":"levelo://app?vid=583c4ac3-3afb-4767-a094-b922f2a8b48f"},"vehicle_type_id":"4","last_reported":1778565383,"current_range_meters":8400,"station_id":"ce4bhih2rcd13ifvqfs0","pricing_plan_id":"cebpf4jnsgd1na2vs0mg"},{"bike_id":"0d87d013-678e-4ba5-a052-8d2381d39a72","system_id":"levelo_inurba_marseille","lat":43.30417,"lon":5.3974,"is_reserved":false,"is_disabled":false,"rental_uris":{"android":"levelo://app?vid=0d87d013-678e-4ba5-a052-8d2381d39a72","ios":"levelo://app?vid=0d87d013-678e-4ba5-a052-8d2381d39a72"},"vehicle_type_id":"4","last_reported":1778565383,"current_range_meters":8400,"station_id":"ce4bh092rcd13ifvqd20","pricing_plan_id":"cebpf4jnsgd1na2vs0mg"},{"bike_id":"d4361cac-9434-4f77-85b6-f5418610d277","system_id":"levelo_inurba_marseille","lat":43.31718,"lon":5.37764,"is_reserved":false,"is_disabled":false,"rental_uris":{"android":"levelo://app?vid=d4361cac-9434-4f77-85b6-f5418610d277","ios":"levelo://app?vid=d4361cac-9434-4f77-85b6-f5418610d277"},"vehicle_type_id":"4","last_reported":1778565383,"current_range_meters":8400,"station_id":"ce4bgth2rcd13ifvqch0","pricing_plan_id":"cebpf4jnsgd1na2vs0mg"},{"bike_id":"c78b80db-967f-4c73-977d-5093e58c37be","system_id":"levelo_inurba_marseille","lat":43.28718,"lon":5.37927,"is_reserved":false,"is_disabled":false,"rental_uris":{"android":"levelo://app?vid=c78b80db-967f-4c73-977d-5093e58c37be","ios":"levelo://app?vid=c78b80db-967f-4c73-977d-5093e58c37be"},"vehicle_type_id":"4","last_reported":1778565383,"current_range_meters":8400,"station_id":"ce4bh9p2rcd13ifvqec0","pricing_plan_id":"cebpf4jnsgd1na2vs0mg"},{"bike_id":"1e94d5e9-9326-446d-9872-25a43321da56","system_id":"levelo_inurba_marseille","lat":43.24169,"lon":5.39717,"is_reserved":false,"is_disabled":false,"rental_uris":{"android":"levelo://app?vid=1e94d5e9-9326-446d-9872-25a43321da56","ios":"levelo://app?vid=1e94d5e9-9326-446d-9872-25a43321da56"},"vehicle_type_id":"4","last_reported":1778565383,"current_range_meters":8400,"station_id":"ce4bhn12rcd13ifvqgpg","pricing_plan_id":"cebpf4jnsgd1na2vs0mg"},{"bike_id":"3c76494c-1a5c-469e-99c3-4d49cfb64688","system_id":"levelo_inurba_marseille","lat":43.23204,"lon":5.35555,"is_reserved":false,"is_disabled":false,"rental_uris":{"android":"levelo://app?vid=3c76494c-1a5c-469e-99c3-4d49cfb64688","ios":"levelo://app?vid=3c76494c-1a5c-469e-99c3-4d49cfb64688"},"vehicle_type_id":"4","last_reported":1778565383,"current_range_meters":8400,"station_id":"ce4bhu92rcd13ifvqi70","pricing_plan_id":"cebpf4jnsgd1na2vs0mg"},{"bike_id":"3302519b-1e73-446e-b993-8e0440f0606a","system_id":"levelo_inurba_marseille","lat":43.2784,"lon":5.40708,"is_reserved":false,"is_disabled":false,"rental_uris":{"android":"levelo://app?vid=3302519b-1e73-446e-b993-8e0440f0606a","ios":"levelo://app?vid=3302519b-1e73-446e-b993-8e0440f0606a"},"vehicle_type_id":"4","last_reported":1778565383,"current_range_meters":8400,"station_id":"ce4bhnh2rcd13ifvqgtg","pricing_plan_id":"cebpf4jnsgd1na2vs0mg"},{"bike_id":"ceeafaf3-2ad7-4859-8fdf-55f9b3c40610","system_id":"levelo_inurba_marseille","lat":43.2953,"lon":5.41767,"is_reserved":false,"is_disabled":false,"rental_uris":{"android":"levelo://app?vid=ceeafaf3-2ad7-4859-8fdf-55f9b3c40610","ios":"levelo://app?vid=ceeafaf3-2ad7-4859-8fdf-55f9b3c40610"},"vehicle_type_id":"4","last_reported":1778565383,"current_range_meters":8400,"station_id":"","pricing_plan_id":"cebpf4jnsgd1na2vs0mg"},{"bike_id":"e774eeeb-cf86-44e2-8f96-d4bd89592223","system_id":"levelo_inurba_marseille","lat":43.32825,"lon":5.42622,"is_reserved":false,"is_disabled":false,"rental_uris":{"android":"levelo://app?vid=e774eeeb-cf86-44e2-8f96-d4bd89592223","ios":"levelo://app?vid=e774eeeb-cf86-44e2-8f96-d4bd89592223"},"vehicle_type_id":"4","last_reported":1778565383,"current_range_meters":8400,"station_id":"","pricing_plan_id":"cebpf4jnsgd1na2vs0mg"},{"bike_id":"b34c7457-0ab0-4e4e-ae98-961f475fdf55","system_id":"levelo_inurba_marseille","lat":43.24448,"lon":5.37443,"is_reserved":false,"is_disabled":false,"rental_uris":{"android":"levelo://app?vid=b34c7457-0ab0-4e4e-ae98-961f475fdf55","ios":"levelo://app?vid=b34c7457-0ab0-4e4e-ae98-961f475fdf55"},"vehicle_type_id":"4","last_reported":1778565383,"current_range_meters":8400,"station_id":"","pricing_plan_id":"cebpf4jnsgd1na2vs0mg"},{"bike_id":"8ad3eb67-25ae-42ac-aeaa-7537ff8174ee","system_id":"levelo_inurba_marseille","lat":43.27547,"lon":5.41522,"is_reserved":false,"is_disabled":true,"rental_uris":{"android":"levelo://app?vid=8ad3eb67-25ae-42ac-aeaa-7537ff8174ee","ios":"levelo://app?vid=8ad3eb67-25ae-42ac-aeaa-7537ff8174ee"},"vehicle_type_id":"4","last_reported":1778565383,"current_range_meters":8400,"station_id":"","pricing_plan_id":"cebpf4jnsgd1na2vs0mg"},{"bike_id":"ff82d4aa-d2ce-42bc-9fbf-8f5ce8a72ded","system_id":"levelo_inurba_marseille","lat":43.31174,"lon":5.38726,"is_reserved":false,"is_disabled":false,"rental_uris":{"android":"levelo://app?vid=ff82d4aa-d2ce-42bc-9fbf-8f5ce8a72ded","ios":"levelo://app?vid=ff82d4aa-d2ce-42bc-9fbf-8f5ce8a72ded"},"vehicle_type_id":"4","last_reported":1778565383,"current_range_meters":8400,"station_id":"ce4bgv12rcd13ifvqcp0","pricing_plan_id":"cebpf4jnsgd1na2vs0mg"},{"bike_id":"b9f141a5-f8eb-401a-b45a-250c53f51401","system_id":"levelo_inurba_marseille","lat":43.23788,"lon":5.36659,"is_reserved":false,"is_disabled":false,"rental_uris":{"android":"levelo://app?vid=b9f141a5-f8eb-401a-b45a-250c53f51401","ios":"levelo://app?vid=b9f141a5-f8eb-401a-b45a-250c53f51401"},"vehicle_type_id":"4","last_reported":1778565383,"current_range_meters":8400,"station_id":"st_d3nk18o9ro0c73en2l3g","pricing_plan_id":"cebpf4jnsgd1na2vs0mg"},{"bike_id":"f75d28c1-7e0c-4a8e-87af-765be15410e4","system_id":"levelo_inurba_marseille","lat":43.31886,"lon":5.36803,"is_reserved":false,"is_disabled":false,"rental_uris":{"android":"levelo://app?vid=f75d28c1-7e0c-4a8e-87af-765be15410e4","ios":"levelo://app?vid=f75d28c1-7e0c-4a8e-87af-765be15410e4"},"vehicle_type_id":"4","last_reported":1778565383,"current_range_meters":8400,"station_id":"st_d6o2h0d0559c73evc1b0","pricing_plan_id":"cebpf4jnsgd1na2vs0mg"},{"bike_id":"2a5c198c-c87f-4a70-8ef8-fea39b6da84b","system_id":"levelo_inurba_marseille","lat":43.26191,"lon":5.40393,"is_reserved":false,"is_disabled":false,"rental_uris":{"android":"levelo://app?vid=2a5c198c-c87f-4a70-8ef8-fea39b6da84b","ios":"levelo://app?vid=2a5c198c-c87f-4a70-8ef8-fea39b6da84b"},"vehicle_type_id":"4","last_reported":1778565383,"current_range_meters":8800,"station_id":"","pricing_plan_id":"cebpf4jnsgd1na2vs0mg"},{"bike_id":"e6af1460-2eba-412f-8a12-a8bbc983bf67","system_id":"levelo_inurba_marseille","lat":43.30325,"lon":5.40445,"is_reserved":false,"is_disabled":false,"rental_uris":{"android":"levelo://app?vid=e6af1460-2eba-412f-8a12-a8bbc983bf67","ios":"levelo://app?vid=e6af1460-2eba-412f-8a12-a8bbc983bf67"},"vehicle_type_id":"4","last_reported":1778565383,"current_range_meters":8800,"station_id":"ce4bh012rcd13ifvqd10","pricing_plan_id":"cebpf4jnsgd1na2vs0mg"},{"bike_id":"f7e4b7f6-96a2-4328-9205-90a5366b3ade","system_id":"levelo_inurba_marseille","lat":43.28149,"lon":5.42604,"is_reserved":false,"is_disabled":false,"rental_uris":{"android":"levelo://app?vid=f7e4b7f6-96a2-4328-9205-90a5366b3ade","ios":"levelo://app?vid=f7e4b7f6-96a2-4328-9205-90a5366b3ade"},"vehicle_type_id":"4","last_reported":1778565383,"current_range_meters":8800,"station_id":"ce4bhnh2rcd13ifvqgug","pricing_plan_id":"cebpf4jnsgd1na2vs0mg"},{"bike_id":"d8867698-e6cd-4bf5-a7ab-c04ce9776f8b","system_id":"levelo_inurba_marseille","lat":43.2656,"lon":5.38997,"is_reserved":false,"is_disabled":false,"rental_uris":{"android":"levelo://app?vid=d8867698-e6cd-4bf5-a7ab-c04ce9776f8b","ios":"levelo://app?vid=d8867698-e6cd-4bf5-a7ab-c04ce9776f8b"},"vehicle_type_id":"4","last_reported":1778565383,"current_range_meters":8800,"station_id":"ce4bhe12rcd13ifvqf30","pricing_plan_id":"cebpf4jnsgd1na2vs0mg"},{"bike_id":"e85fd643-a216-4146-ac89-85427551101a","system_id":"levelo_inurba_marseille","lat":43.27591,"lon":5.39657,"is_reserved":false,"is_disabled":false,"rental_uris":{"android":"levelo://app?vid=e85fd643-a216-4146-ac89-85427551101a","ios":"levelo://app?vid=e85fd643-a216-4146-ac89-85427551101a"},"vehicle_type_id":"4","last_reported":1778565383,"current_range_meters":8800,"station_id":"","pricing_plan_id":"cebpf4jnsgd1na2vs0mg"},{"bike_id":"d4da9b45-db6b-4b82-bffe-788e60ddc215","system_id":"levelo_inurba_marseille","lat":43.225261,"lon":5.348365,"is_reserved":false,"is_disabled":true,"rental_uris":{"android":"levelo://app?vid=d4da9b45-db6b-4b82-bffe-788e60ddc215","ios":"levelo://app?vid=d4da9b45-db6b-4b82-bffe-788e60ddc215"},"vehicle_type_id":"4","last_reported":1778565383,"current_range_meters":8800,"station_id":"st_cvj5dfep6f1abm77gieg","pricing_plan_id":"cebpf4jnsgd1na2vs0mg"},{"bike_id":"e8dca2a6-5414-4beb-8a75-e7a22fabb8e3","system_id":"levelo_inurba_marseille","lat":43.30602,"lon":5.3936,"is_reserved":false,"is_disabled":false,"rental_uris":{"android":"levelo://app?vid=e8dca2a6-5414-4beb-8a75-e7a22fabb8e3","ios":"levelo://app?vid=e8dca2a6-5414-4beb-8a75-e7a22fabb8e3"},"vehicle_type_id":"4","last_reported":1778565383,"current_range_meters":8800,"station_id":"ce4bh0p2rcd13ifvqd80","pricing_plan_id":"cebpf4jnsgd1na2vs0mg"},{"bike_id":"c76061b1-7b1f-41cf-86ee-0965daee53ec","system_id":"levelo_inurba_marseille","lat":43.295743,"lon":5.397636,"is_reserved":false,"is_disabled":true,"rental_uris":{"android":"levelo://app?vid=c76061b1-7b1f-41cf-86ee-0965daee53ec","ios":"levelo://app?vid=c76061b1-7b1f-41cf-86ee-0965daee53ec"},"vehicle_type_id":"4","last_reported":1778565383,"current_range_meters":8800,"station_id":"","pricing_plan_id":"cebpf4jnsgd1na2vs0mg"},{"bike_id":"d2a203f0-02e6-4499-9b24-150d7665b516","system_id":"levelo_inurba_marseille","lat":43.30731,"lon":5.42418,"is_reserved":false,"is_disabled":false,"rental_uris":{"android":"levelo://app?vid=d2a203f0-02e6-4499-9b24-150d7665b516","ios":"levelo://app?vid=d2a203f0-02e6-4499-9b24-150d7665b516"},"vehicle_type_id":"4","last_reported":1778565383,"current_range_meters":8800,"station_id":"st_cvj6ca6bvosntc0bfgr0","pricing_plan_id":"cebpf4jnsgd1na2vs0mg"},{"bike_id":"7ccc4bc4-f807-4740-995d-5cc6b7b50bc2","system_id":"levelo_inurba_marseille","lat":43.26563,"lon":5.37343,"is_reserved":false,"is_disabled":false,"rental_uris":{"android":"levelo://app?vid=7ccc4bc4-f807-4740-995d-5cc6b7b50bc2","ios":"levelo://app?vid=7ccc4bc4-f807-4740-995d-5cc6b7b50bc2"},"vehicle_type_id":"4","last_reported":1778565383,"current_range_meters":8800,"station_id":"ce4bhg12rcd13ifvqf70","pricing_plan_id":"cebpf4jnsgd1na2vs0mg"},{"bike_id":"69de8ad6-2071-4e96-9a22-923d2e6276c3","system_id":"levelo_inurba_marseille","lat":43.28609,"lon":5.39861,"is_reserved":false,"is_disabled":false,"rental_uris":{"android":"levelo://app?vid=69de8ad6-2071-4e96-9a22-923d2e6276c3","ios":"levelo://app?vid=69de8ad6-2071-4e96-9a22-923d2e6276c3"},"vehicle_type_id":"4","last_reported":1778565383,"current_range_meters":8800,"station_id":"st_d4a7ka997mjs738ck50g","pricing_plan_id":"cebpf4jnsgd1na2vs0mg"},{"bike_id":"9bf0a14c-1dd0-4d76-84d1-d384f5c8ceda","system_id":"levelo_inurba_marseille","lat":43.29155,"lon":5.37159,"is_reserved":false,"is_disabled":false,"rental_uris":{"android":"levelo://app?vid=9bf0a14c-1dd0-4d76-84d1-d384f5c8ceda","ios":"levelo://app?vid=9bf0a14c-1dd0-4d76-84d1-d384f5c8ceda"},"vehicle_type_id":"4","last_reported":1778565383,"current_range_meters":8800,"station_id":"ce4bha92rcd13ifvqeh0","pricing_plan_id":"cebpf4jnsgd1na2vs0mg"},{"bike_id":"7d7cf70b-bb53-42d8-8600-2b2259e13653","system_id":"levelo_inurba_marseille","lat":43.26203,"lon":5.37454,"is_reserved":false,"is_disabled":true,"rental_uris":{"android":"levelo://app?vid=7d7cf70b-bb53-42d8-8600-2b2259e13653","ios":"levelo://app?vid=7d7cf70b-bb53-42d8-8600-2b2259e13653"},"vehicle_type_id":"4","last_reported":1778565383,"current_range_meters":8800,"station_id":"ce4bhgp2rcd13ifvqfc0","pricing_plan_id":"cebpf4jnsgd1na2vs0mg"},{"bike_id":"140865bf-2681-4f73-9f7d-3ac57bac849b","system_id":"levelo_inurba_marseille","lat":43.32338,"lon":5.36737,"is_reserved":false,"is_disabled":false,"rental_uris":{"android":"levelo://app?vid=140865bf-2681-4f73-9f7d-3ac57bac849b","ios":"levelo://app?vid=140865bf-2681-4f73-9f7d-3ac57bac849b"},"vehicle_type_id":"4","last_reported":1778565383,"current_range_meters":8800,"station_id":"ce4bhsh2rcd13ifvqi2g","pricing_plan_id":"cebpf4jnsgd1na2vs0mg"},{"bike_id":"a2b68aed-7661-4bf9-a040-c5edc9753827","system_id":"levelo_inurba_marseille","lat":43.3017,"lon":5.38078,"is_reserved":false,"is_disabled":false,"rental_uris":{"android":"levelo://app?vid=a2b68aed-7661-4bf9-a040-c5edc9753827","ios":"levelo://app?vid=a2b68aed-7661-4bf9-a040-c5edc9753827"},"vehicle_type_id":"4","last_reported":1778565383,"current_range_meters":8800,"station_id":"ce4bgjp2rcd13ifvqbh0","pricing_plan_id":"cebpf4jnsgd1na2vs0mg"},{"bike_id":"9646c062-b122-455b-a4b1-4c276d2ccca6","system_id":"levelo_inurba_marseille","lat":43.25226,"lon":5.38388,"is_reserved":false,"is_disabled":false,"rental_uris":{"android":"levelo://app?vid=9646c062-b122-455b-a4b1-4c276d2ccca6","ios":"levelo://app?vid=9646c062-b122-455b-a4b1-4c276d2ccca6"},"vehicle_type_id":"4","last_reported":1778565383,"current_range_meters":8800,"station_id":"","pricing_plan_id":"cebpf4jnsgd1na2vs0mg"},{"bike_id":"f209b9a5-3c03-46d3-b4cb-50d8bea9bc90","system_id":"levelo_inurba_marseille","lat":43.28857,"lon":5.42539,"is_reserved":false,"is_disabled":false,"rental_uris":{"android":"levelo://app?vid=f209b9a5-3c03-46d3-b4cb-50d8bea9bc90","ios":"levelo://app?vid=f209b9a5-3c03-46d3-b4cb-50d8bea9bc90"},"vehicle_type_id":"4","last_reported":1778565383,"current_range_meters":9200,"station_id":"st_d3b462108ojc7389ooeg","pricing_plan_id":"cebpf4jnsgd1na2vs0mg"},{"bike_id":"a614b5e3-1c0c-42d4-8996-d30e96b6f1df","system_id":"levelo_inurba_marseille","lat":43.32345,"lon":5.36544,"is_reserved":false,"is_disabled":false,"rental_uris":{"android":"levelo://app?vid=a614b5e3-1c0c-42d4-8996-d30e96b6f1df","ios":"levelo://app?vid=a614b5e3-1c0c-42d4-8996-d30e96b6f1df"},"vehicle_type_id":"4","last_reported":1778565383,"current_range_meters":9200,"station_id":"","pricing_plan_id":"cebpf4jnsgd1na2vs0mg"},{"bike_id":"f10ee9c6-4737-43bb-a14c-322147a1adcc","system_id":"levelo_inurba_marseille","lat":43.26791,"lon":5.39411,"is_reserved":false,"is_disabled":false,"rental_uris":{"android":"levelo://app?vid=f10ee9c6-4737-43bb-a14c-322147a1adcc","ios":"levelo://app?vid=f10ee9c6-4737-43bb-a14c-322147a1adcc"},"vehicle_type_id":"4","last_reported":1778565383,"current_range_meters":9200,"station_id":"ce4bhh12rcd13ifvqfg0","pricing_plan_id":"cebpf4jnsgd1na2vs0mg"},{"bike_id":"6515adce-c1de-4083-bac8-1d05e04ed7a3","system_id":"levelo_inurba_marseille","lat":43.22538,"lon":5.34832,"is_reserved":false,"is_disabled":true,"rental_uris":{"android":"levelo://app?vid=6515adce-c1de-4083-bac8-1d05e04ed7a3","ios":"levelo://app?vid=6515adce-c1de-4083-bac8-1d05e04ed7a3"},"vehicle_type_id":"4","last_reported":1778565383,"current_range_meters":9200,"station_id":"st_cvj5dfep6f1abm77gieg","pricing_plan_id":"cebpf4jnsgd1na2vs0mg"},{"bike_id":"61a4cded-8747-492c-b087-c1d39a0de75b","system_id":"levelo_inurba_marseille","lat":43.29292,"lon":5.36843,"is_reserved":false,"is_disabled":false,"rental_uris":{"android":"levelo://app?vid=61a4cded-8747-492c-b087-c1d39a0de75b","ios":"levelo://app?vid=61a4cded-8747-492c-b087-c1d39a0de75b"},"vehicle_type_id":"4","last_reported":1778565383,"current_range_meters":9200,"station_id":"ce4bhbp2rcd13ifvqesg","pricing_plan_id":"cebpf4jnsgd1na2vs0mg"},{"bike_id":"53672521-2ed1-48ef-bb6b-93f7b90eca33","system_id":"levelo_inurba_marseille","lat":43.31962,"lon":5.37391,"is_reserved":false,"is_disabled":true,"rental_uris":{"android":"levelo://app?vid=53672521-2ed1-48ef-bb6b-93f7b90eca33","ios":"levelo://app?vid=53672521-2ed1-48ef-bb6b-93f7b90eca33"},"vehicle_type_id":"4","last_reported":1778565383,"current_range_meters":9200,"station_id":"","pricing_plan_id":"cebpf4jnsgd1na2vs0mg"},{"bike_id":"a55c0922-c157-4e5f-9131-47ec1297e166","system_id":"levelo_inurba_marseille","lat":43.24958,"lon":5.4049,"is_reserved":false,"is_disabled":false,"rental_uris":{"android":"levelo://app?vid=a55c0922-c157-4e5f-9131-47ec1297e166","ios":"levelo://app?vid=a55c0922-c157-4e5f-9131-47ec1297e166"},"vehicle_type_id":"4","last_reported":1778565383,"current_range_meters":9200,"station_id":"st_d2ngiaodas8pm72gd1h0","pricing_plan_id":"cebpf4jnsgd1na2vs0mg"},{"bike_id":"27d51c02-1763-4483-b527-d4742cd2a634","system_id":"levelo_inurba_marseille","lat":43.29189,"lon":5.39321,"is_reserved":false,"is_disabled":false,"rental_uris":{"android":"levelo://app?vid=27d51c02-1763-4483-b527-d4742cd2a634","ios":"levelo://app?vid=27d51c02-1763-4483-b527-d4742cd2a634"},"vehicle_type_id":"4","last_reported":1778565383,"current_range_meters":9200,"station_id":"ce4bh192rcd13ifvqdd0","pricing_plan_id":"cebpf4jnsgd1na2vs0mg"},{"bike_id":"21dddfb9-a2ac-40f3-92f4-b84c5ccd2416","system_id":"levelo_inurba_marseille","lat":43.29546,"lon":5.36772,"is_reserved":false,"is_disabled":true,"rental_uris":{"android":"levelo://app?vid=21dddfb9-a2ac-40f3-92f4-b84c5ccd2416","ios":"levelo://app?vid=21dddfb9-a2ac-40f3-92f4-b84c5ccd2416"},"vehicle_type_id":"4","last_reported":1778565383,"current_range_meters":9200,"station_id":"ce4bgph2rcd13ifvqc2g","pricing_plan_id":"cebpf4jnsgd1na2vs0mg"},{"bike_id":"655bd989-1244-44b8-b25e-c938beb071a3","system_id":"levelo_inurba_marseille","lat":43.29948,"lon":5.3784,"is_reserved":false,"is_disabled":false,"rental_uris":{"android":"levelo://app?vid=655bd989-1244-44b8-b25e-c938beb071a3","ios":"levelo://app?vid=655bd989-1244-44b8-b25e-c938beb071a3"},"vehicle_type_id":"4","last_reported":1778565383,"current_range_meters":9200,"station_id":"","pricing_plan_id":"cebpf4jnsgd1na2vs0mg"},{"bike_id":"655b103e-fc5c-4fae-a2fd-39c166b99df8","system_id":"levelo_inurba_marseille","lat":43.29223,"lon":5.39306,"is_reserved":false,"is_disabled":false,"rental_uris":{"android":"levelo://app?vid=655b103e-fc5c-4fae-a2fd-39c166b99df8","ios":"levelo://app?vid=655b103e-fc5c-4fae-a2fd-39c166b99df8"},"vehicle_type_id":"4","last_reported":1778565383,"current_range_meters":9200,"station_id":"ce4bh192rcd13ifvqdd0","pricing_plan_id":"cebpf4jnsgd1na2vs0mg"},{"bike_id":"8d7a38b1-7ecf-4a34-af47-c2250a24af1b","system_id":"levelo_inurba_marseille","lat":43.28406,"lon":5.37505,"is_reserved":false,"is_disabled":true,"rental_uris":{"android":"levelo://app?vid=8d7a38b1-7ecf-4a34-af47-c2250a24af1b","ios":"levelo://app?vid=8d7a38b1-7ecf-4a34-af47-c2250a24af1b"},"vehicle_type_id":"4","last_reported":1778565383,"current_range_meters":9200,"station_id":"ce4bh412rcd13ifvqds0","pricing_plan_id":"cebpf4jnsgd1na2vs0mg"},{"bike_id":"2a4f1912-4773-4ce4-a303-9026cf9b67ff","system_id":"levelo_inurba_marseille","lat":43.24801,"lon":5.37437,"is_reserved":false,"is_disabled":false,"rental_uris":{"android":"levelo://app?vid=2a4f1912-4773-4ce4-a303-9026cf9b67ff","ios":"levelo://app?vid=2a4f1912-4773-4ce4-a303-9026cf9b67ff"},"vehicle_type_id":"4","last_reported":1778565383,"current_range_meters":9200,"station_id":"ce4bhgh2rcd13ifvqfb0","pricing_plan_id":"cebpf4jnsgd1na2vs0mg"},{"bike_id":"fe2bd798-e131-4253-9a91-12b276fdabb3","system_id":"levelo_inurba_marseille","lat":43.26226,"lon":5.40462,"is_reserved":false,"is_disabled":false,"rental_uris":{"android":"levelo://app?vid=fe2bd798-e131-4253-9a91-12b276fdabb3","ios":"levelo://app?vid=fe2bd798-e131-4253-9a91-12b276fdabb3"},"vehicle_type_id":"4","last_reported":1778565383,"current_range_meters":9200,"station_id":"ce4bhmh2rcd13ifvqgmg","pricing_plan_id":"cebpf4jnsgd1na2vs0mg"},{"bike_id":"d54df913-97e5-4390-ab4c-28d557b457d1","system_id":"levelo_inurba_marseille","lat":43.21191,"lon":5.35073,"is_reserved":false,"is_disabled":false,"rental_uris":{"android":"levelo://app?vid=d54df913-97e5-4390-ab4c-28d557b457d1","ios":"levelo://app?vid=d54df913-97e5-4390-ab4c-28d557b457d1"},"vehicle_type_id":"4","last_reported":1778565383,"current_range_meters":9200,"station_id":"st_cvj6sg6p6f1abm77japg","pricing_plan_id":"cebpf4jnsgd1na2vs0mg"},{"bike_id":"d8a327e2-a4f7-4e51-b681-9ad1c4fd24ce","system_id":"levelo_inurba_marseille","lat":43.28202,"lon":5.35399,"is_reserved":false,"is_disabled":false,"rental_uris":{"android":"levelo://app?vid=d8a327e2-a4f7-4e51-b681-9ad1c4fd24ce","ios":"levelo://app?vid=d8a327e2-a4f7-4e51-b681-9ad1c4fd24ce"},"vehicle_type_id":"4","last_reported":1778565383,"current_range_meters":9200,"station_id":"","pricing_plan_id":"cebpf4jnsgd1na2vs0mg"},{"bike_id":"e182a248-b218-4c41-ba51-3ba7ac3f7949","system_id":"levelo_inurba_marseille","lat":43.299782,"lon":5.371877,"is_reserved":false,"is_disabled":false,"rental_uris":{"android":"levelo://app?vid=e182a248-b218-4c41-ba51-3ba7ac3f7949","ios":"levelo://app?vid=e182a248-b218-4c41-ba51-3ba7ac3f7949"},"vehicle_type_id":"4","last_reported":1778565383,"current_range_meters":9600,"station_id":"ce4bgr92rcd13ifvqc7g","pricing_plan_id":"cebpf4jnsgd1na2vs0mg"},{"bike_id":"00c79308-e85e-424a-9d2f-1d11cdf27f89","system_id":"levelo_inurba_marseille","lat":43.25836,"lon":5.39449,"is_reserved":false,"is_disabled":false,"rental_uris":{"android":"levelo://app?vid=00c79308-e85e-424a-9d2f-1d11cdf27f89","ios":"levelo://app?vid=00c79308-e85e-424a-9d2f-1d11cdf27f89"},"vehicle_type_id":"4","last_reported":1778565383,"current_range_meters":9600,"station_id":"ce4bhip2rcd13ifvqft0","pricing_plan_id":"cebpf4jnsgd1na2vs0mg"},{"bike_id":"1e82cde6-0dc9-48d0-ad75-626badac5bfb","system_id":"levelo_inurba_marseille","lat":43.35303,"lon":5.3693,"is_reserved":false,"is_disabled":false,"rental_uris":{"android":"levelo://app?vid=1e82cde6-0dc9-48d0-ad75-626badac5bfb","ios":"levelo://app?vid=1e82cde6-0dc9-48d0-ad75-626badac5bfb"},"vehicle_type_id":"4","last_reported":1778565383,"current_range_meters":9600,"station_id":"","pricing_plan_id":"cebpf4jnsgd1na2vs0mg"},{"bike_id":"84a66c0f-ff83-494e-8916-baeeb17d80cc","system_id":"levelo_inurba_marseille","lat":43.22562,"lon":5.41622,"is_reserved":false,"is_disabled":false,"rental_uris":{"android":"levelo://app?vid=84a66c0f-ff83-494e-8916-baeeb17d80cc","ios":"levelo://app?vid=84a66c0f-ff83-494e-8916-baeeb17d80cc"},"vehicle_type_id":"4","last_reported":1778565383,"current_range_meters":9600,"station_id":"st_d2o4gvlbi1j2169b742g","pricing_plan_id":"cebpf4jnsgd1na2vs0mg"},{"bike_id":"c1257172-a881-4daf-994c-348ae9221f5e","system_id":"levelo_inurba_marseille","lat":43.3354,"lon":5.37461,"is_reserved":false,"is_disabled":false,"rental_uris":{"android":"levelo://app?vid=c1257172-a881-4daf-994c-348ae9221f5e","ios":"levelo://app?vid=c1257172-a881-4daf-994c-348ae9221f5e"},"vehicle_type_id":"4","last_reported":1778565383,"current_range_meters":9600,"station_id":"st_d46tts09ee8s73dlu43g","pricing_plan_id":"cebpf4jnsgd1na2vs0mg"},{"bike_id":"9d33fa2f-dd7e-4f23-9145-f105e745eb42","system_id":"levelo_inurba_marseille","lat":43.28363,"lon":5.38624,"is_reserved":false,"is_disabled":false,"rental_uris":{"android":"levelo://app?vid=9d33fa2f-dd7e-4f23-9145-f105e745eb42","ios":"levelo://app?vid=9d33fa2f-dd7e-4f23-9145-f105e745eb42"},"vehicle_type_id":"4","last_reported":1778565383,"current_range_meters":9600,"station_id":"ce4bh492rcd13ifvqdvg","pricing_plan_id":"cebpf4jnsgd1na2vs0mg"},{"bike_id":"bff49512-240e-48e5-900f-c7a10ca19425","system_id":"levelo_inurba_marseille","lat":43.27509,"lon":5.42482,"is_reserved":false,"is_disabled":true,"rental_uris":{"android":"levelo://app?vid=bff49512-240e-48e5-900f-c7a10ca19425","ios":"levelo://app?vid=bff49512-240e-48e5-900f-c7a10ca19425"},"vehicle_type_id":"4","last_reported":1778565383,"current_range_meters":9600,"station_id":"ce4bhn92rcd13ifvqgrg","pricing_plan_id":"cebpf4jnsgd1na2vs0mg"},{"bike_id":"a9fc9db6-5571-414d-a254-a860106835f6","system_id":"levelo_inurba_marseille","lat":43.2695,"lon":5.38629,"is_reserved":false,"is_disabled":true,"rental_uris":{"android":"levelo://app?vid=a9fc9db6-5571-414d-a254-a860106835f6","ios":"levelo://app?vid=a9fc9db6-5571-414d-a254-a860106835f6"},"vehicle_type_id":"4","last_reported":1778565383,"current_range_meters":9600,"station_id":"ce4bhh92rcd13ifvqfh0","pricing_plan_id":"cebpf4jnsgd1na2vs0mg"},{"bike_id":"936901ad-6e68-4305-b3c7-b36f19fa6578","system_id":"levelo_inurba_marseille","lat":43.28227,"lon":5.39072,"is_reserved":false,"is_disabled":false,"rental_uris":{"android":"levelo://app?vid=936901ad-6e68-4305-b3c7-b36f19fa6578","ios":"levelo://app?vid=936901ad-6e68-4305-b3c7-b36f19fa6578"},"vehicle_type_id":"4","last_reported":1778565383,"current_range_meters":9600,"station_id":"ce4bhn92rcd13ifvqgsg","pricing_plan_id":"cebpf4jnsgd1na2vs0mg"},{"bike_id":"c63c0e0f-fb42-4777-bb3c-17cc5926ddbf","system_id":"levelo_inurba_marseille","lat":43.28738,"lon":5.46686,"is_reserved":false,"is_disabled":false,"rental_uris":{"android":"levelo://app?vid=c63c0e0f-fb42-4777-bb3c-17cc5926ddbf","ios":"levelo://app?vid=c63c0e0f-fb42-4777-bb3c-17cc5926ddbf"},"vehicle_type_id":"4","last_reported":1778565383,"current_range_meters":9600,"station_id":"st_d6tc3vkotcvc738tfjhg","pricing_plan_id":"cebpf4jnsgd1na2vs0mg"},{"bike_id":"2b200319-99bf-4d79-b025-3fa4bd31d748","system_id":"levelo_inurba_marseille","lat":43.30306,"lon":5.36912,"is_reserved":false,"is_disabled":false,"rental_uris":{"android":"levelo://app?vid=2b200319-99bf-4d79-b025-3fa4bd31d748","ios":"levelo://app?vid=2b200319-99bf-4d79-b025-3fa4bd31d748"},"vehicle_type_id":"4","last_reported":1778565383,"current_range_meters":9600,"station_id":"ce4bgqh2rcd13ifvqc5g","pricing_plan_id":"cebpf4jnsgd1na2vs0mg"},{"bike_id":"67414af1-c174-491c-b5c0-93863a96fd5e","system_id":"levelo_inurba_marseille","lat":43.30233,"lon":5.40077,"is_reserved":false,"is_disabled":false,"rental_uris":{"android":"levelo://app?vid=67414af1-c174-491c-b5c0-93863a96fd5e","ios":"levelo://app?vid=67414af1-c174-491c-b5c0-93863a96fd5e"},"vehicle_type_id":"4","last_reported":1778565383,"current_range_meters":9600,"station_id":"ce4bgvh2rcd13ifvqcs0","pricing_plan_id":"cebpf4jnsgd1na2vs0mg"},{"bike_id":"3eac676f-75f4-498a-abed-791c9e5355f0","system_id":"levelo_inurba_marseille","lat":43.313247,"lon":5.396904,"is_reserved":false,"is_disabled":false,"rental_uris":{"android":"levelo://app?vid=3eac676f-75f4-498a-abed-791c9e5355f0","ios":"levelo://app?vid=3eac676f-75f4-498a-abed-791c9e5355f0"},"vehicle_type_id":"4","last_reported":1778565383,"current_range_meters":9600,"station_id":"ce4bgvp2rcd13ifvqcu0","pricing_plan_id":"cebpf4jnsgd1na2vs0mg"},{"bike_id":"de5496f5-01c8-49a7-82e4-ae55863a6030","system_id":"levelo_inurba_marseille","lat":43.24076,"lon":5.37751,"is_reserved":false,"is_disabled":false,"rental_uris":{"android":"levelo://app?vid=de5496f5-01c8-49a7-82e4-ae55863a6030","ios":"levelo://app?vid=de5496f5-01c8-49a7-82e4-ae55863a6030"},"vehicle_type_id":"4","last_reported":1778565383,"current_range_meters":9600,"station_id":"ce4bhnp2rcd13ifvqgvg","pricing_plan_id":"cebpf4jnsgd1na2vs0mg"},{"bike_id":"dbec7a67-6617-4f51-a586-97becb28d4c1","system_id":"levelo_inurba_marseille","lat":43.28606,"lon":5.35116,"is_reserved":false,"is_disabled":false,"rental_uris":{"android":"levelo://app?vid=dbec7a67-6617-4f51-a586-97becb28d4c1","ios":"levelo://app?vid=dbec7a67-6617-4f51-a586-97becb28d4c1"},"vehicle_type_id":"4","last_reported":1778565383,"current_range_meters":9600,"station_id":"ce4bhch2rcd13ifvqeug","pricing_plan_id":"cebpf4jnsgd1na2vs0mg"},{"bike_id":"7d1c57e1-5c32-4db5-8345-3ae6f2020a63","system_id":"levelo_inurba_marseille","lat":43.28232,"lon":5.40576,"is_reserved":false,"is_disabled":false,"rental_uris":{"android":"levelo://app?vid=7d1c57e1-5c32-4db5-8345-3ae6f2020a63","ios":"levelo://app?vid=7d1c57e1-5c32-4db5-8345-3ae6f2020a63"},"vehicle_type_id":"4","last_reported":1778565383,"current_range_meters":9600,"station_id":"","pricing_plan_id":"cebpf4jnsgd1na2vs0mg"},{"bike_id":"c82e9511-dc71-48bc-961b-1059ed3e4834","system_id":"levelo_inurba_marseille","lat":43.26564,"lon":5.40323,"is_reserved":false,"is_disabled":false,"rental_uris":{"android":"levelo://app?vid=c82e9511-dc71-48bc-961b-1059ed3e4834","ios":"levelo://app?vid=c82e9511-dc71-48bc-961b-1059ed3e4834"},"vehicle_type_id":"4","last_reported":1778565383,"current_range_meters":9600,"station_id":"ce4bhmp2rcd13ifvqgng","pricing_plan_id":"cebpf4jnsgd1na2vs0mg"},{"bike_id":"e213cff3-559b-4024-8dbf-019993c63793","system_id":"levelo_inurba_marseille","lat":43.30184,"lon":5.37421,"is_reserved":false,"is_disabled":false,"rental_uris":{"android":"levelo://app?vid=e213cff3-559b-4024-8dbf-019993c63793","ios":"levelo://app?vid=e213cff3-559b-4024-8dbf-019993c63793"},"vehicle_type_id":"4","last_reported":1778565383,"current_range_meters":9600,"station_id":"ce4bgs92rcd13ifvqcc0","pricing_plan_id":"cebpf4jnsgd1na2vs0mg"},{"bike_id":"d99b5606-bc06-4fed-8be7-47cc3500b59c","system_id":"levelo_inurba_marseille","lat":43.30728,"lon":5.42446,"is_reserved":false,"is_disabled":false,"rental_uris":{"android":"levelo://app?vid=d99b5606-bc06-4fed-8be7-47cc3500b59c","ios":"levelo://app?vid=d99b5606-bc06-4fed-8be7-47cc3500b59c"},"vehicle_type_id":"4","last_reported":1778565383,"current_range_meters":9600,"station_id":"st_cvj6ca6bvosntc0bfgr0","pricing_plan_id":"cebpf4jnsgd1na2vs0mg"},{"bike_id":"999659c4-c5dd-45ea-baa9-4521d206d96b","system_id":"levelo_inurba_marseille","lat":43.24624,"lon":5.38907,"is_reserved":false,"is_disabled":false,"rental_uris":{"android":"levelo://app?vid=999659c4-c5dd-45ea-baa9-4521d206d96b","ios":"levelo://app?vid=999659c4-c5dd-45ea-baa9-4521d206d96b"},"vehicle_type_id":"4","last_reported":1778565383,"current_range_meters":9600,"station_id":"ce4bhg12rcd13ifvqf60","pricing_plan_id":"cebpf4jnsgd1na2vs0mg"},{"bike_id":"85717c60-269b-4d76-993a-588a4e3b6e15","system_id":"levelo_inurba_marseille","lat":43.30107,"lon":5.3985,"is_reserved":false,"is_disabled":false,"rental_uris":{"android":"levelo://app?vid=85717c60-269b-4d76-993a-588a4e3b6e15","ios":"levelo://app?vid=85717c60-269b-4d76-993a-588a4e3b6e15"},"vehicle_type_id":"4","last_reported":1778565383,"current_range_meters":9600,"station_id":"ce4bh0h2rcd13ifvqd40","pricing_plan_id":"cebpf4jnsgd1na2vs0mg"},{"bike_id":"96b1ba03-4281-4047-809b-d7e86f5a982e","system_id":"levelo_inurba_marseille","lat":43.246704,"lon":5.38165,"is_reserved":false,"is_disabled":false,"rental_uris":{"android":"levelo://app?vid=96b1ba03-4281-4047-809b-d7e86f5a982e","ios":"levelo://app?vid=96b1ba03-4281-4047-809b-d7e86f5a982e"},"vehicle_type_id":"4","last_reported":1778565383,"current_range_meters":9600,"station_id":"ce4bhih2rcd13ifvqfr0","pricing_plan_id":"cebpf4jnsgd1na2vs0mg"},{"bike_id":"0ab0818e-9b6c-417d-9c8e-bfae8381fc47","system_id":"levelo_inurba_marseille","lat":43.25078,"lon":5.39534,"is_reserved":false,"is_disabled":false,"rental_uris":{"android":"levelo://app?vid=0ab0818e-9b6c-417d-9c8e-bfae8381fc47","ios":"levelo://app?vid=0ab0818e-9b6c-417d-9c8e-bfae8381fc47"},"vehicle_type_id":"4","last_reported":1778565383,"current_range_meters":9600,"station_id":"ce4bhm12rcd13ifvqgkg","pricing_plan_id":"cebpf4jnsgd1na2vs0mg"},{"bike_id":"929dda46-73ff-41d9-9407-9c24ee00aaa4","system_id":"levelo_inurba_marseille","lat":43.27675,"lon":5.38877,"is_reserved":false,"is_disabled":false,"rental_uris":{"android":"levelo://app?vid=929dda46-73ff-41d9-9407-9c24ee00aaa4","ios":"levelo://app?vid=929dda46-73ff-41d9-9407-9c24ee00aaa4"},"vehicle_type_id":"4","last_reported":1778565383,"current_range_meters":9600,"station_id":"ce4bhi12rcd13ifvqfo0","pricing_plan_id":"cebpf4jnsgd1na2vs0mg"},{"bike_id":"88a0bee1-92da-4b97-920e-3539bd2a7cc2","system_id":"levelo_inurba_marseille","lat":43.29043,"lon":5.39959,"is_reserved":false,"is_disabled":false,"rental_uris":{"android":"levelo://app?vid=88a0bee1-92da-4b97-920e-3539bd2a7cc2","ios":"levelo://app?vid=88a0bee1-92da-4b97-920e-3539bd2a7cc2"},