{"last_updated":1753632732,"ttl":60,"version":"2.2","data":{"bikes":[{"bike_id":"01485072-6c4d-40a9-9b20-11dad439f81b","system_id":"levelo_inurba_marseille","lat":43.29529,"lon":5.38538,"is_reserved":false,"is_disabled":false,"rental_uris":{"android":"levelo://app?vid=01485072-6c4d-40a9-9b20-11dad439f81b","ios":"levelo://app?vid=01485072-6c4d-40a9-9b20-11dad439f81b"},"vehicle_type_id":"4","last_reported":1753632732,"current_range_meters":2800,"station_id":"ce4bgih2rcd13ifvqba0","pricing_plan_id":"cebpf4jnsgd1na2vs0mg"},{"bike_id":"ffe34804-335e-4503-8567-a5f9c5109553","system_id":"levelo_inurba_marseille","lat":43.276192,"lon":5.36107,"is_reserved":false,"is_disabled":false,"rental_uris":{"android":"levelo://app?vid=ffe34804-335e-4503-8567-a5f9c5109553","ios":"levelo://app?vid=ffe34804-335e-4503-8567-a5f9c5109553"},"vehicle_type_id":"4","last_reported":1753632732,"current_range_meters":2800,"station_id":"ce4bgj92rcd13ifvqbe0","pricing_plan_id":"cebpf4jnsgd1na2vs0mg"},{"bike_id":"e1652578-2976-4037-9f17-531919928ef4","system_id":"levelo_inurba_marseille","lat":43.28257,"lon":5.35066,"is_reserved":false,"is_disabled":false,"rental_uris":{"android":"levelo://app?vid=e1652578-2976-4037-9f17-531919928ef4","ios":"levelo://app?vid=e1652578-2976-4037-9f17-531919928ef4"},"vehicle_type_id":"4","last_reported":1753632732,"current_range_meters":2800,"station_id":"ce4bhbp2rcd13ifvqerg","pricing_plan_id":"cebpf4jnsgd1na2vs0mg"},{"bike_id":"44a071f8-100e-4290-8dc0-426df44ec85c","system_id":"levelo_inurba_marseille","lat":43.28451,"lon":5.39203,"is_reserved":false,"is_disabled":false,"rental_uris":{"android":"levelo://app?vid=44a071f8-100e-4290-8dc0-426df44ec85c","ios":"levelo://app?vid=44a071f8-100e-4290-8dc0-426df44ec85c"},"vehicle_type_id":"4","last_reported":1753632732,"current_range_meters":3200,"station_id":"ce4bhoh2rcd13ifvqh5g","pricing_plan_id":"cebpf4jnsgd1na2vs0mg"},{"bike_id":"ef85ebec-661d-4976-a624-ecb62427f4fb","system_id":"levelo_inurba_marseille","lat":43.28269,"lon":5.3506,"is_reserved":false,"is_disabled":false,"rental_uris":{"android":"levelo://app?vid=ef85ebec-661d-4976-a624-ecb62427f4fb","ios":"levelo://app?vid=ef85ebec-661d-4976-a624-ecb62427f4fb"},"vehicle_type_id":"4","last_reported":1753632732,"current_range_meters":3600,"station_id":"ce4bhbp2rcd13ifvqerg","pricing_plan_id":"cebpf4jnsgd1na2vs0mg"},{"bike_id":"9e4ec457-6d6b-435a-92f1-0531ea777065","system_id":"levelo_inurba_marseille","lat":43.27997,"lon":5.40002,"is_reserved":false,"is_disabled":false,"rental_uris":{"android":"levelo://app?vid=9e4ec457-6d6b-435a-92f1-0531ea777065","ios":"levelo://app?vid=9e4ec457-6d6b-435a-92f1-0531ea777065"},"vehicle_type_id":"4","last_reported":1753632732,"current_range_meters":3200,"station_id":"ce4bho92rcd13ifvqh4g","pricing_plan_id":"cebpf4jnsgd1na2vs0mg"},{"bike_id":"f80652a5-ebb1-4a84-ad6d-f0efd33a66f5","system_id":"levelo_inurba_marseille","lat":43.31073,"lon":5.38349,"is_reserved":false,"is_disabled":false,"rental_uris":{"android":"levelo://app?vid=f80652a5-ebb1-4a84-ad6d-f0efd33a66f5","ios":"levelo://app?vid=f80652a5-ebb1-4a84-ad6d-f0efd33a66f5"},"vehicle_type_id":"4","last_reported":1753632732,"current_range_meters":3600,"station_id":"ce4bgv92rcd13ifvqcr0","pricing_plan_id":"cebpf4jnsgd1na2vs0mg"},{"bike_id":"078febbd-6d49-4abf-8b46-d33f87f8da46","system_id":"levelo_inurba_marseille","lat":43.25452,"lon":5.38007,"is_reserved":false,"is_disabled":true,"rental_uris":{"android":"levelo://app?vid=078febbd-6d49-4abf-8b46-d33f87f8da46","ios":"levelo://app?vid=078febbd-6d49-4abf-8b46-d33f87f8da46"},"vehicle_type_id":"4","last_reported":1753632732,"current_range_meters":4000,"station_id":"","pricing_plan_id":"cebpf4jnsgd1na2vs0mg"},{"bike_id":"d51df818-ca95-4ea9-9e4f-560a37edf4a6","system_id":"levelo_inurba_marseille","lat":43.29976,"lon":5.38494,"is_reserved":false,"is_disabled":false,"rental_uris":{"android":"levelo://app?vid=d51df818-ca95-4ea9-9e4f-560a37edf4a6","ios":"levelo://app?vid=d51df818-ca95-4ea9-9e4f-560a37edf4a6"},"vehicle_type_id":"4","last_reported":1753632732,"current_range_meters":3600,"station_id":"ce4bgj92rcd13ifvqbd0","pricing_plan_id":"cebpf4jnsgd1na2vs0mg"},{"bike_id":"f123af25-f5e1-4535-bf9a-e453fb7322cc","system_id":"levelo_inurba_marseille","lat":43.27541,"lon":5.40921,"is_reserved":false,"is_disabled":true,"rental_uris":{"android":"levelo://app?vid=f123af25-f5e1-4535-bf9a-e453fb7322cc","ios":"levelo://app?vid=f123af25-f5e1-4535-bf9a-e453fb7322cc"},"vehicle_type_id":"4","last_reported":1753632732,"current_range_meters":4400,"station_id":"","pricing_plan_id":"cebpf4jnsgd1na2vs0mg"},{"bike_id":"acdc15f3-f881-4795-bd43-7b1b297ebaa4","system_id":"levelo_inurba_marseille","lat":43.27118,"lon":5.42258,"is_reserved":false,"is_disabled":true,"rental_uris":{"android":"levelo://app?vid=acdc15f3-f881-4795-bd43-7b1b297ebaa4","ios":"levelo://app?vid=acdc15f3-f881-4795-bd43-7b1b297ebaa4"},"vehicle_type_id":"4","last_reported":1753632732,"current_range_meters":4400,"station_id":"","pricing_plan_id":"cebpf4jnsgd1na2vs0mg"},{"bike_id":"482d7c7b-4e2f-4603-bb79-1d6778b2c550","system_id":"levelo_inurba_marseille","lat":43.27071,"lon":5.42278,"is_reserved":false,"is_disabled":false,"rental_uris":{"android":"levelo://app?vid=482d7c7b-4e2f-4603-bb79-1d6778b2c550","ios":"levelo://app?vid=482d7c7b-4e2f-4603-bb79-1d6778b2c550"},"vehicle_type_id":"4","last_reported":1753632732,"current_range_meters":4400,"station_id":"ce4bhk92rcd13ifvqgb0","pricing_plan_id":"cebpf4jnsgd1na2vs0mg"},{"bike_id":"fd567713-bb67-41d2-a2a1-b6ec6f6f0efe","system_id":"levelo_inurba_marseille","lat":43.30961,"lon":5.39033,"is_reserved":false,"is_disabled":false,"rental_uris":{"android":"levelo://app?vid=fd567713-bb67-41d2-a2a1-b6ec6f6f0efe","ios":"levelo://app?vid=fd567713-bb67-41d2-a2a1-b6ec6f6f0efe"},"vehicle_type_id":"4","last_reported":1753632732,"current_range_meters":4800,"station_id":"ce4bgup2rcd13ifvqco0","pricing_plan_id":"cebpf4jnsgd1na2vs0mg"},{"bike_id":"abec3c45-60d0-4fcd-ba60-3cb45f6769ad","system_id":"levelo_inurba_marseille","lat":43.30129,"lon":5.39866,"is_reserved":false,"is_disabled":false,"rental_uris":{"android":"levelo://app?vid=abec3c45-60d0-4fcd-ba60-3cb45f6769ad","ios":"levelo://app?vid=abec3c45-60d0-4fcd-ba60-3cb45f6769ad"},"vehicle_type_id":"4","last_reported":1753632732,"current_range_meters":4800,"station_id":"ce4bh0h2rcd13ifvqd40","pricing_plan_id":"cebpf4jnsgd1na2vs0mg"},{"bike_id":"b7ed9571-0d35-4df5-9ba8-fcfa0cd8d52b","system_id":"levelo_inurba_marseille","lat":43.32642,"lon":5.3787,"is_reserved":false,"is_disabled":false,"rental_uris":{"android":"levelo://app?vid=b7ed9571-0d35-4df5-9ba8-fcfa0cd8d52b","ios":"levelo://app?vid=b7ed9571-0d35-4df5-9ba8-fcfa0cd8d52b"},"vehicle_type_id":"4","last_reported":1753632732,"current_range_meters":4800,"station_id":"","pricing_plan_id":"cebpf4jnsgd1na2vs0mg"},{"bike_id":"8414c65a-e2b6-4cab-b8f8-536a15b6717a","system_id":"levelo_inurba_marseille","lat":43.276116,"lon":5.361024,"is_reserved":false,"is_disabled":true,"rental_uris":{"android":"levelo://app?vid=8414c65a-e2b6-4cab-b8f8-536a15b6717a","ios":"levelo://app?vid=8414c65a-e2b6-4cab-b8f8-536a15b6717a"},"vehicle_type_id":"4","last_reported":1753632732,"current_range_meters":5600,"station_id":"ce4bgj92rcd13ifvqbe0","pricing_plan_id":"cebpf4jnsgd1na2vs0mg"},{"bike_id":"ee6977ed-4878-4511-9cde-456e82c975ac","system_id":"levelo_inurba_marseille","lat":43.31362,"lon":5.38491,"is_reserved":false,"is_disabled":false,"rental_uris":{"android":"levelo://app?vid=ee6977ed-4878-4511-9cde-456e82c975ac","ios":"levelo://app?vid=ee6977ed-4878-4511-9cde-456e82c975ac"},"vehicle_type_id":"4","last_reported":1753632732,"current_range_meters":5600,"station_id":"ce4bgt92rcd13ifvqcf0","pricing_plan_id":"cebpf4jnsgd1na2vs0mg"},{"bike_id":"83a67c65-7f9b-4a81-a80c-c007cd448d24","system_id":"levelo_inurba_marseille","lat":43.292531,"lon":5.384314,"is_reserved":false,"is_disabled":false,"rental_uris":{"android":"levelo://app?vid=83a67c65-7f9b-4a81-a80c-c007cd448d24","ios":"levelo://app?vid=83a67c65-7f9b-4a81-a80c-c007cd448d24"},"vehicle_type_id":"4","last_reported":1753632732,"current_range_meters":5600,"station_id":"","pricing_plan_id":"cebpf4jnsgd1na2vs0mg"},{"bike_id":"01a8e307-f9de-4eb5-a307-55559ca42c36","system_id":"levelo_inurba_marseille","lat":43.22498,"lon":5.34789,"is_reserved":false,"is_disabled":false,"rental_uris":{"android":"levelo://app?vid=01a8e307-f9de-4eb5-a307-55559ca42c36","ios":"levelo://app?vid=01a8e307-f9de-4eb5-a307-55559ca42c36"},"vehicle_type_id":"4","last_reported":1753632732,"current_range_meters":5600,"station_id":"st_cvj5dfep6f1abm77gieg","pricing_plan_id":"cebpf4jnsgd1na2vs0mg"},{"bike_id":"9f0a0db3-1961-48fb-a8e5-a28035dae777","system_id":"levelo_inurba_marseille","lat":43.29274,"lon":5.36832,"is_reserved":false,"is_disabled":false,"rental_uris":{"android":"levelo://app?vid=9f0a0db3-1961-48fb-a8e5-a28035dae777","ios":"levelo://app?vid=9f0a0db3-1961-48fb-a8e5-a28035dae777"},"vehicle_type_id":"4","last_reported":1753632732,"current_range_meters":5600,"station_id":"ce4bhbp2rcd13ifvqesg","pricing_plan_id":"cebpf4jnsgd1na2vs0mg"},{"bike_id":"0ed53f46-29e9-4af6-be43-1bb7fa322a9b","system_id":"levelo_inurba_marseille","lat":43.30933,"lon":5.40139,"is_reserved":false,"is_disabled":true,"rental_uris":{"android":"levelo://app?vid=0ed53f46-29e9-4af6-be43-1bb7fa322a9b","ios":"levelo://app?vid=0ed53f46-29e9-4af6-be43-1bb7fa322a9b"},"vehicle_type_id":"4","last_reported":1753632732,"current_range_meters":6000,"station_id":"ce4bgvp2rcd13ifvqct0","pricing_plan_id":"cebpf4jnsgd1na2vs0mg"},{"bike_id":"514ff0dd-dd81-44b7-a9d9-34dbcdc1c7fd","system_id":"levelo_inurba_marseille","lat":43.30183,"lon":5.39388,"is_reserved":false,"is_disabled":false,"rental_uris":{"android":"levelo://app?vid=514ff0dd-dd81-44b7-a9d9-34dbcdc1c7fd","ios":"levelo://app?vid=514ff0dd-dd81-44b7-a9d9-34dbcdc1c7fd"},"vehicle_type_id":"4","last_reported":1753632732,"current_range_meters":6000,"station_id":"","pricing_plan_id":"cebpf4jnsgd1na2vs0mg"},{"bike_id":"80389579-c350-4054-9520-a02c91d76af9","system_id":"levelo_inurba_marseille","lat":43.28924,"lon":5.38406,"is_reserved":false,"is_disabled":false,"rental_uris":{"android":"levelo://app?vid=80389579-c350-4054-9520-a02c91d76af9","ios":"levelo://app?vid=80389579-c350-4054-9520-a02c91d76af9"},"vehicle_type_id":"4","last_reported":1753632732,"current_range_meters":6400,"station_id":"ce4bh612rcd13ifvqe6g","pricing_plan_id":"cebpf4jnsgd1na2vs0mg"},{"bike_id":"adb58dc4-3d01-4e4a-aea9-cb21cb475c6b","system_id":"levelo_inurba_marseille","lat":43.25116,"lon":5.403198,"is_reserved":false,"is_disabled":false,"rental_uris":{"android":"levelo://app?vid=adb58dc4-3d01-4e4a-aea9-cb21cb475c6b","ios":"levelo://app?vid=adb58dc4-3d01-4e4a-aea9-cb21cb475c6b"},"vehicle_type_id":"4","last_reported":1753632732,"current_range_meters":6000,"station_id":"ce4bhlh2rcd13ifvqgig","pricing_plan_id":"cebpf4jnsgd1na2vs0mg"},{"bike_id":"b12dbb31-5c75-4551-bc03-29f3c4082217","system_id":"levelo_inurba_marseille","lat":43.21196,"lon":5.35086,"is_reserved":false,"is_disabled":false,"rental_uris":{"android":"levelo://app?vid=b12dbb31-5c75-4551-bc03-29f3c4082217","ios":"levelo://app?vid=b12dbb31-5c75-4551-bc03-29f3c4082217"},"vehicle_type_id":"4","last_reported":1753632732,"current_range_meters":6400,"station_id":"st_cvj6sg6p6f1abm77japg","pricing_plan_id":"cebpf4jnsgd1na2vs0mg"},{"bike_id":"ac9c8746-1cb0-4642-affb-973360b3f5d8","system_id":"levelo_inurba_marseille","lat":43.25108,"lon":5.40322,"is_reserved":false,"is_disabled":false,"rental_uris":{"android":"levelo://app?vid=ac9c8746-1cb0-4642-affb-973360b3f5d8","ios":"levelo://app?vid=ac9c8746-1cb0-4642-affb-973360b3f5d8"},"vehicle_type_id":"4","last_reported":1753632732,"current_range_meters":6400,"station_id":"ce4bhlh2rcd13ifvqgig","pricing_plan_id":"cebpf4jnsgd1na2vs0mg"},{"bike_id":"a3fe9995-2e3e-423b-9540-429a92fa997e","system_id":"levelo_inurba_marseille","lat":43.301833,"lon":5.371628,"is_reserved":false,"is_disabled":false,"rental_uris":{"android":"levelo://app?vid=a3fe9995-2e3e-423b-9540-429a92fa997e","ios":"levelo://app?vid=a3fe9995-2e3e-423b-9540-429a92fa997e"},"vehicle_type_id":"4","last_reported":1753632732,"current_range_meters":6400,"station_id":"","pricing_plan_id":"cebpf4jnsgd1na2vs0mg"},{"bike_id":"22dca147-1260-44d8-822d-d9d1d50cce31","system_id":"levelo_inurba_marseille","lat":43.27472,"lon":5.39601,"is_reserved":false,"is_disabled":true,"rental_uris":{"android":"levelo://app?vid=22dca147-1260-44d8-822d-d9d1d50cce31","ios":"levelo://app?vid=22dca147-1260-44d8-822d-d9d1d50cce31"},"vehicle_type_id":"4","last_reported":1753632732,"current_range_meters":6800,"station_id":"","pricing_plan_id":"cebpf4jnsgd1na2vs0mg"},{"bike_id":"4000bbbd-7160-483a-a6a6-99b37edf1e84","system_id":"levelo_inurba_marseille","lat":43.29718,"lon":5.36613,"is_reserved":false,"is_disabled":false,"rental_uris":{"android":"levelo://app?vid=4000bbbd-7160-483a-a6a6-99b37edf1e84","ios":"levelo://app?vid=4000bbbd-7160-483a-a6a6-99b37edf1e84"},"vehicle_type_id":"4","last_reported":1753632732,"current_range_meters":6800,"station_id":"ce4bgn12rcd13ifvqbt0","pricing_plan_id":"cebpf4jnsgd1na2vs0mg"},{"bike_id":"990eb3e5-15e9-44a1-85d5-1f979e53a5bd","system_id":"levelo_inurba_marseille","lat":43.23959,"lon":5.36634,"is_reserved":false,"is_disabled":true,"rental_uris":{"android":"levelo://app?vid=990eb3e5-15e9-44a1-85d5-1f979e53a5bd","ios":"levelo://app?vid=990eb3e5-15e9-44a1-85d5-1f979e53a5bd"},"vehicle_type_id":"4","last_reported":1753632732,"current_range_meters":6800,"station_id":"ce4bhi12rcd13ifvqfp0","pricing_plan_id":"cebpf4jnsgd1na2vs0mg"},{"bike_id":"0b6e37e1-db39-4d64-9941-7e484c9ea038","system_id":"levelo_inurba_marseille","lat":43.30148,"lon":5.38097,"is_reserved":false,"is_disabled":true,"rental_uris":{"android":"levelo://app?vid=0b6e37e1-db39-4d64-9941-7e484c9ea038","ios":"levelo://app?vid=0b6e37e1-db39-4d64-9941-7e484c9ea038"},"vehicle_type_id":"4","last_reported":1753632732,"current_range_meters":6800,"station_id":"","pricing_plan_id":"cebpf4jnsgd1na2vs0mg"},{"bike_id":"b0e2a88a-e235-4afa-8fbb-bfc027f4777f","system_id":"levelo_inurba_marseille","lat":43.30949,"lon":5.39031,"is_reserved":false,"is_disabled":false,"rental_uris":{"android":"levelo://app?vid=b0e2a88a-e235-4afa-8fbb-bfc027f4777f","ios":"levelo://app?vid=b0e2a88a-e235-4afa-8fbb-bfc027f4777f"},"vehicle_type_id":"4","last_reported":1753632732,"current_range_meters":6800,"station_id":"ce4bgup2rcd13ifvqco0","pricing_plan_id":"cebpf4jnsgd1na2vs0mg"},{"bike_id":"9c418ca3-3e71-47c6-9bcc-d2c00e440b92","system_id":"levelo_inurba_marseille","lat":43.29622,"lon":5.37158,"is_reserved":false,"is_disabled":false,"rental_uris":{"android":"levelo://app?vid=9c418ca3-3e71-47c6-9bcc-d2c00e440b92","ios":"levelo://app?vid=9c418ca3-3e71-47c6-9bcc-d2c00e440b92"},"vehicle_type_id":"4","last_reported":1753632732,"current_range_meters":6800,"station_id":"ce4bgnh2rcd13ifvqc0g","pricing_plan_id":"cebpf4jnsgd1na2vs0mg"},{"bike_id":"de99b14c-9afd-4bdd-bc56-50354c110c3d","system_id":"levelo_inurba_marseille","lat":43.25467,"lon":5.37687,"is_reserved":false,"is_disabled":false,"rental_uris":{"android":"levelo://app?vid=de99b14c-9afd-4bdd-bc56-50354c110c3d","ios":"levelo://app?vid=de99b14c-9afd-4bdd-bc56-50354c110c3d"},"vehicle_type_id":"4","last_reported":1753632732,"current_range_meters":7200,"station_id":"","pricing_plan_id":"cebpf4jnsgd1na2vs0mg"},{"bike_id":"a520741a-dcb6-494d-9d43-0ad113907acb","system_id":"levelo_inurba_marseille","lat":43.29225,"lon":5.39994,"is_reserved":false,"is_disabled":false,"rental_uris":{"android":"levelo://app?vid=a520741a-dcb6-494d-9d43-0ad113907acb","ios":"levelo://app?vid=a520741a-dcb6-494d-9d43-0ad113907acb"},"vehicle_type_id":"4","last_reported":1753632732,"current_range_meters":7200,"station_id":"","pricing_plan_id":"cebpf4jnsgd1na2vs0mg"},{"bike_id":"6edbe0ef-b983-499b-8a6e-b9e5e4febceb","system_id":"levelo_inurba_marseille","lat":43.24683,"lon":5.38171,"is_reserved":false,"is_disabled":false,"rental_uris":{"android":"levelo://app?vid=6edbe0ef-b983-499b-8a6e-b9e5e4febceb","ios":"levelo://app?vid=6edbe0ef-b983-499b-8a6e-b9e5e4febceb"},"vehicle_type_id":"4","last_reported":1753632732,"current_range_meters":7200,"station_id":"ce4bhih2rcd13ifvqfr0","pricing_plan_id":"cebpf4jnsgd1na2vs0mg"},{"bike_id":"57755280-973c-4ff3-9c25-8f15e2c5b510","system_id":"levelo_inurba_marseille","lat":43.31872,"lon":5.37373,"is_reserved":false,"is_disabled":true,"rental_uris":{"android":"levelo://app?vid=57755280-973c-4ff3-9c25-8f15e2c5b510","ios":"levelo://app?vid=57755280-973c-4ff3-9c25-8f15e2c5b510"},"vehicle_type_id":"4","last_reported":1753632732,"current_range_meters":7200,"station_id":"","pricing_plan_id":"cebpf4jnsgd1na2vs0mg"},{"bike_id":"8e878e8f-5d80-490d-b86c-324c23d42717","system_id":"levelo_inurba_marseille","lat":43.29172,"lon":5.40721,"is_reserved":false,"is_disabled":false,"rental_uris":{"android":"levelo://app?vid=8e878e8f-5d80-490d-b86c-324c23d42717","ios":"levelo://app?vid=8e878e8f-5d80-490d-b86c-324c23d42717"},"vehicle_type_id":"4","last_reported":1753632732,"current_range_meters":8000,"station_id":"","pricing_plan_id":"cebpf4jnsgd1na2vs0mg"},{"bike_id":"59ae8f49-7013-4ba0-b41c-a66632f848c7","system_id":"levelo_inurba_marseille","lat":43.29303,"lon":5.37468,"is_reserved":false,"is_disabled":false,"rental_uris":{"android":"levelo://app?vid=59ae8f49-7013-4ba0-b41c-a66632f848c7","ios":"levelo://app?vid=59ae8f49-7013-4ba0-b41c-a66632f848c7"},"vehicle_type_id":"4","last_reported":1753632732,"current_range_meters":7200,"station_id":"ce4bgi12rcd13ifvqb70","pricing_plan_id":"cebpf4jnsgd1na2vs0mg"},{"bike_id":"c387a069-cb65-4ca1-bee0-a3ed91ea32f7","system_id":"levelo_inurba_marseille","lat":43.296204,"lon":5.377232,"is_reserved":false,"is_disabled":false,"rental_uris":{"android":"levelo://app?vid=c387a069-cb65-4ca1-bee0-a3ed91ea32f7","ios":"levelo://app?vid=c387a069-cb65-4ca1-bee0-a3ed91ea32f7"},"vehicle_type_id":"4","last_reported":1753632732,"current_range_meters":4800,"station_id":"ce4bgs12rcd13ifvqcag","pricing_plan_id":"cebpf4jnsgd1na2vs0mg"},{"bike_id":"f4fa2c01-db72-4d7c-b28f-cbb0647f9c77","system_id":"levelo_inurba_marseille","lat":43.30944,"lon":5.3903,"is_reserved":false,"is_disabled":false,"rental_uris":{"android":"levelo://app?vid=f4fa2c01-db72-4d7c-b28f-cbb0647f9c77","ios":"levelo://app?vid=f4fa2c01-db72-4d7c-b28f-cbb0647f9c77"},"vehicle_type_id":"4","last_reported":1753632732,"current_range_meters":8000,"station_id":"ce4bgup2rcd13ifvqco0","pricing_plan_id":"cebpf4jnsgd1na2vs0mg"},{"bike_id":"1e555c6b-044c-4bd1-a690-5b7bdd1ff5ab","system_id":"levelo_inurba_marseille","lat":43.30956,"lon":5.39024,"is_reserved":false,"is_disabled":true,"rental_uris":{"android":"levelo://app?vid=1e555c6b-044c-4bd1-a690-5b7bdd1ff5ab","ios":"levelo://app?vid=1e555c6b-044c-4bd1-a690-5b7bdd1ff5ab"},"vehicle_type_id":"4","last_reported":1753632732,"current_range_meters":8400,"station_id":"ce4bgup2rcd13ifvqco0","pricing_plan_id":"cebpf4jnsgd1na2vs0mg"},{"bike_id":"8fd9c79a-eb19-42b2-907b-bbf70c95f97c","system_id":"levelo_inurba_marseille","lat":43.270791,"lon":5.42281,"is_reserved":false,"is_disabled":false,"rental_uris":{"android":"levelo://app?vid=8fd9c79a-eb19-42b2-907b-bbf70c95f97c","ios":"levelo://app?vid=8fd9c79a-eb19-42b2-907b-bbf70c95f97c"},"vehicle_type_id":"4","last_reported":1753632732,"current_range_meters":8400,"station_id":"ce4bhk92rcd13ifvqgb0","pricing_plan_id":"cebpf4jnsgd1na2vs0mg"},{"bike_id":"cd3b08e6-c974-4cd3-9f10-0a74cd99e828","system_id":"levelo_inurba_marseille","lat":43.29031,"lon":5.38128,"is_reserved":false,"is_disabled":false,"rental_uris":{"android":"levelo://app?vid=cd3b08e6-c974-4cd3-9f10-0a74cd99e828","ios":"levelo://app?vid=cd3b08e6-c974-4cd3-9f10-0a74cd99e828"},"vehicle_type_id":"4","last_reported":1753632732,"current_range_meters":8400,"station_id":"ce4bh4p2rcd13ifvqe1g","pricing_plan_id":"cebpf4jnsgd1na2vs0mg"},{"bike_id":"d68163c9-65c1-4a7d-9088-db498c622ee6","system_id":"levelo_inurba_marseille","lat":43.2695,"lon":5.38623,"is_reserved":false,"is_disabled":false,"rental_uris":{"android":"levelo://app?vid=d68163c9-65c1-4a7d-9088-db498c622ee6","ios":"levelo://app?vid=d68163c9-65c1-4a7d-9088-db498c622ee6"},"vehicle_type_id":"4","last_reported":1753632732,"current_range_meters":8000,"station_id":"ce4bhh92rcd13ifvqfh0","pricing_plan_id":"cebpf4jnsgd1na2vs0mg"},{"bike_id":"f2c0d178-a474-46a0-b002-379a7a30c411","system_id":"levelo_inurba_marseille","lat":43.294291,"lon":5.375978,"is_reserved":false,"is_disabled":false,"rental_uris":{"android":"levelo://app?vid=f2c0d178-a474-46a0-b002-379a7a30c411","ios":"levelo://app?vid=f2c0d178-a474-46a0-b002-379a7a30c411"},"vehicle_type_id":"4","last_reported":1753632732,"current_range_meters":8800,"station_id":"","pricing_plan_id":"cebpf4jnsgd1na2vs0mg"},{"bike_id":"3d386717-1249-4a94-b26e-53992c039cc5","system_id":"levelo_inurba_marseille","lat":43.21195,"lon":5.35063,"is_reserved":false,"is_disabled":false,"rental_uris":{"android":"levelo://app?vid=3d386717-1249-4a94-b26e-53992c039cc5","ios":"levelo://app?vid=3d386717-1249-4a94-b26e-53992c039cc5"},"vehicle_type_id":"4","last_reported":1753632732,"current_range_meters":8800,"station_id":"st_cvj6sg6p6f1abm77japg","pricing_plan_id":"cebpf4jnsgd1na2vs0mg"},{"bike_id":"dd5b3db2-62f9-4716-992d-435138b6493d","system_id":"levelo_inurba_marseille","lat":43.30821,"lon":5.38151,"is_reserved":false,"is_disabled":true,"rental_uris":{"android":"levelo://app?vid=dd5b3db2-62f9-4716-992d-435138b6493d","ios":"levelo://app?vid=dd5b3db2-62f9-4716-992d-435138b6493d"},"vehicle_type_id":"4","last_reported":1753632732,"current_range_meters":8800,"station_id":"ce4bgt12rcd13ifvqce0","pricing_plan_id":"cebpf4jnsgd1na2vs0mg"},{"bike_id":"2698940b-2307-49a3-9232-a2845e2c80bf","system_id":"levelo_inurba_marseille","lat":43.30003,"lon":5.39709,"is_reserved":false,"is_disabled":false,"rental_uris":{"android":"levelo://app?vid=2698940b-2307-49a3-9232-a2845e2c80bf","ios":"levelo://app?vid=2698940b-2307-49a3-9232-a2845e2c80bf"},"vehicle_type_id":"4","last_reported":1753632732,"current_range_meters":8800,"station_id":"","pricing_plan_id":"cebpf4jnsgd1na2vs0mg"},{"bike_id":"cd0d4afa-9de1-4afb-923d-b45a4942c9a1","system_id":"levelo_inurba_marseille","lat":43.22522,"lon":5.34765,"is_reserved":false,"is_disabled":false,"rental_uris":{"android":"levelo://app?vid=cd0d4afa-9de1-4afb-923d-b45a4942c9a1","ios":"levelo://app?vid=cd0d4afa-9de1-4afb-923d-b45a4942c9a1"},"vehicle_type_id":"4","last_reported":1753632732,"current_range_meters":8800,"station_id":"st_cvj5dfep6f1abm77gieg","pricing_plan_id":"cebpf4jnsgd1na2vs0mg"},{"bike_id":"c3c2652b-f2d7-4ed4-89ec-9559feb01451","system_id":"levelo_inurba_marseille","lat":43.29226,"lon":5.360481,"is_reserved":false,"is_disabled":true,"rental_uris":{"android":"levelo://app?vid=c3c2652b-f2d7-4ed4-89ec-9559feb01451","ios":"levelo://app?vid=c3c2652b-f2d7-4ed4-89ec-9559feb01451"},"vehicle_type_id":"4","last_reported":1753632732,"current_range_meters":9200,"station_id":"ce4bhbh2rcd13ifvqeqg","pricing_plan_id":"cebpf4jnsgd1na2vs0mg"},{"bike_id":"ad676354-5f32-402a-ace7-3af7e2297b05","system_id":"levelo_inurba_marseille","lat":43.32378,"lon":5.36736,"is_reserved":false,"is_disabled":false,"rental_uris":{"android":"levelo://app?vid=ad676354-5f32-402a-ace7-3af7e2297b05","ios":"levelo://app?vid=ad676354-5f32-402a-ace7-3af7e2297b05"},"vehicle_type_id":"4","last_reported":1753632732,"current_range_meters":9200,"station_id":"ce4bhsh2rcd13ifvqi2g","pricing_plan_id":"cebpf4jnsgd1na2vs0mg"},{"bike_id":"02cab979-ccb2-40ce-bd89-cd624415fc04","system_id":"levelo_inurba_marseille","lat":43.277787,"lon":5.399391,"is_reserved":false,"is_disabled":false,"rental_uris":{"android":"levelo://app?vid=02cab979-ccb2-40ce-bd89-cd624415fc04","ios":"levelo://app?vid=02cab979-ccb2-40ce-bd89-cd624415fc04"},"vehicle_type_id":"4","last_reported":1753632732,"current_range_meters":9200,"station_id":"","pricing_plan_id":"cebpf4jnsgd1na2vs0mg"},{"bike_id":"9ffbca68-3cdc-4ab2-9a55-58d984b9c8ca","system_id":"levelo_inurba_marseille","lat":43.29017,"lon":5.38137,"is_reserved":false,"is_disabled":false,"rental_uris":{"android":"levelo://app?vid=9ffbca68-3cdc-4ab2-9a55-58d984b9c8ca","ios":"levelo://app?vid=9ffbca68-3cdc-4ab2-9a55-58d984b9c8ca"},"vehicle_type_id":"4","last_reported":1753632732,"current_range_meters":9200,"station_id":"ce4bh4p2rcd13ifvqe1g","pricing_plan_id":"cebpf4jnsgd1na2vs0mg"},{"bike_id":"042a8476-d3c4-476b-9557-f32c03e9d625","system_id":"levelo_inurba_marseille","lat":43.33954,"lon":5.35698,"is_reserved":false,"is_disabled":false,"rental_uris":{"android":"levelo://app?vid=042a8476-d3c4-476b-9557-f32c03e9d625","ios":"levelo://app?vid=042a8476-d3c4-476b-9557-f32c03e9d625"},"vehicle_type_id":"4","last_reported":1753632732,"current_range_meters":9200,"station_id":"","pricing_plan_id":"cebpf4jnsgd1na2vs0mg"},{"bike_id":"f7298b84-6ffb-4198-9786-533677ed3246","system_id":"levelo_inurba_marseille","lat":43.24664,"lon":5.38162,"is_reserved":false,"is_disabled":false,"rental_uris":{"android":"levelo://app?vid=f7298b84-6ffb-4198-9786-533677ed3246","ios":"levelo://app?vid=f7298b84-6ffb-4198-9786-533677ed3246"},"vehicle_type_id":"4","last_reported":1753632732,"current_range_meters":9200,"station_id":"ce4bhih2rcd13ifvqfr0","pricing_plan_id":"cebpf4jnsgd1na2vs0mg"},{"bike_id":"9377d52d-7c04-4205-81e5-05265b3eabff","system_id":"levelo_inurba_marseille","lat":43.28714,"lon":5.37933,"is_reserved":false,"is_disabled":true,"rental_uris":{"android":"levelo://app?vid=9377d52d-7c04-4205-81e5-05265b3eabff","ios":"levelo://app?vid=9377d52d-7c04-4205-81e5-05265b3eabff"},"vehicle_type_id":"4","last_reported":1753632732,"current_range_meters":9600,"station_id":"ce4bh9p2rcd13ifvqec0","pricing_plan_id":"cebpf4jnsgd1na2vs0mg"},{"bike_id":"43cf4049-15dd-4e8c-88a8-61cd8dc10bf5","system_id":"levelo_inurba_marseille","lat":43.33271,"lon":5.38004,"is_reserved":false,"is_disabled":true,"rental_uris":{"android":"levelo://app?vid=43cf4049-15dd-4e8c-88a8-61cd8dc10bf5","ios":"levelo://app?vid=43cf4049-15dd-4e8c-88a8-61cd8dc10bf5"},"vehicle_type_id":"4","last_reported":1753632732,"current_range_meters":9600,"station_id":"","pricing_plan_id":"cebpf4jnsgd1na2vs0mg"},{"bike_id":"19fad03d-265c-4cec-a639-c5e80eb700a2","system_id":"levelo_inurba_marseille","lat":43.31702,"lon":5.37733,"is_reserved":false,"is_disabled":false,"rental_uris":{"android":"levelo://app?vid=19fad03d-265c-4cec-a639-c5e80eb700a2","ios":"levelo://app?vid=19fad03d-265c-4cec-a639-c5e80eb700a2"},"vehicle_type_id":"4","last_reported":1753632732,"current_range_meters":9200,"station_id":"ce4bgth2rcd13ifvqch0","pricing_plan_id":"cebpf4jnsgd1na2vs0mg"},{"bike_id":"36119424-84c7-4520-b948-a6477bf6c978","system_id":"levelo_inurba_marseille","lat":43.25585,"lon":5.38231,"is_reserved":false,"is_disabled":false,"rental_uris":{"android":"levelo://app?vid=36119424-84c7-4520-b948-a6477bf6c978","ios":"levelo://app?vid=36119424-84c7-4520-b948-a6477bf6c978"},"vehicle_type_id":"4","last_reported":1753632732,"current_range_meters":9200,"station_id":"ce4bhih2rcd13ifvqfs0","pricing_plan_id":"cebpf4jnsgd1na2vs0mg"},{"bike_id":"4e97a19b-88ac-4646-bb67-c4e1763b513d","system_id":"levelo_inurba_marseille","lat":43.29261,"lon":5.38432,"is_reserved":false,"is_disabled":true,"rental_uris":{"android":"levelo://app?vid=4e97a19b-88ac-4646-bb67-c4e1763b513d","ios":"levelo://app?vid=4e97a19b-88ac-4646-bb67-c4e1763b513d"},"vehicle_type_id":"4","last_reported":1753632732,"current_range_meters":9600,"station_id":"ce4bh692rcd13ifvqea0","pricing_plan_id":"cebpf4jnsgd1na2vs0mg"},{"bike_id":"2fa9dd39-7ea8-42db-9ead-ca5e3675e815","system_id":"levelo_inurba_marseille","lat":43.30227,"lon":5.39451,"is_reserved":false,"is_disabled":true,"rental_uris":{"android":"levelo://app?vid=2fa9dd39-7ea8-42db-9ead-ca5e3675e815","ios":"levelo://app?vid=2fa9dd39-7ea8-42db-9ead-ca5e3675e815"},"vehicle_type_id":"4","last_reported":1753632732,"current_range_meters":9600,"station_id":"ce4bh0p2rcd13ifvqd70","pricing_plan_id":"cebpf4jnsgd1na2vs0mg"},{"bike_id":"9188366a-c6a3-4354-b558-553177316347","system_id":"levelo_inurba_marseille","lat":43.26277,"lon":5.37409,"is_reserved":false,"is_disabled":true,"rental_uris":{"android":"levelo://app?vid=9188366a-c6a3-4354-b558-553177316347","ios":"levelo://app?vid=9188366a-c6a3-4354-b558-553177316347"},"vehicle_type_id":"4","last_reported":1753632732,"current_range_meters":9600,"station_id":"","pricing_plan_id":"cebpf4jnsgd1na2vs0mg"},{"bike_id":"716fa555-6353-44f6-926e-c81d19aa673d","system_id":"levelo_inurba_marseille","lat":43.225042,"lon":5.34783,"is_reserved":false,"is_disabled":false,"rental_uris":{"android":"levelo://app?vid=716fa555-6353-44f6-926e-c81d19aa673d","ios":"levelo://app?vid=716fa555-6353-44f6-926e-c81d19aa673d"},"vehicle_type_id":"4","last_reported":1753632732,"current_range_meters":9600,"station_id":"st_cvj5dfep6f1abm77gieg","pricing_plan_id":"cebpf4jnsgd1na2vs0mg"},{"bike_id":"7e65c5ea-0429-45f5-a396-bd32e67f0744","system_id":"levelo_inurba_marseille","lat":43.33466,"lon":5.40043,"is_reserved":false,"is_disabled":false,"rental_uris":{"android":"levelo://app?vid=7e65c5ea-0429-45f5-a396-bd32e67f0744","ios":"levelo://app?vid=7e65c5ea-0429-45f5-a396-bd32e67f0744"},"vehicle_type_id":"4","last_reported":1753632732,"current_range_meters":9600,"station_id":"","pricing_plan_id":"cebpf4jnsgd1na2vs0mg"},{"bike_id":"d5a63dee-a415-40f6-88a8-f1d25d6ddaa1","system_id":"levelo_inurba_marseille","lat":43.290311,"lon":5.399895,"is_reserved":false,"is_disabled":true,"rental_uris":{"android":"levelo://app?vid=d5a63dee-a415-40f6-88a8-f1d25d6ddaa1","ios":"levelo://app?vid=d5a63dee-a415-40f6-88a8-f1d25d6ddaa1"},"vehicle_type_id":"4","last_reported":1753632732,"current_range_meters":10000,"station_id":"ce4bh392rcd13ifvqdm0","pricing_plan_id":"cebpf4jnsgd1na2vs0mg"},{"bike_id":"ab3caa22-fff2-4208-930d-4ea964c1274c","system_id":"levelo_inurba_marseille","lat":43.27375,"lon":5.36253,"is_reserved":false,"is_disabled":false,"rental_uris":{"android":"levelo://app?vid=ab3caa22-fff2-4208-930d-4ea964c1274c","ios":"levelo://app?vid=ab3caa22-fff2-4208-930d-4ea964c1274c"},"vehicle_type_id":"4","last_reported":1753632732,"current_range_meters":10000,"station_id":"ce4bhbh2rcd13ifvqeo0","pricing_plan_id":"cebpf4jnsgd1na2vs0mg"},{"bike_id":"00f70799-f51f-41cf-9b9e-7dbab8d304d8","system_id":"levelo_inurba_marseille","lat":43.29256,"lon":5.38433,"is_reserved":false,"is_disabled":false,"rental_uris":{"android":"levelo://app?vid=00f70799-f51f-41cf-9b9e-7dbab8d304d8","ios":"levelo://app?vid=00f70799-f51f-41cf-9b9e-7dbab8d304d8"},"vehicle_type_id":"4","last_reported":1753632732,"current_range_meters":10800,"station_id":"ce4bh692rcd13ifvqea0","pricing_plan_id":"cebpf4jnsgd1na2vs0mg"},{"bike_id":"d7d07ba6-63c4-4922-a0eb-7f681b8439d5","system_id":"levelo_inurba_marseille","lat":43.22504,"lon":5.34773,"is_reserved":false,"is_disabled":false,"rental_uris":{"android":"levelo://app?vid=d7d07ba6-63c4-4922-a0eb-7f681b8439d5","ios":"levelo://app?vid=d7d07ba6-63c4-4922-a0eb-7f681b8439d5"},"vehicle_type_id":"4","last_reported":1753632732,"current_range_meters":10800,"station_id":"st_cvj5dfep6f1abm77gieg","pricing_plan_id":"cebpf4jnsgd1na2vs0mg"},{"bike_id":"898d1f8e-e261-4f25-9386-a6825028d102","system_id":"levelo_inurba_marseille","lat":43.29047,"lon":5.47246,"is_reserved":false,"is_disabled":false,"rental_uris":{"android":"levelo://app?vid=898d1f8e-e261-4f25-9386-a6825028d102","ios":"levelo://app?vid=898d1f8e-e261-4f25-9386-a6825028d102"},"vehicle_type_id":"4","last_reported":1753632732,"current_range_meters":10800,"station_id":"","pricing_plan_id":"cebpf4jnsgd1na2vs0mg"},{"bike_id":"9dfdeb8a-ee13-4931-94b4-ad2b5f23aa4b","system_id":"levelo_inurba_marseille","lat":43.23198,"lon":5.39979,"is_reserved":false,"is_disabled":true,"rental_uris":{"android":"levelo://app?vid=9dfdeb8a-ee13-4931-94b4-ad2b5f23aa4b","ios":"levelo://app?vid=9dfdeb8a-ee13-4931-94b4-ad2b5f23aa4b"},"vehicle_type_id":"4","last_reported":1753632732,"current_range_meters":10800,"station_id":"ce4bhn12rcd13ifvqgqg","pricing_plan_id":"cebpf4jnsgd1na2vs0mg"},{"bike_id":"a05343f6-5345-451e-92c9-8d14b4ec04eb","system_id":"levelo_inurba_marseille","lat":43.314919,"lon":5.373082,"is_reserved":false,"is_disabled":false,"rental_uris":{"android":"levelo://app?vid=a05343f6-5345-451e-92c9-8d14b4ec04eb","ios":"levelo://app?vid=a05343f6-5345-451e-92c9-8d14b4ec04eb"},"vehicle_type_id":"4","last_reported":1753632732,"current_range_meters":10800,"station_id":"","pricing_plan_id":"cebpf4jnsgd1na2vs0mg"},{"bike_id":"aab2b815-9d82-4f79-b9c3-4af935e3549c","system_id":"levelo_inurba_marseille","lat":43.2415,"lon":5.36387,"is_reserved":false,"is_disabled":false,"rental_uris":{"android":"levelo://app?vid=aab2b815-9d82-4f79-b9c3-4af935e3549c","ios":"levelo://app?vid=aab2b815-9d82-4f79-b9c3-4af935e3549c"},"vehicle_type_id":"4","last_reported":1753632732,"current_range_meters":11200,"station_id":"","pricing_plan_id":"cebpf4jnsgd1na2vs0mg"},{"bike_id":"b9006b8d-b9e0-4484-83bb-48e49a2f14e3","system_id":"levelo_inurba_marseille","lat":43.26922,"lon":5.38927,"is_reserved":false,"is_disabled":false,"rental_uris":{"android":"levelo://app?vid=b9006b8d-b9e0-4484-83bb-48e49a2f14e3","ios":"levelo://app?vid=b9006b8d-b9e0-4484-83bb-48e49a2f14e3"},"vehicle_type_id":"4","last_reported":1753632732,"current_range_meters":10000,"station_id":"ce4bhhh2rcd13ifvqfl0","pricing_plan_id":"cebpf4jnsgd1na2vs0mg"},{"bike_id":"1e5c96a6-9d0f-4d5f-85ef-5a5f8ac0317a","system_id":"levelo_inurba_marseille","lat":43.33427,"lon":5.39142,"is_reserved":false,"is_disabled":false,"rental_uris":{"android":"levelo://app?vid=1e5c96a6-9d0f-4d5f-85ef-5a5f8ac0317a","ios":"levelo://app?vid=1e5c96a6-9d0f-4d5f-85ef-5a5f8ac0317a"},"vehicle_type_id":"4","last_reported":1753632732,"current_range_meters":10800,"station_id":"","pricing_plan_id":"cebpf4jnsgd1na2vs0mg"},{"bike_id":"a1d5115b-997f-44a5-8b4b-21cb29757407","system_id":"levelo_inurba_marseille","lat":43.31208,"lon":5.37319,"is_reserved":false,"is_disabled":false,"rental_uris":{"android":"levelo://app?vid=a1d5115b-997f-44a5-8b4b-21cb29757407","ios":"levelo://app?vid=a1d5115b-997f-44a5-8b4b-21cb29757407"},"vehicle_type_id":"4","last_reported":1753632732,"current_range_meters":10800,"station_id":"","pricing_plan_id":"cebpf4jnsgd1na2vs0mg"},{"bike_id":"5d9e7888-3e86-4611-9076-55981d70a861","system_id":"levelo_inurba_marseille","lat":43.3042,"lon":5.41273,"is_reserved":false,"is_disabled":false,"rental_uris":{"android":"levelo://app?vid=5d9e7888-3e86-4611-9076-55981d70a861","ios":"levelo://app?vid=5d9e7888-3e86-4611-9076-55981d70a861"},"vehicle_type_id":"4","last_reported":1753632732,"current_range_meters":10800,"station_id":"ce4bhop2rcd13ifvqh8g","pricing_plan_id":"cebpf4jnsgd1na2vs0mg"},{"bike_id":"cbd3c835-3646-48da-a31a-110bb275e07a","system_id":"levelo_inurba_marseille","lat":43.28612,"lon":5.37053,"is_reserved":false,"is_disabled":false,"rental_uris":{"android":"levelo://app?vid=cbd3c835-3646-48da-a31a-110bb275e07a","ios":"levelo://app?vid=cbd3c835-3646-48da-a31a-110bb275e07a"},"vehicle_type_id":"4","last_reported":1753632732,"current_range_meters":11200,"station_id":"ce4bht12rcd13ifvqi60","pricing_plan_id":"cebpf4jnsgd1na2vs0mg"},{"bike_id":"94fe41a4-b948-40d9-87e4-2ae7130aef19","system_id":"levelo_inurba_marseille","lat":43.29198,"lon":5.39319,"is_reserved":false,"is_disabled":false,"rental_uris":{"android":"levelo://app?vid=94fe41a4-b948-40d9-87e4-2ae7130aef19","ios":"levelo://app?vid=94fe41a4-b948-40d9-87e4-2ae7130aef19"},"vehicle_type_id":"4","last_reported":1753632732,"current_range_meters":11200,"station_id":"ce4bh192rcd13ifvqdd0","pricing_plan_id":"cebpf4jnsgd1na2vs0mg"},{"bike_id":"7fe8107c-aa92-49b9-a3d4-b0180595b13e","system_id":"levelo_inurba_marseille","lat":43.298235,"lon":5.376573,"is_reserved":false,"is_disabled":false,"rental_uris":{"android":"levelo://app?vid=7fe8107c-aa92-49b9-a3d4-b0180595b13e","ios":"levelo://app?vid=7fe8107c-aa92-49b9-a3d4-b0180595b13e"},"vehicle_type_id":"4","last_reported":1753632732,"current_range_meters":11200,"station_id":"","pricing_plan_id":"cebpf4jnsgd1na2vs0mg"},{"bike_id":"43dbc09e-d0e4-4ddb-bafe-4f55874d23a9","system_id":"levelo_inurba_marseille","lat":43.30223,"lon":5.3821,"is_reserved":false,"is_disabled":false,"rental_uris":{"android":"levelo://app?vid=43dbc09e-d0e4-4ddb-bafe-4f55874d23a9","ios":"levelo://app?vid=43dbc09e-d0e4-4ddb-bafe-4f55874d23a9"},"vehicle_type_id":"4","last_reported":1753632732,"current_range_meters":11200,"station_id":"","pricing_plan_id":"cebpf4jnsgd1na2vs0mg"},{"bike_id":"0e0f3544-17a9-4ce7-a701-8c9d7e18180d","system_id":"levelo_inurba_marseille","lat":43.29513,"lon":5.39047,"is_reserved":false,"is_disabled":false,"rental_uris":{"android":"levelo://app?vid=0e0f3544-17a9-4ce7-a701-8c9d7e18180d","ios":"levelo://app?vid=0e0f3544-17a9-4ce7-a701-8c9d7e18180d"},"vehicle_type_id":"4","last_reported":1753632732,"current_range_meters":11200,"station_id":"ce4bh3p2rcd13ifvqdp0","pricing_plan_id":"cebpf4jnsgd1na2vs0mg"},{"bike_id":"1d2f92cc-5eee-4686-a745-6cb2184d6c85","system_id":"levelo_inurba_marseille","lat":43.31698,"lon":5.37769,"is_reserved":false,"is_disabled":false,"rental_uris":{"android":"levelo://app?vid=1d2f92cc-5eee-4686-a745-6cb2184d6c85","ios":"levelo://app?vid=1d2f92cc-5eee-4686-a745-6cb2184d6c85"},"vehicle_type_id":"4","last_reported":1753632732,"current_range_meters":11200,"station_id":"ce4bgth2rcd13ifvqch0","pricing_plan_id":"cebpf4jnsgd1na2vs0mg"},{"bike_id":"743a6248-f8f0-46e1-aabd-23c4ce301c3b","system_id":"levelo_inurba_marseille","lat":43.28269,"lon":5.350733,"is_reserved":false,"is_disabled":false,"rental_uris":{"android":"levelo://app?vid=743a6248-f8f0-46e1-aabd-23c4ce301c3b","ios":"levelo://app?vid=743a6248-f8f0-46e1-aabd-23c4ce301c3b"},"vehicle_type_id":"4","last_reported":1753632732,"current_range_meters":11200,"station_id":"ce4bhbp2rcd13ifvqerg","pricing_plan_id":"cebpf4jnsgd1na2vs0mg"},{"bike_id":"45ca166c-b6c5-49e6-a2ae-eae62abe9bd0","system_id":"levelo_inurba_marseille","lat":43.23064,"lon":5.35487,"is_reserved":false,"is_disabled":false,"rental_uris":{"android":"levelo://app?vid=45ca166c-b6c5-49e6-a2ae-eae62abe9bd0","ios":"levelo://app?vid=45ca166c-b6c5-49e6-a2ae-eae62abe9bd0"},"vehicle_type_id":"4","last_reported":1753632732,"current_range_meters":11600,"station_id":"cpo3342slgdg3j2ifvpg","pricing_plan_id":"cebpf4jnsgd1na2vs0mg"},{"bike_id":"de83b2de-2a1c-4a8b-a03d-5b6760225765","system_id":"levelo_inurba_marseille","lat":43.27919,"lon":5.39577,"is_reserved":false,"is_disabled":false,"rental_uris":{"android":"levelo://app?vid=de83b2de-2a1c-4a8b-a03d-5b6760225765","ios":"levelo://app?vid=de83b2de-2a1c-4a8b-a03d-5b6760225765"},"vehicle_type_id":"4","last_reported":1753632732,"current_range_meters":11600,"station_id":"ce4bhf92rcd13ifvqf40","pricing_plan_id":"cebpf4jnsgd1na2vs0mg"},{"bike_id":"6a38ad86-92b8-4aed-98d7-3569ef9cc105","system_id":"levelo_inurba_marseille","lat":43.217441,"lon":5.346032,"is_reserved":false,"is_disabled":true,"rental_uris":{"android":"levelo://app?vid=6a38ad86-92b8-4aed-98d7-3569ef9cc105","ios":"levelo://app?vid=6a38ad86-92b8-4aed-98d7-3569ef9cc105"},"vehicle_type_id":"4","last_reported":1753632732,"current_range_meters":11600,"station_id":"","pricing_plan_id":"cebpf4jnsgd1na2vs0mg"},{"bike_id":"cb0585d3-2f9b-4644-8abe-1cc056e12bd9","system_id":"levelo_inurba_marseille","lat":43.27614,"lon":5.36108,"is_reserved":false,"is_disabled":false,"rental_uris":{"android":"levelo://app?vid=cb0585d3-2f9b-4644-8abe-1cc056e12bd9","ios":"levelo://app?vid=cb0585d3-2f9b-4644-8abe-1cc056e12bd9"},"vehicle_type_id":"4","last_reported":1753632732,"current_range_meters":12000,"station_id":"ce4bgj92rcd13ifvqbe0","pricing_plan_id":"cebpf4jnsgd1na2vs0mg"},{"bike_id":"ffa1f981-cb5d-4c32-a0ef-e884572fffc1","system_id":"levelo_inurba_marseille","lat":43.2845,"lon":5.34963,"is_reserved":false,"is_disabled":false,"rental_uris":{"android":"levelo://app?vid=ffa1f981-cb5d-4c32-a0ef-e884572fffc1","ios":"levelo://app?vid=ffa1f981-cb5d-4c32-a0ef-e884572fffc1"},"vehicle_type_id":"4","last_reported":1753632732,"current_range_meters":12000,"station_id":"ce4bhbh2rcd13ifvqepg","pricing_plan_id":"cebpf4jnsgd1na2vs0mg"},{"bike_id":"f9999ec6-9371-4e85-b7d5-6a9f0024b861","system_id":"levelo_inurba_marseille","lat":43.3141,"lon":5.37107,"is_reserved":false,"is_disabled":false,"rental_uris":{"android":"levelo://app?vid=f9999ec6-9371-4e85-b7d5-6a9f0024b861","ios":"levelo://app?vid=f9999ec6-9371-4e85-b7d5-6a9f0024b861"},"vehicle_type_id":"4","last_reported":1753632732,"current_range_meters":12000,"station_id":"","pricing_plan_id":"cebpf4jnsgd1na2vs0mg"},{"bike_id":"8f785e69-82ae-4e1d-82c1-f85cc3f67788","system_id":"levelo_inurba_marseille","lat":43.29098,"lon":5.38147,"is_reserved":false,"is_disabled":true,"rental_uris":{"android":"levelo://app?vid=8f785e69-82ae-4e1d-82c1-f85cc3f67788","ios":"levelo://app?vid=8f785e69-82ae-4e1d-82c1-f85cc3f67788"},"vehicle_type_id":"4","last_reported":1753632732,"current_range_meters":12000,"station_id":"ce4bh512rcd13ifvqe2g","pricing_plan_id":"cebpf4jnsgd1na2vs0mg"},{"bike_id":"e58aeb28-37d0-4576-bc6f-1015cb37696e","system_id":"levelo_inurba_marseille","lat":43.28485,"lon":5.38545,"is_reserved":false,"is_disabled":false,"rental_uris":{"android":"levelo://app?vid=e58aeb28-37d0-4576-bc6f-1015cb37696e","ios":"levelo://app?vid=e58aeb28-37d0-4576-bc6f-1015cb37696e"},"vehicle_type_id":"4","last_reported":1753632732,"current_range_meters":12000,"station_id":"ce4bh8p2rcd13ifvqeb0","pricing_plan_id":"cebpf4jnsgd1na2vs0mg"},{"bike_id":"f7666a02-d01b-430d-af50-72d577e4dc63","system_id":"levelo_inurba_marseille","lat":43.273777,"lon":5.362573,"is_reserved":false,"is_disabled":false,"rental_uris":{"android":"levelo://app?vid=f7666a02-d01b-430d-af50-72d577e4dc63","ios":"levelo://app?vid=f7666a02-d01b-430d-af50-72d577e4dc63"},"vehicle_type_id":"4","last_reported":1753632732,"current_range_meters":12000,"station_id":"ce4bhbh2rcd13ifvqeo0","pricing_plan_id":"cebpf4jnsgd1na2vs0mg"},{"bike_id":"e7f4fa48-5de8-4880-bad5-7211e00a767e","system_id":"levelo_inurba_marseille","lat":43.24551,"lon":5.39519,"is_reserved":false,"is_disabled":false,"rental_uris":{"android":"levelo://app?vid=e7f4fa48-5de8-4880-bad5-7211e00a767e","ios":"levelo://app?vid=e7f4fa48-5de8-4880-bad5-7211e00a767e"},"vehicle_type_id":"4","last_reported":1753632732,"current_range_meters":11600,"station_id":"ce4bhlp2rcd13ifvqgjg","pricing_plan_id":"cebpf4jnsgd1na2vs0mg"},{"bike_id":"4718a496-630f-43c3-a5d2-3cc47654959b","system_id":"levelo_inurba_marseille","lat":43.29625,"lon":5.37165,"is_reserved":false,"is_disabled":false,"rental_uris":{"android":"levelo://app?vid=4718a496-630f-43c3-a5d2-3cc47654959b","ios":"levelo://app?vid=4718a496-630f-43c3-a5d2-3cc47654959b"},"vehicle_type_id":"4","last_reported":1753632732,"current_range_meters":12000,"station_id":"ce4bgnh2rcd13ifvqc0g","pricing_plan_id":"cebpf4jnsgd1na2vs0mg"},{"bike_id":"dc1f96a2-af8c-4cc4-9cca-2b3cc022dd21","system_id":"levelo_inurba_marseille","lat":43.23065,"lon":5.35489,"is_reserved":false,"is_disabled":false,"rental_uris":{"android":"levelo://app?vid=dc1f96a2-af8c-4cc4-9cca-2b3cc022dd21","ios":"levelo://app?vid=dc1f96a2-af8c-4cc4-9cca-2b3cc022dd21"},"vehicle_type_id":"4","last_reported":1753632732,"current_range_meters":12000,"station_id":"cpo3342slgdg3j2ifvpg","pricing_plan_id":"cebpf4jnsgd1na2vs0mg"},{"bike_id":"dee5acb5-f8c3-4271-bd52-7f978456b271","system_id":"levelo_inurba_marseille","lat":43.27375,"lon":5.36255,"is_reserved":false,"is_disabled":false,"rental_uris":{"android":"levelo://app?vid=dee5acb5-f8c3-4271-bd52-7f978456b271","ios":"levelo://app?vid=dee5acb5-f8c3-4271-bd52-7f978456b271"},"vehicle_type_id":"4","last_reported":1753632732,"current_range_meters":12000,"station_id":"ce4bhbh2rcd13ifvqeo0","pricing_plan_id":"cebpf4jnsgd1na2vs0mg"},{"bike_id":"7b72b93c-c2ca-4a54-8a88-5eda1551873a","system_id":"levelo_inurba_marseille","lat":43.28424,"lon":5.34979,"is_reserved":false,"is_disabled":false,"rental_uris":{"android":"levelo://app?vid=7b72b93c-c2ca-4a54-8a88-5eda1551873a","ios":"levelo://app?vid=7b72b93c-c2ca-4a54-8a88-5eda1551873a"},"vehicle_type_id":"4","last_reported":1753632732,"current_range_meters":12000,"station_id":"ce4bhbh2rcd13ifvqepg","pricing_plan_id":"cebpf4jnsgd1na2vs0mg"},{"bike_id":"aebdf431-3b97-428a-a9b4-1e35e4b29383","system_id":"levelo_inurba_marseille","lat":43.3168,"lon":5.40474,"is_reserved":false,"is_disabled":false,"rental_uris":{"android":"levelo://app?vid=aebdf431-3b97-428a-a9b4-1e35e4b29383","ios":"levelo://app?vid=aebdf431-3b97-428a-a9b4-1e35e4b29383"},"vehicle_type_id":"4","last_reported":1753632732,"current_range_meters":12400,"station_id":"ce4bh012rcd13ifvqd00","pricing_plan_id":"cebpf4jnsgd1na2vs0mg"},{"bike_id":"f2e73ed9-a948-43ea-ab9d-32368cf8a475","system_id":"levelo_inurba_marseille","lat":43.26196,"lon":5.37454,"is_reserved":false,"is_disabled":true,"rental_uris":{"android":"levelo://app?vid=f2e73ed9-a948-43ea-ab9d-32368cf8a475","ios":"levelo://app?vid=f2e73ed9-a948-43ea-ab9d-32368cf8a475"},"vehicle_type_id":"4","last_reported":1753632732,"current_range_meters":12400,"station_id":"ce4bhgp2rcd13ifvqfc0","pricing_plan_id":"cebpf4jnsgd1na2vs0mg"},{"bike_id":"6e0d469e-c7b7-478d-b94e-daf583879f57","system_id":"levelo_inurba_marseille","lat":43.23193,"lon":5.35544,"is_reserved":false,"is_disabled":false,"rental_uris":{"android":"levelo://app?vid=6e0d469e-c7b7-478d-b94e-daf583879f57","ios":"levelo://app?vid=6e0d469e-c7b7-478d-b94e-daf583879f57"},"vehicle_type_id":"4","last_reported":1753632732,"current_range_meters":12800,"station_id":"ce4bhu92rcd13ifvqi70","pricing_plan_id":"cebpf4jnsgd1na2vs0mg"},{"bike_id":"65267987-54dc-408e-a79a-e35850267d45","system_id":"levelo_inurba_marseille","lat":43.28274,"lon":5.35061,"is_reserved":false,"is_disabled":false,"rental_uris":{"android":"levelo://app?vid=65267987-54dc-408e-a79a-e35850267d45","ios":"levelo://app?vid=65267987-54dc-408e-a79a-e35850267d45"},"vehicle_type_id":"4","last_reported":1753632732,"current_range_meters":12400,"station_id":"ce4bhbp2rcd13ifvqerg","pricing_plan_id":"cebpf4jnsgd1na2vs0mg"},{"bike_id":"6acb435c-b48c-4804-b65c-2ac2c16a5f80","system_id":"levelo_inurba_marseille","lat":43.2962,"lon":5.37168,"is_reserved":false,"is_disabled":false,"rental_uris":{"android":"levelo://app?vid=6acb435c-b48c-4804-b65c-2ac2c16a5f80","ios":"levelo://app?vid=6acb435c-b48c-4804-b65c-2ac2c16a5f80"},"vehicle_type_id":"4","last_reported":1753632732,"current_range_meters":12400,"station_id":"ce4bgnh2rcd13ifvqc0g","pricing_plan_id":"cebpf4jnsgd1na2vs0mg"},{"bike_id":"51ad7dd7-88ab-4eb9-87b7-6c1197faf725","system_id":"levelo_inurba_marseille","lat":43.28623,"lon":5.35105,"is_reserved":false,"is_disabled":false,"rental_uris":{"android":"levelo://app?vid=51ad7dd7-88ab-4eb9-87b7-6c1197faf725","ios":"levelo://app?vid=51ad7dd7-88ab-4eb9-87b7-6c1197faf725"},"vehicle_type_id":"4","last_reported":1753632732,"current_range_meters":12400,"station_id":"ce4bhch2rcd13ifvqeug","pricing_plan_id":"cebpf4jnsgd1na2vs0mg"},{"bike_id":"9b5f42fd-4277-43c5-a34f-9294b6421b46","system_id":"levelo_inurba_marseille","lat":43.29629,"lon":5.40609,"is_reserved":false,"is_disabled":false,"rental_uris":{"android":"levelo://app?vid=9b5f42fd-4277-43c5-a34f-9294b6421b46","ios":"levelo://app?vid=9b5f42fd-4277-43c5-a34f-9294b6421b46"},"vehicle_type_id":"4","last_reported":1753632732,"current_range_meters":12400,"station_id":"ce4bh0h2rcd13ifvqd60","pricing_plan_id":"cebpf4jnsgd1na2vs0mg"},{"bike_id":"da0dea9a-07a2-4249-aa7c-2489e28d40de","system_id":"levelo_inurba_marseille","lat":43.29684,"lon":5.36217,"is_reserved":false,"is_disabled":false,"rental_uris":{"android":"levelo://app?vid=da0dea9a-07a2-4249-aa7c-2489e28d40de","ios":"levelo://app?vid=da0dea9a-07a2-4249-aa7c-2489e28d40de"},"vehicle_type_id":"4","last_reported":1753632732,"current_range_meters":12800,"station_id":"","pricing_plan_id":"cebpf4jnsgd1na2vs0mg"},{"bike_id":"f52d9f58-d806-4eb0-a974-5a105b41c266","system_id":"levelo_inurba_marseille","lat":43.28305,"lon":5.35058,"is_reserved":false,"is_disabled":false,"rental_uris":{"android":"levelo://app?vid=f52d9f58-d806-4eb0-a974-5a105b41c266","ios":"levelo://app?vid=f52d9f58-d806-4eb0-a974-5a105b41c266"},"vehicle_type_id":"4","last_reported":1753632732,"current_range_meters":12800,"station_id":"ce4bhbp2rcd13ifvqerg","pricing_plan_id":"cebpf4jnsgd1na2vs0mg"},{"bike_id":"7b094c50-ec4f-4adf-b821-db97be393fac","system_id":"levelo_inurba_marseille","lat":43.30636,"lon":5.40095,"is_reserved":false,"is_disabled":false,"rental_uris":{"android":"levelo://app?vid=7b094c50-ec4f-4adf-b821-db97be393fac","ios":"levelo://app?vid=7b094c50-ec4f-4adf-b821-db97be393fac"},"vehicle_type_id":"4","last_reported":1753632732,"current_range_meters":12800,"station_id":"ce4bh112rcd13ifvqda0","pricing_plan_id":"cebpf4jnsgd1na2vs0mg"},{"bike_id":"a9977deb-1178-4019-bfdb-687ea3b318d8","system_id":"levelo_inurba_marseille","lat":43.27058,"lon":5.4026,"is_reserved":false,"is_disabled":false,"rental_uris":{"android":"levelo://app?vid=a9977deb-1178-4019-bfdb-687ea3b318d8","ios":"levelo://app?vid=a9977deb-1178-4019-bfdb-687ea3b318d8"},"vehicle_type_id":"4","last_reported":1753632732,"current_range_meters":12800,"station_id":"ce4bhk92rcd13ifvqgc0","pricing_plan_id":"cebpf4jnsgd1na2vs0mg"},{"bike_id":"46d0f652-3093-4600-ba6a-8648aa1b6034","system_id":"levelo_inurba_marseille","lat":43.276024,"lon":5.36086,"is_reserved":false,"is_disabled":false,"rental_uris":{"android":"levelo://app?vid=46d0f652-3093-4600-ba6a-8648aa1b6034","ios":"levelo://app?vid=46d0f652-3093-4600-ba6a-8648aa1b6034"},"vehicle_type_id":"4","last_reported":1753632732,"current_range_meters":12800,"station_id":"ce4bgj92rcd13ifvqbe0","pricing_plan_id":"cebpf4jnsgd1na2vs0mg"},{"bike_id":"d1e48369-710f-44bd-a09b-2505014437e1","system_id":"levelo_inurba_marseille","lat":43.29998,"lon":5.37173,"is_reserved":false,"is_disabled":false,"rental_uris":{"android":"levelo://app?vid=d1e48369-710f-44bd-a09b-2505014437e1","ios":"levelo://app?vid=d1e48369-710f-44bd-a09b-2505014437e1"},"vehicle_type_id":"4","last_reported":1753632732,"current_range_meters":12800,"station_id":"ce4bgr92rcd13ifvqc7g","pricing_plan_id":"cebpf4jnsgd1na2vs0mg"},{"bike_id":"198a8a48-9082-408a-ac7c-20dca32fbf4e","system_id":"levelo_inurba_marseille","lat":43.32057,"lon":5.40904,"is_reserved":false,"is_disabled":false,"rental_uris":{"android":"levelo://app?vid=198a8a48-9082-408a-ac7c-20dca32fbf4e","ios":"levelo://app?vid=198a8a48-9082-408a-ac7c-20dca32fbf4e"},"vehicle_type_id":"4","last_reported":1753632732,"current_range_meters":12800,"station_id":"","pricing_plan_id":"cebpf4jnsgd1na2vs0mg"},{"bike_id":"76874c93-4196-48c1-b4ce-9dc79e3034f2","system_id":"levelo_inurba_marseille","lat":43.31772,"lon":5.39016,"is_reserved":false,"is_disabled":false,"rental_uris":{"android":"levelo://app?vid=76874c93-4196-48c1-b4ce-9dc79e3034f2","ios":"levelo://app?vid=76874c93-4196-48c1-b4ce-9dc79e3034f2"},"vehicle_type_id":"4","last_reported":1753632732,"current_range_meters":13600,"station_id":"ce4bhqp2rcd13ifvqhng","pricing_plan_id":"cebpf4jnsgd1na2vs0mg"},{"bike_id":"0c2629b4-b297-4ebc-bea6-8ada1991d7fa","system_id":"levelo_inurba_marseille","lat":43.28262,"lon":5.35069,"is_reserved":false,"is_disabled":false,"rental_uris":{"android":"levelo://app?vid=0c2629b4-b297-4ebc-bea6-8ada1991d7fa","ios":"levelo://app?vid=0c2629b4-b297-4ebc-bea6-8ada1991d7fa"},"vehicle_type_id":"4","last_reported":1753632732,"current_range_meters":13600,"station_id":"ce4bhbp2rcd13ifvqerg","pricing_plan_id":"cebpf4jnsgd1na2vs0mg"},{"bike_id":"8b091c87-00a4-4e64-a058-ca35b401f679","system_id":"levelo_inurba_marseille","lat":43.24808,"lon":5.3746,"is_reserved":false,"is_disabled":true,"rental_uris":{"android":"levelo://app?vid=8b091c87-00a4-4e64-a058-ca35b401f679","ios":"levelo://app?vid=8b091c87-00a4-4e64-a058-ca35b401f679"},"vehicle_type_id":"4","last_reported":1753632732,"current_range_meters":13600,"station_id":"ce4bhgh2rcd13ifvqfb0","pricing_plan_id":"cebpf4jnsgd1na2vs0mg"},{"bike_id":"905576ef-66ce-426e-9600-566828c3b671","system_id":"levelo_inurba_marseille","lat":43.2175,"lon":5.34605,"is_reserved":false,"is_disabled":true,"rental_uris":{"android":"levelo://app?vid=905576ef-66ce-426e-9600-566828c3b671","ios":"levelo://app?vid=905576ef-66ce-426e-9600-566828c3b671"},"vehicle_type_id":"4","last_reported":1753632732,"current_range_meters":13600,"station_id":"","pricing_plan_id":"cebpf4jnsgd1na2vs0mg"},{"bike_id":"44c43d0f-d184-4574-a6df-866ebe33485f","system_id":"levelo_inurba_marseille","lat":43.296357,"lon":5.406028,"is_reserved":false,"is_disabled":false,"rental_uris":{"android":"levelo://app?vid=44c43d0f-d184-4574-a6df-866ebe33485f","ios":"levelo://app?vid=44c43d0f-d184-4574-a6df-866ebe33485f"},"vehicle_type_id":"4","last_reported":1753632732,"current_range_meters":12800,"station_id":"ce4bh0h2rcd13ifvqd60","pricing_plan_id":"cebpf4jnsgd1na2vs0mg"},{"bike_id":"81e10fae-2a77-4a7b-8854-0a052d187d88","system_id":"levelo_inurba_marseille","lat":43.29787,"lon":5.37015,"is_reserved":false,"is_disabled":false,"rental_uris":{"android":"levelo://app?vid=81e10fae-2a77-4a7b-8854-0a052d187d88","ios":"levelo://app?vid=81e10fae-2a77-4a7b-8854-0a052d187d88"},"vehicle_type_id":"4","last_reported":1753632732,"current_range_meters":13600,"station_id":"","pricing_plan_id":"cebpf4jnsgd1na2vs0mg"},{"bike_id":"d907722b-e621-4367-82dc-8c5cf7e915c0","system_id":"levelo_inurba_marseille","lat":43.278578,"lon":5.387825,"is_reserved":false,"is_disabled":false,"rental_uris":{"android":"levelo://app?vid=d907722b-e621-4367-82dc-8c5cf7e915c0","ios":"levelo://app?vid=d907722b-e621-4367-82dc-8c5cf7e915c0"},"vehicle_type_id":"4","last_reported":1753632732,"current_range_meters":13600,"station_id":"ce4bh612rcd13ifvqe6g","pricing_plan_id":"cebpf4jnsgd1na2vs0mg"},{"bike_id":"e434d71b-388c-426d-81fe-25014fa8ae8c","system_id":"levelo_inurba_marseille","lat":43.29282,"lon":5.36844,"is_reserved":false,"is_disabled":false,"rental_uris":{"android":"levelo://app?vid=e434d71b-388c-426d-81fe-25014fa8ae8c","ios":"levelo://app?vid=e434d71b-388c-426d-81fe-25014fa8ae8c"},"vehicle_type_id":"4","last_reported":1753632732,"current_range_meters":13600,"station_id":"ce4bhbp2rcd13ifvqesg","pricing_plan_id":"cebpf4jnsgd1na2vs0mg"},{"bike_id":"8512b265-75e1-49d7-bb7d-bd988c357d7c","system_id":"levelo_inurba_marseille","lat":43.28716,"lon":5.3998,"is_reserved":false,"is_disabled":true,"rental_uris":{"android":"levelo://app?vid=8512b265-75e1-49d7-bb7d-bd988c357d7c","ios":"levelo://app?vid=8512b265-75e1-49d7-bb7d-bd988c357d7c"},"vehicle_type_id":"4","last_reported":1753632732,"current_range_meters":13600,"station_id":"ce4bho92rcd13ifvqh3g","pricing_plan_id":"cebpf4jnsgd1na2vs0mg"},{"bike_id":"416acd6b-072a-494f-b869-b2b61f9cc9d7","system_id":"levelo_inurba_marseille","lat":43.22446,"lon":5.34827,"is_reserved":false,"is_disabled":false,"rental_uris":{"android":"levelo://app?vid=416acd6b-072a-494f-b869-b2b61f9cc9d7","ios":"levelo://app?vid=416acd6b-072a-494f-b869-b2b61f9cc9d7"},"vehicle_type_id":"4","last_reported":1753632732,"current_range_meters":13600,"station_id":"st_cvj5dfep6f1abm77gieg","pricing_plan_id":"cebpf4jnsgd1na2vs0mg"},{"bike_id":"f0beafc6-4f1d-406d-9b81-bf9ae37556b7","system_id":"levelo_inurba_marseille","lat":43.22937,"lon":5.35364,"is_reserved":false,"is_disabled":false,"rental_uris":{"android":"levelo://app?vid=f0beafc6-4f1d-406d-9b81-bf9ae37556b7","ios":"levelo://app?vid=f0beafc6-4f1d-406d-9b81-bf9ae37556b7"},"vehicle_type_id":"4","last_reported":1753632732,"current_range_meters":14000,"station_id":"cpo3532slgdg3j2ikp40","pricing_plan_id":"cebpf4jnsgd1na2vs0mg"},{"bike_id":"7c5cfab3-5da2-4931-b5bc-f5bdae8f0299","system_id":"levelo_inurba_marseille","lat":43.299683,"lon":5.386239,"is_reserved":false,"is_disabled":false,"rental_uris":{"android":"levelo://app?vid=7c5cfab3-5da2-4931-b5bc-f5bdae8f0299","ios":"levelo://app?vid=7c5cfab3-5da2-4931-b5bc-f5bdae8f0299"},"vehicle_type_id":"4","last_reported":1753632732,"current_range_meters":14000,"station_id":"","pricing_plan_id":"cebpf4jnsgd1na2vs0mg"},{"bike_id":"e666153e-0d94-49fc-a285-a6a2347ef6ad","system_id":"levelo_inurba_marseille","lat":43.26935,"lon":5.38639,"is_reserved":false,"is_disabled":true,"rental_uris":{"android":"levelo://app?vid=e666153e-0d94-49fc-a285-a6a2347ef6ad","ios":"levelo://app?vid=e666153e-0d94-49fc-a285-a6a2347ef6ad"},"vehicle_type_id":"4","last_reported":1753632732,"current_range_meters":14000,"station_id":"ce4bhh92rcd13ifvqfh0","pricing_plan_id":"cebpf4jnsgd1na2vs0mg"},{"bike_id":"b64dad25-8e0d-4258-bfd2-304c64c6d313","system_id":"levelo_inurba_marseille","lat":43.3171,"lon":5.3775,"is_reserved":false,"is_disabled":false,"rental_uris":{"android":"levelo://app?vid=b64dad25-8e0d-4258-bfd2-304c64c6d313","ios":"levelo://app?vid=b64dad25-8e0d-4258-bfd2-304c64c6d313"},"vehicle_type_id":"4","last_reported":1753632732,"current_range_meters":14000,"station_id":"ce4bgth2rcd13ifvqch0","pricing_plan_id":"cebpf4jnsgd1na2vs0mg"},{"bike_id":"b926e480-8440-4de2-9ea4-f1d4b4be2901","system_id":"levelo_inurba_marseille","lat":43.23968,"lon":5.36622,"is_reserved":false,"is_disabled":false,"rental_uris":{"android":"levelo://app?vid=b926e480-8440-4de2-9ea4-f1d4b4be2901","ios":"levelo://app?vid=b926e480-8440-4de2-9ea4-f1d4b4be2901"},"vehicle_type_id":"4","last_reported":1753632732,"current_range_meters":14000,"station_id":"ce4bhi12rcd13ifvqfp0","pricing_plan_id":"cebpf4jnsgd1na2vs0mg"},{"bike_id":"8d801f83-3686-49fa-a7fd-3701c57be20d","system_id":"levelo_inurba_marseille","lat":43.240706,"lon":5.377609,"is_reserved":false,"is_disabled":false,"rental_uris":{"android":"levelo://app?vid=8d801f83-3686-49fa-a7fd-3701c57be20d","ios":"levelo://app?vid=8d801f83-3686-49fa-a7fd-3701c57be20d"},"vehicle_type_id":"4","last_reported":1753632732,"current_range_meters":14000,"station_id":"ce4bhnp2rcd13ifvqgvg","pricing_plan_id":"cebpf4jnsgd1na2vs0mg"},{"bike_id":"1718ea87-9d63-45f1-907d-4fd7292be215","system_id":"levelo_inurba_marseille","lat":43.25722,"lon":5.41109,"is_reserved":false,"is_disabled":false,"rental_uris":{"android":"levelo://app?vid=1718ea87-9d63-45f1-907d-4fd7292be215","ios":"levelo://app?vid=1718ea87-9d63-45f1-907d-4fd7292be215"},"vehicle_type_id":"4","last_reported":1753632732,"current_range_meters":13600,"station_id":"ce4bhkp2rcd13ifvqgd0","pricing_plan_id":"cebpf4jnsgd1na2vs0mg"},{"bike_id":"e790aa57-bd5c-4ea4-bf21-a51ad839aaac","system_id":"levelo_inurba_marseille","lat":43.30546,"lon":5.38415,"is_reserved":false,"is_disabled":false,"rental_uris":{"android":"levelo://app?vid=e790aa57-bd5c-4ea4-bf21-a51ad839aaac","ios":"levelo://app?vid=e790aa57-bd5c-4ea4-bf21-a51ad839aaac"},"vehicle_type_id":"4","last_reported":1753632732,"current_range_meters":14400,"station_id":"ce4bgg92rcd13ifvqb30","pricing_plan_id":"cebpf4jnsgd1na2vs0mg"},{"bike_id":"fc17dd07-1a4a-4aa7-beb0-db0d740f1929","system_id":"levelo_inurba_marseille","lat":43.229228,"lon":5.353769,"is_reserved":false,"is_disabled":false,"rental_uris":{"android":"levelo://app?vid=fc17dd07-1a4a-4aa7-beb0-db0d740f1929","ios":"levelo://app?vid=fc17dd07-1a4a-4aa7-beb0-db0d740f1929"},"vehicle_type_id":"4","last_reported":1753632732,"current_range_meters":14400,"station_id":"cpo3532slgdg3j2ikp40","pricing_plan_id":"cebpf4jnsgd1na2vs0mg"},{"bike_id":"8340d167-1d7a-42c8-bbcc-a8cd3924ea1d","system_id":"levelo_inurba_marseille","lat":43.29276,"lon":5.36841,"is_reserved":false,"is_disabled":false,"rental_uris":{"android":"levelo://app?vid=8340d167-1d7a-42c8-bbcc-a8cd3924ea1d","ios":"levelo://app?vid=8340d167-1d7a-42c8-bbcc-a8cd3924ea1d"},"vehicle_type_id":"4","last_reported":1753632732,"current_range_meters":14400,"station_id":"ce4bhbp2rcd13ifvqesg","pricing_plan_id":"cebpf4jnsgd1na2vs0mg"},{"bike_id":"bf3b53b2-3e96-407b-b4d4-d797204ff8bd","system_id":"levelo_inurba_marseille","lat":43.29875,"lon":5.39742,"is_reserved":false,"is_disabled":true,"rental_uris":{"android":"levelo://app?vid=bf3b53b2-3e96-407b-b4d4-d797204ff8bd","ios":"levelo://app?vid=bf3b53b2-3e96-407b-b4d4-d797204ff8bd"},"vehicle_type_id":"4","last_reported":1753632732,"current_range_meters":14400,"station_id":"ce4bh0h2rcd13ifvqd50","pricing_plan_id":"cebpf4jnsgd1na2vs0mg"},{"bike_id":"ec39462b-7e5c-41c6-8a2b-5771b687e625","system_id":"levelo_inurba_marseille","lat":43.257226,"lon":5.411227,"is_reserved":false,"is_disabled":false,"rental_uris":{"android":"levelo://app?vid=ec39462b-7e5c-41c6-8a2b-5771b687e625","ios":"levelo://app?vid=ec39462b-7e5c-41c6-8a2b-5771b687e625"},"vehicle_type_id":"4","last_reported":1753632732,"current_range_meters":14400,"station_id":"ce4bhkp2rcd13ifvqgd0","pricing_plan_id":"cebpf4jnsgd1na2vs0mg"},{"bike_id":"a5d20fdf-d5cf-47ac-8586-6984ce55d7de","system_id":"levelo_inurba_marseille","lat":43.29015,"lon":5.38129,"is_reserved":false,"is_disabled":false,"rental_uris":{"android":"levelo://app?vid=a5d20fdf-d5cf-47ac-8586-6984ce55d7de","ios":"levelo://app?vid=a5d20fdf-d5cf-47ac-8586-6984ce55d7de"},"vehicle_type_id":"4","last_reported":1753632732,"current_range_meters":14000,"station_id":"ce4bh4p2rcd13ifvqe1g","pricing_plan_id":"cebpf4jnsgd1na2vs0mg"},{"bike_id":"3a81e772-63b0-4a7f-bd58-a2c43a9afa5e","system_id":"levelo_inurba_marseille","lat":43.251,"lon":5.40325,"is_reserved":false,"is_disabled":false,"rental_uris":{"android":"levelo://app?vid=3a81e772-63b0-4a7f-bd58-a2c43a9afa5e","ios":"levelo://app?vid=3a81e772-63b0-4a7f-bd58-a2c43a9afa5e"},"vehicle_type_id":"4","last_reported":1753632732,"current_range_meters":14400,"station_id":"ce4bhlh2rcd13ifvqgig","pricing_plan_id":"cebpf4jnsgd1na2vs0mg"},{"bike_id":"d5e3b052-ad99-47f5-8e3d-05c415e9dd7c","system_id":"levelo_inurba_marseille","lat":43.25088,"lon":5.39523,"is_reserved":false,"is_disabled":false,"rental_uris":{"android":"levelo://app?vid=d5e3b052-ad99-47f5-8e3d-05c415e9dd7c","ios":"levelo://app?vid=d5e3b052-ad99-47f5-8e3d-05c415e9dd7c"},"vehicle_type_id":"4","last_reported":1753632732,"current_range_meters":14400,"station_id":"ce4bhm12rcd13ifvqgkg","pricing_plan_id":"cebpf4jnsgd1na2vs0mg"},{"bike_id":"f311b874-606a-40ab-b23e-1d576c72640f","system_id":"levelo_inurba_marseille","lat":43.27315,"lon":5.39077,"is_reserved":false,"is_disabled":false,"rental_uris":{"android":"levelo://app?vid=f311b874-606a-40ab-b23e-1d576c72640f","ios":"levelo://app?vid=f311b874-606a-40ab-b23e-1d576c72640f"},"vehicle_type_id":"4","last_reported":1753632732,"current_range_meters":14000,"station_id":"ce4bhgp2rcd13ifvqfe0","pricing_plan_id":"cebpf4jnsgd1na2vs0mg"},{"bike_id":"db82d8b4-f277-4c49-aeda-b74ccced5440","system_id":"levelo_inurba_marseille","lat":43.29713,"lon":5.37688,"is_reserved":false,"is_disabled":false,"rental_uris":{"android":"levelo://app?vid=db82d8b4-f277-4c49-aeda-b74ccced5440","ios":"levelo://app?vid=db82d8b4-f277-4c49-aeda-b74ccced5440"},"vehicle_type_id":"4","last_reported":1753632732,"current_range_meters":14400,"station_id":"ce4bgkh2rcd13ifvqbl0","pricing_plan_id":"cebpf4jnsgd1na2vs0mg"},{"bike_id":"5eff12c8-923d-49ef-8170-ee4db235e444","system_id":"levelo_inurba_marseille","lat":43.28924,"lon":5.38395,"is_reserved":false,"is_disabled":false,"rental_uris":{"android":"levelo://app?vid=5eff12c8-923d-49ef-8170-ee4db235e444","ios":"levelo://app?vid=5eff12c8-923d-49ef-8170-ee4db235e444"},"vehicle_type_id":"4","last_reported":1753632732,"current_range_meters":14400,"station_id":"ce4bh612rcd13ifvqe6g","pricing_plan_id":"cebpf4jnsgd1na2vs0mg"},{"bike_id":"a28f6595-2d18-4276-b35d-64ccd9bc6cae","system_id":"levelo_inurba_marseille","lat":43.27794,"lon":5.40721,"is_reserved":false,"is_disabled":false,"rental_uris":{"android":"levelo://app?vid=a28f6595-2d18-4276-b35d-64ccd9bc6cae","ios":"levelo://app?vid=a28f6595-2d18-4276-b35d-64ccd9bc6cae"},"vehicle_type_id":"4","last_reported":1753632732,"current_range_meters":14800,"station_id":"ce4bhnh2rcd13ifvqgtg","pricing_plan_id":"cebpf4jnsgd1na2vs0mg"},{"bike_id":"3ea3f346-5119-4e7a-9acb-4f55569d9c60","system_id":"levelo_inurba_marseille","lat":43.30306,"lon":5.36901,"is_reserved":false,"is_disabled":false,"rental_uris":{"android":"levelo://app?vid=3ea3f346-5119-4e7a-9acb-4f55569d9c60","ios":"levelo://app?vid=3ea3f346-5119-4e7a-9acb-4f55569d9c60"},"vehicle_type_id":"4","last_reported":1753632732,"current_range_meters":14800,"station_id":"","pricing_plan_id":"cebpf4jnsgd1na2vs0mg"},{"bike_id":"70381b97-b2ee-4f26-8f16-caf046608e7f","system_id":"levelo_inurba_marseille","lat":43.279969,"lon":5.400094,"is_reserved":false,"is_disabled":true,"rental_uris":{"android":"levelo://app?vid=70381b97-b2ee-4f26-8f16-caf046608e7f","ios":"levelo://app?vid=70381b97-b2ee-4f26-8f16-caf046608e7f"},"vehicle_type_id":"4","last_reported":1753632732,"current_range_meters":14800,"station_id":"ce4bho92rcd13ifvqh4g","pricing_plan_id":"cebpf4jnsgd1na2vs0mg"},{"bike_id":"bf339141-ac5f-4ae7-9e26-22f8da504d8d","system_id":"levelo_inurba_marseille","lat":43.28146,"lon":5.42635,"is_reserved":false,"is_disabled":false,"rental_uris":{"android":"levelo://app?vid=bf339141-ac5f-4ae7-9e26-22f8da504d8d","ios":"levelo://app?vid=bf339141-ac5f-4ae7-9e26-22f8da504d8d"},"vehicle_type_id":"4","last_reported":1753632732,"current_range_meters":14800,"station_id":"ce4bhnh2rcd13ifvqgug","pricing_plan_id":"cebpf4jnsgd1na2vs0mg"},{"bike_id":"cc15e3ac-7e2b-417b-865f-e5097dea0da4","system_id":"levelo_inurba_marseille","lat":43.26212,"lon":5.37442,"is_reserved":false,"is_disabled":false,"rental_uris":{"android":"levelo://app?vid=cc15e3ac-7e2b-417b-865f-e5097dea0da4","ios":"levelo://app?vid=cc15e3ac-7e2b-417b-865f-e5097dea0da4"},"vehicle_type_id":"4","last_reported":1753632732,"current_range_meters":14800,"station_id":"ce4bhgp2rcd13ifvqfc0","pricing_plan_id":"cebpf4jnsgd1na2vs0mg"},{"bike_id":"9306cb98-ff63-47ed-9064-9c9a8b611a79","system_id":"levelo_inurba_marseille","lat":43.29651,"lon":5.37322,"is_reserved":false,"is_disabled":false,"rental_uris":{"android":"levelo://app?vid=9306cb98-ff63-47ed-9064-9c9a8b611a79","ios":"levelo://app?vid=9306cb98-ff63-47ed-9064-9c9a8b611a79"},"vehicle_type_id":"4","last_reported":1753632732,"current_range_meters":14800,"station_id":"ce4bgk12rcd13ifvqbj0","pricing_plan_id":"cebpf4jnsgd1na2vs0mg"},{"bike_id":"0bcd7894-6f17-4131-b9c0-3c5cb7124a86","system_id":"levelo_inurba_marseille","lat":43.28422,"lon":5.34998,"is_reserved":false,"is_disabled":false,"rental_uris":{"android":"levelo://app?vid=0bcd7894-6f17-4131-b9c0-3c5cb7124a86","ios":"levelo://app?vid=0bcd7894-6f17-4131-b9c0-3c5cb7124a86"},"vehicle_type_id":"4","last_reported":1753632732,"current_range_meters":14800,"station_id":"ce4bhbh2rcd13ifvqepg","pricing_plan_id":"cebpf4jnsgd1na2vs0mg"},{"bike_id":"3152576e-d602-4c3f-980e-717f41aed773","system_id":"levelo_inurba_marseille","lat":43.33737,"lon":5.37465,"is_reserved":false,"is_disabled":false,"rental_uris":{"android":"levelo://app?vid=3152576e-d602-4c3f-980e-717f41aed773","ios":"levelo://app?vid=3152576e-d602-4c3f-980e-717f41aed773"},"vehicle_type_id":"4","last_reported":1753632732,"current_range_meters":14800,"station_id":"","pricing_plan_id":"cebpf4jnsgd1na2vs0mg"},{"bike_id":"c4edd341-68c6-44f9-b17c-e224ec36e319","system_id":"levelo_inurba_marseille","lat":43.29099,"lon":5.3812,"is_reserved":false,"is_disabled":false,"rental_uris":{"android":"levelo://app?vid=c4edd341-68c6-44f9-b17c-e224ec36e319","ios":"levelo://app?vid=c4edd341-68c6-44f9-b17c-e224ec36e319"},"vehicle_type_id":"4","last_reported":1753632732,"current_range_meters":15200,"station_id":"ce4bh512rcd13ifvqe2g","pricing_plan_id":"cebpf4jnsgd1na2vs0mg"},{"bike_id":"56ec8761-dee0-49c1-aba7-a69ac65d386f","system_id":"levelo_inurba_marseille","lat":43.22926,"lon":5.35372,"is_reserved":false,"is_disabled":false,"rental_uris":{"android":"levelo://app?vid=56ec8761-dee0-49c1-aba7-a69ac65d386f","ios":"levelo://app?vid=56ec8761-dee0-49c1-aba7-a69ac65d386f"},"vehicle_type_id":"4","last_reported":1753632732,"current_range_meters":15200,"station_id":"cpo3532slgdg3j2ikp40","pricing_plan_id":"cebpf4jnsgd1na2vs0mg"},{"bike_id":"754948f6-2ddc-4249-b1b8-8f344d321ab0","system_id":"levelo_inurba_marseille","lat":43.27835,"lon":5.39219,"is_reserved":false,"is_disabled":false,"rental_uris":{"android":"levelo://app?vid=754948f6-2ddc-4249-b1b8-8f344d321ab0","ios":"levelo://app?vid=754948f6-2ddc-4249-b1b8-8f344d321ab0"},"vehicle_type_id":"4","last_reported":1753632732,"current_range_meters":16000,"station_id":"ce4bhjp2rcd13ifvqga0","pricing_plan_id":"cebpf4jnsgd1na2vs0mg"},{"bike_id":"f6cbbc74-66ba-414b-91a7-7417aa52aef5","system_id":"levelo_inurba_marseille","lat":43.26555,"lon":5.37281,"is_reserved":false,"is_disabled":false,"rental_uris":{"android":"levelo://app?vid=f6cbbc74-66ba-414b-91a7-7417aa52aef5","ios":"levelo://app?vid=f6cbbc74-66ba-414b-91a7-7417aa52aef5"},"vehicle_type_id":"4","last_reported":1753632732,"current_range_meters":16000,"station_id":"ce4bhg12rcd13ifvqf70","pricing_plan_id":"cebpf4jnsgd1na2vs0mg"},{"bike_id":"92d75821-7619-44cd-9309-979b839f1e95","system_id":"levelo_inurba_marseille","lat":43.28164,"lon":5.42635,"is_reserved":false,"is_disabled":false,"rental_uris":{"android":"levelo://app?vid=92d75821-7619-44cd-9309-979b839f1e95","ios":"levelo://app?vid=92d75821-7619-44cd-9309-979b839f1e95"},"vehicle_type_id":"4","last_reported":1753632732,"current_range_meters":16000,"station_id":"ce4bhnh2rcd13ifvqgug","pricing_plan_id":"cebpf4jnsgd1na2vs0mg"},{"bike_id":"87a4d710-c859-4883-a056-db27db09862e","system_id":"levelo_inurba_marseille","lat":43.277585,"lon":5.355971,"is_reserved":false,"is_disabled":false,"rental_uris":{"android":"levelo://app?vid=87a4d710-c859-4883-a056-db27db09862e","ios":"levelo://app?vid=87a4d710-c859-4883-a056-db27db09862e"},"vehicle_type_id":"4","last_reported":1753632732,"current_range_meters":16000,"station_id":"","pricing_plan_id":"cebpf4jnsgd1na2vs0mg"},{"bike_id":"3dac6e7a-6727-4547-a162-4acf06c4c2f5","system_id":"levelo_inurba_marseille","lat":43.24636,"lon":5.38901,"is_reserved":false,"is_disabled":false,"rental_uris":{"android":"levelo://app?vid=3dac6e7a-6727-4547-a162-4acf06c4c2f5","ios":"levelo://app?vid=3dac6e7a-6727-4547-a162-4acf06c4c2f5"},"vehicle_type_id":"4","last_reported":1753632732,"current_range_meters":16000,"station_id":"ce4bhg12rcd13ifvqf60","pricing_plan_id":"cebpf4jnsgd1na2vs0mg"},{"bike_id":"6d7fe98b-d44d-430d-afe5-3eeae8c263eb","system_id":"levelo_inurba_marseille","lat":43.22504,"lon":5.347857,"is_reserved":false,"is_disabled":false,"rental_uris":{"android":"levelo://app?vid=6d7fe98b-d44d-430d-afe5-3eeae8c263eb","ios":"levelo://app?vid=6d7fe98b-d44d-430d-afe5-3eeae8c263eb"},"vehicle_type_id":"4","last_reported":1753632732,"current_range_meters":16000,"station_id":"st_cvj5dfep6f1abm77gieg","pricing_plan_id":"cebpf4jnsgd1na2vs0mg"},{"bike_id":"48538135-5d0a-49ee-9320-155fbd091354","system_id":"levelo_inurba_marseille","lat":43.25935,"lon":5.40899,"is_reserved":false,"is_disabled":false,"rental_uris":{"android":"levelo://app?vid=48538135-5d0a-49ee-9320-155fbd091354","ios":"levelo://app?vid=48538135-5d0a-49ee-9320-155fbd091354"},"vehicle_type_id":"4","last_reported":1753632732,"current_range_meters":16000,"station_id":"ce4bhm92rcd13ifvqglg","pricing_plan_id":"cebpf4jnsgd1na2vs0mg"},{"bike_id":"a591545e-2b41-4298-a6a7-8e4c88bde821","system_id":"levelo_inurba_marseille","lat":43.286092,"lon":5.370599,"is_reserved":false,"is_disabled":false,"rental_uris":{"android":"levelo://app?vid=a591545e-2b41-4298-a6a7-8e4c88bde821","ios":"levelo://app?vid=a591545e-2b41-4298-a6a7-8e4c88bde821"},"vehicle_type_id":"4","last_reported":1753632732,"current_range_meters":16000,"station_id":"ce4bht12rcd13ifvqi60","pricing_plan_id":"cebpf4jnsgd1na2vs0mg"},{"bike_id":"d8cd6055-23c8-4622-a5bf-68f9b9ebfe53","system_id":"levelo_inurba_marseille","lat":43.27072,"lon":5.42276,"is_reserved":false,"is_disabled":true,"rental_uris":{"android":"levelo://app?vid=d8cd6055-23c8-4622-a5bf-68f9b9ebfe53","ios":"levelo://app?vid=d8cd6055-23c8-4622-a5bf-68f9b9ebfe53"},"vehicle_type_id":"4","last_reported":1753632732,"current_range_meters":16000,"station_id":"ce4bhk92rcd13ifvqgb0","pricing_plan_id":"cebpf4jnsgd1na2vs0mg"},{"bike_id":"aa76f094-4e9f-480a-95f6-3d13f4f6f00b","system_id":"levelo_inurba_marseille","lat":43.28636,"lon":5.35088,"is_reserved":false,"is_disabled":false,"rental_uris":{"android":"levelo://app?vid=aa76f094-4e9f-480a-95f6-3d13f4f6f00b","ios":"levelo://app?vid=aa76f094-4e9f-480a-95f6-3d13f4f6f00b"},"vehicle_type_id":"4","last_reported":1753632732,"current_range_meters":16000,"station_id":"ce4bhch2rcd13ifvqeug","pricing_plan_id":"cebpf4jnsgd1na2vs0mg"},{"bike_id":"264fbea3-2c7f-4636-bd2b-32e60faed0d5","system_id":"levelo_inurba_marseille","lat":43.22504,"lon":5.34776,"is_reserved":false,"is_disabled":false,"rental_uris":{"android":"levelo://app?vid=264fbea3-2c7f-4636-bd2b-32e60faed0d5","ios":"levelo://app?vid=264fbea3-2c7f-4636-bd2b-32e60faed0d5"},"vehicle_type_id":"4","last_reported":1753632732,"current_range_meters":16000,"station_id":"st_cvj5dfep6f1abm77gieg","pricing_plan_id":"cebpf4jnsgd1na2vs0mg"},{"bike_id":"9a8fe31a-4c02-455f-979d-366cfd99a2ec","system_id":"levelo_inurba_marseille","lat":43.2621,"lon":5.37443,"is_reserved":false,"is_disabled":false,"rental_uris":{"android":"levelo://app?vid=9a8fe31a-4c02-455f-979d-366cfd99a2ec","ios":"levelo://app?vid=9a8fe31a-4c02-455f-979d-366cfd99a2ec"},"vehicle_type_id":"4","last_reported":1753632732,"current_range_meters":16000,"station_id":"ce4bhgp2rcd13ifvqfc0","pricing_plan_id":"cebpf4jnsgd1na2vs0mg"},{"bike_id":"044047ab-c07d-4cc2-92a1-30f770b141aa","system_id":"levelo_inurba_marseille","lat":43.22922,"lon":5.35382,"is_reserved":false,"is_disabled":false,"rental_uris":{"android":"levelo://app?vid=044047ab-c07d-4cc2-92a1-30f770b141aa","ios":"levelo://app?vid=044047ab-c07d-4cc2-92a1-30f770b141aa"},"vehicle_type_id":"4","last_reported":1753632732,"current_range_meters":16000,"station_id":"cpo3532slgdg3j2ikp40","pricing_plan_id":"cebpf4jnsgd1na2vs0mg"},{"bike_id":"2edf8151-cb92-46cc-9321-24e397aeed28","system_id":"levelo_inurba_marseille","lat":43.23054,"lon":5.3548,"is_reserved":false,"is_disabled":false,"rental_uris":{"android":"levelo://app?vid=2edf8151-cb92-46cc-9321-24e397aeed28","ios":"levelo://app?vid=2edf8151-cb92-46cc-9321-24e397aeed28"},"vehicle_type_id":"4","last_reported":1753632732,"current_range_meters":16400,"station_id":"cpo3342slgdg3j2ifvpg","pricing_plan_id":"cebpf4jnsgd1na2vs0mg"},{"bike_id":"6bd91370-bdfe-4766-8978-9d22b3001c30","system_id":"levelo_inurba_marseille","lat":43.29254,"lon":5.38447,"is_reserved":false,"is_disabled":false,"rental_uris":{"android":"levelo://app?vid=6bd91370-bdfe-4766-8978-9d22b3001c30","ios":"levelo://app?vid=6bd91370-bdfe-4766-8978-9d22b3001c30"},"vehicle_type_id":"4","last_reported":1753632732,"current_range_meters":16400,"station_id":"ce4bh692rcd13ifvqea0","pricing_plan_id":"cebpf4jnsgd1na2vs0mg"},{"bike_id":"d6f576dc-ffe7-4ab5-bc96-13103d0759e3","system_id":"levelo_inurba_marseille","lat":43.2396,"lon":5.36618,"is_reserved":false,"is_disabled":false,"rental_uris":{"android":"levelo://app?vid=d6f576dc-ffe7-4ab5-bc96-13103d0759e3","ios":"levelo://app?vid=d6f576dc-ffe7-4ab5-bc96-13103d0759e3"},"vehicle_type_id":"4","last_reported":1753632732,"current_range_meters":16400,"station_id":"ce4bhi12rcd13ifvqfp0","pricing_plan_id":"cebpf4jnsgd1na2vs0mg"},{"bike_id":"b08688a9-3d1a-42a1-af74-605bad2088a3","system_id":"levelo_inurba_marseille","lat":43.289251,"lon":5.384095,"is_reserved":false,"is_disabled":false,"rental_uris":{"android":"levelo://app?vid=b08688a9-3d1a-42a1-af74-605bad2088a3","ios":"levelo://app?vid=b08688a9-3d1a-42a1-af74-605bad2088a3"},"vehicle_type_id":"4","last_reported":1753632732,"current_range_meters":16400,"station_id":"ce4bh612rcd13ifvqe6g","pricing_plan_id":"cebpf4jnsgd1na2vs0mg"},{"bike_id":"f843fcb4-7cb9-4195-8cf9-1ecbe360cf0a","system_id":"levelo_inurba_marseille","lat":43.28413,"lon":5.35004,"is_reserved":false,"is_disabled":false,"rental_uris":{"android":"levelo://app?vid=f843fcb4-7cb9-4195-8cf9-1ecbe360cf0a","ios":"levelo://app?vid=f843fcb4-7cb9-4195-8cf9-1ecbe360cf0a"},"vehicle_type_id":"4","last_reported":1753632732,"current_range_meters":16400,"station_id":"ce4bhbh2rcd13ifvqepg","pricing_plan_id":"cebpf4jnsgd1na2vs0mg"},{"bike_id":"329681ee-4b7c-4b42-a093-9c4985b10282","system_id":"levelo_inurba_marseille","lat":43.28432,"lon":5.34972,"is_reserved":false,"is_disabled":true,"rental_uris":{"android":"levelo://app?vid=329681ee-4b7c-4b42-a093-9c4985b10282","ios":"levelo://app?vid=329681ee-4b7c-4b42-a093-9c4985b10282"},"vehicle_type_id":"4","last_reported":1753632732,"current_range_meters":16400,"station_id":"ce4bhbh2rcd13ifvqepg","pricing_plan_id":"cebpf4jnsgd1na2vs0mg"},{"bike_id":"feb40379-0815-4a68-aadb-305942f11d04","system_id":"levelo_inurba_marseille","lat":43.24947,"lon":5.38989,"is_reserved":false,"is_disabled":false,"rental_uris":{"android":"levelo://app?vid=feb40379-0815-4a68-aadb-305942f11d04","ios":"levelo://app?vid=feb40379-0815-4a68-aadb-305942f11d04"},"vehicle_type_id":"4","last_reported":1753632732,"current_range_meters":16400,"station_id":"","pricing_plan_id":"cebpf4jnsgd1na2vs0mg"},{"bike_id":"06b37b78-75ad-42cc-bf01-6fceceed78c5","system_id":"levelo_inurba_marseille","lat":43.239558,"lon":5.366295,"is_reserved":false,"is_disabled":false,"rental_uris":{"android":"levelo://app?vid=06b37b78-75ad-42cc-bf01-6fceceed78c5","ios":"levelo://app?vid=06b37b78-75ad-42cc-bf01-6fceceed78c5"},"vehicle_type_id":"4","last_reported":1753632732,"current_range_meters":16800,"station_id":"ce4bhi12rcd13ifvqfp0","pricing_plan_id":"cebpf4jnsgd1na2vs0mg"},{"bike_id":"b483d5bd-474f-4f28-9f83-27c8fd9da858","system_id":"levelo_inurba_marseille","lat":43.28265,"lon":5.35085,"is_reserved":false,"is_disabled":false,"rental_uris":{"android":"levelo://app?vid=b483d5bd-474f-4f28-9f83-27c8fd9da858","ios":"levelo://app?vid=b483d5bd-474f-4f28-9f83-27c8fd9da858"},"vehicle_type_id":"4","last_reported":1753632732,"current_range_meters":16800,"station_id":"ce4bhbp2rcd13ifvqerg","pricing_plan_id":"cebpf4jnsgd1na2vs0mg"},{"bike_id":"61f03b96-eba5-4b16-b393-41a82afa26e7","system_id":"levelo_inurba_marseille","lat":43.29757,"lon":5.37676,"is_reserved":false,"is_disabled":true,"rental_uris":{"android":"levelo://app?vid=61f03b96-eba5-4b16-b393-41a82afa26e7","ios":"levelo://app?vid=61f03b96-eba5-4b16-b393-41a82afa26e7"},"vehicle_type_id":"4","last_reported":1753632732,"current_range_meters":16800,"station_id":"","pricing_plan_id":"cebpf4jnsgd1na2vs0mg"},{"bike_id":"78a8a8f6-1cbe-48a7-afd7-d8db96ba8c71","system_id":"levelo_inurba_marseille","lat":43.30192,"lon":5.36624,"is_reserved":false,"is_disabled":true,"rental_uris":{"android":"levelo://app?vid=78a8a8f6-1cbe-48a7-afd7-d8db96ba8c71","ios":"levelo://app?vid=78a8a8f6-1cbe-48a7-afd7-d8db96ba8c71"},"vehicle_type_id":"4","last_reported":1753632732,"current_range_meters":16800,"station_id":"ce4bgrh2rcd13ifvqc8g","pricing_plan_id":"cebpf4jnsgd1na2vs0mg"},{"bike_id":"21119b74-9092-450b-a780-dc3f5e5aa101","system_id":"levelo_inurba_marseille","lat":43.24085,"lon":5.3775,"is_reserved":false,"is_disabled":false,"rental_uris":{"android":"levelo://app?vid=21119b74-9092-450b-a780-dc3f5e5aa101","ios":"levelo://app?vid=21119b74-9092-450b-a780-dc3f5e5aa101"},"vehicle_type_id":"4","last_reported":1753632732,"current_range_meters":16800,"station_id":"ce4bhnp2rcd13ifvqgvg","pricing_plan_id":"cebpf4jnsgd1na2vs0mg"},{"bike_id":"098b018e-2607-4af2-bc10-8758893e88ea","system_id":"levelo_inurba_marseille","lat":43.240874,"lon":5.377534,"is_reserved":false,"is_disabled":false,"rental_uris":{"android":"levelo://app?vid=098b018e-2607-4af2-bc10-8758893e88ea","ios":"levelo://app?vid=098b018e-2607-4af2-bc10-8758893e88ea"},"vehicle_type_id":"4","last_reported":1753632732,"current_range_meters":16800,"station_id":"ce4bhnp2rcd13ifvqgvg","pricing_plan_id":"cebpf4jnsgd1na2vs0mg"},{"bike_id":"f01549ec-1f84-4f27-b735-07d2198a5140","system_id":"levelo_inurba_marseille","lat":43.25574,"lon":5.3823,"is_reserved":false,"is_disabled":false,"rental_uris":{"android":"levelo://app?vid=f01549ec-1f84-4f27-b735-07d2198a5140","ios":"levelo://app?vid=f01549ec-1f84-4f27-b735-07d2198a5140"},"vehicle_type_id":"4","last_reported":1753632732,"current_range_meters":16800,"station_id":"ce4bhih2rcd13ifvqfs0","pricing_plan_id":"cebpf4jnsgd1na2vs0mg"},{"bike_id":"114fe628-df7a-4468-9cc0-14911bee2d76","system_id":"levelo_inurba_marseille","lat":43.28433,"lon":5.34997,"is_reserved":false,"is_disabled":false,"rental_uris":{"android":"levelo://app?vid=114fe628-df7a-4468-9cc0-14911bee2d76","ios":"levelo://app?vid=114fe628-df7a-4468-9cc0-14911bee2d76"},"vehicle_type_id":"4","last_reported":1753632732,"current_range_meters":17200,"station_id":"ce4bhbh2rcd13ifvqepg","pricing_plan_id":"cebpf4jnsgd1na2vs0mg"},{"bike_id":"608ecc5c-8a83-4f8b-aeda-9ddb96bb8238","system_id":"levelo_inurba_marseille","lat":43.28416,"lon":5.34991,"is_reserved":false,"is_disabled":false,"rental_uris":{"android":"levelo://app?vid=608ecc5c-8a83-4f8b-aeda-9ddb96bb8238","ios":"levelo://app?vid=608ecc5c-8a83-4f8b-aeda-9ddb96bb8238"},"vehicle_type_id":"4","last_reported":1753632732,"current_range_meters":17200,"station_id":"ce4bhbh2rcd13ifvqepg","pricing_plan_id":"cebpf4jnsgd1na2vs0mg"},{"bike_id":"f0cdf0c8-bc5a-4d40-b028-109d2b47cbb8","system_id":"levelo_inurba_marseille","lat":43.31691,"lon":5.40475,"is_reserved":false,"is_disabled":false,"rental_uris":{"android":"levelo://app?vid=f0cdf0c8-bc5a-4d40-b028-109d2b47cbb8","ios":"levelo://app?vid=f0cdf0c8-bc5a-4d40-b028-109d2b47cbb8"},"vehicle_type_id":"4","last_reported":1753632732,"current_range_meters":17200,"station_id":"ce4bh012rcd13ifvqd00","pricing_plan_id":"cebpf4jnsgd1na2vs0mg"},{"bike_id":"95dd70e4-879c-49e7-b318-a6c71b22a43e","system_id":"levelo_inurba_marseille","lat":43.2703,"lon":5.39295,"is_reserved":false,"is_disabled":false,"rental_uris":{"android":"levelo://app?vid=95dd70e4-879c-49e7-b318-a6c71b22a43e","ios":"levelo://app?vid=95dd70e4-879c-49e7-b318-a6c71b22a43e"},"vehicle_type_id":"4","last_reported":1753632732,"current_range_meters":17200,"station_id":"","pricing_plan_id":"cebpf4jnsgd1na2vs0mg"},{"bike_id":"eebc6815-c13c-4af2-acf8-db46b0ce98b4","system_id":"levelo_inurba_marseille","lat":43.24659,"lon":5.3816,"is_reserved":false,"is_disabled":false,"rental_uris":{"android":"levelo://app?vid=eebc6815-c13c-4af2-acf8-db46b0ce98b4","ios":"levelo://app?vid=eebc6815-c13c-4af2-acf8-db46b0ce98b4"},"vehicle_type_id":"4","last_reported":1753632732,"current_range_meters":17200,"station_id":"ce4bhih2rcd13ifvqfr0","pricing_plan_id":"cebpf4jnsgd1na2vs0mg"},{"bike_id":"91422cf9-d176-4a14-8124-f31e506a19e9","system_id":"levelo_inurba_marseille","lat":43.22927,"lon":5.35379,"is_reserved":false,"is_disabled":false,"rental_uris":{"android":"levelo://app?vid=91422cf9-d176-4a14-8124-f31e506a19e9","ios":"levelo://app?vid=91422cf9-d176-4a14-8124-f31e506a19e9"},"vehicle_type_id":"4","last_reported":1753632732,"current_range_meters":17200,"station_id":"cpo3532slgdg3j2ikp40","pricing_plan_id":"cebpf4jnsgd1na2vs0mg"},{"bike_id":"363860ed-6d0c-40e8-91e3-2c5053026ca7","system_id":"levelo_inurba_marseille","lat":43.22958,"lon":5.35345,"is_reserved":false,"is_disabled":false,"rental_uris":{"android":"levelo://app?vid=363860ed-6d0c-40e8-91e3-2c5053026ca7","ios":"levelo://app?vid=363860ed-6d0c-40e8-91e3-2c5053026ca7"},"vehicle_type_id":"4","last_reported":1753632732,"current_range_meters":17200,"station_id":"cpo3532slgdg3j2ikp40","pricing_plan_id":"cebpf4jnsgd1na2vs0mg"},{"bike_id":"b086d339-fccf-41df-8e5b-2b8e4d75c6a2","system_id":"levelo_inurba_marseille","lat":43.257162,"lon":5.411171,"is_reserved":false,"is_disabled":false,"rental_uris":{"android":"levelo://app?vid=b086d339-fccf-41df-8e5b-2b8e4d75c6a2","ios":"levelo://app?vid=b086d339-fccf-41df-8e5b-2b8e4d75c6a2"},"vehicle_type_id":"4","last_reported":1753632732,"current_range_meters":16800,"station_id":"ce4bhkp2rcd13ifvqgd0","pricing_plan_id":"cebpf4jnsgd1na2vs0mg"},{"bike_id":"536dd0a6-7f1b-40ed-af5a-c920c69aac4b","system_id":"levelo_inurba_marseille","lat":43.27619,"lon":5.36103,"is_reserved":false,"is_disabled":false,"rental_uris":{"android":"levelo://app?vid=536dd0a6-7f1b-40ed-af5a-c920c69aac4b","ios":"levelo://app?vid=536dd0a6-7f1b-40ed-af5a-c920c69aac4b"},"vehicle_type_id":"4","last_reported":1753632732,"current_range_meters":17200,"station_id":"ce4bgj92rcd13ifvqbe0","pricing_plan_id":"cebpf4jnsgd1na2vs0mg"},{"bike_id":"149fbe11-3bce-47a0-b584-c7c7bd6bb12f","system_id":"levelo_inurba_marseille","lat":43.21635,"lon":5.34435,"is_reserved":false,"is_disabled":false,"rental_uris":{"android":"levelo://app?vid=149fbe11-3bce-47a0-b584-c7c7bd6bb12f","ios":"levelo://app?vid=149fbe11-3bce-47a0-b584-c7c7bd6bb12f"},"vehicle_type_id":"4","last_reported":1753632732,"current_range_meters":17200,"station_id":"","pricing_plan_id":"cebpf4jnsgd1na2vs0mg"},{"bike_id":"b1ce726d-f66e-4a21-9e58-bcc99e079d39","system_id":"levelo_inurba_marseille","lat":43.27621,"lon":5.36099,"is_reserved":false,"is_disabled":false,"rental_uris":{"android":"levelo://app?vid=b1ce726d-f66e-4a21-9e58-bcc99e079d39","ios":"levelo://app?vid=b1ce726d-f66e-4a21-9e58-bcc99e079d39"},"vehicle_type_id":"4","last_reported":1753632732,"current_range_meters":17200,"station_id":"ce4bgj92rcd13ifvqbe0","pricing_plan_id":"cebpf4jnsgd1na2vs0mg"},{"bike_id":"0e28469f-a07a-4150-837b-a2caf2b41613","system_id":"levelo_inurba_marseille","lat":43.29374,"lon":5.37844,"is_reserved":false,"is_disabled":true,"rental_uris":{"android":"levelo://app?vid=0e28469f-a07a-4150-837b-a2caf2b41613","ios":"levelo://app?vid=0e28469f-a07a-4150-837b-a2caf2b41613"},"vehicle_type_id":"4","last_reported":1753632732,"current_range_meters":17200,"station_id":"ce4bgjh2rcd13ifvqbf0","pricing_plan_id":"cebpf4jnsgd1na2vs0mg"},{"bike_id":"b656fda2-22f6-47d0-a975-68cdf78da442","system_id":"levelo_inurba_marseille","lat":43.31999,"lon":5.38166,"is_reserved":false,"is_disabled":false,"rental_uris":{"android":"levelo://app?vid=b656fda2-22f6-47d0-a975-68cdf78da442","ios":"levelo://app?vid=b656fda2-22f6-47d0-a975-68cdf78da442"},"vehicle_type_id":"4","last_reported":1753632732,"current_range_meters":16800,"station_id":"ce4bhr12rcd13ifvqhpg","pricing_plan_id":"cebpf4jnsgd1na2vs0mg"},{"bike_id":"209c73e6-1f69-4d13-9fed-77cb46eecd05","system_id":"levelo_inurba_marseille","lat":43.34681,"lon":5.38065,"is_reserved":false,"is_disabled":false,"rental_uris":{"android":"levelo://app?vid=209c73e6-1f69-4d13-9fed-77cb46eecd05","ios":"levelo://app?vid=209c73e6-1f69-4d13-9fed-77cb46eecd05"},"vehicle_type_id":"4","last_reported":1753632732,"current_range_meters":17200,"station_id":"","pricing_plan_id":"cebpf4jnsgd1na2vs0mg"},{"bike_id":"8142408b-84ea-4577-9728-f52c3a5f16f1","system_id":"levelo_inurba_marseille","lat":43.24191,"lon":5.36379,"is_reserved":false,"is_disabled":true,"rental_uris":{"android":"levelo://app?vid=8142408b-84ea-4577-9728-f52c3a5f16f1","ios":"levelo://app?vid=8142408b-84ea-4577-9728-f52c3a5f16f1"},"vehicle_type_id":"4","last_reported":1753632732,"current_range_meters":17600,"station_id":"cpo36qri1sfpv3e86is0","pricing_plan_id":"cebpf4jnsgd1na2vs0mg"},{"bike_id":"370636ac-f04f-462b-8596-88232943766f","system_id":"levelo_inurba_marseille","lat":43.29508,"lon":5.37493,"is_reserved":false,"is_disabled":true,"rental_uris":{"android":"levelo://app?vid=370636ac-f04f-462b-8596-88232943766f","ios":"levelo://app?vid=370636ac-f04f-462b-8596-88232943766f"},"vehicle_type_id":"4","last_reported":1753632732,"current_range_meters":17600,"station_id":"ce4bgkp2rcd13ifvqbmg","pricing_plan_id":"cebpf4jnsgd1na2vs0mg"},{"bike_id":"78f58175-8bc6-4665-afd7-a43f098cfe2f","system_id":"levelo_inurba_marseille","lat":43.2926,"lon":5.38431,"is_reserved":false,"is_disabled":false,"rental_uris":{"android":"levelo://app?vid=78f58175-8bc6-4665-afd7-a43f098cfe2f","ios":"levelo://app?vid=78f58175-8bc6-4665-afd7-a43f098cfe2f"},"vehicle_type_id":"4","last_reported":1753632732,"current_range_meters":17600,"station_id":"ce4bh692rcd13ifvqea0","pricing_plan_id":"cebpf4jnsgd1na2vs0mg"},{"bike_id":"62f0adcc-1f39-4436-99c8-3e0814d46c2f","system_id":"levelo_inurba_marseille","lat":43.255966,"lon":5.376616,"is_reserved":false,"is_disabled":false,"rental_uris":{"android":"levelo://app?vid=62f0adcc-1f39-4436-99c8-3e0814d46c2f","ios":"levelo://app?vid=62f0adcc-1f39-4436-99c8-3e0814d46c2f"},"vehicle_type_id":"4","last_reported":1753632732,"current_range_meters":17600,"station_id":"","pricing_plan_id":"cebpf4jnsgd1na2vs0mg"},{"bike_id":"9d6f4d9f-a761-4ae2-9e4b-00f8fda461c4","system_id":"levelo_inurba_marseille","lat":43.285698,"lon":5.395241,"is_reserved":false,"is_disabled":true,"rental_uris":{"android":"levelo://app?vid=9d6f4d9f-a761-4ae2-9e4b-00f8fda461c4","ios":"levelo://app?vid=9d6f4d9f-a761-4ae2-9e4b-00f8fda461c4"},"vehicle_type_id":"4","last_reported":1753632732,"current_range_meters":17600,"station_id":"ce4bh292rcd13ifvqdg0","pricing_plan_id":"cebpf4jnsgd1na2vs0mg"},{"bike_id":"519668aa-1cf9-4a99-9c92-4db5c328810b","system_id":"levelo_inurba_marseille","lat":43.300094,"lon":5.371082,"is_reserved":false,"is_disabled":false,"rental_uris":{"android":"levelo://app?vid=519668aa-1cf9-4a99-9c92-4db5c328810b","ios":"levelo://app?vid=519668aa-1cf9-4a99-9c92-4db5c328810b"},"vehicle_type_id":"4","last_reported":1753632732,"current_range_meters":17200,"station_id":"ce4bgrp2rcd13ifvqc9g","pricing_plan_id":"cebpf4jnsgd1na2vs0mg"},{"bike_id":"26d69215-edb4-4917-b3fc-22f62f7da34a","system_id":"levelo_inurba_marseille","lat":43.225063,"lon":5.34777,"is_reserved":false,"is_disabled":false,"rental_uris":{"android":"levelo://app?vid=26d69215-edb4-4917-b3fc-22f62f7da34a","ios":"levelo://app?vid=26d69215-edb4-4917-b3fc-22f62f7da34a"},"vehicle_type_id":"4","last_reported":1753632732,"current_range_meters":17600,"station_id":"st_cvj5dfep6f1abm77gieg","pricing_plan_id":"cebpf4jnsgd1na2vs0mg"},{"bike_id":"282639cd-70a5-4472-8056-17bb4dd00122","system_id":"levelo_inurba_marseille","lat":43.27982,"lon":5.38696,"is_reserved":false,"is_disabled":false,"rental_uris":{"android":"levelo://app?vid=282639cd-70a5-4472-8056-17bb4dd00122","ios":"levelo://app?vid=282639cd-70a5-4472-8056-17bb4dd00122"},"vehicle_type_id":"4","last_reported":1753632732,"current_range_meters":17600,"station_id":"ce4bhg12rcd13ifvqf80","pricing_plan_id":"cebpf4jnsgd1na2vs0mg"},{"bike_id":"a7d896f9-ed90-400f-b521-60f094bf2ab7","system_id":"levelo_inurba_marseille","lat":43.211923,"lon":5.350757,"is_reserved":false,"is_disabled":false,"rental_uris":{"android":"levelo://app?vid=a7d896f9-ed90-400f-b521-60f094bf2ab7","ios":"levelo://app?vid=a7d896f9-ed90-400f-b521-60f094bf2ab7"},"vehicle_type_id":"4","last_reported":1753632732,"current_range_meters":18000,"station_id":"st_cvj6sg6p6f1abm77japg","pricing_plan_id":"cebpf4jnsgd1na2vs0mg"},{"bike_id":"e1b8cacf-7f67-4490-93b1-ee4795d08ba9","system_id":"levelo_inurba_marseille","lat":43.2842,"lon":5.37527,"is_reserved":false,"is_disabled":false,"rental_uris":{"android":"levelo://app?vid=e1b8cacf-7f67-4490-93b1-ee4795d08ba9","ios":"levelo://app?vid=e1b8cacf-7f67-4490-93b1-ee4795d08ba9"},"vehicle_type_id":"4","last_reported":1753632732,"current_range_meters":18000,"station_id":"ce4bh412rcd13ifvqds0","pricing_plan_id":"cebpf4jnsgd1na2vs0mg"},{"bike_id":"a9df78d2-277c-4ca0-ba02-79b14cf1c87f","system_id":"levelo_inurba_marseille","lat":43.30926,"lon":5.40139,"is_reserved":false,"is_disabled":true,"rental_uris":{"android":"levelo://app?vid=a9df78d2-277c-4ca0-ba02-79b14cf1c87f","ios":"levelo://app?vid=a9df78d2-277c-4ca0-ba02-79b14cf1c87f"},"vehicle_type_id":"4","last_reported":1753632732,"current_range_meters":18000,"station_id":"ce4bgvp2rcd13ifvqct0","pricing_plan_id":"cebpf4jnsgd1na2vs0mg"},{"bike_id":"5bf3ed1a-1969-409f-8d81-292c7d10a407","system_id":"levelo_inurba_marseille","lat":43.32115,"lon":5.36758,"is_reserved":false,"is_disabled":false,"rental_uris":{"android":"levelo://app?vid=5bf3ed1a-1969-409f-8d81-292c7d10a407","ios":"levelo://app?vid=5bf3ed1a-1969-409f-8d81-292c7d10a407"},"vehicle_type_id":"4","last_reported":1753632732,"current_range_meters":18000,"station_id":"ce4bhrh2rcd13ifvqhug","pricing_plan_id":"cebpf4jnsgd1na2vs0mg"},{"bike_id":"677a7fa3-4ca5-499f-a3ca-73476a184ec6","system_id":"levelo_inurba_marseille","lat":43.30191,"lon":5.36635,"is_reserved":false,"is_disabled":false,"rental_uris":{"android":"levelo://app?vid=677a7fa3-4ca5-499f-a3ca-73476a184ec6","ios":"levelo://app?vid=677a7fa3-4ca5-499f-a3ca-73476a184ec6"},"vehicle_type_id":"4","last_reported":1753632732,"current_range_meters":18000,"station_id":"ce4bgrh2rcd13ifvqc8g","pricing_plan_id":"cebpf4jnsgd1na2vs0mg"},{"bike_id":"47eb4bcd-34cb-4441-8fc0-2fa8b9a9f4b2","system_id":"levelo_inurba_marseille","lat":43.245339,"lon":5.402236,"is_reserved":false,"is_disabled":false,"rental_uris":{"android":"levelo://app?vid=47eb4bcd-34cb-4441-8fc0-2fa8b9a9f4b2","ios":"levelo://app?vid=47eb4bcd-34cb-4441-8fc0-2fa8b9a9f4b2"},"vehicle_type_id":"4","last_reported":1753632732,"current_range_meters":18000,"station_id":"","pricing_plan_id":"cebpf4jnsgd1na2vs0mg"},{"bike_id":"1848e763-c1e7-437f-8ea0-328c3886bf28","system_id":"levelo_inurba_marseille","lat":43.22919,"lon":5.35387,"is_reserved":false,"is_disabled":false,"rental_uris":{"android":"levelo://app?vid=1848e763-c1e7-437f-8ea0-328c3886bf28","ios":"levelo://app?vid=1848e763-c1e7-437f-8ea0-328c3886bf28"},"vehicle_type_id":"4","last_reported":1753632732,"current_range_meters":18000,"station_id":"cpo3532slgdg3j2ikp40","pricing_plan_id":"cebpf4jnsgd1na2vs0mg"},{"bike_id":"e094082d-aff5-406a-9a62-df970729fae5","system_id":"levelo_inurba_marseille","lat":43.28432,"lon":5.34976,"is_reserved":false,"is_disabled":false,"rental_uris":{"android":"levelo://app?vid=e094082d-aff5-406a-9a62-df970729fae5","ios":"levelo://app?vid=e094082d-aff5-406a-9a62-df970729fae5"},"vehicle_type_id":"4","last_reported":1753632732,"current_range_meters":18000,"station_id":"ce4bhbh2rcd13ifvqepg","pricing_plan_id":"cebpf4jnsgd1na2vs0mg"},{"bike_id":"e251c016-aac0-47f7-831c-c90ae2807397","system_id":"levelo_inurba_marseille","lat":43.30892,"lon":5.37201,"is_reserved":false,"is_disabled":false,"rental_uris":{"android":"levelo://app?vid=e251c016-aac0-47f7-831c-c90ae2807397","ios":"levelo://app?vid=e251c016-aac0-47f7-831c-c90ae2807397"},"vehicle_type_id":"4","last_reported":1753632732,"current_range_meters":17600,"station_id":"ce4bguh2rcd13ifvqckg","pricing_plan_id":"cebpf4jnsgd1na2vs0mg"},{"bike_id":"43db33db-3d20-45e3-81a8-0eca208dab5f","system_id":"levelo_inurba_marseille","lat":43.292615,"lon":5.384458,"is_reserved":false,"is_disabled":false,"rental_uris":{"android":"levelo://app?vid=43db33db-3d20-45e3-81a8-0eca208dab5f","ios":"levelo://app?vid=43db33db-3d20-45e3-81a8-0eca208dab5f"},"vehicle_type_id":"4","last_reported":1753632732,"current_range_meters":18000,"station_id":"ce4bh692rcd13ifvqea0","pricing_plan_id":"cebpf4jnsgd1na2vs0mg"},{"bike_id":"902d8b2b-a1fd-4540-9286-0a92f1b23aa9","system_id":"levelo_inurba_marseille","lat":43.3019,"lon":5.39369,"is_reserved":false,"is_disabled":false,"rental_uris":{"android":"levelo://app?vid=902d8b2b-a1fd-4540-9286-0a92f1b23aa9","ios":"levelo://app?vid=902d8b2b-a1fd-4540-9286-0a92f1b23aa9"},"vehicle_type_id":"4","last_reported":1753632732,"current_range_meters":18000,"station_id":"","pricing_plan_id":"cebpf4jnsgd1na2vs0mg"},{"bike_id":"8e4c032d-192f-47aa-a90a-61141d864c7b","system_id":"levelo_inurba_marseille","lat":43.28422,"lon":5.34983,"is_reserved":false,"is_disabled":false,"rental_uris":{"android":"levelo://app?vid=8e4c032d-192f-47aa-a90a-61141d864c7b","ios":"levelo://app?vid=8e4c032d-192f-47aa-a90a-61141d864c7b"},"vehicle_type_id":"4","last_reported":1753632732,"current_range_meters":18000,"station_id":"ce4bhbh2rcd13ifvqepg","pricing_plan_id":"cebpf4jnsgd1na2vs0mg"},{"bike_id":"89453dbc-5b89-44a5-b0eb-3c6848d1cff3","system_id":"levelo_inurba_marseille","lat":43.32384,"lon":5.3887,"is_reserved":false,"is_disabled":false,"rental_uris":{"android":"levelo://app?vid=89453dbc-5b89-44a5-b0eb-3c6848d1cff3","ios":"levelo://app?vid=89453dbc-5b89-44a5-b0eb-3c6848d1cff3"},"vehicle_type_id":"4","last_reported":1753632732,"current_range_meters":18000,"station_id":"ce4bhqp2rcd13ifvqhog","pricing_plan_id":"cebpf4jnsgd1na2vs0mg"},{"bike_id":"dc605198-b8e1-4465-81f7-65f95c60a384","system_id":"levelo_inurba_marseille","lat":43.292272,"lon":5.360526,"is_reserved":false,"is_disabled":false,"rental_uris":{"android":"levelo://app?vid=dc605198-b8e1-4465-81f7-65f95c60a384","ios":"levelo://app?vid=dc605198-b8e1-4465-81f7-65f95c60a384"},"vehicle_type_id":"4","last_reported":1753632732,"current_range_meters":18800,"station_id":"","pricing_plan_id":"cebpf4jnsgd1na2vs0mg"},{"bike_id":"f104e79e-8727-4ccc-8a35-a020cc2fb0ec","system_id":"levelo_inurba_marseille","lat":43.292034,"lon":5.357869,"is_reserved":false,"is_disabled":true,"rental_uris":{"android":"levelo://app?vid=f104e79e-8727-4ccc-8a35-a020cc2fb0ec","ios":"levelo://app?vid=f104e79e-8727-4ccc-8a35-a020cc2fb0ec"},"vehicle_type_id":"4","last_reported":1753632732,"current_range_meters":18800,"station_id":"ce4bhb12rcd13ifvqel0","pricing_plan_id":"cebpf4jnsgd1na2vs0mg"},{"bike_id":"3867fa40-35d2-46ed-9c85-2b8fa71499f9","system_id":"levelo_inurba_marseille","lat":43.28419,"lon":5.34985,"is_reserved":false,"is_disabled":false,"rental_uris":{"android":"levelo://app?vid=3867fa40-35d2-46ed-9c85-2b8fa71499f9","ios":"levelo://app?vid=3867fa40-35d2-46ed-9c85-2b8fa71499f9"},"vehicle_type_id":"4","last_reported":1753632732,"current_range_meters":18800,"station_id":"ce4bhbh2rcd13ifvqepg","pricing_plan_id":"cebpf4jnsgd1na2vs0mg"},{"bike_id":"c6354dbe-7447-447b-a791-963bc788f093","system_id":"levelo_inurba_marseille","lat":43.23972,"lon":5.36613,"is_reserved":false,"is_disabled":false,"rental_uris":{"android":"levelo://app?vid=c6354dbe-7447-447b-a791-963bc788f093","ios":"levelo://app?vid=c6354dbe-7447-447b-a791-963bc788f093"},"vehicle_type_id":"4","last_reported":1753632732,"current_range_meters":18800,"station_id":"ce4bhi12rcd13ifvqfp0","pricing_plan_id":"cebpf4jnsgd1na2vs0mg"},{"bike_id":"72e9581e-243c-489b-ac72-946b1381353f","system_id":"levelo_inurba_marseille","lat":43.30616,"lon":5.37586,"is_reserved":false,"is_disabled":false,"rental_uris":{"android":"levelo://app?vid=72e9581e-243c-489b-ac72-946b1381353f","ios":"levelo://app?vid=72e9581e-243c-489b-ac72-946b1381353f"},"vehicle_type_id":"4","last_reported":1753632732,"current_range_meters":18800,"station_id":"","pricing_plan_id":"cebpf4jnsgd1na2vs0mg"},{"bike_id":"d70613a2-027e-4ce6-8023-62349a7a4277","system_id":"levelo_inurba_marseille","lat":43.22498,"lon":5.34778,"is_reserved":false,"is_disabled":false,"rental_uris":{"android":"levelo://app?vid=d70613a2-027e-4ce6-8023-62349a7a4277","ios":"levelo://app?vid=d70613a2-027e-4ce6-8023-62349a7a4277"},"vehicle_type_id":"4","last_reported":1753632732,"current_range_meters":18800,"station_id":"st_cvj5dfep6f1abm77gieg","pricing_plan_id":"cebpf4jnsgd1na2vs0mg"},{"bike_id":"b8371533-6484-41f6-ab79-f1c54c5b6d25","system_id":"levelo_inurba_marseille","lat":43.225043,"lon":5.347852,"is_reserved":false,"is_disabled":false,"rental_uris":{"android":"levelo://app?vid=b8371533-6484-41f6-ab79-f1c54c5b6d25","ios":"levelo://app?vid=b8371533-6484-41f6-ab79-f1c54c5b6d25"},"vehicle_type_id":"4","last_reported":1753632732,"current_range_meters":18800,"station_id":"st_cvj5dfep6f1abm77gieg","pricing_plan_id":"cebpf4jnsgd1na2vs0mg"},{"bike_id":"8156ba1c-79d1-400d-96a0-33669bb7caeb","system_id":"levelo_inurba_marseille","lat":43.32598,"lon":5.411627,"is_reserved":false,"is_disabled":false,"rental_uris":{"android":"levelo://app?vid=8156ba1c-79d1-400d-96a0-33669bb7caeb","ios":"levelo://app?vid=8156ba1c-79d1-400d-96a0-33669bb7caeb"},"vehicle_type_id":"4","last_reported":1753632732,"current_range_meters":18800,"station_id":"","pricing_plan_id":"cebpf4jnsgd1na2vs0mg"},{"bike_id":"2807d12a-8c8a-4209-a9c0-8d1cf55dce5e","system_id":"levelo_inurba_marseille","lat":43.25201,"lon":5.38212,"is_reserved":false,"is_disabled":true,"rental_uris":{"android":"levelo://app?vid=2807d12a-8c8a-4209-a9c0-8d1cf55dce5e","ios":"levelo://app?vid=2807d12a-8c8a-4209-a9c0-8d1cf55dce5e"},