{"last_updated":1718816870,"ttl":30,"version":"2.2","data":{"bikes":[{"bike_id":"85dbb01b-5472-40ed-ad4b-ccc4f5cac2dd","system_id":"levelo_inurba_marseille","lat":43.312239,"lon":5.368562,"is_reserved":false,"is_disabled":false,"rental_uris":{"android":"levelo://app?vid=85dbb01b-5472-40ed-ad4b-ccc4f5cac2dd","ios":"levelo://app?vid=85dbb01b-5472-40ed-ad4b-ccc4f5cac2dd"},"vehicle_type_id":"4","last_reported":1718816870,"current_range_meters":13200,"station_id":"ce4bgl92rcd13ifvqbq0","pricing_plan_id":"cebpf4jnsgd1na2vs0mg"},{"bike_id":"86892d31-716a-451c-922e-eddf958c441a","system_id":"levelo_inurba_marseille","lat":43.31354,"lon":5.37033,"is_reserved":false,"is_disabled":false,"rental_uris":{"android":"levelo://app?vid=86892d31-716a-451c-922e-eddf958c441a","ios":"levelo://app?vid=86892d31-716a-451c-922e-eddf958c441a"},"vehicle_type_id":"4","last_reported":1718816870,"current_range_meters":31200,"station_id":"","pricing_plan_id":"cebpf4jnsgd1na2vs0mg"},{"bike_id":"c8d43d07-7125-4a0c-9ad2-f8617eeeb68e","system_id":"levelo_inurba_marseille","lat":43.309076,"lon":5.368465,"is_reserved":false,"is_disabled":false,"rental_uris":{"android":"levelo://app?vid=c8d43d07-7125-4a0c-9ad2-f8617eeeb68e","ios":"levelo://app?vid=c8d43d07-7125-4a0c-9ad2-f8617eeeb68e"},"vehicle_type_id":"4","last_reported":1718816870,"current_range_meters":5200,"station_id":"ce4bgn92rcd13ifvqbvg","pricing_plan_id":"cebpf4jnsgd1na2vs0mg"},{"bike_id":"bd9ca707-647a-49ed-bc76-d0ff6357488c","system_id":"levelo_inurba_marseille","lat":43.309076,"lon":5.368465,"is_reserved":false,"is_disabled":false,"rental_uris":{"android":"levelo://app?vid=bd9ca707-647a-49ed-bc76-d0ff6357488c","ios":"levelo://app?vid=bd9ca707-647a-49ed-bc76-d0ff6357488c"},"vehicle_type_id":"4","last_reported":1718816870,"current_range_meters":6800,"station_id":"ce4bgn92rcd13ifvqbvg","pricing_plan_id":"cebpf4jnsgd1na2vs0mg"},{"bike_id":"2c4ab990-bf85-4539-81a0-6a5e6c486afc","system_id":"levelo_inurba_marseille","lat":43.31468,"lon":5.37362,"is_reserved":false,"is_disabled":false,"rental_uris":{"android":"levelo://app?vid=2c4ab990-bf85-4539-81a0-6a5e6c486afc","ios":"levelo://app?vid=2c4ab990-bf85-4539-81a0-6a5e6c486afc"},"vehicle_type_id":"4","last_reported":1718816870,"current_range_meters":1600,"station_id":"","pricing_plan_id":"cebpf4jnsgd1na2vs0mg"},{"bike_id":"71cb65b2-81db-4ed0-8068-994299efd4b3","system_id":"levelo_inurba_marseille","lat":43.30538,"lon":5.36654,"is_reserved":false,"is_disabled":false,"rental_uris":{"android":"levelo://app?vid=71cb65b2-81db-4ed0-8068-994299efd4b3","ios":"levelo://app?vid=71cb65b2-81db-4ed0-8068-994299efd4b3"},"vehicle_type_id":"4","last_reported":1718816870,"current_range_meters":28400,"station_id":"","pricing_plan_id":"cebpf4jnsgd1na2vs0mg"},{"bike_id":"7716ddd2-cd53-495e-a45c-c1bd0b1a64f9","system_id":"levelo_inurba_marseille","lat":43.305368,"lon":5.367343,"is_reserved":false,"is_disabled":false,"rental_uris":{"android":"levelo://app?vid=7716ddd2-cd53-495e-a45c-c1bd0b1a64f9","ios":"levelo://app?vid=7716ddd2-cd53-495e-a45c-c1bd0b1a64f9"},"vehicle_type_id":"4","last_reported":1718816870,"current_range_meters":20400,"station_id":"ce4bgrp2rcd13ifvqc9g","pricing_plan_id":"cebpf4jnsgd1na2vs0mg"},{"bike_id":"8e532604-f8c0-4312-8d5b-8ec6827336f4","system_id":"levelo_inurba_marseille","lat":43.305289,"lon":5.366388,"is_reserved":false,"is_disabled":false,"rental_uris":{"android":"levelo://app?vid=8e532604-f8c0-4312-8d5b-8ec6827336f4","ios":"levelo://app?vid=8e532604-f8c0-4312-8d5b-8ec6827336f4"},"vehicle_type_id":"4","last_reported":1718816870,"current_range_meters":30400,"station_id":"","pricing_plan_id":"cebpf4jnsgd1na2vs0mg"},{"bike_id":"db8aba37-9f9d-4ee8-895d-28b57411bf57","system_id":"levelo_inurba_marseille","lat":43.305193,"lon":5.366465,"is_reserved":false,"is_disabled":false,"rental_uris":{"android":"levelo://app?vid=db8aba37-9f9d-4ee8-895d-28b57411bf57","ios":"levelo://app?vid=db8aba37-9f9d-4ee8-895d-28b57411bf57"},"vehicle_type_id":"4","last_reported":1718816870,"current_range_meters":18400,"station_id":"","pricing_plan_id":"cebpf4jnsgd1na2vs0mg"},{"bike_id":"cb22e57b-145b-482b-b24d-1fbce4aeafc2","system_id":"levelo_inurba_marseille","lat":43.31837,"lon":5.37398,"is_reserved":false,"is_disabled":false,"rental_uris":{"android":"levelo://app?vid=cb22e57b-145b-482b-b24d-1fbce4aeafc2","ios":"levelo://app?vid=cb22e57b-145b-482b-b24d-1fbce4aeafc2"},"vehicle_type_id":"4","last_reported":1718816870,"current_range_meters":4400,"station_id":"","pricing_plan_id":"cebpf4jnsgd1na2vs0mg"},{"bike_id":"808d759f-a7f8-40cb-a8af-69bc1f795454","system_id":"levelo_inurba_marseille","lat":43.30503,"lon":5.36625,"is_reserved":false,"is_disabled":false,"rental_uris":{"android":"levelo://app?vid=808d759f-a7f8-40cb-a8af-69bc1f795454","ios":"levelo://app?vid=808d759f-a7f8-40cb-a8af-69bc1f795454"},"vehicle_type_id":"4","last_reported":1718816870,"current_range_meters":12400,"station_id":"","pricing_plan_id":"cebpf4jnsgd1na2vs0mg"},{"bike_id":"e4c5bfad-9115-4aee-b84d-93203747cf2f","system_id":"levelo_inurba_marseille","lat":43.305989,"lon":5.37225,"is_reserved":false,"is_disabled":false,"rental_uris":{"android":"levelo://app?vid=e4c5bfad-9115-4aee-b84d-93203747cf2f","ios":"levelo://app?vid=e4c5bfad-9115-4aee-b84d-93203747cf2f"},"vehicle_type_id":"4","last_reported":1718816870,"current_range_meters":6000,"station_id":"ce4bgqh2rcd13ifvqc4g","pricing_plan_id":"cebpf4jnsgd1na2vs0mg"},{"bike_id":"a157df71-f095-470a-aa5e-22305a879271","system_id":"levelo_inurba_marseille","lat":43.311125,"lon":5.377624,"is_reserved":false,"is_disabled":false,"rental_uris":{"android":"levelo://app?vid=a157df71-f095-470a-aa5e-22305a879271","ios":"levelo://app?vid=a157df71-f095-470a-aa5e-22305a879271"},"vehicle_type_id":"4","last_reported":1718816870,"current_range_meters":14800,"station_id":"ce4bgt92rcd13ifvqcg0","pricing_plan_id":"cebpf4jnsgd1na2vs0mg"},{"bike_id":"6fc4c284-fea3-4ba6-89fc-2a139b784eb1","system_id":"levelo_inurba_marseille","lat":43.311098,"lon":5.377782,"is_reserved":false,"is_disabled":false,"rental_uris":{"android":"levelo://app?vid=6fc4c284-fea3-4ba6-89fc-2a139b784eb1","ios":"levelo://app?vid=6fc4c284-fea3-4ba6-89fc-2a139b784eb1"},"vehicle_type_id":"4","last_reported":1718816870,"current_range_meters":0,"station_id":"ce4bgt92rcd13ifvqcg0","pricing_plan_id":"cebpf4jnsgd1na2vs0mg"},{"bike_id":"f2929c0a-d78d-4c77-8756-1b5fa7f50836","system_id":"levelo_inurba_marseille","lat":43.311125,"lon":5.377624,"is_reserved":false,"is_disabled":false,"rental_uris":{"android":"levelo://app?vid=f2929c0a-d78d-4c77-8756-1b5fa7f50836","ios":"levelo://app?vid=f2929c0a-d78d-4c77-8756-1b5fa7f50836"},"vehicle_type_id":"4","last_reported":1718816870,"current_range_meters":13200,"station_id":"ce4bgt92rcd13ifvqcg0","pricing_plan_id":"cebpf4jnsgd1na2vs0mg"},{"bike_id":"a9a6ad95-57d0-4142-a659-415c4c5259f0","system_id":"levelo_inurba_marseille","lat":43.311125,"lon":5.377624,"is_reserved":false,"is_disabled":false,"rental_uris":{"android":"levelo://app?vid=a9a6ad95-57d0-4142-a659-415c4c5259f0","ios":"levelo://app?vid=a9a6ad95-57d0-4142-a659-415c4c5259f0"},"vehicle_type_id":"4","last_reported":1718816870,"current_range_meters":6000,"station_id":"ce4bgt92rcd13ifvqcg0","pricing_plan_id":"cebpf4jnsgd1na2vs0mg"},{"bike_id":"6f262149-de85-4360-9a83-5c5023968b4c","system_id":"levelo_inurba_marseille","lat":43.317075,"lon":5.377367,"is_reserved":false,"is_disabled":false,"rental_uris":{"android":"levelo://app?vid=6f262149-de85-4360-9a83-5c5023968b4c","ios":"levelo://app?vid=6f262149-de85-4360-9a83-5c5023968b4c"},"vehicle_type_id":"4","last_reported":1718816870,"current_range_meters":6400,"station_id":"ce4bgth2rcd13ifvqch0","pricing_plan_id":"cebpf4jnsgd1na2vs0mg"},{"bike_id":"9fe98a3b-50bf-42e6-b0cc-379a801f43d3","system_id":"levelo_inurba_marseille","lat":43.317075,"lon":5.377367,"is_reserved":false,"is_disabled":false,"rental_uris":{"android":"levelo://app?vid=9fe98a3b-50bf-42e6-b0cc-379a801f43d3","ios":"levelo://app?vid=9fe98a3b-50bf-42e6-b0cc-379a801f43d3"},"vehicle_type_id":"4","last_reported":1718816870,"current_range_meters":24400,"station_id":"ce4bgth2rcd13ifvqch0","pricing_plan_id":"cebpf4jnsgd1na2vs0mg"},{"bike_id":"d454fdfd-396a-4e49-8342-43b6662189d8","system_id":"levelo_inurba_marseille","lat":43.301939,"lon":5.366286,"is_reserved":false,"is_disabled":false,"rental_uris":{"android":"levelo://app?vid=d454fdfd-396a-4e49-8342-43b6662189d8","ios":"levelo://app?vid=d454fdfd-396a-4e49-8342-43b6662189d8"},"vehicle_type_id":"4","last_reported":1718816870,"current_range_meters":19600,"station_id":"ce4bgrh2rcd13ifvqc8g","pricing_plan_id":"cebpf4jnsgd1na2vs0mg"},{"bike_id":"4a2ed1a3-5684-436a-b7f6-7b178f5672b0","system_id":"levelo_inurba_marseille","lat":43.30808,"lon":5.381523,"is_reserved":false,"is_disabled":false,"rental_uris":{"android":"levelo://app?vid=4a2ed1a3-5684-436a-b7f6-7b178f5672b0","ios":"levelo://app?vid=4a2ed1a3-5684-436a-b7f6-7b178f5672b0"},"vehicle_type_id":"4","last_reported":1718816870,"current_range_meters":7200,"station_id":"ce4bgt12rcd13ifvqce0","pricing_plan_id":"cebpf4jnsgd1na2vs0mg"},{"bike_id":"6526ac7c-aab5-4f0f-bcd7-80eb34e81de5","system_id":"levelo_inurba_marseille","lat":43.308012,"lon":5.381511,"is_reserved":false,"is_disabled":false,"rental_uris":{"android":"levelo://app?vid=6526ac7c-aab5-4f0f-bcd7-80eb34e81de5","ios":"levelo://app?vid=6526ac7c-aab5-4f0f-bcd7-80eb34e81de5"},"vehicle_type_id":"4","last_reported":1718816870,"current_range_meters":29600,"station_id":"ce4bgt12rcd13ifvqce0","pricing_plan_id":"cebpf4jnsgd1na2vs0mg"},{"bike_id":"75c953cc-a039-403e-864b-804285584dbf","system_id":"levelo_inurba_marseille","lat":43.308012,"lon":5.381511,"is_reserved":false,"is_disabled":false,"rental_uris":{"android":"levelo://app?vid=75c953cc-a039-403e-864b-804285584dbf","ios":"levelo://app?vid=75c953cc-a039-403e-864b-804285584dbf"},"vehicle_type_id":"4","last_reported":1718816870,"current_range_meters":16800,"station_id":"ce4bgt12rcd13ifvqce0","pricing_plan_id":"cebpf4jnsgd1na2vs0mg"},{"bike_id":"ad02517e-9806-4faf-8c89-6153b059e942","system_id":"levelo_inurba_marseille","lat":43.324771,"lon":5.36557,"is_reserved":false,"is_disabled":false,"rental_uris":{"android":"levelo://app?vid=ad02517e-9806-4faf-8c89-6153b059e942","ios":"levelo://app?vid=ad02517e-9806-4faf-8c89-6153b059e942"},"vehicle_type_id":"4","last_reported":1718816870,"current_range_meters":18800,"station_id":"ce4bhs12rcd13ifvqhvg","pricing_plan_id":"cebpf4jnsgd1na2vs0mg"},{"bike_id":"6b52d3cb-65a4-4ae3-83b1-a8625846fc86","system_id":"levelo_inurba_marseille","lat":43.31077,"lon":5.38354,"is_reserved":false,"is_disabled":false,"rental_uris":{"android":"levelo://app?vid=6b52d3cb-65a4-4ae3-83b1-a8625846fc86","ios":"levelo://app?vid=6b52d3cb-65a4-4ae3-83b1-a8625846fc86"},"vehicle_type_id":"4","last_reported":1718816870,"current_range_meters":25600,"station_id":"ce4bgv92rcd13ifvqcr0","pricing_plan_id":"cebpf4jnsgd1na2vs0mg"},{"bike_id":"098ad56a-0bb9-479d-addb-e77a830149a6","system_id":"levelo_inurba_marseille","lat":43.310804,"lon":5.38359,"is_reserved":false,"is_disabled":false,"rental_uris":{"android":"levelo://app?vid=098ad56a-0bb9-479d-addb-e77a830149a6","ios":"levelo://app?vid=098ad56a-0bb9-479d-addb-e77a830149a6"},"vehicle_type_id":"4","last_reported":1718816870,"current_range_meters":0,"station_id":"ce4bgv92rcd13ifvqcr0","pricing_plan_id":"cebpf4jnsgd1na2vs0mg"},{"bike_id":"d6ff4353-3214-4f77-87a3-e63afac87ff1","system_id":"levelo_inurba_marseille","lat":43.310804,"lon":5.38359,"is_reserved":false,"is_disabled":false,"rental_uris":{"android":"levelo://app?vid=d6ff4353-3214-4f77-87a3-e63afac87ff1","ios":"levelo://app?vid=d6ff4353-3214-4f77-87a3-e63afac87ff1"},"vehicle_type_id":"4","last_reported":1718816870,"current_range_meters":18800,"station_id":"ce4bgv92rcd13ifvqcr0","pricing_plan_id":"cebpf4jnsgd1na2vs0mg"},{"bike_id":"b98ebf97-46ea-485a-8a53-75377eb084b8","system_id":"levelo_inurba_marseille","lat":43.310804,"lon":5.38359,"is_reserved":false,"is_disabled":false,"rental_uris":{"android":"levelo://app?vid=b98ebf97-46ea-485a-8a53-75377eb084b8","ios":"levelo://app?vid=b98ebf97-46ea-485a-8a53-75377eb084b8"},"vehicle_type_id":"4","last_reported":1718816870,"current_range_meters":13200,"station_id":"ce4bgv92rcd13ifvqcr0","pricing_plan_id":"cebpf4jnsgd1na2vs0mg"},{"bike_id":"c0258070-9eae-480b-bb80-ce76e6f0e504","system_id":"levelo_inurba_marseille","lat":43.310804,"lon":5.38359,"is_reserved":false,"is_disabled":false,"rental_uris":{"android":"levelo://app?vid=c0258070-9eae-480b-bb80-ce76e6f0e504","ios":"levelo://app?vid=c0258070-9eae-480b-bb80-ce76e6f0e504"},"vehicle_type_id":"4","last_reported":1718816870,"current_range_meters":800,"station_id":"ce4bgv92rcd13ifvqcr0","pricing_plan_id":"cebpf4jnsgd1na2vs0mg"},{"bike_id":"7c587286-3771-4c77-9342-5a7b61f7ebc3","system_id":"levelo_inurba_marseille","lat":43.310804,"lon":5.38359,"is_reserved":false,"is_disabled":false,"rental_uris":{"android":"levelo://app?vid=7c587286-3771-4c77-9342-5a7b61f7ebc3","ios":"levelo://app?vid=7c587286-3771-4c77-9342-5a7b61f7ebc3"},"vehicle_type_id":"4","last_reported":1718816870,"current_range_meters":19200,"station_id":"ce4bgv92rcd13ifvqcr0","pricing_plan_id":"cebpf4jnsgd1na2vs0mg"},{"bike_id":"7d5de36b-a4f3-4910-9ab3-a990b15631aa","system_id":"levelo_inurba_marseille","lat":43.302784,"lon":5.377158,"is_reserved":false,"is_disabled":false,"rental_uris":{"android":"levelo://app?vid=7d5de36b-a4f3-4910-9ab3-a990b15631aa","ios":"levelo://app?vid=7d5de36b-a4f3-4910-9ab3-a990b15631aa"},"vehicle_type_id":"4","last_reported":1718816870,"current_range_meters":16800,"station_id":"ce4bguh2rcd13ifvqcj0","pricing_plan_id":"cebpf4jnsgd1na2vs0mg"},{"bike_id":"08940b84-5501-47ac-892c-e3e757e37ce0","system_id":"levelo_inurba_marseille","lat":43.30033,"lon":5.36673,"is_reserved":false,"is_disabled":false,"rental_uris":{"android":"levelo://app?vid=08940b84-5501-47ac-892c-e3e757e37ce0","ios":"levelo://app?vid=08940b84-5501-47ac-892c-e3e757e37ce0"},"vehicle_type_id":"4","last_reported":1718816870,"current_range_meters":24000,"station_id":"","pricing_plan_id":"cebpf4jnsgd1na2vs0mg"},{"bike_id":"8072d9ee-966a-4320-9045-b5e21c2718c8","system_id":"levelo_inurba_marseille","lat":43.319935,"lon":5.381699,"is_reserved":false,"is_disabled":false,"rental_uris":{"android":"levelo://app?vid=8072d9ee-966a-4320-9045-b5e21c2718c8","ios":"levelo://app?vid=8072d9ee-966a-4320-9045-b5e21c2718c8"},"vehicle_type_id":"4","last_reported":1718816870,"current_range_meters":2000,"station_id":"ce4bhr12rcd13ifvqhpg","pricing_plan_id":"cebpf4jnsgd1na2vs0mg"},{"bike_id":"89ca5fb3-6674-441e-9d88-6fb400a5aca3","system_id":"levelo_inurba_marseille","lat":43.319935,"lon":5.381699,"is_reserved":false,"is_disabled":false,"rental_uris":{"android":"levelo://app?vid=89ca5fb3-6674-441e-9d88-6fb400a5aca3","ios":"levelo://app?vid=89ca5fb3-6674-441e-9d88-6fb400a5aca3"},"vehicle_type_id":"4","last_reported":1718816870,"current_range_meters":14000,"station_id":"ce4bhr12rcd13ifvqhpg","pricing_plan_id":"cebpf4jnsgd1na2vs0mg"},{"bike_id":"a0fb88ef-c475-4719-b0c1-cb0601658ba2","system_id":"levelo_inurba_marseille","lat":43.319935,"lon":5.381699,"is_reserved":false,"is_disabled":false,"rental_uris":{"android":"levelo://app?vid=a0fb88ef-c475-4719-b0c1-cb0601658ba2","ios":"levelo://app?vid=a0fb88ef-c475-4719-b0c1-cb0601658ba2"},"vehicle_type_id":"4","last_reported":1718816870,"current_range_meters":19600,"station_id":"ce4bhr12rcd13ifvqhpg","pricing_plan_id":"cebpf4jnsgd1na2vs0mg"},{"bike_id":"a079d634-4cbc-47d3-a54d-9d7f6c4698d0","system_id":"levelo_inurba_marseille","lat":43.313571,"lon":5.384829,"is_reserved":false,"is_disabled":false,"rental_uris":{"android":"levelo://app?vid=a079d634-4cbc-47d3-a54d-9d7f6c4698d0","ios":"levelo://app?vid=a079d634-4cbc-47d3-a54d-9d7f6c4698d0"},"vehicle_type_id":"4","last_reported":1718816870,"current_range_meters":6400,"station_id":"ce4bgt92rcd13ifvqcf0","pricing_plan_id":"cebpf4jnsgd1na2vs0mg"},{"bike_id":"24ae4b4d-f337-46af-8d1d-a3ae6e27c494","system_id":"levelo_inurba_marseille","lat":43.313571,"lon":5.384829,"is_reserved":false,"is_disabled":false,"rental_uris":{"android":"levelo://app?vid=24ae4b4d-f337-46af-8d1d-a3ae6e27c494","ios":"levelo://app?vid=24ae4b4d-f337-46af-8d1d-a3ae6e27c494"},"vehicle_type_id":"4","last_reported":1718816870,"current_range_meters":8000,"station_id":"ce4bgt92rcd13ifvqcf0","pricing_plan_id":"cebpf4jnsgd1na2vs0mg"},{"bike_id":"b065ba68-a559-442a-ac87-3c678c46e07b","system_id":"levelo_inurba_marseille","lat":43.299222,"lon":5.365554,"is_reserved":false,"is_disabled":false,"rental_uris":{"android":"levelo://app?vid=b065ba68-a559-442a-ac87-3c678c46e07b","ios":"levelo://app?vid=b065ba68-a559-442a-ac87-3c678c46e07b"},"vehicle_type_id":"4","last_reported":1718816870,"current_range_meters":9200,"station_id":"ce4bgm92rcd13ifvqbr0","pricing_plan_id":"cebpf4jnsgd1na2vs0mg"},{"bike_id":"91f03610-44aa-42f2-8a32-909130013a98","system_id":"levelo_inurba_marseille","lat":43.299222,"lon":5.365554,"is_reserved":false,"is_disabled":false,"rental_uris":{"android":"levelo://app?vid=91f03610-44aa-42f2-8a32-909130013a98","ios":"levelo://app?vid=91f03610-44aa-42f2-8a32-909130013a98"},"vehicle_type_id":"4","last_reported":1718816870,"current_range_meters":26400,"station_id":"ce4bgm92rcd13ifvqbr0","pricing_plan_id":"cebpf4jnsgd1na2vs0mg"},{"bike_id":"2eca6267-a702-4adc-b01a-2417bba19ff6","system_id":"levelo_inurba_marseille","lat":43.299222,"lon":5.365554,"is_reserved":false,"is_disabled":false,"rental_uris":{"android":"levelo://app?vid=2eca6267-a702-4adc-b01a-2417bba19ff6","ios":"levelo://app?vid=2eca6267-a702-4adc-b01a-2417bba19ff6"},"vehicle_type_id":"4","last_reported":1718816870,"current_range_meters":14800,"station_id":"ce4bgm92rcd13ifvqbr0","pricing_plan_id":"cebpf4jnsgd1na2vs0mg"},{"bike_id":"8894877d-1d0e-46b7-b58f-9af605c99275","system_id":"levelo_inurba_marseille","lat":43.311987,"lon":5.386737,"is_reserved":false,"is_disabled":false,"rental_uris":{"android":"levelo://app?vid=8894877d-1d0e-46b7-b58f-9af605c99275","ios":"levelo://app?vid=8894877d-1d0e-46b7-b58f-9af605c99275"},"vehicle_type_id":"4","last_reported":1718816870,"current_range_meters":1600,"station_id":"","pricing_plan_id":"cebpf4jnsgd1na2vs0mg"},{"bike_id":"a6854958-cedb-4e26-859c-908af55f35fe","system_id":"levelo_inurba_marseille","lat":43.299222,"lon":5.365554,"is_reserved":false,"is_disabled":false,"rental_uris":{"android":"levelo://app?vid=a6854958-cedb-4e26-859c-908af55f35fe","ios":"levelo://app?vid=a6854958-cedb-4e26-859c-908af55f35fe"},"vehicle_type_id":"4","last_reported":1718816870,"current_range_meters":24000,"station_id":"ce4bgm92rcd13ifvqbr0","pricing_plan_id":"cebpf4jnsgd1na2vs0mg"},{"bike_id":"8d6e484e-8c0d-4877-9770-55445353b744","system_id":"levelo_inurba_marseille","lat":43.29529,"lon":5.385581,"is_reserved":false,"is_disabled":false,"rental_uris":{"android":"levelo://app?vid=8d6e484e-8c0d-4877-9770-55445353b744","ios":"levelo://app?vid=8d6e484e-8c0d-4877-9770-55445353b744"},"vehicle_type_id":"4","last_reported":1718816870,"current_range_meters":15200,"station_id":"ce4bgih2rcd13ifvqba0","pricing_plan_id":"cebpf4jnsgd1na2vs0mg"},{"bike_id":"f58bb464-9627-4330-9097-bdcdb393dcd2","system_id":"levelo_inurba_marseille","lat":43.31168,"lon":5.3871,"is_reserved":false,"is_disabled":false,"rental_uris":{"android":"levelo://app?vid=f58bb464-9627-4330-9097-bdcdb393dcd2","ios":"levelo://app?vid=f58bb464-9627-4330-9097-bdcdb393dcd2"},"vehicle_type_id":"4","last_reported":1718816870,"current_range_meters":0,"station_id":"ce4bgv12rcd13ifvqcp0","pricing_plan_id":"cebpf4jnsgd1na2vs0mg"},{"bike_id":"a20de15d-1c7f-4011-ad2c-e90ce4e0d52c","system_id":"levelo_inurba_marseille","lat":43.299243,"lon":5.374807,"is_reserved":false,"is_disabled":false,"rental_uris":{"android":"levelo://app?vid=a20de15d-1c7f-4011-ad2c-e90ce4e0d52c","ios":"levelo://app?vid=a20de15d-1c7f-4011-ad2c-e90ce4e0d52c"},"vehicle_type_id":"4","last_reported":1718816870,"current_range_meters":4800,"station_id":"ce4bgjh2rcd13ifvqbg0","pricing_plan_id":"cebpf4jnsgd1na2vs0mg"},{"bike_id":"bc14c1d6-66bf-4c87-b028-5ef7e3d30899","system_id":"levelo_inurba_marseille","lat":43.3117,"lon":5.38721,"is_reserved":false,"is_disabled":false,"rental_uris":{"android":"levelo://app?vid=bc14c1d6-66bf-4c87-b028-5ef7e3d30899","ios":"levelo://app?vid=bc14c1d6-66bf-4c87-b028-5ef7e3d30899"},"vehicle_type_id":"4","last_reported":1718816870,"current_range_meters":22000,"station_id":"ce4bgv12rcd13ifvqcp0","pricing_plan_id":"cebpf4jnsgd1na2vs0mg"},{"bike_id":"10358258-5a4e-437b-8cfb-ad158d541f36","system_id":"levelo_inurba_marseille","lat":43.311722,"lon":5.387247,"is_reserved":false,"is_disabled":false,"rental_uris":{"android":"levelo://app?vid=10358258-5a4e-437b-8cfb-ad158d541f36","ios":"levelo://app?vid=10358258-5a4e-437b-8cfb-ad158d541f36"},"vehicle_type_id":"4","last_reported":1718816870,"current_range_meters":10400,"station_id":"ce4bgv12rcd13ifvqcp0","pricing_plan_id":"cebpf4jnsgd1na2vs0mg"},{"bike_id":"5e0dbcfa-05d9-412a-bedc-e6db2ee59c31","system_id":"levelo_inurba_marseille","lat":43.311722,"lon":5.387247,"is_reserved":false,"is_disabled":false,"rental_uris":{"android":"levelo://app?vid=5e0dbcfa-05d9-412a-bedc-e6db2ee59c31","ios":"levelo://app?vid=5e0dbcfa-05d9-412a-bedc-e6db2ee59c31"},"vehicle_type_id":"4","last_reported":1718816870,"current_range_meters":0,"station_id":"ce4bgv12rcd13ifvqcp0","pricing_plan_id":"cebpf4jnsgd1na2vs0mg"},{"bike_id":"f9511179-10c0-4b25-9495-909ee966754a","system_id":"levelo_inurba_marseille","lat":43.322872,"lon":5.382756,"is_reserved":false,"is_disabled":false,"rental_uris":{"android":"levelo://app?vid=f9511179-10c0-4b25-9495-909ee966754a","ios":"levelo://app?vid=f9511179-10c0-4b25-9495-909ee966754a"},"vehicle_type_id":"4","last_reported":1718816870,"current_range_meters":18400,"station_id":"ce4bhr12rcd13ifvqhqg","pricing_plan_id":"cebpf4jnsgd1na2vs0mg"},{"bike_id":"00e64183-1088-412b-b7c0-212bcf7a59b5","system_id":"levelo_inurba_marseille","lat":43.297163,"lon":5.365866,"is_reserved":false,"is_disabled":false,"rental_uris":{"android":"levelo://app?vid=00e64183-1088-412b-b7c0-212bcf7a59b5","ios":"levelo://app?vid=00e64183-1088-412b-b7c0-212bcf7a59b5"},"vehicle_type_id":"4","last_reported":1718816870,"current_range_meters":11600,"station_id":"ce4bgn12rcd13ifvqbt0","pricing_plan_id":"cebpf4jnsgd1na2vs0mg"},{"bike_id":"57968feb-0054-4e7c-a2c4-8303ad6f3617","system_id":"levelo_inurba_marseille","lat":43.297163,"lon":5.365866,"is_reserved":false,"is_disabled":false,"rental_uris":{"android":"levelo://app?vid=57968feb-0054-4e7c-a2c4-8303ad6f3617","ios":"levelo://app?vid=57968feb-0054-4e7c-a2c4-8303ad6f3617"},"vehicle_type_id":"4","last_reported":1718816870,"current_range_meters":31600,"station_id":"ce4bgn12rcd13ifvqbt0","pricing_plan_id":"cebpf4jnsgd1na2vs0mg"},{"bike_id":"f811bb36-ae59-481a-9f05-d140c3f81dd7","system_id":"levelo_inurba_marseille","lat":43.297163,"lon":5.365866,"is_reserved":false,"is_disabled":false,"rental_uris":{"android":"levelo://app?vid=f811bb36-ae59-481a-9f05-d140c3f81dd7","ios":"levelo://app?vid=f811bb36-ae59-481a-9f05-d140c3f81dd7"},"vehicle_type_id":"4","last_reported":1718816870,"current_range_meters":28000,"station_id":"ce4bgn12rcd13ifvqbt0","pricing_plan_id":"cebpf4jnsgd1na2vs0mg"},{"bike_id":"9fabb739-95c2-4cd1-b68d-02e35cfa9fb8","system_id":"levelo_inurba_marseille","lat":43.297163,"lon":5.365866,"is_reserved":false,"is_disabled":false,"rental_uris":{"android":"levelo://app?vid=9fabb739-95c2-4cd1-b68d-02e35cfa9fb8","ios":"levelo://app?vid=9fabb739-95c2-4cd1-b68d-02e35cfa9fb8"},"vehicle_type_id":"4","last_reported":1718816870,"current_range_meters":6000,"station_id":"ce4bgn12rcd13ifvqbt0","pricing_plan_id":"cebpf4jnsgd1na2vs0mg"},{"bike_id":"2a42502e-4a26-4730-a36d-a07ad7c25a95","system_id":"levelo_inurba_marseille","lat":43.31829,"lon":5.38749,"is_reserved":false,"is_disabled":false,"rental_uris":{"android":"levelo://app?vid=2a42502e-4a26-4730-a36d-a07ad7c25a95","ios":"levelo://app?vid=2a42502e-4a26-4730-a36d-a07ad7c25a95"},"vehicle_type_id":"4","last_reported":1718816870,"current_range_meters":6000,"station_id":"","pricing_plan_id":"cebpf4jnsgd1na2vs0mg"},{"bike_id":"c96c3e45-1d7f-46c2-b393-b835685e7e31","system_id":"levelo_inurba_marseille","lat":43.327883,"lon":5.359859,"is_reserved":false,"is_disabled":false,"rental_uris":{"android":"levelo://app?vid=c96c3e45-1d7f-46c2-b393-b835685e7e31","ios":"levelo://app?vid=c96c3e45-1d7f-46c2-b393-b835685e7e31"},"vehicle_type_id":"4","last_reported":1718816870,"current_range_meters":21600,"station_id":"","pricing_plan_id":"cebpf4jnsgd1na2vs0mg"},{"bike_id":"79e44c34-d326-4a53-8f67-165de38dc2b3","system_id":"levelo_inurba_marseille","lat":43.2968,"lon":5.37291,"is_reserved":false,"is_disabled":false,"rental_uris":{"android":"levelo://app?vid=79e44c34-d326-4a53-8f67-165de38dc2b3","ios":"levelo://app?vid=79e44c34-d326-4a53-8f67-165de38dc2b3"},"vehicle_type_id":"4","last_reported":1718816870,"current_range_meters":30400,"station_id":"ce4bgk12rcd13ifvqbj0","pricing_plan_id":"cebpf4jnsgd1na2vs0mg"},{"bike_id":"53d9c022-0e6e-4f76-84b9-93958f162191","system_id":"levelo_inurba_marseille","lat":43.315781,"lon":5.389476,"is_reserved":false,"is_disabled":false,"rental_uris":{"android":"levelo://app?vid=53d9c022-0e6e-4f76-84b9-93958f162191","ios":"levelo://app?vid=53d9c022-0e6e-4f76-84b9-93958f162191"},"vehicle_type_id":"4","last_reported":1718816870,"current_range_meters":10000,"station_id":"","pricing_plan_id":"cebpf4jnsgd1na2vs0mg"},{"bike_id":"63e26267-e6b2-473e-bf89-41860321bbf5","system_id":"levelo_inurba_marseille","lat":43.296131,"lon":5.370791,"is_reserved":false,"is_disabled":false,"rental_uris":{"android":"levelo://app?vid=63e26267-e6b2-473e-bf89-41860321bbf5","ios":"levelo://app?vid=63e26267-e6b2-473e-bf89-41860321bbf5"},"vehicle_type_id":"4","last_reported":1718816870,"current_range_meters":11200,"station_id":"ce4bgnh2rcd13ifvqc0g","pricing_plan_id":"cebpf4jnsgd1na2vs0mg"},{"bike_id":"be6982c7-8903-41ba-8ec8-5f2c5595721b","system_id":"levelo_inurba_marseille","lat":43.296921,"lon":5.376579,"is_reserved":false,"is_disabled":false,"rental_uris":{"android":"levelo://app?vid=be6982c7-8903-41ba-8ec8-5f2c5595721b","ios":"levelo://app?vid=be6982c7-8903-41ba-8ec8-5f2c5595721b"},"vehicle_type_id":"4","last_reported":1718816870,"current_range_meters":31600,"station_id":"ce4bgkh2rcd13ifvqbl0","pricing_plan_id":"cebpf4jnsgd1na2vs0mg"},{"bike_id":"12b337f1-f109-4b27-aefe-dba431dfa30c","system_id":"levelo_inurba_marseille","lat":43.296921,"lon":5.376579,"is_reserved":false,"is_disabled":false,"rental_uris":{"android":"levelo://app?vid=12b337f1-f109-4b27-aefe-dba431dfa30c","ios":"levelo://app?vid=12b337f1-f109-4b27-aefe-dba431dfa30c"},"vehicle_type_id":"4","last_reported":1718816870,"current_range_meters":31600,"station_id":"ce4bgkh2rcd13ifvqbl0","pricing_plan_id":"cebpf4jnsgd1na2vs0mg"},{"bike_id":"385b7043-c462-4dea-9dc2-0b5ce343a86a","system_id":"levelo_inurba_marseille","lat":43.296935,"lon":5.376544,"is_reserved":false,"is_disabled":false,"rental_uris":{"android":"levelo://app?vid=385b7043-c462-4dea-9dc2-0b5ce343a86a","ios":"levelo://app?vid=385b7043-c462-4dea-9dc2-0b5ce343a86a"},"vehicle_type_id":"4","last_reported":1718816870,"current_range_meters":31600,"station_id":"ce4bgkh2rcd13ifvqbl0","pricing_plan_id":"cebpf4jnsgd1na2vs0mg"},{"bike_id":"7e28d7d7-bac8-461b-a7ab-65ac4344da84","system_id":"levelo_inurba_marseille","lat":43.299028,"lon":5.381509,"is_reserved":false,"is_disabled":false,"rental_uris":{"android":"levelo://app?vid=7e28d7d7-bac8-461b-a7ab-65ac4344da84","ios":"levelo://app?vid=7e28d7d7-bac8-461b-a7ab-65ac4344da84"},"vehicle_type_id":"4","last_reported":1718816870,"current_range_meters":28000,"station_id":"ce4bgj12rcd13ifvqbc0","pricing_plan_id":"cebpf4jnsgd1na2vs0mg"},{"bike_id":"8bf16060-c6e9-44cb-b4ae-99ad09ddfdc1","system_id":"levelo_inurba_marseille","lat":43.309473,"lon":5.390264,"is_reserved":false,"is_disabled":false,"rental_uris":{"android":"levelo://app?vid=8bf16060-c6e9-44cb-b4ae-99ad09ddfdc1","ios":"levelo://app?vid=8bf16060-c6e9-44cb-b4ae-99ad09ddfdc1"},"vehicle_type_id":"4","last_reported":1718816870,"current_range_meters":0,"station_id":"ce4bgup2rcd13ifvqco0","pricing_plan_id":"cebpf4jnsgd1na2vs0mg"},{"bike_id":"da29e4e5-ce5e-4199-8f0f-ab0b819414f7","system_id":"levelo_inurba_marseille","lat":43.299028,"lon":5.381509,"is_reserved":false,"is_disabled":false,"rental_uris":{"android":"levelo://app?vid=da29e4e5-ce5e-4199-8f0f-ab0b819414f7","ios":"levelo://app?vid=da29e4e5-ce5e-4199-8f0f-ab0b819414f7"},"vehicle_type_id":"4","last_reported":1718816870,"current_range_meters":23200,"station_id":"ce4bgj12rcd13ifvqbc0","pricing_plan_id":"cebpf4jnsgd1na2vs0mg"},{"bike_id":"97a4356c-bb91-47d1-8ed3-a9fa77b96fee","system_id":"levelo_inurba_marseille","lat":43.309589,"lon":5.390258,"is_reserved":false,"is_disabled":false,"rental_uris":{"android":"levelo://app?vid=97a4356c-bb91-47d1-8ed3-a9fa77b96fee","ios":"levelo://app?vid=97a4356c-bb91-47d1-8ed3-a9fa77b96fee"},"vehicle_type_id":"4","last_reported":1718816870,"current_range_meters":15200,"station_id":"ce4bgup2rcd13ifvqco0","pricing_plan_id":"cebpf4jnsgd1na2vs0mg"},{"bike_id":"c80f37b5-bc34-4ed4-8951-76108d71e7a2","system_id":"levelo_inurba_marseille","lat":43.317557,"lon":5.390173,"is_reserved":false,"is_disabled":false,"rental_uris":{"android":"levelo://app?vid=c80f37b5-bc34-4ed4-8951-76108d71e7a2","ios":"levelo://app?vid=c80f37b5-bc34-4ed4-8951-76108d71e7a2"},"vehicle_type_id":"4","last_reported":1718816870,"current_range_meters":27200,"station_id":"ce4bhqp2rcd13ifvqhng","pricing_plan_id":"cebpf4jnsgd1na2vs0mg"},{"bike_id":"f9f37b1f-d114-43fd-8dc9-373198a5e976","system_id":"levelo_inurba_marseille","lat":43.317557,"lon":5.390173,"is_reserved":false,"is_disabled":false,"rental_uris":{"android":"levelo://app?vid=f9f37b1f-d114-43fd-8dc9-373198a5e976","ios":"levelo://app?vid=f9f37b1f-d114-43fd-8dc9-373198a5e976"},"vehicle_type_id":"4","last_reported":1718816870,"current_range_meters":14800,"station_id":"ce4bhqp2rcd13ifvqhng","pricing_plan_id":"cebpf4jnsgd1na2vs0mg"},{"bike_id":"d6eb4017-2d00-4df7-92f9-2e486559747a","system_id":"levelo_inurba_marseille","lat":43.317557,"lon":5.390173,"is_reserved":false,"is_disabled":false,"rental_uris":{"android":"levelo://app?vid=d6eb4017-2d00-4df7-92f9-2e486559747a","ios":"levelo://app?vid=d6eb4017-2d00-4df7-92f9-2e486559747a"},"vehicle_type_id":"4","last_reported":1718816870,"current_range_meters":20800,"station_id":"ce4bhqp2rcd13ifvqhng","pricing_plan_id":"cebpf4jnsgd1na2vs0mg"},{"bike_id":"16ad6398-2af7-46b8-8dc5-e8f73b7078f0","system_id":"levelo_inurba_marseille","lat":43.317557,"lon":5.390173,"is_reserved":false,"is_disabled":false,"rental_uris":{"android":"levelo://app?vid=16ad6398-2af7-46b8-8dc5-e8f73b7078f0","ios":"levelo://app?vid=16ad6398-2af7-46b8-8dc5-e8f73b7078f0"},"vehicle_type_id":"4","last_reported":1718816870,"current_range_meters":800,"station_id":"ce4bhqp2rcd13ifvqhng","pricing_plan_id":"cebpf4jnsgd1na2vs0mg"},{"bike_id":"864189d2-254f-4fe0-a9e9-a4553207263f","system_id":"levelo_inurba_marseille","lat":43.31756,"lon":5.39018,"is_reserved":false,"is_disabled":false,"rental_uris":{"android":"levelo://app?vid=864189d2-254f-4fe0-a9e9-a4553207263f","ios":"levelo://app?vid=864189d2-254f-4fe0-a9e9-a4553207263f"},"vehicle_type_id":"4","last_reported":1718816870,"current_range_meters":17200,"station_id":"ce4bhqp2rcd13ifvqhng","pricing_plan_id":"cebpf4jnsgd1na2vs0mg"},{"bike_id":"6a1ee315-9964-40b5-8197-d6bb1299455b","system_id":"levelo_inurba_marseille","lat":43.298037,"lon":5.381066,"is_reserved":false,"is_disabled":false,"rental_uris":{"android":"levelo://app?vid=6a1ee315-9964-40b5-8197-d6bb1299455b","ios":"levelo://app?vid=6a1ee315-9964-40b5-8197-d6bb1299455b"},"vehicle_type_id":"4","last_reported":1718816870,"current_range_meters":13600,"station_id":"ce4bgip2rcd13ifvqbb0","pricing_plan_id":"cebpf4jnsgd1na2vs0mg"},{"bike_id":"42ba29f1-aa9d-41e9-b799-c67d868a5563","system_id":"levelo_inurba_marseille","lat":43.29799,"lon":5.38085,"is_reserved":false,"is_disabled":false,"rental_uris":{"android":"levelo://app?vid=42ba29f1-aa9d-41e9-b799-c67d868a5563","ios":"levelo://app?vid=42ba29f1-aa9d-41e9-b799-c67d868a5563"},"vehicle_type_id":"4","last_reported":1718816870,"current_range_meters":24400,"station_id":"ce4bgip2rcd13ifvqbb0","pricing_plan_id":"cebpf4jnsgd1na2vs0mg"},{"bike_id":"11f4791a-e0c2-4084-8fd7-c4361bf3d709","system_id":"levelo_inurba_marseille","lat":43.298037,"lon":5.381066,"is_reserved":false,"is_disabled":false,"rental_uris":{"android":"levelo://app?vid=11f4791a-e0c2-4084-8fd7-c4361bf3d709","ios":"levelo://app?vid=11f4791a-e0c2-4084-8fd7-c4361bf3d709"},"vehicle_type_id":"4","last_reported":1718816870,"current_range_meters":30000,"station_id":"ce4bgip2rcd13ifvqbb0","pricing_plan_id":"cebpf4jnsgd1na2vs0mg"},{"bike_id":"727c3b88-027c-4239-a051-eb973faa7f34","system_id":"levelo_inurba_marseille","lat":43.298037,"lon":5.381066,"is_reserved":false,"is_disabled":false,"rental_uris":{"android":"levelo://app?vid=727c3b88-027c-4239-a051-eb973faa7f34","ios":"levelo://app?vid=727c3b88-027c-4239-a051-eb973faa7f34"},"vehicle_type_id":"4","last_reported":1718816870,"current_range_meters":31600,"station_id":"ce4bgip2rcd13ifvqbb0","pricing_plan_id":"cebpf4jnsgd1na2vs0mg"},{"bike_id":"c93b2d44-f65c-48c0-8fb7-1f34901d4007","system_id":"levelo_inurba_marseille","lat":43.298037,"lon":5.381066,"is_reserved":false,"is_disabled":false,"rental_uris":{"android":"levelo://app?vid=c93b2d44-f65c-48c0-8fb7-1f34901d4007","ios":"levelo://app?vid=c93b2d44-f65c-48c0-8fb7-1f34901d4007"},"vehicle_type_id":"4","last_reported":1718816870,"current_range_meters":6800,"station_id":"ce4bgip2rcd13ifvqbb0","pricing_plan_id":"cebpf4jnsgd1na2vs0mg"},{"bike_id":"0b89e3e5-13ce-4d58-813a-34b15ca5a127","system_id":"levelo_inurba_marseille","lat":43.296277,"lon":5.377108,"is_reserved":false,"is_disabled":false,"rental_uris":{"android":"levelo://app?vid=0b89e3e5-13ce-4d58-813a-34b15ca5a127","ios":"levelo://app?vid=0b89e3e5-13ce-4d58-813a-34b15ca5a127"},"vehicle_type_id":"4","last_reported":1718816870,"current_range_meters":27200,"station_id":"ce4bgi92rcd13ifvqb90","pricing_plan_id":"cebpf4jnsgd1na2vs0mg"},{"bike_id":"f9a4bae3-1597-4f98-aec3-d47e624294ea","system_id":"levelo_inurba_marseille","lat":43.29789,"lon":5.38092,"is_reserved":false,"is_disabled":false,"rental_uris":{"android":"levelo://app?vid=f9a4bae3-1597-4f98-aec3-d47e624294ea","ios":"levelo://app?vid=f9a4bae3-1597-4f98-aec3-d47e624294ea"},"vehicle_type_id":"4","last_reported":1718816870,"current_range_meters":0,"station_id":"ce4bgip2rcd13ifvqbb0","pricing_plan_id":"cebpf4jnsgd1na2vs0mg"},{"bike_id":"3e8466b1-afa5-4496-9704-575fb1512635","system_id":"levelo_inurba_marseille","lat":43.298037,"lon":5.381066,"is_reserved":false,"is_disabled":false,"rental_uris":{"android":"levelo://app?vid=3e8466b1-afa5-4496-9704-575fb1512635","ios":"levelo://app?vid=3e8466b1-afa5-4496-9704-575fb1512635"},"vehicle_type_id":"4","last_reported":1718816870,"current_range_meters":10400,"station_id":"ce4bgip2rcd13ifvqbb0","pricing_plan_id":"cebpf4jnsgd1na2vs0mg"},{"bike_id":"c9b22636-9594-4707-8399-585e665e9984","system_id":"levelo_inurba_marseille","lat":43.298037,"lon":5.381066,"is_reserved":false,"is_disabled":false,"rental_uris":{"android":"levelo://app?vid=c9b22636-9594-4707-8399-585e665e9984","ios":"levelo://app?vid=c9b22636-9594-4707-8399-585e665e9984"},"vehicle_type_id":"4","last_reported":1718816870,"current_range_meters":2000,"station_id":"ce4bgip2rcd13ifvqbb0","pricing_plan_id":"cebpf4jnsgd1na2vs0mg"},{"bike_id":"a4ab9b29-9e98-4dc6-9205-6a79543f2405","system_id":"levelo_inurba_marseille","lat":43.297957,"lon":5.38117,"is_reserved":false,"is_disabled":false,"rental_uris":{"android":"levelo://app?vid=a4ab9b29-9e98-4dc6-9205-6a79543f2405","ios":"levelo://app?vid=a4ab9b29-9e98-4dc6-9205-6a79543f2405"},"vehicle_type_id":"4","last_reported":1718816870,"current_range_meters":0,"station_id":"ce4bgip2rcd13ifvqbb0","pricing_plan_id":"cebpf4jnsgd1na2vs0mg"},{"bike_id":"b494a1d1-4a0a-4f5c-a607-50de657d8ff0","system_id":"levelo_inurba_marseille","lat":43.304274,"lon":5.388873,"is_reserved":false,"is_disabled":false,"rental_uris":{"android":"levelo://app?vid=b494a1d1-4a0a-4f5c-a607-50de657d8ff0","ios":"levelo://app?vid=b494a1d1-4a0a-4f5c-a607-50de657d8ff0"},"vehicle_type_id":"4","last_reported":1718816870,"current_range_meters":2800,"station_id":"ce4bgk12rcd13ifvqbi0","pricing_plan_id":"cebpf4jnsgd1na2vs0mg"},{"bike_id":"cad862b8-c0c2-4c82-bccf-043af40d8568","system_id":"levelo_inurba_marseille","lat":43.304274,"lon":5.388873,"is_reserved":false,"is_disabled":false,"rental_uris":{"android":"levelo://app?vid=cad862b8-c0c2-4c82-bccf-043af40d8568","ios":"levelo://app?vid=cad862b8-c0c2-4c82-bccf-043af40d8568"},"vehicle_type_id":"4","last_reported":1718816870,"current_range_meters":31600,"station_id":"ce4bgk12rcd13ifvqbi0","pricing_plan_id":"cebpf4jnsgd1na2vs0mg"},{"bike_id":"35ea8676-1d34-4838-8424-175738f0b252","system_id":"levelo_inurba_marseille","lat":43.304274,"lon":5.388873,"is_reserved":false,"is_disabled":false,"rental_uris":{"android":"levelo://app?vid=35ea8676-1d34-4838-8424-175738f0b252","ios":"levelo://app?vid=35ea8676-1d34-4838-8424-175738f0b252"},"vehicle_type_id":"4","last_reported":1718816870,"current_range_meters":10400,"station_id":"ce4bgk12rcd13ifvqbi0","pricing_plan_id":"cebpf4jnsgd1na2vs0mg"},{"bike_id":"469a4b6a-15a1-4a3b-bef8-a5c22c650599","system_id":"levelo_inurba_marseille","lat":43.298037,"lon":5.381066,"is_reserved":false,"is_disabled":false,"rental_uris":{"android":"levelo://app?vid=469a4b6a-15a1-4a3b-bef8-a5c22c650599","ios":"levelo://app?vid=469a4b6a-15a1-4a3b-bef8-a5c22c650599"},"vehicle_type_id":"4","last_reported":1718816870,"current_range_meters":8400,"station_id":"ce4bgip2rcd13ifvqbb0","pricing_plan_id":"cebpf4jnsgd1na2vs0mg"},{"bike_id":"f5ed8e2b-adbb-4af0-9ea9-39957d5fbc10","system_id":"levelo_inurba_marseille","lat":43.299707,"lon":5.384859,"is_reserved":false,"is_disabled":false,"rental_uris":{"android":"levelo://app?vid=f5ed8e2b-adbb-4af0-9ea9-39957d5fbc10","ios":"levelo://app?vid=f5ed8e2b-adbb-4af0-9ea9-39957d5fbc10"},"vehicle_type_id":"4","last_reported":1718816870,"current_range_meters":30400,"station_id":"ce4bgj92rcd13ifvqbd0","pricing_plan_id":"cebpf4jnsgd1na2vs0mg"},{"bike_id":"3dd4ab39-281a-48e5-ba8c-a783857aa470","system_id":"levelo_inurba_marseille","lat":43.299717,"lon":5.384845,"is_reserved":false,"is_disabled":false,"rental_uris":{"android":"levelo://app?vid=3dd4ab39-281a-48e5-ba8c-a783857aa470","ios":"levelo://app?vid=3dd4ab39-281a-48e5-ba8c-a783857aa470"},"vehicle_type_id":"4","last_reported":1718816870,"current_range_meters":0,"station_id":"ce4bgj92rcd13ifvqbd0","pricing_plan_id":"cebpf4jnsgd1na2vs0mg"},{"bike_id":"d87f9054-7847-4e8f-90f2-fc973e93e78a","system_id":"levelo_inurba_marseille","lat":43.29971,"lon":5.38493,"is_reserved":false,"is_disabled":false,"rental_uris":{"android":"levelo://app?vid=d87f9054-7847-4e8f-90f2-fc973e93e78a","ios":"levelo://app?vid=d87f9054-7847-4e8f-90f2-fc973e93e78a"},"vehicle_type_id":"4","last_reported":1718816870,"current_range_meters":0,"station_id":"ce4bgj92rcd13ifvqbd0","pricing_plan_id":"cebpf4jnsgd1na2vs0mg"},{"bike_id":"d3ff2005-419b-44f5-a328-60be5dceb669","system_id":"levelo_inurba_marseille","lat":43.29972,"lon":5.38496,"is_reserved":false,"is_disabled":false,"rental_uris":{"android":"levelo://app?vid=d3ff2005-419b-44f5-a328-60be5dceb669","ios":"levelo://app?vid=d3ff2005-419b-44f5-a328-60be5dceb669"},"vehicle_type_id":"4","last_reported":1718816870,"current_range_meters":0,"station_id":"ce4bgj92rcd13ifvqbd0","pricing_plan_id":"cebpf4jnsgd1na2vs0mg"},{"bike_id":"e2653a86-55f7-4906-bcb8-7d39f7032742","system_id":"levelo_inurba_marseille","lat":43.29968,"lon":5.38495,"is_reserved":false,"is_disabled":false,"rental_uris":{"android":"levelo://app?vid=e2653a86-55f7-4906-bcb8-7d39f7032742","ios":"levelo://app?vid=e2653a86-55f7-4906-bcb8-7d39f7032742"},"vehicle_type_id":"4","last_reported":1718816870,"current_range_meters":0,"station_id":"","pricing_plan_id":"cebpf4jnsgd1na2vs0mg"},{"bike_id":"75648c47-eec3-4f73-8d26-b24d3ee8618a","system_id":"levelo_inurba_marseille","lat":43.295279,"lon":5.375048,"is_reserved":false,"is_disabled":false,"rental_uris":{"android":"levelo://app?vid=75648c47-eec3-4f73-8d26-b24d3ee8618a","ios":"levelo://app?vid=75648c47-eec3-4f73-8d26-b24d3ee8618a"},"vehicle_type_id":"4","last_reported":1718816870,"current_range_meters":10000,"station_id":"ce4bgkp2rcd13ifvqbmg","pricing_plan_id":"cebpf4jnsgd1na2vs0mg"},{"bike_id":"0be61cde-d248-4a4e-a326-fa75c79cca5b","system_id":"levelo_inurba_marseille","lat":43.299724,"lon":5.384848,"is_reserved":false,"is_disabled":false,"rental_uris":{"android":"levelo://app?vid=0be61cde-d248-4a4e-a326-fa75c79cca5b","ios":"levelo://app?vid=0be61cde-d248-4a4e-a326-fa75c79cca5b"},"vehicle_type_id":"4","last_reported":1718816870,"current_range_meters":2400,"station_id":"ce4bgj92rcd13ifvqbd0","pricing_plan_id":"cebpf4jnsgd1na2vs0mg"},{"bike_id":"4830328b-cac3-4c84-9d04-3bddaec41908","system_id":"levelo_inurba_marseille","lat":43.32367,"lon":5.388836,"is_reserved":false,"is_disabled":false,"rental_uris":{"android":"levelo://app?vid=4830328b-cac3-4c84-9d04-3bddaec41908","ios":"levelo://app?vid=4830328b-cac3-4c84-9d04-3bddaec41908"},"vehicle_type_id":"4","last_reported":1718816870,"current_range_meters":2000,"station_id":"ce4bhqp2rcd13ifvqhog","pricing_plan_id":"cebpf4jnsgd1na2vs0mg"},{"bike_id":"fcefc568-f424-4bda-82af-4f5a9ad8ad7d","system_id":"levelo_inurba_marseille","lat":43.32367,"lon":5.388836,"is_reserved":false,"is_disabled":false,"rental_uris":{"android":"levelo://app?vid=fcefc568-f424-4bda-82af-4f5a9ad8ad7d","ios":"levelo://app?vid=fcefc568-f424-4bda-82af-4f5a9ad8ad7d"},"vehicle_type_id":"4","last_reported":1718816870,"current_range_meters":4800,"station_id":"ce4bhqp2rcd13ifvqhog","pricing_plan_id":"cebpf4jnsgd1na2vs0mg"},{"bike_id":"b756561e-2120-4015-aa53-1c11ac0e2b96","system_id":"levelo_inurba_marseille","lat":43.32367,"lon":5.388836,"is_reserved":false,"is_disabled":false,"rental_uris":{"android":"levelo://app?vid=b756561e-2120-4015-aa53-1c11ac0e2b96","ios":"levelo://app?vid=b756561e-2120-4015-aa53-1c11ac0e2b96"},"vehicle_type_id":"4","last_reported":1718816870,"current_range_meters":23600,"station_id":"ce4bhqp2rcd13ifvqhog","pricing_plan_id":"cebpf4jnsgd1na2vs0mg"},{"bike_id":"98443076-7e3c-4c54-bb66-6cd0e82c0d44","system_id":"levelo_inurba_marseille","lat":43.29601,"lon":5.381084,"is_reserved":false,"is_disabled":false,"rental_uris":{"android":"levelo://app?vid=98443076-7e3c-4c54-bb66-6cd0e82c0d44","ios":"levelo://app?vid=98443076-7e3c-4c54-bb66-6cd0e82c0d44"},"vehicle_type_id":"4","last_reported":1718816870,"current_range_meters":16800,"station_id":"ce4bgl12rcd13ifvqbo0","pricing_plan_id":"cebpf4jnsgd1na2vs0mg"},{"bike_id":"aac37bff-e8e1-46c7-b041-78d618280786","system_id":"levelo_inurba_marseille","lat":43.296,"lon":5.38108,"is_reserved":false,"is_disabled":false,"rental_uris":{"android":"levelo://app?vid=aac37bff-e8e1-46c7-b041-78d618280786","ios":"levelo://app?vid=aac37bff-e8e1-46c7-b041-78d618280786"},"vehicle_type_id":"4","last_reported":1718816870,"current_range_meters":22400,"station_id":"ce4bgl12rcd13ifvqbo0","pricing_plan_id":"cebpf4jnsgd1na2vs0mg"},{"bike_id":"b831790a-2735-42f9-a250-99a1c28307f8","system_id":"levelo_inurba_marseille","lat":43.292749,"lon":5.368402,"is_reserved":false,"is_disabled":false,"rental_uris":{"android":"levelo://app?vid=b831790a-2735-42f9-a250-99a1c28307f8","ios":"levelo://app?vid=b831790a-2735-42f9-a250-99a1c28307f8"},"vehicle_type_id":"4","last_reported":1718816870,"current_range_meters":0,"station_id":"ce4bhbp2rcd13ifvqesg","pricing_plan_id":"cebpf4jnsgd1na2vs0mg"},{"bike_id":"62523656-d7d0-4210-a4e6-9a66f1fd6c2f","system_id":"levelo_inurba_marseille","lat":43.292749,"lon":5.368402,"is_reserved":false,"is_disabled":false,"rental_uris":{"android":"levelo://app?vid=62523656-d7d0-4210-a4e6-9a66f1fd6c2f","ios":"levelo://app?vid=62523656-d7d0-4210-a4e6-9a66f1fd6c2f"},"vehicle_type_id":"4","last_reported":1718816870,"current_range_meters":6800,"station_id":"ce4bhbp2rcd13ifvqesg","pricing_plan_id":"cebpf4jnsgd1na2vs0mg"},{"bike_id":"b082a227-0f28-4e79-a076-091be55fd342","system_id":"levelo_inurba_marseille","lat":43.292749,"lon":5.368402,"is_reserved":false,"is_disabled":false,"rental_uris":{"android":"levelo://app?vid=b082a227-0f28-4e79-a076-091be55fd342","ios":"levelo://app?vid=b082a227-0f28-4e79-a076-091be55fd342"},"vehicle_type_id":"4","last_reported":1718816870,"current_range_meters":3600,"station_id":"ce4bhbp2rcd13ifvqesg","pricing_plan_id":"cebpf4jnsgd1na2vs0mg"},{"bike_id":"b2415eb4-0ce2-4764-bd41-faa7661a1c1d","system_id":"levelo_inurba_marseille","lat":43.292749,"lon":5.368402,"is_reserved":false,"is_disabled":false,"rental_uris":{"android":"levelo://app?vid=b2415eb4-0ce2-4764-bd41-faa7661a1c1d","ios":"levelo://app?vid=b2415eb4-0ce2-4764-bd41-faa7661a1c1d"},"vehicle_type_id":"4","last_reported":1718816870,"current_range_meters":16800,"station_id":"ce4bhbp2rcd13ifvqesg","pricing_plan_id":"cebpf4jnsgd1na2vs0mg"},{"bike_id":"269e9dc4-1c2f-42da-9a1d-dc3ee02e7937","system_id":"levelo_inurba_marseille","lat":43.292749,"lon":5.368402,"is_reserved":false,"is_disabled":false,"rental_uris":{"android":"levelo://app?vid=269e9dc4-1c2f-42da-9a1d-dc3ee02e7937","ios":"levelo://app?vid=269e9dc4-1c2f-42da-9a1d-dc3ee02e7937"},"vehicle_type_id":"4","last_reported":1718816870,"current_range_meters":14400,"station_id":"ce4bhbp2rcd13ifvqesg","pricing_plan_id":"cebpf4jnsgd1na2vs0mg"},{"bike_id":"f89b63d2-5f5e-4a4d-ad98-7280683ceffd","system_id":"levelo_inurba_marseille","lat":43.2936,"lon":5.37835,"is_reserved":false,"is_disabled":false,"rental_uris":{"android":"levelo://app?vid=f89b63d2-5f5e-4a4d-ad98-7280683ceffd","ios":"levelo://app?vid=f89b63d2-5f5e-4a4d-ad98-7280683ceffd"},"vehicle_type_id":"4","last_reported":1718816870,"current_range_meters":5600,"station_id":"ce4bgjh2rcd13ifvqbf0","pricing_plan_id":"cebpf4jnsgd1na2vs0mg"},{"bike_id":"93dc1580-fbd5-4b70-88c5-e5d236765b9a","system_id":"levelo_inurba_marseille","lat":43.2936,"lon":5.37835,"is_reserved":false,"is_disabled":false,"rental_uris":{"android":"levelo://app?vid=93dc1580-fbd5-4b70-88c5-e5d236765b9a","ios":"levelo://app?vid=93dc1580-fbd5-4b70-88c5-e5d236765b9a"},"vehicle_type_id":"4","last_reported":1718816870,"current_range_meters":23200,"station_id":"ce4bgjh2rcd13ifvqbf0","pricing_plan_id":"cebpf4jnsgd1na2vs0mg"},{"bike_id":"75d02fe6-703f-431f-aefb-d63b48afdafb","system_id":"levelo_inurba_marseille","lat":43.2936,"lon":5.37835,"is_reserved":false,"is_disabled":false,"rental_uris":{"android":"levelo://app?vid=75d02fe6-703f-431f-aefb-d63b48afdafb","ios":"levelo://app?vid=75d02fe6-703f-431f-aefb-d63b48afdafb"},"vehicle_type_id":"4","last_reported":1718816870,"current_range_meters":15600,"station_id":"ce4bgjh2rcd13ifvqbf0","pricing_plan_id":"cebpf4jnsgd1na2vs0mg"},{"bike_id":"e0990068-9ac1-40c6-aac2-14c6aee44090","system_id":"levelo_inurba_marseille","lat":43.2936,"lon":5.37835,"is_reserved":false,"is_disabled":false,"rental_uris":{"android":"levelo://app?vid=e0990068-9ac1-40c6-aac2-14c6aee44090","ios":"levelo://app?vid=e0990068-9ac1-40c6-aac2-14c6aee44090"},"vehicle_type_id":"4","last_reported":1718816870,"current_range_meters":0,"station_id":"ce4bgjh2rcd13ifvqbf0","pricing_plan_id":"cebpf4jnsgd1na2vs0mg"},{"bike_id":"1345cce7-54af-4f1a-be99-792ca8905621","system_id":"levelo_inurba_marseille","lat":43.30085,"lon":5.390856,"is_reserved":false,"is_disabled":false,"rental_uris":{"android":"levelo://app?vid=1345cce7-54af-4f1a-be99-792ca8905621","ios":"levelo://app?vid=1345cce7-54af-4f1a-be99-792ca8905621"},"vehicle_type_id":"4","last_reported":1718816870,"current_range_meters":0,"station_id":"ce4bh192rcd13ifvqdb0","pricing_plan_id":"cebpf4jnsgd1na2vs0mg"},{"bike_id":"931781a2-1b7c-4a03-aa3b-74c8d6dad543","system_id":"levelo_inurba_marseille","lat":43.292311,"lon":5.360731,"is_reserved":false,"is_disabled":false,"rental_uris":{"android":"levelo://app?vid=931781a2-1b7c-4a03-aa3b-74c8d6dad543","ios":"levelo://app?vid=931781a2-1b7c-4a03-aa3b-74c8d6dad543"},"vehicle_type_id":"4","last_reported":1718816870,"current_range_meters":26000,"station_id":"ce4bhbh2rcd13ifvqeqg","pricing_plan_id":"cebpf4jnsgd1na2vs0mg"},{"bike_id":"56189b59-b0d7-4237-9df8-20af0720b1f6","system_id":"levelo_inurba_marseille","lat":43.292311,"lon":5.360731,"is_reserved":false,"is_disabled":false,"rental_uris":{"android":"levelo://app?vid=56189b59-b0d7-4237-9df8-20af0720b1f6","ios":"levelo://app?vid=56189b59-b0d7-4237-9df8-20af0720b1f6"},"vehicle_type_id":"4","last_reported":1718816870,"current_range_meters":31200,"station_id":"ce4bhbh2rcd13ifvqeqg","pricing_plan_id":"cebpf4jnsgd1na2vs0mg"},{"bike_id":"1d28e686-d683-48c8-8a10-a03d3a567e53","system_id":"levelo_inurba_marseille","lat":43.30086,"lon":5.39075,"is_reserved":false,"is_disabled":false,"rental_uris":{"android":"levelo://app?vid=1d28e686-d683-48c8-8a10-a03d3a567e53","ios":"levelo://app?vid=1d28e686-d683-48c8-8a10-a03d3a567e53"},"vehicle_type_id":"4","last_reported":1718816870,"current_range_meters":13600,"station_id":"ce4bh192rcd13ifvqdb0","pricing_plan_id":"cebpf4jnsgd1na2vs0mg"},{"bike_id":"7d1b31d4-0ae2-41cf-9aee-b4945a4e6a07","system_id":"levelo_inurba_marseille","lat":43.298764,"lon":5.388973,"is_reserved":false,"is_disabled":false,"rental_uris":{"android":"levelo://app?vid=7d1b31d4-0ae2-41cf-9aee-b4945a4e6a07","ios":"levelo://app?vid=7d1b31d4-0ae2-41cf-9aee-b4945a4e6a07"},"vehicle_type_id":"4","last_reported":1718816870,"current_range_meters":1600,"station_id":"ce4bh392rcd13ifvqdl0","pricing_plan_id":"cebpf4jnsgd1na2vs0mg"},{"bike_id":"61748d6f-cf37-4a74-bb9f-bbcf5aa23fef","system_id":"levelo_inurba_marseille","lat":43.30085,"lon":5.390856,"is_reserved":false,"is_disabled":false,"rental_uris":{"android":"levelo://app?vid=61748d6f-cf37-4a74-bb9f-bbcf5aa23fef","ios":"levelo://app?vid=61748d6f-cf37-4a74-bb9f-bbcf5aa23fef"},"vehicle_type_id":"4","last_reported":1718816870,"current_range_meters":0,"station_id":"ce4bh192rcd13ifvqdb0","pricing_plan_id":"cebpf4jnsgd1na2vs0mg"},{"bike_id":"204a51ef-6177-4dc9-b7c3-8566a06a75f9","system_id":"levelo_inurba_marseille","lat":43.30084,"lon":5.39087,"is_reserved":false,"is_disabled":false,"rental_uris":{"android":"levelo://app?vid=204a51ef-6177-4dc9-b7c3-8566a06a75f9","ios":"levelo://app?vid=204a51ef-6177-4dc9-b7c3-8566a06a75f9"},"vehicle_type_id":"4","last_reported":1718816870,"current_range_meters":13600,"station_id":"ce4bh192rcd13ifvqdb0","pricing_plan_id":"cebpf4jnsgd1na2vs0mg"},{"bike_id":"7c0bea49-97e0-4db7-ae7d-1da77ccd26ce","system_id":"levelo_inurba_marseille","lat":43.291675,"lon":5.371583,"is_reserved":false,"is_disabled":false,"rental_uris":{"android":"levelo://app?vid=7c0bea49-97e0-4db7-ae7d-1da77ccd26ce","ios":"levelo://app?vid=7c0bea49-97e0-4db7-ae7d-1da77ccd26ce"},"vehicle_type_id":"4","last_reported":1718816870,"current_range_meters":12400,"station_id":"ce4bha92rcd13ifvqeh0","pricing_plan_id":"cebpf4jnsgd1na2vs0mg"},{"bike_id":"eb0965b3-be0c-4852-be09-7064d79b493e","system_id":"levelo_inurba_marseille","lat":43.298764,"lon":5.388973,"is_reserved":false,"is_disabled":false,"rental_uris":{"android":"levelo://app?vid=eb0965b3-be0c-4852-be09-7064d79b493e","ios":"levelo://app?vid=eb0965b3-be0c-4852-be09-7064d79b493e"},"vehicle_type_id":"4","last_reported":1718816870,"current_range_meters":8400,"station_id":"ce4bh392rcd13ifvqdl0","pricing_plan_id":"cebpf4jnsgd1na2vs0mg"},{"bike_id":"4b7bc2d4-9b8e-463b-abde-b8bb896031f4","system_id":"levelo_inurba_marseille","lat":43.298764,"lon":5.388973,"is_reserved":false,"is_disabled":false,"rental_uris":{"android":"levelo://app?vid=4b7bc2d4-9b8e-463b-abde-b8bb896031f4","ios":"levelo://app?vid=4b7bc2d4-9b8e-463b-abde-b8bb896031f4"},"vehicle_type_id":"4","last_reported":1718816870,"current_range_meters":5200,"station_id":"ce4bh392rcd13ifvqdl0","pricing_plan_id":"cebpf4jnsgd1na2vs0mg"},{"bike_id":"2f0dca83-810a-4837-97a7-8c2d98525e0f","system_id":"levelo_inurba_marseille","lat":43.291675,"lon":5.371583,"is_reserved":false,"is_disabled":false,"rental_uris":{"android":"levelo://app?vid=2f0dca83-810a-4837-97a7-8c2d98525e0f","ios":"levelo://app?vid=2f0dca83-810a-4837-97a7-8c2d98525e0f"},"vehicle_type_id":"4","last_reported":1718816870,"current_range_meters":10800,"station_id":"ce4bha92rcd13ifvqeh0","pricing_plan_id":"cebpf4jnsgd1na2vs0mg"},{"bike_id":"fef89546-e289-4dae-9e04-881dd595dd9b","system_id":"levelo_inurba_marseille","lat":43.298764,"lon":5.388973,"is_reserved":false,"is_disabled":false,"rental_uris":{"android":"levelo://app?vid=fef89546-e289-4dae-9e04-881dd595dd9b","ios":"levelo://app?vid=fef89546-e289-4dae-9e04-881dd595dd9b"},"vehicle_type_id":"4","last_reported":1718816870,"current_range_meters":13200,"station_id":"ce4bh392rcd13ifvqdl0","pricing_plan_id":"cebpf4jnsgd1na2vs0mg"},{"bike_id":"fb7a82cd-c9f8-4162-ad26-fd1f4960c115","system_id":"levelo_inurba_marseille","lat":43.301177,"lon":5.391803,"is_reserved":false,"is_disabled":false,"rental_uris":{"android":"levelo://app?vid=fb7a82cd-c9f8-4162-ad26-fd1f4960c115","ios":"levelo://app?vid=fb7a82cd-c9f8-4162-ad26-fd1f4960c115"},"vehicle_type_id":"4","last_reported":1718816870,"current_range_meters":8400,"station_id":"","pricing_plan_id":"cebpf4jnsgd1na2vs0mg"},{"bike_id":"d87c5ec7-d38e-4091-9a7c-44bb72dcc6c4","system_id":"levelo_inurba_marseille","lat":43.292005,"lon":5.357875,"is_reserved":false,"is_disabled":false,"rental_uris":{"android":"levelo://app?vid=d87c5ec7-d38e-4091-9a7c-44bb72dcc6c4","ios":"levelo://app?vid=d87c5ec7-d38e-4091-9a7c-44bb72dcc6c4"},"vehicle_type_id":"4","last_reported":1718816870,"current_range_meters":800,"station_id":"ce4bhb12rcd13ifvqel0","pricing_plan_id":"cebpf4jnsgd1na2vs0mg"},{"bike_id":"a3ce6da0-d3dd-459a-98b3-2b7d8e3eb0ec","system_id":"levelo_inurba_marseille","lat":43.292005,"lon":5.357875,"is_reserved":false,"is_disabled":false,"rental_uris":{"android":"levelo://app?vid=a3ce6da0-d3dd-459a-98b3-2b7d8e3eb0ec","ios":"levelo://app?vid=a3ce6da0-d3dd-459a-98b3-2b7d8e3eb0ec"},"vehicle_type_id":"4","last_reported":1718816870,"current_range_meters":6400,"station_id":"ce4bhb12rcd13ifvqel0","pricing_plan_id":"cebpf4jnsgd1na2vs0mg"},{"bike_id":"232eb6ea-571a-46e8-a740-229ce3817b4c","system_id":"levelo_inurba_marseille","lat":43.291994,"lon":5.357886,"is_reserved":false,"is_disabled":false,"rental_uris":{"android":"levelo://app?vid=232eb6ea-571a-46e8-a740-229ce3817b4c","ios":"levelo://app?vid=232eb6ea-571a-46e8-a740-229ce3817b4c"},"vehicle_type_id":"4","last_reported":1718816870,"current_range_meters":0,"station_id":"ce4bhb12rcd13ifvqel0","pricing_plan_id":"cebpf4jnsgd1na2vs0mg"},{"bike_id":"c6017ae2-4202-4a5e-ba20-3f8ba7088363","system_id":"levelo_inurba_marseille","lat":43.313291,"lon":5.396838,"is_reserved":false,"is_disabled":false,"rental_uris":{"android":"levelo://app?vid=c6017ae2-4202-4a5e-ba20-3f8ba7088363","ios":"levelo://app?vid=c6017ae2-4202-4a5e-ba20-3f8ba7088363"},"vehicle_type_id":"4","last_reported":1718816870,"current_range_meters":7600,"station_id":"ce4bgvp2rcd13ifvqcu0","pricing_plan_id":"cebpf4jnsgd1na2vs0mg"},{"bike_id":"8518667a-56f9-444b-924e-0b72a16d4b20","system_id":"levelo_inurba_marseille","lat":43.30887,"lon":5.39639,"is_reserved":false,"is_disabled":false,"rental_uris":{"android":"levelo://app?vid=8518667a-56f9-444b-924e-0b72a16d4b20","ios":"levelo://app?vid=8518667a-56f9-444b-924e-0b72a16d4b20"},"vehicle_type_id":"4","last_reported":1718816870,"current_range_meters":0,"station_id":"ce4bh012rcd13ifvqcv0","pricing_plan_id":"cebpf4jnsgd1na2vs0mg"},{"bike_id":"c129afed-8ccf-4d14-80b1-0ad1ef8fb721","system_id":"levelo_inurba_marseille","lat":43.313291,"lon":5.396838,"is_reserved":false,"is_disabled":false,"rental_uris":{"android":"levelo://app?vid=c129afed-8ccf-4d14-80b1-0ad1ef8fb721","ios":"levelo://app?vid=c129afed-8ccf-4d14-80b1-0ad1ef8fb721"},"vehicle_type_id":"4","last_reported":1718816870,"current_range_meters":1200,"station_id":"ce4bgvp2rcd13ifvqcu0","pricing_plan_id":"cebpf4jnsgd1na2vs0mg"},{"bike_id":"8e319ffd-3238-4804-83dc-e64521ca175d","system_id":"levelo_inurba_marseille","lat":43.291994,"lon":5.357886,"is_reserved":false,"is_disabled":false,"rental_uris":{"android":"levelo://app?vid=8e319ffd-3238-4804-83dc-e64521ca175d","ios":"levelo://app?vid=8e319ffd-3238-4804-83dc-e64521ca175d"},"vehicle_type_id":"4","last_reported":1718816870,"current_range_meters":4000,"station_id":"ce4bhb12rcd13ifvqel0","pricing_plan_id":"cebpf4jnsgd1na2vs0mg"},{"bike_id":"879e96cb-8e29-4be2-b559-ad4e64e69853","system_id":"levelo_inurba_marseille","lat":43.313291,"lon":5.396838,"is_reserved":false,"is_disabled":false,"rental_uris":{"android":"levelo://app?vid=879e96cb-8e29-4be2-b559-ad4e64e69853","ios":"levelo://app?vid=879e96cb-8e29-4be2-b559-ad4e64e69853"},"vehicle_type_id":"4","last_reported":1718816870,"current_range_meters":22400,"station_id":"ce4bgvp2rcd13ifvqcu0","pricing_plan_id":"cebpf4jnsgd1na2vs0mg"},{"bike_id":"0218f2b4-e7f2-456b-8a5d-4de1aa4e147d","system_id":"levelo_inurba_marseille","lat":43.313291,"lon":5.396838,"is_reserved":false,"is_disabled":false,"rental_uris":{"android":"levelo://app?vid=0218f2b4-e7f2-456b-8a5d-4de1aa4e147d","ios":"levelo://app?vid=0218f2b4-e7f2-456b-8a5d-4de1aa4e147d"},"vehicle_type_id":"4","last_reported":1718816870,"current_range_meters":28800,"station_id":"ce4bgvp2rcd13ifvqcu0","pricing_plan_id":"cebpf4jnsgd1na2vs0mg"},{"bike_id":"e7dd8fed-021c-48a6-8bf4-aa532a3a7ef7","system_id":"levelo_inurba_marseille","lat":43.313291,"lon":5.396838,"is_reserved":false,"is_disabled":false,"rental_uris":{"android":"levelo://app?vid=e7dd8fed-021c-48a6-8bf4-aa532a3a7ef7","ios":"levelo://app?vid=e7dd8fed-021c-48a6-8bf4-aa532a3a7ef7"},"vehicle_type_id":"4","last_reported":1718816870,"current_range_meters":12800,"station_id":"ce4bgvp2rcd13ifvqcu0","pricing_plan_id":"cebpf4jnsgd1na2vs0mg"},{"bike_id":"d9c5dd87-0cb8-4d76-8600-92ec1d451ba9","system_id":"levelo_inurba_marseille","lat":43.309038,"lon":5.396546,"is_reserved":false,"is_disabled":false,"rental_uris":{"android":"levelo://app?vid=d9c5dd87-0cb8-4d76-8600-92ec1d451ba9","ios":"levelo://app?vid=d9c5dd87-0cb8-4d76-8600-92ec1d451ba9"},"vehicle_type_id":"4","last_reported":1718816870,"current_range_meters":24400,"station_id":"ce4bh012rcd13ifvqcv0","pricing_plan_id":"cebpf4jnsgd1na2vs0mg"},{"bike_id":"6706279e-1384-4122-a965-20c32596fd66","system_id":"levelo_inurba_marseille","lat":43.309038,"lon":5.396546,"is_reserved":false,"is_disabled":false,"rental_uris":{"android":"levelo://app?vid=6706279e-1384-4122-a965-20c32596fd66","ios":"levelo://app?vid=6706279e-1384-4122-a965-20c32596fd66"},"vehicle_type_id":"4","last_reported":1718816870,"current_range_meters":0,"station_id":"ce4bh012rcd13ifvqcv0","pricing_plan_id":"cebpf4jnsgd1na2vs0mg"},{"bike_id":"d865a2be-16a3-4464-96f5-753cadff76b8","system_id":"levelo_inurba_marseille","lat":43.31331,"lon":5.39694,"is_reserved":false,"is_disabled":false,"rental_uris":{"android":"levelo://app?vid=d865a2be-16a3-4464-96f5-753cadff76b8","ios":"levelo://app?vid=d865a2be-16a3-4464-96f5-753cadff76b8"},"vehicle_type_id":"4","last_reported":1718816870,"current_range_meters":0,"station_id":"ce4bgvp2rcd13ifvqcu0","pricing_plan_id":"cebpf4jnsgd1na2vs0mg"},{"bike_id":"c7beba68-cd29-4b56-ad4d-2d2bbaa89b3a","system_id":"levelo_inurba_marseille","lat":43.31332,"lon":5.39695,"is_reserved":false,"is_disabled":false,"rental_uris":{"android":"levelo://app?vid=c7beba68-cd29-4b56-ad4d-2d2bbaa89b3a","ios":"levelo://app?vid=c7beba68-cd29-4b56-ad4d-2d2bbaa89b3a"},"vehicle_type_id":"4","last_reported":1718816870,"current_range_meters":0,"station_id":"ce4bgvp2rcd13ifvqcu0","pricing_plan_id":"cebpf4jnsgd1na2vs0mg"},{"bike_id":"e324cbdf-d88c-411a-809d-90b97ed9bbeb","system_id":"levelo_inurba_marseille","lat":43.302992,"lon":5.392136,"is_reserved":false,"is_disabled":false,"rental_uris":{"android":"levelo://app?vid=e324cbdf-d88c-411a-809d-90b97ed9bbeb","ios":"levelo://app?vid=e324cbdf-d88c-411a-809d-90b97ed9bbeb"},"vehicle_type_id":"4","last_reported":1718816870,"current_range_meters":7600,"station_id":"ce4bgkh2rcd13ifvqbk0","pricing_plan_id":"cebpf4jnsgd1na2vs0mg"},{"bike_id":"a83c9a2a-a4b1-48a8-aadb-75569098f0e8","system_id":"levelo_inurba_marseille","lat":43.29529,"lon":5.385581,"is_reserved":false,"is_disabled":false,"rental_uris":{"android":"levelo://app?vid=a83c9a2a-a4b1-48a8-aadb-75569098f0e8","ios":"levelo://app?vid=a83c9a2a-a4b1-48a8-aadb-75569098f0e8"},"vehicle_type_id":"4","last_reported":1718816870,"current_range_meters":12400,"station_id":"ce4bgih2rcd13ifvqba0","pricing_plan_id":"cebpf4jnsgd1na2vs0mg"},{"bike_id":"bbc16672-0e5f-48eb-a245-eb6754fd03fb","system_id":"levelo_inurba_marseille","lat":43.29538,"lon":5.38544,"is_reserved":false,"is_disabled":false,"rental_uris":{"android":"levelo://app?vid=bbc16672-0e5f-48eb-a245-eb6754fd03fb","ios":"levelo://app?vid=bbc16672-0e5f-48eb-a245-eb6754fd03fb"},"vehicle_type_id":"4","last_reported":1718816870,"current_range_meters":2400,"station_id":"ce4bgih2rcd13ifvqba0","pricing_plan_id":"cebpf4jnsgd1na2vs0mg"},{"bike_id":"51728fac-5b79-4dbe-b624-03820c737519","system_id":"levelo_inurba_marseille","lat":43.29534,"lon":5.38542,"is_reserved":false,"is_disabled":false,"rental_uris":{"android":"levelo://app?vid=51728fac-5b79-4dbe-b624-03820c737519","ios":"levelo://app?vid=51728fac-5b79-4dbe-b624-03820c737519"},"vehicle_type_id":"4","last_reported":1718816870,"current_range_meters":0,"station_id":"ce4bgih2rcd13ifvqba0","pricing_plan_id":"cebpf4jnsgd1na2vs0mg"},{"bike_id":"85c56598-5c0b-48aa-86ab-aa55f86617f2","system_id":"levelo_inurba_marseille","lat":43.29529,"lon":5.385581,"is_reserved":false,"is_disabled":false,"rental_uris":{"android":"levelo://app?vid=85c56598-5c0b-48aa-86ab-aa55f86617f2","ios":"levelo://app?vid=85c56598-5c0b-48aa-86ab-aa55f86617f2"},"vehicle_type_id":"4","last_reported":1718816870,"current_range_meters":12000,"station_id":"ce4bgih2rcd13ifvqba0","pricing_plan_id":"cebpf4jnsgd1na2vs0mg"},{"bike_id":"f211d9ed-7a07-4789-939a-a8316bff51f3","system_id":"levelo_inurba_marseille","lat":43.29529,"lon":5.385581,"is_reserved":false,"is_disabled":false,"rental_uris":{"android":"levelo://app?vid=f211d9ed-7a07-4789-939a-a8316bff51f3","ios":"levelo://app?vid=f211d9ed-7a07-4789-939a-a8316bff51f3"},"vehicle_type_id":"4","last_reported":1718816870,"current_range_meters":21200,"station_id":"ce4bgih2rcd13ifvqba0","pricing_plan_id":"cebpf4jnsgd1na2vs0mg"},{"bike_id":"6ed7c517-92ca-46eb-976e-b3627ab6119f","system_id":"levelo_inurba_marseille","lat":43.29529,"lon":5.385581,"is_reserved":false,"is_disabled":false,"rental_uris":{"android":"levelo://app?vid=6ed7c517-92ca-46eb-976e-b3627ab6119f","ios":"levelo://app?vid=6ed7c517-92ca-46eb-976e-b3627ab6119f"},"vehicle_type_id":"4","last_reported":1718816870,"current_range_meters":4800,"station_id":"ce4bgih2rcd13ifvqba0","pricing_plan_id":"cebpf4jnsgd1na2vs0mg"},{"bike_id":"67f0ba69-51e0-4ff4-bc8a-f0bec54f2aba","system_id":"levelo_inurba_marseille","lat":43.29529,"lon":5.385581,"is_reserved":false,"is_disabled":false,"rental_uris":{"android":"levelo://app?vid=67f0ba69-51e0-4ff4-bc8a-f0bec54f2aba","ios":"levelo://app?vid=67f0ba69-51e0-4ff4-bc8a-f0bec54f2aba"},"vehicle_type_id":"4","last_reported":1718816870,"current_range_meters":12400,"station_id":"ce4bgih2rcd13ifvqba0","pricing_plan_id":"cebpf4jnsgd1na2vs0mg"},{"bike_id":"48f318ca-2ffb-46dc-b677-ff9dbab0c78b","system_id":"levelo_inurba_marseille","lat":43.302008,"lon":5.394694,"is_reserved":false,"is_disabled":false,"rental_uris":{"android":"levelo://app?vid=48f318ca-2ffb-46dc-b677-ff9dbab0c78b","ios":"levelo://app?vid=48f318ca-2ffb-46dc-b677-ff9dbab0c78b"},"vehicle_type_id":"4","last_reported":1718816870,"current_range_meters":4800,"station_id":"ce4bh0p2rcd13ifvqd70","pricing_plan_id":"cebpf4jnsgd1na2vs0mg"},{"bike_id":"b6c7586e-bd54-4862-8a12-821e9399ed56","system_id":"levelo_inurba_marseille","lat":43.302008,"lon":5.394694,"is_reserved":false,"is_disabled":false,"rental_uris":{"android":"levelo://app?vid=b6c7586e-bd54-4862-8a12-821e9399ed56","ios":"levelo://app?vid=b6c7586e-bd54-4862-8a12-821e9399ed56"},"vehicle_type_id":"4","last_reported":1718816870,"current_range_meters":6400,"station_id":"ce4bh0p2rcd13ifvqd70","pricing_plan_id":"cebpf4jnsgd1na2vs0mg"},{"bike_id":"bebdaa6c-b80d-4b18-b414-c17c14bcb857","system_id":"levelo_inurba_marseille","lat":43.302008,"lon":5.394694,"is_reserved":false,"is_disabled":false,"rental_uris":{"android":"levelo://app?vid=bebdaa6c-b80d-4b18-b414-c17c14bcb857","ios":"levelo://app?vid=bebdaa6c-b80d-4b18-b414-c17c14bcb857"},"vehicle_type_id":"4","last_reported":1718816870,"current_range_meters":9200,"station_id":"ce4bh0p2rcd13ifvqd70","pricing_plan_id":"cebpf4jnsgd1na2vs0mg"},{"bike_id":"41286389-0381-428e-a292-1cdac3dbac7a","system_id":"levelo_inurba_marseille","lat":43.290624,"lon":5.359245,"is_reserved":false,"is_disabled":false,"rental_uris":{"android":"levelo://app?vid=41286389-0381-428e-a292-1cdac3dbac7a","ios":"levelo://app?vid=41286389-0381-428e-a292-1cdac3dbac7a"},"vehicle_type_id":"4","last_reported":1718816870,"current_range_meters":22000,"station_id":"ce4bha92rcd13ifvqeg0","pricing_plan_id":"cebpf4jnsgd1na2vs0mg"},{"bike_id":"f8b2b49b-6a67-48bf-be69-39811176f4bd","system_id":"levelo_inurba_marseille","lat":43.290631,"lon":5.359244,"is_reserved":false,"is_disabled":false,"rental_uris":{"android":"levelo://app?vid=f8b2b49b-6a67-48bf-be69-39811176f4bd","ios":"levelo://app?vid=f8b2b49b-6a67-48bf-be69-39811176f4bd"},"vehicle_type_id":"4","last_reported":1718816870,"current_range_meters":800,"station_id":"ce4bha92rcd13ifvqeg0","pricing_plan_id":"cebpf4jnsgd1na2vs0mg"},{"bike_id":"ff221131-1a53-4ee1-9482-1e749a6bfd3f","system_id":"levelo_inurba_marseille","lat":43.290624,"lon":5.359245,"is_reserved":false,"is_disabled":false,"rental_uris":{"android":"levelo://app?vid=ff221131-1a53-4ee1-9482-1e749a6bfd3f","ios":"levelo://app?vid=ff221131-1a53-4ee1-9482-1e749a6bfd3f"},"vehicle_type_id":"4","last_reported":1718816870,"current_range_meters":10800,"station_id":"ce4bha92rcd13ifvqeg0","pricing_plan_id":"cebpf4jnsgd1na2vs0mg"},{"bike_id":"a28acead-4ba9-4c99-9fec-c006270dacc8","system_id":"levelo_inurba_marseille","lat":43.29423,"lon":5.3862,"is_reserved":false,"is_disabled":false,"rental_uris":{"android":"levelo://app?vid=a28acead-4ba9-4c99-9fec-c006270dacc8","ios":"levelo://app?vid=a28acead-4ba9-4c99-9fec-c006270dacc8"},"vehicle_type_id":"4","last_reported":1718816870,"current_range_meters":3600,"station_id":"ce4bh2h2rcd13ifvqdh0","pricing_plan_id":"cebpf4jnsgd1na2vs0mg"},{"bike_id":"680b24f2-f3b9-4437-be32-cee8a25e86ed","system_id":"levelo_inurba_marseille","lat":43.29421,"lon":5.38618,"is_reserved":false,"is_disabled":false,"rental_uris":{"android":"levelo://app?vid=680b24f2-f3b9-4437-be32-cee8a25e86ed","ios":"levelo://app?vid=680b24f2-f3b9-4437-be32-cee8a25e86ed"},"vehicle_type_id":"4","last_reported":1718816870,"current_range_meters":11600,"station_id":"ce4bh2h2rcd13ifvqdh0","pricing_plan_id":"cebpf4jnsgd1na2vs0mg"},{"bike_id":"7dddc0ef-b062-4a73-a4ed-1d528bc7202a","system_id":"levelo_inurba_marseille","lat":43.29421,"lon":5.38619,"is_reserved":false,"is_disabled":false,"rental_uris":{"android":"levelo://app?vid=7dddc0ef-b062-4a73-a4ed-1d528bc7202a","ios":"levelo://app?vid=7dddc0ef-b062-4a73-a4ed-1d528bc7202a"},"vehicle_type_id":"4","last_reported":1718816870,"current_range_meters":17200,"station_id":"ce4bh2h2rcd13ifvqdh0","pricing_plan_id":"cebpf4jnsgd1na2vs0mg"},{"bike_id":"cea33c47-7c97-4a6f-ab51-6a157731c1f3","system_id":"levelo_inurba_marseille","lat":43.29418,"lon":5.38618,"is_reserved":false,"is_disabled":false,"rental_uris":{"android":"levelo://app?vid=cea33c47-7c97-4a6f-ab51-6a157731c1f3","ios":"levelo://app?vid=cea33c47-7c97-4a6f-ab51-6a157731c1f3"},"vehicle_type_id":"4","last_reported":1718816870,"current_range_meters":14400,"station_id":"ce4bh2h2rcd13ifvqdh0","pricing_plan_id":"cebpf4jnsgd1na2vs0mg"},{"bike_id":"2ad60282-eb6b-4270-801f-ce5292e42fa3","system_id":"levelo_inurba_marseille","lat":43.29421,"lon":5.38624,"is_reserved":false,"is_disabled":false,"rental_uris":{"android":"levelo://app?vid=2ad60282-eb6b-4270-801f-ce5292e42fa3","ios":"levelo://app?vid=2ad60282-eb6b-4270-801f-ce5292e42fa3"},"vehicle_type_id":"4","last_reported":1718816870,"current_range_meters":23200,"station_id":"ce4bh2h2rcd13ifvqdh0","pricing_plan_id":"cebpf4jnsgd1na2vs0mg"},{"bike_id":"ce81daac-e541-4a0c-8583-097055ca4060","system_id":"levelo_inurba_marseille","lat":43.289468,"lon":5.363719,"is_reserved":false,"is_disabled":false,"rental_uris":{"android":"levelo://app?vid=ce81daac-e541-4a0c-8583-097055ca4060","ios":"levelo://app?vid=ce81daac-e541-4a0c-8583-097055ca4060"},"vehicle_type_id":"4","last_reported":1718816870,"current_range_meters":7200,"station_id":"ce4bhc92rcd13ifvqetg","pricing_plan_id":"cebpf4jnsgd1na2vs0mg"},{"bike_id":"1a8189f6-626e-4833-abc0-db31724b5e90","system_id":"levelo_inurba_marseille","lat":43.29421,"lon":5.38626,"is_reserved":false,"is_disabled":false,"rental_uris":{"android":"levelo://app?vid=1a8189f6-626e-4833-abc0-db31724b5e90","ios":"levelo://app?vid=1a8189f6-626e-4833-abc0-db31724b5e90"},"vehicle_type_id":"4","last_reported":1718816870,"current_range_meters":20000,"station_id":"ce4bh2h2rcd13ifvqdh0","pricing_plan_id":"cebpf4jnsgd1na2vs0mg"},{"bike_id":"af39dbcc-5760-4613-ab3c-acbcd4d9ab9e","system_id":"levelo_inurba_marseille","lat":43.29421,"lon":5.38627,"is_reserved":false,"is_disabled":false,"rental_uris":{"android":"levelo://app?vid=af39dbcc-5760-4613-ab3c-acbcd4d9ab9e","ios":"levelo://app?vid=af39dbcc-5760-4613-ab3c-acbcd4d9ab9e"},"vehicle_type_id":"4","last_reported":1718816870,"current_range_meters":15600,"station_id":"ce4bh2h2rcd13ifvqdh0","pricing_plan_id":"cebpf4jnsgd1na2vs0mg"},{"bike_id":"08fbe263-3c24-467b-a1e4-b148b1a0cb23","system_id":"levelo_inurba_marseille","lat":43.289184,"lon":5.366408,"is_reserved":false,"is_disabled":false,"rental_uris":{"android":"levelo://app?vid=08fbe263-3c24-467b-a1e4-b148b1a0cb23","ios":"levelo://app?vid=08fbe263-3c24-467b-a1e4-b148b1a0cb23"},"vehicle_type_id":"4","last_reported":1718816870,"current_range_meters":16000,"station_id":"ce4bhap2rcd13ifvqek0","pricing_plan_id":"cebpf4jnsgd1na2vs0mg"},{"bike_id":"826d5529-cd39-4bdb-940f-a3d3e78bf05d","system_id":"levelo_inurba_marseille","lat":43.2942,"lon":5.38627,"is_reserved":false,"is_disabled":false,"rental_uris":{"android":"levelo://app?vid=826d5529-cd39-4bdb-940f-a3d3e78bf05d","ios":"levelo://app?vid=826d5529-cd39-4bdb-940f-a3d3e78bf05d"},"vehicle_type_id":"4","last_reported":1718816870,"current_range_meters":21600,"station_id":"ce4bh2h2rcd13ifvqdh0","pricing_plan_id":"cebpf4jnsgd1na2vs0mg"},{"bike_id":"491ecfe8-bbdd-41ed-a17d-5cf0b3086022","system_id":"levelo_inurba_marseille","lat":43.294162,"lon":5.386292,"is_reserved":false,"is_disabled":false,"rental_uris":{"android":"levelo://app?vid=491ecfe8-bbdd-41ed-a17d-5cf0b3086022","ios":"levelo://app?vid=491ecfe8-bbdd-41ed-a17d-5cf0b3086022"},"vehicle_type_id":"4","last_reported":1718816870,"current_range_meters":5600,"station_id":"ce4bh2h2rcd13ifvqdh0","pricing_plan_id":"cebpf4jnsgd1na2vs0mg"},{"bike_id":"4aafe5fe-68a2-4966-8dbf-63d2da2de2b5","system_id":"levelo_inurba_marseille","lat":43.29419,"lon":5.38628,"is_reserved":false,"is_disabled":false,"rental_uris":{"android":"levelo://app?vid=4aafe5fe-68a2-4966-8dbf-63d2da2de2b5","ios":"levelo://app?vid=4aafe5fe-68a2-4966-8dbf-63d2da2de2b5"},"vehicle_type_id":"4","last_reported":1718816870,"current_range_meters":8400,"station_id":"ce4bh2h2rcd13ifvqdh0","pricing_plan_id":"cebpf4jnsgd1na2vs0mg"},{"bike_id":"3239ff12-2faa-4e03-b4e6-0fe0e5c8530b","system_id":"levelo_inurba_marseille","lat":43.294081,"lon":5.386087,"is_reserved":false,"is_disabled":false,"rental_uris":{"android":"levelo://app?vid=3239ff12-2faa-4e03-b4e6-0fe0e5c8530b","ios":"levelo://app?vid=3239ff12-2faa-4e03-b4e6-0fe0e5c8530b"},"vehicle_type_id":"4","last_reported":1718816870,"current_range_meters":1600,"station_id":"ce4bh2h2rcd13ifvqdh0","pricing_plan_id":"cebpf4jnsgd1na2vs0mg"},{"bike_id":"c405bc05-84a8-4f28-90b0-f7fab6205915","system_id":"levelo_inurba_marseille","lat":43.29418,"lon":5.38627,"is_reserved":false,"is_disabled":false,"rental_uris":{"android":"levelo://app?vid=c405bc05-84a8-4f28-90b0-f7fab6205915","ios":"levelo://app?vid=c405bc05-84a8-4f28-90b0-f7fab6205915"},"vehicle_type_id":"4","last_reported":1718816870,"current_range_meters":24400,"station_id":"ce4bh2h2rcd13ifvqdh0","pricing_plan_id":"cebpf4jnsgd1na2vs0mg"},{"bike_id":"8c690089-a1b9-4f77-9940-f5676004e973","system_id":"levelo_inurba_marseille","lat":43.2942,"lon":5.38631,"is_reserved":false,"is_disabled":false,"rental_uris":{"android":"levelo://app?vid=8c690089-a1b9-4f77-9940-f5676004e973","ios":"levelo://app?vid=8c690089-a1b9-4f77-9940-f5676004e973"},"vehicle_type_id":"4","last_reported":1718816870,"current_range_meters":0,"station_id":"ce4bh2h2rcd13ifvqdh0","pricing_plan_id":"cebpf4jnsgd1na2vs0mg"},{"bike_id":"6d63883e-b84e-4c66-a311-7e1f04c5c828","system_id":"levelo_inurba_marseille","lat":43.2942,"lon":5.38631,"is_reserved":false,"is_disabled":false,"rental_uris":{"android":"levelo://app?vid=6d63883e-b84e-4c66-a311-7e1f04c5c828","ios":"levelo://app?vid=6d63883e-b84e-4c66-a311-7e1f04c5c828"},"vehicle_type_id":"4","last_reported":1718816870,"current_range_meters":5600,"station_id":"ce4bh2h2rcd13ifvqdh0","pricing_plan_id":"cebpf4jnsgd1na2vs0mg"},{"bike_id":"255b611d-8a24-4904-ba44-f9254d584f07","system_id":"levelo_inurba_marseille","lat":43.29417,"lon":5.38627,"is_reserved":false,"is_disabled":false,"rental_uris":{"android":"levelo://app?vid=255b611d-8a24-4904-ba44-f9254d584f07","ios":"levelo://app?vid=255b611d-8a24-4904-ba44-f9254d584f07"},"vehicle_type_id":"4","last_reported":1718816870,"current_range_meters":20800,"station_id":"ce4bh2h2rcd13ifvqdh0","pricing_plan_id":"cebpf4jnsgd1na2vs0mg"},{"bike_id":"ec97feef-248a-480b-ae3d-e352b6105eca","system_id":"levelo_inurba_marseille","lat":43.29415,"lon":5.38624,"is_reserved":false,"is_disabled":false,"rental_uris":{"android":"levelo://app?vid=ec97feef-248a-480b-ae3d-e352b6105eca","ios":"levelo://app?vid=ec97feef-248a-480b-ae3d-e352b6105eca"},"vehicle_type_id":"4","last_reported":1718816870,"current_range_meters":0,"station_id":"ce4bh2h2rcd13ifvqdh0","pricing_plan_id":"cebpf4jnsgd1na2vs0mg"},{"bike_id":"130f1c0d-f54c-4e2f-98cf-c05ae24c83f4","system_id":"levelo_inurba_marseille","lat":43.29418,"lon":5.38632,"is_reserved":false,"is_disabled":false,"rental_uris":{"android":"levelo://app?vid=130f1c0d-f54c-4e2f-98cf-c05ae24c83f4","ios":"levelo://app?vid=130f1c0d-f54c-4e2f-98cf-c05ae24c83f4"},"vehicle_type_id":"4","last_reported":1718816870,"current_range_meters":20800,"station_id":"ce4bh2h2rcd13ifvqdh0","pricing_plan_id":"cebpf4jnsgd1na2vs0mg"},{"bike_id":"7282daec-6782-49d4-93e8-7101222df9ea","system_id":"levelo_inurba_marseille","lat":43.29416,"lon":5.38629,"is_reserved":false,"is_disabled":false,"rental_uris":{"android":"levelo://app?vid=7282daec-6782-49d4-93e8-7101222df9ea","ios":"levelo://app?vid=7282daec-6782-49d4-93e8-7101222df9ea"},"vehicle_type_id":"4","last_reported":1718816870,"current_range_meters":24800,"station_id":"ce4bh2h2rcd13ifvqdh0","pricing_plan_id":"cebpf4jnsgd1na2vs0mg"},{"bike_id":"9ae05e21-0f18-42c0-94a0-6c670f011191","system_id":"levelo_inurba_marseille","lat":43.289184,"lon":5.366408,"is_reserved":false,"is_disabled":false,"rental_uris":{"android":"levelo://app?vid=9ae05e21-0f18-42c0-94a0-6c670f011191","ios":"levelo://app?vid=9ae05e21-0f18-42c0-94a0-6c670f011191"},"vehicle_type_id":"4","last_reported":1718816870,"current_range_meters":8800,"station_id":"ce4bhap2rcd13ifvqek0","pricing_plan_id":"cebpf4jnsgd1na2vs0mg"},{"bike_id":"46e01bd4-5ab9-42f5-ad94-2894a2c34a7c","system_id":"levelo_inurba_marseille","lat":43.294153,"lon":5.386305,"is_reserved":false,"is_disabled":false,"rental_uris":{"android":"levelo://app?vid=46e01bd4-5ab9-42f5-ad94-2894a2c34a7c","ios":"levelo://app?vid=46e01bd4-5ab9-42f5-ad94-2894a2c34a7c"},"vehicle_type_id":"4","last_reported":1718816870,"current_range_meters":30400,"station_id":"ce4bh2h2rcd13ifvqdh0","pricing_plan_id":"cebpf4jnsgd1na2vs0mg"},{"bike_id":"3478fd01-bb82-4b15-b5cf-bc41f32b8009","system_id":"levelo_inurba_marseille","lat":43.289184,"lon":5.366408,"is_reserved":false,"is_disabled":false,"rental_uris":{"android":"levelo://app?vid=3478fd01-bb82-4b15-b5cf-bc41f32b8009","ios":"levelo://app?vid=3478fd01-bb82-4b15-b5cf-bc41f32b8009"},"vehicle_type_id":"4","last_reported":1718816870,"current_range_meters":800,"station_id":"ce4bhap2rcd13ifvqek0","pricing_plan_id":"cebpf4jnsgd1na2vs0mg"},{"bike_id":"2d99ace4-9647-4ee0-9755-a5bd47c48487","system_id":"levelo_inurba_marseille","lat":43.294162,"lon":5.386292,"is_reserved":false,"is_disabled":false,"rental_uris":{"android":"levelo://app?vid=2d99ace4-9647-4ee0-9755-a5bd47c48487","ios":"levelo://app?vid=2d99ace4-9647-4ee0-9755-a5bd47c48487"},"vehicle_type_id":"4","last_reported":1718816870,"current_range_meters":400,"station_id":"ce4bh2h2rcd13ifvqdh0","pricing_plan_id":"cebpf4jnsgd1na2vs0mg"},{"bike_id":"f8323f6d-8fd1-4bc1-b7fa-a9092261197b","system_id":"levelo_inurba_marseille","lat":43.29411,"lon":5.3863,"is_reserved":false,"is_disabled":false,"rental_uris":{"android":"levelo://app?vid=f8323f6d-8fd1-4bc1-b7fa-a9092261197b","ios":"levelo://app?vid=f8323f6d-8fd1-4bc1-b7fa-a9092261197b"},"vehicle_type_id":"4","last_reported":1718816870,"current_range_meters":0,"station_id":"ce4bh2h2rcd13ifvqdh0","pricing_plan_id":"cebpf4jnsgd1na2vs0mg"},{"bike_id":"718ebdc7-eb96-4c6f-a999-ff460e10c173","system_id":"levelo_inurba_marseille","lat":43.289184,"lon":5.366408,"is_reserved":false,"is_disabled":false,"rental_uris":{"android":"levelo://app?vid=718ebdc7-eb96-4c6f-a999-ff460e10c173","ios":"levelo://app?vid=718ebdc7-eb96-4c6f-a999-ff460e10c173"},"vehicle_type_id":"4","last_reported":1718816870,"current_range_meters":22800,"station_id":"ce4bhap2rcd13ifvqek0","pricing_plan_id":"cebpf4jnsgd1na2vs0mg"},{"bike_id":"b8239ba3-f3e6-4af1-9237-724c05950c14","system_id":"levelo_inurba_marseille","lat":43.289184,"lon":5.366408,"is_reserved":false,"is_disabled":false,"rental_uris":{"android":"levelo://app?vid=b8239ba3-f3e6-4af1-9237-724c05950c14","ios":"levelo://app?vid=b8239ba3-f3e6-4af1-9237-724c05950c14"},"vehicle_type_id":"4","last_reported":1718816870,"current_range_meters":0,"station_id":"ce4bhap2rcd13ifvqek0","pricing_plan_id":"cebpf4jnsgd1na2vs0mg"},{"bike_id":"b35bc10b-3286-4cc0-a66f-7667f0e35315","system_id":"levelo_inurba_marseille","lat":43.289468,"lon":5.363719,"is_reserved":false,"is_disabled":false,"rental_uris":{"android":"levelo://app?vid=b35bc10b-3286-4cc0-a66f-7667f0e35315","ios":"levelo://app?vid=b35bc10b-3286-4cc0-a66f-7667f0e35315"},"vehicle_type_id":"4","last_reported":1718816870,"current_range_meters":16400,"station_id":"ce4bhc92rcd13ifvqetg","pricing_plan_id":"cebpf4jnsgd1na2vs0mg"},{"bike_id":"e7c24849-5b6c-4505-b35c-fa7b3e863810","system_id":"levelo_inurba_marseille","lat":43.290327,"lon":5.375711,"is_reserved":false,"is_disabled":false,"rental_uris":{"android":"levelo://app?vid=e7c24849-5b6c-4505-b35c-fa7b3e863810","ios":"levelo://app?vid=e7c24849-5b6c-4505-b35c-fa7b3e863810"},"vehicle_type_id":"4","last_reported":1718816870,"current_range_meters":9600,"station_id":"ce4bh692rcd13ifvqe90","pricing_plan_id":"cebpf4jnsgd1na2vs0mg"},{"bike_id":"6c4048a9-95fa-4f21-ae51-b6332489c429","system_id":"levelo_inurba_marseille","lat":43.29273,"lon":5.38438,"is_reserved":false,"is_disabled":false,"rental_uris":{"android":"levelo://app?vid=6c4048a9-95fa-4f21-ae51-b6332489c429","ios":"levelo://app?vid=6c4048a9-95fa-4f21-ae51-b6332489c429"},"vehicle_type_id":"4","last_reported":1718816870,"current_range_meters":2800,"station_id":"ce4bh692rcd13ifvqea0","pricing_plan_id":"cebpf4jnsgd1na2vs0mg"},{"bike_id":"34f2f781-dc6d-43ba-8c1f-71be8ec66e0e","system_id":"levelo_inurba_marseille","lat":43.292708,"lon":5.384373,"is_reserved":false,"is_disabled":false,"rental_uris":{"android":"levelo://app?vid=34f2f781-dc6d-43ba-8c1f-71be8ec66e0e","ios":"levelo://app?vid=34f2f781-dc6d-43ba-8c1f-71be8ec66e0e"},"vehicle_type_id":"4","last_reported":1718816870,"current_range_meters":2400,"station_id":"ce4bh692rcd13ifvqea0","pricing_plan_id":"cebpf4jnsgd1na2vs0mg"},{"bike_id":"6393fe2b-8c92-4eb1-ae57-c55adaab241c","system_id":"levelo_inurba_marseille","lat":43.29268,"lon":5.38438,"is_reserved":false,"is_disabled":false,"rental_uris":{"android":"levelo://app?vid=6393fe2b-8c92-4eb1-ae57-c55adaab241c","ios":"levelo://app?vid=6393fe2b-8c92-4eb1-ae57-c55adaab241c"},"vehicle_type_id":"4","last_reported":1718816870,"current_range_meters":2400,"station_id":"ce4bh692rcd13ifvqea0","pricing_plan_id":"cebpf4jnsgd1na2vs0mg"},{"bike_id":"738b829a-7a65-4ee4-82f6-0ced5ac3697c","system_id":"levelo_inurba_marseille","lat":43.304296,"lon":5.397513,"is_reserved":false,"is_disabled":false,"rental_uris":{"android":"levelo://app?vid=738b829a-7a65-4ee4-82f6-0ced5ac3697c","ios":"levelo://app?vid=738b829a-7a65-4ee4-82f6-0ced5ac3697c"},"vehicle_type_id":"4","last_reported":1718816870,"current_range_meters":0,"station_id":"ce4bh092rcd13ifvqd20","pricing_plan_id":"cebpf4jnsgd1na2vs0mg"},{"bike_id":"5958a210-6096-4846-bd90-452a3070ae59","system_id":"levelo_inurba_marseille","lat":43.2927,"lon":5.384455,"is_reserved":false,"is_disabled":false,"rental_uris":{"android":"levelo://app?vid=5958a210-6096-4846-bd90-452a3070ae59","ios":"levelo://app?vid=5958a210-6096-4846-bd90-452a3070ae59"},"vehicle_type_id":"4","last_reported":1718816870,"current_range_meters":0,"station_id":"ce4bh692rcd13ifvqea0","pricing_plan_id":"cebpf4jnsgd1na2vs0mg"},{"bike_id":"28e19169-53a4-4677-8e6e-2575410f7c3c","system_id":"levelo_inurba_marseille","lat":43.292633,"lon":5.384353,"is_reserved":false,"is_disabled":false,"rental_uris":{"android":"levelo://app?vid=28e19169-53a4-4677-8e6e-2575410f7c3c","ios":"levelo://app?vid=28e19169-53a4-4677-8e6e-2575410f7c3c"},"vehicle_type_id":"4","last_reported":1718816870,"current_range_meters":31200,"station_id":"ce4bh692rcd13ifvqea0","pricing_plan_id":"cebpf4jnsgd1na2vs0mg"},{"bike_id":"b47701c6-de59-43df-9114-4523c265c6a6","system_id":"levelo_inurba_marseille","lat":43.292661,"lon":5.384419,"is_reserved":false,"is_disabled":false,"rental_uris":{"android":"levelo://app?vid=b47701c6-de59-43df-9114-4523c265c6a6","ios":"levelo://app?vid=b47701c6-de59-43df-9114-4523c265c6a6"},"vehicle_type_id":"4","last_reported":1718816870,"current_range_meters":27600,"station_id":"ce4bh692rcd13ifvqea0","pricing_plan_id":"cebpf4jnsgd1na2vs0mg"},{"bike_id":"3e3ae141-d85d-4975-9f60-7b8355e57da5","system_id":"levelo_inurba_marseille","lat":43.29261,"lon":5.38431,"is_reserved":false,"is_disabled":false,"rental_uris":{"android":"levelo://app?vid=3e3ae141-d85d-4975-9f60-7b8355e57da5","ios":"levelo://app?vid=3e3ae141-d85d-4975-9f60-7b8355e57da5"},"vehicle_type_id":"4","last_reported":1718816870,"current_range_meters":22000,"station_id":"ce4bh692rcd13ifvqea0","pricing_plan_id":"cebpf4jnsgd1na2vs0mg"},{"bike_id":"599b16e6-dc76-4fb1-8fcb-7f8f815c857f","system_id":"levelo_inurba_marseille","lat":43.29266,"lon":5.38442,"is_reserved":false,"is_disabled":false,"rental_uris":{"android":"levelo://app?vid=599b16e6-dc76-4fb1-8fcb-7f8f815c857f","ios":"levelo://app?vid=599b16e6-dc76-4fb1-8fcb-7f8f815c857f"},"vehicle_type_id":"4","last_reported":1718816870,"current_range_meters":5600,"station_id":"ce4bh692rcd13ifvqea0","pricing_plan_id":"cebpf4jnsgd1na2vs0mg"},{"bike_id":"686ee6e3-0fd1-4f50-a667-d740265f5bb7","system_id":"levelo_inurba_marseille","lat":43.292642,"lon":5.384254,"is_reserved":false,"is_disabled":false,"rental_uris":{"android":"levelo://app?vid=686ee6e3-0fd1-4f50-a667-d740265f5bb7","ios":"levelo://app?vid=686ee6e3-0fd1-4f50-a667-d740265f5bb7"},"vehicle_type_id":"4","last_reported":1718816870,"current_range_meters":28400,"station_id":"ce4bh692rcd13ifvqea0","pricing_plan_id":"cebpf4jnsgd1na2vs0mg"},{"bike_id":"0e26df57-a97e-4559-b7f7-5329fb8fc699","system_id":"levelo_inurba_marseille","lat":43.29265,"lon":5.38442,"is_reserved":false,"is_disabled":false,"rental_uris":{"android":"levelo://app?vid=0e26df57-a97e-4559-b7f7-5329fb8fc699","ios":"levelo://app?vid=0e26df57-a97e-4559-b7f7-5329fb8fc699"},"vehicle_type_id":"4","last_reported":1718816870,"current_range_meters":20400,"station_id":"ce4bh692rcd13ifvqea0","pricing_plan_id":"cebpf4jnsgd1na2vs0mg"},{"bike_id":"d49b6da3-2572-4d48-9200-b4b07167e450","system_id":"levelo_inurba_marseille","lat":43.29264,"lon":5.38441,"is_reserved":false,"is_disabled":false,"rental_uris":{"android":"levelo://app?vid=d49b6da3-2572-4d48-9200-b4b07167e450","ios":"levelo://app?vid=d49b6da3-2572-4d48-9200-b4b07167e450"},"vehicle_type_id":"4","last_reported":1718816870,"current_range_meters":16400,"station_id":"ce4bh692rcd13ifvqea0","pricing_plan_id":"cebpf4jnsgd1na2vs0mg"},{"bike_id":"17ddaed6-6fc1-4080-893b-4002f055d493","system_id":"levelo_inurba_marseille","lat":43.292642,"lon":5.384254,"is_reserved":false,"is_disabled":false,"rental_uris":{"android":"levelo://app?vid=17ddaed6-6fc1-4080-893b-4002f055d493","ios":"levelo://app?vid=17ddaed6-6fc1-4080-893b-4002f055d493"},"vehicle_type_id":"4","last_reported":1718816870,"current_range_meters":24400,"station_id":"ce4bh692rcd13ifvqea0","pricing_plan_id":"cebpf4jnsgd1na2vs0mg"},{"bike_id":"b179bb44-e13f-4966-98cd-1cd6549d5880","system_id":"levelo_inurba_marseille","lat":43.292617,"lon":5.384437,"is_reserved":false,"is_disabled":false,"rental_uris":{"android":"levelo://app?vid=b179bb44-e13f-4966-98cd-1cd6549d5880","ios":"levelo://app?vid=b179bb44-e13f-4966-98cd-1cd6549d5880"},"vehicle_type_id":"4","last_reported":1718816870,"current_range_meters":23200,"station_id":"ce4bh692rcd13ifvqea0","pricing_plan_id":"cebpf4jnsgd1na2vs0mg"},{"bike_id":"24af7830-f27c-4ed5-b164-280d8f455487","system_id":"levelo_inurba_marseille","lat":43.29262,"lon":5.38445,"is_reserved":false,"is_disabled":false,"rental_uris":{"android":"levelo://app?vid=24af7830-f27c-4ed5-b164-280d8f455487","ios":"levelo://app?vid=24af7830-f27c-4ed5-b164-280d8f455487"},"vehicle_type_id":"4","last_reported":1718816870,"current_range_meters":7200,"station_id":"ce4bh692rcd13ifvqea0","pricing_plan_id":"cebpf4jnsgd1na2vs0mg"},{"bike_id":"80ffb538-9a68-437d-bad5-a8a3269dd8b0","system_id":"levelo_inurba_marseille","lat":43.29254,"lon":5.38442,"is_reserved":false,"is_disabled":false,"rental_uris":{"android":"levelo://app?vid=80ffb538-9a68-437d-bad5-a8a3269dd8b0","ios":"levelo://app?vid=80ffb538-9a68-437d-bad5-a8a3269dd8b0"},"vehicle_type_id":"4","last_reported":1718816870,"current_range_meters":15600,"station_id":"ce4bh692rcd13ifvqea0","pricing_plan_id":"cebpf4jnsgd1na2vs0mg"},{"bike_id":"d4e6a94d-5a87-48b4-9165-d88b8f80b303","system_id":"levelo_inurba_marseille","lat":43.290103,"lon":5.356114,"is_reserved":false,"is_disabled":false,"rental_uris":{"android":"levelo://app?vid=d4e6a94d-5a87-48b4-9165-d88b8f80b303","ios":"levelo://app?vid=d4e6a94d-5a87-48b4-9165-d88b8f80b303"},"vehicle_type_id":"4","last_reported":1718816870,"current_range_meters":8400,"station_id":"ce4bhb92rcd13ifvqen0","pricing_plan_id":"cebpf4jnsgd1na2vs0mg"},{"bike_id":"24f5f0b3-6d47-4bd6-9e91-a6cf87da53cf","system_id":"levelo_inurba_marseille","lat":43.290104,"lon":5.356111,"is_reserved":false,"is_disabled":false,"rental_uris":{"android":"levelo://app?vid=24f5f0b3-6d47-4bd6-9e91-a6cf87da53cf","ios":"levelo://app?vid=24f5f0b3-6d47-4bd6-9e91-a6cf87da53cf"},"vehicle_type_id":"4","last_reported":1718816870,"current_range_meters":0,"station_id":"ce4bhb92rcd13ifvqen0","pricing_plan_id":"cebpf4jnsgd1na2vs0mg"},{"bike_id":"e29a09b8-070e-482d-839e-f1a993064cdc","system_id":"levelo_inurba_marseille","lat":43.290104,"lon":5.356111,"is_reserved":false,"is_disabled":false,"rental_uris":{"android":"levelo://app?vid=e29a09b8-070e-482d-839e-f1a993064cdc","ios":"levelo://app?vid=e29a09b8-070e-482d-839e-f1a993064cdc"},"vehicle_type_id":"4","last_reported":1718816870,"current_range_meters":10400,"station_id":"ce4bhb92rcd13ifvqen0","pricing_plan_id":"cebpf4jnsgd1na2vs0mg"},{"bike_id":"2e00428a-479c-4d20-9d29-6ace8daa0419","system_id":"levelo_inurba_marseille","lat":43.28956,"lon":5.37578,"is_reserved":false,"is_disabled":false,"rental_uris":{"android":"levelo://app?vid=2e00428a-479c-4d20-9d29-6ace8daa0419","ios":"levelo://app?vid=2e00428a-479c-4d20-9d29-6ace8daa0419"},"vehicle_type_id":"4","last_reported":1718816870,"current_range_meters":18000,"station_id":"","pricing_plan_id":"cebpf4jnsgd1na2vs0mg"},{"bike_id":"25cd2678-9526-42a8-90e8-1eaee04f38b3","system_id":"levelo_inurba_marseille","lat":43.290995,"lon":5.381361,"is_reserved":false,"is_disabled":false,"rental_uris":{"android":"levelo://app?vid=25cd2678-9526-42a8-90e8-1eaee04f38b3","ios":"levelo://app?vid=25cd2678-9526-42a8-90e8-1eaee04f38b3"},"vehicle_type_id":"4","last_reported":1718816870,"current_range_meters":26000,"station_id":"ce4bh512rcd13ifvqe2g","pricing_plan_id":"cebpf4jnsgd1na2vs0mg"},{"bike_id":"88d412b1-cd8d-49f2-9c1f-0662bae8ff40","system_id":"levelo_inurba_marseille","lat":43.330442,"lon":5.389148,"is_reserved":false,"is_disabled":false,"rental_uris":{"android":"levelo://app?vid=88d412b1-cd8d-49f2-9c1f-0662bae8ff40","ios":"levelo://app?vid=88d412b1-cd8d-49f2-9c1f-0662bae8ff40"},"vehicle_type_id":"4","last_reported":1718816870,"current_range_meters":7600,"station_id":"ce4bhr92rcd13ifvqhrg","pricing_plan_id":"cebpf4jnsgd1na2vs0mg"},{"bike_id":"cd7afb5b-64ec-45d4-ba2a-6488cfea2726","system_id":"levelo_inurba_marseille","lat":43.295169,"lon":5.390426,"is_reserved":false,"is_disabled":false,"rental_uris":{"android":"levelo://app?vid=cd7afb5b-64ec-45d4-ba2a-6488cfea2726","ios":"levelo://app?vid=cd7afb5b-64ec-45d4-ba2a-6488cfea2726"},"vehicle_type_id":"4","last_reported":1718816870,"current_range_meters":4400,"station_id":"ce4bh3p2rcd13ifvqdp0","pricing_plan_id":"cebpf4jnsgd1na2vs0mg"},{"bike_id":"36c3d32f-d771-483f-88a4-fbcaec5320fc","system_id":"levelo_inurba_marseille","lat":43.295169,"lon":5.390426,"is_reserved":false,"is_disabled":false,"rental_uris":{"android":"levelo://app?vid=36c3d32f-d771-483f-88a4-fbcaec5320fc","ios":"levelo://app?vid=36c3d32f-d771-483f-88a4-fbcaec5320fc"},"vehicle_type_id":"4","last_reported":1718816870,"current_range_meters":14000,"station_id":"ce4bh3p2rcd13ifvqdp0","pricing_plan_id":"cebpf4jnsgd1na2vs0mg"},{"bike_id":"bbe483d8-b80f-456a-9714-88def33b0130","system_id":"levelo_inurba_marseille","lat":43.295169,"lon":5.390426,"is_reserved":false,"is_disabled":false,"rental_uris":{"android":"levelo://app?vid=bbe483d8-b80f-456a-9714-88def33b0130","ios":"levelo://app?vid=bbe483d8-b80f-456a-9714-88def33b0130"},"vehicle_type_id":"4","last_reported":1718816870,"current_range_meters":1600,"station_id":"ce4bh3p2rcd13ifvqdp0","pricing_plan_id":"cebpf4jnsgd1na2vs0mg"},{"bike_id":"6c666cef-cd17-4444-bf98-34b96e7c8b76","system_id":"levelo_inurba_marseille","lat":43.297815,"lon":5.393548,"is_reserved":false,"is_disabled":false,"rental_uris":{"android":"levelo://app?vid=6c666cef-cd17-4444-bf98-34b96e7c8b76","ios":"levelo://app?vid=6c666cef-cd17-4444-bf98-34b96e7c8b76"},"vehicle_type_id":"4","last_reported":1718816870,"current_range_meters":20000,"station_id":"chh1huq6cuj3fo74tm60","pricing_plan_id":"cebpf4jnsgd1na2vs0mg"},{"bike_id":"40b5c357-1293-43af-9d53-209fa7f7d77a","system_id":"levelo_inurba_marseille","lat":43.330442,"lon":5.389148,"is_reserved":false,"is_disabled":false,"rental_uris":{"android":"levelo://app?vid=40b5c357-1293-43af-9d53-209fa7f7d77a","ios":"levelo://app?vid=40b5c357-1293-43af-9d53-209fa7f7d77a"},"vehicle_type_id":"4","last_reported":1718816870,"current_range_meters":10800,"station_id":"ce4bhr92rcd13ifvqhrg","pricing_plan_id":"cebpf4jnsgd1na2vs0mg"},{"bike_id":"a20caf9f-a2c1-47f2-a6e2-c2eaf524f52f","system_id":"levelo_inurba_marseille","lat":43.330442,"lon":5.389148,"is_reserved":false,"is_disabled":false,"rental_uris":{"android":"levelo://app?vid=a20caf9f-a2c1-47f2-a6e2-c2eaf524f52f","ios":"levelo://app?vid=a20caf9f-a2c1-47f2-a6e2-c2eaf524f52f"},"vehicle_type_id":"4","last_reported":1718816870,"current_range_meters":7200,"station_id":"ce4bhr92rcd13ifvqhrg","pricing_plan_id":"cebpf4jnsgd1na2vs0mg"},{"bike_id":"3fef581d-e60c-4c92-b336-a0131e3c087a","system_id":"levelo_inurba_marseille","lat":43.330442,"lon":5.389148,"is_reserved":false,"is_disabled":false,"rental_uris":{"android":"levelo://app?vid=3fef581d-e60c-4c92-b336-a0131e3c087a","ios":"levelo://app?vid=3fef581d-e60c-4c92-b336-a0131e3c087a"},"vehicle_type_id":"4","last_reported":1718816870,"current_range_meters":28000,"station_id":"ce4bhr92rcd13ifvqhrg","pricing_plan_id":"cebpf4jnsgd1na2vs0mg"},{"bike_id":"1dec29a7-f540-45ca-9785-497b07fc6a23","system_id":"levelo_inurba_marseille","lat":43.33023,"lon":5.3904,"is_reserved":false,"is_disabled":false,"rental_uris":{"android":"levelo://app?vid=1dec29a7-f540-45ca-9785-497b07fc6a23","ios":"levelo://app?vid=1dec29a7-f540-45ca-9785-497b07fc6a23"},"vehicle_type_id":"4","last_reported":1718816870,"current_range_meters":13600,"station_id":"ce4bhr92rcd13ifvqhrg","pricing_plan_id":"cebpf4jnsgd1na2vs0mg"},{"bike_id":"66f4cecd-e6f8-46c9-97be-286c0b1ff854","system_id":"levelo_inurba_marseille","lat":43.330442,"lon":5.389148,"is_reserved":false,"is_disabled":false,"rental_uris":{"android":"levelo://app?vid=66f4cecd-e6f8-46c9-97be-286c0b1ff854","ios":"levelo://app?vid=66f4cecd-e6f8-46c9-97be-286c0b1ff854"},"vehicle_type_id":"4","last_reported":1718816870,"current_range_meters":0,"station_id":"ce4bhr92rcd13ifvqhrg","pricing_plan_id":"cebpf4jnsgd1na2vs0mg"},{"bike_id":"ed04d622-8337-4550-bc5f-4c126703962d","system_id":"levelo_inurba_marseille","lat":43.330237,"lon":5.39042,"is_reserved":false,"is_disabled":false,"rental_uris":{"android":"levelo://app?vid=ed04d622-8337-4550-bc5f-4c126703962d","ios":"levelo://app?vid=ed04d622-8337-4550-bc5f-4c126703962d"},"vehicle_type_id":"4","last_reported":1718816870,"current_range_meters":18800,"station_id":"ce4bhr92rcd13ifvqhrg","pricing_plan_id":"cebpf4jnsgd1na2vs0mg"},{"bike_id":"09a0cea8-2698-4a75-9c11-1ba222dbd0a1","system_id":"levelo_inurba_marseille","lat":43.289741,"lon":5.378306,"is_reserved":false,"is_disabled":false,"rental_uris":{"android":"levelo://app?vid=09a0cea8-2698-4a75-9c11-1ba222dbd0a1","ios":"levelo://app?vid=09a0cea8-2698-4a75-9c11-1ba222dbd0a1"},"vehicle_type_id":"4","last_reported":1718816870,"current_range_meters":15200,"station_id":"ce4bh9p2rcd13ifvqed0","pricing_plan_id":"cebpf4jnsgd1na2vs0mg"},{"bike_id":"63e2a3eb-3bb2-4c9b-bb06-6bcdeae4ede7","system_id":"levelo_inurba_marseille","lat":43.295169,"lon":5.390426,"is_reserved":false,"is_disabled":false,"rental_uris":{"android":"levelo://app?vid=63e2a3eb-3bb2-4c9b-bb06-6bcdeae4ede7","ios":"levelo://app?vid=63e2a3eb-3bb2-4c9b-bb06-6bcdeae4ede7"},"vehicle_type_id":"4","last_reported":1718816870,"current_range_meters":8400,"station_id":"ce4bh3p2rcd13ifvqdp0","pricing_plan_id":"cebpf4jnsgd1na2vs0mg"},{"bike_id":"bfc6d4d6-ec5c-4108-bc24-4499379e3cb0","system_id":"levelo_inurba_marseille","lat":43.295169,"lon":5.390426,"is_reserved":false,"is_disabled":false,"rental_uris":{"android":"levelo://app?vid=bfc6d4d6-ec5c-4108-bc24-4499379e3cb0","ios":"levelo://app?vid=bfc6d4d6-ec5c-4108-bc24-4499379e3cb0"},"vehicle_type_id":"4","last_reported":1718816870,"current_range_meters":8400,"station_id":"ce4bh3p2rcd13ifvqdp0","pricing_plan_id":"cebpf4jnsgd1na2vs0mg"},{"bike_id":"5c02af28-6135-4642-9b63-c44f6279730f","system_id":"levelo_inurba_marseille","lat":43.295169,"lon":5.390426,"is_reserved":false,"is_disabled":false,"rental_uris":{"android":"levelo://app?vid=5c02af28-6135-4642-9b63-c44f6279730f","ios":"levelo://app?vid=5c02af28-6135-4642-9b63-c44f6279730f"},"vehicle_type_id":"4","last_reported":1718816870,"current_range_meters":16800,"station_id":"ce4bh3p2rcd13ifvqdp0","pricing_plan_id":"cebpf4jnsgd1na2vs0mg"},{"bike_id":"d5e0db58-38f9-494a-b1e6-9c8564a2e1ba","system_id":"levelo_inurba_marseille","lat":43.33024,"lon":5.39046,"is_reserved":false,"is_disabled":false,"rental_uris":{"android":"levelo://app?vid=d5e0db58-38f9-494a-b1e6-9c8564a2e1ba","ios":"levelo://app?vid=d5e0db58-38f9-494a-b1e6-9c8564a2e1ba"},"vehicle_type_id":"4","last_reported":1718816870,"current_range_meters":7200,"station_id":"ce4bhr92rcd13ifvqhrg","pricing_plan_id":"cebpf4jnsgd1na2vs0mg"},{"bike_id":"914064e5-4537-4e12-9256-43f17025d16d","system_id":"levelo_inurba_marseille","lat":43.295169,"lon":5.390426,"is_reserved":false,"is_disabled":false,"rental_uris":{"android":"levelo://app?vid=914064e5-4537-4e12-9256-43f17025d16d","ios":"levelo://app?vid=914064e5-4537-4e12-9256-43f17025d16d"},"vehicle_type_id":"4","last_reported":1718816870,"current_range_meters":8800,"station_id":"ce4bh3p2rcd13ifvqdp0","pricing_plan_id":"cebpf4jnsgd1na2vs0mg"},{"bike_id":"8df48172-beff-4f6d-8417-ff661cdf6967","system_id":"levelo_inurba_marseille","lat":43.330442,"lon":5.389148,"is_reserved":false,"is_disabled":false,"rental_uris":{"android":"levelo://app?vid=8df48172-beff-4f6d-8417-ff661cdf6967","ios":"levelo://app?vid=8df48172-beff-4f6d-8417-ff661cdf6967"},"vehicle_type_id":"4","last_reported":1718816870,"current_range_meters":2800,"station_id":"ce4bhr92rcd13ifvqhrg","pricing_plan_id":"cebpf4jnsgd1na2vs0mg"},{"bike_id":"e88df406-bfd4-4097-bf6c-02091a1b3f28","system_id":"levelo_inurba_marseille","lat":43.330442,"lon":5.389148,"is_reserved":false,"is_disabled":false,"rental_uris":{"android":"levelo://app?vid=e88df406-bfd4-4097-bf6c-02091a1b3f28","ios":"levelo://app?vid=e88df406-bfd4-4097-bf6c-02091a1b3f28"},"vehicle_type_id":"4","last_reported":1718816870,"current_range_meters":16800,"station_id":"ce4bhr92rcd13ifvqhrg","pricing_plan_id":"cebpf4jnsgd1na2vs0mg"},{"bike_id":"bc867983-ec72-41e4-9398-88866aaf331c","system_id":"levelo_inurba_marseille","lat":43.33024,"lon":5.39051,"is_reserved":false,"is_disabled":false,"rental_uris":{"android":"levelo://app?vid=bc867983-ec72-41e4-9398-88866aaf331c","ios":"levelo://app?vid=bc867983-ec72-41e4-9398-88866aaf331c"},"vehicle_type_id":"4","last_reported":1718816870,"current_range_meters":22000,"station_id":"ce4bhr92rcd13ifvqhrg","pricing_plan_id":"cebpf4jnsgd1na2vs0mg"},{"bike_id":"b68dfbb6-ff19-4a15-80b1-f0b7afc5ae51","system_id":"levelo_inurba_marseille","lat":43.295169,"lon":5.390426,"is_reserved":false,"is_disabled":false,"rental_uris":{"android":"levelo://app?vid=b68dfbb6-ff19-4a15-80b1-f0b7afc5ae51","ios":"levelo://app?vid=b68dfbb6-ff19-4a15-80b1-f0b7afc5ae51"},"vehicle_type_id":"4","last_reported":1718816870,"current_range_meters":17600,"station_id":"ce4bh3p2rcd13ifvqdp0","pricing_plan_id":"cebpf4jnsgd1na2vs0mg"},{"bike_id":"5ec8085d-d135-45a0-97e1-7b222cc3c399","system_id":"levelo_inurba_marseille","lat":43.2901,"lon":5.381269,"is_reserved":false,"is_disabled":false,"rental_uris":{"android":"levelo://app?vid=5ec8085d-d135-45a0-97e1-7b222cc3c399","ios":"levelo://app?vid=5ec8085d-d135-45a0-97e1-7b222cc3c399"},"vehicle_type_id":"4","last_reported":1718816870,"current_range_meters":0,"station_id":"ce4bh4p2rcd13ifvqe1g","pricing_plan_id":"cebpf4jnsgd1na2vs0mg"},{"bike_id":"cafd57f5-9fdc-42d8-bcbb-509fa6170c75","system_id":"levelo_inurba_marseille","lat":43.28856,"lon":5.358371,"is_reserved":false,"is_disabled":false,"rental_uris":{"android":"levelo://app?vid=cafd57f5-9fdc-42d8-bcbb-509fa6170c75","ios":"levelo://app?vid=cafd57f5-9fdc-42d8-bcbb-509fa6170c75"},"vehicle_type_id":"4","last_reported":1718816870,"current_range_meters":29200,"station_id":"ce4bhb12rcd13ifvqem0","pricing_plan_id":"cebpf4jnsgd1na2vs0mg"},{"bike_id":"c8977de4-d274-4452-bd43-ef95a4178b6b","system_id":"levelo_inurba_marseille","lat":43.28856,"lon":5.358371,"is_reserved":false,"is_disabled":false,"rental_uris":{"android":"levelo://app?vid=c8977de4-d274-4452-bd43-ef95a4178b6b","ios":"levelo://app?vid=c8977de4-d274-4452-bd43-ef95a4178b6b"},"vehicle_type_id":"4","last_reported":1718816870,"current_range_meters":28000,"station_id":"ce4bhb12rcd13ifvqem0","pricing_plan_id":"cebpf4jnsgd1na2vs0mg"},