{"last_updated":1734005984,"ttl":60,"version":"2.2","data":{"bikes":[{"bike_id":"f273d2db-9d28-4c2f-99d9-9f030249d630","system_id":"levelo_inurba_marseille","lat":43.24089,"lon":5.37747,"is_reserved":false,"is_disabled":false,"rental_uris":{"android":"levelo://app?vid=f273d2db-9d28-4c2f-99d9-9f030249d630","ios":"levelo://app?vid=f273d2db-9d28-4c2f-99d9-9f030249d630"},"vehicle_type_id":"4","last_reported":1734005984,"current_range_meters":28400,"station_id":"ce4bhnp2rcd13ifvqgvg","pricing_plan_id":"cebpf4jnsgd1na2vs0mg"},{"bike_id":"1f447326-1135-42f9-8e10-d34b7c59e3cb","system_id":"levelo_inurba_marseille","lat":43.29283,"lon":5.40122,"is_reserved":false,"is_disabled":false,"rental_uris":{"android":"levelo://app?vid=1f447326-1135-42f9-8e10-d34b7c59e3cb","ios":"levelo://app?vid=1f447326-1135-42f9-8e10-d34b7c59e3cb"},"vehicle_type_id":"4","last_reported":1734005984,"current_range_meters":30800,"station_id":"ce4bh312rcd13ifvqdk0","pricing_plan_id":"cebpf4jnsgd1na2vs0mg"},{"bike_id":"60e9ed68-c2d5-4fcc-b1fe-df98992a2ea5","system_id":"levelo_inurba_marseille","lat":43.30764,"lon":5.36837,"is_reserved":false,"is_disabled":true,"rental_uris":{"android":"levelo://app?vid=60e9ed68-c2d5-4fcc-b1fe-df98992a2ea5","ios":"levelo://app?vid=60e9ed68-c2d5-4fcc-b1fe-df98992a2ea5"},"vehicle_type_id":"4","last_reported":1734005984,"current_range_meters":0,"station_id":"","pricing_plan_id":"cebpf4jnsgd1na2vs0mg"},{"bike_id":"70264841-f3db-4034-846f-0a3a10327c9a","system_id":"levelo_inurba_marseille","lat":43.25567,"lon":5.38253,"is_reserved":false,"is_disabled":false,"rental_uris":{"android":"levelo://app?vid=70264841-f3db-4034-846f-0a3a10327c9a","ios":"levelo://app?vid=70264841-f3db-4034-846f-0a3a10327c9a"},"vehicle_type_id":"4","last_reported":1734005984,"current_range_meters":17600,"station_id":"ce4bhih2rcd13ifvqfs0","pricing_plan_id":"cebpf4jnsgd1na2vs0mg"},{"bike_id":"b266efff-3a14-4d1a-a25a-c68ad062a1f4","system_id":"levelo_inurba_marseille","lat":43.24159,"lon":5.36407,"is_reserved":false,"is_disabled":false,"rental_uris":{"android":"levelo://app?vid=b266efff-3a14-4d1a-a25a-c68ad062a1f4","ios":"levelo://app?vid=b266efff-3a14-4d1a-a25a-c68ad062a1f4"},"vehicle_type_id":"4","last_reported":1734005984,"current_range_meters":38800,"station_id":"cpo36qri1sfpv3e86is0","pricing_plan_id":"cebpf4jnsgd1na2vs0mg"},{"bike_id":"f2676ae1-aa79-4ab9-8ade-6a25f90c5540","system_id":"levelo_inurba_marseille","lat":43.25923,"lon":5.40901,"is_reserved":false,"is_disabled":false,"rental_uris":{"android":"levelo://app?vid=f2676ae1-aa79-4ab9-8ade-6a25f90c5540","ios":"levelo://app?vid=f2676ae1-aa79-4ab9-8ade-6a25f90c5540"},"vehicle_type_id":"4","last_reported":1734005984,"current_range_meters":29600,"station_id":"ce4bhm92rcd13ifvqglg","pricing_plan_id":"cebpf4jnsgd1na2vs0mg"},{"bike_id":"b75af21f-3c09-4486-984e-52ca484c2926","system_id":"levelo_inurba_marseille","lat":43.31892,"lon":5.40747,"is_reserved":false,"is_disabled":false,"rental_uris":{"android":"levelo://app?vid=b75af21f-3c09-4486-984e-52ca484c2926","ios":"levelo://app?vid=b75af21f-3c09-4486-984e-52ca484c2926"},"vehicle_type_id":"4","last_reported":1734005984,"current_range_meters":24000,"station_id":"ce4bhq12rcd13ifvqhig","pricing_plan_id":"cebpf4jnsgd1na2vs0mg"},{"bike_id":"17f34c20-e69f-48fc-b14f-195e9256d1dd","system_id":"levelo_inurba_marseille","lat":43.32532,"lon":5.4143,"is_reserved":false,"is_disabled":false,"rental_uris":{"android":"levelo://app?vid=17f34c20-e69f-48fc-b14f-195e9256d1dd","ios":"levelo://app?vid=17f34c20-e69f-48fc-b14f-195e9256d1dd"},"vehicle_type_id":"4","last_reported":1734005984,"current_range_meters":6800,"station_id":"ce4bhq12rcd13ifvqhhg","pricing_plan_id":"cebpf4jnsgd1na2vs0mg"},{"bike_id":"fb886c68-9c54-4ccd-b964-6489edb35b3a","system_id":"levelo_inurba_marseille","lat":43.269361,"lon":5.389199,"is_reserved":false,"is_disabled":true,"rental_uris":{"android":"levelo://app?vid=fb886c68-9c54-4ccd-b964-6489edb35b3a","ios":"levelo://app?vid=fb886c68-9c54-4ccd-b964-6489edb35b3a"},"vehicle_type_id":"4","last_reported":1734005984,"current_range_meters":37600,"station_id":"ce4bhhh2rcd13ifvqfl0","pricing_plan_id":"cebpf4jnsgd1na2vs0mg"},{"bike_id":"1da207b2-3431-47df-a825-11869321b4f5","system_id":"levelo_inurba_marseille","lat":43.28265,"lon":5.35068,"is_reserved":false,"is_disabled":true,"rental_uris":{"android":"levelo://app?vid=1da207b2-3431-47df-a825-11869321b4f5","ios":"levelo://app?vid=1da207b2-3431-47df-a825-11869321b4f5"},"vehicle_type_id":"4","last_reported":1734005984,"current_range_meters":0,"station_id":"ce4bhbp2rcd13ifvqerg","pricing_plan_id":"cebpf4jnsgd1na2vs0mg"},{"bike_id":"980f96eb-32c9-4906-98f6-c44dbf4c84a1","system_id":"levelo_inurba_marseille","lat":43.27455,"lon":5.40073,"is_reserved":false,"is_disabled":true,"rental_uris":{"android":"levelo://app?vid=980f96eb-32c9-4906-98f6-c44dbf4c84a1","ios":"levelo://app?vid=980f96eb-32c9-4906-98f6-c44dbf4c84a1"},"vehicle_type_id":"4","last_reported":1734005984,"current_range_meters":0,"station_id":"","pricing_plan_id":"cebpf4jnsgd1na2vs0mg"},{"bike_id":"5ac37a9e-accd-4d87-a4a3-14f67f095335","system_id":"levelo_inurba_marseille","lat":43.30535,"lon":5.36553,"is_reserved":false,"is_disabled":false,"rental_uris":{"android":"levelo://app?vid=5ac37a9e-accd-4d87-a4a3-14f67f095335","ios":"levelo://app?vid=5ac37a9e-accd-4d87-a4a3-14f67f095335"},"vehicle_type_id":"4","last_reported":1734005984,"current_range_meters":33600,"station_id":"ce4bgs12rcd13ifvqcag","pricing_plan_id":"cebpf4jnsgd1na2vs0mg"},{"bike_id":"7a362e7c-a7d7-4a33-862d-f20cd6faf41f","system_id":"levelo_inurba_marseille","lat":43.30183,"lon":5.3662,"is_reserved":false,"is_disabled":true,"rental_uris":{"android":"levelo://app?vid=7a362e7c-a7d7-4a33-862d-f20cd6faf41f","ios":"levelo://app?vid=7a362e7c-a7d7-4a33-862d-f20cd6faf41f"},"vehicle_type_id":"4","last_reported":1734005984,"current_range_meters":34000,"station_id":"ce4bgrh2rcd13ifvqc8g","pricing_plan_id":"cebpf4jnsgd1na2vs0mg"},{"bike_id":"2fb8d1b7-b730-4c50-85f7-4def75edd452","system_id":"levelo_inurba_marseille","lat":43.27887,"lon":5.38015,"is_reserved":false,"is_disabled":false,"rental_uris":{"android":"levelo://app?vid=2fb8d1b7-b730-4c50-85f7-4def75edd452","ios":"levelo://app?vid=2fb8d1b7-b730-4c50-85f7-4def75edd452"},"vehicle_type_id":"4","last_reported":1734005984,"current_range_meters":36400,"station_id":"ce4bhf92rcd13ifvqf50","pricing_plan_id":"cebpf4jnsgd1na2vs0mg"},{"bike_id":"f56f775f-cf0b-4fa7-89c8-7866ea7d4828","system_id":"levelo_inurba_marseille","lat":43.29609,"lon":5.3772,"is_reserved":false,"is_disabled":false,"rental_uris":{"android":"levelo://app?vid=f56f775f-cf0b-4fa7-89c8-7866ea7d4828","ios":"levelo://app?vid=f56f775f-cf0b-4fa7-89c8-7866ea7d4828"},"vehicle_type_id":"4","last_reported":1734005984,"current_range_meters":36800,"station_id":"ce4bgi92rcd13ifvqb90","pricing_plan_id":"cebpf4jnsgd1na2vs0mg"},{"bike_id":"0eb5b889-32e4-4e1c-ae34-f9b8a441a1b1","system_id":"levelo_inurba_marseille","lat":43.31141,"lon":5.36776,"is_reserved":false,"is_disabled":false,"rental_uris":{"android":"levelo://app?vid=0eb5b889-32e4-4e1c-ae34-f9b8a441a1b1","ios":"levelo://app?vid=0eb5b889-32e4-4e1c-ae34-f9b8a441a1b1"},"vehicle_type_id":"4","last_reported":1734005984,"current_range_meters":30000,"station_id":"ce4bgr92rcd13ifvqc6g","pricing_plan_id":"cebpf4jnsgd1na2vs0mg"},{"bike_id":"e77c41ec-01fc-4fd5-a63a-7ada717e028a","system_id":"levelo_inurba_marseille","lat":43.26062,"lon":5.39399,"is_reserved":false,"is_disabled":false,"rental_uris":{"android":"levelo://app?vid=e77c41ec-01fc-4fd5-a63a-7ada717e028a","ios":"levelo://app?vid=e77c41ec-01fc-4fd5-a63a-7ada717e028a"},"vehicle_type_id":"4","last_reported":1734005984,"current_range_meters":38800,"station_id":"ce4bhh92rcd13ifvqfj0","pricing_plan_id":"cebpf4jnsgd1na2vs0mg"},{"bike_id":"845f2377-30bd-4700-81b9-13a4008d55b5","system_id":"levelo_inurba_marseille","lat":43.29891,"lon":5.43673,"is_reserved":false,"is_disabled":false,"rental_uris":{"android":"levelo://app?vid=845f2377-30bd-4700-81b9-13a4008d55b5","ios":"levelo://app?vid=845f2377-30bd-4700-81b9-13a4008d55b5"},"vehicle_type_id":"4","last_reported":1734005984,"current_range_meters":4400,"station_id":"ce4bhpp2rcd13ifvqhfg","pricing_plan_id":"cebpf4jnsgd1na2vs0mg"},{"bike_id":"4c109a3e-8eb8-47b2-af75-9937aaf3d8f8","system_id":"levelo_inurba_marseille","lat":43.2439,"lon":5.37061,"is_reserved":false,"is_disabled":false,"rental_uris":{"android":"levelo://app?vid=4c109a3e-8eb8-47b2-af75-9937aaf3d8f8","ios":"levelo://app?vid=4c109a3e-8eb8-47b2-af75-9937aaf3d8f8"},"vehicle_type_id":"4","last_reported":1734005984,"current_range_meters":18800,"station_id":"ce4bhhh2rcd13ifvqfk0","pricing_plan_id":"cebpf4jnsgd1na2vs0mg"},{"bike_id":"505b9866-7324-48a2-b14b-3fd3685553aa","system_id":"levelo_inurba_marseille","lat":43.27993,"lon":5.41667,"is_reserved":false,"is_disabled":false,"rental_uris":{"android":"levelo://app?vid=505b9866-7324-48a2-b14b-3fd3685553aa","ios":"levelo://app?vid=505b9866-7324-48a2-b14b-3fd3685553aa"},"vehicle_type_id":"4","last_reported":1734005984,"current_range_meters":38800,"station_id":"ce4bho12rcd13ifvqh1g","pricing_plan_id":"cebpf4jnsgd1na2vs0mg"},{"bike_id":"a118724e-099d-4517-9529-bc6e47cefa3a","system_id":"levelo_inurba_marseille","lat":43.30552,"lon":5.36529,"is_reserved":false,"is_disabled":false,"rental_uris":{"android":"levelo://app?vid=a118724e-099d-4517-9529-bc6e47cefa3a","ios":"levelo://app?vid=a118724e-099d-4517-9529-bc6e47cefa3a"},"vehicle_type_id":"4","last_reported":1734005984,"current_range_meters":30000,"station_id":"ce4bgs12rcd13ifvqcag","pricing_plan_id":"cebpf4jnsgd1na2vs0mg"},{"bike_id":"cf3ced70-f83a-40a6-bf5f-52f586d3dd9c","system_id":"levelo_inurba_marseille","lat":43.29706,"lon":5.37704,"is_reserved":false,"is_disabled":false,"rental_uris":{"android":"levelo://app?vid=cf3ced70-f83a-40a6-bf5f-52f586d3dd9c","ios":"levelo://app?vid=cf3ced70-f83a-40a6-bf5f-52f586d3dd9c"},"vehicle_type_id":"4","last_reported":1734005984,"current_range_meters":9600,"station_id":"ce4bgkh2rcd13ifvqbl0","pricing_plan_id":"cebpf4jnsgd1na2vs0mg"},{"bike_id":"956866e0-6ca6-44d7-883c-ea6f43ee4bf6","system_id":"levelo_inurba_marseille","lat":43.27057,"lon":5.40271,"is_reserved":false,"is_disabled":false,"rental_uris":{"android":"levelo://app?vid=956866e0-6ca6-44d7-883c-ea6f43ee4bf6","ios":"levelo://app?vid=956866e0-6ca6-44d7-883c-ea6f43ee4bf6"},"vehicle_type_id":"4","last_reported":1734005984,"current_range_meters":16400,"station_id":"ce4bhk92rcd13ifvqgc0","pricing_plan_id":"cebpf4jnsgd1na2vs0mg"},{"bike_id":"1301c2fd-c7ff-4e18-9e0a-494e4e9bcdd5","system_id":"levelo_inurba_marseille","lat":43.30531,"lon":5.3655,"is_reserved":false,"is_disabled":false,"rental_uris":{"android":"levelo://app?vid=1301c2fd-c7ff-4e18-9e0a-494e4e9bcdd5","ios":"levelo://app?vid=1301c2fd-c7ff-4e18-9e0a-494e4e9bcdd5"},"vehicle_type_id":"4","last_reported":1734005984,"current_range_meters":38800,"station_id":"ce4bgs12rcd13ifvqcag","pricing_plan_id":"cebpf4jnsgd1na2vs0mg"},{"bike_id":"23ba6e87-bc2c-4a9b-b2d8-8aaad8a6da1c","system_id":"levelo_inurba_marseille","lat":43.3189,"lon":5.40742,"is_reserved":false,"is_disabled":false,"rental_uris":{"android":"levelo://app?vid=23ba6e87-bc2c-4a9b-b2d8-8aaad8a6da1c","ios":"levelo://app?vid=23ba6e87-bc2c-4a9b-b2d8-8aaad8a6da1c"},"vehicle_type_id":"4","last_reported":1734005984,"current_range_meters":17600,"station_id":"ce4bhq12rcd13ifvqhig","pricing_plan_id":"cebpf4jnsgd1na2vs0mg"},{"bike_id":"3b559fe5-197d-48f4-a938-b66e56b95194","system_id":"levelo_inurba_marseille","lat":43.3059,"lon":5.39361,"is_reserved":false,"is_disabled":false,"rental_uris":{"android":"levelo://app?vid=3b559fe5-197d-48f4-a938-b66e56b95194","ios":"levelo://app?vid=3b559fe5-197d-48f4-a938-b66e56b95194"},"vehicle_type_id":"4","last_reported":1734005984,"current_range_meters":34000,"station_id":"ce4bh0p2rcd13ifvqd80","pricing_plan_id":"cebpf4jnsgd1na2vs0mg"},{"bike_id":"36272bbc-2413-4d65-9f8d-f8eaf63041c0","system_id":"levelo_inurba_marseille","lat":43.27065,"lon":5.40259,"is_reserved":false,"is_disabled":false,"rental_uris":{"android":"levelo://app?vid=36272bbc-2413-4d65-9f8d-f8eaf63041c0","ios":"levelo://app?vid=36272bbc-2413-4d65-9f8d-f8eaf63041c0"},"vehicle_type_id":"4","last_reported":1734005984,"current_range_meters":24400,"station_id":"ce4bhk92rcd13ifvqgc0","pricing_plan_id":"cebpf4jnsgd1na2vs0mg"},{"bike_id":"fe4cab58-ba30-4c78-b62f-d4434eea7628","system_id":"levelo_inurba_marseille","lat":43.29434,"lon":5.39764,"is_reserved":false,"is_disabled":false,"rental_uris":{"android":"levelo://app?vid=fe4cab58-ba30-4c78-b62f-d4434eea7628","ios":"levelo://app?vid=fe4cab58-ba30-4c78-b62f-d4434eea7628"},"vehicle_type_id":"4","last_reported":1734005984,"current_range_meters":39200,"station_id":"ce4bh3h2rcd13ifvqdo0","pricing_plan_id":"cebpf4jnsgd1na2vs0mg"},{"bike_id":"88cc7391-7318-48a6-aece-a14848bd159d","system_id":"levelo_inurba_marseille","lat":43.25822,"lon":5.39431,"is_reserved":false,"is_disabled":false,"rental_uris":{"android":"levelo://app?vid=88cc7391-7318-48a6-aece-a14848bd159d","ios":"levelo://app?vid=88cc7391-7318-48a6-aece-a14848bd159d"},"vehicle_type_id":"4","last_reported":1734005984,"current_range_meters":29600,"station_id":"ce4bhip2rcd13ifvqft0","pricing_plan_id":"cebpf4jnsgd1na2vs0mg"},{"bike_id":"80f66b82-54aa-4843-b64e-91d3afce4948","system_id":"levelo_inurba_marseille","lat":43.31216,"lon":5.36906,"is_reserved":false,"is_disabled":true,"rental_uris":{"android":"levelo://app?vid=80f66b82-54aa-4843-b64e-91d3afce4948","ios":"levelo://app?vid=80f66b82-54aa-4843-b64e-91d3afce4948"},"vehicle_type_id":"4","last_reported":1734005984,"current_range_meters":33200,"station_id":"ce4bgl92rcd13ifvqbq0","pricing_plan_id":"cebpf4jnsgd1na2vs0mg"},{"bike_id":"3a56946e-b571-4f0a-89c3-228266a44430","system_id":"levelo_inurba_marseille","lat":43.26597,"lon":5.38971,"is_reserved":false,"is_disabled":true,"rental_uris":{"android":"levelo://app?vid=3a56946e-b571-4f0a-89c3-228266a44430","ios":"levelo://app?vid=3a56946e-b571-4f0a-89c3-228266a44430"},"vehicle_type_id":"4","last_reported":1734005984,"current_range_meters":3600,"station_id":"","pricing_plan_id":"cebpf4jnsgd1na2vs0mg"},{"bike_id":"a7f580ed-51b4-4313-a41e-537f7413d4cc","system_id":"levelo_inurba_marseille","lat":43.27056,"lon":5.40263,"is_reserved":false,"is_disabled":false,"rental_uris":{"android":"levelo://app?vid=a7f580ed-51b4-4313-a41e-537f7413d4cc","ios":"levelo://app?vid=a7f580ed-51b4-4313-a41e-537f7413d4cc"},"vehicle_type_id":"4","last_reported":1734005984,"current_range_meters":36000,"station_id":"ce4bhk92rcd13ifvqgc0","pricing_plan_id":"cebpf4jnsgd1na2vs0mg"},{"bike_id":"83d86471-0b95-4477-9349-a015d55c6b4b","system_id":"levelo_inurba_marseille","lat":43.31992,"lon":5.38157,"is_reserved":false,"is_disabled":true,"rental_uris":{"android":"levelo://app?vid=83d86471-0b95-4477-9349-a015d55c6b4b","ios":"levelo://app?vid=83d86471-0b95-4477-9349-a015d55c6b4b"},"vehicle_type_id":"4","last_reported":1734005984,"current_range_meters":0,"station_id":"ce4bhr12rcd13ifvqhpg","pricing_plan_id":"cebpf4jnsgd1na2vs0mg"},{"bike_id":"6b29723c-028d-4b12-9bd0-87f837b2148e","system_id":"levelo_inurba_marseille","lat":43.26031,"lon":5.3755,"is_reserved":false,"is_disabled":false,"rental_uris":{"android":"levelo://app?vid=6b29723c-028d-4b12-9bd0-87f837b2148e","ios":"levelo://app?vid=6b29723c-028d-4b12-9bd0-87f837b2148e"},"vehicle_type_id":"4","last_reported":1734005984,"current_range_meters":38800,"station_id":"ce4bhgh2rcd13ifvqfa0","pricing_plan_id":"cebpf4jnsgd1na2vs0mg"},{"bike_id":"0cfe1b49-841e-49d5-a48e-bf56e9474e91","system_id":"levelo_inurba_marseille","lat":43.28609,"lon":5.3708,"is_reserved":false,"is_disabled":false,"rental_uris":{"android":"levelo://app?vid=0cfe1b49-841e-49d5-a48e-bf56e9474e91","ios":"levelo://app?vid=0cfe1b49-841e-49d5-a48e-bf56e9474e91"},"vehicle_type_id":"4","last_reported":1734005984,"current_range_meters":36800,"station_id":"ce4bht12rcd13ifvqi60","pricing_plan_id":"cebpf4jnsgd1na2vs0mg"},{"bike_id":"a630a704-fa3e-4efb-b2a8-055a38018ef2","system_id":"levelo_inurba_marseille","lat":43.31672,"lon":5.37343,"is_reserved":false,"is_disabled":false,"rental_uris":{"android":"levelo://app?vid=a630a704-fa3e-4efb-b2a8-055a38018ef2","ios":"levelo://app?vid=a630a704-fa3e-4efb-b2a8-055a38018ef2"},"vehicle_type_id":"4","last_reported":1734005984,"current_range_meters":39200,"station_id":"ce4bgth2rcd13ifvqch0","pricing_plan_id":"cebpf4jnsgd1na2vs0mg"},{"bike_id":"d8d871ae-b775-4833-9ccf-28177905d672","system_id":"levelo_inurba_marseille","lat":43.29781,"lon":5.37124,"is_reserved":false,"is_disabled":false,"rental_uris":{"android":"levelo://app?vid=d8d871ae-b775-4833-9ccf-28177905d672","ios":"levelo://app?vid=d8d871ae-b775-4833-9ccf-28177905d672"},"vehicle_type_id":"4","last_reported":1734005984,"current_range_meters":39200,"station_id":"ce4bgop2rcd13ifvqc1g","pricing_plan_id":"cebpf4jnsgd1na2vs0mg"},{"bike_id":"c38c9a95-fd64-46c1-84c7-b6a6e21d5b7b","system_id":"levelo_inurba_marseille","lat":43.27045,"lon":5.40268,"is_reserved":false,"is_disabled":false,"rental_uris":{"android":"levelo://app?vid=c38c9a95-fd64-46c1-84c7-b6a6e21d5b7b","ios":"levelo://app?vid=c38c9a95-fd64-46c1-84c7-b6a6e21d5b7b"},"vehicle_type_id":"4","last_reported":1734005984,"current_range_meters":18000,"station_id":"ce4bhk92rcd13ifvqgc0","pricing_plan_id":"cebpf4jnsgd1na2vs0mg"},{"bike_id":"607dead6-d82d-4803-872b-9405f5b50010","system_id":"levelo_inurba_marseille","lat":43.30114,"lon":5.37447,"is_reserved":false,"is_disabled":false,"rental_uris":{"android":"levelo://app?vid=607dead6-d82d-4803-872b-9405f5b50010","ios":"levelo://app?vid=607dead6-d82d-4803-872b-9405f5b50010"},"vehicle_type_id":"4","last_reported":1734005984,"current_range_meters":24400,"station_id":"ce4bgs92rcd13ifvqcc0","pricing_plan_id":"cebpf4jnsgd1na2vs0mg"},{"bike_id":"90bcd5e3-5c2c-4aba-b6e7-6ea4927f76ff","system_id":"levelo_inurba_marseille","lat":43.29673,"lon":5.37295,"is_reserved":false,"is_disabled":false,"rental_uris":{"android":"levelo://app?vid=90bcd5e3-5c2c-4aba-b6e7-6ea4927f76ff","ios":"levelo://app?vid=90bcd5e3-5c2c-4aba-b6e7-6ea4927f76ff"},"vehicle_type_id":"4","last_reported":1734005984,"current_range_meters":37600,"station_id":"ce4bgk12rcd13ifvqbj0","pricing_plan_id":"cebpf4jnsgd1na2vs0mg"},{"bike_id":"50c7c0ef-3339-4589-83c5-753b93506fc5","system_id":"levelo_inurba_marseille","lat":43.337463,"lon":5.374594,"is_reserved":false,"is_disabled":false,"rental_uris":{"android":"levelo://app?vid=50c7c0ef-3339-4589-83c5-753b93506fc5","ios":"levelo://app?vid=50c7c0ef-3339-4589-83c5-753b93506fc5"},"vehicle_type_id":"4","last_reported":1734005984,"current_range_meters":38400,"station_id":"","pricing_plan_id":"cebpf4jnsgd1na2vs0mg"},{"bike_id":"40c632d2-5ccc-46c0-afaf-a624294eb827","system_id":"levelo_inurba_marseille","lat":43.25819,"lon":5.39422,"is_reserved":false,"is_disabled":false,"rental_uris":{"android":"levelo://app?vid=40c632d2-5ccc-46c0-afaf-a624294eb827","ios":"levelo://app?vid=40c632d2-5ccc-46c0-afaf-a624294eb827"},"vehicle_type_id":"4","last_reported":1734005984,"current_range_meters":36800,"station_id":"ce4bhip2rcd13ifvqft0","pricing_plan_id":"cebpf4jnsgd1na2vs0mg"},{"bike_id":"4552534d-00b9-4142-9baa-7b817acd308f","system_id":"levelo_inurba_marseille","lat":43.32486,"lon":5.36572,"is_reserved":false,"is_disabled":false,"rental_uris":{"android":"levelo://app?vid=4552534d-00b9-4142-9baa-7b817acd308f","ios":"levelo://app?vid=4552534d-00b9-4142-9baa-7b817acd308f"},"vehicle_type_id":"4","last_reported":1734005984,"current_range_meters":28400,"station_id":"ce4bhs12rcd13ifvqhvg","pricing_plan_id":"cebpf4jnsgd1na2vs0mg"},{"bike_id":"11933e04-d81a-4d25-aa83-cc295172b3a1","system_id":"levelo_inurba_marseille","lat":43.25414,"lon":5.38269,"is_reserved":false,"is_disabled":true,"rental_uris":{"android":"levelo://app?vid=11933e04-d81a-4d25-aa83-cc295172b3a1","ios":"levelo://app?vid=11933e04-d81a-4d25-aa83-cc295172b3a1"},"vehicle_type_id":"4","last_reported":1734005984,"current_range_meters":30000,"station_id":"","pricing_plan_id":"cebpf4jnsgd1na2vs0mg"},{"bike_id":"97c5cdf1-5409-48ef-b0e2-df7f208e5c46","system_id":"levelo_inurba_marseille","lat":43.27057,"lon":5.40267,"is_reserved":false,"is_disabled":false,"rental_uris":{"android":"levelo://app?vid=97c5cdf1-5409-48ef-b0e2-df7f208e5c46","ios":"levelo://app?vid=97c5cdf1-5409-48ef-b0e2-df7f208e5c46"},"vehicle_type_id":"4","last_reported":1734005984,"current_range_meters":28000,"station_id":"ce4bhk92rcd13ifvqgc0","pricing_plan_id":"cebpf4jnsgd1na2vs0mg"},{"bike_id":"bf29b9d3-7fd0-4cb8-a0c7-2ad68531613b","system_id":"levelo_inurba_marseille","lat":43.29553,"lon":5.39046,"is_reserved":false,"is_disabled":false,"rental_uris":{"android":"levelo://app?vid=bf29b9d3-7fd0-4cb8-a0c7-2ad68531613b","ios":"levelo://app?vid=bf29b9d3-7fd0-4cb8-a0c7-2ad68531613b"},"vehicle_type_id":"4","last_reported":1734005984,"current_range_meters":29600,"station_id":"ce4bh3p2rcd13ifvqdp0","pricing_plan_id":"cebpf4jnsgd1na2vs0mg"},{"bike_id":"b6a68996-7580-4e05-9793-92d20ed9e0c0","system_id":"levelo_inurba_marseille","lat":43.25008,"lon":5.38945,"is_reserved":false,"is_disabled":false,"rental_uris":{"android":"levelo://app?vid=b6a68996-7580-4e05-9793-92d20ed9e0c0","ios":"levelo://app?vid=b6a68996-7580-4e05-9793-92d20ed9e0c0"},"vehicle_type_id":"4","last_reported":1734005984,"current_range_meters":38800,"station_id":"ce4bhgp2rcd13ifvqfd0","pricing_plan_id":"cebpf4jnsgd1na2vs0mg"},{"bike_id":"b3a114da-e78d-4282-bc2d-655750ab2716","system_id":"levelo_inurba_marseille","lat":43.2408,"lon":5.37742,"is_reserved":false,"is_disabled":false,"rental_uris":{"android":"levelo://app?vid=b3a114da-e78d-4282-bc2d-655750ab2716","ios":"levelo://app?vid=b3a114da-e78d-4282-bc2d-655750ab2716"},"vehicle_type_id":"4","last_reported":1734005984,"current_range_meters":22800,"station_id":"ce4bhnp2rcd13ifvqgvg","pricing_plan_id":"cebpf4jnsgd1na2vs0mg"},{"bike_id":"30b7f7b0-cffb-44e8-9e23-86428fe1183d","system_id":"levelo_inurba_marseille","lat":43.23055,"lon":5.35508,"is_reserved":false,"is_disabled":false,"rental_uris":{"android":"levelo://app?vid=30b7f7b0-cffb-44e8-9e23-86428fe1183d","ios":"levelo://app?vid=30b7f7b0-cffb-44e8-9e23-86428fe1183d"},"vehicle_type_id":"4","last_reported":1734005984,"current_range_meters":8400,"station_id":"cpo3342slgdg3j2ifvpg","pricing_plan_id":"cebpf4jnsgd1na2vs0mg"},{"bike_id":"6af13618-4365-4d73-921a-aee3b3e1b285","system_id":"levelo_inurba_marseille","lat":43.26697,"lon":5.38267,"is_reserved":false,"is_disabled":false,"rental_uris":{"android":"levelo://app?vid=6af13618-4365-4d73-921a-aee3b3e1b285","ios":"levelo://app?vid=6af13618-4365-4d73-921a-aee3b3e1b285"},"vehicle_type_id":"4","last_reported":1734005984,"current_range_meters":25600,"station_id":"ce4bhg92rcd13ifvqf90","pricing_plan_id":"cebpf4jnsgd1na2vs0mg"},{"bike_id":"4463e7d1-78ac-4f61-a7c2-53ba1f226616","system_id":"levelo_inurba_marseille","lat":43.29302,"lon":5.37465,"is_reserved":false,"is_disabled":false,"rental_uris":{"android":"levelo://app?vid=4463e7d1-78ac-4f61-a7c2-53ba1f226616","ios":"levelo://app?vid=4463e7d1-78ac-4f61-a7c2-53ba1f226616"},"vehicle_type_id":"4","last_reported":1734005984,"current_range_meters":36800,"station_id":"ce4bgi12rcd13ifvqb70","pricing_plan_id":"cebpf4jnsgd1na2vs0mg"},{"bike_id":"3735d06c-d038-41b2-834f-b6875563cb77","system_id":"levelo_inurba_marseille","lat":43.29864,"lon":5.39738,"is_reserved":false,"is_disabled":false,"rental_uris":{"android":"levelo://app?vid=3735d06c-d038-41b2-834f-b6875563cb77","ios":"levelo://app?vid=3735d06c-d038-41b2-834f-b6875563cb77"},"vehicle_type_id":"4","last_reported":1734005984,"current_range_meters":33200,"station_id":"ce4bh0h2rcd13ifvqd50","pricing_plan_id":"cebpf4jnsgd1na2vs0mg"},{"bike_id":"f8b49a8b-76af-4c34-a445-4719a4b98693","system_id":"levelo_inurba_marseille","lat":43.32297,"lon":5.38289,"is_reserved":false,"is_disabled":false,"rental_uris":{"android":"levelo://app?vid=f8b49a8b-76af-4c34-a445-4719a4b98693","ios":"levelo://app?vid=f8b49a8b-76af-4c34-a445-4719a4b98693"},"vehicle_type_id":"4","last_reported":1734005984,"current_range_meters":38000,"station_id":"ce4bhr12rcd13ifvqhqg","pricing_plan_id":"cebpf4jnsgd1na2vs0mg"},{"bike_id":"302f543c-4369-40d9-baa7-901915e518d9","system_id":"levelo_inurba_marseille","lat":43.25863,"lon":5.3991,"is_reserved":false,"is_disabled":false,"rental_uris":{"android":"levelo://app?vid=302f543c-4369-40d9-baa7-901915e518d9","ios":"levelo://app?vid=302f543c-4369-40d9-baa7-901915e518d9"},"vehicle_type_id":"4","last_reported":1734005984,"current_range_meters":39200,"station_id":"ce4bhl92rcd13ifvqghg","pricing_plan_id":"cebpf4jnsgd1na2vs0mg"},{"bike_id":"538f848f-8623-403d-a824-089884b30765","system_id":"levelo_inurba_marseille","lat":43.2619,"lon":5.37452,"is_reserved":false,"is_disabled":false,"rental_uris":{"android":"levelo://app?vid=538f848f-8623-403d-a824-089884b30765","ios":"levelo://app?vid=538f848f-8623-403d-a824-089884b30765"},"vehicle_type_id":"4","last_reported":1734005984,"current_range_meters":32000,"station_id":"ce4bhgp2rcd13ifvqfc0","pricing_plan_id":"cebpf4jnsgd1na2vs0mg"},{"bike_id":"14406462-0af9-4ce2-8c5e-325ff0d9a590","system_id":"levelo_inurba_marseille","lat":43.29785,"lon":5.37102,"is_reserved":false,"is_disabled":false,"rental_uris":{"android":"levelo://app?vid=14406462-0af9-4ce2-8c5e-325ff0d9a590","ios":"levelo://app?vid=14406462-0af9-4ce2-8c5e-325ff0d9a590"},"vehicle_type_id":"4","last_reported":1734005984,"current_range_meters":39200,"station_id":"ce4bgop2rcd13ifvqc1g","pricing_plan_id":"cebpf4jnsgd1na2vs0mg"},{"bike_id":"dd28bc87-aedf-45fd-b982-6aee62487677","system_id":"levelo_inurba_marseille","lat":43.26554,"lon":5.37286,"is_reserved":false,"is_disabled":false,"rental_uris":{"android":"levelo://app?vid=dd28bc87-aedf-45fd-b982-6aee62487677","ios":"levelo://app?vid=dd28bc87-aedf-45fd-b982-6aee62487677"},"vehicle_type_id":"4","last_reported":1734005984,"current_range_meters":14800,"station_id":"ce4bhg12rcd13ifvqf70","pricing_plan_id":"cebpf4jnsgd1na2vs0mg"},{"bike_id":"38be23f3-2117-4b68-8daa-edbad697b6c1","system_id":"levelo_inurba_marseille","lat":43.24083,"lon":5.37754,"is_reserved":false,"is_disabled":false,"rental_uris":{"android":"levelo://app?vid=38be23f3-2117-4b68-8daa-edbad697b6c1","ios":"levelo://app?vid=38be23f3-2117-4b68-8daa-edbad697b6c1"},"vehicle_type_id":"4","last_reported":1734005984,"current_range_meters":38800,"station_id":"ce4bhnp2rcd13ifvqgvg","pricing_plan_id":"cebpf4jnsgd1na2vs0mg"},{"bike_id":"3cc49aec-0146-4bd6-8ced-13dc2b354f47","system_id":"levelo_inurba_marseille","lat":43.23188,"lon":5.39984,"is_reserved":false,"is_disabled":true,"rental_uris":{"android":"levelo://app?vid=3cc49aec-0146-4bd6-8ced-13dc2b354f47","ios":"levelo://app?vid=3cc49aec-0146-4bd6-8ced-13dc2b354f47"},"vehicle_type_id":"4","last_reported":1734005984,"current_range_meters":2000,"station_id":"ce4bhn12rcd13ifvqgqg","pricing_plan_id":"cebpf4jnsgd1na2vs0mg"},{"bike_id":"62407a8f-37a9-47a9-a09a-3cd8c28b9b64","system_id":"levelo_inurba_marseille","lat":43.28702,"lon":5.39988,"is_reserved":false,"is_disabled":true,"rental_uris":{"android":"levelo://app?vid=62407a8f-37a9-47a9-a09a-3cd8c28b9b64","ios":"levelo://app?vid=62407a8f-37a9-47a9-a09a-3cd8c28b9b64"},"vehicle_type_id":"4","last_reported":1734005984,"current_range_meters":39200,"station_id":"ce4bho92rcd13ifvqh3g","pricing_plan_id":"cebpf4jnsgd1na2vs0mg"},{"bike_id":"b327d689-fa6e-4e20-9318-a04c545278a0","system_id":"levelo_inurba_marseille","lat":43.30323,"lon":5.40441,"is_reserved":false,"is_disabled":false,"rental_uris":{"android":"levelo://app?vid=b327d689-fa6e-4e20-9318-a04c545278a0","ios":"levelo://app?vid=b327d689-fa6e-4e20-9318-a04c545278a0"},"vehicle_type_id":"4","last_reported":1734005984,"current_range_meters":8000,"station_id":"ce4bh012rcd13ifvqd10","pricing_plan_id":"cebpf4jnsgd1na2vs0mg"},{"bike_id":"8b429bcc-6dd0-4990-b28b-c00aea65f1ee","system_id":"levelo_inurba_marseille","lat":43.27965,"lon":5.38738,"is_reserved":false,"is_disabled":false,"rental_uris":{"android":"levelo://app?vid=8b429bcc-6dd0-4990-b28b-c00aea65f1ee","ios":"levelo://app?vid=8b429bcc-6dd0-4990-b28b-c00aea65f1ee"},"vehicle_type_id":"4","last_reported":1734005984,"current_range_meters":33200,"station_id":"ce4bhg12rcd13ifvqf80","pricing_plan_id":"cebpf4jnsgd1na2vs0mg"},{"bike_id":"672efa5a-70fa-40bf-9752-4ac27efd2d03","system_id":"levelo_inurba_marseille","lat":43.29628,"lon":5.40603,"is_reserved":false,"is_disabled":true,"rental_uris":{"android":"levelo://app?vid=672efa5a-70fa-40bf-9752-4ac27efd2d03","ios":"levelo://app?vid=672efa5a-70fa-40bf-9752-4ac27efd2d03"},"vehicle_type_id":"4","last_reported":1734005984,"current_range_meters":800,"station_id":"ce4bh0h2rcd13ifvqd60","pricing_plan_id":"cebpf4jnsgd1na2vs0mg"},{"bike_id":"9a663b96-92e3-4eb8-ac91-ad90ce7e9c6c","system_id":"levelo_inurba_marseille","lat":43.29228,"lon":5.36062,"is_reserved":false,"is_disabled":false,"rental_uris":{"android":"levelo://app?vid=9a663b96-92e3-4eb8-ac91-ad90ce7e9c6c","ios":"levelo://app?vid=9a663b96-92e3-4eb8-ac91-ad90ce7e9c6c"},"vehicle_type_id":"4","last_reported":1734005984,"current_range_meters":37600,"station_id":"ce4bhbh2rcd13ifvqeqg","pricing_plan_id":"cebpf4jnsgd1na2vs0mg"},{"bike_id":"4e17aa1e-a2e4-4084-a5f8-5dfad000b845","system_id":"levelo_inurba_marseille","lat":43.30541,"lon":5.36543,"is_reserved":false,"is_disabled":false,"rental_uris":{"android":"levelo://app?vid=4e17aa1e-a2e4-4084-a5f8-5dfad000b845","ios":"levelo://app?vid=4e17aa1e-a2e4-4084-a5f8-5dfad000b845"},"vehicle_type_id":"4","last_reported":1734005984,"current_range_meters":27600,"station_id":"ce4bgs12rcd13ifvqcag","pricing_plan_id":"cebpf4jnsgd1na2vs0mg"},{"bike_id":"6ecf68bf-c19f-4d16-a975-78fd90775e4c","system_id":"levelo_inurba_marseille","lat":43.29512,"lon":5.39401,"is_reserved":false,"is_disabled":false,"rental_uris":{"android":"levelo://app?vid=6ecf68bf-c19f-4d16-a975-78fd90775e4c","ios":"levelo://app?vid=6ecf68bf-c19f-4d16-a975-78fd90775e4c"},"vehicle_type_id":"4","last_reported":1734005984,"current_range_meters":3200,"station_id":"ce4bh292rcd13ifvqdf0","pricing_plan_id":"cebpf4jnsgd1na2vs0mg"},{"bike_id":"d36d4fc3-c8b0-4497-a89e-3831ce85ffd4","system_id":"levelo_inurba_marseille","lat":43.27911,"lon":5.38014,"is_reserved":false,"is_disabled":false,"rental_uris":{"android":"levelo://app?vid=d36d4fc3-c8b0-4497-a89e-3831ce85ffd4","ios":"levelo://app?vid=d36d4fc3-c8b0-4497-a89e-3831ce85ffd4"},"vehicle_type_id":"4","last_reported":1734005984,"current_range_meters":9600,"station_id":"ce4bhf92rcd13ifvqf50","pricing_plan_id":"cebpf4jnsgd1na2vs0mg"},{"bike_id":"6b7da9da-7ed8-4376-8377-8274a75ba481","system_id":"levelo_inurba_marseille","lat":43.272207,"lon":5.400118,"is_reserved":false,"is_disabled":true,"rental_uris":{"android":"levelo://app?vid=6b7da9da-7ed8-4376-8377-8274a75ba481","ios":"levelo://app?vid=6b7da9da-7ed8-4376-8377-8274a75ba481"},"vehicle_type_id":"4","last_reported":1734005984,"current_range_meters":37600,"station_id":"","pricing_plan_id":"cebpf4jnsgd1na2vs0mg"},{"bike_id":"279fbe0d-852d-40e7-b7cb-36bfabc20518","system_id":"levelo_inurba_marseille","lat":43.30942,"lon":5.39039,"is_reserved":false,"is_disabled":false,"rental_uris":{"android":"levelo://app?vid=279fbe0d-852d-40e7-b7cb-36bfabc20518","ios":"levelo://app?vid=279fbe0d-852d-40e7-b7cb-36bfabc20518"},"vehicle_type_id":"4","last_reported":1734005984,"current_range_meters":38800,"station_id":"ce4bgup2rcd13ifvqco0","pricing_plan_id":"cebpf4jnsgd1na2vs0mg"},{"bike_id":"af67ac53-ba21-4ff0-8334-95679e9ff2cc","system_id":"levelo_inurba_marseille","lat":43.278805,"lon":5.388003,"is_reserved":false,"is_disabled":true,"rental_uris":{"android":"levelo://app?vid=af67ac53-ba21-4ff0-8334-95679e9ff2cc","ios":"levelo://app?vid=af67ac53-ba21-4ff0-8334-95679e9ff2cc"},"vehicle_type_id":"4","last_reported":1734005984,"current_range_meters":0,"station_id":"","pricing_plan_id":"cebpf4jnsgd1na2vs0mg"},{"bike_id":"ab6bb814-6be0-4a23-8be0-7c219c550454","system_id":"levelo_inurba_marseille","lat":43.29443,"lon":5.39749,"is_reserved":false,"is_disabled":false,"rental_uris":{"android":"levelo://app?vid=ab6bb814-6be0-4a23-8be0-7c219c550454","ios":"levelo://app?vid=ab6bb814-6be0-4a23-8be0-7c219c550454"},"vehicle_type_id":"4","last_reported":1734005984,"current_range_meters":11200,"station_id":"ce4bh3h2rcd13ifvqdo0","pricing_plan_id":"cebpf4jnsgd1na2vs0mg"},{"bike_id":"d75d047d-3f18-4f42-926d-5793de16cb5d","system_id":"levelo_inurba_marseille","lat":43.24645,"lon":5.38896,"is_reserved":false,"is_disabled":false,"rental_uris":{"android":"levelo://app?vid=d75d047d-3f18-4f42-926d-5793de16cb5d","ios":"levelo://app?vid=d75d047d-3f18-4f42-926d-5793de16cb5d"},"vehicle_type_id":"4","last_reported":1734005984,"current_range_meters":28800,"station_id":"ce4bhg12rcd13ifvqf60","pricing_plan_id":"cebpf4jnsgd1na2vs0mg"},{"bike_id":"82f216ae-f68b-44da-bb8e-e5eaafd8ce84","system_id":"levelo_inurba_marseille","lat":43.24065,"lon":5.37749,"is_reserved":false,"is_disabled":false,"rental_uris":{"android":"levelo://app?vid=82f216ae-f68b-44da-bb8e-e5eaafd8ce84","ios":"levelo://app?vid=82f216ae-f68b-44da-bb8e-e5eaafd8ce84"},"vehicle_type_id":"4","last_reported":1734005984,"current_range_meters":23200,"station_id":"ce4bhnp2rcd13ifvqgvg","pricing_plan_id":"cebpf4jnsgd1na2vs0mg"},{"bike_id":"7ef45229-fbca-4cca-a535-4cadf84a8816","system_id":"levelo_inurba_marseille","lat":43.24072,"lon":5.37766,"is_reserved":false,"is_disabled":false,"rental_uris":{"android":"levelo://app?vid=7ef45229-fbca-4cca-a535-4cadf84a8816","ios":"levelo://app?vid=7ef45229-fbca-4cca-a535-4cadf84a8816"},"vehicle_type_id":"4","last_reported":1734005984,"current_range_meters":24000,"station_id":"ce4bhnp2rcd13ifvqgvg","pricing_plan_id":"cebpf4jnsgd1na2vs0mg"},{"bike_id":"746cf22e-fb32-4549-9200-3558ee866b54","system_id":"levelo_inurba_marseille","lat":43.30538,"lon":5.36536,"is_reserved":false,"is_disabled":false,"rental_uris":{"android":"levelo://app?vid=746cf22e-fb32-4549-9200-3558ee866b54","ios":"levelo://app?vid=746cf22e-fb32-4549-9200-3558ee866b54"},"vehicle_type_id":"4","last_reported":1734005984,"current_range_meters":33600,"station_id":"ce4bgs12rcd13ifvqcag","pricing_plan_id":"cebpf4jnsgd1na2vs0mg"},{"bike_id":"01656b7c-6c0d-489d-8b61-0515e0ffea05","system_id":"levelo_inurba_marseille","lat":43.28933,"lon":5.36643,"is_reserved":false,"is_disabled":false,"rental_uris":{"android":"levelo://app?vid=01656b7c-6c0d-489d-8b61-0515e0ffea05","ios":"levelo://app?vid=01656b7c-6c0d-489d-8b61-0515e0ffea05"},"vehicle_type_id":"4","last_reported":1734005984,"current_range_meters":36400,"station_id":"ce4bhap2rcd13ifvqek0","pricing_plan_id":"cebpf4jnsgd1na2vs0mg"},{"bike_id":"f8a2bd8e-0796-445d-a525-a55268d4e958","system_id":"levelo_inurba_marseille","lat":43.2706,"lon":5.40262,"is_reserved":false,"is_disabled":false,"rental_uris":{"android":"levelo://app?vid=f8a2bd8e-0796-445d-a525-a55268d4e958","ios":"levelo://app?vid=f8a2bd8e-0796-445d-a525-a55268d4e958"},"vehicle_type_id":"4","last_reported":1734005984,"current_range_meters":19200,"station_id":"ce4bhk92rcd13ifvqgc0","pricing_plan_id":"cebpf4jnsgd1na2vs0mg"},{"bike_id":"f1d8b590-9753-47f5-b75d-374cb47d1972","system_id":"levelo_inurba_marseille","lat":43.30537,"lon":5.36534,"is_reserved":false,"is_disabled":false,"rental_uris":{"android":"levelo://app?vid=f1d8b590-9753-47f5-b75d-374cb47d1972","ios":"levelo://app?vid=f1d8b590-9753-47f5-b75d-374cb47d1972"},"vehicle_type_id":"4","last_reported":1734005984,"current_range_meters":38000,"station_id":"ce4bgs12rcd13ifvqcag","pricing_plan_id":"cebpf4jnsgd1na2vs0mg"},{"bike_id":"be0b8c3f-0afb-42d7-82d2-88e533cc17ea","system_id":"levelo_inurba_marseille","lat":43.29099,"lon":5.3722,"is_reserved":false,"is_disabled":true,"rental_uris":{"android":"levelo://app?vid=be0b8c3f-0afb-42d7-82d2-88e533cc17ea","ios":"levelo://app?vid=be0b8c3f-0afb-42d7-82d2-88e533cc17ea"},"vehicle_type_id":"4","last_reported":1734005984,"current_range_meters":22800,"station_id":"","pricing_plan_id":"cebpf4jnsgd1na2vs0mg"},{"bike_id":"c4ae6ba3-dfe9-4fbb-9856-3579210bfd15","system_id":"levelo_inurba_marseille","lat":43.28476,"lon":5.38409,"is_reserved":false,"is_disabled":false,"rental_uris":{"android":"levelo://app?vid=c4ae6ba3-dfe9-4fbb-9856-3579210bfd15","ios":"levelo://app?vid=c4ae6ba3-dfe9-4fbb-9856-3579210bfd15"},"vehicle_type_id":"4","last_reported":1734005984,"current_range_meters":10800,"station_id":"ce4bh512rcd13ifvqe3g","pricing_plan_id":"cebpf4jnsgd1na2vs0mg"},{"bike_id":"b5fcaa86-c09e-4c69-8628-53e487fd6934","system_id":"levelo_inurba_marseille","lat":43.29376,"lon":5.37883,"is_reserved":false,"is_disabled":true,"rental_uris":{"android":"levelo://app?vid=b5fcaa86-c09e-4c69-8628-53e487fd6934","ios":"levelo://app?vid=b5fcaa86-c09e-4c69-8628-53e487fd6934"},"vehicle_type_id":"4","last_reported":1734005984,"current_range_meters":36400,"station_id":"ce4bgjh2rcd13ifvqbf0","pricing_plan_id":"cebpf4jnsgd1na2vs0mg"},{"bike_id":"870e6636-b21e-471c-863d-86dd369d4305","system_id":"levelo_inurba_marseille","lat":43.26956,"lon":5.40266,"is_reserved":false,"is_disabled":false,"rental_uris":{"android":"levelo://app?vid=870e6636-b21e-471c-863d-86dd369d4305","ios":"levelo://app?vid=870e6636-b21e-471c-863d-86dd369d4305"},"vehicle_type_id":"4","last_reported":1734005984,"current_range_meters":39200,"station_id":"cjm6bp8fraef2m0cb0m0","pricing_plan_id":"cebpf4jnsgd1na2vs0mg"},{"bike_id":"f2f70828-c0e0-4752-89fa-1aab0c5d8a74","system_id":"levelo_inurba_marseille","lat":43.27202,"lon":5.39208,"is_reserved":false,"is_disabled":true,"rental_uris":{"android":"levelo://app?vid=f2f70828-c0e0-4752-89fa-1aab0c5d8a74","ios":"levelo://app?vid=f2f70828-c0e0-4752-89fa-1aab0c5d8a74"},"vehicle_type_id":"4","last_reported":1734005984,"current_range_meters":36800,"station_id":"ce4bhhp2rcd13ifvqfm0","pricing_plan_id":"cebpf4jnsgd1na2vs0mg"},{"bike_id":"aa581db9-5e0e-420d-890e-846e89e2597b","system_id":"levelo_inurba_marseille","lat":43.27209,"lon":5.39187,"is_reserved":false,"is_disabled":false,"rental_uris":{"android":"levelo://app?vid=aa581db9-5e0e-420d-890e-846e89e2597b","ios":"levelo://app?vid=aa581db9-5e0e-420d-890e-846e89e2597b"},"vehicle_type_id":"4","last_reported":1734005984,"current_range_meters":32400,"station_id":"ce4bhhp2rcd13ifvqfm0","pricing_plan_id":"cebpf4jnsgd1na2vs0mg"},{"bike_id":"50531486-24a8-40f0-b5d4-b4bf4bf27486","system_id":"levelo_inurba_marseille","lat":43.29617,"lon":5.3771,"is_reserved":false,"is_disabled":false,"rental_uris":{"android":"levelo://app?vid=50531486-24a8-40f0-b5d4-b4bf4bf27486","ios":"levelo://app?vid=50531486-24a8-40f0-b5d4-b4bf4bf27486"},"vehicle_type_id":"4","last_reported":1734005984,"current_range_meters":23200,"station_id":"ce4bgi92rcd13ifvqb90","pricing_plan_id":"cebpf4jnsgd1na2vs0mg"},{"bike_id":"6245f3ba-0359-4d54-ae77-9635f3a4adab","system_id":"levelo_inurba_marseille","lat":43.304353,"lon":5.388911,"is_reserved":false,"is_disabled":true,"rental_uris":{"android":"levelo://app?vid=6245f3ba-0359-4d54-ae77-9635f3a4adab","ios":"levelo://app?vid=6245f3ba-0359-4d54-ae77-9635f3a4adab"},"vehicle_type_id":"4","last_reported":1734005984,"current_range_meters":800,"station_id":"ce4bgk12rcd13ifvqbi0","pricing_plan_id":"cebpf4jnsgd1na2vs0mg"},{"bike_id":"a214a67a-cd21-4b59-aa3a-17ded049d0ef","system_id":"levelo_inurba_marseille","lat":43.26939,"lon":5.38924,"is_reserved":false,"is_disabled":false,"rental_uris":{"android":"levelo://app?vid=a214a67a-cd21-4b59-aa3a-17ded049d0ef","ios":"levelo://app?vid=a214a67a-cd21-4b59-aa3a-17ded049d0ef"},"vehicle_type_id":"4","last_reported":1734005984,"current_range_meters":5600,"station_id":"ce4bhhh2rcd13ifvqfl0","pricing_plan_id":"cebpf4jnsgd1na2vs0mg"},{"bike_id":"91c3f92e-5d61-470b-b958-c89d04138b23","system_id":"levelo_inurba_marseille","lat":43.29578,"lon":5.37522,"is_reserved":false,"is_disabled":true,"rental_uris":{"android":"levelo://app?vid=91c3f92e-5d61-470b-b958-c89d04138b23","ios":"levelo://app?vid=91c3f92e-5d61-470b-b958-c89d04138b23"},"vehicle_type_id":"4","last_reported":1734005984,"current_range_meters":38800,"station_id":"ce4bgh92rcd13ifvqb50","pricing_plan_id":"cebpf4jnsgd1na2vs0mg"},{"bike_id":"f71a0b45-86c2-4cc7-ba94-d526e98771bc","system_id":"levelo_inurba_marseille","lat":43.29281,"lon":5.40116,"is_reserved":false,"is_disabled":false,"rental_uris":{"android":"levelo://app?vid=f71a0b45-86c2-4cc7-ba94-d526e98771bc","ios":"levelo://app?vid=f71a0b45-86c2-4cc7-ba94-d526e98771bc"},"vehicle_type_id":"4","last_reported":1734005984,"current_range_meters":33200,"station_id":"ce4bh312rcd13ifvqdk0","pricing_plan_id":"cebpf4jnsgd1na2vs0mg"},{"bike_id":"110cf95e-3236-4368-945a-d4afad1a5439","system_id":"levelo_inurba_marseille","lat":43.29933,"lon":5.36543,"is_reserved":false,"is_disabled":false,"rental_uris":{"android":"levelo://app?vid=110cf95e-3236-4368-945a-d4afad1a5439","ios":"levelo://app?vid=110cf95e-3236-4368-945a-d4afad1a5439"},"vehicle_type_id":"4","last_reported":1734005984,"current_range_meters":38800,"station_id":"ce4bgm92rcd13ifvqbr0","pricing_plan_id":"cebpf4jnsgd1na2vs0mg"},{"bike_id":"51f3d01a-6f5a-4671-84ea-08e7a67e7f3b","system_id":"levelo_inurba_marseille","lat":43.26551,"lon":5.37293,"is_reserved":false,"is_disabled":true,"rental_uris":{"android":"levelo://app?vid=51f3d01a-6f5a-4671-84ea-08e7a67e7f3b","ios":"levelo://app?vid=51f3d01a-6f5a-4671-84ea-08e7a67e7f3b"},"vehicle_type_id":"4","last_reported":1734005984,"current_range_meters":2000,"station_id":"ce4bhg12rcd13ifvqf70","pricing_plan_id":"cebpf4jnsgd1na2vs0mg"},{"bike_id":"88fd6081-e8a1-4b8c-a88f-ce6e40a6b4bf","system_id":"levelo_inurba_marseille","lat":43.26809,"lon":5.40275,"is_reserved":false,"is_disabled":true,"rental_uris":{"android":"levelo://app?vid=88fd6081-e8a1-4b8c-a88f-ce6e40a6b4bf","ios":"levelo://app?vid=88fd6081-e8a1-4b8c-a88f-ce6e40a6b4bf"},"vehicle_type_id":"4","last_reported":1734005984,"current_range_meters":0,"station_id":"ce501612rcd8frsf0b60","pricing_plan_id":"cebpf4jnsgd1na2vs0mg"},{"bike_id":"903fc880-9114-4f5a-ab5e-510528b4f0ca","system_id":"levelo_inurba_marseille","lat":43.31349,"lon":5.36716,"is_reserved":false,"is_disabled":false,"rental_uris":{"android":"levelo://app?vid=903fc880-9114-4f5a-ab5e-510528b4f0ca","ios":"levelo://app?vid=903fc880-9114-4f5a-ab5e-510528b4f0ca"},"vehicle_type_id":"4","last_reported":1734005984,"current_range_meters":36800,"station_id":"ce4bgr92rcd13ifvqc6g","pricing_plan_id":"cebpf4jnsgd1na2vs0mg"},{"bike_id":"e5444b26-80f3-4ae1-a1f2-15f77641559b","system_id":"levelo_inurba_marseille","lat":43.2622,"lon":5.37452,"is_reserved":false,"is_disabled":false,"rental_uris":{"android":"levelo://app?vid=e5444b26-80f3-4ae1-a1f2-15f77641559b","ios":"levelo://app?vid=e5444b26-80f3-4ae1-a1f2-15f77641559b"},"vehicle_type_id":"4","last_reported":1734005984,"current_range_meters":18800,"station_id":"ce4bhgp2rcd13ifvqfc0","pricing_plan_id":"cebpf4jnsgd1na2vs0mg"},{"bike_id":"b9abc3a1-d7ae-441a-b31a-ea81ee3b666c","system_id":"levelo_inurba_marseille","lat":43.2594,"lon":5.40906,"is_reserved":false,"is_disabled":false,"rental_uris":{"android":"levelo://app?vid=b9abc3a1-d7ae-441a-b31a-ea81ee3b666c","ios":"levelo://app?vid=b9abc3a1-d7ae-441a-b31a-ea81ee3b666c"},"vehicle_type_id":"4","last_reported":1734005984,"current_range_meters":11600,"station_id":"ce4bhm92rcd13ifvqglg","pricing_plan_id":"cebpf4jnsgd1na2vs0mg"},{"bike_id":"5746a913-59cb-4881-b851-217de753d5a3","system_id":"levelo_inurba_marseille","lat":43.25092,"lon":5.39507,"is_reserved":false,"is_disabled":false,"rental_uris":{"android":"levelo://app?vid=5746a913-59cb-4881-b851-217de753d5a3","ios":"levelo://app?vid=5746a913-59cb-4881-b851-217de753d5a3"},"vehicle_type_id":"4","last_reported":1734005984,"current_range_meters":38800,"station_id":"ce4bhm12rcd13ifvqgkg","pricing_plan_id":"cebpf4jnsgd1na2vs0mg"},{"bike_id":"18449eca-7cd4-4637-aad8-d740a9109818","system_id":"levelo_inurba_marseille","lat":43.26819,"lon":5.40265,"is_reserved":false,"is_disabled":false,"rental_uris":{"android":"levelo://app?vid=18449eca-7cd4-4637-aad8-d740a9109818","ios":"levelo://app?vid=18449eca-7cd4-4637-aad8-d740a9109818"},"vehicle_type_id":"4","last_reported":1734005984,"current_range_meters":38800,"station_id":"ce501612rcd8frsf0b60","pricing_plan_id":"cebpf4jnsgd1na2vs0mg"},{"bike_id":"36a0f318-ffb4-458a-894f-e9900d7ffdd6","system_id":"levelo_inurba_marseille","lat":43.26556,"lon":5.37285,"is_reserved":false,"is_disabled":false,"rental_uris":{"android":"levelo://app?vid=36a0f318-ffb4-458a-894f-e9900d7ffdd6","ios":"levelo://app?vid=36a0f318-ffb4-458a-894f-e9900d7ffdd6"},"vehicle_type_id":"4","last_reported":1734005984,"current_range_meters":38800,"station_id":"ce4bhg12rcd13ifvqf70","pricing_plan_id":"cebpf4jnsgd1na2vs0mg"},{"bike_id":"9f59f892-069b-4e04-9fca-167860a220e8","system_id":"levelo_inurba_marseille","lat":43.31533,"lon":5.38983,"is_reserved":false,"is_disabled":false,"rental_uris":{"android":"levelo://app?vid=9f59f892-069b-4e04-9fca-167860a220e8","ios":"levelo://app?vid=9f59f892-069b-4e04-9fca-167860a220e8"},"vehicle_type_id":"4","last_reported":1734005984,"current_range_meters":17600,"station_id":"","pricing_plan_id":"cebpf4jnsgd1na2vs0mg"},{"bike_id":"3d91e3c5-7cef-4a6b-b72c-1f72f9823e2d","system_id":"levelo_inurba_marseille","lat":43.30535,"lon":5.36553,"is_reserved":false,"is_disabled":false,"rental_uris":{"android":"levelo://app?vid=3d91e3c5-7cef-4a6b-b72c-1f72f9823e2d","ios":"levelo://app?vid=3d91e3c5-7cef-4a6b-b72c-1f72f9823e2d"},"vehicle_type_id":"4","last_reported":1734005984,"current_range_meters":4800,"station_id":"ce4bgs12rcd13ifvqcag","pricing_plan_id":"cebpf4jnsgd1na2vs0mg"},{"bike_id":"80510ff9-44ee-46ea-bdf8-034d7ce47940","system_id":"levelo_inurba_marseille","lat":43.24068,"lon":5.37762,"is_reserved":false,"is_disabled":false,"rental_uris":{"android":"levelo://app?vid=80510ff9-44ee-46ea-bdf8-034d7ce47940","ios":"levelo://app?vid=80510ff9-44ee-46ea-bdf8-034d7ce47940"},"vehicle_type_id":"4","last_reported":1734005984,"current_range_meters":22000,"station_id":"ce4bhnp2rcd13ifvqgvg","pricing_plan_id":"cebpf4jnsgd1na2vs0mg"},{"bike_id":"5b50c761-c308-453c-b843-bfbef13e70f8","system_id":"levelo_inurba_marseille","lat":43.30933,"lon":5.40148,"is_reserved":false,"is_disabled":false,"rental_uris":{"android":"levelo://app?vid=5b50c761-c308-453c-b843-bfbef13e70f8","ios":"levelo://app?vid=5b50c761-c308-453c-b843-bfbef13e70f8"},"vehicle_type_id":"4","last_reported":1734005984,"current_range_meters":20400,"station_id":"ce4bgvp2rcd13ifvqct0","pricing_plan_id":"cebpf4jnsgd1na2vs0mg"},{"bike_id":"191b91c4-b045-4485-b75b-4d48ac379799","system_id":"levelo_inurba_marseille","lat":43.29019,"lon":5.38135,"is_reserved":false,"is_disabled":false,"rental_uris":{"android":"levelo://app?vid=191b91c4-b045-4485-b75b-4d48ac379799","ios":"levelo://app?vid=191b91c4-b045-4485-b75b-4d48ac379799"},"vehicle_type_id":"4","last_reported":1734005984,"current_range_meters":4000,"station_id":"ce4bh4p2rcd13ifvqe1g","pricing_plan_id":"cebpf4jnsgd1na2vs0mg"},{"bike_id":"53e14b4a-061d-47e0-9d41-ff9b1a6d0a08","system_id":"levelo_inurba_marseille","lat":43.29821,"lon":5.3629,"is_reserved":false,"is_disabled":false,"rental_uris":{"android":"levelo://app?vid=53e14b4a-061d-47e0-9d41-ff9b1a6d0a08","ios":"levelo://app?vid=53e14b4a-061d-47e0-9d41-ff9b1a6d0a08"},"vehicle_type_id":"4","last_reported":1734005984,"current_range_meters":27200,"station_id":"ce4bgpp2rcd13ifvqc3g","pricing_plan_id":"cebpf4jnsgd1na2vs0mg"},{"bike_id":"f498b2a6-737a-406e-9b8d-c2c1f329c05f","system_id":"levelo_inurba_marseille","lat":43.24387,"lon":5.37065,"is_reserved":false,"is_disabled":false,"rental_uris":{"android":"levelo://app?vid=f498b2a6-737a-406e-9b8d-c2c1f329c05f","ios":"levelo://app?vid=f498b2a6-737a-406e-9b8d-c2c1f329c05f"},"vehicle_type_id":"4","last_reported":1734005984,"current_range_meters":38800,"station_id":"ce4bhhh2rcd13ifvqfk0","pricing_plan_id":"cebpf4jnsgd1na2vs0mg"},{"bike_id":"fd24a2da-f0fb-44be-8f43-5fe310e910a6","system_id":"levelo_inurba_marseille","lat":43.29016,"lon":5.38138,"is_reserved":false,"is_disabled":false,"rental_uris":{"android":"levelo://app?vid=fd24a2da-f0fb-44be-8f43-5fe310e910a6","ios":"levelo://app?vid=fd24a2da-f0fb-44be-8f43-5fe310e910a6"},"vehicle_type_id":"4","last_reported":1734005984,"current_range_meters":36000,"station_id":"ce4bh4p2rcd13ifvqe1g","pricing_plan_id":"cebpf4jnsgd1na2vs0mg"},{"bike_id":"55b90ab8-ad6e-4330-b578-7b6440304b5c","system_id":"levelo_inurba_marseille","lat":43.26206,"lon":5.37449,"is_reserved":false,"is_disabled":false,"rental_uris":{"android":"levelo://app?vid=55b90ab8-ad6e-4330-b578-7b6440304b5c","ios":"levelo://app?vid=55b90ab8-ad6e-4330-b578-7b6440304b5c"},"vehicle_type_id":"4","last_reported":1734005984,"current_range_meters":38800,"station_id":"ce4bhgp2rcd13ifvqfc0","pricing_plan_id":"cebpf4jnsgd1na2vs0mg"},{"bike_id":"3a77ba3a-a5a3-4091-8017-f4914693bd9c","system_id":"levelo_inurba_marseille","lat":43.25568,"lon":5.38248,"is_reserved":false,"is_disabled":false,"rental_uris":{"android":"levelo://app?vid=3a77ba3a-a5a3-4091-8017-f4914693bd9c","ios":"levelo://app?vid=3a77ba3a-a5a3-4091-8017-f4914693bd9c"},"vehicle_type_id":"4","last_reported":1734005984,"current_range_meters":12800,"station_id":"ce4bhih2rcd13ifvqfs0","pricing_plan_id":"cebpf4jnsgd1na2vs0mg"},{"bike_id":"9f4989f6-43fc-45c1-b0b9-70bcd9584c79","system_id":"levelo_inurba_marseille","lat":43.2318,"lon":5.3999,"is_reserved":false,"is_disabled":false,"rental_uris":{"android":"levelo://app?vid=9f4989f6-43fc-45c1-b0b9-70bcd9584c79","ios":"levelo://app?vid=9f4989f6-43fc-45c1-b0b9-70bcd9584c79"},"vehicle_type_id":"4","last_reported":1734005984,"current_range_meters":2800,"station_id":"ce4bhn12rcd13ifvqgqg","pricing_plan_id":"cebpf4jnsgd1na2vs0mg"},{"bike_id":"eeb1e2eb-b88f-4c04-a75a-6a89d53dd933","system_id":"levelo_inurba_marseille","lat":43.33018,"lon":5.39035,"is_reserved":false,"is_disabled":false,"rental_uris":{"android":"levelo://app?vid=eeb1e2eb-b88f-4c04-a75a-6a89d53dd933","ios":"levelo://app?vid=eeb1e2eb-b88f-4c04-a75a-6a89d53dd933"},"vehicle_type_id":"4","last_reported":1734005984,"current_range_meters":17200,"station_id":"ce4bhr92rcd13ifvqhrg","pricing_plan_id":"cebpf4jnsgd1na2vs0mg"},{"bike_id":"f7f90efb-53bf-46f2-ac20-c2e272931160","system_id":"levelo_inurba_marseille","lat":43.288994,"lon":5.363989,"is_reserved":false,"is_disabled":false,"rental_uris":{"android":"levelo://app?vid=f7f90efb-53bf-46f2-ac20-c2e272931160","ios":"levelo://app?vid=f7f90efb-53bf-46f2-ac20-c2e272931160"},"vehicle_type_id":"4","last_reported":1734005984,"current_range_meters":16000,"station_id":"","pricing_plan_id":"cebpf4jnsgd1na2vs0mg"},{"bike_id":"e966d2c7-c9e1-4cb1-9a39-6325607b0be4","system_id":"levelo_inurba_marseille","lat":43.337444,"lon":5.374475,"is_reserved":false,"is_disabled":true,"rental_uris":{"android":"levelo://app?vid=e966d2c7-c9e1-4cb1-9a39-6325607b0be4","ios":"levelo://app?vid=e966d2c7-c9e1-4cb1-9a39-6325607b0be4"},"vehicle_type_id":"4","last_reported":1734005984,"current_range_meters":0,"station_id":"","pricing_plan_id":"cebpf4jnsgd1na2vs0mg"},{"bike_id":"3ee290db-795e-4c03-8fa3-d15ad8d9a8fd","system_id":"levelo_inurba_marseille","lat":43.29698,"lon":5.3663,"is_reserved":false,"is_disabled":false,"rental_uris":{"android":"levelo://app?vid=3ee290db-795e-4c03-8fa3-d15ad8d9a8fd","ios":"levelo://app?vid=3ee290db-795e-4c03-8fa3-d15ad8d9a8fd"},"vehicle_type_id":"4","last_reported":1734005984,"current_range_meters":22800,"station_id":"ce4bgn12rcd13ifvqbt0","pricing_plan_id":"cebpf4jnsgd1na2vs0mg"},{"bike_id":"08f6dfd2-5a55-4565-9eb0-3f7235020a27","system_id":"levelo_inurba_marseille","lat":43.24549,"lon":5.39552,"is_reserved":false,"is_disabled":false,"rental_uris":{"android":"levelo://app?vid=08f6dfd2-5a55-4565-9eb0-3f7235020a27","ios":"levelo://app?vid=08f6dfd2-5a55-4565-9eb0-3f7235020a27"},"vehicle_type_id":"4","last_reported":1734005984,"current_range_meters":28400,"station_id":"ce4bhlp2rcd13ifvqgjg","pricing_plan_id":"cebpf4jnsgd1na2vs0mg"},{"bike_id":"6bc7401a-ad66-4e4d-bfd6-a954bc5b40c0","system_id":"levelo_inurba_marseille","lat":43.337527,"lon":5.37441,"is_reserved":false,"is_disabled":false,"rental_uris":{"android":"levelo://app?vid=6bc7401a-ad66-4e4d-bfd6-a954bc5b40c0","ios":"levelo://app?vid=6bc7401a-ad66-4e4d-bfd6-a954bc5b40c0"},"vehicle_type_id":"4","last_reported":1734005984,"current_range_meters":34800,"station_id":"","pricing_plan_id":"cebpf4jnsgd1na2vs0mg"},{"bike_id":"5999525f-af7d-4715-8f70-3febb5ff5513","system_id":"levelo_inurba_marseille","lat":43.28823,"lon":5.35859,"is_reserved":false,"is_disabled":false,"rental_uris":{"android":"levelo://app?vid=5999525f-af7d-4715-8f70-3febb5ff5513","ios":"levelo://app?vid=5999525f-af7d-4715-8f70-3febb5ff5513"},"vehicle_type_id":"4","last_reported":1734005984,"current_range_meters":36400,"station_id":"ce4bhb12rcd13ifvqem0","pricing_plan_id":"cebpf4jnsgd1na2vs0mg"},{"bike_id":"f0a4f587-2333-4a7a-8819-09121e495e1b","system_id":"levelo_inurba_marseille","lat":43.22928,"lon":5.35388,"is_reserved":false,"is_disabled":false,"rental_uris":{"android":"levelo://app?vid=f0a4f587-2333-4a7a-8819-09121e495e1b","ios":"levelo://app?vid=f0a4f587-2333-4a7a-8819-09121e495e1b"},"vehicle_type_id":"4","last_reported":1734005984,"current_range_meters":8800,"station_id":"cpo3532slgdg3j2ikp40","pricing_plan_id":"cebpf4jnsgd1na2vs0mg"},{"bike_id":"ba6fe419-774c-4091-895e-a76421491481","system_id":"levelo_inurba_marseille","lat":43.23124,"lon":5.43749,"is_reserved":false,"is_disabled":true,"rental_uris":{"android":"levelo://app?vid=ba6fe419-774c-4091-895e-a76421491481","ios":"levelo://app?vid=ba6fe419-774c-4091-895e-a76421491481"},"vehicle_type_id":"4","last_reported":1734005984,"current_range_meters":18000,"station_id":"","pricing_plan_id":"cebpf4jnsgd1na2vs0mg"},{"bike_id":"45354006-86f9-4c5e-b2eb-5597a60e305f","system_id":"levelo_inurba_marseille","lat":43.29026,"lon":5.3865,"is_reserved":false,"is_disabled":false,"rental_uris":{"android":"levelo://app?vid=45354006-86f9-4c5e-b2eb-5597a60e305f","ios":"levelo://app?vid=45354006-86f9-4c5e-b2eb-5597a60e305f"},"vehicle_type_id":"4","last_reported":1734005984,"current_range_meters":30400,"station_id":"ce4bh4p2rcd13ifvqe0g","pricing_plan_id":"cebpf4jnsgd1na2vs0mg"},{"bike_id":"98d77e7f-bf53-42f4-a0f9-7885863c6a73","system_id":"levelo_inurba_marseille","lat":43.26028,"lon":5.3755,"is_reserved":false,"is_disabled":false,"rental_uris":{"android":"levelo://app?vid=98d77e7f-bf53-42f4-a0f9-7885863c6a73","ios":"levelo://app?vid=98d77e7f-bf53-42f4-a0f9-7885863c6a73"},"vehicle_type_id":"4","last_reported":1734005984,"current_range_meters":38800,"station_id":"ce4bhgh2rcd13ifvqfa0","pricing_plan_id":"cebpf4jnsgd1na2vs0mg"},{"bike_id":"e2b090ff-7c7f-4d4a-8f5b-c317e750043e","system_id":"levelo_inurba_marseille","lat":43.27067,"lon":5.42282,"is_reserved":false,"is_disabled":true,"rental_uris":{"android":"levelo://app?vid=e2b090ff-7c7f-4d4a-8f5b-c317e750043e","ios":"levelo://app?vid=e2b090ff-7c7f-4d4a-8f5b-c317e750043e"},"vehicle_type_id":"4","last_reported":1734005984,"current_range_meters":0,"station_id":"ce4bhk92rcd13ifvqgb0","pricing_plan_id":"cebpf4jnsgd1na2vs0mg"},{"bike_id":"1802c294-deb8-4890-b7ca-3e995fd26543","system_id":"levelo_inurba_marseille","lat":43.27075,"lon":5.42278,"is_reserved":false,"is_disabled":false,"rental_uris":{"android":"levelo://app?vid=1802c294-deb8-4890-b7ca-3e995fd26543","ios":"levelo://app?vid=1802c294-deb8-4890-b7ca-3e995fd26543"},"vehicle_type_id":"4","last_reported":1734005984,"current_range_meters":32000,"station_id":"ce4bhk92rcd13ifvqgb0","pricing_plan_id":"cebpf4jnsgd1na2vs0mg"},{"bike_id":"3666bc95-b3c8-49ab-b2fc-2a0b5421b393","system_id":"levelo_inurba_marseille","lat":43.30544,"lon":5.36529,"is_reserved":false,"is_disabled":false,"rental_uris":{"android":"levelo://app?vid=3666bc95-b3c8-49ab-b2fc-2a0b5421b393","ios":"levelo://app?vid=3666bc95-b3c8-49ab-b2fc-2a0b5421b393"},"vehicle_type_id":"4","last_reported":1734005984,"current_range_meters":26800,"station_id":"ce4bgs12rcd13ifvqcag","pricing_plan_id":"cebpf4jnsgd1na2vs0mg"},{"bike_id":"fe4d47c1-dfb5-4e68-bfe4-126efd20c0c3","system_id":"levelo_inurba_marseille","lat":43.308,"lon":5.37344,"is_reserved":false,"is_disabled":false,"rental_uris":{"android":"levelo://app?vid=fe4d47c1-dfb5-4e68-bfe4-126efd20c0c3","ios":"levelo://app?vid=fe4d47c1-dfb5-4e68-bfe4-126efd20c0c3"},"vehicle_type_id":"4","last_reported":1734005984,"current_range_meters":22400,"station_id":"","pricing_plan_id":"cebpf4jnsgd1na2vs0mg"},{"bike_id":"ef082afa-57aa-4dec-8727-0d4c45fe564c","system_id":"levelo_inurba_marseille","lat":43.29573,"lon":5.37506,"is_reserved":false,"is_disabled":false,"rental_uris":{"android":"levelo://app?vid=ef082afa-57aa-4dec-8727-0d4c45fe564c","ios":"levelo://app?vid=ef082afa-57aa-4dec-8727-0d4c45fe564c"},"vehicle_type_id":"4","last_reported":1734005984,"current_range_meters":38800,"station_id":"ce4bgh92rcd13ifvqb50","pricing_plan_id":"cebpf4jnsgd1na2vs0mg"},{"bike_id":"8bce4d14-97e1-4732-8b97-92aecbbe2473","system_id":"levelo_inurba_marseille","lat":43.2407,"lon":5.37749,"is_reserved":false,"is_disabled":false,"rental_uris":{"android":"levelo://app?vid=8bce4d14-97e1-4732-8b97-92aecbbe2473","ios":"levelo://app?vid=8bce4d14-97e1-4732-8b97-92aecbbe2473"},"vehicle_type_id":"4","last_reported":1734005984,"current_range_meters":6000,"station_id":"ce4bhnp2rcd13ifvqgvg","pricing_plan_id":"cebpf4jnsgd1na2vs0mg"},{"bike_id":"886c6ddd-f2db-4f1d-a04c-6128017a69e9","system_id":"levelo_inurba_marseille","lat":43.27838,"lon":5.39214,"is_reserved":false,"is_disabled":false,"rental_uris":{"android":"levelo://app?vid=886c6ddd-f2db-4f1d-a04c-6128017a69e9","ios":"levelo://app?vid=886c6ddd-f2db-4f1d-a04c-6128017a69e9"},"vehicle_type_id":"4","last_reported":1734005984,"current_range_meters":35600,"station_id":"ce4bhjp2rcd13ifvqga0","pricing_plan_id":"cebpf4jnsgd1na2vs0mg"},{"bike_id":"097a41bf-6635-41a6-b7a7-1173cae29ada","system_id":"levelo_inurba_marseille","lat":43.22915,"lon":5.35373,"is_reserved":false,"is_disabled":false,"rental_uris":{"android":"levelo://app?vid=097a41bf-6635-41a6-b7a7-1173cae29ada","ios":"levelo://app?vid=097a41bf-6635-41a6-b7a7-1173cae29ada"},"vehicle_type_id":"4","last_reported":1734005984,"current_range_meters":38800,"station_id":"cpo3532slgdg3j2ikp40","pricing_plan_id":"cebpf4jnsgd1na2vs0mg"},{"bike_id":"4d5881bc-1b66-4424-9cca-37b7d62f3c7f","system_id":"levelo_inurba_marseille","lat":43.29935,"lon":5.38487,"is_reserved":false,"is_disabled":false,"rental_uris":{"android":"levelo://app?vid=4d5881bc-1b66-4424-9cca-37b7d62f3c7f","ios":"levelo://app?vid=4d5881bc-1b66-4424-9cca-37b7d62f3c7f"},"vehicle_type_id":"4","last_reported":1734005984,"current_range_meters":38400,"station_id":"ce4bgj92rcd13ifvqbd0","pricing_plan_id":"cebpf4jnsgd1na2vs0mg"},{"bike_id":"9e91a7f7-a3b7-4275-90eb-66dea1be367d","system_id":"levelo_inurba_marseille","lat":43.29915,"lon":5.37469,"is_reserved":false,"is_disabled":false,"rental_uris":{"android":"levelo://app?vid=9e91a7f7-a3b7-4275-90eb-66dea1be367d","ios":"levelo://app?vid=9e91a7f7-a3b7-4275-90eb-66dea1be367d"},"vehicle_type_id":"4","last_reported":1734005984,"current_range_meters":20400,"station_id":"ce4bgjh2rcd13ifvqbg0","pricing_plan_id":"cebpf4jnsgd1na2vs0mg"},{"bike_id":"8b824110-fc17-40d0-b699-2864080a924a","system_id":"levelo_inurba_marseille","lat":43.29524,"lon":5.38543,"is_reserved":false,"is_disabled":false,"rental_uris":{"android":"levelo://app?vid=8b824110-fc17-40d0-b699-2864080a924a","ios":"levelo://app?vid=8b824110-fc17-40d0-b699-2864080a924a"},"vehicle_type_id":"4","last_reported":1734005984,"current_range_meters":33600,"station_id":"ce4bgih2rcd13ifvqba0","pricing_plan_id":"cebpf4jnsgd1na2vs0mg"},{"bike_id":"a3044a30-e2bc-4fb6-92f4-50730694b7a9","system_id":"levelo_inurba_marseille","lat":43.26195,"lon":5.37453,"is_reserved":false,"is_disabled":false,"rental_uris":{"android":"levelo://app?vid=a3044a30-e2bc-4fb6-92f4-50730694b7a9","ios":"levelo://app?vid=a3044a30-e2bc-4fb6-92f4-50730694b7a9"},"vehicle_type_id":"4","last_reported":1734005984,"current_range_meters":32400,"station_id":"ce4bhgp2rcd13ifvqfc0","pricing_plan_id":"cebpf4jnsgd1na2vs0mg"},{"bike_id":"bd065396-8c4c-4544-93ab-5b3ff017674b","system_id":"levelo_inurba_marseille","lat":43.31702,"lon":5.37745,"is_reserved":false,"is_disabled":false,"rental_uris":{"android":"levelo://app?vid=bd065396-8c4c-4544-93ab-5b3ff017674b","ios":"levelo://app?vid=bd065396-8c4c-4544-93ab-5b3ff017674b"},"vehicle_type_id":"4","last_reported":1734005984,"current_range_meters":8800,"station_id":"ce4bgth2rcd13ifvqch0","pricing_plan_id":"cebpf4jnsgd1na2vs0mg"},{"bike_id":"e6c06963-6213-41e1-9ef9-cf91f8f39904","system_id":"levelo_inurba_marseille","lat":43.29643,"lon":5.37783,"is_reserved":false,"is_disabled":false,"rental_uris":{"android":"levelo://app?vid=e6c06963-6213-41e1-9ef9-cf91f8f39904","ios":"levelo://app?vid=e6c06963-6213-41e1-9ef9-cf91f8f39904"},"vehicle_type_id":"4","last_reported":1734005984,"current_range_meters":36800,"station_id":"ce4bh9p2rcd13ifvqed0","pricing_plan_id":"cebpf4jnsgd1na2vs0mg"},{"bike_id":"5f6181a7-d93e-487e-9159-65c14d65a512","system_id":"levelo_inurba_marseille","lat":43.29026,"lon":5.38642,"is_reserved":false,"is_disabled":false,"rental_uris":{"android":"levelo://app?vid=5f6181a7-d93e-487e-9159-65c14d65a512","ios":"levelo://app?vid=5f6181a7-d93e-487e-9159-65c14d65a512"},"vehicle_type_id":"4","last_reported":1734005984,"current_range_meters":22400,"station_id":"ce4bh4p2rcd13ifvqe0g","pricing_plan_id":"cebpf4jnsgd1na2vs0mg"},{"bike_id":"d6c7aae0-ed10-4114-a5cb-52d404980a9f","system_id":"levelo_inurba_marseille","lat":43.29031,"lon":5.39974,"is_reserved":false,"is_disabled":true,"rental_uris":{"android":"levelo://app?vid=d6c7aae0-ed10-4114-a5cb-52d404980a9f","ios":"levelo://app?vid=d6c7aae0-ed10-4114-a5cb-52d404980a9f"},"vehicle_type_id":"4","last_reported":1734005984,"current_range_meters":29600,"station_id":"ce4bh392rcd13ifvqdm0","pricing_plan_id":"cebpf4jnsgd1na2vs0mg"},{"bike_id":"dbf212a4-5c61-42a2-9fb0-64e326737fba","system_id":"levelo_inurba_marseille","lat":43.25584,"lon":5.38222,"is_reserved":false,"is_disabled":false,"rental_uris":{"android":"levelo://app?vid=dbf212a4-5c61-42a2-9fb0-64e326737fba","ios":"levelo://app?vid=dbf212a4-5c61-42a2-9fb0-64e326737fba"},"vehicle_type_id":"4","last_reported":1734005984,"current_range_meters":34800,"station_id":"ce4bhih2rcd13ifvqfs0","pricing_plan_id":"cebpf4jnsgd1na2vs0mg"},{"bike_id":"89f24dc5-38fd-4c74-af12-df0de405d696","system_id":"levelo_inurba_marseille","lat":43.29576,"lon":5.375,"is_reserved":false,"is_disabled":false,"rental_uris":{"android":"levelo://app?vid=89f24dc5-38fd-4c74-af12-df0de405d696","ios":"levelo://app?vid=89f24dc5-38fd-4c74-af12-df0de405d696"},"vehicle_type_id":"4","last_reported":1734005984,"current_range_meters":33200,"station_id":"ce4bgh92rcd13ifvqb50","pricing_plan_id":"cebpf4jnsgd1na2vs0mg"},{"bike_id":"96a6ac49-bd0f-45e4-817e-bb9177919e0f","system_id":"levelo_inurba_marseille","lat":43.27312,"lon":5.3911,"is_reserved":false,"is_disabled":false,"rental_uris":{"android":"levelo://app?vid=96a6ac49-bd0f-45e4-817e-bb9177919e0f","ios":"levelo://app?vid=96a6ac49-bd0f-45e4-817e-bb9177919e0f"},"vehicle_type_id":"4","last_reported":1734005984,"current_range_meters":10000,"station_id":"ce4bhgp2rcd13ifvqfe0","pricing_plan_id":"cebpf4jnsgd1na2vs0mg"},{"bike_id":"af77a2c4-4f01-4eac-8bd5-698508bacd7c","system_id":"levelo_inurba_marseille","lat":43.2719,"lon":5.40998,"is_reserved":false,"is_disabled":false,"rental_uris":{"android":"levelo://app?vid=af77a2c4-4f01-4eac-8bd5-698508bacd7c","ios":"levelo://app?vid=af77a2c4-4f01-4eac-8bd5-698508bacd7c"},"vehicle_type_id":"4","last_reported":1734005984,"current_range_meters":18800,"station_id":"ce4bhl12rcd13ifvqgf0","pricing_plan_id":"cebpf4jnsgd1na2vs0mg"},{"bike_id":"e5a9391a-82e0-4abd-b919-a39ac2b617e1","system_id":"levelo_inurba_marseille","lat":43.26212,"lon":5.37441,"is_reserved":false,"is_disabled":false,"rental_uris":{"android":"levelo://app?vid=e5a9391a-82e0-4abd-b919-a39ac2b617e1","ios":"levelo://app?vid=e5a9391a-82e0-4abd-b919-a39ac2b617e1"},"vehicle_type_id":"4","last_reported":1734005984,"current_range_meters":32000,"station_id":"ce4bhgp2rcd13ifvqfc0","pricing_plan_id":"cebpf4jnsgd1na2vs0mg"},{"bike_id":"3e770353-f36f-45b9-8d25-bbce84e9a6cf","system_id":"levelo_inurba_marseille","lat":43.26566,"lon":5.39008,"is_reserved":false,"is_disabled":false,"rental_uris":{"android":"levelo://app?vid=3e770353-f36f-45b9-8d25-bbce84e9a6cf","ios":"levelo://app?vid=3e770353-f36f-45b9-8d25-bbce84e9a6cf"},"vehicle_type_id":"4","last_reported":1734005984,"current_range_meters":18000,"station_id":"ce4bhe12rcd13ifvqf30","pricing_plan_id":"cebpf4jnsgd1na2vs0mg"},{"bike_id":"127c0d0c-feff-4dd8-b28b-0023208de9c2","system_id":"levelo_inurba_marseille","lat":43.26214,"lon":5.37464,"is_reserved":false,"is_disabled":false,"rental_uris":{"android":"levelo://app?vid=127c0d0c-feff-4dd8-b28b-0023208de9c2","ios":"levelo://app?vid=127c0d0c-feff-4dd8-b28b-0023208de9c2"},"vehicle_type_id":"4","last_reported":1734005984,"current_range_meters":39200,"station_id":"ce4bhgp2rcd13ifvqfc0","pricing_plan_id":"cebpf4jnsgd1na2vs0mg"},{"bike_id":"80fc4f35-2cbc-48bd-81dd-29f6639909e4","system_id":"levelo_inurba_marseille","lat":43.32364,"lon":5.38887,"is_reserved":false,"is_disabled":false,"rental_uris":{"android":"levelo://app?vid=80fc4f35-2cbc-48bd-81dd-29f6639909e4","ios":"levelo://app?vid=80fc4f35-2cbc-48bd-81dd-29f6639909e4"},"vehicle_type_id":"4","last_reported":1734005984,"current_range_meters":28400,"station_id":"ce4bhqp2rcd13ifvqhog","pricing_plan_id":"cebpf4jnsgd1na2vs0mg"},{"bike_id":"b4b002af-b566-4f7f-b733-4ec08c23fb23","system_id":"levelo_inurba_marseille","lat":43.31349,"lon":5.36723,"is_reserved":false,"is_disabled":false,"rental_uris":{"android":"levelo://app?vid=b4b002af-b566-4f7f-b733-4ec08c23fb23","ios":"levelo://app?vid=b4b002af-b566-4f7f-b733-4ec08c23fb23"},"vehicle_type_id":"4","last_reported":1734005984,"current_range_meters":23200,"station_id":"ce4bgr92rcd13ifvqc6g","pricing_plan_id":"cebpf4jnsgd1na2vs0mg"},{"bike_id":"a66c4b95-337e-4b9a-950c-e8c8d8e7a3a1","system_id":"levelo_inurba_marseille","lat":43.324799,"lon":5.365716,"is_reserved":false,"is_disabled":true,"rental_uris":{"android":"levelo://app?vid=a66c4b95-337e-4b9a-950c-e8c8d8e7a3a1","ios":"levelo://app?vid=a66c4b95-337e-4b9a-950c-e8c8d8e7a3a1"},"vehicle_type_id":"4","last_reported":1734005984,"current_range_meters":0,"station_id":"","pricing_plan_id":"cebpf4jnsgd1na2vs0mg"},{"bike_id":"321fd520-305a-4bff-ae40-2c4ccb7ccf74","system_id":"levelo_inurba_marseille","lat":43.290169,"lon":5.381529,"is_reserved":false,"is_disabled":true,"rental_uris":{"android":"levelo://app?vid=321fd520-305a-4bff-ae40-2c4ccb7ccf74","ios":"levelo://app?vid=321fd520-305a-4bff-ae40-2c4ccb7ccf74"},"vehicle_type_id":"4","last_reported":1734005984,"current_range_meters":38400,"station_id":"ce4bh4p2rcd13ifvqe1g","pricing_plan_id":"cebpf4jnsgd1na2vs0mg"},{"bike_id":"4b4f7371-d930-4169-a3c9-fe334977930f","system_id":"levelo_inurba_marseille","lat":43.24079,"lon":5.37755,"is_reserved":false,"is_disabled":false,"rental_uris":{"android":"levelo://app?vid=4b4f7371-d930-4169-a3c9-fe334977930f","ios":"levelo://app?vid=4b4f7371-d930-4169-a3c9-fe334977930f"},"vehicle_type_id":"4","last_reported":1734005984,"current_range_meters":38400,"station_id":"ce4bhnp2rcd13ifvqgvg","pricing_plan_id":"cebpf4jnsgd1na2vs0mg"},{"bike_id":"bc4971c4-ad51-4dd9-8b20-661bacd6a10c","system_id":"levelo_inurba_marseille","lat":43.31176,"lon":5.38722,"is_reserved":false,"is_disabled":true,"rental_uris":{"android":"levelo://app?vid=bc4971c4-ad51-4dd9-8b20-661bacd6a10c","ios":"levelo://app?vid=bc4971c4-ad51-4dd9-8b20-661bacd6a10c"},"vehicle_type_id":"4","last_reported":1734005984,"current_range_meters":38800,"station_id":"ce4bgv12rcd13ifvqcp0","pricing_plan_id":"cebpf4jnsgd1na2vs0mg"},{"bike_id":"e991a02a-7a74-44b6-a7fe-5e9366b8265c","system_id":"levelo_inurba_marseille","lat":43.31226,"lon":5.3687,"is_reserved":false,"is_disabled":false,"rental_uris":{"android":"levelo://app?vid=e991a02a-7a74-44b6-a7fe-5e9366b8265c","ios":"levelo://app?vid=e991a02a-7a74-44b6-a7fe-5e9366b8265c"},"vehicle_type_id":"4","last_reported":1734005984,"current_range_meters":39200,"station_id":"ce4bgl92rcd13ifvqbq0","pricing_plan_id":"cebpf4jnsgd1na2vs0mg"},{"bike_id":"c6961e47-eb83-4db5-8b42-4813b69f057b","system_id":"levelo_inurba_marseille","lat":43.28145,"lon":5.4265,"is_reserved":false,"is_disabled":false,"rental_uris":{"android":"levelo://app?vid=c6961e47-eb83-4db5-8b42-4813b69f057b","ios":"levelo://app?vid=c6961e47-eb83-4db5-8b42-4813b69f057b"},"vehicle_type_id":"4","last_reported":1734005984,"current_range_meters":26800,"station_id":"ce4bhnh2rcd13ifvqgug","pricing_plan_id":"cebpf4jnsgd1na2vs0mg"},{"bike_id":"b28364cf-3764-46be-9e34-df111405ff85","system_id":"levelo_inurba_marseille","lat":43.32662,"lon":5.40992,"is_reserved":false,"is_disabled":false,"rental_uris":{"android":"levelo://app?vid=b28364cf-3764-46be-9e34-df111405ff85","ios":"levelo://app?vid=b28364cf-3764-46be-9e34-df111405ff85"},"vehicle_type_id":"4","last_reported":1734005984,"current_range_meters":36800,"station_id":"ce4bhpp2rcd13ifvqhgg","pricing_plan_id":"cebpf4jnsgd1na2vs0mg"},{"bike_id":"2cb31e70-9d17-4a6d-921e-39500dc031e0","system_id":"levelo_inurba_marseille","lat":43.28853,"lon":5.35869,"is_reserved":false,"is_disabled":false,"rental_uris":{"android":"levelo://app?vid=2cb31e70-9d17-4a6d-921e-39500dc031e0","ios":"levelo://app?vid=2cb31e70-9d17-4a6d-921e-39500dc031e0"},"vehicle_type_id":"4","last_reported":1734005984,"current_range_meters":10000,"station_id":"ce4bhb12rcd13ifvqem0","pricing_plan_id":"cebpf4jnsgd1na2vs0mg"},{"bike_id":"27dc3c01-a6a9-4e8e-b13b-a1619d3a93b5","system_id":"levelo_inurba_marseille","lat":43.28932,"lon":5.36641,"is_reserved":false,"is_disabled":false,"rental_uris":{"android":"levelo://app?vid=27dc3c01-a6a9-4e8e-b13b-a1619d3a93b5","ios":"levelo://app?vid=27dc3c01-a6a9-4e8e-b13b-a1619d3a93b5"},"vehicle_type_id":"4","last_reported":1734005984,"current_range_meters":34000,"station_id":"ce4bhap2rcd13ifvqek0","pricing_plan_id":"cebpf4jnsgd1na2vs0mg"},{"bike_id":"b29f3572-8242-4e95-9b80-1ba5e655a43a","system_id":"levelo_inurba_marseille","lat":43.29879,"lon":5.39097,"is_reserved":false,"is_disabled":true,"rental_uris":{"android":"levelo://app?vid=b29f3572-8242-4e95-9b80-1ba5e655a43a","ios":"levelo://app?vid=b29f3572-8242-4e95-9b80-1ba5e655a43a"},"vehicle_type_id":"4","last_reported":1734005984,"current_range_meters":24800,"station_id":"","pricing_plan_id":"cebpf4jnsgd1na2vs0mg"},{"bike_id":"c8d33ec2-43d6-4ef4-ae38-1da13025d138","system_id":"levelo_inurba_marseille","lat":43.30527,"lon":5.36711,"is_reserved":false,"is_disabled":false,"rental_uris":{"android":"levelo://app?vid=c8d33ec2-43d6-4ef4-ae38-1da13025d138","ios":"levelo://app?vid=c8d33ec2-43d6-4ef4-ae38-1da13025d138"},"vehicle_type_id":"4","last_reported":1734005984,"current_range_meters":8400,"station_id":"ce4bgrp2rcd13ifvqc9g","pricing_plan_id":"cebpf4jnsgd1na2vs0mg"},{"bike_id":"4aa4fe2c-b87b-43dd-96f4-84e10ee4820a","system_id":"levelo_inurba_marseille","lat":43.2694,"lon":5.38907,"is_reserved":false,"is_disabled":false,"rental_uris":{"android":"levelo://app?vid=4aa4fe2c-b87b-43dd-96f4-84e10ee4820a","ios":"levelo://app?vid=4aa4fe2c-b87b-43dd-96f4-84e10ee4820a"},"vehicle_type_id":"4","last_reported":1734005984,"current_range_meters":20400,"station_id":"ce4bhhh2rcd13ifvqfl0","pricing_plan_id":"cebpf4jnsgd1na2vs0mg"},{"bike_id":"b7b69989-8885-453b-a4f3-75e9d2da8f3f","system_id":"levelo_inurba_marseille","lat":43.30597,"lon":5.39363,"is_reserved":false,"is_disabled":false,"rental_uris":{"android":"levelo://app?vid=b7b69989-8885-453b-a4f3-75e9d2da8f3f","ios":"levelo://app?vid=b7b69989-8885-453b-a4f3-75e9d2da8f3f"},"vehicle_type_id":"4","last_reported":1734005984,"current_range_meters":6800,"station_id":"ce4bh0p2rcd13ifvqd80","pricing_plan_id":"cebpf4jnsgd1na2vs0mg"},{"bike_id":"e525be4d-1e19-43e2-9b40-c5c90d80c642","system_id":"levelo_inurba_marseille","lat":43.28408,"lon":5.35004,"is_reserved":false,"is_disabled":false,"rental_uris":{"android":"levelo://app?vid=e525be4d-1e19-43e2-9b40-c5c90d80c642","ios":"levelo://app?vid=e525be4d-1e19-43e2-9b40-c5c90d80c642"},"vehicle_type_id":"4","last_reported":1734005984,"current_range_meters":7200,"station_id":"ce4bhbh2rcd13ifvqepg","pricing_plan_id":"cebpf4jnsgd1na2vs0mg"},{"bike_id":"034afd89-7884-46aa-947a-c5f301e52728","system_id":"levelo_inurba_marseille","lat":43.30883,"lon":5.3965,"is_reserved":false,"is_disabled":true,"rental_uris":{"android":"levelo://app?vid=034afd89-7884-46aa-947a-c5f301e52728","ios":"levelo://app?vid=034afd89-7884-46aa-947a-c5f301e52728"},"vehicle_type_id":"4","last_reported":1734005984,"current_range_meters":17600,"station_id":"ce4bh012rcd13ifvqcv0","pricing_plan_id":"cebpf4jnsgd1na2vs0mg"},{"bike_id":"134cdf78-7b21-48db-af8b-22b0d197ea89","system_id":"levelo_inurba_marseille","lat":43.3376,"lon":5.3746,"is_reserved":false,"is_disabled":false,"rental_uris":{"android":"levelo://app?vid=134cdf78-7b21-48db-af8b-22b0d197ea89","ios":"levelo://app?vid=134cdf78-7b21-48db-af8b-22b0d197ea89"},"vehicle_type_id":"4","last_reported":1734005984,"current_range_meters":36400,"station_id":"","pricing_plan_id":"cebpf4jnsgd1na2vs0mg"},{"bike_id":"a8942e43-f3d6-46fd-8576-2cc6b2787f3e","system_id":"levelo_inurba_marseille","lat":43.33017,"lon":5.39058,"is_reserved":false,"is_disabled":false,"rental_uris":{"android":"levelo://app?vid=a8942e43-f3d6-46fd-8576-2cc6b2787f3e","ios":"levelo://app?vid=a8942e43-f3d6-46fd-8576-2cc6b2787f3e"},"vehicle_type_id":"4","last_reported":1734005984,"current_range_meters":24800,"station_id":"ce4bhr92rcd13ifvqhrg","pricing_plan_id":"cebpf4jnsgd1na2vs0mg"},{"bike_id":"e3f1f49f-7793-4d8a-b1d1-fc36ca58efba","system_id":"levelo_inurba_marseille","lat":43.291016,"lon":5.372067,"is_reserved":false,"is_disabled":false,"rental_uris":{"android":"levelo://app?vid=e3f1f49f-7793-4d8a-b1d1-fc36ca58efba","ios":"levelo://app?vid=e3f1f49f-7793-4d8a-b1d1-fc36ca58efba"},"vehicle_type_id":"4","last_reported":1734005984,"current_range_meters":24400,"station_id":"ce4bha92rcd13ifvqeh0","pricing_plan_id":"cebpf4jnsgd1na2vs0mg"},{"bike_id":"0b1fca49-fc15-4630-a889-cb302544174c","system_id":"levelo_inurba_marseille","lat":43.28702,"lon":5.37949,"is_reserved":false,"is_disabled":true,"rental_uris":{"android":"levelo://app?vid=0b1fca49-fc15-4630-a889-cb302544174c","ios":"levelo://app?vid=0b1fca49-fc15-4630-a889-cb302544174c"},"vehicle_type_id":"4","last_reported":1734005984,"current_range_meters":38800,"station_id":"ce4bh9p2rcd13ifvqec0","pricing_plan_id":"cebpf4jnsgd1na2vs0mg"},{"bike_id":"0481192f-9855-4088-a2ba-cad47a814c8e","system_id":"levelo_inurba_marseille","lat":43.24671,"lon":5.38146,"is_reserved":false,"is_disabled":false,"rental_uris":{"android":"levelo://app?vid=0481192f-9855-4088-a2ba-cad47a814c8e","ios":"levelo://app?vid=0481192f-9855-4088-a2ba-cad47a814c8e"},"vehicle_type_id":"4","last_reported":1734005984,"current_range_meters":24000,"station_id":"ce4bhih2rcd13ifvqfr0","pricing_plan_id":"cebpf4jnsgd1na2vs0mg"},{"bike_id":"3eab31be-bcc4-4135-8526-f747e5db73b1","system_id":"levelo_inurba_marseille","lat":43.27947,"lon":5.41057,"is_reserved":false,"is_disabled":false,"rental_uris":{"android":"levelo://app?vid=3eab31be-bcc4-4135-8526-f747e5db73b1","ios":"levelo://app?vid=3eab31be-bcc4-4135-8526-f747e5db73b1"},"vehicle_type_id":"4","last_reported":1734005984,"current_range_meters":14400,"station_id":"ce4bhnp2rcd13ifvqh0g","pricing_plan_id":"cebpf4jnsgd1na2vs0mg"},{"bike_id":"6a2507b3-2e32-42a9-8376-e3e17531d5c9","system_id":"levelo_inurba_marseille","lat":43.33022,"lon":5.39038,"is_reserved":false,"is_disabled":false,"rental_uris":{"android":"levelo://app?vid=6a2507b3-2e32-42a9-8376-e3e17531d5c9","ios":"levelo://app?vid=6a2507b3-2e32-42a9-8376-e3e17531d5c9"},"vehicle_type_id":"4","last_reported":1734005984,"current_range_meters":16000,"station_id":"ce4bhr92rcd13ifvqhrg","pricing_plan_id":"cebpf4jnsgd1na2vs0mg"},{"bike_id":"fa15f52c-d82e-442e-8b00-07cecdb5a28d","system_id":"levelo_inurba_marseille","lat":43.26206,"lon":5.37445,"is_reserved":false,"is_disabled":false,"rental_uris":{"android":"levelo://app?vid=fa15f52c-d82e-442e-8b00-07cecdb5a28d","ios":"levelo://app?vid=fa15f52c-d82e-442e-8b00-07cecdb5a28d"},"vehicle_type_id":"4","last_reported":1734005984,"current_range_meters":32000,"station_id":"ce4bhgp2rcd13ifvqfc0","pricing_plan_id":"cebpf4jnsgd1na2vs0mg"},{"bike_id":"a648cb11-d201-472f-985c-1caebce50f76","system_id":"levelo_inurba_marseille","lat":43.29374,"lon":5.37844,"is_reserved":false,"is_disabled":true,"rental_uris":{"android":"levelo://app?vid=a648cb11-d201-472f-985c-1caebce50f76","ios":"levelo://app?vid=a648cb11-d201-472f-985c-1caebce50f76"},"vehicle_type_id":"4","last_reported":1734005984,"current_range_meters":0,"station_id":"ce4bgjh2rcd13ifvqbf0","pricing_plan_id":"cebpf4jnsgd1na2vs0mg"},{"bike_id":"f5a328d6-5258-4762-bac6-bf1eb3656810","system_id":"levelo_inurba_marseille","lat":43.26025,"lon":5.37573,"is_reserved":false,"is_disabled":false,"rental_uris":{"android":"levelo://app?vid=f5a328d6-5258-4762-bac6-bf1eb3656810","ios":"levelo://app?vid=f5a328d6-5258-4762-bac6-bf1eb3656810"},"vehicle_type_id":"4","last_reported":1734005984,"current_range_meters":39200,"station_id":"ce4bhgh2rcd13ifvqfa0","pricing_plan_id":"cebpf4jnsgd1na2vs0mg"},{"bike_id":"54858b63-5ac8-425a-affd-4b4505ea48dd","system_id":"levelo_inurba_marseille","lat":43.28439,"lon":5.39209,"is_reserved":false,"is_disabled":false,"rental_uris":{"android":"levelo://app?vid=54858b63-5ac8-425a-affd-4b4505ea48dd","ios":"levelo://app?vid=54858b63-5ac8-425a-affd-4b4505ea48dd"},"vehicle_type_id":"4","last_reported":1734005984,"current_range_meters":37600,"station_id":"ce4bhoh2rcd13ifvqh5g","pricing_plan_id":"cebpf4jnsgd1na2vs0mg"},{"bike_id":"a3fdb5e6-3b81-4927-96e3-1b1fadc083e6","system_id":"levelo_inurba_marseille","lat":43.27434,"lon":5.3941,"is_reserved":false,"is_disabled":false,"rental_uris":{"android":"levelo://app?vid=a3fdb5e6-3b81-4927-96e3-1b1fadc083e6","ios":"levelo://app?vid=a3fdb5e6-3b81-4927-96e3-1b1fadc083e6"},"vehicle_type_id":"4","last_reported":1734005984,"current_range_meters":36800,"station_id":"ce4bhdp2rcd13ifvqf20","pricing_plan_id":"cebpf4jnsgd1na2vs0mg"},{"bike_id":"90acf504-b5df-4fe5-8f73-df39a8823ac4","system_id":"levelo_inurba_marseille","lat":43.27954,"lon":5.38601,"is_reserved":false,"is_disabled":false,"rental_uris":{"android":"levelo://app?vid=90acf504-b5df-4fe5-8f73-df39a8823ac4","ios":"levelo://app?vid=90acf504-b5df-4fe5-8f73-df39a8823ac4"},"vehicle_type_id":"4","last_reported":1734005984,"current_range_meters":38800,"station_id":"ce4bhg12rcd13ifvqf80","pricing_plan_id":"cebpf4jnsgd1na2vs0mg"},{"bike_id":"7965bd8b-65b9-4460-9e65-36f253ebc53b","system_id":"levelo_inurba_marseille","lat":43.32046,"lon":5.41516,"is_reserved":false,"is_disabled":false,"rental_uris":{"android":"levelo://app?vid=7965bd8b-65b9-4460-9e65-36f253ebc53b","ios":"levelo://app?vid=7965bd8b-65b9-4460-9e65-36f253ebc53b"},"vehicle_type_id":"4","last_reported":1734005984,"current_range_meters":26000,"station_id":"ce4bhq92rcd13ifvqhkg","pricing_plan_id":"cebpf4jnsgd1na2vs0mg"},{"bike_id":"8a939789-b594-464c-87bc-cdbd1182be3b","system_id":"levelo_inurba_marseille","lat":43.24536,"lon":5.39539,"is_reserved":false,"is_disabled":false,"rental_uris":{"android":"levelo://app?vid=8a939789-b594-464c-87bc-cdbd1182be3b","ios":"levelo://app?vid=8a939789-b594-464c-87bc-cdbd1182be3b"},"vehicle_type_id":"4","last_reported":1734005984,"current_range_meters":16000,"station_id":"ce4bhlp2rcd13ifvqgjg","pricing_plan_id":"cebpf4jnsgd1na2vs0mg"},{"bike_id":"4db6d7cf-52e4-4fe5-a62c-5533c4405460","system_id":"levelo_inurba_marseille","lat":43.32533,"lon":5.41428,"is_reserved":false,"is_disabled":false,"rental_uris":{"android":"levelo://app?vid=4db6d7cf-52e4-4fe5-a62c-5533c4405460","ios":"levelo://app?vid=4db6d7cf-52e4-4fe5-a62c-5533c4405460"},"vehicle_type_id":"4","last_reported":1734005984,"current_range_meters":27200,"station_id":"ce4bhq12rcd13ifvqhhg","pricing_plan_id":"cebpf4jnsgd1na2vs0mg"},{"bike_id":"467a8ed9-8f9d-4f9c-a7a2-b2a4bc21bd4a","system_id":"levelo_inurba_marseille","lat":43.24655,"lon":5.3889,"is_reserved":false,"is_disabled":false,"rental_uris":{"android":"levelo://app?vid=467a8ed9-8f9d-4f9c-a7a2-b2a4bc21bd4a","ios":"levelo://app?vid=467a8ed9-8f9d-4f9c-a7a2-b2a4bc21bd4a"},"vehicle_type_id":"4","last_reported":1734005984,"current_range_meters":36000,"station_id":"ce4bhg12rcd13ifvqf60","pricing_plan_id":"cebpf4jnsgd1na2vs0mg"},{"bike_id":"fdcb7a12-5e5b-4db1-bb4e-de1150a4341e","system_id":"levelo_inurba_marseille","lat":43.2955,"lon":5.42278,"is_reserved":false,"is_disabled":false,"rental_uris":{"android":"levelo://app?vid=fdcb7a12-5e5b-4db1-bb4e-de1150a4341e","ios":"levelo://app?vid=fdcb7a12-5e5b-4db1-bb4e-de1150a4341e"},"vehicle_type_id":"4","last_reported":1734005984,"current_range_meters":23200,"station_id":"ce4bhph2rcd13ifvqhdg","pricing_plan_id":"cebpf4jnsgd1na2vs0mg"},{"bike_id":"912c5f0e-910a-4394-955f-e5597c567fcc","system_id":"levelo_inurba_marseille","lat":43.33769,"lon":5.37429,"is_reserved":false,"is_disabled":false,"rental_uris":{"android":"levelo://app?vid=912c5f0e-910a-4394-955f-e5597c567fcc","ios":"levelo://app?vid=912c5f0e-910a-4394-955f-e5597c567fcc"},"vehicle_type_id":"4","last_reported":1734005984,"current_range_meters":38000,"station_id":"","pricing_plan_id":"cebpf4jnsgd1na2vs0mg"},{"bike_id":"a5589391-a7e4-412b-9a87-f917b2322580","system_id":"levelo_inurba_marseille","lat":43.23058,"lon":5.35505,"is_reserved":false,"is_disabled":false,"rental_uris":{"android":"levelo://app?vid=a5589391-a7e4-412b-9a87-f917b2322580","ios":"levelo://app?vid=a5589391-a7e4-412b-9a87-f917b2322580"},"vehicle_type_id":"4","last_reported":1734005984,"current_range_meters":14000,"station_id":"cpo3342slgdg3j2ifvpg","pricing_plan_id":"cebpf4jnsgd1na2vs0mg"},{"bike_id":"1ac25f57-d61f-4b3f-b565-480d33d7852d","system_id":"levelo_inurba_marseille","lat":43.29039,"lon":5.39987,"is_reserved":false,"is_disabled":true,"rental_uris":{"android":"levelo://app?vid=1ac25f57-d61f-4b3f-b565-480d33d7852d","ios":"levelo://app?vid=1ac25f57-d61f-4b3f-b565-480d33d7852d"},"vehicle_type_id":"4","last_reported":1734005984,"current_range_meters":0,"station_id":"ce4bh392rcd13ifvqdm0","pricing_plan_id":"cebpf4jnsgd1na2vs0mg"},{"bike_id":"4adbefe7-e022-4183-953c-b8d94d86066c","system_id":"levelo_inurba_marseille","lat":43.29842,"lon":5.36252,"is_reserved":false,"is_disabled":false,"rental_uris":{"android":"levelo://app?vid=4adbefe7-e022-4183-953c-b8d94d86066c","ios":"levelo://app?vid=4adbefe7-e022-4183-953c-b8d94d86066c"},"vehicle_type_id":"4","last_reported":1734005984,"current_range_meters":34800,"station_id":"ce4bgpp2rcd13ifvqc3g","pricing_plan_id":"cebpf4jnsgd1na2vs0mg"},{"bike_id":"146c18c0-2d54-4c53-8578-b97326fbb246","system_id":"levelo_inurba_marseille","lat":43.32467,"lon":5.36592,"is_reserved":false,"is_disabled":false,"rental_uris":{"android":"levelo://app?vid=146c18c0-2d54-4c53-8578-b97326fbb246","ios":"levelo://app?vid=146c18c0-2d54-4c53-8578-b97326fbb246"},"vehicle_type_id":"4","last_reported":1734005984,"current_range_meters":38800,"station_id":"ce4bhs12rcd13ifvqhvg","pricing_plan_id":"cebpf4jnsgd1na2vs0mg"},{"bike_id":"fe022319-e98d-4060-9ff6-ebb89874bb9a","system_id":"levelo_inurba_marseille","lat":43.29195,"lon":5.35816,"is_reserved":false,"is_disabled":false,"rental_uris":{"android":"levelo://app?vid=fe022319-e98d-4060-9ff6-ebb89874bb9a","ios":"levelo://app?vid=fe022319-e98d-4060-9ff6-ebb89874bb9a"},"vehicle_type_id":"4","last_reported":1734005984,"current_range_meters":38800,"station_id":"ce4bhb12rcd13ifvqel0","pricing_plan_id":"cebpf4jnsgd1na2vs0mg"},{"bike_id":"837ea001-3dca-43b1-bf44-3c63cdc8ec4f","system_id":"levelo_inurba_marseille","lat":43.24075,"lon":5.37751,"is_reserved":false,"is_disabled":false,"rental_uris":{"android":"levelo://app?vid=837ea001-3dca-43b1-bf44-3c63cdc8ec4f","ios":"levelo://app?vid=837ea001-3dca-43b1-bf44-3c63cdc8ec4f"},"vehicle_type_id":"4","last_reported":1734005984,"current_range_meters":38800,"station_id":"ce4bhnp2rcd13ifvqgvg","pricing_plan_id":"cebpf4jnsgd1na2vs0mg"},{"bike_id":"1edcb435-be97-41f8-aa8c-4a20808cef7c","system_id":"levelo_inurba_marseille","lat":43.2681,"lon":5.40248,"is_reserved":false,"is_disabled":false,"rental_uris":{"android":"levelo://app?vid=1edcb435-be97-41f8-aa8c-4a20808cef7c","ios":"levelo://app?vid=1edcb435-be97-41f8-aa8c-4a20808cef7c"},"vehicle_type_id":"4","last_reported":1734005984,"current_range_meters":9200,"station_id":"ce501612rcd8frsf0b60","pricing_plan_id":"cebpf4jnsgd1na2vs0mg"},{"bike_id":"10d9a998-b998-4d10-9e70-77a1ce1068b1","system_id":"levelo_inurba_marseille","lat":43.26208,"lon":5.37461,"is_reserved":false,"is_disabled":false,"rental_uris":{"android":"levelo://app?vid=10d9a998-b998-4d10-9e70-77a1ce1068b1","ios":"levelo://app?vid=10d9a998-b998-4d10-9e70-77a1ce1068b1"},"vehicle_type_id":"4","last_reported":1734005984,"current_range_meters":16400,"station_id":"ce4bhgp2rcd13ifvqfc0","pricing_plan_id":"cebpf4jnsgd1na2vs0mg"},{"bike_id":"43c11533-6c80-4707-8c5e-17176954a27e","system_id":"levelo_inurba_marseille","lat":43.26208,"lon":5.3744,"is_reserved":false,"is_disabled":false,"rental_uris":{"android":"levelo://app?vid=43c11533-6c80-4707-8c5e-17176954a27e","ios":"levelo://app?vid=43c11533-6c80-4707-8c5e-17176954a27e"},"vehicle_type_id":"4","last_reported":1734005984,"current_range_meters":32400,"station_id":"ce4bhgp2rcd13ifvqfc0","pricing_plan_id":"cebpf4jnsgd1na2vs0mg"},{"bike_id":"54238831-b2f8-4803-a465-8faa1bf52ffc","system_id":"levelo_inurba_marseille","lat":43.24091,"lon":5.3775,"is_reserved":false,"is_disabled":false,"rental_uris":{"android":"levelo://app?vid=54238831-b2f8-4803-a465-8faa1bf52ffc","ios":"levelo://app?vid=54238831-b2f8-4803-a465-8faa1bf52ffc"},"vehicle_type_id":"4","last_reported":1734005984,"current_range_meters":37600,"station_id":"ce4bhnp2rcd13ifvqgvg","pricing_plan_id":"cebpf4jnsgd1na2vs0mg"},{"bike_id":"61df4582-7c9f-489e-b7da-d6a0cfdcd7c7","system_id":"levelo_inurba_marseille","lat":43.28654,"lon":5.3636,"is_reserved":false,"is_disabled":true,"rental_uris":{"android":"levelo://app?vid=61df4582-7c9f-489e-b7da-d6a0cfdcd7c7","ios":"levelo://app?vid=61df4582-7c9f-489e-b7da-d6a0cfdcd7c7"},"vehicle_type_id":"4","last_reported":1734005984,"current_range_meters":0,"station_id":"ce4bhah2rcd13ifvqej0","pricing_plan_id":"cebpf4jnsgd1na2vs0mg"},{"bike_id":"c3a7ecdd-5659-4915-847f-1af1fee194ca","system_id":"levelo_inurba_marseille","lat":43.29843,"lon":5.36268,"is_reserved":false,"is_disabled":false,"rental_uris":{"android":"levelo://app?vid=c3a7ecdd-5659-4915-847f-1af1fee194ca","ios":"levelo://app?vid=c3a7ecdd-5659-4915-847f-1af1fee194ca"},"vehicle_type_id":"4","last_reported":1734005984,"current_range_meters":10800,"station_id":"ce4bgpp2rcd13ifvqc3g","pricing_plan_id":"cebpf4jnsgd1na2vs0mg"},{"bike_id":"ca3bf6a0-806c-4046-b219-bbea4c2ba646","system_id":"levelo_inurba_marseille","lat":43.23193,"lon":5.35555,"is_reserved":false,"is_disabled":false,"rental_uris":{"android":"levelo://app?vid=ca3bf6a0-806c-4046-b219-bbea4c2ba646","ios":"levelo://app?vid=ca3bf6a0-806c-4046-b219-bbea4c2ba646"},"vehicle_type_id":"4","last_reported":1734005984,"current_range_meters":38800,"station_id":"ce4bhu92rcd13ifvqi70","pricing_plan_id":"cebpf4jnsgd1na2vs0mg"},{"bike_id":"da88eb33-42f7-4259-87f0-28899729ee6e","system_id":"levelo_inurba_marseille","lat":43.24646,"lon":5.38895,"is_reserved":false,"is_disabled":false,"rental_uris":{"android":"levelo://app?vid=da88eb33-42f7-4259-87f0-28899729ee6e","ios":"levelo://app?vid=da88eb33-42f7-4259-87f0-28899729ee6e"},"vehicle_type_id":"4","last_reported":1734005984,"current_range_meters":8400,"station_id":"ce4bhg12rcd13ifvqf60","pricing_plan_id":"cebpf4jnsgd1na2vs0mg"},{"bike_id":"46b2fdec-0870-4ae2-84dc-b1f57512351e","system_id":"levelo_inurba_marseille","lat":43.337444,"lon":5.374475,"is_reserved":false,"is_disabled":true,"rental_uris":{"android":"levelo://app?vid=46b2fdec-0870-4ae2-84dc-b1f57512351e","ios":"levelo://app?vid=46b2fdec-0870-4ae2-84dc-b1f57512351e"},"vehicle_type_id":"4","last_reported":1734005984,"current_range_meters":0,"station_id":"","pricing_plan_id":"cebpf4jnsgd1na2vs0mg"},{"bike_id":"a6e0a6d5-2c05-4535-bc5d-78bbc299c6e9","system_id":"levelo_inurba_marseille","lat":43.29549,"lon":5.42285,"is_reserved":false,"is_disabled":false,"rental_uris":{"android":"levelo://app?vid=a6e0a6d5-2c05-4535-bc5d-78bbc299c6e9","ios":"levelo://app?vid=a6e0a6d5-2c05-4535-bc5d-78bbc299c6e9"},"vehicle_type_id":"4","last_reported":1734005984,"current_range_meters":9600,"station_id":"ce4bhph2rcd13ifvqhdg","pricing_plan_id":"cebpf4jnsgd1na2vs0mg"},{"bike_id":"25b7a87b-6ef3-4ca2-ba3b-6d1ad4cf5f78","system_id":"levelo_inurba_marseille","lat":43.29729,"lon":5.37718,"is_reserved":false,"is_disabled":false,"rental_uris":{"android":"levelo://app?vid=25b7a87b-6ef3-4ca2-ba3b-6d1ad4cf5f78","ios":"levelo://app?vid=25b7a87b-6ef3-4ca2-ba3b-6d1ad4cf5f78"},"vehicle_type_id":"4","last_reported":1734005984,"current_range_meters":24800,"station_id":"ce4bgkh2rcd13ifvqbl0","pricing_plan_id":"cebpf4jnsgd1na2vs0mg"},{"bike_id":"ecf2be5e-1ccd-4595-8b48-deb0a4ad0510","system_id":"levelo_inurba_marseille","lat":43.25579,"lon":5.38234,"is_reserved":false,"is_disabled":true,"rental_uris":{"android":"levelo://app?vid=ecf2be5e-1ccd-4595-8b48-deb0a4ad0510","ios":"levelo://app?vid=ecf2be5e-1ccd-4595-8b48-deb0a4ad0510"},"vehicle_type_id":"4","last_reported":1734005984,"current_range_meters":2000,"station_id":"ce4bhih2rcd13ifvqfs0","pricing_plan_id":"cebpf4jnsgd1na2vs0mg"},{"bike_id":"b5cb506c-d5a2-40ca-8d90-ebc1337fb446","system_id":"levelo_inurba_marseille","lat":43.32488,"lon":5.36581,"is_reserved":false,"is_disabled":false,"rental_uris":{"android":"levelo://app?vid=b5cb506c-d5a2-40ca-8d90-ebc1337fb446","ios":"levelo://app?vid=b5cb506c-d5a2-40ca-8d90-ebc1337fb446"},"vehicle_type_id":"4","last_reported":1734005984,"current_range_meters":14800,"station_id":"ce4bhs12rcd13ifvqhvg","pricing_plan_id":"cebpf4jnsgd1na2vs0mg"},{"bike_id":"04a06a90-5c11-4c5e-93a9-4480214ff0af","system_id":"levelo_inurba_marseille","lat":43.27057,"lon":5.40262,"is_reserved":false,"is_disabled":false,"rental_uris":{"android":"levelo://app?vid=04a06a90-5c11-4c5e-93a9-4480214ff0af","ios":"levelo://app?vid=04a06a90-5c11-4c5e-93a9-4480214ff0af"},"vehicle_type_id":"4","last_reported":1734005984,"current_range_meters":6400,"station_id":"ce4bhk92rcd13ifvqgc0","pricing_plan_id":"cebpf4jnsgd1na2vs0mg"},{"bike_id":"3d85156b-7336-4a22-941d-36eceacd40ef","system_id":"levelo_inurba_marseille","lat":43.29614,"lon":5.37158,"is_reserved":false,"is_disabled":false,"rental_uris":{"android":"levelo://app?vid=3d85156b-7336-4a22-941d-36eceacd40ef","ios":"levelo://app?vid=3d85156b-7336-4a22-941d-36eceacd40ef"},"vehicle_type_id":"4","last_reported":1734005984,"current_range_meters":38800,"station_id":"ce4bgnh2rcd13ifvqc0g","pricing_plan_id":"cebpf4jnsgd1na2vs0mg"},{"bike_id":"e1d90eb6-28c0-47bb-bc43-f86ebb955f47","system_id":"levelo_inurba_marseille","lat":43.24147,"lon":5.37909,"is_reserved":false,"is_disabled":false,"rental_uris":{"android":"levelo://app?vid=e1d90eb6-28c0-47bb-bc43-f86ebb955f47","ios":"levelo://app?vid=e1d90eb6-28c0-47bb-bc43-f86ebb955f47"},"vehicle_type_id":"4","last_reported":1734005984,"current_range_meters":24000,"station_id":"ce4bhnp2rcd13ifvqgvg","pricing_plan_id":"cebpf4jnsgd1na2vs0mg"},{"bike_id":"f0385955-b302-4dd5-8fa2-b704d1cf74df","system_id":"levelo_inurba_marseille","lat":43.24057,"lon":5.37766,"is_reserved":false,"is_disabled":false,"rental_uris":{"android":"levelo://app?vid=f0385955-b302-4dd5-8fa2-b704d1cf74df","ios":"levelo://app?vid=f0385955-b302-4dd5-8fa2-b704d1cf74df"},"vehicle_type_id":"4","last_reported":1734005984,"current_range_meters":38800,"station_id":"ce4bhnp2rcd13ifvqgvg","pricing_plan_id":"cebpf4jnsgd1na2vs0mg"},{"bike_id":"1e0cc6f0-d513-44ca-8947-9ea7c3ea5897","system_id":"levelo_inurba_marseille","lat":43.28722,"lon":5.37945,"is_reserved":false,"is_disabled":false,"rental_uris":{"android":"levelo://app?vid=1e0cc6f0-d513-44ca-8947-9ea7c3ea5897","ios":"levelo://app?vid=1e0cc6f0-d513-44ca-8947-9ea7c3ea5897"},"vehicle_type_id":"4","last_reported":1734005984,"current_range_meters":16000,"station_id":"ce4bh9p2rcd13ifvqec0","pricing_plan_id":"cebpf4jnsgd1na2vs0mg"},{"bike_id":"c28fe883-0376-49ae-9fd8-cf0e1b5f02dc","system_id":"levelo_inurba_marseille","lat":43.29027,"lon":5.38647,"is_reserved":false,"is_disabled":false,"rental_uris":{"android":"levelo://app?vid=c28fe883-0376-49ae-9fd8-cf0e1b5f02dc","ios":"levelo://app?vid=c28fe883-0376-49ae-9fd8-cf0e1b5f02dc"},"vehicle_type_id":"4","last_reported":1734005984,"current_range_meters":30000,"station_id":"ce4bh4p2rcd13ifvqe0g","pricing_plan_id":"cebpf4jnsgd1na2vs0mg"},{"bike_id":"08da92c3-4392-40d5-96d5-bb99629f6c8b","system_id":"levelo_inurba_marseille","lat":43.30242,"lon":5.40064,"is_reserved":false,"is_disabled":false,"rental_uris":{"android":"levelo://app?vid=08da92c3-4392-40d5-96d5-bb99629f6c8b","ios":"levelo://app?vid=08da92c3-4392-40d5-96d5-bb99629f6c8b"},"vehicle_type_id":"4","last_reported":1734005984,"current_range_meters":2800,"station_id":"ce4bgvh2rcd13ifvqcs0","pricing_plan_id":"cebpf4jnsgd1na2vs0mg"},{"bike_id":"24270da1-dacf-4e9c-a4fd-1dd0a742b467","system_id":"levelo_inurba_marseille","lat":43.30489,"lon":5.37892,"is_reserved":false,"is_disabled":false,"rental_uris":{"android":"levelo://app?vid=24270da1-dacf-4e9c-a4fd-1dd0a742b467","ios":"levelo://app?vid=24270da1-dacf-4e9c-a4fd-1dd0a742b467"},"vehicle_type_id":"4","last_reported":1734005984,"current_range_meters":9600,"station_id":"ce4bgup2rcd13ifvqcn0","pricing_plan_id":"cebpf4jnsgd1na2vs0mg"},{"bike_id":"9763c34f-c931-449c-a245-dfe0c63b961a","system_id":"levelo_inurba_marseille","lat":43.29846,"lon":5.36288,"is_reserved":false,"is_disabled":false,"rental_uris":{"android":"levelo://app?vid=9763c34f-c931-449c-a245-dfe0c63b961a","ios":"levelo://app?vid=9763c34f-c931-449c-a245-dfe0c63b961a"},"vehicle_type_id":"4","last_reported":1734005984,"current_range_meters":30400,"station_id":"ce4bgpp2rcd13ifvqc3g","pricing_plan_id":"cebpf4jnsgd1na2vs0mg"},{"bike_id":"626a7b90-e773-4489-8818-67a67f1b2ab5","system_id":"levelo_inurba_marseille","lat":43.30255,"lon":5.40084,"is_reserved":false,"is_disabled":false,"rental_uris":{"android":"levelo://app?vid=626a7b90-e773-4489-8818-67a67f1b2ab5","ios":"levelo://app?vid=626a7b90-e773-4489-8818-67a67f1b2ab5"},"vehicle_type_id":"4","last_reported":1734005984,"current_range_meters":39200,"station_id":"ce4bgvh2rcd13ifvqcs0","pricing_plan_id":"cebpf4jnsgd1na2vs0mg"},{"bike_id":"34dfbec9-d89b-40fb-be3a-d23fa857157a","system_id":"levelo_inurba_marseille","lat":43.23187,"lon":5.3558,"is_reserved":false,"is_disabled":true,"rental_uris":{"android":"levelo://app?vid=34dfbec9-d89b-40fb-be3a-d23fa857157a","ios":"levelo://app?vid=34dfbec9-d89b-40fb-be3a-d23fa857157a"},"vehicle_type_id":"4","last_reported":1734005984,"current_range_meters":27200,"station_id":"ce4bhu92rcd13ifvqi70","pricing_plan_id":"cebpf4jnsgd1na2vs0mg"},{"bike_id":"6d05f7ba-808a-4403-b1f3-f8483fec843c","system_id":"levelo_inurba_marseille","lat":43.23185,"lon":5.35567,"is_reserved":false,"is_disabled":false,"rental_uris":{"android":"levelo://app?vid=6d05f7ba-808a-4403-b1f3-f8483fec843c","ios":"levelo://app?vid=6d05f7ba-808a-4403-b1f3-f8483fec843c"},"vehicle_type_id":"4","last_reported":1734005984,"current_range_meters":31200,"station_id":"ce4bhu92rcd13ifvqi70","pricing_plan_id":"cebpf4jnsgd1na2vs0mg"},{"bike_id":"46c7a1c4-0161-440f-8b97-301f0e738b32","system_id":"levelo_inurba_marseille","lat":43.32467,"lon":5.36592,"is_reserved":false,"is_disabled":false,"rental_uris":{"android":"levelo://app?vid=46c7a1c4-0161-440f-8b97-301f0e738b32","ios":"levelo://app?vid=46c7a1c4-0161-440f-8b97-301f0e738b32"},"vehicle_type_id":"4","last_reported":1734005984,"current_range_meters":32800,"station_id":"ce4bhs12rcd13ifvqhvg","pricing_plan_id":"cebpf4jnsgd1na2vs0mg"},{"bike_id":"5b216ce0-5fe7-4327-a32a-feac1a44ddf5","system_id":"levelo_inurba_marseille","lat":43.27943,"lon":5.38703,"is_reserved":false,"is_disabled":true,"rental_uris":{"android":"levelo://app?vid=5b216ce0-5fe7-4327-a32a-feac1a44ddf5","ios":"levelo://app?vid=5b216ce0-5fe7-4327-a32a-feac1a44ddf5"},"vehicle_type_id":"4","last_reported":1734005984,"current_range_meters":27600,"station_id":"ce4bhg12rcd13ifvqf80","pricing_plan_id":"cebpf4jnsgd1na2vs0mg"},{"bike_id":"0eefc0a4-0b74-41b9-bf64-8a2deeecd26e","system_id":"levelo_inurba_marseille","lat":43.25086,"lon":5.39525,"is_reserved":false,"is_disabled":false,"rental_uris":{"android":"levelo://app?vid=0eefc0a4-0b74-41b9-bf64-8a2deeecd26e","ios":"levelo://app?vid=0eefc0a4-0b74-41b9-bf64-8a2deeecd26e"},"vehicle_type_id":"4","last_reported":1734005984,"current_range_meters":19200,"station_id":"ce4bhm12rcd13ifvqgkg","pricing_plan_id":"cebpf4jnsgd1na2vs0mg"},{"bike_id":"41e2ccc0-73be-4b44-b35b-df05a670f081","system_id":"levelo_inurba_marseille","lat":43.29281,"lon":5.40123,"is_reserved":false,"is_disabled":false,"rental_uris":{"android":"levelo://app?vid=41e2ccc0-73be-4b44-b35b-df05a670f081","ios":"levelo://app?vid=41e2ccc0-73be-4b44-b35b-df05a670f081"},"vehicle_type_id":"4","last_reported":1734005984,"current_range_meters":14800,"station_id":"ce4bh312rcd13ifvqdk0","pricing_plan_id":"cebpf4jnsgd1na2vs0mg"},{"bike_id":"975c8998-8848-43f9-ab61-fd825e1d3481","system_id":"levelo_inurba_marseille","lat":43.24169,"lon":5.39718,"is_reserved":false,"is_disabled":false,"rental_uris":{"android":"levelo://app?vid=975c8998-8848-43f9-ab61-fd825e1d3481","ios":"levelo://app?vid=975c8998-8848-43f9-ab61-fd825e1d3481"},"vehicle_type_id":"4","last_reported":1734005984,"current_range_meters":23200,"station_id":"ce4bhn12rcd13ifvqgpg","pricing_plan_id":"cebpf4jnsgd1na2vs0mg"},{"bike_id":"974442a1-fec8-43e2-91ab-75905dbd0dc8","system_id":"levelo_inurba_marseille","lat":43.28419,"lon":5.34985,"is_reserved":false,"is_disabled":false,"rental_uris":{"android":"levelo://app?vid=974442a1-fec8-43e2-91ab-75905dbd0dc8","ios":"levelo://app?vid=974442a1-fec8-43e2-91ab-75905dbd0dc8"},"vehicle_type_id":"4","last_reported":1734005984,"current_range_meters":22000,"station_id":"ce4bhbh2rcd13ifvqepg","pricing_plan_id":"cebpf4jnsgd1na2vs0mg"},{"bike_id":"9d5fa22f-b349-42f6-abc1-dcec0a7eafbf","system_id":"levelo_inurba_marseille","lat":43.33144,"lon":5.39651,"is_reserved":false,"is_disabled":true,"rental_uris":{"android":"levelo://app?vid=9d5fa22f-b349-42f6-abc1-dcec0a7eafbf","ios":"levelo://app?vid=9d5fa22f-b349-42f6-abc1-dcec0a7eafbf"},"vehicle_type_id":"4","last_reported":1734005984,"current_range_meters":0,"station_id":"","pricing_plan_id":"cebpf4jnsgd1na2vs0mg"},{"bike_id":"9c8c1480-9ffa-4086-913c-c2125a6eb848","system_id":"levelo_inurba_marseille","lat":43.22933,"lon":5.3538,"is_reserved":false,"is_disabled":false,"rental_uris":{"android":"levelo://app?vid=9c8c1480-9ffa-4086-913c-c2125a6eb848","ios":"levelo://app?vid=9c8c1480-9ffa-4086-913c-c2125a6eb848"},"vehicle_type_id":"4","last_reported":1734005984,"current_range_meters":36800,"station_id":"cpo3532slgdg3j2ikp40","pricing_plan_id":"cebpf4jnsgd1na2vs0mg"},{"bike_id":"81f1cae6-a699-4c10-af91-c3b70a19a6e1","system_id":"levelo_inurba_marseille","lat":43.27206,"lon":5.39179,"is_reserved":false,"is_disabled":false,"rental_uris":{"android":"levelo://app?vid=81f1cae6-a699-4c10-af91-c3b70a19a6e1","ios":"levelo://app?vid=81f1cae6-a699-4c10-af91-c3b70a19a6e1"},"vehicle_type_id":"4","last_reported":1734005984,"current_range_meters":10000,"station_id":"ce4bhhp2rcd13ifvqfm0","pricing_plan_id":"cebpf4jnsgd1na2vs0mg"},{"bike_id":"3ade9286-8447-4edf-818a-94f225eb5cb9","system_id":"levelo_inurba_marseille","lat":43.28852,"lon":5.39317,"is_reserved":false,"is_disabled":false,"rental_uris":{"android":"levelo://app?vid=3ade9286-8447-4edf-818a-94f225eb5cb9","ios":"levelo://app?vid=3ade9286-8447-4edf-818a-94f225eb5cb9"},