{"last_updated":1742518191,"ttl":60,"version":"2.2","data":{"bikes":[{"bike_id":"75fca2c2-72e4-4c07-8de8-e1ef62170fbc","system_id":"levelo_inurba_marseille","lat":43.26681,"lon":5.38235,"is_reserved":false,"is_disabled":true,"rental_uris":{"android":"levelo://app?vid=75fca2c2-72e4-4c07-8de8-e1ef62170fbc","ios":"levelo://app?vid=75fca2c2-72e4-4c07-8de8-e1ef62170fbc"},"vehicle_type_id":"4","last_reported":1742518191,"current_range_meters":2800,"station_id":"ce4bhg92rcd13ifvqf90","pricing_plan_id":"cebpf4jnsgd1na2vs0mg"},{"bike_id":"bcaa6967-dbec-44d0-9cd6-a77bf6e93f86","system_id":"levelo_inurba_marseille","lat":43.28869,"lon":5.4497,"is_reserved":false,"is_disabled":false,"rental_uris":{"android":"levelo://app?vid=bcaa6967-dbec-44d0-9cd6-a77bf6e93f86","ios":"levelo://app?vid=bcaa6967-dbec-44d0-9cd6-a77bf6e93f86"},"vehicle_type_id":"4","last_reported":1742518191,"current_range_meters":2800,"station_id":"","pricing_plan_id":"cebpf4jnsgd1na2vs0mg"},{"bike_id":"99743687-257a-444c-b1d0-3101ba257cca","system_id":"levelo_inurba_marseille","lat":43.28109,"lon":5.39849,"is_reserved":false,"is_disabled":false,"rental_uris":{"android":"levelo://app?vid=99743687-257a-444c-b1d0-3101ba257cca","ios":"levelo://app?vid=99743687-257a-444c-b1d0-3101ba257cca"},"vehicle_type_id":"4","last_reported":1742518191,"current_range_meters":3200,"station_id":"","pricing_plan_id":"cebpf4jnsgd1na2vs0mg"},{"bike_id":"352941a9-cc06-4db0-bf66-f44a0ee70627","system_id":"levelo_inurba_marseille","lat":43.23202,"lon":5.39975,"is_reserved":false,"is_disabled":false,"rental_uris":{"android":"levelo://app?vid=352941a9-cc06-4db0-bf66-f44a0ee70627","ios":"levelo://app?vid=352941a9-cc06-4db0-bf66-f44a0ee70627"},"vehicle_type_id":"4","last_reported":1742518191,"current_range_meters":3200,"station_id":"ce4bhn12rcd13ifvqgqg","pricing_plan_id":"cebpf4jnsgd1na2vs0mg"},{"bike_id":"461908e2-a1c7-43db-8d5e-a6f1e536cf5c","system_id":"levelo_inurba_marseille","lat":43.27827,"lon":5.39203,"is_reserved":false,"is_disabled":false,"rental_uris":{"android":"levelo://app?vid=461908e2-a1c7-43db-8d5e-a6f1e536cf5c","ios":"levelo://app?vid=461908e2-a1c7-43db-8d5e-a6f1e536cf5c"},"vehicle_type_id":"4","last_reported":1742518191,"current_range_meters":3600,"station_id":"ce4bhjp2rcd13ifvqga0","pricing_plan_id":"cebpf4jnsgd1na2vs0mg"},{"bike_id":"30448cfc-53ac-4088-86ed-3a624fbeb1f7","system_id":"levelo_inurba_marseille","lat":43.23963,"lon":5.36637,"is_reserved":false,"is_disabled":false,"rental_uris":{"android":"levelo://app?vid=30448cfc-53ac-4088-86ed-3a624fbeb1f7","ios":"levelo://app?vid=30448cfc-53ac-4088-86ed-3a624fbeb1f7"},"vehicle_type_id":"4","last_reported":1742518191,"current_range_meters":3600,"station_id":"ce4bhi12rcd13ifvqfp0","pricing_plan_id":"cebpf4jnsgd1na2vs0mg"},{"bike_id":"ffc5efbc-52a2-40ce-b420-07964b45d3f5","system_id":"levelo_inurba_marseille","lat":43.28155,"lon":5.42647,"is_reserved":false,"is_disabled":true,"rental_uris":{"android":"levelo://app?vid=ffc5efbc-52a2-40ce-b420-07964b45d3f5","ios":"levelo://app?vid=ffc5efbc-52a2-40ce-b420-07964b45d3f5"},"vehicle_type_id":"4","last_reported":1742518191,"current_range_meters":3600,"station_id":"ce4bhnh2rcd13ifvqgug","pricing_plan_id":"cebpf4jnsgd1na2vs0mg"},{"bike_id":"3455258b-4135-46b9-9a26-10bf95160e40","system_id":"levelo_inurba_marseille","lat":43.23199,"lon":5.35557,"is_reserved":false,"is_disabled":false,"rental_uris":{"android":"levelo://app?vid=3455258b-4135-46b9-9a26-10bf95160e40","ios":"levelo://app?vid=3455258b-4135-46b9-9a26-10bf95160e40"},"vehicle_type_id":"4","last_reported":1742518191,"current_range_meters":4000,"station_id":"ce4bhu92rcd13ifvqi70","pricing_plan_id":"cebpf4jnsgd1na2vs0mg"},{"bike_id":"a62dad32-94db-43d3-8661-3e72329e09e1","system_id":"levelo_inurba_marseille","lat":43.27918,"lon":5.39594,"is_reserved":false,"is_disabled":false,"rental_uris":{"android":"levelo://app?vid=a62dad32-94db-43d3-8661-3e72329e09e1","ios":"levelo://app?vid=a62dad32-94db-43d3-8661-3e72329e09e1"},"vehicle_type_id":"4","last_reported":1742518191,"current_range_meters":4000,"station_id":"ce4bhf92rcd13ifvqf40","pricing_plan_id":"cebpf4jnsgd1na2vs0mg"},{"bike_id":"4a9b078b-dbe4-4eec-b638-e8f175ffd948","system_id":"levelo_inurba_marseille","lat":43.28011,"lon":5.39997,"is_reserved":false,"is_disabled":false,"rental_uris":{"android":"levelo://app?vid=4a9b078b-dbe4-4eec-b638-e8f175ffd948","ios":"levelo://app?vid=4a9b078b-dbe4-4eec-b638-e8f175ffd948"},"vehicle_type_id":"4","last_reported":1742518191,"current_range_meters":4400,"station_id":"ce4bho92rcd13ifvqh4g","pricing_plan_id":"cebpf4jnsgd1na2vs0mg"},{"bike_id":"7380e392-3b97-47ec-865d-16b8b4d72e6a","system_id":"levelo_inurba_marseille","lat":43.26052,"lon":5.39396,"is_reserved":false,"is_disabled":false,"rental_uris":{"android":"levelo://app?vid=7380e392-3b97-47ec-865d-16b8b4d72e6a","ios":"levelo://app?vid=7380e392-3b97-47ec-865d-16b8b4d72e6a"},"vehicle_type_id":"4","last_reported":1742518191,"current_range_meters":4400,"station_id":"ce4bhh92rcd13ifvqfj0","pricing_plan_id":"cebpf4jnsgd1na2vs0mg"},{"bike_id":"7c61dbce-4abc-4eb8-834d-42e3d030d891","system_id":"levelo_inurba_marseille","lat":43.30426,"lon":5.39742,"is_reserved":false,"is_disabled":false,"rental_uris":{"android":"levelo://app?vid=7c61dbce-4abc-4eb8-834d-42e3d030d891","ios":"levelo://app?vid=7c61dbce-4abc-4eb8-834d-42e3d030d891"},"vehicle_type_id":"4","last_reported":1742518191,"current_range_meters":4400,"station_id":"ce4bh092rcd13ifvqd20","pricing_plan_id":"cebpf4jnsgd1na2vs0mg"},{"bike_id":"4ca2ce7a-092a-4f3d-8bab-5be59ee109ce","system_id":"levelo_inurba_marseille","lat":43.2847,"lon":5.3842,"is_reserved":false,"is_disabled":false,"rental_uris":{"android":"levelo://app?vid=4ca2ce7a-092a-4f3d-8bab-5be59ee109ce","ios":"levelo://app?vid=4ca2ce7a-092a-4f3d-8bab-5be59ee109ce"},"vehicle_type_id":"4","last_reported":1742518191,"current_range_meters":4400,"station_id":"ce4bh512rcd13ifvqe3g","pricing_plan_id":"cebpf4jnsgd1na2vs0mg"},{"bike_id":"9ca04de1-e0f1-4186-9bba-159fbcc2fc30","system_id":"levelo_inurba_marseille","lat":43.26214,"lon":5.37906,"is_reserved":false,"is_disabled":true,"rental_uris":{"android":"levelo://app?vid=9ca04de1-e0f1-4186-9bba-159fbcc2fc30","ios":"levelo://app?vid=9ca04de1-e0f1-4186-9bba-159fbcc2fc30"},"vehicle_type_id":"4","last_reported":1742518191,"current_range_meters":4400,"station_id":"ce4bhjp2rcd13ifvqg90","pricing_plan_id":"cebpf4jnsgd1na2vs0mg"},{"bike_id":"5e392e7f-04c4-4e48-9def-f15bcc8a4749","system_id":"levelo_inurba_marseille","lat":43.25128,"lon":5.39504,"is_reserved":false,"is_disabled":false,"rental_uris":{"android":"levelo://app?vid=5e392e7f-04c4-4e48-9def-f15bcc8a4749","ios":"levelo://app?vid=5e392e7f-04c4-4e48-9def-f15bcc8a4749"},"vehicle_type_id":"4","last_reported":1742518191,"current_range_meters":4800,"station_id":"ce4bhm12rcd13ifvqgkg","pricing_plan_id":"cebpf4jnsgd1na2vs0mg"},{"bike_id":"063bf9d1-f3a5-4bc0-a871-7b0315e64d4a","system_id":"levelo_inurba_marseille","lat":43.23189,"lon":5.39971,"is_reserved":false,"is_disabled":false,"rental_uris":{"android":"levelo://app?vid=063bf9d1-f3a5-4bc0-a871-7b0315e64d4a","ios":"levelo://app?vid=063bf9d1-f3a5-4bc0-a871-7b0315e64d4a"},"vehicle_type_id":"4","last_reported":1742518191,"current_range_meters":4800,"station_id":"ce4bhn12rcd13ifvqgqg","pricing_plan_id":"cebpf4jnsgd1na2vs0mg"},{"bike_id":"6ad236bc-a2d1-4643-abe7-47295a697ba3","system_id":"levelo_inurba_marseille","lat":43.28835,"lon":5.37909,"is_reserved":false,"is_disabled":false,"rental_uris":{"android":"levelo://app?vid=6ad236bc-a2d1-4643-abe7-47295a697ba3","ios":"levelo://app?vid=6ad236bc-a2d1-4643-abe7-47295a697ba3"},"vehicle_type_id":"4","last_reported":1742518191,"current_range_meters":4800,"station_id":"","pricing_plan_id":"cebpf4jnsgd1na2vs0mg"},{"bike_id":"a27e9e25-06bf-4175-9bd6-9c00c02ad86d","system_id":"levelo_inurba_marseille","lat":43.24385,"lon":5.37066,"is_reserved":false,"is_disabled":false,"rental_uris":{"android":"levelo://app?vid=a27e9e25-06bf-4175-9bd6-9c00c02ad86d","ios":"levelo://app?vid=a27e9e25-06bf-4175-9bd6-9c00c02ad86d"},"vehicle_type_id":"4","last_reported":1742518191,"current_range_meters":4800,"station_id":"ce4bhhh2rcd13ifvqfk0","pricing_plan_id":"cebpf4jnsgd1na2vs0mg"},{"bike_id":"181a4fde-9b69-4103-90f9-7e9ef00b3a7a","system_id":"levelo_inurba_marseille","lat":43.248139,"lon":5.374521,"is_reserved":false,"is_disabled":false,"rental_uris":{"android":"levelo://app?vid=181a4fde-9b69-4103-90f9-7e9ef00b3a7a","ios":"levelo://app?vid=181a4fde-9b69-4103-90f9-7e9ef00b3a7a"},"vehicle_type_id":"4","last_reported":1742518191,"current_range_meters":4800,"station_id":"ce4bhgh2rcd13ifvqfb0","pricing_plan_id":"cebpf4jnsgd1na2vs0mg"},{"bike_id":"02f43b01-3b74-45fa-a40e-2df823c84cda","system_id":"levelo_inurba_marseille","lat":43.24198,"lon":5.39721,"is_reserved":false,"is_disabled":false,"rental_uris":{"android":"levelo://app?vid=02f43b01-3b74-45fa-a40e-2df823c84cda","ios":"levelo://app?vid=02f43b01-3b74-45fa-a40e-2df823c84cda"},"vehicle_type_id":"4","last_reported":1742518191,"current_range_meters":4800,"station_id":"ce4bhn12rcd13ifvqgpg","pricing_plan_id":"cebpf4jnsgd1na2vs0mg"},{"bike_id":"3b276e99-234c-4646-acfe-1384ad70d051","system_id":"levelo_inurba_marseille","lat":43.25104,"lon":5.39546,"is_reserved":false,"is_disabled":false,"rental_uris":{"android":"levelo://app?vid=3b276e99-234c-4646-acfe-1384ad70d051","ios":"levelo://app?vid=3b276e99-234c-4646-acfe-1384ad70d051"},"vehicle_type_id":"4","last_reported":1742518191,"current_range_meters":5600,"station_id":"ce4bhm12rcd13ifvqgkg","pricing_plan_id":"cebpf4jnsgd1na2vs0mg"},{"bike_id":"071e62d9-f856-422e-81ba-997adeeba695","system_id":"levelo_inurba_marseille","lat":43.25812,"lon":5.39422,"is_reserved":false,"is_disabled":false,"rental_uris":{"android":"levelo://app?vid=071e62d9-f856-422e-81ba-997adeeba695","ios":"levelo://app?vid=071e62d9-f856-422e-81ba-997adeeba695"},"vehicle_type_id":"4","last_reported":1742518191,"current_range_meters":5600,"station_id":"ce4bhip2rcd13ifvqft0","pricing_plan_id":"cebpf4jnsgd1na2vs0mg"},{"bike_id":"c2833b87-c07a-4ecf-9052-e932cd239f16","system_id":"levelo_inurba_marseille","lat":43.28163,"lon":5.42647,"is_reserved":false,"is_disabled":false,"rental_uris":{"android":"levelo://app?vid=c2833b87-c07a-4ecf-9052-e932cd239f16","ios":"levelo://app?vid=c2833b87-c07a-4ecf-9052-e932cd239f16"},"vehicle_type_id":"4","last_reported":1742518191,"current_range_meters":5600,"station_id":"ce4bhnh2rcd13ifvqgug","pricing_plan_id":"cebpf4jnsgd1na2vs0mg"},{"bike_id":"9d26c008-8ec1-4269-9cd2-f45774f03ccb","system_id":"levelo_inurba_marseille","lat":43.27949,"lon":5.37951,"is_reserved":false,"is_disabled":false,"rental_uris":{"android":"levelo://app?vid=9d26c008-8ec1-4269-9cd2-f45774f03ccb","ios":"levelo://app?vid=9d26c008-8ec1-4269-9cd2-f45774f03ccb"},"vehicle_type_id":"4","last_reported":1742518191,"current_range_meters":5600,"station_id":"","pricing_plan_id":"cebpf4jnsgd1na2vs0mg"},{"bike_id":"af9b494d-980e-407f-bc02-5c13a40a36ef","system_id":"levelo_inurba_marseille","lat":43.24667,"lon":5.38156,"is_reserved":false,"is_disabled":false,"rental_uris":{"android":"levelo://app?vid=af9b494d-980e-407f-bc02-5c13a40a36ef","ios":"levelo://app?vid=af9b494d-980e-407f-bc02-5c13a40a36ef"},"vehicle_type_id":"4","last_reported":1742518191,"current_range_meters":6000,"station_id":"ce4bhih2rcd13ifvqfr0","pricing_plan_id":"cebpf4jnsgd1na2vs0mg"},{"bike_id":"28f34723-7aef-4dd9-ba81-7d6deba682cf","system_id":"levelo_inurba_marseille","lat":43.2816,"lon":5.42643,"is_reserved":false,"is_disabled":false,"rental_uris":{"android":"levelo://app?vid=28f34723-7aef-4dd9-ba81-7d6deba682cf","ios":"levelo://app?vid=28f34723-7aef-4dd9-ba81-7d6deba682cf"},"vehicle_type_id":"4","last_reported":1742518191,"current_range_meters":6000,"station_id":"ce4bhnh2rcd13ifvqgug","pricing_plan_id":"cebpf4jnsgd1na2vs0mg"},{"bike_id":"cf47dddc-32d7-41f4-a4d7-6dc4ef27459b","system_id":"levelo_inurba_marseille","lat":43.28659,"lon":5.36348,"is_reserved":false,"is_disabled":false,"rental_uris":{"android":"levelo://app?vid=cf47dddc-32d7-41f4-a4d7-6dc4ef27459b","ios":"levelo://app?vid=cf47dddc-32d7-41f4-a4d7-6dc4ef27459b"},"vehicle_type_id":"4","last_reported":1742518191,"current_range_meters":6000,"station_id":"ce4bhah2rcd13ifvqej0","pricing_plan_id":"cebpf4jnsgd1na2vs0mg"},{"bike_id":"d526b6e2-b103-4339-baa5-b85128efba8c","system_id":"levelo_inurba_marseille","lat":43.2306,"lon":5.354946,"is_reserved":false,"is_disabled":false,"rental_uris":{"android":"levelo://app?vid=d526b6e2-b103-4339-baa5-b85128efba8c","ios":"levelo://app?vid=d526b6e2-b103-4339-baa5-b85128efba8c"},"vehicle_type_id":"4","last_reported":1742518191,"current_range_meters":6000,"station_id":"cpo3342slgdg3j2ifvpg","pricing_plan_id":"cebpf4jnsgd1na2vs0mg"},{"bike_id":"176d2e0b-da43-4b98-b92e-b45d4ab12b2f","system_id":"levelo_inurba_marseille","lat":43.30232,"lon":5.38449,"is_reserved":false,"is_disabled":false,"rental_uris":{"android":"levelo://app?vid=176d2e0b-da43-4b98-b92e-b45d4ab12b2f","ios":"levelo://app?vid=176d2e0b-da43-4b98-b92e-b45d4ab12b2f"},"vehicle_type_id":"4","last_reported":1742518191,"current_range_meters":6000,"station_id":"","pricing_plan_id":"cebpf4jnsgd1na2vs0mg"},{"bike_id":"3ae4f3bd-c485-4c98-8e8e-3c9bb312423a","system_id":"levelo_inurba_marseille","lat":43.248186,"lon":5.374485,"is_reserved":false,"is_disabled":false,"rental_uris":{"android":"levelo://app?vid=3ae4f3bd-c485-4c98-8e8e-3c9bb312423a","ios":"levelo://app?vid=3ae4f3bd-c485-4c98-8e8e-3c9bb312423a"},"vehicle_type_id":"4","last_reported":1742518191,"current_range_meters":6400,"station_id":"ce4bhgh2rcd13ifvqfb0","pricing_plan_id":"cebpf4jnsgd1na2vs0mg"},{"bike_id":"a8b8dae1-87ef-4f8a-a2c8-fe9fd9bf0f77","system_id":"levelo_inurba_marseille","lat":43.23551,"lon":5.37751,"is_reserved":false,"is_disabled":false,"rental_uris":{"android":"levelo://app?vid=a8b8dae1-87ef-4f8a-a2c8-fe9fd9bf0f77","ios":"levelo://app?vid=a8b8dae1-87ef-4f8a-a2c8-fe9fd9bf0f77"},"vehicle_type_id":"4","last_reported":1742518191,"current_range_meters":6400,"station_id":"","pricing_plan_id":"cebpf4jnsgd1na2vs0mg"},{"bike_id":"9d8e3883-a720-4506-9be0-f0b7c271b3e2","system_id":"levelo_inurba_marseille","lat":43.24923,"lon":5.42781,"is_reserved":false,"is_disabled":false,"rental_uris":{"android":"levelo://app?vid=9d8e3883-a720-4506-9be0-f0b7c271b3e2","ios":"levelo://app?vid=9d8e3883-a720-4506-9be0-f0b7c271b3e2"},"vehicle_type_id":"4","last_reported":1742518191,"current_range_meters":6400,"station_id":"","pricing_plan_id":"cebpf4jnsgd1na2vs0mg"},{"bike_id":"23112911-ccd7-4fd9-9c14-5822257c629e","system_id":"levelo_inurba_marseille","lat":43.28357,"lon":5.38119,"is_reserved":false,"is_disabled":false,"rental_uris":{"android":"levelo://app?vid=23112911-ccd7-4fd9-9c14-5822257c629e","ios":"levelo://app?vid=23112911-ccd7-4fd9-9c14-5822257c629e"},"vehicle_type_id":"4","last_reported":1742518191,"current_range_meters":6400,"station_id":"ce4bh412rcd13ifvqdr0","pricing_plan_id":"cebpf4jnsgd1na2vs0mg"},{"bike_id":"5aa50875-d8ed-49de-a9d3-f16a51e23fe8","system_id":"levelo_inurba_marseille","lat":43.27919,"lon":5.39593,"is_reserved":false,"is_disabled":false,"rental_uris":{"android":"levelo://app?vid=5aa50875-d8ed-49de-a9d3-f16a51e23fe8","ios":"levelo://app?vid=5aa50875-d8ed-49de-a9d3-f16a51e23fe8"},"vehicle_type_id":"4","last_reported":1742518191,"current_range_meters":6800,"station_id":"ce4bhf92rcd13ifvqf40","pricing_plan_id":"cebpf4jnsgd1na2vs0mg"},{"bike_id":"ed5cea79-0bea-4c86-8c80-f8de23687c7f","system_id":"levelo_inurba_marseille","lat":43.27489,"lon":5.43995,"is_reserved":false,"is_disabled":false,"rental_uris":{"android":"levelo://app?vid=ed5cea79-0bea-4c86-8c80-f8de23687c7f","ios":"levelo://app?vid=ed5cea79-0bea-4c86-8c80-f8de23687c7f"},"vehicle_type_id":"4","last_reported":1742518191,"current_range_meters":6800,"station_id":"","pricing_plan_id":"cebpf4jnsgd1na2vs0mg"},{"bike_id":"471b8c1a-1a85-4080-b533-fb41f3dbfd81","system_id":"levelo_inurba_marseille","lat":43.232,"lon":5.35562,"is_reserved":false,"is_disabled":false,"rental_uris":{"android":"levelo://app?vid=471b8c1a-1a85-4080-b533-fb41f3dbfd81","ios":"levelo://app?vid=471b8c1a-1a85-4080-b533-fb41f3dbfd81"},"vehicle_type_id":"4","last_reported":1742518191,"current_range_meters":6800,"station_id":"ce4bhu92rcd13ifvqi70","pricing_plan_id":"cebpf4jnsgd1na2vs0mg"},{"bike_id":"9128601a-f956-4e67-957d-684d6e79451c","system_id":"levelo_inurba_marseille","lat":43.29203,"lon":5.39323,"is_reserved":false,"is_disabled":false,"rental_uris":{"android":"levelo://app?vid=9128601a-f956-4e67-957d-684d6e79451c","ios":"levelo://app?vid=9128601a-f956-4e67-957d-684d6e79451c"},"vehicle_type_id":"4","last_reported":1742518191,"current_range_meters":6800,"station_id":"ce4bh192rcd13ifvqdd0","pricing_plan_id":"cebpf4jnsgd1na2vs0mg"},{"bike_id":"dd3884dc-0b6b-4a2b-8af5-b0f72ae3a61b","system_id":"levelo_inurba_marseille","lat":43.23205,"lon":5.35536,"is_reserved":false,"is_disabled":false,"rental_uris":{"android":"levelo://app?vid=dd3884dc-0b6b-4a2b-8af5-b0f72ae3a61b","ios":"levelo://app?vid=dd3884dc-0b6b-4a2b-8af5-b0f72ae3a61b"},"vehicle_type_id":"4","last_reported":1742518191,"current_range_meters":6800,"station_id":"ce4bhu92rcd13ifvqi70","pricing_plan_id":"cebpf4jnsgd1na2vs0mg"},{"bike_id":"0de773f6-90bb-4966-9e55-1628b3d7ea12","system_id":"levelo_inurba_marseille","lat":43.2465,"lon":5.3888,"is_reserved":false,"is_disabled":false,"rental_uris":{"android":"levelo://app?vid=0de773f6-90bb-4966-9e55-1628b3d7ea12","ios":"levelo://app?vid=0de773f6-90bb-4966-9e55-1628b3d7ea12"},"vehicle_type_id":"4","last_reported":1742518191,"current_range_meters":6800,"station_id":"ce4bhg12rcd13ifvqf60","pricing_plan_id":"cebpf4jnsgd1na2vs0mg"},{"bike_id":"14d391f5-159c-4c5f-b70e-2129ab8b3e33","system_id":"levelo_inurba_marseille","lat":43.31448,"lon":5.37376,"is_reserved":false,"is_disabled":false,"rental_uris":{"android":"levelo://app?vid=14d391f5-159c-4c5f-b70e-2129ab8b3e33","ios":"levelo://app?vid=14d391f5-159c-4c5f-b70e-2129ab8b3e33"},"vehicle_type_id":"4","last_reported":1742518191,"current_range_meters":7200,"station_id":"","pricing_plan_id":"cebpf4jnsgd1na2vs0mg"},{"bike_id":"f28dca1c-2ce1-454b-a69d-599aa0f34ab1","system_id":"levelo_inurba_marseille","lat":43.28685,"lon":5.39968,"is_reserved":false,"is_disabled":false,"rental_uris":{"android":"levelo://app?vid=f28dca1c-2ce1-454b-a69d-599aa0f34ab1","ios":"levelo://app?vid=f28dca1c-2ce1-454b-a69d-599aa0f34ab1"},"vehicle_type_id":"4","last_reported":1742518191,"current_range_meters":7200,"station_id":"ce4bho92rcd13ifvqh3g","pricing_plan_id":"cebpf4jnsgd1na2vs0mg"},{"bike_id":"9044461e-62db-4d23-b825-ab9c7ed1b440","system_id":"levelo_inurba_marseille","lat":43.2799,"lon":5.41649,"is_reserved":false,"is_disabled":false,"rental_uris":{"android":"levelo://app?vid=9044461e-62db-4d23-b825-ab9c7ed1b440","ios":"levelo://app?vid=9044461e-62db-4d23-b825-ab9c7ed1b440"},"vehicle_type_id":"4","last_reported":1742518191,"current_range_meters":7200,"station_id":"ce4bho12rcd13ifvqh1g","pricing_plan_id":"cebpf4jnsgd1na2vs0mg"},{"bike_id":"4d07b038-7b86-4c91-a7dc-8736f41d1db7","system_id":"levelo_inurba_marseille","lat":43.27829,"lon":5.39204,"is_reserved":false,"is_disabled":false,"rental_uris":{"android":"levelo://app?vid=4d07b038-7b86-4c91-a7dc-8736f41d1db7","ios":"levelo://app?vid=4d07b038-7b86-4c91-a7dc-8736f41d1db7"},"vehicle_type_id":"4","last_reported":1742518191,"current_range_meters":7200,"station_id":"ce4bhjp2rcd13ifvqga0","pricing_plan_id":"cebpf4jnsgd1na2vs0mg"},{"bike_id":"cf6b304b-78d9-400d-9317-13ea6ba8ac05","system_id":"levelo_inurba_marseille","lat":43.30785,"lon":5.37643,"is_reserved":false,"is_disabled":false,"rental_uris":{"android":"levelo://app?vid=cf6b304b-78d9-400d-9317-13ea6ba8ac05","ios":"levelo://app?vid=cf6b304b-78d9-400d-9317-13ea6ba8ac05"},"vehicle_type_id":"4","last_reported":1742518191,"current_range_meters":7200,"station_id":"ce4bgv92rcd13ifvqcq0","pricing_plan_id":"cebpf4jnsgd1na2vs0mg"},{"bike_id":"671210b1-9e8f-4893-953f-985ab8b97e34","system_id":"levelo_inurba_marseille","lat":43.32112,"lon":5.36766,"is_reserved":false,"is_disabled":false,"rental_uris":{"android":"levelo://app?vid=671210b1-9e8f-4893-953f-985ab8b97e34","ios":"levelo://app?vid=671210b1-9e8f-4893-953f-985ab8b97e34"},"vehicle_type_id":"4","last_reported":1742518191,"current_range_meters":7200,"station_id":"ce4bhrh2rcd13ifvqhug","pricing_plan_id":"cebpf4jnsgd1na2vs0mg"},{"bike_id":"88235f40-31c6-4a2f-8946-34e3a8b8f4b1","system_id":"levelo_inurba_marseille","lat":43.298829,"lon":5.397515,"is_reserved":false,"is_disabled":false,"rental_uris":{"android":"levelo://app?vid=88235f40-31c6-4a2f-8946-34e3a8b8f4b1","ios":"levelo://app?vid=88235f40-31c6-4a2f-8946-34e3a8b8f4b1"},"vehicle_type_id":"4","last_reported":1742518191,"current_range_meters":7200,"station_id":"ce4bh0h2rcd13ifvqd50","pricing_plan_id":"cebpf4jnsgd1na2vs0mg"},{"bike_id":"bb55ab9d-3223-4c62-9ba4-1c929d3f7ca3","system_id":"levelo_inurba_marseille","lat":43.29893,"lon":5.4366,"is_reserved":false,"is_disabled":false,"rental_uris":{"android":"levelo://app?vid=bb55ab9d-3223-4c62-9ba4-1c929d3f7ca3","ios":"levelo://app?vid=bb55ab9d-3223-4c62-9ba4-1c929d3f7ca3"},"vehicle_type_id":"4","last_reported":1742518191,"current_range_meters":7200,"station_id":"ce4bhpp2rcd13ifvqhfg","pricing_plan_id":"cebpf4jnsgd1na2vs0mg"},{"bike_id":"f8e69801-e786-4f8e-84e0-e330fc8defd7","system_id":"levelo_inurba_marseille","lat":43.32708,"lon":5.3832,"is_reserved":false,"is_disabled":false,"rental_uris":{"android":"levelo://app?vid=f8e69801-e786-4f8e-84e0-e330fc8defd7","ios":"levelo://app?vid=f8e69801-e786-4f8e-84e0-e330fc8defd7"},"vehicle_type_id":"4","last_reported":1742518191,"current_range_meters":7200,"station_id":"","pricing_plan_id":"cebpf4jnsgd1na2vs0mg"},{"bike_id":"ad12880d-a179-44ea-9a02-eb1194443437","system_id":"levelo_inurba_marseille","lat":43.24651,"lon":5.38884,"is_reserved":false,"is_disabled":false,"rental_uris":{"android":"levelo://app?vid=ad12880d-a179-44ea-9a02-eb1194443437","ios":"levelo://app?vid=ad12880d-a179-44ea-9a02-eb1194443437"},"vehicle_type_id":"4","last_reported":1742518191,"current_range_meters":7200,"station_id":"ce4bhg12rcd13ifvqf60","pricing_plan_id":"cebpf4jnsgd1na2vs0mg"},{"bike_id":"cb6062cd-3cfa-4917-b79b-5707b99e3c03","system_id":"levelo_inurba_marseille","lat":43.321185,"lon":5.367534,"is_reserved":false,"is_disabled":false,"rental_uris":{"android":"levelo://app?vid=cb6062cd-3cfa-4917-b79b-5707b99e3c03","ios":"levelo://app?vid=cb6062cd-3cfa-4917-b79b-5707b99e3c03"},"vehicle_type_id":"4","last_reported":1742518191,"current_range_meters":8000,"station_id":"ce4bho92rcd13ifvqh3g","pricing_plan_id":"cebpf4jnsgd1na2vs0mg"},{"bike_id":"c79be61e-cc77-4459-a872-5661d84da3f3","system_id":"levelo_inurba_marseille","lat":43.29248,"lon":5.40895,"is_reserved":false,"is_disabled":false,"rental_uris":{"android":"levelo://app?vid=c79be61e-cc77-4459-a872-5661d84da3f3","ios":"levelo://app?vid=c79be61e-cc77-4459-a872-5661d84da3f3"},"vehicle_type_id":"4","last_reported":1742518191,"current_range_meters":8000,"station_id":"ce4bh192rcd13ifvqdc0","pricing_plan_id":"cebpf4jnsgd1na2vs0mg"},{"bike_id":"aa0c7091-1f8d-4294-97bb-df9bff05a5bb","system_id":"levelo_inurba_marseille","lat":43.2955,"lon":5.42275,"is_reserved":false,"is_disabled":false,"rental_uris":{"android":"levelo://app?vid=aa0c7091-1f8d-4294-97bb-df9bff05a5bb","ios":"levelo://app?vid=aa0c7091-1f8d-4294-97bb-df9bff05a5bb"},"vehicle_type_id":"4","last_reported":1742518191,"current_range_meters":8000,"station_id":"ce4bhph2rcd13ifvqhdg","pricing_plan_id":"cebpf4jnsgd1na2vs0mg"},{"bike_id":"9b2a4ae1-45d2-42a7-b1d8-970226b193d0","system_id":"levelo_inurba_marseille","lat":43.24179,"lon":5.39714,"is_reserved":false,"is_disabled":false,"rental_uris":{"android":"levelo://app?vid=9b2a4ae1-45d2-42a7-b1d8-970226b193d0","ios":"levelo://app?vid=9b2a4ae1-45d2-42a7-b1d8-970226b193d0"},"vehicle_type_id":"4","last_reported":1742518191,"current_range_meters":8000,"station_id":"ce4bhn12rcd13ifvqgpg","pricing_plan_id":"cebpf4jnsgd1na2vs0mg"},{"bike_id":"d33ebc01-4bb7-4759-b3f0-c2402a693d75","system_id":"levelo_inurba_marseille","lat":43.29792,"lon":5.39366,"is_reserved":false,"is_disabled":false,"rental_uris":{"android":"levelo://app?vid=d33ebc01-4bb7-4759-b3f0-c2402a693d75","ios":"levelo://app?vid=d33ebc01-4bb7-4759-b3f0-c2402a693d75"},"vehicle_type_id":"4","last_reported":1742518191,"current_range_meters":8000,"station_id":"chh1huq6cuj3fo74tm60","pricing_plan_id":"cebpf4jnsgd1na2vs0mg"},{"bike_id":"175ef35c-142f-440a-ab75-e3d38323d1fc","system_id":"levelo_inurba_marseille","lat":43.25884,"lon":5.39914,"is_reserved":false,"is_disabled":false,"rental_uris":{"android":"levelo://app?vid=175ef35c-142f-440a-ab75-e3d38323d1fc","ios":"levelo://app?vid=175ef35c-142f-440a-ab75-e3d38323d1fc"},"vehicle_type_id":"4","last_reported":1742518191,"current_range_meters":8000,"station_id":"ce4bhl92rcd13ifvqghg","pricing_plan_id":"cebpf4jnsgd1na2vs0mg"},{"bike_id":"397a4bde-aeba-43ea-98d8-4e8e97b2e020","system_id":"levelo_inurba_marseille","lat":43.28076,"lon":5.39648,"is_reserved":false,"is_disabled":false,"rental_uris":{"android":"levelo://app?vid=397a4bde-aeba-43ea-98d8-4e8e97b2e020","ios":"levelo://app?vid=397a4bde-aeba-43ea-98d8-4e8e97b2e020"},"vehicle_type_id":"4","last_reported":1742518191,"current_range_meters":8000,"station_id":"ce4bho12rcd13ifvqh2g","pricing_plan_id":"cebpf4jnsgd1na2vs0mg"},{"bike_id":"508dc6aa-262d-460a-8257-9b290d0ebb4f","system_id":"levelo_inurba_marseille","lat":43.30436,"lon":5.38897,"is_reserved":false,"is_disabled":false,"rental_uris":{"android":"levelo://app?vid=508dc6aa-262d-460a-8257-9b290d0ebb4f","ios":"levelo://app?vid=508dc6aa-262d-460a-8257-9b290d0ebb4f"},"vehicle_type_id":"4","last_reported":1742518191,"current_range_meters":8000,"station_id":"ce4bgk12rcd13ifvqbi0","pricing_plan_id":"cebpf4jnsgd1na2vs0mg"},{"bike_id":"4e3a06a1-49e0-4af6-914b-1850c126965b","system_id":"levelo_inurba_marseille","lat":43.29878,"lon":5.39747,"is_reserved":false,"is_disabled":false,"rental_uris":{"android":"levelo://app?vid=4e3a06a1-49e0-4af6-914b-1850c126965b","ios":"levelo://app?vid=4e3a06a1-49e0-4af6-914b-1850c126965b"},"vehicle_type_id":"4","last_reported":1742518191,"current_range_meters":8000,"station_id":"ce4bh0h2rcd13ifvqd50","pricing_plan_id":"cebpf4jnsgd1na2vs0mg"},{"bike_id":"1983241e-dcf4-412a-b965-b9e661a9d6d5","system_id":"levelo_inurba_marseille","lat":43.29852,"lon":5.40147,"is_reserved":false,"is_disabled":false,"rental_uris":{"android":"levelo://app?vid=1983241e-dcf4-412a-b965-b9e661a9d6d5","ios":"levelo://app?vid=1983241e-dcf4-412a-b965-b9e661a9d6d5"},"vehicle_type_id":"4","last_reported":1742518191,"current_range_meters":8000,"station_id":"","pricing_plan_id":"cebpf4jnsgd1na2vs0mg"},{"bike_id":"03f58907-2d0f-473c-9a11-c34189ca47d0","system_id":"levelo_inurba_marseille","lat":43.28428,"lon":5.37523,"is_reserved":false,"is_disabled":false,"rental_uris":{"android":"levelo://app?vid=03f58907-2d0f-473c-9a11-c34189ca47d0","ios":"levelo://app?vid=03f58907-2d0f-473c-9a11-c34189ca47d0"},"vehicle_type_id":"4","last_reported":1742518191,"current_range_meters":8400,"station_id":"ce4bh412rcd13ifvqds0","pricing_plan_id":"cebpf4jnsgd1na2vs0mg"},{"bike_id":"b8462f73-89fd-4d3d-b5cb-b9bced4b8630","system_id":"levelo_inurba_marseille","lat":43.30628,"lon":5.40071,"is_reserved":false,"is_disabled":false,"rental_uris":{"android":"levelo://app?vid=b8462f73-89fd-4d3d-b5cb-b9bced4b8630","ios":"levelo://app?vid=b8462f73-89fd-4d3d-b5cb-b9bced4b8630"},"vehicle_type_id":"4","last_reported":1742518191,"current_range_meters":8400,"station_id":"ce4bh112rcd13ifvqda0","pricing_plan_id":"cebpf4jnsgd1na2vs0mg"},{"bike_id":"df446069-6124-47b5-871e-1e0922d42d2c","system_id":"levelo_inurba_marseille","lat":43.24185,"lon":5.39731,"is_reserved":false,"is_disabled":false,"rental_uris":{"android":"levelo://app?vid=df446069-6124-47b5-871e-1e0922d42d2c","ios":"levelo://app?vid=df446069-6124-47b5-871e-1e0922d42d2c"},"vehicle_type_id":"4","last_reported":1742518191,"current_range_meters":8400,"station_id":"ce4bhn12rcd13ifvqgpg","pricing_plan_id":"cebpf4jnsgd1na2vs0mg"},{"bike_id":"294818fe-f961-4f2d-85c2-45f9b2579a29","system_id":"levelo_inurba_marseille","lat":43.27726,"lon":5.39043,"is_reserved":false,"is_disabled":false,"rental_uris":{"android":"levelo://app?vid=294818fe-f961-4f2d-85c2-45f9b2579a29","ios":"levelo://app?vid=294818fe-f961-4f2d-85c2-45f9b2579a29"},"vehicle_type_id":"4","last_reported":1742518191,"current_range_meters":8400,"station_id":"","pricing_plan_id":"cebpf4jnsgd1na2vs0mg"},{"bike_id":"1187d41c-f793-4bfa-99d6-e901fc8327f4","system_id":"levelo_inurba_marseille","lat":43.30893,"lon":5.39612,"is_reserved":false,"is_disabled":false,"rental_uris":{"android":"levelo://app?vid=1187d41c-f793-4bfa-99d6-e901fc8327f4","ios":"levelo://app?vid=1187d41c-f793-4bfa-99d6-e901fc8327f4"},"vehicle_type_id":"4","last_reported":1742518191,"current_range_meters":8400,"station_id":"ce4bh012rcd13ifvqcv0","pricing_plan_id":"cebpf4jnsgd1na2vs0mg"},{"bike_id":"3de2406a-ac3d-462f-b119-f2f92e9b0930","system_id":"levelo_inurba_marseille","lat":43.31388,"lon":5.3891,"is_reserved":false,"is_disabled":false,"rental_uris":{"android":"levelo://app?vid=3de2406a-ac3d-462f-b119-f2f92e9b0930","ios":"levelo://app?vid=3de2406a-ac3d-462f-b119-f2f92e9b0930"},"vehicle_type_id":"4","last_reported":1742518191,"current_range_meters":8400,"station_id":"","pricing_plan_id":"cebpf4jnsgd1na2vs0mg"},{"bike_id":"bfb8aceb-271f-407e-8f66-f0880d7ac280","system_id":"levelo_inurba_marseille","lat":43.31348,"lon":5.39713,"is_reserved":false,"is_disabled":false,"rental_uris":{"android":"levelo://app?vid=bfb8aceb-271f-407e-8f66-f0880d7ac280","ios":"levelo://app?vid=bfb8aceb-271f-407e-8f66-f0880d7ac280"},"vehicle_type_id":"4","last_reported":1742518191,"current_range_meters":8400,"station_id":"ce4bgvp2rcd13ifvqcu0","pricing_plan_id":"cebpf4jnsgd1na2vs0mg"},{"bike_id":"87fc0535-a83d-43a6-b769-72549de4a628","system_id":"levelo_inurba_marseille","lat":43.30381,"lon":5.42475,"is_reserved":false,"is_disabled":false,"rental_uris":{"android":"levelo://app?vid=87fc0535-a83d-43a6-b769-72549de4a628","ios":"levelo://app?vid=87fc0535-a83d-43a6-b769-72549de4a628"},"vehicle_type_id":"4","last_reported":1742518191,"current_range_meters":8400,"station_id":"ce4bhoh2rcd13ifvqh6g","pricing_plan_id":"cebpf4jnsgd1na2vs0mg"},{"bike_id":"4da38abe-63fe-44a7-abd3-4bad6629a678","system_id":"levelo_inurba_marseille","lat":43.29672,"lon":5.37357,"is_reserved":false,"is_disabled":false,"rental_uris":{"android":"levelo://app?vid=4da38abe-63fe-44a7-abd3-4bad6629a678","ios":"levelo://app?vid=4da38abe-63fe-44a7-abd3-4bad6629a678"},"vehicle_type_id":"4","last_reported":1742518191,"current_range_meters":8400,"station_id":"","pricing_plan_id":"cebpf4jnsgd1na2vs0mg"},{"bike_id":"74c887a7-30ff-4a7b-bfe2-8fd396831685","system_id":"levelo_inurba_marseille","lat":43.31186,"lon":5.38691,"is_reserved":false,"is_disabled":false,"rental_uris":{"android":"levelo://app?vid=74c887a7-30ff-4a7b-bfe2-8fd396831685","ios":"levelo://app?vid=74c887a7-30ff-4a7b-bfe2-8fd396831685"},"vehicle_type_id":"4","last_reported":1742518191,"current_range_meters":8400,"station_id":"ce4bgv12rcd13ifvqcp0","pricing_plan_id":"cebpf4jnsgd1na2vs0mg"},{"bike_id":"d7645557-54c5-44ed-8c44-41e433a350da","system_id":"levelo_inurba_marseille","lat":43.29474,"lon":5.35563,"is_reserved":false,"is_disabled":false,"rental_uris":{"android":"levelo://app?vid=d7645557-54c5-44ed-8c44-41e433a350da","ios":"levelo://app?vid=d7645557-54c5-44ed-8c44-41e433a350da"},"vehicle_type_id":"4","last_reported":1742518191,"current_range_meters":8400,"station_id":"","pricing_plan_id":"cebpf4jnsgd1na2vs0mg"},{"bike_id":"74ca8f8e-770f-4c39-9bcc-04d356dfc1fe","system_id":"levelo_inurba_marseille","lat":43.32479,"lon":5.3655,"is_reserved":false,"is_disabled":false,"rental_uris":{"android":"levelo://app?vid=74ca8f8e-770f-4c39-9bcc-04d356dfc1fe","ios":"levelo://app?vid=74ca8f8e-770f-4c39-9bcc-04d356dfc1fe"},"vehicle_type_id":"4","last_reported":1742518191,"current_range_meters":8800,"station_id":"ce4bhs12rcd13ifvqhvg","pricing_plan_id":"cebpf4jnsgd1na2vs0mg"},{"bike_id":"32e3927b-12d0-4b1a-9923-ea2f64ded6c1","system_id":"levelo_inurba_marseille","lat":43.28148,"lon":5.42648,"is_reserved":false,"is_disabled":false,"rental_uris":{"android":"levelo://app?vid=32e3927b-12d0-4b1a-9923-ea2f64ded6c1","ios":"levelo://app?vid=32e3927b-12d0-4b1a-9923-ea2f64ded6c1"},"vehicle_type_id":"4","last_reported":1742518191,"current_range_meters":8800,"station_id":"ce4bhnh2rcd13ifvqgug","pricing_plan_id":"cebpf4jnsgd1na2vs0mg"},{"bike_id":"6c3117c3-09fd-4d54-96ed-b753848a5cec","system_id":"levelo_inurba_marseille","lat":43.27998,"lon":5.40007,"is_reserved":false,"is_disabled":false,"rental_uris":{"android":"levelo://app?vid=6c3117c3-09fd-4d54-96ed-b753848a5cec","ios":"levelo://app?vid=6c3117c3-09fd-4d54-96ed-b753848a5cec"},"vehicle_type_id":"4","last_reported":1742518191,"current_range_meters":8800,"station_id":"ce4bho92rcd13ifvqh4g","pricing_plan_id":"cebpf4jnsgd1na2vs0mg"},{"bike_id":"a0deeb6c-62a7-4efb-834c-1bec837aaba6","system_id":"levelo_inurba_marseille","lat":43.33716,"lon":5.37814,"is_reserved":false,"is_disabled":false,"rental_uris":{"android":"levelo://app?vid=a0deeb6c-62a7-4efb-834c-1bec837aaba6","ios":"levelo://app?vid=a0deeb6c-62a7-4efb-834c-1bec837aaba6"},"vehicle_type_id":"4","last_reported":1742518191,"current_range_meters":8800,"station_id":"","pricing_plan_id":"cebpf4jnsgd1na2vs0mg"},{"bike_id":"4f4285f9-a7df-4d23-bcb2-b1cd2878145d","system_id":"levelo_inurba_marseille","lat":43.27489,"lon":5.42457,"is_reserved":false,"is_disabled":false,"rental_uris":{"android":"levelo://app?vid=4f4285f9-a7df-4d23-bcb2-b1cd2878145d","ios":"levelo://app?vid=4f4285f9-a7df-4d23-bcb2-b1cd2878145d"},"vehicle_type_id":"4","last_reported":1742518191,"current_range_meters":8800,"station_id":"ce4bhn92rcd13ifvqgrg","pricing_plan_id":"cebpf4jnsgd1na2vs0mg"},{"bike_id":"ffbee1c9-ab8d-45ee-b606-c546ab78c5f2","system_id":"levelo_inurba_marseille","lat":43.29751,"lon":5.37781,"is_reserved":false,"is_disabled":false,"rental_uris":{"android":"levelo://app?vid=ffbee1c9-ab8d-45ee-b606-c546ab78c5f2","ios":"levelo://app?vid=ffbee1c9-ab8d-45ee-b606-c546ab78c5f2"},"vehicle_type_id":"4","last_reported":1742518191,"current_range_meters":8800,"station_id":"","pricing_plan_id":"cebpf4jnsgd1na2vs0mg"},{"bike_id":"b968c763-c506-4e52-b870-225a930700ff","system_id":"levelo_inurba_marseille","lat":43.30454,"lon":5.38882,"is_reserved":false,"is_disabled":false,"rental_uris":{"android":"levelo://app?vid=b968c763-c506-4e52-b870-225a930700ff","ios":"levelo://app?vid=b968c763-c506-4e52-b870-225a930700ff"},"vehicle_type_id":"4","last_reported":1742518191,"current_range_meters":8800,"station_id":"ce4bgk12rcd13ifvqbi0","pricing_plan_id":"cebpf4jnsgd1na2vs0mg"},{"bike_id":"a98eab75-7fc8-4150-9474-339e512a1596","system_id":"levelo_inurba_marseille","lat":43.30781,"lon":5.37651,"is_reserved":false,"is_disabled":false,"rental_uris":{"android":"levelo://app?vid=a98eab75-7fc8-4150-9474-339e512a1596","ios":"levelo://app?vid=a98eab75-7fc8-4150-9474-339e512a1596"},"vehicle_type_id":"4","last_reported":1742518191,"current_range_meters":8800,"station_id":"ce4bgv92rcd13ifvqcq0","pricing_plan_id":"cebpf4jnsgd1na2vs0mg"},{"bike_id":"67470749-10e1-45eb-b6cd-62b6b2069886","system_id":"levelo_inurba_marseille","lat":43.28484,"lon":5.38422,"is_reserved":false,"is_disabled":false,"rental_uris":{"android":"levelo://app?vid=67470749-10e1-45eb-b6cd-62b6b2069886","ios":"levelo://app?vid=67470749-10e1-45eb-b6cd-62b6b2069886"},"vehicle_type_id":"4","last_reported":1742518191,"current_range_meters":8800,"station_id":"ce4bh512rcd13ifvqe3g","pricing_plan_id":"cebpf4jnsgd1na2vs0mg"},{"bike_id":"c5bb5dca-1dc9-450e-9a3d-9fa737cf345d","system_id":"levelo_inurba_marseille","lat":43.24657,"lon":5.38903,"is_reserved":false,"is_disabled":false,"rental_uris":{"android":"levelo://app?vid=c5bb5dca-1dc9-450e-9a3d-9fa737cf345d","ios":"levelo://app?vid=c5bb5dca-1dc9-450e-9a3d-9fa737cf345d"},"vehicle_type_id":"4","last_reported":1742518191,"current_range_meters":8800,"station_id":"ce4bhg12rcd13ifvqf60","pricing_plan_id":"cebpf4jnsgd1na2vs0mg"},{"bike_id":"a1d4474e-dc54-4e96-8359-81b099ba1a93","system_id":"levelo_inurba_marseille","lat":43.23191,"lon":5.3997,"is_reserved":false,"is_disabled":false,"rental_uris":{"android":"levelo://app?vid=a1d4474e-dc54-4e96-8359-81b099ba1a93","ios":"levelo://app?vid=a1d4474e-dc54-4e96-8359-81b099ba1a93"},"vehicle_type_id":"4","last_reported":1742518191,"current_range_meters":9200,"station_id":"ce4bhn12rcd13ifvqgqg","pricing_plan_id":"cebpf4jnsgd1na2vs0mg"},{"bike_id":"69a1267d-4f9b-471a-98e9-7d2631052ef0","system_id":"levelo_inurba_marseille","lat":43.28002,"lon":5.40032,"is_reserved":false,"is_disabled":false,"rental_uris":{"android":"levelo://app?vid=69a1267d-4f9b-471a-98e9-7d2631052ef0","ios":"levelo://app?vid=69a1267d-4f9b-471a-98e9-7d2631052ef0"},"vehicle_type_id":"4","last_reported":1742518191,"current_range_meters":9200,"station_id":"ce4bho92rcd13ifvqh4g","pricing_plan_id":"cebpf4jnsgd1na2vs0mg"},{"bike_id":"1b72dce5-42b7-49bb-8b47-d1da09987f69","system_id":"levelo_inurba_marseille","lat":43.3033,"lon":5.40449,"is_reserved":false,"is_disabled":false,"rental_uris":{"android":"levelo://app?vid=1b72dce5-42b7-49bb-8b47-d1da09987f69","ios":"levelo://app?vid=1b72dce5-42b7-49bb-8b47-d1da09987f69"},"vehicle_type_id":"4","last_reported":1742518191,"current_range_meters":9200,"station_id":"ce4bh012rcd13ifvqd10","pricing_plan_id":"cebpf4jnsgd1na2vs0mg"},{"bike_id":"4fdfb7d6-8ab3-43f7-8bc5-8c9a50e46a96","system_id":"levelo_inurba_marseille","lat":43.265632,"lon":5.373059,"is_reserved":false,"is_disabled":false,"rental_uris":{"android":"levelo://app?vid=4fdfb7d6-8ab3-43f7-8bc5-8c9a50e46a96","ios":"levelo://app?vid=4fdfb7d6-8ab3-43f7-8bc5-8c9a50e46a96"},"vehicle_type_id":"4","last_reported":1742518191,"current_range_meters":9200,"station_id":"ce4bhg12rcd13ifvqf70","pricing_plan_id":"cebpf4jnsgd1na2vs0mg"},{"bike_id":"298094ff-1b8f-403e-b315-5326030acb86","system_id":"levelo_inurba_marseille","lat":43.28156,"lon":5.42645,"is_reserved":false,"is_disabled":false,"rental_uris":{"android":"levelo://app?vid=298094ff-1b8f-403e-b315-5326030acb86","ios":"levelo://app?vid=298094ff-1b8f-403e-b315-5326030acb86"},"vehicle_type_id":"4","last_reported":1742518191,"current_range_meters":9200,"station_id":"ce4bhnh2rcd13ifvqgug","pricing_plan_id":"cebpf4jnsgd1na2vs0mg"},{"bike_id":"6b4e33a7-8af2-4968-9b7e-7b77cef89a0f","system_id":"levelo_inurba_marseille","lat":43.30784,"lon":5.37643,"is_reserved":false,"is_disabled":false,"rental_uris":{"android":"levelo://app?vid=6b4e33a7-8af2-4968-9b7e-7b77cef89a0f","ios":"levelo://app?vid=6b4e33a7-8af2-4968-9b7e-7b77cef89a0f"},"vehicle_type_id":"4","last_reported":1742518191,"current_range_meters":9200,"station_id":"ce4bgv92rcd13ifvqcq0","pricing_plan_id":"cebpf4jnsgd1na2vs0mg"},{"bike_id":"c9b785a2-8732-4614-8c18-46783f330057","system_id":"levelo_inurba_marseille","lat":43.30808,"lon":5.37636,"is_reserved":false,"is_disabled":false,"rental_uris":{"android":"levelo://app?vid=c9b785a2-8732-4614-8c18-46783f330057","ios":"levelo://app?vid=c9b785a2-8732-4614-8c18-46783f330057"},"vehicle_type_id":"4","last_reported":1742518191,"current_range_meters":9200,"station_id":"ce4bgv92rcd13ifvqcq0","pricing_plan_id":"cebpf4jnsgd1na2vs0mg"},{"bike_id":"052cbe91-19e3-4b36-82bc-fc508094cb79","system_id":"levelo_inurba_marseille","lat":43.27204,"lon":5.40991,"is_reserved":false,"is_disabled":false,"rental_uris":{"android":"levelo://app?vid=052cbe91-19e3-4b36-82bc-fc508094cb79","ios":"levelo://app?vid=052cbe91-19e3-4b36-82bc-fc508094cb79"},"vehicle_type_id":"4","last_reported":1742518191,"current_range_meters":9200,"station_id":"ce4bhl12rcd13ifvqgf0","pricing_plan_id":"cebpf4jnsgd1na2vs0mg"},{"bike_id":"1ad4c6fa-a47b-4819-abe3-c19d0e67380d","system_id":"levelo_inurba_marseille","lat":43.28571,"lon":5.39489,"is_reserved":false,"is_disabled":false,"rental_uris":{"android":"levelo://app?vid=1ad4c6fa-a47b-4819-abe3-c19d0e67380d","ios":"levelo://app?vid=1ad4c6fa-a47b-4819-abe3-c19d0e67380d"},"vehicle_type_id":"4","last_reported":1742518191,"current_range_meters":9200,"station_id":"ce4bh292rcd13ifvqdg0","pricing_plan_id":"cebpf4jnsgd1na2vs0mg"},{"bike_id":"b15a8c3b-ed3f-4bcd-bc6b-35f37c64fdde","system_id":"levelo_inurba_marseille","lat":43.28416,"lon":5.37513,"is_reserved":false,"is_disabled":false,"rental_uris":{"android":"levelo://app?vid=b15a8c3b-ed3f-4bcd-bc6b-35f37c64fdde","ios":"levelo://app?vid=b15a8c3b-ed3f-4bcd-bc6b-35f37c64fdde"},"vehicle_type_id":"4","last_reported":1742518191,"current_range_meters":9200,"station_id":"ce4bh412rcd13ifvqds0","pricing_plan_id":"cebpf4jnsgd1na2vs0mg"},{"bike_id":"b9e4bdd0-024c-4547-9a94-39d0c7923642","system_id":"levelo_inurba_marseille","lat":43.24171,"lon":5.36402,"is_reserved":false,"is_disabled":false,"rental_uris":{"android":"levelo://app?vid=b9e4bdd0-024c-4547-9a94-39d0c7923642","ios":"levelo://app?vid=b9e4bdd0-024c-4547-9a94-39d0c7923642"},"vehicle_type_id":"4","last_reported":1742518191,"current_range_meters":9200,"station_id":"cpo36qri1sfpv3e86is0","pricing_plan_id":"cebpf4jnsgd1na2vs0mg"},{"bike_id":"d6c53f3a-2c70-4092-a530-31d1a2b408b7","system_id":"levelo_inurba_marseille","lat":43.26691,"lon":5.38257,"is_reserved":false,"is_disabled":false,"rental_uris":{"android":"levelo://app?vid=d6c53f3a-2c70-4092-a530-31d1a2b408b7","ios":"levelo://app?vid=d6c53f3a-2c70-4092-a530-31d1a2b408b7"},"vehicle_type_id":"4","last_reported":1742518191,"current_range_meters":9600,"station_id":"ce4bhg92rcd13ifvqf90","pricing_plan_id":"cebpf4jnsgd1na2vs0mg"},{"bike_id":"311f3d6e-f9db-4cb3-9683-608f9dcd7aad","system_id":"levelo_inurba_marseille","lat":43.30303,"lon":5.36906,"is_reserved":false,"is_disabled":false,"rental_uris":{"android":"levelo://app?vid=311f3d6e-f9db-4cb3-9683-608f9dcd7aad","ios":"levelo://app?vid=311f3d6e-f9db-4cb3-9683-608f9dcd7aad"},"vehicle_type_id":"4","last_reported":1742518191,"current_range_meters":9600,"station_id":"ce4bgqh2rcd13ifvqc5g","pricing_plan_id":"cebpf4jnsgd1na2vs0mg"},{"bike_id":"10040ff5-09c7-4549-9697-fbeae20cf216","system_id":"levelo_inurba_marseille","lat":43.24651,"lon":5.38904,"is_reserved":false,"is_disabled":false,"rental_uris":{"android":"levelo://app?vid=10040ff5-09c7-4549-9697-fbeae20cf216","ios":"levelo://app?vid=10040ff5-09c7-4549-9697-fbeae20cf216"},"vehicle_type_id":"4","last_reported":1742518191,"current_range_meters":9600,"station_id":"ce4bhg12rcd13ifvqf60","pricing_plan_id":"cebpf4jnsgd1na2vs0mg"},{"bike_id":"4465f285-04dc-4e42-bd50-91ff2a4ca850","system_id":"levelo_inurba_marseille","lat":43.30774,"lon":5.37654,"is_reserved":false,"is_disabled":false,"rental_uris":{"android":"levelo://app?vid=4465f285-04dc-4e42-bd50-91ff2a4ca850","ios":"levelo://app?vid=4465f285-04dc-4e42-bd50-91ff2a4ca850"},"vehicle_type_id":"4","last_reported":1742518191,"current_range_meters":9600,"station_id":"ce4bgv92rcd13ifvqcq0","pricing_plan_id":"cebpf4jnsgd1na2vs0mg"},{"bike_id":"bf1827b2-9807-48b9-8b0b-2e2096f695ce","system_id":"levelo_inurba_marseille","lat":43.26259,"lon":5.40452,"is_reserved":false,"is_disabled":false,"rental_uris":{"android":"levelo://app?vid=bf1827b2-9807-48b9-8b0b-2e2096f695ce","ios":"levelo://app?vid=bf1827b2-9807-48b9-8b0b-2e2096f695ce"},"vehicle_type_id":"4","last_reported":1742518191,"current_range_meters":9600,"station_id":"ce4bhmh2rcd13ifvqgmg","pricing_plan_id":"cebpf4jnsgd1na2vs0mg"},{"bike_id":"a292451a-57ca-4f76-b002-facf85780792","system_id":"levelo_inurba_marseille","lat":43.31507,"lon":5.37278,"is_reserved":false,"is_disabled":false,"rental_uris":{"android":"levelo://app?vid=a292451a-57ca-4f76-b002-facf85780792","ios":"levelo://app?vid=a292451a-57ca-4f76-b002-facf85780792"},"vehicle_type_id":"4","last_reported":1742518191,"current_range_meters":9600,"station_id":"ce4bgt12rcd13ifvqcd0","pricing_plan_id":"cebpf4jnsgd1na2vs0mg"},{"bike_id":"b4845fcb-a696-4a78-8c76-37f832b3d240","system_id":"levelo_inurba_marseille","lat":43.29015,"lon":5.35595,"is_reserved":false,"is_disabled":false,"rental_uris":{"android":"levelo://app?vid=b4845fcb-a696-4a78-8c76-37f832b3d240","ios":"levelo://app?vid=b4845fcb-a696-4a78-8c76-37f832b3d240"},"vehicle_type_id":"4","last_reported":1742518191,"current_range_meters":9600,"station_id":"ce4bhb92rcd13ifvqen0","pricing_plan_id":"cebpf4jnsgd1na2vs0mg"},{"bike_id":"76a129e6-b305-42b8-a863-5a99730d4d66","system_id":"levelo_inurba_marseille","lat":43.3044,"lon":5.41278,"is_reserved":false,"is_disabled":false,"rental_uris":{"android":"levelo://app?vid=76a129e6-b305-42b8-a863-5a99730d4d66","ios":"levelo://app?vid=76a129e6-b305-42b8-a863-5a99730d4d66"},"vehicle_type_id":"4","last_reported":1742518191,"current_range_meters":9600,"station_id":"ce4bhop2rcd13ifvqh8g","pricing_plan_id":"cebpf4jnsgd1na2vs0mg"},{"bike_id":"614b5350-344b-4548-93db-27f64d6d7f4f","system_id":"levelo_inurba_marseille","lat":43.24742,"lon":5.41162,"is_reserved":false,"is_disabled":false,"rental_uris":{"android":"levelo://app?vid=614b5350-344b-4548-93db-27f64d6d7f4f","ios":"levelo://app?vid=614b5350-344b-4548-93db-27f64d6d7f4f"},"vehicle_type_id":"4","last_reported":1742518191,"current_range_meters":9600,"station_id":"","pricing_plan_id":"cebpf4jnsgd1na2vs0mg"},{"bike_id":"d4b8f3ac-69da-4a13-8307-f3070663ea65","system_id":"levelo_inurba_marseille","lat":43.28468,"lon":5.35881,"is_reserved":false,"is_disabled":false,"rental_uris":{"android":"levelo://app?vid=d4b8f3ac-69da-4a13-8307-f3070663ea65","ios":"levelo://app?vid=d4b8f3ac-69da-4a13-8307-f3070663ea65"},"vehicle_type_id":"4","last_reported":1742518191,"current_range_meters":9600,"station_id":"ce4bhah2rcd13ifvqei0","pricing_plan_id":"cebpf4jnsgd1na2vs0mg"},{"bike_id":"295451a4-a71a-48b3-9f2c-dfa8b727f166","system_id":"levelo_inurba_marseille","lat":43.28411,"lon":5.37507,"is_reserved":false,"is_disabled":false,"rental_uris":{"android":"levelo://app?vid=295451a4-a71a-48b3-9f2c-dfa8b727f166","ios":"levelo://app?vid=295451a4-a71a-48b3-9f2c-dfa8b727f166"},"vehicle_type_id":"4","last_reported":1742518191,"current_range_meters":9600,"station_id":"ce4bh412rcd13ifvqds0","pricing_plan_id":"cebpf4jnsgd1na2vs0mg"},{"bike_id":"b290a832-9566-47d3-ba61-076568387192","system_id":"levelo_inurba_marseille","lat":43.25749,"lon":5.41034,"is_reserved":false,"is_disabled":false,"rental_uris":{"android":"levelo://app?vid=b290a832-9566-47d3-ba61-076568387192","ios":"levelo://app?vid=b290a832-9566-47d3-ba61-076568387192"},"vehicle_type_id":"4","last_reported":1742518191,"current_range_meters":9600,"station_id":"ce4bhkp2rcd13ifvqgd0","pricing_plan_id":"cebpf4jnsgd1na2vs0mg"},{"bike_id":"2bf14b1e-83d3-49a2-8e1d-a6d1faf931a9","system_id":"levelo_inurba_marseille","lat":43.29455,"lon":5.39731,"is_reserved":false,"is_disabled":false,"rental_uris":{"android":"levelo://app?vid=2bf14b1e-83d3-49a2-8e1d-a6d1faf931a9","ios":"levelo://app?vid=2bf14b1e-83d3-49a2-8e1d-a6d1faf931a9"},"vehicle_type_id":"4","last_reported":1742518191,"current_range_meters":9600,"station_id":"ce4bh3h2rcd13ifvqdo0","pricing_plan_id":"cebpf4jnsgd1na2vs0mg"},{"bike_id":"c31cd50f-6035-4372-ad1f-b2017eb69a05","system_id":"levelo_inurba_marseille","lat":43.241686,"lon":5.363894,"is_reserved":false,"is_disabled":false,"rental_uris":{"android":"levelo://app?vid=c31cd50f-6035-4372-ad1f-b2017eb69a05","ios":"levelo://app?vid=c31cd50f-6035-4372-ad1f-b2017eb69a05"},"vehicle_type_id":"4","last_reported":1742518191,"current_range_meters":10000,"station_id":"cpo36qri1sfpv3e86is0","pricing_plan_id":"cebpf4jnsgd1na2vs0mg"},{"bike_id":"16854c6e-f0d1-4450-84d6-34ef7c459a97","system_id":"levelo_inurba_marseille","lat":43.30314,"lon":5.369,"is_reserved":false,"is_disabled":false,"rental_uris":{"android":"levelo://app?vid=16854c6e-f0d1-4450-84d6-34ef7c459a97","ios":"levelo://app?vid=16854c6e-f0d1-4450-84d6-34ef7c459a97"},"vehicle_type_id":"4","last_reported":1742518191,"current_range_meters":10000,"station_id":"ce4bgqh2rcd13ifvqc5g","pricing_plan_id":"cebpf4jnsgd1na2vs0mg"},{"bike_id":"ce3fb986-9790-4457-a575-321e2fbef041","system_id":"levelo_inurba_marseille","lat":43.28117,"lon":5.37874,"is_reserved":false,"is_disabled":false,"rental_uris":{"android":"levelo://app?vid=ce3fb986-9790-4457-a575-321e2fbef041","ios":"levelo://app?vid=ce3fb986-9790-4457-a575-321e2fbef041"},"vehicle_type_id":"4","last_reported":1742518191,"current_range_meters":10000,"station_id":"ce4bha12rcd13ifvqee0","pricing_plan_id":"cebpf4jnsgd1na2vs0mg"},{"bike_id":"a83d89b4-34dc-4f00-ab7a-a53ca0d404af","system_id":"levelo_inurba_marseille","lat":43.28457,"lon":5.35883,"is_reserved":false,"is_disabled":false,"rental_uris":{"android":"levelo://app?vid=a83d89b4-34dc-4f00-ab7a-a53ca0d404af","ios":"levelo://app?vid=a83d89b4-34dc-4f00-ab7a-a53ca0d404af"},"vehicle_type_id":"4","last_reported":1742518191,"current_range_meters":10000,"station_id":"ce4bhah2rcd13ifvqei0","pricing_plan_id":"cebpf4jnsgd1na2vs0mg"},{"bike_id":"d80d9367-b4c7-4495-9d42-12d632cf5a06","system_id":"levelo_inurba_marseille","lat":43.28415,"lon":5.37517,"is_reserved":false,"is_disabled":false,"rental_uris":{"android":"levelo://app?vid=d80d9367-b4c7-4495-9d42-12d632cf5a06","ios":"levelo://app?vid=d80d9367-b4c7-4495-9d42-12d632cf5a06"},"vehicle_type_id":"4","last_reported":1742518191,"current_range_meters":10000,"station_id":"ce4bh412rcd13ifvqds0","pricing_plan_id":"cebpf4jnsgd1na2vs0mg"},{"bike_id":"2467d8ca-e0a8-4fd0-9ef2-04f6ad81f702","system_id":"levelo_inurba_marseille","lat":43.29965,"lon":5.37172,"is_reserved":false,"is_disabled":false,"rental_uris":{"android":"levelo://app?vid=2467d8ca-e0a8-4fd0-9ef2-04f6ad81f702","ios":"levelo://app?vid=2467d8ca-e0a8-4fd0-9ef2-04f6ad81f702"},"vehicle_type_id":"4","last_reported":1742518191,"current_range_meters":10000,"station_id":"ce4bgr92rcd13ifvqc7g","pricing_plan_id":"cebpf4jnsgd1na2vs0mg"},{"bike_id":"dcc18eac-d2e5-4e6e-91aa-19e270f58587","system_id":"levelo_inurba_marseille","lat":43.31322,"lon":5.39695,"is_reserved":false,"is_disabled":false,"rental_uris":{"android":"levelo://app?vid=dcc18eac-d2e5-4e6e-91aa-19e270f58587","ios":"levelo://app?vid=dcc18eac-d2e5-4e6e-91aa-19e270f58587"},"vehicle_type_id":"4","last_reported":1742518191,"current_range_meters":10000,"station_id":"ce4bgvp2rcd13ifvqcu0","pricing_plan_id":"cebpf4jnsgd1na2vs0mg"},{"bike_id":"1e5e022d-c5cb-46e0-a343-c04a006b7b40","system_id":"levelo_inurba_marseille","lat":43.28484,"lon":5.38576,"is_reserved":false,"is_disabled":false,"rental_uris":{"android":"levelo://app?vid=1e5e022d-c5cb-46e0-a343-c04a006b7b40","ios":"levelo://app?vid=1e5e022d-c5cb-46e0-a343-c04a006b7b40"},"vehicle_type_id":"4","last_reported":1742518191,"current_range_meters":10000,"station_id":"ce4bh8p2rcd13ifvqeb0","pricing_plan_id":"cebpf4jnsgd1na2vs0mg"},{"bike_id":"1c3b5361-695c-4ccc-94f9-aca7f37b6d45","system_id":"levelo_inurba_marseille","lat":43.23191,"lon":5.35544,"is_reserved":false,"is_disabled":false,"rental_uris":{"android":"levelo://app?vid=1c3b5361-695c-4ccc-94f9-aca7f37b6d45","ios":"levelo://app?vid=1c3b5361-695c-4ccc-94f9-aca7f37b6d45"},"vehicle_type_id":"4","last_reported":1742518191,"current_range_meters":10800,"station_id":"ce4bhu92rcd13ifvqi70","pricing_plan_id":"cebpf4jnsgd1na2vs0mg"},{"bike_id":"5518e5d7-0ebe-4ab1-8335-709b16b77f36","system_id":"levelo_inurba_marseille","lat":43.28367,"lon":5.38094,"is_reserved":false,"is_disabled":false,"rental_uris":{"android":"levelo://app?vid=5518e5d7-0ebe-4ab1-8335-709b16b77f36","ios":"levelo://app?vid=5518e5d7-0ebe-4ab1-8335-709b16b77f36"},"vehicle_type_id":"4","last_reported":1742518191,"current_range_meters":10800,"station_id":"ce4bh412rcd13ifvqdr0","pricing_plan_id":"cebpf4jnsgd1na2vs0mg"},{"bike_id":"20979594-235c-4805-803c-c9b788b6f70d","system_id":"levelo_inurba_marseille","lat":43.25757,"lon":5.41106,"is_reserved":false,"is_disabled":false,"rental_uris":{"android":"levelo://app?vid=20979594-235c-4805-803c-c9b788b6f70d","ios":"levelo://app?vid=20979594-235c-4805-803c-c9b788b6f70d"},"vehicle_type_id":"4","last_reported":1742518191,"current_range_meters":10800,"station_id":"ce4bhkp2rcd13ifvqgd0","pricing_plan_id":"cebpf4jnsgd1na2vs0mg"},{"bike_id":"5682795d-e829-4c2a-be82-5d5f7a227b99","system_id":"levelo_inurba_marseille","lat":43.31776,"lon":5.37345,"is_reserved":false,"is_disabled":false,"rental_uris":{"android":"levelo://app?vid=5682795d-e829-4c2a-be82-5d5f7a227b99","ios":"levelo://app?vid=5682795d-e829-4c2a-be82-5d5f7a227b99"},"vehicle_type_id":"4","last_reported":1742518191,"current_range_meters":10800,"station_id":"","pricing_plan_id":"cebpf4jnsgd1na2vs0mg"},{"bike_id":"2678929a-312d-4089-b116-1e816de7db90","system_id":"levelo_inurba_marseille","lat":43.32123,"lon":5.36761,"is_reserved":false,"is_disabled":false,"rental_uris":{"android":"levelo://app?vid=2678929a-312d-4089-b116-1e816de7db90","ios":"levelo://app?vid=2678929a-312d-4089-b116-1e816de7db90"},"vehicle_type_id":"4","last_reported":1742518191,"current_range_meters":10800,"station_id":"ce4bhrh2rcd13ifvqhug","pricing_plan_id":"cebpf4jnsgd1na2vs0mg"},{"bike_id":"4905b0cd-b8fd-4fc7-9a70-fbfb22ecc29d","system_id":"levelo_inurba_marseille","lat":43.29533,"lon":5.39038,"is_reserved":false,"is_disabled":true,"rental_uris":{"android":"levelo://app?vid=4905b0cd-b8fd-4fc7-9a70-fbfb22ecc29d","ios":"levelo://app?vid=4905b0cd-b8fd-4fc7-9a70-fbfb22ecc29d"},"vehicle_type_id":"4","last_reported":1742518191,"current_range_meters":10000,"station_id":"ce4bh3p2rcd13ifvqdp0","pricing_plan_id":"cebpf4jnsgd1na2vs0mg"},{"bike_id":"1295e912-beee-47fe-a5c8-2ae149d6d129","system_id":"levelo_inurba_marseille","lat":43.31733,"lon":5.37728,"is_reserved":false,"is_disabled":false,"rental_uris":{"android":"levelo://app?vid=1295e912-beee-47fe-a5c8-2ae149d6d129","ios":"levelo://app?vid=1295e912-beee-47fe-a5c8-2ae149d6d129"},"vehicle_type_id":"4","last_reported":1742518191,"current_range_meters":10800,"station_id":"ce4bgth2rcd13ifvqch0","pricing_plan_id":"cebpf4jnsgd1na2vs0mg"},{"bike_id":"24016567-79c9-417a-ad0a-921105cb0978","system_id":"levelo_inurba_marseille","lat":43.3235,"lon":5.3883,"is_reserved":false,"is_disabled":false,"rental_uris":{"android":"levelo://app?vid=24016567-79c9-417a-ad0a-921105cb0978","ios":"levelo://app?vid=24016567-79c9-417a-ad0a-921105cb0978"},"vehicle_type_id":"4","last_reported":1742518191,"current_range_meters":10800,"station_id":"ce4bhqp2rcd13ifvqhog","pricing_plan_id":"cebpf4jnsgd1na2vs0mg"},{"bike_id":"2b124485-3f63-417d-9cde-2aed42bc55d1","system_id":"levelo_inurba_marseille","lat":43.28109,"lon":5.3785,"is_reserved":false,"is_disabled":false,"rental_uris":{"android":"levelo://app?vid=2b124485-3f63-417d-9cde-2aed42bc55d1","ios":"levelo://app?vid=2b124485-3f63-417d-9cde-2aed42bc55d1"},"vehicle_type_id":"4","last_reported":1742518191,"current_range_meters":10800,"station_id":"ce4bha12rcd13ifvqee0","pricing_plan_id":"cebpf4jnsgd1na2vs0mg"},{"bike_id":"9d72b590-376e-48de-9f71-fb9c3868a5c2","system_id":"levelo_inurba_marseille","lat":43.28419,"lon":5.37513,"is_reserved":false,"is_disabled":false,"rental_uris":{"android":"levelo://app?vid=9d72b590-376e-48de-9f71-fb9c3868a5c2","ios":"levelo://app?vid=9d72b590-376e-48de-9f71-fb9c3868a5c2"},"vehicle_type_id":"4","last_reported":1742518191,"current_range_meters":10800,"station_id":"ce4bh412rcd13ifvqds0","pricing_plan_id":"cebpf4jnsgd1na2vs0mg"},{"bike_id":"0cf01fd1-5c97-4ea7-861c-a60b1158b5df","system_id":"levelo_inurba_marseille","lat":43.33027,"lon":5.39031,"is_reserved":false,"is_disabled":false,"rental_uris":{"android":"levelo://app?vid=0cf01fd1-5c97-4ea7-861c-a60b1158b5df","ios":"levelo://app?vid=0cf01fd1-5c97-4ea7-861c-a60b1158b5df"},"vehicle_type_id":"4","last_reported":1742518191,"current_range_meters":10800,"station_id":"ce4bhr92rcd13ifvqhrg","pricing_plan_id":"cebpf4jnsgd1na2vs0mg"},{"bike_id":"31ba5937-48f4-487d-85b0-bd6c0014621f","system_id":"levelo_inurba_marseille","lat":43.31487,"lon":5.37286,"is_reserved":false,"is_disabled":false,"rental_uris":{"android":"levelo://app?vid=31ba5937-48f4-487d-85b0-bd6c0014621f","ios":"levelo://app?vid=31ba5937-48f4-487d-85b0-bd6c0014621f"},"vehicle_type_id":"4","last_reported":1742518191,"current_range_meters":10800,"station_id":"ce4bgt12rcd13ifvqcd0","pricing_plan_id":"cebpf4jnsgd1na2vs0mg"},{"bike_id":"a8d47a5a-bf58-4929-9beb-dd9da329e579","system_id":"levelo_inurba_marseille","lat":43.3031,"lon":5.36898,"is_reserved":false,"is_disabled":false,"rental_uris":{"android":"levelo://app?vid=a8d47a5a-bf58-4929-9beb-dd9da329e579","ios":"levelo://app?vid=a8d47a5a-bf58-4929-9beb-dd9da329e579"},"vehicle_type_id":"4","last_reported":1742518191,"current_range_meters":11200,"station_id":"ce4bgqh2rcd13ifvqc5g","pricing_plan_id":"cebpf4jnsgd1na2vs0mg"},{"bike_id":"82ebedbb-ce2e-43e2-9f6a-790708582ba9","system_id":"levelo_inurba_marseille","lat":43.31283,"lon":5.40164,"is_reserved":false,"is_disabled":false,"rental_uris":{"android":"levelo://app?vid=82ebedbb-ce2e-43e2-9f6a-790708582ba9","ios":"levelo://app?vid=82ebedbb-ce2e-43e2-9f6a-790708582ba9"},"vehicle_type_id":"4","last_reported":1742518191,"current_range_meters":11200,"station_id":"ce4bh092rcd13ifvqd30","pricing_plan_id":"cebpf4jnsgd1na2vs0mg"},{"bike_id":"d3021cff-8dee-44d7-9f86-96360c848e13","system_id":"levelo_inurba_marseille","lat":43.28824,"lon":5.39322,"is_reserved":false,"is_disabled":false,"rental_uris":{"android":"levelo://app?vid=d3021cff-8dee-44d7-9f86-96360c848e13","ios":"levelo://app?vid=d3021cff-8dee-44d7-9f86-96360c848e13"},"vehicle_type_id":"4","last_reported":1742518191,"current_range_meters":11200,"station_id":"ce4bh2p2rcd13ifvqdi0","pricing_plan_id":"cebpf4jnsgd1na2vs0mg"},{"bike_id":"a8e54271-f43e-4238-be61-5a0d0f7d1259","system_id":"levelo_inurba_marseille","lat":43.24669,"lon":5.38154,"is_reserved":false,"is_disabled":false,"rental_uris":{"android":"levelo://app?vid=a8e54271-f43e-4238-be61-5a0d0f7d1259","ios":"levelo://app?vid=a8e54271-f43e-4238-be61-5a0d0f7d1259"},"vehicle_type_id":"4","last_reported":1742518191,"current_range_meters":11200,"station_id":"ce4bhih2rcd13ifvqfr0","pricing_plan_id":"cebpf4jnsgd1na2vs0mg"},{"bike_id":"5ef2432c-8b14-42cf-8e2a-1af923562f84","system_id":"levelo_inurba_marseille","lat":43.31475,"lon":5.37276,"is_reserved":false,"is_disabled":false,"rental_uris":{"android":"levelo://app?vid=5ef2432c-8b14-42cf-8e2a-1af923562f84","ios":"levelo://app?vid=5ef2432c-8b14-42cf-8e2a-1af923562f84"},"vehicle_type_id":"4","last_reported":1742518191,"current_range_meters":11200,"station_id":"ce4bgt12rcd13ifvqcd0","pricing_plan_id":"cebpf4jnsgd1na2vs0mg"},{"bike_id":"dd84fc2a-01c0-4565-8ca1-a73ea644bcb9","system_id":"levelo_inurba_marseille","lat":43.29804,"lon":5.40408,"is_reserved":false,"is_disabled":false,"rental_uris":{"android":"levelo://app?vid=dd84fc2a-01c0-4565-8ca1-a73ea644bcb9","ios":"levelo://app?vid=dd84fc2a-01c0-4565-8ca1-a73ea644bcb9"},"vehicle_type_id":"4","last_reported":1742518191,"current_range_meters":11200,"station_id":"ce4bh112rcd13ifvqd90","pricing_plan_id":"cebpf4jnsgd1na2vs0mg"},{"bike_id":"86859bc8-cdf3-4c55-a231-e1ff87943727","system_id":"levelo_inurba_marseille","lat":43.31508,"lon":5.37286,"is_reserved":false,"is_disabled":false,"rental_uris":{"android":"levelo://app?vid=86859bc8-cdf3-4c55-a231-e1ff87943727","ios":"levelo://app?vid=86859bc8-cdf3-4c55-a231-e1ff87943727"},"vehicle_type_id":"4","last_reported":1742518191,"current_range_meters":11600,"station_id":"ce4bgt12rcd13ifvqcd0","pricing_plan_id":"cebpf4jnsgd1na2vs0mg"},{"bike_id":"f2387910-c486-4275-a7ab-dbeb87afdc12","system_id":"levelo_inurba_marseille","lat":43.33732,"lon":5.39177,"is_reserved":false,"is_disabled":false,"rental_uris":{"android":"levelo://app?vid=f2387910-c486-4275-a7ab-dbeb87afdc12","ios":"levelo://app?vid=f2387910-c486-4275-a7ab-dbeb87afdc12"},"vehicle_type_id":"4","last_reported":1742518191,"current_range_meters":11600,"station_id":"ce4bhr92rcd13ifvqhsg","pricing_plan_id":"cebpf4jnsgd1na2vs0mg"},{"bike_id":"d6f1de65-3560-4255-b64d-759f35578285","system_id":"levelo_inurba_marseille","lat":43.31511,"lon":5.37297,"is_reserved":false,"is_disabled":false,"rental_uris":{"android":"levelo://app?vid=d6f1de65-3560-4255-b64d-759f35578285","ios":"levelo://app?vid=d6f1de65-3560-4255-b64d-759f35578285"},"vehicle_type_id":"4","last_reported":1742518191,"current_range_meters":11600,"station_id":"ce4bgt12rcd13ifvqcd0","pricing_plan_id":"cebpf4jnsgd1na2vs0mg"},{"bike_id":"90ed294f-924d-4f4d-b687-f15c2e696ec8","system_id":"levelo_inurba_marseille","lat":43.28531,"lon":5.35847,"is_reserved":false,"is_disabled":false,"rental_uris":{"android":"levelo://app?vid=90ed294f-924d-4f4d-b687-f15c2e696ec8","ios":"levelo://app?vid=90ed294f-924d-4f4d-b687-f15c2e696ec8"},"vehicle_type_id":"4","last_reported":1742518191,"current_range_meters":11600,"station_id":"","pricing_plan_id":"cebpf4jnsgd1na2vs0mg"},{"bike_id":"a67c54b6-5ce9-4632-8070-5ca7d5b7fc9e","system_id":"levelo_inurba_marseille","lat":43.230615,"lon":5.354954,"is_reserved":false,"is_disabled":false,"rental_uris":{"android":"levelo://app?vid=a67c54b6-5ce9-4632-8070-5ca7d5b7fc9e","ios":"levelo://app?vid=a67c54b6-5ce9-4632-8070-5ca7d5b7fc9e"},"vehicle_type_id":"4","last_reported":1742518191,"current_range_meters":11600,"station_id":"cpo3342slgdg3j2ifvpg","pricing_plan_id":"cebpf4jnsgd1na2vs0mg"},{"bike_id":"047e5970-8daa-41b8-aeee-f3b49ecc2693","system_id":"levelo_inurba_marseille","lat":43.28466,"lon":5.3589,"is_reserved":false,"is_disabled":false,"rental_uris":{"android":"levelo://app?vid=047e5970-8daa-41b8-aeee-f3b49ecc2693","ios":"levelo://app?vid=047e5970-8daa-41b8-aeee-f3b49ecc2693"},"vehicle_type_id":"4","last_reported":1742518191,"current_range_meters":11600,"station_id":"ce4bhah2rcd13ifvqei0","pricing_plan_id":"cebpf4jnsgd1na2vs0mg"},{"bike_id":"95866105-684d-4b83-8c78-cdebf601f93f","system_id":"levelo_inurba_marseille","lat":43.28353,"lon":5.3862,"is_reserved":false,"is_disabled":false,"rental_uris":{"android":"levelo://app?vid=95866105-684d-4b83-8c78-cdebf601f93f","ios":"levelo://app?vid=95866105-684d-4b83-8c78-cdebf601f93f"},"vehicle_type_id":"4","last_reported":1742518191,"current_range_meters":11600,"station_id":"ce4bh492rcd13ifvqdvg","pricing_plan_id":"cebpf4jnsgd1na2vs0mg"},{"bike_id":"e7099a91-f011-4f51-8f8e-c8f0d1018eb5","system_id":"levelo_inurba_marseille","lat":43.231881,"lon":5.399745,"is_reserved":false,"is_disabled":false,"rental_uris":{"android":"levelo://app?vid=e7099a91-f011-4f51-8f8e-c8f0d1018eb5","ios":"levelo://app?vid=e7099a91-f011-4f51-8f8e-c8f0d1018eb5"},"vehicle_type_id":"4","last_reported":1742518191,"current_range_meters":11600,"station_id":"ce4bhn12rcd13ifvqgqg","pricing_plan_id":"cebpf4jnsgd1na2vs0mg"},{"bike_id":"40aa8f79-ba64-40db-bbbb-3ffba64f55e6","system_id":"levelo_inurba_marseille","lat":43.28651,"lon":5.36364,"is_reserved":false,"is_disabled":false,"rental_uris":{"android":"levelo://app?vid=40aa8f79-ba64-40db-bbbb-3ffba64f55e6","ios":"levelo://app?vid=40aa8f79-ba64-40db-bbbb-3ffba64f55e6"},"vehicle_type_id":"4","last_reported":1742518191,"current_range_meters":12000,"station_id":"ce4bhah2rcd13ifvqej0","pricing_plan_id":"cebpf4jnsgd1na2vs0mg"},{"bike_id":"7fd1e3dc-0df6-4f83-bf4e-cbe440e7cb82","system_id":"levelo_inurba_marseille","lat":43.27968,"lon":5.38744,"is_reserved":false,"is_disabled":false,"rental_uris":{"android":"levelo://app?vid=7fd1e3dc-0df6-4f83-bf4e-cbe440e7cb82","ios":"levelo://app?vid=7fd1e3dc-0df6-4f83-bf4e-cbe440e7cb82"},"vehicle_type_id":"4","last_reported":1742518191,"current_range_meters":12000,"station_id":"ce4bhg12rcd13ifvqf80","pricing_plan_id":"cebpf4jnsgd1na2vs0mg"},{"bike_id":"b3719746-c60a-4842-88f3-18ffa13da340","system_id":"levelo_inurba_marseille","lat":43.27839,"lon":5.39216,"is_reserved":false,"is_disabled":false,"rental_uris":{"android":"levelo://app?vid=b3719746-c60a-4842-88f3-18ffa13da340","ios":"levelo://app?vid=b3719746-c60a-4842-88f3-18ffa13da340"},"vehicle_type_id":"4","last_reported":1742518191,"current_range_meters":12000,"station_id":"ce4bhjp2rcd13ifvqga0","pricing_plan_id":"cebpf4jnsgd1na2vs0mg"},{"bike_id":"a7d1fed2-a2b7-46b6-a222-05f6a28ff6b6","system_id":"levelo_inurba_marseille","lat":43.31169,"lon":5.38714,"is_reserved":false,"is_disabled":false,"rental_uris":{"android":"levelo://app?vid=a7d1fed2-a2b7-46b6-a222-05f6a28ff6b6","ios":"levelo://app?vid=a7d1fed2-a2b7-46b6-a222-05f6a28ff6b6"},"vehicle_type_id":"4","last_reported":1742518191,"current_range_meters":12000,"station_id":"ce4bgv12rcd13ifvqcp0","pricing_plan_id":"cebpf4jnsgd1na2vs0mg"},{"bike_id":"bf5d7bdb-65a8-4310-b955-6a76e2cbd7fe","system_id":"levelo_inurba_marseille","lat":43.3373,"lon":5.39185,"is_reserved":false,"is_disabled":false,"rental_uris":{"android":"levelo://app?vid=bf5d7bdb-65a8-4310-b955-6a76e2cbd7fe","ios":"levelo://app?vid=bf5d7bdb-65a8-4310-b955-6a76e2cbd7fe"},"vehicle_type_id":"4","last_reported":1742518191,"current_range_meters":12000,"station_id":"ce4bhr92rcd13ifvqhsg","pricing_plan_id":"cebpf4jnsgd1na2vs0mg"},{"bike_id":"6c45e6f5-2aee-4298-90f3-a0fdc7724ae1","system_id":"levelo_inurba_marseille","lat":43.291848,"lon":5.357912,"is_reserved":false,"is_disabled":false,"rental_uris":{"android":"levelo://app?vid=6c45e6f5-2aee-4298-90f3-a0fdc7724ae1","ios":"levelo://app?vid=6c45e6f5-2aee-4298-90f3-a0fdc7724ae1"},"vehicle_type_id":"4","last_reported":1742518191,"current_range_meters":12400,"station_id":"ce4bhb12rcd13ifvqel0","pricing_plan_id":"cebpf4jnsgd1na2vs0mg"},{"bike_id":"adf1442b-34a0-4885-b3ba-d26a7beec424","system_id":"levelo_inurba_marseille","lat":43.25083,"lon":5.39523,"is_reserved":false,"is_disabled":false,"rental_uris":{"android":"levelo://app?vid=adf1442b-34a0-4885-b3ba-d26a7beec424","ios":"levelo://app?vid=adf1442b-34a0-4885-b3ba-d26a7beec424"},"vehicle_type_id":"4","last_reported":1742518191,"current_range_meters":12000,"station_id":"ce4bhm12rcd13ifvqgkg","pricing_plan_id":"cebpf4jnsgd1na2vs0mg"},{"bike_id":"113c2e5b-a4c5-455d-b70e-27c73f073a22","system_id":"levelo_inurba_marseille","lat":43.28839,"lon":5.35852,"is_reserved":false,"is_disabled":false,"rental_uris":{"android":"levelo://app?vid=113c2e5b-a4c5-455d-b70e-27c73f073a22","ios":"levelo://app?vid=113c2e5b-a4c5-455d-b70e-27c73f073a22"},"vehicle_type_id":"4","last_reported":1742518191,"current_range_meters":12000,"station_id":"ce4bhb12rcd13ifvqem0","pricing_plan_id":"cebpf4jnsgd1na2vs0mg"},{"bike_id":"94ea12e2-4f7a-41b1-9bbe-5736f367cd97","system_id":"levelo_inurba_marseille","lat":43.28002,"lon":5.39991,"is_reserved":false,"is_disabled":false,"rental_uris":{"android":"levelo://app?vid=94ea12e2-4f7a-41b1-9bbe-5736f367cd97","ios":"levelo://app?vid=94ea12e2-4f7a-41b1-9bbe-5736f367cd97"},"vehicle_type_id":"4","last_reported":1742518191,"current_range_meters":12000,"station_id":"ce4bho92rcd13ifvqh4g","pricing_plan_id":"cebpf4jnsgd1na2vs0mg"},{"bike_id":"ff066277-3122-404f-8fc9-18b331abea9b","system_id":"levelo_inurba_marseille","lat":43.23197,"lon":5.39977,"is_reserved":false,"is_disabled":false,"rental_uris":{"android":"levelo://app?vid=ff066277-3122-404f-8fc9-18b331abea9b","ios":"levelo://app?vid=ff066277-3122-404f-8fc9-18b331abea9b"},"vehicle_type_id":"4","last_reported":1742518191,"current_range_meters":12000,"station_id":"ce4bhn12rcd13ifvqgqg","pricing_plan_id":"cebpf4jnsgd1na2vs0mg"},{"bike_id":"64f3f160-3d41-4047-a7c4-5d9924ce80c7","system_id":"levelo_inurba_marseille","lat":43.25835,"lon":5.3944,"is_reserved":false,"is_disabled":false,"rental_uris":{"android":"levelo://app?vid=64f3f160-3d41-4047-a7c4-5d9924ce80c7","ios":"levelo://app?vid=64f3f160-3d41-4047-a7c4-5d9924ce80c7"},"vehicle_type_id":"4","last_reported":1742518191,"current_range_meters":12000,"station_id":"ce4bhip2rcd13ifvqft0","pricing_plan_id":"cebpf4jnsgd1na2vs0mg"},{"bike_id":"d4d3aa33-7f82-4c5f-a6a1-2c645da45f2a","system_id":"levelo_inurba_marseille","lat":43.29257,"lon":5.40907,"is_reserved":false,"is_disabled":false,"rental_uris":{"android":"levelo://app?vid=d4d3aa33-7f82-4c5f-a6a1-2c645da45f2a","ios":"levelo://app?vid=d4d3aa33-7f82-4c5f-a6a1-2c645da45f2a"},"vehicle_type_id":"4","last_reported":1742518191,"current_range_meters":12000,"station_id":"ce4bh192rcd13ifvqdc0","pricing_plan_id":"cebpf4jnsgd1na2vs0mg"},{"bike_id":"d5d5146a-0002-434a-b4cd-be721e53eae4","system_id":"levelo_inurba_marseille","lat":43.28462,"lon":5.35904,"is_reserved":false,"is_disabled":false,"rental_uris":{"android":"levelo://app?vid=d5d5146a-0002-434a-b4cd-be721e53eae4","ios":"levelo://app?vid=d5d5146a-0002-434a-b4cd-be721e53eae4"},"vehicle_type_id":"4","last_reported":1742518191,"current_range_meters":12400,"station_id":"ce4bhah2rcd13ifvqei0","pricing_plan_id":"cebpf4jnsgd1na2vs0mg"},{"bike_id":"899ab87e-4ea4-40e5-9304-e09f83aad3d0","system_id":"levelo_inurba_marseille","lat":43.23966,"lon":5.36636,"is_reserved":false,"is_disabled":false,"rental_uris":{"android":"levelo://app?vid=899ab87e-4ea4-40e5-9304-e09f83aad3d0","ios":"levelo://app?vid=899ab87e-4ea4-40e5-9304-e09f83aad3d0"},"vehicle_type_id":"4","last_reported":1742518191,"current_range_meters":12400,"station_id":"ce4bhi12rcd13ifvqfp0","pricing_plan_id":"cebpf4jnsgd1na2vs0mg"},{"bike_id":"d823a09d-2376-4c0c-8b7a-86aae74a5110","system_id":"levelo_inurba_marseille","lat":43.30321,"lon":5.40441,"is_reserved":false,"is_disabled":false,"rental_uris":{"android":"levelo://app?vid=d823a09d-2376-4c0c-8b7a-86aae74a5110","ios":"levelo://app?vid=d823a09d-2376-4c0c-8b7a-86aae74a5110"},"vehicle_type_id":"4","last_reported":1742518191,"current_range_meters":12400,"station_id":"ce4bh012rcd13ifvqd10","pricing_plan_id":"cebpf4jnsgd1na2vs0mg"},{"bike_id":"a7fe0957-19c5-4692-9769-cafab82db1eb","system_id":"levelo_inurba_marseille","lat":43.28938,"lon":5.36425,"is_reserved":false,"is_disabled":false,"rental_uris":{"android":"levelo://app?vid=a7fe0957-19c5-4692-9769-cafab82db1eb","ios":"levelo://app?vid=a7fe0957-19c5-4692-9769-cafab82db1eb"},"vehicle_type_id":"4","last_reported":1742518191,"current_range_meters":12400,"station_id":"ce4bhc92rcd13ifvqetg","pricing_plan_id":"cebpf4jnsgd1na2vs0mg"},{"bike_id":"aba7a31c-d1db-4bb4-ba56-e84838fed699","system_id":"levelo_inurba_marseille","lat":43.24645,"lon":5.38894,"is_reserved":false,"is_disabled":false,"rental_uris":{"android":"levelo://app?vid=aba7a31c-d1db-4bb4-ba56-e84838fed699","ios":"levelo://app?vid=aba7a31c-d1db-4bb4-ba56-e84838fed699"},"vehicle_type_id":"4","last_reported":1742518191,"current_range_meters":12400,"station_id":"ce4bhg12rcd13ifvqf60","pricing_plan_id":"cebpf4jnsgd1na2vs0mg"},{"bike_id":"d0fce87c-f911-4fc3-838a-cda694ba39f8","system_id":"levelo_inurba_marseille","lat":43.28709,"lon":5.37952,"is_reserved":false,"is_disabled":false,"rental_uris":{"android":"levelo://app?vid=d0fce87c-f911-4fc3-838a-cda694ba39f8","ios":"levelo://app?vid=d0fce87c-f911-4fc3-838a-cda694ba39f8"},"vehicle_type_id":"4","last_reported":1742518191,"current_range_meters":12000,"station_id":"ce4bh9p2rcd13ifvqec0","pricing_plan_id":"cebpf4jnsgd1na2vs0mg"},{"bike_id":"f375177e-ffdf-49e7-9936-875cfccf7b84","system_id":"levelo_inurba_marseille","lat":43.299925,"lon":5.384901,"is_reserved":false,"is_disabled":false,"rental_uris":{"android":"levelo://app?vid=f375177e-ffdf-49e7-9936-875cfccf7b84","ios":"levelo://app?vid=f375177e-ffdf-49e7-9936-875cfccf7b84"},"vehicle_type_id":"4","last_reported":1742518191,"current_range_meters":12400,"station_id":"ce4bgn12rcd13ifvqbt0","pricing_plan_id":"cebpf4jnsgd1na2vs0mg"},{"bike_id":"563086a8-8515-4d07-a2d8-6c7fc246f529","system_id":"levelo_inurba_marseille","lat":43.25826,"lon":5.39431,"is_reserved":false,"is_disabled":false,"rental_uris":{"android":"levelo://app?vid=563086a8-8515-4d07-a2d8-6c7fc246f529","ios":"levelo://app?vid=563086a8-8515-4d07-a2d8-6c7fc246f529"},"vehicle_type_id":"4","last_reported":1742518191,"current_range_meters":12800,"station_id":"ce4bhip2rcd13ifvqft0","pricing_plan_id":"cebpf4jnsgd1na2vs0mg"},{"bike_id":"a81e7547-55d7-4c1c-a724-2c96fce552a8","system_id":"levelo_inurba_marseille","lat":43.23965,"lon":5.36652,"is_reserved":false,"is_disabled":false,"rental_uris":{"android":"levelo://app?vid=a81e7547-55d7-4c1c-a724-2c96fce552a8","ios":"levelo://app?vid=a81e7547-55d7-4c1c-a724-2c96fce552a8"},"vehicle_type_id":"4","last_reported":1742518191,"current_range_meters":12800,"station_id":"ce4bhi12rcd13ifvqfp0","pricing_plan_id":"cebpf4jnsgd1na2vs0mg"},{"bike_id":"6ec0efc1-5f88-49e6-9c78-862906a0bef5","system_id":"levelo_inurba_marseille","lat":43.31321,"lon":5.39688,"is_reserved":false,"is_disabled":false,"rental_uris":{"android":"levelo://app?vid=6ec0efc1-5f88-49e6-9c78-862906a0bef5","ios":"levelo://app?vid=6ec0efc1-5f88-49e6-9c78-862906a0bef5"},"vehicle_type_id":"4","last_reported":1742518191,"current_range_meters":12800,"station_id":"ce4bgvp2rcd13ifvqcu0","pricing_plan_id":"cebpf4jnsgd1na2vs0mg"},{"bike_id":"221e68a9-b204-451b-9d74-0d702810d520","system_id":"levelo_inurba_marseille","lat":43.28423,"lon":5.37509,"is_reserved":false,"is_disabled":false,"rental_uris":{"android":"levelo://app?vid=221e68a9-b204-451b-9d74-0d702810d520","ios":"levelo://app?vid=221e68a9-b204-451b-9d74-0d702810d520"},"vehicle_type_id":"4","last_reported":1742518191,"current_range_meters":13600,"station_id":"ce4bh412rcd13ifvqds0","pricing_plan_id":"cebpf4jnsgd1na2vs0mg"},{"bike_id":"acedcbad-f439-4ac2-b583-efb5f44eba1d","system_id":"levelo_inurba_marseille","lat":43.29405,"lon":5.38605,"is_reserved":false,"is_disabled":true,"rental_uris":{"android":"levelo://app?vid=acedcbad-f439-4ac2-b583-efb5f44eba1d","ios":"levelo://app?vid=acedcbad-f439-4ac2-b583-efb5f44eba1d"},"vehicle_type_id":"4","last_reported":1742518191,"current_range_meters":12800,"station_id":"ce4bh2h2rcd13ifvqdh0","pricing_plan_id":"cebpf4jnsgd1na2vs0mg"},{"bike_id":"9b513519-6571-4512-9426-8178711eafb7","system_id":"levelo_inurba_marseille","lat":43.29446,"lon":5.39754,"is_reserved":false,"is_disabled":true,"rental_uris":{"android":"levelo://app?vid=9b513519-6571-4512-9426-8178711eafb7","ios":"levelo://app?vid=9b513519-6571-4512-9426-8178711eafb7"},"vehicle_type_id":"4","last_reported":1742518191,"current_range_meters":12800,"station_id":"ce4bh3h2rcd13ifvqdo0","pricing_plan_id":"cebpf4jnsgd1na2vs0mg"},{"bike_id":"91658b4e-7c07-4459-996c-9c49d6dc4821","system_id":"levelo_inurba_marseille","lat":43.307842,"lon":5.376474,"is_reserved":false,"is_disabled":false,"rental_uris":{"android":"levelo://app?vid=91658b4e-7c07-4459-996c-9c49d6dc4821","ios":"levelo://app?vid=91658b4e-7c07-4459-996c-9c49d6dc4821"},"vehicle_type_id":"4","last_reported":1742518191,"current_range_meters":13600,"station_id":"ce4bgv92rcd13ifvqcq0","pricing_plan_id":"cebpf4jnsgd1na2vs0mg"},{"bike_id":"93fe469e-26f6-4fd7-960c-a5d230581527","system_id":"levelo_inurba_marseille","lat":43.28671,"lon":5.38957,"is_reserved":false,"is_disabled":false,"rental_uris":{"android":"levelo://app?vid=93fe469e-26f6-4fd7-960c-a5d230581527","ios":"levelo://app?vid=93fe469e-26f6-4fd7-960c-a5d230581527"},"vehicle_type_id":"4","last_reported":1742518191,"current_range_meters":13600,"station_id":"","pricing_plan_id":"cebpf4jnsgd1na2vs0mg"},{"bike_id":"611cf6a7-c612-4e85-9234-539bfc7b6df7","system_id":"levelo_inurba_marseille","lat":43.34207,"lon":5.40842,"is_reserved":false,"is_disabled":false,"rental_uris":{"android":"levelo://app?vid=611cf6a7-c612-4e85-9234-539bfc7b6df7","ios":"levelo://app?vid=611cf6a7-c612-4e85-9234-539bfc7b6df7"},"vehicle_type_id":"4","last_reported":1742518191,"current_range_meters":13600,"station_id":"ce4bhqh2rcd13ifvqhlg","pricing_plan_id":"cebpf4jnsgd1na2vs0mg"},{"bike_id":"33fadee7-e737-4c01-91f1-ec59744bcc27","system_id":"levelo_inurba_marseille","lat":43.3032,"lon":5.36894,"is_reserved":false,"is_disabled":false,"rental_uris":{"android":"levelo://app?vid=33fadee7-e737-4c01-91f1-ec59744bcc27","ios":"levelo://app?vid=33fadee7-e737-4c01-91f1-ec59744bcc27"},"vehicle_type_id":"4","last_reported":1742518191,"current_range_meters":13600,"station_id":"ce4bgqh2rcd13ifvqc5g","pricing_plan_id":"cebpf4jnsgd1na2vs0mg"},{"bike_id":"70546797-1d75-4a7f-82b9-c05161c15bb4","system_id":"levelo_inurba_marseille","lat":43.33036,"lon":5.39016,"is_reserved":false,"is_disabled":false,"rental_uris":{"android":"levelo://app?vid=70546797-1d75-4a7f-82b9-c05161c15bb4","ios":"levelo://app?vid=70546797-1d75-4a7f-82b9-c05161c15bb4"},"vehicle_type_id":"4","last_reported":1742518191,"current_range_meters":13600,"station_id":"ce4bhr92rcd13ifvqhrg","pricing_plan_id":"cebpf4jnsgd1na2vs0mg"},{"bike_id":"addc9e43-cb17-41f3-a0d8-a264d0dc9a57","system_id":"levelo_inurba_marseille","lat":43.348628,"lon":5.381139,"is_reserved":false,"is_disabled":false,"rental_uris":{"android":"levelo://app?vid=addc9e43-cb17-41f3-a0d8-a264d0dc9a57","ios":"levelo://app?vid=addc9e43-cb17-41f3-a0d8-a264d0dc9a57"},"vehicle_type_id":"4","last_reported":1742518191,"current_range_meters":13600,"station_id":"","pricing_plan_id":"cebpf4jnsgd1na2vs0mg"},{"bike_id":"127f04cb-152d-4157-a29d-035e26177aec","system_id":"levelo_inurba_marseille","lat":43.2857,"lon":5.39497,"is_reserved":false,"is_disabled":false,"rental_uris":{"android":"levelo://app?vid=127f04cb-152d-4157-a29d-035e26177aec","ios":"levelo://app?vid=127f04cb-152d-4157-a29d-035e26177aec"},"vehicle_type_id":"4","last_reported":1742518191,"current_range_meters":14000,"station_id":"ce4bh292rcd13ifvqdg0","pricing_plan_id":"cebpf4jnsgd1na2vs0mg"},{"bike_id":"5b034f6c-b781-4614-b284-b1b81a5bd187","system_id":"levelo_inurba_marseille","lat":43.3117,"lon":5.38726,"is_reserved":false,"is_disabled":false,"rental_uris":{"android":"levelo://app?vid=5b034f6c-b781-4614-b284-b1b81a5bd187","ios":"levelo://app?vid=5b034f6c-b781-4614-b284-b1b81a5bd187"},"vehicle_type_id":"4","last_reported":1742518191,"current_range_meters":14000,"station_id":"ce4bgv12rcd13ifvqcp0","pricing_plan_id":"cebpf4jnsgd1na2vs0mg"},{"bike_id":"f4533999-a426-48de-99cd-0bd7fa053307","system_id":"levelo_inurba_marseille","lat":43.27562,"lon":5.43691,"is_reserved":false,"is_disabled":false,"rental_uris":{"android":"levelo://app?vid=f4533999-a426-48de-99cd-0bd7fa053307","ios":"levelo://app?vid=f4533999-a426-48de-99cd-0bd7fa053307"},"vehicle_type_id":"4","last_reported":1742518191,"current_range_meters":14000,"station_id":"","pricing_plan_id":"cebpf4jnsgd1na2vs0mg"},{"bike_id":"c617f108-be7f-41dd-bd8f-5be1cee4eec2","system_id":"levelo_inurba_marseille","lat":43.27431,"lon":5.39399,"is_reserved":false,"is_disabled":false,"rental_uris":{"android":"levelo://app?vid=c617f108-be7f-41dd-bd8f-5be1cee4eec2","ios":"levelo://app?vid=c617f108-be7f-41dd-bd8f-5be1cee4eec2"},"vehicle_type_id":"4","last_reported":1742518191,"current_range_meters":14000,"station_id":"ce4bhdp2rcd13ifvqf20","pricing_plan_id":"cebpf4jnsgd1na2vs0mg"},{"bike_id":"19d0260e-5f0a-46fb-87eb-7f40b327daa1","system_id":"levelo_inurba_marseille","lat":43.33138,"lon":5.3818,"is_reserved":false,"is_disabled":false,"rental_uris":{"android":"levelo://app?vid=19d0260e-5f0a-46fb-87eb-7f40b327daa1","ios":"levelo://app?vid=19d0260e-5f0a-46fb-87eb-7f40b327daa1"},"vehicle_type_id":"4","last_reported":1742518191,"current_range_meters":14000,"station_id":"","pricing_plan_id":"cebpf4jnsgd1na2vs0mg"},{"bike_id":"e57089a9-c8f5-49e8-bad5-a721325b22ed","system_id":"levelo_inurba_marseille","lat":43.31124,"lon":5.37754,"is_reserved":false,"is_disabled":false,"rental_uris":{"android":"levelo://app?vid=e57089a9-c8f5-49e8-bad5-a721325b22ed","ios":"levelo://app?vid=e57089a9-c8f5-49e8-bad5-a721325b22ed"},"vehicle_type_id":"4","last_reported":1742518191,"current_range_meters":14000,"station_id":"ce4bgt92rcd13ifvqcg0","pricing_plan_id":"cebpf4jnsgd1na2vs0mg"},{"bike_id":"9df6cb62-1a6b-4d50-9c45-4ff3ab527b56","system_id":"levelo_inurba_marseille","lat":43.29777,"lon":5.38743,"is_reserved":false,"is_disabled":false,"rental_uris":{"android":"levelo://app?vid=9df6cb62-1a6b-4d50-9c45-4ff3ab527b56","ios":"levelo://app?vid=9df6cb62-1a6b-4d50-9c45-4ff3ab527b56"},"vehicle_type_id":"4","last_reported":1742518191,"current_range_meters":14000,"station_id":"","pricing_plan_id":"cebpf4jnsgd1na2vs0mg"},{"bike_id":"53e438fa-dedb-4d74-83bd-4285ba9df014","system_id":"levelo_inurba_marseille","lat":43.26019,"lon":5.41764,"is_reserved":false,"is_disabled":false,"rental_uris":{"android":"levelo://app?vid=53e438fa-dedb-4d74-83bd-4285ba9df014","ios":"levelo://app?vid=53e438fa-dedb-4d74-83bd-4285ba9df014"},"vehicle_type_id":"4","last_reported":1742518191,"current_range_meters":14000,"station_id":"","pricing_plan_id":"cebpf4jnsgd1na2vs0mg"},{"bike_id":"e62dac40-44c1-4bd0-960d-9e1c5df60e4a","system_id":"levelo_inurba_marseille","lat":43.30323,"lon":5.36911,"is_reserved":false,"is_disabled":false,"rental_uris":{"android":"levelo://app?vid=e62dac40-44c1-4bd0-960d-9e1c5df60e4a","ios":"levelo://app?vid=e62dac40-44c1-4bd0-960d-9e1c5df60e4a"},"vehicle_type_id":"4","last_reported":1742518191,"current_range_meters":14000,"station_id":"ce4bgqh2rcd13ifvqc5g","pricing_plan_id":"cebpf4jnsgd1na2vs0mg"},{"bike_id":"a06df953-ee24-4eee-acd9-cfb685fc1c62","system_id":"levelo_inurba_marseille","lat":43.31425,"lon":5.37432,"is_reserved":false,"is_disabled":false,"rental_uris":{"android":"levelo://app?vid=a06df953-ee24-4eee-acd9-cfb685fc1c62","ios":"levelo://app?vid=a06df953-ee24-4eee-acd9-cfb685fc1c62"},"vehicle_type_id":"4","last_reported":1742518191,"current_range_meters":14400,"station_id":"","pricing_plan_id":"cebpf4jnsgd1na2vs0mg"},{"bike_id":"2df6c0ed-bfba-42cf-a135-b9f1ce9c539c","system_id":"levelo_inurba_marseille","lat":43.2857,"lon":5.39471,"is_reserved":false,"is_disabled":false,"rental_uris":{"android":"levelo://app?vid=2df6c0ed-bfba-42cf-a135-b9f1ce9c539c","ios":"levelo://app?vid=2df6c0ed-bfba-42cf-a135-b9f1ce9c539c"},"vehicle_type_id":"4","last_reported":1742518191,"current_range_meters":14400,"station_id":"ce4bh292rcd13ifvqdg0","pricing_plan_id":"cebpf4jnsgd1na2vs0mg"},{"bike_id":"9f1c3e5c-869d-4869-b7c6-0c926f2da6bf","system_id":"levelo_inurba_marseille","lat":43.28371,"lon":5.39794,"is_reserved":false,"is_disabled":false,"rental_uris":{"android":"levelo://app?vid=9f1c3e5c-869d-4869-b7c6-0c926f2da6bf","ios":"levelo://app?vid=9f1c3e5c-869d-4869-b7c6-0c926f2da6bf"},"vehicle_type_id":"4","last_reported":1742518191,"current_range_meters":14400,"station_id":"","pricing_plan_id":"cebpf4jnsgd1na2vs0mg"},{"bike_id":"0e559a38-2ed2-4443-96b4-ffe9db3474fa","system_id":"levelo_inurba_marseille","lat":43.28411,"lon":5.37514,"is_reserved":false,"is_disabled":false,"rental_uris":{"android":"levelo://app?vid=0e559a38-2ed2-4443-96b4-ffe9db3474fa","ios":"levelo://app?vid=0e559a38-2ed2-4443-96b4-ffe9db3474fa"},"vehicle_type_id":"4","last_reported":1742518191,"current_range_meters":14400,"station_id":"ce4bh412rcd13ifvqds0","pricing_plan_id":"cebpf4jnsgd1na2vs0mg"},{"bike_id":"9c230dd7-a0aa-4ee3-9458-c9beead990ea","system_id":"levelo_inurba_marseille","lat":43.28418,"lon":5.37511,"is_reserved":false,"is_disabled":false,"rental_uris":{"android":"levelo://app?vid=9c230dd7-a0aa-4ee3-9458-c9beead990ea","ios":"levelo://app?vid=9c230dd7-a0aa-4ee3-9458-c9beead990ea"},"vehicle_type_id":"4","last_reported":1742518191,"current_range_meters":14400,"station_id":"ce4bh412rcd13ifvqds0","pricing_plan_id":"cebpf4jnsgd1na2vs0mg"},{"bike_id":"4a9c055f-37b6-49f8-bcde-d439a37ef127","system_id":"levelo_inurba_marseille","lat":43.309494,"lon":5.390269,"is_reserved":false,"is_disabled":false,"rental_uris":{"android":"levelo://app?vid=4a9c055f-37b6-49f8-bcde-d439a37ef127","ios":"levelo://app?vid=4a9c055f-37b6-49f8-bcde-d439a37ef127"},"vehicle_type_id":"4","last_reported":1742518191,"current_range_meters":14400,"station_id":"ce4bgup2rcd13ifvqco0","pricing_plan_id":"cebpf4jnsgd1na2vs0mg"},{"bike_id":"9d2ff536-e19a-4caa-b96e-52ad76a59ec0","system_id":"levelo_inurba_marseille","lat":43.31177,"lon":5.38722,"is_reserved":false,"is_disabled":false,"rental_uris":{"android":"levelo://app?vid=9d2ff536-e19a-4caa-b96e-52ad76a59ec0","ios":"levelo://app?vid=9d2ff536-e19a-4caa-b96e-52ad76a59ec0"},"vehicle_type_id":"4","last_reported":1742518191,"current_range_meters":14400,"station_id":"ce4bgv12rcd13ifvqcp0","pricing_plan_id":"cebpf4jnsgd1na2vs0mg"},{"bike_id":"52c16ac5-3447-4053-956c-78fc8bf0dc7c","system_id":"levelo_inurba_marseille","lat":43.32378,"lon":5.36776,"is_reserved":false,"is_disabled":false,"rental_uris":{"android":"levelo://app?vid=52c16ac5-3447-4053-956c-78fc8bf0dc7c","ios":"levelo://app?vid=52c16ac5-3447-4053-956c-78fc8bf0dc7c"},"vehicle_type_id":"4","last_reported":1742518191,"current_range_meters":14800,"station_id":"ce4bhsh2rcd13ifvqi2g","pricing_plan_id":"cebpf4jnsgd1na2vs0mg"},{"bike_id":"efe37adc-d48c-4f29-9feb-64ec320e7884","system_id":"levelo_inurba_marseille","lat":43.2783,"lon":5.39221,"is_reserved":false,"is_disabled":false,"rental_uris":{"android":"levelo://app?vid=efe37adc-d48c-4f29-9feb-64ec320e7884","ios":"levelo://app?vid=efe37adc-d48c-4f29-9feb-64ec320e7884"},"vehicle_type_id":"4","last_reported":1742518191,"current_range_meters":14800,"station_id":"ce4bhjp2rcd13ifvqga0","pricing_plan_id":"cebpf4jnsgd1na2vs0mg"},{"bike_id":"fbbb3028-b15b-4750-98dc-ac90972ecc9b","system_id":"levelo_inurba_marseille","lat":43.321162,"lon":5.36776,"is_reserved":false,"is_disabled":false,"rental_uris":{"android":"levelo://app?vid=fbbb3028-b15b-4750-98dc-ac90972ecc9b","ios":"levelo://app?vid=fbbb3028-b15b-4750-98dc-ac90972ecc9b"},"vehicle_type_id":"4","last_reported":1742518191,"current_range_meters":14800,"station_id":"ce4bhrh2rcd13ifvqhug","pricing_plan_id":"cebpf4jnsgd1na2vs0mg"},{"bike_id":"c371f76c-6aec-4c70-991c-c853727413a2","system_id":"levelo_inurba_marseille","lat":43.28718,"lon":5.37951,"is_reserved":false,"is_disabled":false,"rental_uris":{"android":"levelo://app?vid=c371f76c-6aec-4c70-991c-c853727413a2","ios":"levelo://app?vid=c371f76c-6aec-4c70-991c-c853727413a2"},"vehicle_type_id":"4","last_reported":1742518191,"current_range_meters":14800,"station_id":"ce4bh9p2rcd13ifvqec0","pricing_plan_id":"cebpf4jnsgd1na2vs0mg"},{"bike_id":"b9420764-821c-40f0-9ca3-6ff9f61b3f40","system_id":"levelo_inurba_marseille","lat":43.30292,"lon":5.37523,"is_reserved":false,"is_disabled":false,"rental_uris":{"android":"levelo://app?vid=b9420764-821c-40f0-9ca3-6ff9f61b3f40","ios":"levelo://app?vid=b9420764-821c-40f0-9ca3-6ff9f61b3f40"},"vehicle_type_id":"4","last_reported":1742518191,"current_range_meters":15200,"station_id":"","pricing_plan_id":"cebpf4jnsgd1na2vs0mg"},{"bike_id":"eca27a81-a303-407b-9584-1b4a67bf83d4","system_id":"levelo_inurba_marseille","lat":43.24089,"lon":5.37749,"is_reserved":false,"is_disabled":false,"rental_uris":{"android":"levelo://app?vid=eca27a81-a303-407b-9584-1b4a67bf83d4","ios":"levelo://app?vid=eca27a81-a303-407b-9584-1b4a67bf83d4"},"vehicle_type_id":"4","last_reported":1742518191,"current_range_meters":15200,"station_id":"ce4bhnp2rcd13ifvqgvg","pricing_plan_id":"cebpf4jnsgd1na2vs0mg"},{"bike_id":"f899ea5c-49aa-428f-bd3d-f3674e2efcb3","system_id":"levelo_inurba_marseille","lat":43.29194,"lon":5.39316,"is_reserved":false,"is_disabled":false,"rental_uris":{"android":"levelo://app?vid=f899ea5c-49aa-428f-bd3d-f3674e2efcb3","ios":"levelo://app?vid=f899ea5c-49aa-428f-bd3d-f3674e2efcb3"},"vehicle_type_id":"4","last_reported":1742518191,"current_range_meters":15200,"station_id":"ce4bh192rcd13ifvqdd0","pricing_plan_id":"cebpf4jnsgd1na2vs0mg"},{"bike_id":"6042da37-f544-42ad-9105-f8c363dd6c2e","system_id":"levelo_inurba_marseille","lat":43.31262,"lon":5.40155,"is_reserved":false,"is_disabled":false,"rental_uris":{"android":"levelo://app?vid=6042da37-f544-42ad-9105-f8c363dd6c2e","ios":"levelo://app?vid=6042da37-f544-42ad-9105-f8c363dd6c2e"},"vehicle_type_id":"4","last_reported":1742518191,"current_range_meters":15200,"station_id":"ce4bh092rcd13ifvqd30","pricing_plan_id":"cebpf4jnsgd1na2vs0mg"},{"bike_id":"15ecf1da-a7e5-4f8a-a83b-5761a6e31ae3","system_id":"levelo_inurba_marseille","lat":43.23209,"lon":5.35548,"is_reserved":false,"is_disabled":false,"rental_uris":{"android":"levelo://app?vid=15ecf1da-a7e5-4f8a-a83b-5761a6e31ae3","ios":"levelo://app?vid=15ecf1da-a7e5-4f8a-a83b-5761a6e31ae3"},"vehicle_type_id":"4","last_reported":1742518191,"current_range_meters":15200,"station_id":"ce4bhu92rcd13ifvqi70","pricing_plan_id":"cebpf4jnsgd1na2vs0mg"},{"bike_id":"b3424025-c59a-4292-8ab2-ccd147cbd42f","system_id":"levelo_inurba_marseille","lat":43.32356,"lon":5.38903,"is_reserved":false,"is_disabled":false,"rental_uris":{"android":"levelo://app?vid=b3424025-c59a-4292-8ab2-ccd147cbd42f","ios":"levelo://app?vid=b3424025-c59a-4292-8ab2-ccd147cbd42f"},"vehicle_type_id":"4","last_reported":1742518191,"current_range_meters":15200,"station_id":"ce4bhqp2rcd13ifvqhog","pricing_plan_id":"cebpf4jnsgd1na2vs0mg"},{"bike_id":"86224501-44a9-44dc-9e40-62996b33bf57","system_id":"levelo_inurba_marseille","lat":43.29893,"lon":5.39732,"is_reserved":false,"is_disabled":false,"rental_uris":{"android":"levelo://app?vid=86224501-44a9-44dc-9e40-62996b33bf57","ios":"levelo://app?vid=86224501-44a9-44dc-9e40-62996b33bf57"},"vehicle_type_id":"4","last_reported":1742518191,"current_range_meters":15200,"station_id":"ce4bh0h2rcd13ifvqd50","pricing_plan_id":"cebpf4jnsgd1na2vs0mg"},{"bike_id":"c5c72dbc-bdee-478c-8ffc-2a91e1c31a40","system_id":"levelo_inurba_marseille","lat":43.30145,"lon":5.38544,"is_reserved":false,"is_disabled":false,"rental_uris":{"android":"levelo://app?vid=c5c72dbc-bdee-478c-8ffc-2a91e1c31a40","ios":"levelo://app?vid=c5c72dbc-bdee-478c-8ffc-2a91e1c31a40"},"vehicle_type_id":"4","last_reported":1742518191,"current_range_meters":16000,"station_id":"","pricing_plan_id":"cebpf4jnsgd1na2vs0mg"},{"bike_id":"2f608053-a475-4cd0-9217-fb6dc09de981","system_id":"levelo_inurba_marseille","lat":43.24644,"lon":5.38892,"is_reserved":false,"is_disabled":false,"rental_uris":{"android":"levelo://app?vid=2f608053-a475-4cd0-9217-fb6dc09de981","ios":"levelo://app?vid=2f608053-a475-4cd0-9217-fb6dc09de981"},"vehicle_type_id":"4","last_reported":1742518191,"current_range_meters":16000,"station_id":"ce4bhg12rcd13ifvqf60","pricing_plan_id":"cebpf4jnsgd1na2vs0mg"},{"bike_id":"dc537980-6042-493d-8080-0667efb1d6ad","system_id":"levelo_inurba_marseille","lat":43.24546,"lon":5.39522,"is_reserved":false,"is_disabled":false,"rental_uris":{"android":"levelo://app?vid=dc537980-6042-493d-8080-0667efb1d6ad","ios":"levelo://app?vid=dc537980-6042-493d-8080-0667efb1d6ad"},"vehicle_type_id":"4","last_reported":1742518191,"current_range_meters":16000,"station_id":"ce4bhlp2rcd13ifvqgjg","pricing_plan_id":"cebpf4jnsgd1na2vs0mg"},{"bike_id":"a9c7a1ad-1663-49cc-ad8f-45d9c6c8bff3","system_id":"levelo_inurba_marseille","lat":43.30625,"lon":5.40084,"is_reserved":false,"is_disabled":false,"rental_uris":{"android":"levelo://app?vid=a9c7a1ad-1663-49cc-ad8f-45d9c6c8bff3","ios":"levelo://app?vid=a9c7a1ad-1663-49cc-ad8f-45d9c6c8bff3"},"vehicle_type_id":"4","last_reported":1742518191,"current_range_meters":16000,"station_id":"ce4bh112rcd13ifvqda0","pricing_plan_id":"cebpf4jnsgd1na2vs0mg"},{"bike_id":"e3b6c365-de81-40ba-8ba8-f6fbc8ad0069","system_id":"levelo_inurba_marseille","lat":43.31268,"lon":5.40139,"is_reserved":false,"is_disabled":false,"rental_uris":{"android":"levelo://app?vid=e3b6c365-de81-40ba-8ba8-f6fbc8ad0069","ios":"levelo://app?vid=e3b6c365-de81-40ba-8ba8-f6fbc8ad0069"},"vehicle_type_id":"4","last_reported":1742518191,"current_range_meters":16000,"station_id":"ce4bh092rcd13ifvqd30","pricing_plan_id":"cebpf4jnsgd1na2vs0mg"},{"bike_id":"0fb54bf1-2224-4fef-b967-32b447b8fc33","system_id":"levelo_inurba_marseille","lat":43.24651,"lon":5.38887,"is_reserved":false,"is_disabled":false,"rental_uris":{"android":"levelo://app?vid=0fb54bf1-2224-4fef-b967-32b447b8fc33","ios":"levelo://app?vid=0fb54bf1-2224-4fef-b967-32b447b8fc33"},"vehicle_type_id":"4","last_reported":1742518191,"current_range_meters":16000,"station_id":"ce4bhg12rcd13ifvqf60","pricing_plan_id":"cebpf4jnsgd1na2vs0mg"},{"bike_id":"19e2d577-4f59-4fe1-97c7-d0033cfd4976","system_id":"levelo_inurba_marseille","lat":43.24665,"lon":5.38137,"is_reserved":false,"is_disabled":false,"rental_uris":{"android":"levelo://app?vid=19e2d577-4f59-4fe1-97c7-d0033cfd4976","ios":"levelo://app?vid=19e2d577-4f59-4fe1-97c7-d0033cfd4976"},"vehicle_type_id":"4","last_reported":1742518191,"current_range_meters":16000,"station_id":"ce4bhih2rcd13ifvqfr0","pricing_plan_id":"cebpf4jnsgd1na2vs0mg"},{"bike_id":"10ab3e40-c3f2-4f79-863e-82f3c26be10b","system_id":"levelo_inurba_marseille","lat":43.30296,"lon":5.36903,"is_reserved":false,"is_disabled":false,"rental_uris":{"android":"levelo://app?vid=10ab3e40-c3f2-4f79-863e-82f3c26be10b","ios":"levelo://app?vid=10ab3e40-c3f2-4f79-863e-82f3c26be10b"},"vehicle_type_id":"4","last_reported":1742518191,"current_range_meters":16000,"station_id":"ce4bgqh2rcd13ifvqc5g","pricing_plan_id":"cebpf4jnsgd1na2vs0mg"},{"bike_id":"43b581ad-f9f6-4650-9151-f259e6b4b1b7","system_id":"levelo_inurba_marseille","lat":43.24807,"lon":5.37452,"is_reserved":false,"is_disabled":false,"rental_uris":{"android":"levelo://app?vid=43b581ad-f9f6-4650-9151-f259e6b4b1b7","ios":"levelo://app?vid=43b581ad-f9f6-4650-9151-f259e6b4b1b7"},"vehicle_type_id":"4","last_reported":1742518191,"current_range_meters":16000,"station_id":"ce4bhgh2rcd13ifvqfb0","pricing_plan_id":"cebpf4jnsgd1na2vs0mg"},{"bike_id":"f1c1254d-d9d6-4485-8910-4ae2a7c84bc0","system_id":"levelo_inurba_marseille","lat":43.23195,"lon":5.39985,"is_reserved":false,"is_disabled":false,"rental_uris":{"android":"levelo://app?vid=f1c1254d-d9d6-4485-8910-4ae2a7c84bc0","ios":"levelo://app?vid=f1c1254d-d9d6-4485-8910-4ae2a7c84bc0"},"vehicle_type_id":"4","last_reported":1742518191,"current_range_meters":16000,"station_id":"ce4bhn12rcd13ifvqgqg","pricing_plan_id":"cebpf4jnsgd1na2vs0mg"},{"bike_id":"d4dbc5a7-35ad-48db-8774-53fefcd90dd3","system_id":"levelo_inurba_marseille","lat":43.283447,"lon":5.3811,"is_reserved":false,"is_disabled":false,"rental_uris":{"android":"levelo://app?vid=d4dbc5a7-35ad-48db-8774-53fefcd90dd3","ios":"levelo://app?vid=d4dbc5a7-35ad-48db-8774-53fefcd90dd3"},"vehicle_type_id":"4","last_reported":1742518191,"current_range_meters":16000,"station_id":"ce4bh412rcd13ifvqdr0","pricing_plan_id":"cebpf4jnsgd1na2vs0mg"},{"bike_id":"24c5b2cd-9b64-47bb-b2c7-a7782c059725","system_id":"levelo_inurba_marseille","lat":43.23178,"lon":5.39983,"is_reserved":false,"is_disabled":false,"rental_uris":{"android":"levelo://app?vid=24c5b2cd-9b64-47bb-b2c7-a7782c059725","ios":"levelo://app?vid=24c5b2cd-9b64-47bb-b2c7-a7782c059725"},"vehicle_type_id":"4","last_reported":1742518191,"current_range_meters":16400,"station_id":"ce4bhn12rcd13ifvqgqg","pricing_plan_id":"cebpf4jnsgd1na2vs0mg"},{"bike_id":"3c79ff07-1903-4cea-acf0-cc3a41fb42d8","system_id":"levelo_inurba_marseille","lat":43.27854,"lon":5.39187,"is_reserved":false,"is_disabled":false,"rental_uris":{"android":"levelo://app?vid=3c79ff07-1903-4cea-acf0-cc3a41fb42d8","ios":"levelo://app?vid=3c79ff07-1903-4cea-acf0-cc3a41fb42d8"},"vehicle_type_id":"4","last_reported":1742518191,"current_range_meters":16400,"station_id":"ce4bhjp2rcd13ifvqga0","pricing_plan_id":"cebpf4jnsgd1na2vs0mg"},{"bike_id":"acc3f6e6-1628-4be6-a9a4-7aa7d79293e4","system_id":"levelo_inurba_marseille","lat":43.28721,"lon":5.39984,"is_reserved":false,"is_disabled":true,"rental_uris":{"android":"levelo://app?vid=acc3f6e6-1628-4be6-a9a4-7aa7d79293e4","ios":"levelo://app?vid=acc3f6e6-1628-4be6-a9a4-7aa7d79293e4"},"vehicle_type_id":"4","last_reported":1742518191,"current_range_meters":16400,"station_id":"ce4bho92rcd13ifvqh3g","pricing_plan_id":"cebpf4jnsgd1na2vs0mg"},{"bike_id":"e29598c6-76b1-40c9-843c-f569fc14e43c","system_id":"levelo_inurba_marseille","lat":43.29907,"lon":5.43672,"is_reserved":false,"is_disabled":false,"rental_uris":{"android":"levelo://app?vid=e29598c6-76b1-40c9-843c-f569fc14e43c","ios":"levelo://app?vid=e29598c6-76b1-40c9-843c-f569fc14e43c"},"vehicle_type_id":"4","last_reported":1742518191,"current_range_meters":16400,"station_id":"ce4bhpp2rcd13ifvqhfg","pricing_plan_id":"cebpf4jnsgd1na2vs0mg"},{"bike_id":"f857e3ee-7b86-4ccd-8116-6a58a1cacb60","system_id":"levelo_inurba_marseille","lat":43.33087,"lon":5.40814,"is_reserved":false,"is_disabled":false,"rental_uris":{"android":"levelo://app?vid=f857e3ee-7b86-4ccd-8116-6a58a1cacb60","ios":"levelo://app?vid=f857e3ee-7b86-4ccd-8116-6a58a1cacb60"},"vehicle_type_id":"4","last_reported":1742518191,"current_range_meters":16400,"station_id":"","pricing_plan_id":"cebpf4jnsgd1na2vs0mg"},{"bike_id":"be874d91-1e07-4653-802e-2a65c0cadf30","system_id":"levelo_inurba_marseille","lat":43.281102,"lon":5.378383,"is_reserved":false,"is_disabled":false,"rental_uris":{"android":"levelo://app?vid=be874d91-1e07-4653-802e-2a65c0cadf30","ios":"levelo://app?vid=be874d91-1e07-4653-802e-2a65c0cadf30"},"vehicle_type_id":"4","last_reported":1742518191,"current_range_meters":16400,"station_id":"ce4bha12rcd13ifvqee0","pricing_plan_id":"cebpf4jnsgd1na2vs0mg"},{"bike_id":"fd928c31-a2c3-4c1b-a59a-c005d8275d51","system_id":"levelo_inurba_marseille","lat":43.30644,"lon":5.40095,"is_reserved":false,"is_disabled":false,"rental_uris":{"android":"levelo://app?vid=fd928c31-a2c3-4c1b-a59a-c005d8275d51","ios":"levelo://app?vid=fd928c31-a2c3-4c1b-a59a-c005d8275d51"},"vehicle_type_id":"4","last_reported":1742518191,"current_range_meters":16400,"station_id":"ce4bh112rcd13ifvqda0","pricing_plan_id":"cebpf4jnsgd1na2vs0mg"},{"bike_id":"99d69e66-46d0-4332-887e-7e77f6b2ea7a","system_id":"levelo_inurba_marseille","lat":43.31996,"lon":5.38155,"is_reserved":false,"is_disabled":false,"rental_uris":{"android":"levelo://app?vid=99d69e66-46d0-4332-887e-7e77f6b2ea7a","ios":"levelo://app?vid=99d69e66-46d0-4332-887e-7e77f6b2ea7a"},"vehicle_type_id":"4","last_reported":1742518191,"current_range_meters":16400,"station_id":"ce4bhr12rcd13ifvqhpg","pricing_plan_id":"cebpf4jnsgd1na2vs0mg"},{"bike_id":"60489768-70a1-4f3b-a334-8d7bb79d79eb","system_id":"levelo_inurba_marseille","lat":43.29251,"lon":5.4091,"is_reserved":false,"is_disabled":false,"rental_uris":{"android":"levelo://app?vid=60489768-70a1-4f3b-a334-8d7bb79d79eb","ios":"levelo://app?vid=60489768-70a1-4f3b-a334-8d7bb79d79eb"},"vehicle_type_id":"4","last_reported":1742518191,"current_range_meters":16400,"station_id":"ce4bh192rcd13ifvqdc0","pricing_plan_id":"cebpf4jnsgd1na2vs0mg"},{"bike_id":"ca6a5b7a-771f-4c25-ba05-db978c6a989e","system_id":"levelo_inurba_marseille","lat":43.28109,"lon":5.37829,"is_reserved":false,"is_disabled":false,"rental_uris":{"android":"levelo://app?vid=ca6a5b7a-771f-4c25-ba05-db978c6a989e","ios":"levelo://app?vid=ca6a5b7a-771f-4c25-ba05-db978c6a989e"},"vehicle_type_id":"4","last_reported":1742518191,"current_range_meters":16800,"station_id":"ce4bha12rcd13ifvqee0","pricing_plan_id":"cebpf4jnsgd1na2vs0mg"},{"bike_id":"758d6121-2739-47f8-baa5-39507cb03d50","system_id":"levelo_inurba_marseille","lat":43.31482,"lon":5.37302,"is_reserved":false,"is_disabled":false,"rental_uris":{"android":"levelo://app?vid=758d6121-2739-47f8-baa5-39507cb03d50","ios":"levelo://app?vid=758d6121-2739-47f8-baa5-39507cb03d50"},"vehicle_type_id":"4","last_reported":1742518191,"current_range_meters":16800,"station_id":"ce4bgt12rcd13ifvqcd0","pricing_plan_id":"cebpf4jnsgd1na2vs0mg"},{"bike_id":"bd66f6ad-a7fe-4112-be31-14be9636fd44","system_id":"levelo_inurba_marseille","lat":43.290283,"lon":5.38139,"is_reserved":false,"is_disabled":false,"rental_uris":{"android":"levelo://app?vid=bd66f6ad-a7fe-4112-be31-14be9636fd44","ios":"levelo://app?vid=bd66f6ad-a7fe-4112-be31-14be9636fd44"},"vehicle_type_id":"4","last_reported":1742518191,"current_range_meters":16800,"station_id":"ce4bh4p2rcd13ifvqe1g","pricing_plan_id":"cebpf4jnsgd1na2vs0mg"},{"bike_id":"c3b217a0-a427-48ea-bae3-e0cddf4dede8","system_id":"levelo_inurba_marseille","lat":43.31328,"lon":5.39706,"is_reserved":false,"is_disabled":false,"rental_uris":{"android":"levelo://app?vid=c3b217a0-a427-48ea-bae3-e0cddf4dede8","ios":"levelo://app?vid=c3b217a0-a427-48ea-bae3-e0cddf4dede8"},"vehicle_type_id":"4","last_reported":1742518191,"current_range_meters":16800,"station_id":"ce4bgvp2rcd13ifvqcu0","pricing_plan_id":"cebpf4jnsgd1na2vs0mg"},