{"last_updated":1774045020,"ttl":60,"version":"2.2","data":{"bikes":[{"bike_id":"33eb42bc-48d5-41d9-b570-aa7ee969cd7f","system_id":"levelo_inurba_marseille","lat":43.2987,"lon":5.38933,"is_reserved":false,"is_disabled":false,"rental_uris":{"android":"levelo://app?vid=33eb42bc-48d5-41d9-b570-aa7ee969cd7f","ios":"levelo://app?vid=33eb42bc-48d5-41d9-b570-aa7ee969cd7f"},"vehicle_type_id":"4","last_reported":1774045020,"current_range_meters":2800,"station_id":"ce4bh392rcd13ifvqdl0","pricing_plan_id":"cebpf4jnsgd1na2vs0mg"},{"bike_id":"b3c35a8e-82e4-4c24-a0bb-50f3ef602711","system_id":"levelo_inurba_marseille","lat":43.29524,"lon":5.39056,"is_reserved":false,"is_disabled":false,"rental_uris":{"android":"levelo://app?vid=b3c35a8e-82e4-4c24-a0bb-50f3ef602711","ios":"levelo://app?vid=b3c35a8e-82e4-4c24-a0bb-50f3ef602711"},"vehicle_type_id":"4","last_reported":1774045020,"current_range_meters":2800,"station_id":"ce4bh3p2rcd13ifvqdp0","pricing_plan_id":"cebpf4jnsgd1na2vs0mg"},{"bike_id":"ef9496c7-12d3-4835-b316-30e7646ddff1","system_id":"levelo_inurba_marseille","lat":43.30797,"lon":5.38156,"is_reserved":false,"is_disabled":false,"rental_uris":{"android":"levelo://app?vid=ef9496c7-12d3-4835-b316-30e7646ddff1","ios":"levelo://app?vid=ef9496c7-12d3-4835-b316-30e7646ddff1"},"vehicle_type_id":"4","last_reported":1774045020,"current_range_meters":2800,"station_id":"ce4bgt12rcd13ifvqce0","pricing_plan_id":"cebpf4jnsgd1na2vs0mg"},{"bike_id":"23b74feb-6213-4e52-b60f-feae837db4c1","system_id":"levelo_inurba_marseille","lat":43.31354,"lon":5.36759,"is_reserved":false,"is_disabled":false,"rental_uris":{"android":"levelo://app?vid=23b74feb-6213-4e52-b60f-feae837db4c1","ios":"levelo://app?vid=23b74feb-6213-4e52-b60f-feae837db4c1"},"vehicle_type_id":"4","last_reported":1774045020,"current_range_meters":2800,"station_id":"ce4bgr92rcd13ifvqc6g","pricing_plan_id":"cebpf4jnsgd1na2vs0mg"},{"bike_id":"5ceac038-47ac-4e81-8f76-8b94edec5213","system_id":"levelo_inurba_marseille","lat":43.29931,"lon":5.374526,"is_reserved":false,"is_disabled":false,"rental_uris":{"android":"levelo://app?vid=5ceac038-47ac-4e81-8f76-8b94edec5213","ios":"levelo://app?vid=5ceac038-47ac-4e81-8f76-8b94edec5213"},"vehicle_type_id":"4","last_reported":1774045020,"current_range_meters":2800,"station_id":"ce4bgjh2rcd13ifvqbg0","pricing_plan_id":"cebpf4jnsgd1na2vs0mg"},{"bike_id":"6d685847-ceb0-4f79-99f2-cc8153818f13","system_id":"levelo_inurba_marseille","lat":43.27379,"lon":5.36243,"is_reserved":false,"is_disabled":true,"rental_uris":{"android":"levelo://app?vid=6d685847-ceb0-4f79-99f2-cc8153818f13","ios":"levelo://app?vid=6d685847-ceb0-4f79-99f2-cc8153818f13"},"vehicle_type_id":"4","last_reported":1774045020,"current_range_meters":2800,"station_id":"ce4bhbh2rcd13ifvqeo0","pricing_plan_id":"cebpf4jnsgd1na2vs0mg"},{"bike_id":"3ed4bc13-b22d-44b4-aa6f-19f196c483da","system_id":"levelo_inurba_marseille","lat":43.24188,"lon":5.36395,"is_reserved":false,"is_disabled":false,"rental_uris":{"android":"levelo://app?vid=3ed4bc13-b22d-44b4-aa6f-19f196c483da","ios":"levelo://app?vid=3ed4bc13-b22d-44b4-aa6f-19f196c483da"},"vehicle_type_id":"4","last_reported":1774045020,"current_range_meters":2800,"station_id":"cpo36qri1sfpv3e86is0","pricing_plan_id":"cebpf4jnsgd1na2vs0mg"},{"bike_id":"f9b01266-03db-47e0-b4e3-5c85dc8b5689","system_id":"levelo_inurba_marseille","lat":43.30603,"lon":5.39355,"is_reserved":false,"is_disabled":false,"rental_uris":{"android":"levelo://app?vid=f9b01266-03db-47e0-b4e3-5c85dc8b5689","ios":"levelo://app?vid=f9b01266-03db-47e0-b4e3-5c85dc8b5689"},"vehicle_type_id":"4","last_reported":1774045020,"current_range_meters":2800,"station_id":"ce4bh0p2rcd13ifvqd80","pricing_plan_id":"cebpf4jnsgd1na2vs0mg"},{"bike_id":"bebae7b0-c2c6-4b1d-8855-8b06d4443a00","system_id":"levelo_inurba_marseille","lat":43.28472,"lon":5.484,"is_reserved":false,"is_disabled":false,"rental_uris":{"android":"levelo://app?vid=bebae7b0-c2c6-4b1d-8855-8b06d4443a00","ios":"levelo://app?vid=bebae7b0-c2c6-4b1d-8855-8b06d4443a00"},"vehicle_type_id":"4","last_reported":1774045020,"current_range_meters":2800,"station_id":"","pricing_plan_id":"cebpf4jnsgd1na2vs0mg"},{"bike_id":"66be2595-d8a5-40d3-b0b9-334f8fbba844","system_id":"levelo_inurba_marseille","lat":43.24644,"lon":5.43156,"is_reserved":false,"is_disabled":false,"rental_uris":{"android":"levelo://app?vid=66be2595-d8a5-40d3-b0b9-334f8fbba844","ios":"levelo://app?vid=66be2595-d8a5-40d3-b0b9-334f8fbba844"},"vehicle_type_id":"4","last_reported":1774045020,"current_range_meters":3200,"station_id":"","pricing_plan_id":"cebpf4jnsgd1na2vs0mg"},{"bike_id":"27cfd7f2-48c6-4fe4-9d82-e5b76120df75","system_id":"levelo_inurba_marseille","lat":43.29821,"lon":5.44081,"is_reserved":false,"is_disabled":false,"rental_uris":{"android":"levelo://app?vid=27cfd7f2-48c6-4fe4-9d82-e5b76120df75","ios":"levelo://app?vid=27cfd7f2-48c6-4fe4-9d82-e5b76120df75"},"vehicle_type_id":"4","last_reported":1774045020,"current_range_meters":3200,"station_id":"st_d3jp68qikq2c7381ktn0","pricing_plan_id":"cebpf4jnsgd1na2vs0mg"},{"bike_id":"6d1835a9-d7e3-4445-9d8e-d0bd22c8ee86","system_id":"levelo_inurba_marseille","lat":43.29523,"lon":5.3857,"is_reserved":false,"is_disabled":false,"rental_uris":{"android":"levelo://app?vid=6d1835a9-d7e3-4445-9d8e-d0bd22c8ee86","ios":"levelo://app?vid=6d1835a9-d7e3-4445-9d8e-d0bd22c8ee86"},"vehicle_type_id":"4","last_reported":1774045020,"current_range_meters":3200,"station_id":"ce4bgih2rcd13ifvqba0","pricing_plan_id":"cebpf4jnsgd1na2vs0mg"},{"bike_id":"8a854e0a-3b9f-471d-80f2-bfadb0595e6b","system_id":"levelo_inurba_marseille","lat":43.31381,"lon":5.37608,"is_reserved":false,"is_disabled":false,"rental_uris":{"android":"levelo://app?vid=8a854e0a-3b9f-471d-80f2-bfadb0595e6b","ios":"levelo://app?vid=8a854e0a-3b9f-471d-80f2-bfadb0595e6b"},"vehicle_type_id":"4","last_reported":1774045020,"current_range_meters":3200,"station_id":"","pricing_plan_id":"cebpf4jnsgd1na2vs0mg"},{"bike_id":"e5e18d51-d281-4feb-b73c-20d80ef4d3b8","system_id":"levelo_inurba_marseille","lat":43.28148,"lon":5.42636,"is_reserved":false,"is_disabled":false,"rental_uris":{"android":"levelo://app?vid=e5e18d51-d281-4feb-b73c-20d80ef4d3b8","ios":"levelo://app?vid=e5e18d51-d281-4feb-b73c-20d80ef4d3b8"},"vehicle_type_id":"4","last_reported":1774045020,"current_range_meters":3200,"station_id":"ce4bhnh2rcd13ifvqgug","pricing_plan_id":"cebpf4jnsgd1na2vs0mg"},{"bike_id":"1d1c6475-2093-4fe4-955a-b9394ed7f0f9","system_id":"levelo_inurba_marseille","lat":43.26559,"lon":5.39019,"is_reserved":false,"is_disabled":false,"rental_uris":{"android":"levelo://app?vid=1d1c6475-2093-4fe4-955a-b9394ed7f0f9","ios":"levelo://app?vid=1d1c6475-2093-4fe4-955a-b9394ed7f0f9"},"vehicle_type_id":"4","last_reported":1774045020,"current_range_meters":3200,"station_id":"ce4bhe12rcd13ifvqf30","pricing_plan_id":"cebpf4jnsgd1na2vs0mg"},{"bike_id":"7bd8d017-c910-446f-a89a-6ed676250d74","system_id":"levelo_inurba_marseille","lat":43.30634,"lon":5.40111,"is_reserved":false,"is_disabled":false,"rental_uris":{"android":"levelo://app?vid=7bd8d017-c910-446f-a89a-6ed676250d74","ios":"levelo://app?vid=7bd8d017-c910-446f-a89a-6ed676250d74"},"vehicle_type_id":"4","last_reported":1774045020,"current_range_meters":3200,"station_id":"ce4bh112rcd13ifvqda0","pricing_plan_id":"cebpf4jnsgd1na2vs0mg"},{"bike_id":"acc1d9ad-de67-4bcb-8101-b4d4cbb70a2f","system_id":"levelo_inurba_marseille","lat":43.29262,"lon":5.38471,"is_reserved":false,"is_disabled":false,"rental_uris":{"android":"levelo://app?vid=acc1d9ad-de67-4bcb-8101-b4d4cbb70a2f","ios":"levelo://app?vid=acc1d9ad-de67-4bcb-8101-b4d4cbb70a2f"},"vehicle_type_id":"4","last_reported":1774045020,"current_range_meters":3200,"station_id":"ce4bh692rcd13ifvqea0","pricing_plan_id":"cebpf4jnsgd1na2vs0mg"},{"bike_id":"26ce8e1f-db05-4ba0-acb9-cdbc5d3c8c0d","system_id":"levelo_inurba_marseille","lat":43.28485,"lon":5.3841,"is_reserved":false,"is_disabled":true,"rental_uris":{"android":"levelo://app?vid=26ce8e1f-db05-4ba0-acb9-cdbc5d3c8c0d","ios":"levelo://app?vid=26ce8e1f-db05-4ba0-acb9-cdbc5d3c8c0d"},"vehicle_type_id":"4","last_reported":1774045020,"current_range_meters":3200,"station_id":"ce4bh512rcd13ifvqe3g","pricing_plan_id":"cebpf4jnsgd1na2vs0mg"},{"bike_id":"00456695-d732-4f33-93c8-e39b4d4bf96b","system_id":"levelo_inurba_marseille","lat":43.29779,"lon":5.38106,"is_reserved":false,"is_disabled":true,"rental_uris":{"android":"levelo://app?vid=00456695-d732-4f33-93c8-e39b4d4bf96b","ios":"levelo://app?vid=00456695-d732-4f33-93c8-e39b4d4bf96b"},"vehicle_type_id":"4","last_reported":1774045020,"current_range_meters":3200,"station_id":"ce4bgip2rcd13ifvqbb0","pricing_plan_id":"cebpf4jnsgd1na2vs0mg"},{"bike_id":"9fbfdc7a-8398-40b5-b97f-ba1104c7c96f","system_id":"levelo_inurba_marseille","lat":43.23184,"lon":5.35552,"is_reserved":false,"is_disabled":false,"rental_uris":{"android":"levelo://app?vid=9fbfdc7a-8398-40b5-b97f-ba1104c7c96f","ios":"levelo://app?vid=9fbfdc7a-8398-40b5-b97f-ba1104c7c96f"},"vehicle_type_id":"4","last_reported":1774045020,"current_range_meters":3200,"station_id":"ce4bhu92rcd13ifvqi70","pricing_plan_id":"cebpf4jnsgd1na2vs0mg"},{"bike_id":"14e04f51-6012-47f2-a15a-594508b26271","system_id":"levelo_inurba_marseille","lat":43.27477,"lon":5.43649,"is_reserved":false,"is_disabled":false,"rental_uris":{"android":"levelo://app?vid=14e04f51-6012-47f2-a15a-594508b26271","ios":"levelo://app?vid=14e04f51-6012-47f2-a15a-594508b26271"},"vehicle_type_id":"4","last_reported":1774045020,"current_range_meters":3200,"station_id":"ce4bhk92rcd13ifvqgb0","pricing_plan_id":"cebpf4jnsgd1na2vs0mg"},{"bike_id":"b9452ea7-745e-419d-8fd9-2c36c379e046","system_id":"levelo_inurba_marseille","lat":43.29525,"lon":5.39037,"is_reserved":false,"is_disabled":false,"rental_uris":{"android":"levelo://app?vid=b9452ea7-745e-419d-8fd9-2c36c379e046","ios":"levelo://app?vid=b9452ea7-745e-419d-8fd9-2c36c379e046"},"vehicle_type_id":"4","last_reported":1774045020,"current_range_meters":3200,"station_id":"ce4bh0h2rcd13ifvqd60","pricing_plan_id":"cebpf4jnsgd1na2vs0mg"},{"bike_id":"e193d30c-bc14-428c-aa8b-69aacbc22c20","system_id":"levelo_inurba_marseille","lat":43.32108,"lon":5.36768,"is_reserved":false,"is_disabled":false,"rental_uris":{"android":"levelo://app?vid=e193d30c-bc14-428c-aa8b-69aacbc22c20","ios":"levelo://app?vid=e193d30c-bc14-428c-aa8b-69aacbc22c20"},"vehicle_type_id":"4","last_reported":1774045020,"current_range_meters":3200,"station_id":"ce4bhrh2rcd13ifvqhug","pricing_plan_id":"cebpf4jnsgd1na2vs0mg"},{"bike_id":"b24efd61-5957-4034-9985-644c1e3ae6d7","system_id":"levelo_inurba_marseille","lat":43.29785,"lon":5.37897,"is_reserved":false,"is_disabled":false,"rental_uris":{"android":"levelo://app?vid=b24efd61-5957-4034-9985-644c1e3ae6d7","ios":"levelo://app?vid=b24efd61-5957-4034-9985-644c1e3ae6d7"},"vehicle_type_id":"4","last_reported":1774045020,"current_range_meters":3200,"station_id":"","pricing_plan_id":"cebpf4jnsgd1na2vs0mg"},{"bike_id":"744826ba-753a-4ecc-8e5c-e31c07526efd","system_id":"levelo_inurba_marseille","lat":43.27964,"lon":5.41657,"is_reserved":false,"is_disabled":false,"rental_uris":{"android":"levelo://app?vid=744826ba-753a-4ecc-8e5c-e31c07526efd","ios":"levelo://app?vid=744826ba-753a-4ecc-8e5c-e31c07526efd"},"vehicle_type_id":"4","last_reported":1774045020,"current_range_meters":3200,"station_id":"ce4bho12rcd13ifvqh1g","pricing_plan_id":"cebpf4jnsgd1na2vs0mg"},{"bike_id":"ef982877-0196-4837-b222-cf2f28378602","system_id":"levelo_inurba_marseille","lat":43.28865,"lon":5.42519,"is_reserved":false,"is_disabled":false,"rental_uris":{"android":"levelo://app?vid=ef982877-0196-4837-b222-cf2f28378602","ios":"levelo://app?vid=ef982877-0196-4837-b222-cf2f28378602"},"vehicle_type_id":"4","last_reported":1774045020,"current_range_meters":3200,"station_id":"","pricing_plan_id":"cebpf4jnsgd1na2vs0mg"},{"bike_id":"bdd22636-8fc8-40c8-a6e8-38a9c70062a6","system_id":"levelo_inurba_marseille","lat":43.31338,"lon":5.36707,"is_reserved":false,"is_disabled":false,"rental_uris":{"android":"levelo://app?vid=bdd22636-8fc8-40c8-a6e8-38a9c70062a6","ios":"levelo://app?vid=bdd22636-8fc8-40c8-a6e8-38a9c70062a6"},"vehicle_type_id":"4","last_reported":1774045020,"current_range_meters":3200,"station_id":"ce4bgr92rcd13ifvqc6g","pricing_plan_id":"cebpf4jnsgd1na2vs0mg"},{"bike_id":"47a8436c-9b2f-44b6-92e2-20a5fab160f3","system_id":"levelo_inurba_marseille","lat":43.24796,"lon":5.3745,"is_reserved":false,"is_disabled":true,"rental_uris":{"android":"levelo://app?vid=47a8436c-9b2f-44b6-92e2-20a5fab160f3","ios":"levelo://app?vid=47a8436c-9b2f-44b6-92e2-20a5fab160f3"},"vehicle_type_id":"4","last_reported":1774045020,"current_range_meters":3200,"station_id":"ce4bhgh2rcd13ifvqfb0","pricing_plan_id":"cebpf4jnsgd1na2vs0mg"},{"bike_id":"48fead33-4def-4e8f-93bd-cae9d366a501","system_id":"levelo_inurba_marseille","lat":43.30636,"lon":5.40054,"is_reserved":false,"is_disabled":false,"rental_uris":{"android":"levelo://app?vid=48fead33-4def-4e8f-93bd-cae9d366a501","ios":"levelo://app?vid=48fead33-4def-4e8f-93bd-cae9d366a501"},"vehicle_type_id":"4","last_reported":1774045020,"current_range_meters":3200,"station_id":"ce4bh112rcd13ifvqda0","pricing_plan_id":"cebpf4jnsgd1na2vs0mg"},{"bike_id":"50fe0782-9475-489c-9b0d-f41783674fbb","system_id":"levelo_inurba_marseille","lat":43.2582,"lon":5.39425,"is_reserved":false,"is_disabled":false,"rental_uris":{"android":"levelo://app?vid=50fe0782-9475-489c-9b0d-f41783674fbb","ios":"levelo://app?vid=50fe0782-9475-489c-9b0d-f41783674fbb"},"vehicle_type_id":"4","last_reported":1774045020,"current_range_meters":3200,"station_id":"ce4bhip2rcd13ifvqft0","pricing_plan_id":"cebpf4jnsgd1na2vs0mg"},{"bike_id":"10964380-842c-47fb-8636-5b8a318713b6","system_id":"levelo_inurba_marseille","lat":43.29264,"lon":5.3844,"is_reserved":false,"is_disabled":false,"rental_uris":{"android":"levelo://app?vid=10964380-842c-47fb-8636-5b8a318713b6","ios":"levelo://app?vid=10964380-842c-47fb-8636-5b8a318713b6"},"vehicle_type_id":"4","last_reported":1774045020,"current_range_meters":3200,"station_id":"ce4bh692rcd13ifvqea0","pricing_plan_id":"cebpf4jnsgd1na2vs0mg"},{"bike_id":"ec327ac2-9680-48a1-8584-22f43bc41c50","system_id":"levelo_inurba_marseille","lat":43.29257,"lon":5.37621,"is_reserved":false,"is_disabled":true,"rental_uris":{"android":"levelo://app?vid=ec327ac2-9680-48a1-8584-22f43bc41c50","ios":"levelo://app?vid=ec327ac2-9680-48a1-8584-22f43bc41c50"},"vehicle_type_id":"4","last_reported":1774045020,"current_range_meters":3200,"station_id":"ce4bgi12rcd13ifvqb80","pricing_plan_id":"cebpf4jnsgd1na2vs0mg"},{"bike_id":"cc2b2e8b-fb1d-4616-8447-851c70af165a","system_id":"levelo_inurba_marseille","lat":43.29423,"lon":5.39775,"is_reserved":false,"is_disabled":true,"rental_uris":{"android":"levelo://app?vid=cc2b2e8b-fb1d-4616-8447-851c70af165a","ios":"levelo://app?vid=cc2b2e8b-fb1d-4616-8447-851c70af165a"},"vehicle_type_id":"4","last_reported":1774045020,"current_range_meters":3600,"station_id":"ce4bh3h2rcd13ifvqdo0","pricing_plan_id":"cebpf4jnsgd1na2vs0mg"},{"bike_id":"addd9e53-bfde-4c2f-8c89-4a891b6a7add","system_id":"levelo_inurba_marseille","lat":43.31342,"lon":5.3792,"is_reserved":false,"is_disabled":false,"rental_uris":{"android":"levelo://app?vid=addd9e53-bfde-4c2f-8c89-4a891b6a7add","ios":"levelo://app?vid=addd9e53-bfde-4c2f-8c89-4a891b6a7add"},"vehicle_type_id":"4","last_reported":1774045020,"current_range_meters":3600,"station_id":"","pricing_plan_id":"cebpf4jnsgd1na2vs0mg"},{"bike_id":"172e8e6e-c941-4a85-8aff-a061f2ddbe2d","system_id":"levelo_inurba_marseille","lat":43.28458,"lon":5.35861,"is_reserved":false,"is_disabled":false,"rental_uris":{"android":"levelo://app?vid=172e8e6e-c941-4a85-8aff-a061f2ddbe2d","ios":"levelo://app?vid=172e8e6e-c941-4a85-8aff-a061f2ddbe2d"},"vehicle_type_id":"4","last_reported":1774045020,"current_range_meters":3600,"station_id":"ce4bhah2rcd13ifvqei0","pricing_plan_id":"cebpf4jnsgd1na2vs0mg"},{"bike_id":"c8b10d32-fae9-4757-8433-313ee5941072","system_id":"levelo_inurba_marseille","lat":43.24658,"lon":5.38155,"is_reserved":false,"is_disabled":false,"rental_uris":{"android":"levelo://app?vid=c8b10d32-fae9-4757-8433-313ee5941072","ios":"levelo://app?vid=c8b10d32-fae9-4757-8433-313ee5941072"},"vehicle_type_id":"4","last_reported":1774045020,"current_range_meters":3600,"station_id":"ce4bhih2rcd13ifvqfr0","pricing_plan_id":"cebpf4jnsgd1na2vs0mg"},{"bike_id":"52f6a6b9-7af9-4956-b458-baf5061e66bf","system_id":"levelo_inurba_marseille","lat":43.23354,"lon":5.4449,"is_reserved":false,"is_disabled":false,"rental_uris":{"android":"levelo://app?vid=52f6a6b9-7af9-4956-b458-baf5061e66bf","ios":"levelo://app?vid=52f6a6b9-7af9-4956-b458-baf5061e66bf"},"vehicle_type_id":"4","last_reported":1774045020,"current_range_meters":3600,"station_id":"","pricing_plan_id":"cebpf4jnsgd1na2vs0mg"},{"bike_id":"347a0133-45d3-4213-ae48-606f4453bbf3","system_id":"levelo_inurba_marseille","lat":43.23051,"lon":5.35489,"is_reserved":false,"is_disabled":false,"rental_uris":{"android":"levelo://app?vid=347a0133-45d3-4213-ae48-606f4453bbf3","ios":"levelo://app?vid=347a0133-45d3-4213-ae48-606f4453bbf3"},"vehicle_type_id":"4","last_reported":1774045020,"current_range_meters":3600,"station_id":"cpo3342slgdg3j2ifvpg","pricing_plan_id":"cebpf4jnsgd1na2vs0mg"},{"bike_id":"13c4f90f-0c2b-450e-80ad-fb83da41ea7f","system_id":"levelo_inurba_marseille","lat":43.30618,"lon":5.39341,"is_reserved":false,"is_disabled":false,"rental_uris":{"android":"levelo://app?vid=13c4f90f-0c2b-450e-80ad-fb83da41ea7f","ios":"levelo://app?vid=13c4f90f-0c2b-450e-80ad-fb83da41ea7f"},"vehicle_type_id":"4","last_reported":1774045020,"current_range_meters":3600,"station_id":"ce4bh0p2rcd13ifvqd80","pricing_plan_id":"cebpf4jnsgd1na2vs0mg"},{"bike_id":"2bbd22cf-686f-461f-b177-5e332cf0cc5c","system_id":"levelo_inurba_marseille","lat":43.31363,"lon":5.38502,"is_reserved":false,"is_disabled":false,"rental_uris":{"android":"levelo://app?vid=2bbd22cf-686f-461f-b177-5e332cf0cc5c","ios":"levelo://app?vid=2bbd22cf-686f-461f-b177-5e332cf0cc5c"},"vehicle_type_id":"4","last_reported":1774045020,"current_range_meters":3600,"station_id":"ce4bgt92rcd13ifvqcf0","pricing_plan_id":"cebpf4jnsgd1na2vs0mg"},{"bike_id":"62ff937e-689f-4def-8b0f-f0f7271c7beb","system_id":"levelo_inurba_marseille","lat":43.33551,"lon":5.37463,"is_reserved":false,"is_disabled":false,"rental_uris":{"android":"levelo://app?vid=62ff937e-689f-4def-8b0f-f0f7271c7beb","ios":"levelo://app?vid=62ff937e-689f-4def-8b0f-f0f7271c7beb"},"vehicle_type_id":"4","last_reported":1774045020,"current_range_meters":3600,"station_id":"st_d46tts09ee8s73dlu43g","pricing_plan_id":"cebpf4jnsgd1na2vs0mg"},{"bike_id":"c7e3a474-0497-4f6e-9ae6-ba0d89f6fff2","system_id":"levelo_inurba_marseille","lat":43.28431,"lon":5.392,"is_reserved":false,"is_disabled":false,"rental_uris":{"android":"levelo://app?vid=c7e3a474-0497-4f6e-9ae6-ba0d89f6fff2","ios":"levelo://app?vid=c7e3a474-0497-4f6e-9ae6-ba0d89f6fff2"},"vehicle_type_id":"4","last_reported":1774045020,"current_range_meters":3600,"station_id":"ce4bhoh2rcd13ifvqh5g","pricing_plan_id":"cebpf4jnsgd1na2vs0mg"},{"bike_id":"6e50a54a-c657-4ef5-9339-4c225154dc0d","system_id":"levelo_inurba_marseille","lat":43.27937,"lon":5.42229,"is_reserved":false,"is_disabled":false,"rental_uris":{"android":"levelo://app?vid=6e50a54a-c657-4ef5-9339-4c225154dc0d","ios":"levelo://app?vid=6e50a54a-c657-4ef5-9339-4c225154dc0d"},"vehicle_type_id":"4","last_reported":1774045020,"current_range_meters":3600,"station_id":"","pricing_plan_id":"cebpf4jnsgd1na2vs0mg"},{"bike_id":"d0435883-3dbe-427a-b3e9-0ad1a9aed075","system_id":"levelo_inurba_marseille","lat":43.29266,"lon":5.38453,"is_reserved":false,"is_disabled":false,"rental_uris":{"android":"levelo://app?vid=d0435883-3dbe-427a-b3e9-0ad1a9aed075","ios":"levelo://app?vid=d0435883-3dbe-427a-b3e9-0ad1a9aed075"},"vehicle_type_id":"4","last_reported":1774045020,"current_range_meters":3600,"station_id":"ce4bh692rcd13ifvqea0","pricing_plan_id":"cebpf4jnsgd1na2vs0mg"},{"bike_id":"3dd115cf-9577-4889-afa0-0aeda5ca4fae","system_id":"levelo_inurba_marseille","lat":43.29008,"lon":5.35613,"is_reserved":false,"is_disabled":true,"rental_uris":{"android":"levelo://app?vid=3dd115cf-9577-4889-afa0-0aeda5ca4fae","ios":"levelo://app?vid=3dd115cf-9577-4889-afa0-0aeda5ca4fae"},"vehicle_type_id":"4","last_reported":1774045020,"current_range_meters":3600,"station_id":"ce4bhb92rcd13ifvqen0","pricing_plan_id":"cebpf4jnsgd1na2vs0mg"},{"bike_id":"7fe5533e-dcaa-402a-9e75-25dfacd92af2","system_id":"levelo_inurba_marseille","lat":43.3088,"lon":5.39643,"is_reserved":false,"is_disabled":false,"rental_uris":{"android":"levelo://app?vid=7fe5533e-dcaa-402a-9e75-25dfacd92af2","ios":"levelo://app?vid=7fe5533e-dcaa-402a-9e75-25dfacd92af2"},"vehicle_type_id":"4","last_reported":1774045020,"current_range_meters":3600,"station_id":"ce4bh012rcd13ifvqcv0","pricing_plan_id":"cebpf4jnsgd1na2vs0mg"},{"bike_id":"76e167b1-c7a0-452f-85b9-77ca915608f1","system_id":"levelo_inurba_marseille","lat":43.29383,"lon":5.37854,"is_reserved":false,"is_disabled":false,"rental_uris":{"android":"levelo://app?vid=76e167b1-c7a0-452f-85b9-77ca915608f1","ios":"levelo://app?vid=76e167b1-c7a0-452f-85b9-77ca915608f1"},"vehicle_type_id":"4","last_reported":1774045020,"current_range_meters":3600,"station_id":"ce4bgjh2rcd13ifvqbf0","pricing_plan_id":"cebpf4jnsgd1na2vs0mg"},{"bike_id":"b3c6ee7e-839e-47ca-8bd1-12618e78dd87","system_id":"levelo_inurba_marseille","lat":43.2397,"lon":5.36596,"is_reserved":false,"is_disabled":false,"rental_uris":{"android":"levelo://app?vid=b3c6ee7e-839e-47ca-8bd1-12618e78dd87","ios":"levelo://app?vid=b3c6ee7e-839e-47ca-8bd1-12618e78dd87"},"vehicle_type_id":"4","last_reported":1774045020,"current_range_meters":3600,"station_id":"ce4bhi12rcd13ifvqfp0","pricing_plan_id":"cebpf4jnsgd1na2vs0mg"},{"bike_id":"ec237af0-43ed-4b62-a9da-c39e8072aab3","system_id":"levelo_inurba_marseille","lat":43.28107,"lon":5.37838,"is_reserved":false,"is_disabled":false,"rental_uris":{"android":"levelo://app?vid=ec237af0-43ed-4b62-a9da-c39e8072aab3","ios":"levelo://app?vid=ec237af0-43ed-4b62-a9da-c39e8072aab3"},"vehicle_type_id":"4","last_reported":1774045020,"current_range_meters":4000,"station_id":"ce4bha12rcd13ifvqee0","pricing_plan_id":"cebpf4jnsgd1na2vs0mg"},{"bike_id":"cae855a2-11db-4faf-a47c-94f916bffc01","system_id":"levelo_inurba_marseille","lat":43.3016,"lon":5.38082,"is_reserved":false,"is_disabled":false,"rental_uris":{"android":"levelo://app?vid=cae855a2-11db-4faf-a47c-94f916bffc01","ios":"levelo://app?vid=cae855a2-11db-4faf-a47c-94f916bffc01"},"vehicle_type_id":"4","last_reported":1774045020,"current_range_meters":4000,"station_id":"ce4bgjp2rcd13ifvqbh0","pricing_plan_id":"cebpf4jnsgd1na2vs0mg"},{"bike_id":"d4776486-3084-421f-968a-3d6e49dfba03","system_id":"levelo_inurba_marseille","lat":43.28534,"lon":5.44097,"is_reserved":false,"is_disabled":false,"rental_uris":{"android":"levelo://app?vid=d4776486-3084-421f-968a-3d6e49dfba03","ios":"levelo://app?vid=d4776486-3084-421f-968a-3d6e49dfba03"},"vehicle_type_id":"4","last_reported":1774045020,"current_range_meters":4000,"station_id":"st_d3j3df2ikq2c7380ej80","pricing_plan_id":"cebpf4jnsgd1na2vs0mg"},{"bike_id":"a0468db3-a6ee-4c27-b4cc-b8425f8ccbb9","system_id":"levelo_inurba_marseille","lat":43.29267,"lon":5.3845,"is_reserved":false,"is_disabled":false,"rental_uris":{"android":"levelo://app?vid=a0468db3-a6ee-4c27-b4cc-b8425f8ccbb9","ios":"levelo://app?vid=a0468db3-a6ee-4c27-b4cc-b8425f8ccbb9"},"vehicle_type_id":"4","last_reported":1774045020,"current_range_meters":4000,"station_id":"ce4bh692rcd13ifvqea0","pricing_plan_id":"cebpf4jnsgd1na2vs0mg"},{"bike_id":"ace67521-97e4-47bc-916e-a3510826f213","system_id":"levelo_inurba_marseille","lat":43.29303,"lon":5.37448,"is_reserved":false,"is_disabled":false,"rental_uris":{"android":"levelo://app?vid=ace67521-97e4-47bc-916e-a3510826f213","ios":"levelo://app?vid=ace67521-97e4-47bc-916e-a3510826f213"},"vehicle_type_id":"4","last_reported":1774045020,"current_range_meters":4000,"station_id":"ce4bgi12rcd13ifvqb70","pricing_plan_id":"cebpf4jnsgd1na2vs0mg"},{"bike_id":"03a74c13-5594-43fd-8a37-cb2dec2c904f","system_id":"levelo_inurba_marseille","lat":43.29193,"lon":5.3929,"is_reserved":false,"is_disabled":false,"rental_uris":{"android":"levelo://app?vid=03a74c13-5594-43fd-8a37-cb2dec2c904f","ios":"levelo://app?vid=03a74c13-5594-43fd-8a37-cb2dec2c904f"},"vehicle_type_id":"4","last_reported":1774045020,"current_range_meters":4000,"station_id":"ce4bh192rcd13ifvqdd0","pricing_plan_id":"cebpf4jnsgd1na2vs0mg"},{"bike_id":"851438d0-cd22-4580-80ed-eaca7199e818","system_id":"levelo_inurba_marseille","lat":43.29887,"lon":5.3801,"is_reserved":false,"is_disabled":false,"rental_uris":{"android":"levelo://app?vid=851438d0-cd22-4580-80ed-eaca7199e818","ios":"levelo://app?vid=851438d0-cd22-4580-80ed-eaca7199e818"},"vehicle_type_id":"4","last_reported":1774045020,"current_range_meters":4000,"station_id":"","pricing_plan_id":"cebpf4jnsgd1na2vs0mg"},{"bike_id":"705dce00-9b82-4079-a50b-a5ff6def6942","system_id":"levelo_inurba_marseille","lat":43.23963,"lon":5.36631,"is_reserved":false,"is_disabled":false,"rental_uris":{"android":"levelo://app?vid=705dce00-9b82-4079-a50b-a5ff6def6942","ios":"levelo://app?vid=705dce00-9b82-4079-a50b-a5ff6def6942"},"vehicle_type_id":"4","last_reported":1774045020,"current_range_meters":4000,"station_id":"ce4bhi12rcd13ifvqfp0","pricing_plan_id":"cebpf4jnsgd1na2vs0mg"},{"bike_id":"09c2457a-1b1f-4989-a1a6-bb0d58c4caef","system_id":"levelo_inurba_marseille","lat":43.29596,"lon":5.38096,"is_reserved":false,"is_disabled":false,"rental_uris":{"android":"levelo://app?vid=09c2457a-1b1f-4989-a1a6-bb0d58c4caef","ios":"levelo://app?vid=09c2457a-1b1f-4989-a1a6-bb0d58c4caef"},"vehicle_type_id":"4","last_reported":1774045020,"current_range_meters":4000,"station_id":"ce4bgl12rcd13ifvqbo0","pricing_plan_id":"cebpf4jnsgd1na2vs0mg"},{"bike_id":"3ff905df-9cfc-4198-a321-86ecfaa87b21","system_id":"levelo_inurba_marseille","lat":43.29525,"lon":5.39025,"is_reserved":false,"is_disabled":false,"rental_uris":{"android":"levelo://app?vid=3ff905df-9cfc-4198-a321-86ecfaa87b21","ios":"levelo://app?vid=3ff905df-9cfc-4198-a321-86ecfaa87b21"},"vehicle_type_id":"4","last_reported":1774045020,"current_range_meters":4000,"station_id":"ce4bh3p2rcd13ifvqdp0","pricing_plan_id":"cebpf4jnsgd1na2vs0mg"},{"bike_id":"c64b48df-c4ec-47e1-b59c-2cdce0bb4060","system_id":"levelo_inurba_marseille","lat":43.2954,"lon":5.38576,"is_reserved":false,"is_disabled":false,"rental_uris":{"android":"levelo://app?vid=c64b48df-c4ec-47e1-b59c-2cdce0bb4060","ios":"levelo://app?vid=c64b48df-c4ec-47e1-b59c-2cdce0bb4060"},"vehicle_type_id":"4","last_reported":1774045020,"current_range_meters":4000,"station_id":"ce4bgih2rcd13ifvqba0","pricing_plan_id":"cebpf4jnsgd1na2vs0mg"},{"bike_id":"51a5d3cf-46d4-4381-a3aa-e5708524a237","system_id":"levelo_inurba_marseille","lat":43.25832,"lon":5.39435,"is_reserved":false,"is_disabled":false,"rental_uris":{"android":"levelo://app?vid=51a5d3cf-46d4-4381-a3aa-e5708524a237","ios":"levelo://app?vid=51a5d3cf-46d4-4381-a3aa-e5708524a237"},"vehicle_type_id":"4","last_reported":1774045020,"current_range_meters":4000,"station_id":"ce4bhip2rcd13ifvqft0","pricing_plan_id":"cebpf4jnsgd1na2vs0mg"},{"bike_id":"d16b4f5e-9b9d-4635-b7ab-14fa4ff08f4b","system_id":"levelo_inurba_marseille","lat":43.24647,"lon":5.43154,"is_reserved":false,"is_disabled":false,"rental_uris":{"android":"levelo://app?vid=d16b4f5e-9b9d-4635-b7ab-14fa4ff08f4b","ios":"levelo://app?vid=d16b4f5e-9b9d-4635-b7ab-14fa4ff08f4b"},"vehicle_type_id":"4","last_reported":1774045020,"current_range_meters":4000,"station_id":"","pricing_plan_id":"cebpf4jnsgd1na2vs0mg"},{"bike_id":"b14bb5e1-7882-4380-b389-98bb380dac81","system_id":"levelo_inurba_marseille","lat":43.2395,"lon":5.36637,"is_reserved":false,"is_disabled":false,"rental_uris":{"android":"levelo://app?vid=b14bb5e1-7882-4380-b389-98bb380dac81","ios":"levelo://app?vid=b14bb5e1-7882-4380-b389-98bb380dac81"},"vehicle_type_id":"4","last_reported":1774045020,"current_range_meters":4000,"station_id":"ce4bhi12rcd13ifvqfp0","pricing_plan_id":"cebpf4jnsgd1na2vs0mg"},{"bike_id":"384adf8d-e4b9-484e-90c8-9ffde0b1cce8","system_id":"levelo_inurba_marseille","lat":43.29537,"lon":5.3852,"is_reserved":false,"is_disabled":false,"rental_uris":{"android":"levelo://app?vid=384adf8d-e4b9-484e-90c8-9ffde0b1cce8","ios":"levelo://app?vid=384adf8d-e4b9-484e-90c8-9ffde0b1cce8"},"vehicle_type_id":"4","last_reported":1774045020,"current_range_meters":4400,"station_id":"ce4bgih2rcd13ifvqba0","pricing_plan_id":"cebpf4jnsgd1na2vs0mg"},{"bike_id":"58a96077-ea6f-42e7-80e5-42d54c909067","system_id":"levelo_inurba_marseille","lat":43.29525,"lon":5.38539,"is_reserved":false,"is_disabled":false,"rental_uris":{"android":"levelo://app?vid=58a96077-ea6f-42e7-80e5-42d54c909067","ios":"levelo://app?vid=58a96077-ea6f-42e7-80e5-42d54c909067"},"vehicle_type_id":"4","last_reported":1774045020,"current_range_meters":4400,"station_id":"ce4bgih2rcd13ifvqba0","pricing_plan_id":"cebpf4jnsgd1na2vs0mg"},{"bike_id":"d3436185-52ce-4254-b111-184a25b8e49a","system_id":"levelo_inurba_marseille","lat":43.29021,"lon":5.38654,"is_reserved":false,"is_disabled":false,"rental_uris":{"android":"levelo://app?vid=d3436185-52ce-4254-b111-184a25b8e49a","ios":"levelo://app?vid=d3436185-52ce-4254-b111-184a25b8e49a"},"vehicle_type_id":"4","last_reported":1774045020,"current_range_meters":4400,"station_id":"ce4bh4p2rcd13ifvqe0g","pricing_plan_id":"cebpf4jnsgd1na2vs0mg"},{"bike_id":"6f80791c-cd2c-499f-a197-0ad16dc3e7a9","system_id":"levelo_inurba_marseille","lat":43.29777,"lon":5.38113,"is_reserved":false,"is_disabled":false,"rental_uris":{"android":"levelo://app?vid=6f80791c-cd2c-499f-a197-0ad16dc3e7a9","ios":"levelo://app?vid=6f80791c-cd2c-499f-a197-0ad16dc3e7a9"},"vehicle_type_id":"4","last_reported":1774045020,"current_range_meters":4400,"station_id":"ce4bgip2rcd13ifvqbb0","pricing_plan_id":"cebpf4jnsgd1na2vs0mg"},{"bike_id":"c403789f-54d1-498d-8a6f-0afb1901503e","system_id":"levelo_inurba_marseille","lat":43.29527,"lon":5.38557,"is_reserved":false,"is_disabled":false,"rental_uris":{"android":"levelo://app?vid=c403789f-54d1-498d-8a6f-0afb1901503e","ios":"levelo://app?vid=c403789f-54d1-498d-8a6f-0afb1901503e"},"vehicle_type_id":"4","last_reported":1774045020,"current_range_meters":4400,"station_id":"ce4bgih2rcd13ifvqba0","pricing_plan_id":"cebpf4jnsgd1na2vs0mg"},{"bike_id":"9276440c-f4d8-43a8-b80f-788c778198c8","system_id":"levelo_inurba_marseille","lat":43.28708,"lon":5.37385,"is_reserved":false,"is_disabled":false,"rental_uris":{"android":"levelo://app?vid=9276440c-f4d8-43a8-b80f-788c778198c8","ios":"levelo://app?vid=9276440c-f4d8-43a8-b80f-788c778198c8"},"vehicle_type_id":"4","last_reported":1774045020,"current_range_meters":4400,"station_id":"ce4bh3p2rcd13ifvqdq0","pricing_plan_id":"cebpf4jnsgd1na2vs0mg"},{"bike_id":"6b596f47-5f2b-41a1-ba8e-cc3c7bac807e","system_id":"levelo_inurba_marseille","lat":43.22911,"lon":5.3538,"is_reserved":false,"is_disabled":false,"rental_uris":{"android":"levelo://app?vid=6b596f47-5f2b-41a1-ba8e-cc3c7bac807e","ios":"levelo://app?vid=6b596f47-5f2b-41a1-ba8e-cc3c7bac807e"},"vehicle_type_id":"4","last_reported":1774045020,"current_range_meters":4400,"station_id":"cpo3532slgdg3j2ikp40","pricing_plan_id":"cebpf4jnsgd1na2vs0mg"},{"bike_id":"cfd7f779-6e1f-41b4-bfe4-0da5f5789300","system_id":"levelo_inurba_marseille","lat":43.23965,"lon":5.36645,"is_reserved":false,"is_disabled":false,"rental_uris":{"android":"levelo://app?vid=cfd7f779-6e1f-41b4-bfe4-0da5f5789300","ios":"levelo://app?vid=cfd7f779-6e1f-41b4-bfe4-0da5f5789300"},"vehicle_type_id":"4","last_reported":1774045020,"current_range_meters":4400,"station_id":"ce4bhi12rcd13ifvqfp0","pricing_plan_id":"cebpf4jnsgd1na2vs0mg"},{"bike_id":"d725c900-b9f2-4885-bb5e-2c21a6be4955","system_id":"levelo_inurba_marseille","lat":43.29259,"lon":5.3843,"is_reserved":false,"is_disabled":false,"rental_uris":{"android":"levelo://app?vid=d725c900-b9f2-4885-bb5e-2c21a6be4955","ios":"levelo://app?vid=d725c900-b9f2-4885-bb5e-2c21a6be4955"},"vehicle_type_id":"4","last_reported":1774045020,"current_range_meters":4400,"station_id":"ce4bh692rcd13ifvqea0","pricing_plan_id":"cebpf4jnsgd1na2vs0mg"},{"bike_id":"7ca42abf-10c8-4a42-940f-cf2bacf786b1","system_id":"levelo_inurba_marseille","lat":43.29262,"lon":5.38448,"is_reserved":false,"is_disabled":false,"rental_uris":{"android":"levelo://app?vid=7ca42abf-10c8-4a42-940f-cf2bacf786b1","ios":"levelo://app?vid=7ca42abf-10c8-4a42-940f-cf2bacf786b1"},"vehicle_type_id":"4","last_reported":1774045020,"current_range_meters":4400,"station_id":"ce4bh692rcd13ifvqea0","pricing_plan_id":"cebpf4jnsgd1na2vs0mg"},{"bike_id":"e08d225b-8f4a-4ce0-895d-d9f7f842408c","system_id":"levelo_inurba_marseille","lat":43.24164,"lon":5.36405,"is_reserved":false,"is_disabled":false,"rental_uris":{"android":"levelo://app?vid=e08d225b-8f4a-4ce0-895d-d9f7f842408c","ios":"levelo://app?vid=e08d225b-8f4a-4ce0-895d-d9f7f842408c"},"vehicle_type_id":"4","last_reported":1774045020,"current_range_meters":4400,"station_id":"cpo36qri1sfpv3e86is0","pricing_plan_id":"cebpf4jnsgd1na2vs0mg"},{"bike_id":"938f5b2b-699a-47ff-8381-c70adbd93b65","system_id":"levelo_inurba_marseille","lat":43.29775,"lon":5.37095,"is_reserved":false,"is_disabled":true,"rental_uris":{"android":"levelo://app?vid=938f5b2b-699a-47ff-8381-c70adbd93b65","ios":"levelo://app?vid=938f5b2b-699a-47ff-8381-c70adbd93b65"},"vehicle_type_id":"4","last_reported":1774045020,"current_range_meters":4400,"station_id":"ce4bgop2rcd13ifvqc1g","pricing_plan_id":"cebpf4jnsgd1na2vs0mg"},{"bike_id":"286ecc91-d145-493f-a0d1-839c5d1aa125","system_id":"levelo_inurba_marseille","lat":43.2953,"lon":5.38528,"is_reserved":false,"is_disabled":false,"rental_uris":{"android":"levelo://app?vid=286ecc91-d145-493f-a0d1-839c5d1aa125","ios":"levelo://app?vid=286ecc91-d145-493f-a0d1-839c5d1aa125"},"vehicle_type_id":"4","last_reported":1774045020,"current_range_meters":4400,"station_id":"ce4bgih2rcd13ifvqba0","pricing_plan_id":"cebpf4jnsgd1na2vs0mg"},{"bike_id":"3bcd3f37-7909-4e8a-be03-a9562a2c0e45","system_id":"levelo_inurba_marseille","lat":43.28465,"lon":5.4841,"is_reserved":false,"is_disabled":false,"rental_uris":{"android":"levelo://app?vid=3bcd3f37-7909-4e8a-be03-a9562a2c0e45","ios":"levelo://app?vid=3bcd3f37-7909-4e8a-be03-a9562a2c0e45"},"vehicle_type_id":"4","last_reported":1774045020,"current_range_meters":4800,"station_id":"","pricing_plan_id":"cebpf4jnsgd1na2vs0mg"},{"bike_id":"c6b20400-3641-48f3-b609-b110a5527d07","system_id":"levelo_inurba_marseille","lat":43.22571,"lon":5.41621,"is_reserved":false,"is_disabled":false,"rental_uris":{"android":"levelo://app?vid=c6b20400-3641-48f3-b609-b110a5527d07","ios":"levelo://app?vid=c6b20400-3641-48f3-b609-b110a5527d07"},"vehicle_type_id":"4","last_reported":1774045020,"current_range_meters":4800,"station_id":"st_d2o4gvlbi1j2169b742g","pricing_plan_id":"cebpf4jnsgd1na2vs0mg"},{"bike_id":"10aaca33-c248-4ae6-bc77-0fbbde265c9c","system_id":"levelo_inurba_marseille","lat":43.2926,"lon":5.3845,"is_reserved":false,"is_disabled":false,"rental_uris":{"android":"levelo://app?vid=10aaca33-c248-4ae6-bc77-0fbbde265c9c","ios":"levelo://app?vid=10aaca33-c248-4ae6-bc77-0fbbde265c9c"},"vehicle_type_id":"4","last_reported":1774045020,"current_range_meters":4800,"station_id":"ce4bh692rcd13ifvqea0","pricing_plan_id":"cebpf4jnsgd1na2vs0mg"},{"bike_id":"0be6cc20-6e4a-493d-9e3f-cef24062b350","system_id":"levelo_inurba_marseille","lat":43.29511,"lon":5.37521,"is_reserved":false,"is_disabled":false,"rental_uris":{"android":"levelo://app?vid=0be6cc20-6e4a-493d-9e3f-cef24062b350","ios":"levelo://app?vid=0be6cc20-6e4a-493d-9e3f-cef24062b350"},"vehicle_type_id":"4","last_reported":1774045020,"current_range_meters":4800,"station_id":"ce4bgkp2rcd13ifvqbmg","pricing_plan_id":"cebpf4jnsgd1na2vs0mg"},{"bike_id":"e7d52348-570a-4440-8818-e57d451e3dc2","system_id":"levelo_inurba_marseille","lat":43.292612,"lon":5.384293,"is_reserved":false,"is_disabled":false,"rental_uris":{"android":"levelo://app?vid=e7d52348-570a-4440-8818-e57d451e3dc2","ios":"levelo://app?vid=e7d52348-570a-4440-8818-e57d451e3dc2"},"vehicle_type_id":"4","last_reported":1774045020,"current_range_meters":4800,"station_id":"ce4bh692rcd13ifvqea0","pricing_plan_id":"cebpf4jnsgd1na2vs0mg"},{"bike_id":"e63800d4-2f18-42a8-a6db-913bf55e025e","system_id":"levelo_inurba_marseille","lat":43.31331,"lon":5.3969,"is_reserved":false,"is_disabled":false,"rental_uris":{"android":"levelo://app?vid=e63800d4-2f18-42a8-a6db-913bf55e025e","ios":"levelo://app?vid=e63800d4-2f18-42a8-a6db-913bf55e025e"},"vehicle_type_id":"4","last_reported":1774045020,"current_range_meters":4800,"station_id":"ce4bgvp2rcd13ifvqcu0","pricing_plan_id":"cebpf4jnsgd1na2vs0mg"},{"bike_id":"7393b863-8120-4130-a771-43875c000979","system_id":"levelo_inurba_marseille","lat":43.31326,"lon":5.3969,"is_reserved":false,"is_disabled":false,"rental_uris":{"android":"levelo://app?vid=7393b863-8120-4130-a771-43875c000979","ios":"levelo://app?vid=7393b863-8120-4130-a771-43875c000979"},"vehicle_type_id":"4","last_reported":1774045020,"current_range_meters":4800,"station_id":"ce4bgvp2rcd13ifvqcu0","pricing_plan_id":"cebpf4jnsgd1na2vs0mg"},{"bike_id":"f510aab5-c125-407f-aeb0-e610c0cdfef8","system_id":"levelo_inurba_marseille","lat":43.23787,"lon":5.36635,"is_reserved":false,"is_disabled":false,"rental_uris":{"android":"levelo://app?vid=f510aab5-c125-407f-aeb0-e610c0cdfef8","ios":"levelo://app?vid=f510aab5-c125-407f-aeb0-e610c0cdfef8"},"vehicle_type_id":"4","last_reported":1774045020,"current_range_meters":4800,"station_id":"st_d3nk18o9ro0c73en2l3g","pricing_plan_id":"cebpf4jnsgd1na2vs0mg"},{"bike_id":"64e51bde-9d0b-40b0-a912-510a3cb8b58a","system_id":"levelo_inurba_marseille","lat":43.30931,"lon":5.40162,"is_reserved":false,"is_disabled":false,"rental_uris":{"android":"levelo://app?vid=64e51bde-9d0b-40b0-a912-510a3cb8b58a","ios":"levelo://app?vid=64e51bde-9d0b-40b0-a912-510a3cb8b58a"},"vehicle_type_id":"4","last_reported":1774045020,"current_range_meters":4800,"station_id":"ce4bgvp2rcd13ifvqct0","pricing_plan_id":"cebpf4jnsgd1na2vs0mg"},{"bike_id":"8cce7d2e-730d-4e01-b1ce-981f589be696","system_id":"levelo_inurba_marseille","lat":43.31717,"lon":5.43712,"is_reserved":false,"is_disabled":false,"rental_uris":{"android":"levelo://app?vid=8cce7d2e-730d-4e01-b1ce-981f589be696","ios":"levelo://app?vid=8cce7d2e-730d-4e01-b1ce-981f589be696"},"vehicle_type_id":"4","last_reported":1774045020,"current_range_meters":4800,"station_id":"ce4bhp92rcd13ifvqhcg","pricing_plan_id":"cebpf4jnsgd1na2vs0mg"},{"bike_id":"1d1f4f3e-939d-4e96-933d-78046ecbc880","system_id":"levelo_inurba_marseille","lat":43.2731,"lon":5.39108,"is_reserved":false,"is_disabled":false,"rental_uris":{"android":"levelo://app?vid=1d1f4f3e-939d-4e96-933d-78046ecbc880","ios":"levelo://app?vid=1d1f4f3e-939d-4e96-933d-78046ecbc880"},"vehicle_type_id":"4","last_reported":1774045020,"current_range_meters":4800,"station_id":"","pricing_plan_id":"cebpf4jnsgd1na2vs0mg"},{"bike_id":"c48440d7-f4d5-4be3-a842-7dc1a317748e","system_id":"levelo_inurba_marseille","lat":43.33937,"lon":5.35721,"is_reserved":false,"is_disabled":false,"rental_uris":{"android":"levelo://app?vid=c48440d7-f4d5-4be3-a842-7dc1a317748e","ios":"levelo://app?vid=c48440d7-f4d5-4be3-a842-7dc1a317748e"},"vehicle_type_id":"4","last_reported":1774045020,"current_range_meters":4800,"station_id":"","pricing_plan_id":"cebpf4jnsgd1na2vs0mg"},{"bike_id":"83895c67-457e-4fba-842c-b3245f7ba648","system_id":"levelo_inurba_marseille","lat":43.28038,"lon":5.3695,"is_reserved":false,"is_disabled":false,"rental_uris":{"android":"levelo://app?vid=83895c67-457e-4fba-842c-b3245f7ba648","ios":"levelo://app?vid=83895c67-457e-4fba-842c-b3245f7ba648"},"vehicle_type_id":"4","last_reported":1774045020,"current_range_meters":5600,"station_id":"ce4bha12rcd13ifvqef0","pricing_plan_id":"cebpf4jnsgd1na2vs0mg"},{"bike_id":"c0af0d2d-ef19-456a-8a0f-587d767ce3c1","system_id":"levelo_inurba_marseille","lat":43.28947,"lon":5.36616,"is_reserved":false,"is_disabled":false,"rental_uris":{"android":"levelo://app?vid=c0af0d2d-ef19-456a-8a0f-587d767ce3c1","ios":"levelo://app?vid=c0af0d2d-ef19-456a-8a0f-587d767ce3c1"},"vehicle_type_id":"4","last_reported":1774045020,"current_range_meters":5600,"station_id":"ce4bhap2rcd13ifvqek0","pricing_plan_id":"cebpf4jnsgd1na2vs0mg"},{"bike_id":"ac4ca0f2-f5c2-4c9c-81db-9f7b20e89d0c","system_id":"levelo_inurba_marseille","lat":43.28539,"lon":5.44124,"is_reserved":false,"is_disabled":true,"rental_uris":{"android":"levelo://app?vid=ac4ca0f2-f5c2-4c9c-81db-9f7b20e89d0c","ios":"levelo://app?vid=ac4ca0f2-f5c2-4c9c-81db-9f7b20e89d0c"},"vehicle_type_id":"4","last_reported":1774045020,"current_range_meters":5600,"station_id":"st_d3j3df2ikq2c7380ej80","pricing_plan_id":"cebpf4jnsgd1na2vs0mg"},{"bike_id":"f8d7c434-15ee-4d5e-8dab-8c6fc987ab2d","system_id":"levelo_inurba_marseille","lat":43.2677,"lon":5.39421,"is_reserved":false,"is_disabled":false,"rental_uris":{"android":"levelo://app?vid=f8d7c434-15ee-4d5e-8dab-8c6fc987ab2d","ios":"levelo://app?vid=f8d7c434-15ee-4d5e-8dab-8c6fc987ab2d"},"vehicle_type_id":"4","last_reported":1774045020,"current_range_meters":5600,"station_id":"ce4bhh12rcd13ifvqfg0","pricing_plan_id":"cebpf4jnsgd1na2vs0mg"},{"bike_id":"dddb7d38-8dcd-4a5e-ba60-8008bea6825d","system_id":"levelo_inurba_marseille","lat":43.30255,"lon":5.4008,"is_reserved":false,"is_disabled":false,"rental_uris":{"android":"levelo://app?vid=dddb7d38-8dcd-4a5e-ba60-8008bea6825d","ios":"levelo://app?vid=dddb7d38-8dcd-4a5e-ba60-8008bea6825d"},"vehicle_type_id":"4","last_reported":1774045020,"current_range_meters":5600,"station_id":"ce4bgvh2rcd13ifvqcs0","pricing_plan_id":"cebpf4jnsgd1na2vs0mg"},{"bike_id":"0d2d9dd2-dbd4-45e5-8442-f85548373bb5","system_id":"levelo_inurba_marseille","lat":43.31352,"lon":5.38493,"is_reserved":false,"is_disabled":false,"rental_uris":{"android":"levelo://app?vid=0d2d9dd2-dbd4-45e5-8442-f85548373bb5","ios":"levelo://app?vid=0d2d9dd2-dbd4-45e5-8442-f85548373bb5"},"vehicle_type_id":"4","last_reported":1774045020,"current_range_meters":5600,"station_id":"ce4bgt92rcd13ifvqcf0","pricing_plan_id":"cebpf4jnsgd1na2vs0mg"},{"bike_id":"dbcffa65-eeba-44e0-9962-69bf32642124","system_id":"levelo_inurba_marseille","lat":43.3029,"lon":5.39219,"is_reserved":false,"is_disabled":false,"rental_uris":{"android":"levelo://app?vid=dbcffa65-eeba-44e0-9962-69bf32642124","ios":"levelo://app?vid=dbcffa65-eeba-44e0-9962-69bf32642124"},"vehicle_type_id":"4","last_reported":1774045020,"current_range_meters":5600,"station_id":"ce4bgkh2rcd13ifvqbk0","pricing_plan_id":"cebpf4jnsgd1na2vs0mg"},{"bike_id":"eb16a777-6452-4a3d-82a8-3665e2ca5ee1","system_id":"levelo_inurba_marseille","lat":43.29034,"lon":5.38639,"is_reserved":false,"is_disabled":false,"rental_uris":{"android":"levelo://app?vid=eb16a777-6452-4a3d-82a8-3665e2ca5ee1","ios":"levelo://app?vid=eb16a777-6452-4a3d-82a8-3665e2ca5ee1"},"vehicle_type_id":"4","last_reported":1774045020,"current_range_meters":5600,"station_id":"ce4bh4p2rcd13ifvqe0g","pricing_plan_id":"cebpf4jnsgd1na2vs0mg"},{"bike_id":"31caa62d-cb2c-42fd-aa8e-1e9ca230fd55","system_id":"levelo_inurba_marseille","lat":43.28025,"lon":5.36948,"is_reserved":false,"is_disabled":false,"rental_uris":{"android":"levelo://app?vid=31caa62d-cb2c-42fd-aa8e-1e9ca230fd55","ios":"levelo://app?vid=31caa62d-cb2c-42fd-aa8e-1e9ca230fd55"},"vehicle_type_id":"4","last_reported":1774045020,"current_range_meters":5600,"station_id":"ce4bha12rcd13ifvqef0","pricing_plan_id":"cebpf4jnsgd1na2vs0mg"},{"bike_id":"6f6535f6-3f97-4cfa-9083-ebdb5774a730","system_id":"levelo_inurba_marseille","lat":43.29964,"lon":5.38494,"is_reserved":false,"is_disabled":false,"rental_uris":{"android":"levelo://app?vid=6f6535f6-3f97-4cfa-9083-ebdb5774a730","ios":"levelo://app?vid=6f6535f6-3f97-4cfa-9083-ebdb5774a730"},"vehicle_type_id":"4","last_reported":1774045020,"current_range_meters":5600,"station_id":"ce4bgj92rcd13ifvqbd0","pricing_plan_id":"cebpf4jnsgd1na2vs0mg"},{"bike_id":"f35291ea-a517-45e6-bccf-54011aa5a0ff","system_id":"levelo_inurba_marseille","lat":43.28018,"lon":5.36953,"is_reserved":false,"is_disabled":false,"rental_uris":{"android":"levelo://app?vid=f35291ea-a517-45e6-bccf-54011aa5a0ff","ios":"levelo://app?vid=f35291ea-a517-45e6-bccf-54011aa5a0ff"},"vehicle_type_id":"4","last_reported":1774045020,"current_range_meters":5600,"station_id":"ce4bha12rcd13ifvqef0","pricing_plan_id":"cebpf4jnsgd1na2vs0mg"},{"bike_id":"119d24bc-e3dd-4e47-a0b9-64bbbcc5b1ee","system_id":"levelo_inurba_marseille","lat":43.21746,"lon":5.34601,"is_reserved":false,"is_disabled":true,"rental_uris":{"android":"levelo://app?vid=119d24bc-e3dd-4e47-a0b9-64bbbcc5b1ee","ios":"levelo://app?vid=119d24bc-e3dd-4e47-a0b9-64bbbcc5b1ee"},"vehicle_type_id":"4","last_reported":1774045020,"current_range_meters":5600,"station_id":"st_cvj6r9ubvosntc0bgbag","pricing_plan_id":"cebpf4jnsgd1na2vs0mg"},{"bike_id":"ba2f8fd0-11ac-4347-b470-23519177c832","system_id":"levelo_inurba_marseille","lat":43.29812,"lon":5.44058,"is_reserved":false,"is_disabled":false,"rental_uris":{"android":"levelo://app?vid=ba2f8fd0-11ac-4347-b470-23519177c832","ios":"levelo://app?vid=ba2f8fd0-11ac-4347-b470-23519177c832"},"vehicle_type_id":"4","last_reported":1774045020,"current_range_meters":5600,"station_id":"st_d3jp68qikq2c7381ktn0","pricing_plan_id":"cebpf4jnsgd1na2vs0mg"},{"bike_id":"a41de53c-a6b7-4218-a883-add34022c124","system_id":"levelo_inurba_marseille","lat":43.24805,"lon":5.37451,"is_reserved":false,"is_disabled":false,"rental_uris":{"android":"levelo://app?vid=a41de53c-a6b7-4218-a883-add34022c124","ios":"levelo://app?vid=a41de53c-a6b7-4218-a883-add34022c124"},"vehicle_type_id":"4","last_reported":1774045020,"current_range_meters":5600,"station_id":"ce4bhgh2rcd13ifvqfb0","pricing_plan_id":"cebpf4jnsgd1na2vs0mg"},{"bike_id":"3c76fb79-92b3-4803-a35d-7a9a81d21794","system_id":"levelo_inurba_marseille","lat":43.22938,"lon":5.35363,"is_reserved":false,"is_disabled":false,"rental_uris":{"android":"levelo://app?vid=3c76fb79-92b3-4803-a35d-7a9a81d21794","ios":"levelo://app?vid=3c76fb79-92b3-4803-a35d-7a9a81d21794"},"vehicle_type_id":"4","last_reported":1774045020,"current_range_meters":5600,"station_id":"cpo3532slgdg3j2ikp40","pricing_plan_id":"cebpf4jnsgd1na2vs0mg"},{"bike_id":"6af48b78-9264-46e8-acef-b91c65aa129d","system_id":"levelo_inurba_marseille","lat":43.29251,"lon":5.38438,"is_reserved":false,"is_disabled":false,"rental_uris":{"android":"levelo://app?vid=6af48b78-9264-46e8-acef-b91c65aa129d","ios":"levelo://app?vid=6af48b78-9264-46e8-acef-b91c65aa129d"},"vehicle_type_id":"4","last_reported":1774045020,"current_range_meters":5600,"station_id":"ce4bh692rcd13ifvqea0","pricing_plan_id":"cebpf4jnsgd1na2vs0mg"},{"bike_id":"74ebb480-171b-43e5-b0fc-ba46b71dee8d","system_id":"levelo_inurba_marseille","lat":43.25348,"lon":5.42197,"is_reserved":false,"is_disabled":true,"rental_uris":{"android":"levelo://app?vid=74ebb480-171b-43e5-b0fc-ba46b71dee8d","ios":"levelo://app?vid=74ebb480-171b-43e5-b0fc-ba46b71dee8d"},"vehicle_type_id":"4","last_reported":1774045020,"current_range_meters":5600,"station_id":"st_d2m65c5bi1j21697t3ng","pricing_plan_id":"cebpf4jnsgd1na2vs0mg"},{"bike_id":"2f25180c-d604-427d-a094-e0c4d1040987","system_id":"levelo_inurba_marseille","lat":43.29295,"lon":5.38364,"is_reserved":false,"is_disabled":false,"rental_uris":{"android":"levelo://app?vid=2f25180c-d604-427d-a094-e0c4d1040987","ios":"levelo://app?vid=2f25180c-d604-427d-a094-e0c4d1040987"},"vehicle_type_id":"4","last_reported":1774045020,"current_range_meters":5600,"station_id":"","pricing_plan_id":"cebpf4jnsgd1na2vs0mg"},{"bike_id":"69764ffb-a2a8-40c2-b881-193bb8aef64e","system_id":"levelo_inurba_marseille","lat":43.29275,"lon":5.37181,"is_reserved":false,"is_disabled":false,"rental_uris":{"android":"levelo://app?vid=69764ffb-a2a8-40c2-b881-193bb8aef64e","ios":"levelo://app?vid=69764ffb-a2a8-40c2-b881-193bb8aef64e"},"vehicle_type_id":"4","last_reported":1774045020,"current_range_meters":6000,"station_id":"ce4bgh92rcd13ifvqb40","pricing_plan_id":"cebpf4jnsgd1na2vs0mg"},{"bike_id":"70031882-8c5b-43da-a6de-fb603c84534c","system_id":"levelo_inurba_marseille","lat":43.28155,"lon":5.42614,"is_reserved":false,"is_disabled":false,"rental_uris":{"android":"levelo://app?vid=70031882-8c5b-43da-a6de-fb603c84534c","ios":"levelo://app?vid=70031882-8c5b-43da-a6de-fb603c84534c"},"vehicle_type_id":"4","last_reported":1774045020,"current_range_meters":6000,"station_id":"ce4bhnh2rcd13ifvqgug","pricing_plan_id":"cebpf4jnsgd1na2vs0mg"},{"bike_id":"ac892ece-8dac-4a9f-b241-0cfa093a6b78","system_id":"levelo_inurba_marseille","lat":43.3054,"lon":5.36711,"is_reserved":false,"is_disabled":false,"rental_uris":{"android":"levelo://app?vid=ac892ece-8dac-4a9f-b241-0cfa093a6b78","ios":"levelo://app?vid=ac892ece-8dac-4a9f-b241-0cfa093a6b78"},"vehicle_type_id":"4","last_reported":1774045020,"current_range_meters":6000,"station_id":"ce4bgrp2rcd13ifvqc9g","pricing_plan_id":"cebpf4jnsgd1na2vs0mg"},{"bike_id":"3e5c7bdb-60ee-4795-a793-9681791a8e87","system_id":"levelo_inurba_marseille","lat":43.29757,"lon":5.42779,"is_reserved":false,"is_disabled":false,"rental_uris":{"android":"levelo://app?vid=3e5c7bdb-60ee-4795-a793-9681791a8e87","ios":"levelo://app?vid=3e5c7bdb-60ee-4795-a793-9681791a8e87"},"vehicle_type_id":"4","last_reported":1774045020,"current_range_meters":6000,"station_id":"st_d3md5207bmas73dh9klg","pricing_plan_id":"cebpf4jnsgd1na2vs0mg"},{"bike_id":"1ec3cd1d-f4d8-473b-a9c9-db4969bcb60c","system_id":"levelo_inurba_marseille","lat":43.29527,"lon":5.38545,"is_reserved":false,"is_disabled":false,"rental_uris":{"android":"levelo://app?vid=1ec3cd1d-f4d8-473b-a9c9-db4969bcb60c","ios":"levelo://app?vid=1ec3cd1d-f4d8-473b-a9c9-db4969bcb60c"},"vehicle_type_id":"4","last_reported":1774045020,"current_range_meters":6000,"station_id":"ce4bgih2rcd13ifvqba0","pricing_plan_id":"cebpf4jnsgd1na2vs0mg"},{"bike_id":"92512826-2e37-45f1-9150-ff6204628399","system_id":"levelo_inurba_marseille","lat":43.24995,"lon":5.38928,"is_reserved":false,"is_disabled":false,"rental_uris":{"android":"levelo://app?vid=92512826-2e37-45f1-9150-ff6204628399","ios":"levelo://app?vid=92512826-2e37-45f1-9150-ff6204628399"},"vehicle_type_id":"4","last_reported":1774045020,"current_range_meters":6000,"station_id":"ce4bhgp2rcd13ifvqfd0","pricing_plan_id":"cebpf4jnsgd1na2vs0mg"},{"bike_id":"29ceb06a-4df8-4e2a-9dd9-b070e185b37f","system_id":"levelo_inurba_marseille","lat":43.28498,"lon":5.48396,"is_reserved":false,"is_disabled":false,"rental_uris":{"android":"levelo://app?vid=29ceb06a-4df8-4e2a-9dd9-b070e185b37f","ios":"levelo://app?vid=29ceb06a-4df8-4e2a-9dd9-b070e185b37f"},"vehicle_type_id":"4","last_reported":1774045020,"current_range_meters":6000,"station_id":"","pricing_plan_id":"cebpf4jnsgd1na2vs0mg"},{"bike_id":"c142af26-b83c-4aa3-ab8b-699576493d34","system_id":"levelo_inurba_marseille","lat":43.21205,"lon":5.35081,"is_reserved":false,"is_disabled":true,"rental_uris":{"android":"levelo://app?vid=c142af26-b83c-4aa3-ab8b-699576493d34","ios":"levelo://app?vid=c142af26-b83c-4aa3-ab8b-699576493d34"},"vehicle_type_id":"4","last_reported":1774045020,"current_range_meters":6000,"station_id":"st_cvj6sg6p6f1abm77japg","pricing_plan_id":"cebpf4jnsgd1na2vs0mg"},{"bike_id":"29705345-7a8e-4bdd-8b65-5ba8856c877f","system_id":"levelo_inurba_marseille","lat":43.303,"lon":5.44964,"is_reserved":false,"is_disabled":false,"rental_uris":{"android":"levelo://app?vid=29705345-7a8e-4bdd-8b65-5ba8856c877f","ios":"levelo://app?vid=29705345-7a8e-4bdd-8b65-5ba8856c877f"},"vehicle_type_id":"4","last_reported":1774045020,"current_range_meters":6000,"station_id":"","pricing_plan_id":"cebpf4jnsgd1na2vs0mg"},{"bike_id":"428ffd06-b4c4-423f-b91b-d51225a48c2d","system_id":"levelo_inurba_marseille","lat":43.26374,"lon":5.41075,"is_reserved":false,"is_disabled":false,"rental_uris":{"android":"levelo://app?vid=428ffd06-b4c4-423f-b91b-d51225a48c2d","ios":"levelo://app?vid=428ffd06-b4c4-423f-b91b-d51225a48c2d"},"vehicle_type_id":"4","last_reported":1774045020,"current_range_meters":6000,"station_id":"st_d4e5ca6na9uc73bfl5fg","pricing_plan_id":"cebpf4jnsgd1na2vs0mg"},{"bike_id":"23c209c6-7d3c-4387-b04a-03a2b9a72d01","system_id":"levelo_inurba_marseille","lat":43.2838,"lon":5.43258,"is_reserved":false,"is_disabled":false,"rental_uris":{"android":"levelo://app?vid=23c209c6-7d3c-4387-b04a-03a2b9a72d01","ios":"levelo://app?vid=23c209c6-7d3c-4387-b04a-03a2b9a72d01"},"vehicle_type_id":"4","last_reported":1774045020,"current_range_meters":6000,"station_id":"","pricing_plan_id":"cebpf4jnsgd1na2vs0mg"},{"bike_id":"3d8b9441-846b-4bc6-a99f-7538b53156c2","system_id":"levelo_inurba_marseille","lat":43.29781,"lon":5.3811,"is_reserved":false,"is_disabled":true,"rental_uris":{"android":"levelo://app?vid=3d8b9441-846b-4bc6-a99f-7538b53156c2","ios":"levelo://app?vid=3d8b9441-846b-4bc6-a99f-7538b53156c2"},"vehicle_type_id":"4","last_reported":1774045020,"current_range_meters":6400,"station_id":"ce4bgip2rcd13ifvqbb0","pricing_plan_id":"cebpf4jnsgd1na2vs0mg"},{"bike_id":"a775511c-9985-4a58-8c4c-775aad7f3e36","system_id":"levelo_inurba_marseille","lat":43.29891,"lon":5.43647,"is_reserved":false,"is_disabled":false,"rental_uris":{"android":"levelo://app?vid=a775511c-9985-4a58-8c4c-775aad7f3e36","ios":"levelo://app?vid=a775511c-9985-4a58-8c4c-775aad7f3e36"},"vehicle_type_id":"4","last_reported":1774045020,"current_range_meters":6400,"station_id":"ce4bhpp2rcd13ifvqhfg","pricing_plan_id":"cebpf4jnsgd1na2vs0mg"},{"bike_id":"5c37a49c-ab60-4c11-8a61-6592ff444186","system_id":"levelo_inurba_marseille","lat":43.27908,"lon":5.39175,"is_reserved":false,"is_disabled":false,"rental_uris":{"android":"levelo://app?vid=5c37a49c-ab60-4c11-8a61-6592ff444186","ios":"levelo://app?vid=5c37a49c-ab60-4c11-8a61-6592ff444186"},"vehicle_type_id":"4","last_reported":1774045020,"current_range_meters":6400,"station_id":"","pricing_plan_id":"cebpf4jnsgd1na2vs0mg"},{"bike_id":"d99c0162-f6d1-4d2c-acef-490ddcd63ab1","system_id":"levelo_inurba_marseille","lat":43.28974,"lon":5.37851,"is_reserved":false,"is_disabled":false,"rental_uris":{"android":"levelo://app?vid=d99c0162-f6d1-4d2c-acef-490ddcd63ab1","ios":"levelo://app?vid=d99c0162-f6d1-4d2c-acef-490ddcd63ab1"},"vehicle_type_id":"4","last_reported":1774045020,"current_range_meters":6400,"station_id":"ce4bh9p2rcd13ifvqed0","pricing_plan_id":"cebpf4jnsgd1na2vs0mg"},{"bike_id":"6a9ca49c-f0f4-4bcd-919e-ec1e27145b2c","system_id":"levelo_inurba_marseille","lat":43.2926,"lon":5.38475,"is_reserved":false,"is_disabled":false,"rental_uris":{"android":"levelo://app?vid=6a9ca49c-f0f4-4bcd-919e-ec1e27145b2c","ios":"levelo://app?vid=6a9ca49c-f0f4-4bcd-919e-ec1e27145b2c"},"vehicle_type_id":"4","last_reported":1774045020,"current_range_meters":6400,"station_id":"ce4bh692rcd13ifvqea0","pricing_plan_id":"cebpf4jnsgd1na2vs0mg"},{"bike_id":"8be59371-1fa5-4c0b-8d12-9975f2b102b6","system_id":"levelo_inurba_marseille","lat":43.23154,"lon":5.43701,"is_reserved":false,"is_disabled":false,"rental_uris":{"android":"levelo://app?vid=8be59371-1fa5-4c0b-8d12-9975f2b102b6","ios":"levelo://app?vid=8be59371-1fa5-4c0b-8d12-9975f2b102b6"},"vehicle_type_id":"4","last_reported":1774045020,"current_range_meters":6400,"station_id":"ce4bhmp2rcd13ifvqgog","pricing_plan_id":"cebpf4jnsgd1na2vs0mg"},{"bike_id":"5ea68d44-1982-470b-b617-05246700513c","system_id":"levelo_inurba_marseille","lat":43.313457,"lon":5.367051,"is_reserved":false,"is_disabled":false,"rental_uris":{"android":"levelo://app?vid=5ea68d44-1982-470b-b617-05246700513c","ios":"levelo://app?vid=5ea68d44-1982-470b-b617-05246700513c"},"vehicle_type_id":"4","last_reported":1774045020,"current_range_meters":6400,"station_id":"ce4bgr92rcd13ifvqc6g","pricing_plan_id":"cebpf4jnsgd1na2vs0mg"},{"bike_id":"f5988ba5-f6de-430e-82fd-7c47ebd930da","system_id":"levelo_inurba_marseille","lat":43.30786,"lon":5.3765,"is_reserved":false,"is_disabled":false,"rental_uris":{"android":"levelo://app?vid=f5988ba5-f6de-430e-82fd-7c47ebd930da","ios":"levelo://app?vid=f5988ba5-f6de-430e-82fd-7c47ebd930da"},"vehicle_type_id":"4","last_reported":1774045020,"current_range_meters":6400,"station_id":"ce4bgv92rcd13ifvqcq0","pricing_plan_id":"cebpf4jnsgd1na2vs0mg"},{"bike_id":"e5eba928-e3a4-441b-9540-937747ee47b9","system_id":"levelo_inurba_marseille","lat":43.22565,"lon":5.4162,"is_reserved":false,"is_disabled":false,"rental_uris":{"android":"levelo://app?vid=e5eba928-e3a4-441b-9540-937747ee47b9","ios":"levelo://app?vid=e5eba928-e3a4-441b-9540-937747ee47b9"},"vehicle_type_id":"4","last_reported":1774045020,"current_range_meters":6400,"station_id":"st_d2o4gvlbi1j2169b742g","pricing_plan_id":"cebpf4jnsgd1na2vs0mg"},{"bike_id":"a1ce7f88-8f8c-48ff-bc8b-8021c61764ea","system_id":"levelo_inurba_marseille","lat":43.33542,"lon":5.37467,"is_reserved":false,"is_disabled":false,"rental_uris":{"android":"levelo://app?vid=a1ce7f88-8f8c-48ff-bc8b-8021c61764ea","ios":"levelo://app?vid=a1ce7f88-8f8c-48ff-bc8b-8021c61764ea"},"vehicle_type_id":"4","last_reported":1774045020,"current_range_meters":6400,"station_id":"st_d46tts09ee8s73dlu43g","pricing_plan_id":"cebpf4jnsgd1na2vs0mg"},{"bike_id":"f328e3b6-a38c-49fe-80e0-c552630893a5","system_id":"levelo_inurba_marseille","lat":43.22925,"lon":5.35368,"is_reserved":false,"is_disabled":false,"rental_uris":{"android":"levelo://app?vid=f328e3b6-a38c-49fe-80e0-c552630893a5","ios":"levelo://app?vid=f328e3b6-a38c-49fe-80e0-c552630893a5"},"vehicle_type_id":"4","last_reported":1774045020,"current_range_meters":6800,"station_id":"cpo3532slgdg3j2ikp40","pricing_plan_id":"cebpf4jnsgd1na2vs0mg"},{"bike_id":"ec805567-1bc2-4aa0-9a36-661edaf8b31c","system_id":"levelo_inurba_marseille","lat":43.29228,"lon":5.39221,"is_reserved":false,"is_disabled":false,"rental_uris":{"android":"levelo://app?vid=ec805567-1bc2-4aa0-9a36-661edaf8b31c","ios":"levelo://app?vid=ec805567-1bc2-4aa0-9a36-661edaf8b31c"},"vehicle_type_id":"4","last_reported":1774045020,"current_range_meters":6800,"station_id":"","pricing_plan_id":"cebpf4jnsgd1na2vs0mg"},{"bike_id":"89ad46cf-ad84-4e5e-be57-87ac2cebe69c","system_id":"levelo_inurba_marseille","lat":43.28523,"lon":5.48418,"is_reserved":false,"is_disabled":false,"rental_uris":{"android":"levelo://app?vid=89ad46cf-ad84-4e5e-be57-87ac2cebe69c","ios":"levelo://app?vid=89ad46cf-ad84-4e5e-be57-87ac2cebe69c"},"vehicle_type_id":"4","last_reported":1774045020,"current_range_meters":6800,"station_id":"st_d3svhcjqgbts73a3dn0g","pricing_plan_id":"cebpf4jnsgd1na2vs0mg"},{"bike_id":"ee8f6c89-9541-42d8-9000-f58952549a0c","system_id":"levelo_inurba_marseille","lat":43.30268,"lon":5.37723,"is_reserved":false,"is_disabled":false,"rental_uris":{"android":"levelo://app?vid=ee8f6c89-9541-42d8-9000-f58952549a0c","ios":"levelo://app?vid=ee8f6c89-9541-42d8-9000-f58952549a0c"},"vehicle_type_id":"4","last_reported":1774045020,"current_range_meters":6800,"station_id":"ce4bguh2rcd13ifvqcj0","pricing_plan_id":"cebpf4jnsgd1na2vs0mg"},{"bike_id":"4e863406-68b4-4983-85a4-8459dc5cf74d","system_id":"levelo_inurba_marseille","lat":43.28406,"lon":5.37513,"is_reserved":false,"is_disabled":false,"rental_uris":{"android":"levelo://app?vid=4e863406-68b4-4983-85a4-8459dc5cf74d","ios":"levelo://app?vid=4e863406-68b4-4983-85a4-8459dc5cf74d"},"vehicle_type_id":"4","last_reported":1774045020,"current_range_meters":6800,"station_id":"ce4bh412rcd13ifvqds0","pricing_plan_id":"cebpf4jnsgd1na2vs0mg"},{"bike_id":"a64b95c8-271e-4874-aa81-5010c1cc45d0","system_id":"levelo_inurba_marseille","lat":43.29262,"lon":5.40107,"is_reserved":false,"is_disabled":false,"rental_uris":{"android":"levelo://app?vid=a64b95c8-271e-4874-aa81-5010c1cc45d0","ios":"levelo://app?vid=a64b95c8-271e-4874-aa81-5010c1cc45d0"},"vehicle_type_id":"4","last_reported":1774045020,"current_range_meters":6800,"station_id":"ce4bh312rcd13ifvqdk0","pricing_plan_id":"cebpf4jnsgd1na2vs0mg"},{"bike_id":"d4bdd173-78c7-4a96-b0a8-c9b4c4e56d68","system_id":"levelo_inurba_marseille","lat":43.28422,"lon":5.37509,"is_reserved":false,"is_disabled":true,"rental_uris":{"android":"levelo://app?vid=d4bdd173-78c7-4a96-b0a8-c9b4c4e56d68","ios":"levelo://app?vid=d4bdd173-78c7-4a96-b0a8-c9b4c4e56d68"},"vehicle_type_id":"4","last_reported":1774045020,"current_range_meters":7200,"station_id":"ce4bh412rcd13ifvqds0","pricing_plan_id":"cebpf4jnsgd1na2vs0mg"},{"bike_id":"cb35b956-4400-4517-a338-c40c59225904","system_id":"levelo_inurba_marseille","lat":43.31274,"lon":5.40156,"is_reserved":false,"is_disabled":false,"rental_uris":{"android":"levelo://app?vid=cb35b956-4400-4517-a338-c40c59225904","ios":"levelo://app?vid=cb35b956-4400-4517-a338-c40c59225904"},"vehicle_type_id":"4","last_reported":1774045020,"current_range_meters":7200,"station_id":"ce4bh092rcd13ifvqd30","pricing_plan_id":"cebpf4jnsgd1na2vs0mg"},{"bike_id":"53f48266-4564-420b-96ab-d243233055dc","system_id":"levelo_inurba_marseille","lat":43.28475,"lon":5.48395,"is_reserved":false,"is_disabled":false,"rental_uris":{"android":"levelo://app?vid=53f48266-4564-420b-96ab-d243233055dc","ios":"levelo://app?vid=53f48266-4564-420b-96ab-d243233055dc"},"vehicle_type_id":"4","last_reported":1774045020,"current_range_meters":7200,"station_id":"","pricing_plan_id":"cebpf4jnsgd1na2vs0mg"},{"bike_id":"0f699794-8202-4161-a052-1d39a341c5fa","system_id":"levelo_inurba_marseille","lat":43.31171,"lon":5.38729,"is_reserved":false,"is_disabled":true,"rental_uris":{"android":"levelo://app?vid=0f699794-8202-4161-a052-1d39a341c5fa","ios":"levelo://app?vid=0f699794-8202-4161-a052-1d39a341c5fa"},"vehicle_type_id":"4","last_reported":1774045020,"current_range_meters":7200,"station_id":"ce4bgv12rcd13ifvqcp0","pricing_plan_id":"cebpf4jnsgd1na2vs0mg"},{"bike_id":"0a4ebb20-b1b2-4c96-ab45-660b0030c07d","system_id":"levelo_inurba_marseille","lat":43.29519,"lon":5.37505,"is_reserved":false,"is_disabled":false,"rental_uris":{"android":"levelo://app?vid=0a4ebb20-b1b2-4c96-ab45-660b0030c07d","ios":"levelo://app?vid=0a4ebb20-b1b2-4c96-ab45-660b0030c07d"},"vehicle_type_id":"4","last_reported":1774045020,"current_range_meters":7200,"station_id":"ce4bgkp2rcd13ifvqbmg","pricing_plan_id":"cebpf4jnsgd1na2vs0mg"},{"bike_id":"0229787f-3585-41fd-a359-a19c5bd305b9","system_id":"levelo_inurba_marseille","lat":43.28957,"lon":5.37898,"is_reserved":false,"is_disabled":false,"rental_uris":{"android":"levelo://app?vid=0229787f-3585-41fd-a359-a19c5bd305b9","ios":"levelo://app?vid=0229787f-3585-41fd-a359-a19c5bd305b9"},"vehicle_type_id":"4","last_reported":1774045020,"current_range_meters":7200,"station_id":"","pricing_plan_id":"cebpf4jnsgd1na2vs0mg"},{"bike_id":"e7bfe124-6bd5-429f-868e-470e45ebe762","system_id":"levelo_inurba_marseille","lat":43.31488,"lon":5.36722,"is_reserved":false,"is_disabled":false,"rental_uris":{"android":"levelo://app?vid=e7bfe124-6bd5-429f-868e-470e45ebe762","ios":"levelo://app?vid=e7bfe124-6bd5-429f-868e-470e45ebe762"},"vehicle_type_id":"4","last_reported":1774045020,"current_range_meters":7200,"station_id":"","pricing_plan_id":"cebpf4jnsgd1na2vs0mg"},{"bike_id":"7fa64d84-cd92-4f02-a79d-c348b129b15f","system_id":"levelo_inurba_marseille","lat":43.24164,"lon":5.3641,"is_reserved":false,"is_disabled":false,"rental_uris":{"android":"levelo://app?vid=7fa64d84-cd92-4f02-a79d-c348b129b15f","ios":"levelo://app?vid=7fa64d84-cd92-4f02-a79d-c348b129b15f"},"vehicle_type_id":"4","last_reported":1774045020,"current_range_meters":7200,"station_id":"cpo36qri1sfpv3e86is0","pricing_plan_id":"cebpf4jnsgd1na2vs0mg"},{"bike_id":"0c744d67-74b3-4bed-8fa1-274d8c3afbea","system_id":"levelo_inurba_marseille","lat":43.23796,"lon":5.36643,"is_reserved":false,"is_disabled":false,"rental_uris":{"android":"levelo://app?vid=0c744d67-74b3-4bed-8fa1-274d8c3afbea","ios":"levelo://app?vid=0c744d67-74b3-4bed-8fa1-274d8c3afbea"},"vehicle_type_id":"4","last_reported":1774045020,"current_range_meters":7200,"station_id":"st_d3nk18o9ro0c73en2l3g","pricing_plan_id":"cebpf4jnsgd1na2vs0mg"},{"bike_id":"8c397955-edba-42df-9dfa-9ba38f0d58e7","system_id":"levelo_inurba_marseille","lat":43.2927,"lon":5.38431,"is_reserved":false,"is_disabled":false,"rental_uris":{"android":"levelo://app?vid=8c397955-edba-42df-9dfa-9ba38f0d58e7","ios":"levelo://app?vid=8c397955-edba-42df-9dfa-9ba38f0d58e7"},"vehicle_type_id":"4","last_reported":1774045020,"current_range_meters":7200,"station_id":"ce4bh692rcd13ifvqea0","pricing_plan_id":"cebpf4jnsgd1na2vs0mg"},{"bike_id":"a83ae69c-2b87-4e12-a424-c96a0c6311df","system_id":"levelo_inurba_marseille","lat":43.29619,"lon":5.37724,"is_reserved":false,"is_disabled":false,"rental_uris":{"android":"levelo://app?vid=a83ae69c-2b87-4e12-a424-c96a0c6311df","ios":"levelo://app?vid=a83ae69c-2b87-4e12-a424-c96a0c6311df"},"vehicle_type_id":"4","last_reported":1774045020,"current_range_meters":7200,"station_id":"ce4bgi92rcd13ifvqb90","pricing_plan_id":"cebpf4jnsgd1na2vs0mg"},{"bike_id":"07a793e5-f953-442a-81a4-34f9e905d0eb","system_id":"levelo_inurba_marseille","lat":43.33161,"lon":5.37684,"is_reserved":false,"is_disabled":false,"rental_uris":{"android":"levelo://app?vid=07a793e5-f953-442a-81a4-34f9e905d0eb","ios":"levelo://app?vid=07a793e5-f953-442a-81a4-34f9e905d0eb"},"vehicle_type_id":"4","last_reported":1774045020,"current_range_meters":7200,"station_id":"st_d46cu089ee8s73dldbu0","pricing_plan_id":"cebpf4jnsgd1na2vs0mg"},{"bike_id":"83675f3e-fe90-4bf0-8b69-f095eac9e73c","system_id":"levelo_inurba_marseille","lat":43.27063,"lon":5.42288,"is_reserved":false,"is_disabled":false,"rental_uris":{"android":"levelo://app?vid=83675f3e-fe90-4bf0-8b69-f095eac9e73c","ios":"levelo://app?vid=83675f3e-fe90-4bf0-8b69-f095eac9e73c"},"vehicle_type_id":"4","last_reported":1774045020,"current_range_meters":7200,"station_id":"ce4bhk92rcd13ifvqgb0","pricing_plan_id":"cebpf4jnsgd1na2vs0mg"},{"bike_id":"912e5f30-2e0b-48a9-85db-a984611241c9","system_id":"levelo_inurba_marseille","lat":43.29819,"lon":5.44144,"is_reserved":false,"is_disabled":false,"rental_uris":{"android":"levelo://app?vid=912e5f30-2e0b-48a9-85db-a984611241c9","ios":"levelo://app?vid=912e5f30-2e0b-48a9-85db-a984611241c9"},"vehicle_type_id":"4","last_reported":1774045020,"current_range_meters":8000,"station_id":"","pricing_plan_id":"cebpf4jnsgd1na2vs0mg"},{"bike_id":"63cda11a-b52e-45b3-9876-91b0e59b9a05","system_id":"levelo_inurba_marseille","lat":43.25821,"lon":5.39427,"is_reserved":false,"is_disabled":false,"rental_uris":{"android":"levelo://app?vid=63cda11a-b52e-45b3-9876-91b0e59b9a05","ios":"levelo://app?vid=63cda11a-b52e-45b3-9876-91b0e59b9a05"},"vehicle_type_id":"4","last_reported":1774045020,"current_range_meters":8000,"station_id":"ce4bhip2rcd13ifvqft0","pricing_plan_id":"cebpf4jnsgd1na2vs0mg"},{"bike_id":"e2420c11-4646-4145-aa2e-baedb91a43dc","system_id":"levelo_inurba_marseille","lat":43.32346,"lon":5.36738,"is_reserved":false,"is_disabled":false,"rental_uris":{"android":"levelo://app?vid=e2420c11-4646-4145-aa2e-baedb91a43dc","ios":"levelo://app?vid=e2420c11-4646-4145-aa2e-baedb91a43dc"},"vehicle_type_id":"4","last_reported":1774045020,"current_range_meters":8000,"station_id":"ce4bhsh2rcd13ifvqi2g","pricing_plan_id":"cebpf4jnsgd1na2vs0mg"},{"bike_id":"280960d4-564e-4c0a-b167-a44b4f0f3c47","system_id":"levelo_inurba_marseille","lat":43.2989,"lon":5.39738,"is_reserved":false,"is_disabled":true,"rental_uris":{"android":"levelo://app?vid=280960d4-564e-4c0a-b167-a44b4f0f3c47","ios":"levelo://app?vid=280960d4-564e-4c0a-b167-a44b4f0f3c47"},"vehicle_type_id":"4","last_reported":1774045020,"current_range_meters":8000,"station_id":"ce4bh0h2rcd13ifvqd50","pricing_plan_id":"cebpf4jnsgd1na2vs0mg"},{"bike_id":"4feca606-6ffb-4fe9-9b36-5fc6d5685e3e","system_id":"levelo_inurba_marseille","lat":43.29873,"lon":5.38895,"is_reserved":false,"is_disabled":false,"rental_uris":{"android":"levelo://app?vid=4feca606-6ffb-4fe9-9b36-5fc6d5685e3e","ios":"levelo://app?vid=4feca606-6ffb-4fe9-9b36-5fc6d5685e3e"},"vehicle_type_id":"4","last_reported":1774045020,"current_range_meters":8000,"station_id":"ce4bh392rcd13ifvqdl0","pricing_plan_id":"cebpf4jnsgd1na2vs0mg"},{"bike_id":"f12ce399-1654-48f8-a320-211fcab6582c","system_id":"levelo_inurba_marseille","lat":43.23759,"lon":5.3663,"is_reserved":false,"is_disabled":false,"rental_uris":{"android":"levelo://app?vid=f12ce399-1654-48f8-a320-211fcab6582c","ios":"levelo://app?vid=f12ce399-1654-48f8-a320-211fcab6582c"},"vehicle_type_id":"4","last_reported":1774045020,"current_range_meters":8000,"station_id":"st_d3nk18o9ro0c73en2l3g","pricing_plan_id":"cebpf4jnsgd1na2vs0mg"},{"bike_id":"d00ce6b1-d263-4644-9ac8-801c3d34ac19","system_id":"levelo_inurba_marseille","lat":43.22546,"lon":5.41645,"is_reserved":false,"is_disabled":false,"rental_uris":{"android":"levelo://app?vid=d00ce6b1-d263-4644-9ac8-801c3d34ac19","ios":"levelo://app?vid=d00ce6b1-d263-4644-9ac8-801c3d34ac19"},"vehicle_type_id":"4","last_reported":1774045020,"current_range_meters":8000,"station_id":"st_d2o4gvlbi1j2169b742g","pricing_plan_id":"cebpf4jnsgd1na2vs0mg"},{"bike_id":"8648ff3d-a49d-4491-be6c-bab3f9812603","system_id":"levelo_inurba_marseille","lat":43.28282,"lon":5.43842,"is_reserved":false,"is_disabled":false,"rental_uris":{"android":"levelo://app?vid=8648ff3d-a49d-4491-be6c-bab3f9812603","ios":"levelo://app?vid=8648ff3d-a49d-4491-be6c-bab3f9812603"},"vehicle_type_id":"4","last_reported":1774045020,"current_range_meters":8000,"station_id":"","pricing_plan_id":"cebpf4jnsgd1na2vs0mg"},{"bike_id":"e5442f07-fb15-4276-9252-55d9dab8a584","system_id":"levelo_inurba_marseille","lat":43.29023,"lon":5.38637,"is_reserved":false,"is_disabled":false,"rental_uris":{"android":"levelo://app?vid=e5442f07-fb15-4276-9252-55d9dab8a584","ios":"levelo://app?vid=e5442f07-fb15-4276-9252-55d9dab8a584"},"vehicle_type_id":"4","last_reported":1774045020,"current_range_meters":8000,"station_id":"ce4bh4p2rcd13ifvqe0g","pricing_plan_id":"cebpf4jnsgd1na2vs0mg"},{"bike_id":"eea5b844-b303-4614-bdb0-ae897dd307b5","system_id":"levelo_inurba_marseille","lat":43.2481,"lon":5.37454,"is_reserved":false,"is_disabled":false,"rental_uris":{"android":"levelo://app?vid=eea5b844-b303-4614-bdb0-ae897dd307b5","ios":"levelo://app?vid=eea5b844-b303-4614-bdb0-ae897dd307b5"},"vehicle_type_id":"4","last_reported":1774045020,"current_range_meters":8000,"station_id":"ce4bhgh2rcd13ifvqfb0","pricing_plan_id":"cebpf4jnsgd1na2vs0mg"},{"bike_id":"b3b3bb0b-fb2d-4490-a557-6f80b344e03f","system_id":"levelo_inurba_marseille","lat":43.28933,"lon":5.39628,"is_reserved":false,"is_disabled":true,"rental_uris":{"android":"levelo://app?vid=b3b3bb0b-fb2d-4490-a557-6f80b344e03f","ios":"levelo://app?vid=b3b3bb0b-fb2d-4490-a557-6f80b344e03f"},"vehicle_type_id":"4","last_reported":1774045020,"current_range_meters":8000,"station_id":"ce4bh3h2rcd13ifvqdn0","pricing_plan_id":"cebpf4jnsgd1na2vs0mg"},{"bike_id":"a8c8307b-e1e9-4950-a785-578e1a82f805","system_id":"levelo_inurba_marseille","lat":43.31286,"lon":5.37838,"is_reserved":false,"is_disabled":false,"rental_uris":{"android":"levelo://app?vid=a8c8307b-e1e9-4950-a785-578e1a82f805","ios":"levelo://app?vid=a8c8307b-e1e9-4950-a785-578e1a82f805"},"vehicle_type_id":"4","last_reported":1774045020,"current_range_meters":8000,"station_id":"","pricing_plan_id":"cebpf4jnsgd1na2vs0mg"},{"bike_id":"962e3e51-db50-4f61-a079-9b1c6a103eb5","system_id":"levelo_inurba_marseille","lat":43.30963,"lon":5.36814,"is_reserved":false,"is_disabled":false,"rental_uris":{"android":"levelo://app?vid=962e3e51-db50-4f61-a079-9b1c6a103eb5","ios":"levelo://app?vid=962e3e51-db50-4f61-a079-9b1c6a103eb5"},"vehicle_type_id":"4","last_reported":1774045020,"current_range_meters":8000,"station_id":"","pricing_plan_id":"cebpf4jnsgd1na2vs0mg"},{"bike_id":"cecf9ffc-edd4-4497-8db1-0430660dab43","system_id":"levelo_inurba_marseille","lat":43.26779,"lon":5.39407,"is_reserved":false,"is_disabled":false,"rental_uris":{"android":"levelo://app?vid=cecf9ffc-edd4-4497-8db1-0430660dab43","ios":"levelo://app?vid=cecf9ffc-edd4-4497-8db1-0430660dab43"},"vehicle_type_id":"4","last_reported":1774045020,"current_range_meters":8000,"station_id":"ce4bhh12rcd13ifvqfg0","pricing_plan_id":"cebpf4jnsgd1na2vs0mg"},{"bike_id":"15fb4bb8-4c0f-4ee3-a727-89e0f28d0a52","system_id":"levelo_inurba_marseille","lat":43.23791,"lon":5.36627,"is_reserved":false,"is_disabled":false,"rental_uris":{"android":"levelo://app?vid=15fb4bb8-4c0f-4ee3-a727-89e0f28d0a52","ios":"levelo://app?vid=15fb4bb8-4c0f-4ee3-a727-89e0f28d0a52"},"vehicle_type_id":"4","last_reported":1774045020,"current_range_meters":8000,"station_id":"st_d3nk18o9ro0c73en2l3g","pricing_plan_id":"cebpf4jnsgd1na2vs0mg"},{"bike_id":"2cea9d46-c32a-4a24-9abe-5dc099975957","system_id":"levelo_inurba_marseille","lat":43.28474,"lon":5.48416,"is_reserved":false,"is_disabled":false,"rental_uris":{"android":"levelo://app?vid=2cea9d46-c32a-4a24-9abe-5dc099975957","ios":"levelo://app?vid=2cea9d46-c32a-4a24-9abe-5dc099975957"},"vehicle_type_id":"4","last_reported":1774045020,"current_range_meters":8000,"station_id":"","pricing_plan_id":"cebpf4jnsgd1na2vs0mg"},{"bike_id":"2d9e4754-9b17-40b5-bbeb-5b1c9c5bbe64","system_id":"levelo_inurba_marseille","lat":43.30122,"lon":5.38785,"is_reserved":false,"is_disabled":true,"rental_uris":{"android":"levelo://app?vid=2d9e4754-9b17-40b5-bbeb-5b1c9c5bbe64","ios":"levelo://app?vid=2d9e4754-9b17-40b5-bbeb-5b1c9c5bbe64"},"vehicle_type_id":"4","last_reported":1774045020,"current_range_meters":8000,"station_id":"ce4bghh2rcd13ifvqb60","pricing_plan_id":"cebpf4jnsgd1na2vs0mg"},{"bike_id":"9bedb971-6887-4d43-88c8-1762430f453d","system_id":"levelo_inurba_marseille","lat":43.2466,"lon":5.38174,"is_reserved":false,"is_disabled":true,"rental_uris":{"android":"levelo://app?vid=9bedb971-6887-4d43-88c8-1762430f453d","ios":"levelo://app?vid=9bedb971-6887-4d43-88c8-1762430f453d"},"vehicle_type_id":"4","last_reported":1774045020,"current_range_meters":8000,"station_id":"ce4bhih2rcd13ifvqfr0","pricing_plan_id":"cebpf4jnsgd1na2vs0mg"},{"bike_id":"899859b7-4bf7-42c0-bd23-f17f3451c420","system_id":"levelo_inurba_marseille","lat":43.28021,"lon":5.36967,"is_reserved":false,"is_disabled":false,"rental_uris":{"android":"levelo://app?vid=899859b7-4bf7-42c0-bd23-f17f3451c420","ios":"levelo://app?vid=899859b7-4bf7-42c0-bd23-f17f3451c420"},"vehicle_type_id":"4","last_reported":1774045020,"current_range_meters":8000,"station_id":"ce4bha12rcd13ifvqef0","pricing_plan_id":"cebpf4jnsgd1na2vs0mg"},{"bike_id":"f1f05684-c35e-40ef-b486-2d99671c1d77","system_id":"levelo_inurba_marseille","lat":43.31162,"lon":5.38707,"is_reserved":false,"is_disabled":false,"rental_uris":{"android":"levelo://app?vid=f1f05684-c35e-40ef-b486-2d99671c1d77","ios":"levelo://app?vid=f1f05684-c35e-40ef-b486-2d99671c1d77"},"vehicle_type_id":"4","last_reported":1774045020,"current_range_meters":8000,"station_id":"ce4bgv12rcd13ifvqcp0","pricing_plan_id":"cebpf4jnsgd1na2vs0mg"},{"bike_id":"485d18ea-0249-4635-98bb-8652152de738","system_id":"levelo_inurba_marseille","lat":43.23791,"lon":5.36632,"is_reserved":false,"is_disabled":false,"rental_uris":{"android":"levelo://app?vid=485d18ea-0249-4635-98bb-8652152de738","ios":"levelo://app?vid=485d18ea-0249-4635-98bb-8652152de738"},"vehicle_type_id":"4","last_reported":1774045020,"current_range_meters":8000,"station_id":"st_d3nk18o9ro0c73en2l3g","pricing_plan_id":"cebpf4jnsgd1na2vs0mg"},{"bike_id":"bfcd297d-8eb3-4c95-ac63-338c1f23c812","system_id":"levelo_inurba_marseille","lat":43.26578,"lon":5.37289,"is_reserved":false,"is_disabled":false,"rental_uris":{"android":"levelo://app?vid=bfcd297d-8eb3-4c95-ac63-338c1f23c812","ios":"levelo://app?vid=bfcd297d-8eb3-4c95-ac63-338c1f23c812"},"vehicle_type_id":"4","last_reported":1774045020,"current_range_meters":8000,"station_id":"ce4bhg12rcd13ifvqf70","pricing_plan_id":"cebpf4jnsgd1na2vs0mg"},{"bike_id":"8cc8d51b-7625-45b7-9d62-db99636c3c2d","system_id":"levelo_inurba_marseille","lat":43.31276,"lon":5.40156,"is_reserved":false,"is_disabled":false,"rental_uris":{"android":"levelo://app?vid=8cc8d51b-7625-45b7-9d62-db99636c3c2d","ios":"levelo://app?vid=8cc8d51b-7625-45b7-9d62-db99636c3c2d"},"vehicle_type_id":"4","last_reported":1774045020,"current_range_meters":8000,"station_id":"ce4bh092rcd13ifvqd30","pricing_plan_id":"cebpf4jnsgd1na2vs0mg"},{"bike_id":"3d18bcea-12d0-49b7-b6ec-28e0853ad909","system_id":"levelo_inurba_marseille","lat":43.29533,"lon":5.38523,"is_reserved":false,"is_disabled":false,"rental_uris":{"android":"levelo://app?vid=3d18bcea-12d0-49b7-b6ec-28e0853ad909","ios":"levelo://app?vid=3d18bcea-12d0-49b7-b6ec-28e0853ad909"},"vehicle_type_id":"4","last_reported":1774045020,"current_range_meters":8000,"station_id":"ce4bgih2rcd13ifvqba0","pricing_plan_id":"cebpf4jnsgd1na2vs0mg"},{"bike_id":"c7ca3395-61a6-424a-8b4e-14bb7ddfa33a","system_id":"levelo_inurba_marseille","lat":43.30128,"lon":5.38779,"is_reserved":false,"is_disabled":true,"rental_uris":{"android":"levelo://app?vid=c7ca3395-61a6-424a-8b4e-14bb7ddfa33a","ios":"levelo://app?vid=c7ca3395-61a6-424a-8b4e-14bb7ddfa33a"},"vehicle_type_id":"4","last_reported":1774045020,"current_range_meters":8000,"station_id":"ce4bghh2rcd13ifvqb60","pricing_plan_id":"cebpf4jnsgd1na2vs0mg"},{"bike_id":"06472b73-b478-42b4-8bf4-c537388f6ec0","system_id":"levelo_inurba_marseille","lat":43.30804,"lon":5.38141,"is_reserved":false,"is_disabled":false,"rental_uris":{"android":"levelo://app?vid=06472b73-b478-42b4-8bf4-c537388f6ec0","ios":"levelo://app?vid=06472b73-b478-42b4-8bf4-c537388f6ec0"},"vehicle_type_id":"4","last_reported":1774045020,"current_range_meters":8000,"station_id":"ce4bgt12rcd13ifvqce0","pricing_plan_id":"cebpf4jnsgd1na2vs0mg"},{"bike_id":"df079794-d8c0-4802-b171-204716651f85","system_id":"levelo_inurba_marseille","lat":43.28706,"lon":5.37377,"is_reserved":false,"is_disabled":false,"rental_uris":{"android":"levelo://app?vid=df079794-d8c0-4802-b171-204716651f85","ios":"levelo://app?vid=df079794-d8c0-4802-b171-204716651f85"},"vehicle_type_id":"4","last_reported":1774045020,"current_range_meters":8000,"station_id":"ce4bh3p2rcd13ifvqdq0","pricing_plan_id":"cebpf4jnsgd1na2vs0mg"},{"bike_id":"45a2d8af-25b9-4d0a-84bf-d92e4ce00e2d","system_id":"levelo_inurba_marseille","lat":43.2867,"lon":5.36347,"is_reserved":false,"is_disabled":false,"rental_uris":{"android":"levelo://app?vid=45a2d8af-25b9-4d0a-84bf-d92e4ce00e2d","ios":"levelo://app?vid=45a2d8af-25b9-4d0a-84bf-d92e4ce00e2d"},"vehicle_type_id":"4","last_reported":1774045020,"current_range_meters":8000,"station_id":"ce4bhah2rcd13ifvqej0","pricing_plan_id":"cebpf4jnsgd1na2vs0mg"},{"bike_id":"0000eb28-7a39-460e-8edd-af93d734134a","system_id":"levelo_inurba_marseille","lat":43.31368,"lon":5.36779,"is_reserved":false,"is_disabled":false,"rental_uris":{"android":"levelo://app?vid=0000eb28-7a39-460e-8edd-af93d734134a","ios":"levelo://app?vid=0000eb28-7a39-460e-8edd-af93d734134a"},"vehicle_type_id":"4","last_reported":1774045020,"current_range_meters":8400,"station_id":"ce4bgr92rcd13ifvqc6g","pricing_plan_id":"cebpf4jnsgd1na2vs0mg"},{"bike_id":"cc777a7e-f3d4-4026-819d-66c6f1a5d2b6","system_id":"levelo_inurba_marseille","lat":43.2922,"lon":5.42588,"is_reserved":false,"is_disabled":false,"rental_uris":{"android":"levelo://app?vid=cc777a7e-f3d4-4026-819d-66c6f1a5d2b6","ios":"levelo://app?vid=cc777a7e-f3d4-4026-819d-66c6f1a5d2b6"},"vehicle_type_id":"4","last_reported":1774045020,"current_range_meters":8400,"station_id":"","pricing_plan_id":"cebpf4jnsgd1na2vs0mg"},{"bike_id":"72e035d0-dcc2-4dcf-8660-2e348be6861e","system_id":"levelo_inurba_marseille","lat":43.31458,"lon":5.45375,"is_reserved":false,"is_disabled":false,"rental_uris":{"android":"levelo://app?vid=72e035d0-dcc2-4dcf-8660-2e348be6861e","ios":"levelo://app?vid=72e035d0-dcc2-4dcf-8660-2e348be6861e"},"vehicle_type_id":"4","last_reported":1774045020,"current_range_meters":8400,"station_id":"","pricing_plan_id":"cebpf4jnsgd1na2vs0mg"},{"bike_id":"5053a012-d646-439d-b591-468fdeaa8c67","system_id":"levelo_inurba_marseille","lat":43.25334,"lon":5.42165,"is_reserved":false,"is_disabled":false,"rental_uris":{"android":"levelo://app?vid=5053a012-d646-439d-b591-468fdeaa8c67","ios":"levelo://app?vid=5053a012-d646-439d-b591-468fdeaa8c67"},"vehicle_type_id":"4","last_reported":1774045020,"current_range_meters":8400,"station_id":"st_d2m65c5bi1j21697t3ng","pricing_plan_id":"cebpf4jnsgd1na2vs0mg"},{"bike_id":"286fba00-1c70-49c5-9491-0b3044de24cb","system_id":"levelo_inurba_marseille","lat":43.26216,"lon":5.40439,"is_reserved":false,"is_disabled":true,"rental_uris":{"android":"levelo://app?vid=286fba00-1c70-49c5-9491-0b3044de24cb","ios":"levelo://app?vid=286fba00-1c70-49c5-9491-0b3044de24cb"},"vehicle_type_id":"4","last_reported":1774045020,"current_range_meters":8400,"station_id":"ce4bhmh2rcd13ifvqgmg","pricing_plan_id":"cebpf4jnsgd1na2vs0mg"},{"bike_id":"1466758c-2c3d-4cc4-860b-d3d146ceb5ca","system_id":"levelo_inurba_marseille","lat":43.32656,"lon":5.40975,"is_reserved":false,"is_disabled":false,"rental_uris":{"android":"levelo://app?vid=1466758c-2c3d-4cc4-860b-d3d146ceb5ca","ios":"levelo://app?vid=1466758c-2c3d-4cc4-860b-d3d146ceb5ca"},"vehicle_type_id":"4","last_reported":1774045020,"current_range_meters":8400,"station_id":"ce4bhpp2rcd13ifvqhgg","pricing_plan_id":"cebpf4jnsgd1na2vs0mg"},{"bike_id":"f3414e99-2d7c-4b03-96db-df8c1c6d3f2b","system_id":"levelo_inurba_marseille","lat":43.28477,"lon":5.48399,"is_reserved":false,"is_disabled":false,"rental_uris":{"android":"levelo://app?vid=f3414e99-2d7c-4b03-96db-df8c1c6d3f2b","ios":"levelo://app?vid=f3414e99-2d7c-4b03-96db-df8c1c6d3f2b"},"vehicle_type_id":"4","last_reported":1774045020,"current_range_meters":8400,"station_id":"","pricing_plan_id":"cebpf4jnsgd1na2vs0mg"},{"bike_id":"ab77a418-345e-453b-bca3-3815a5ee3842","system_id":"levelo_inurba_marseille","lat":43.23187,"lon":5.35574,"is_reserved":false,"is_disabled":false,"rental_uris":{"android":"levelo://app?vid=ab77a418-345e-453b-bca3-3815a5ee3842","ios":"levelo://app?vid=ab77a418-345e-453b-bca3-3815a5ee3842"},"vehicle_type_id":"4","last_reported":1774045020,"current_range_meters":8400,"station_id":"ce4bhu92rcd13ifvqi70","pricing_plan_id":"cebpf4jnsgd1na2vs0mg"},{"bike_id":"bfa999de-7a32-454a-b31e-f99ace51a3fc","system_id":"levelo_inurba_marseille","lat":43.28474,"lon":5.48391,"is_reserved":false,"is_disabled":false,"rental_uris":{"android":"levelo://app?vid=bfa999de-7a32-454a-b31e-f99ace51a3fc","ios":"levelo://app?vid=bfa999de-7a32-454a-b31e-f99ace51a3fc"},"vehicle_type_id":"4","last_reported":1774045020,"current_range_meters":8400,"station_id":"","pricing_plan_id":"cebpf4jnsgd1na2vs0mg"},{"bike_id":"f423ad6a-ff2f-42b0-a321-a9688a91861e","system_id":"levelo_inurba_marseille","lat":43.29271,"lon":5.38424,"is_reserved":false,"is_disabled":false,"rental_uris":{"android":"levelo://app?vid=f423ad6a-ff2f-42b0-a321-a9688a91861e","ios":"levelo://app?vid=f423ad6a-ff2f-42b0-a321-a9688a91861e"},"vehicle_type_id":"4","last_reported":1774045020,"current_range_meters":8400,"station_id":"ce4bh692rcd13ifvqea0","pricing_plan_id":"cebpf4jnsgd1na2vs0mg"},{"bike_id":"8de3014b-6fea-4d86-ac82-dc4848a60d92","system_id":"levelo_inurba_marseille","lat":43.29852,"lon":5.36287,"is_reserved":false,"is_disabled":false,"rental_uris":{"android":"levelo://app?vid=8de3014b-6fea-4d86-ac82-dc4848a60d92","ios":"levelo://app?vid=8de3014b-6fea-4d86-ac82-dc4848a60d92"},"vehicle_type_id":"4","last_reported":1774045020,"current_range_meters":8400,"station_id":"ce4bgpp2rcd13ifvqc3g","pricing_plan_id":"cebpf4jnsgd1na2vs0mg"},{"bike_id":"619b8d4c-fc96-4a20-8efc-e52a01e0f227","system_id":"levelo_inurba_marseille","lat":43.28422,"lon":5.37508,"is_reserved":false,"is_disabled":false,"rental_uris":{"android":"levelo://app?vid=619b8d4c-fc96-4a20-8efc-e52a01e0f227","ios":"levelo://app?vid=619b8d4c-fc96-4a20-8efc-e52a01e0f227"},"vehicle_type_id":"4","last_reported":1774045020,"current_range_meters":8400,"station_id":"ce4bh412rcd13ifvqds0","pricing_plan_id":"cebpf4jnsgd1na2vs0mg"},{"bike_id":"0f91a451-e71a-4abd-8416-2bb372e59a0f","system_id":"levelo_inurba_marseille","lat":43.28613,"lon":5.39896,"is_reserved":false,"is_disabled":false,"rental_uris":{"android":"levelo://app?vid=0f91a451-e71a-4abd-8416-2bb372e59a0f","ios":"levelo://app?vid=0f91a451-e71a-4abd-8416-2bb372e59a0f"},"vehicle_type_id":"4","last_reported":1774045020,"current_range_meters":8400,"station_id":"st_d4a7ka997mjs738ck50g","pricing_plan_id":"cebpf4jnsgd1na2vs0mg"},{"bike_id":"ffee91b4-e1f4-4cfe-bfbf-9ca7434cffe2","system_id":"levelo_inurba_marseille","lat":43.27396,"lon":5.3937,"is_reserved":false,"is_disabled":true,"rental_uris":{"android":"levelo://app?vid=ffee91b4-e1f4-4cfe-bfbf-9ca7434cffe2","ios":"levelo://app?vid=ffee91b4-e1f4-4cfe-bfbf-9ca7434cffe2"},"vehicle_type_id":"4","last_reported":1774045020,"current_range_meters":8400,"station_id":"ce4bhdp2rcd13ifvqf20","pricing_plan_id":"cebpf4jnsgd1na2vs0mg"},{"bike_id":"7e8d95cf-3163-4ed5-8f3f-e335b460ed44","system_id":"levelo_inurba_marseille","lat":43.28038,"lon":5.36952,"is_reserved":false,"is_disabled":false,"rental_uris":{"android":"levelo://app?vid=7e8d95cf-3163-4ed5-8f3f-e335b460ed44","ios":"levelo://app?vid=7e8d95cf-3163-4ed5-8f3f-e335b460ed44"},"vehicle_type_id":"4","last_reported":1774045020,"current_range_meters":8400,"station_id":"ce4bha12rcd13ifvqef0","pricing_plan_id":"cebpf4jnsgd1na2vs0mg"},{"bike_id":"7da875a9-d5e7-4431-ad5a-b5896a32396f","system_id":"levelo_inurba_marseille","lat":43.28615,"lon":5.39866,"is_reserved":false,"is_disabled":false,"rental_uris":{"android":"levelo://app?vid=7da875a9-d5e7-4431-ad5a-b5896a32396f","ios":"levelo://app?vid=7da875a9-d5e7-4431-ad5a-b5896a32396f"},"vehicle_type_id":"4","last_reported":1774045020,"current_range_meters":8400,"station_id":"st_d4a7ka997mjs738ck50g","pricing_plan_id":"cebpf4jnsgd1na2vs0mg"},{"bike_id":"cd2e611e-2200-4f09-a5b9-b77802b19de5","system_id":"levelo_inurba_marseille","lat":43.30728,"lon":5.4244,"is_reserved":false,"is_disabled":false,"rental_uris":{"android":"levelo://app?vid=cd2e611e-2200-4f09-a5b9-b77802b19de5","ios":"levelo://app?vid=cd2e611e-2200-4f09-a5b9-b77802b19de5"},"vehicle_type_id":"4","last_reported":1774045020,"current_range_meters":8400,"station_id":"st_cvj6ca6bvosntc0bfgr0","pricing_plan_id":"cebpf4jnsgd1na2vs0mg"},{"bike_id":"4cfda525-c1a6-40b6-a6a8-f7d117c609ed","system_id":"levelo_inurba_marseille","lat":43.28853,"lon":5.39331,"is_reserved":false,"is_disabled":false,"rental_uris":{"android":"levelo://app?vid=4cfda525-c1a6-40b6-a6a8-f7d117c609ed","ios":"levelo://app?vid=4cfda525-c1a6-40b6-a6a8-f7d117c609ed"},"vehicle_type_id":"4","last_reported":1774045020,"current_range_meters":8400,"station_id":"ce4bh2p2rcd13ifvqdi0","pricing_plan_id":"cebpf4jnsgd1na2vs0mg"},{"bike_id":"5716d1af-2ce1-4218-a0f5-04570e2beea2","system_id":"levelo_inurba_marseille","lat":43.27615,"lon":5.36106,"is_reserved":false,"is_disabled":false,"rental_uris":{"android":"levelo://app?vid=5716d1af-2ce1-4218-a0f5-04570e2beea2","ios":"levelo://app?vid=5716d1af-2ce1-4218-a0f5-04570e2beea2"},"vehicle_type_id":"4","last_reported":1774045020,"current_range_meters":8800,"station_id":"ce4bgj92rcd13ifvqbe0","pricing_plan_id":"cebpf4jnsgd1na2vs0mg"},{"bike_id":"92f32112-8a58-4a2d-8380-c50aa46da344","system_id":"levelo_inurba_marseille","lat":43.24063,"lon":5.3636,"is_reserved":false,"is_disabled":false,"rental_uris":{"android":"levelo://app?vid=92f32112-8a58-4a2d-8380-c50aa46da344","ios":"levelo://app?vid=92f32112-8a58-4a2d-8380-c50aa46da344"},"vehicle_type_id":"4","last_reported":1774045020,"current_range_meters":8800,"station_id":"","pricing_plan_id":"cebpf4jnsgd1na2vs0mg"},{"bike_id":"b52b0c1a-80a7-4558-9d95-596339b4711b","system_id":"levelo_inurba_marseille","lat":43.29523,"lon":5.38558,"is_reserved":false,"is_disabled":false,"rental_uris":{"android":"levelo://app?vid=b52b0c1a-80a7-4558-9d95-596339b4711b","ios":"levelo://app?vid=b52b0c1a-80a7-4558-9d95-596339b4711b"},"vehicle_type_id":"4","last_reported":1774045020,"current_range_meters":8800,"station_id":"ce4bgih2rcd13ifvqba0","pricing_plan_id":"cebpf4jnsgd1na2vs0mg"},{"bike_id":"9fc3100e-4d82-48d6-89bc-f6f291702956","system_id":"levelo_inurba_marseille","lat":43.31752,"lon":5.39035,"is_reserved":false,"is_disabled":false,"rental_uris":{"android":"levelo://app?vid=9fc3100e-4d82-48d6-89bc-f6f291702956","ios":"levelo://app?vid=9fc3100e-4d82-48d6-89bc-f6f291702956"},"vehicle_type_id":"4","last_reported":1774045020,"current_range_meters":8800,"station_id":"ce4bhqp2rcd13ifvqhng","pricing_plan_id":"cebpf4jnsgd1na2vs0mg"},{"bike_id":"c5a05cb6-f841-4801-8125-230426150c99","system_id":"levelo_inurba_marseille","lat":43.30808,"lon":5.38139,"is_reserved":false,"is_disabled":false,"rental_uris":{"android":"levelo://app?vid=c5a05cb6-f841-4801-8125-230426150c99","ios":"levelo://app?vid=c5a05cb6-f841-4801-8125-230426150c99"},"vehicle_type_id":"4","last_reported":1774045020,"current_range_meters":8800,"station_id":"ce4bgt12rcd13ifvqce0","pricing_plan_id":"cebpf4jnsgd1na2vs0mg"},{"bike_id":"bbdddb31-e2a4-4269-aa30-a071bab4d5ac","system_id":"levelo_inurba_marseille","lat":43.25804,"lon":5.38565,"is_reserved":false,"is_disabled":false,"rental_uris":{"android":"levelo://app?vid=bbdddb31-e2a4-4269-aa30-a071bab4d5ac","ios":"levelo://app?vid=bbdddb31-e2a4-4269-aa30-a071bab4d5ac"},"vehicle_type_id":"4","last_reported":1774045020,"current_range_meters":8800,"station_id":"","pricing_plan_id":"cebpf4jnsgd1na2vs0mg"},{"bike_id":"558b2a2d-3db0-48f1-87eb-9f20ed2de6e6","system_id":"levelo_inurba_marseille","lat":43.3014,"lon":5.40373,"is_reserved":false,"is_disabled":false,"rental_uris":{"android":"levelo://app?vid=558b2a2d-3db0-48f1-87eb-9f20ed2de6e6","ios":"levelo://app?vid=558b2a2d-3db0-48f1-87eb-9f20ed2de6e6"},"vehicle_type_id":"4","last_reported":1774045020,"current_range_meters":8800,"station_id":"","pricing_plan_id":"cebpf4jnsgd1na2vs0mg"},{"bike_id":"a836fd38-d433-489a-a6c6-63f0c9de9110","system_id":"levelo_inurba_marseille","lat":43.29117,"lon":5.38106,"is_reserved":false,"is_disabled":true,"rental_uris":{"android":"levelo://app?vid=a836fd38-d433-489a-a6c6-63f0c9de9110","ios":"levelo://app?vid=a836fd38-d433-489a-a6c6-63f0c9de9110"},"vehicle_type_id":"4","last_reported":1774045020,"current_range_meters":8800,"station_id":"ce4bh512rcd13ifvqe2g","pricing_plan_id":"cebpf4jnsgd1na2vs0mg"},{"bike_id":"5823234a-ebe5-4f73-a6ca-e22e8e37fb65","system_id":"levelo_inurba_marseille","lat":43.30776,"lon":5.3765,"is_reserved":false,"is_disabled":true,"rental_uris":{"android":"levelo://app?vid=5823234a-ebe5-4f73-a6ca-e22e8e37fb65","ios":"levelo://app?vid=5823234a-ebe5-4f73-a6ca-e22e8e37fb65"},"vehicle_type_id":"4","last_reported":1774045020,"current_range_meters":8800,"station_id":"ce4bgv92rcd13ifvqcq0","pricing_plan_id":"cebpf4jnsgd1na2vs0mg"},{"bike_id":"37fd8b91-bebb-483f-9ede-850904204da2","system_id":"levelo_inurba_marseille","lat":43.33431,"lon":5.35681,"is_reserved":false,"is_disabled":false,"rental_uris":{"android":"levelo://app?vid=37fd8b91-bebb-483f-9ede-850904204da2","ios":"levelo://app?vid=37fd8b91-bebb-483f-9ede-850904204da2"},"vehicle_type_id":"4","last_reported":1774045020,"current_range_meters":8800,"station_id":"","pricing_plan_id":"cebpf4jnsgd1na2vs0mg"},{"bike_id":"1b477638-8207-4faf-aa73-778107d375ef","system_id":"levelo_inurba_marseille","lat":43.31381,"lon":5.39206,"is_reserved":false,"is_disabled":false,"rental_uris":{"android":"levelo://app?vid=1b477638-8207-4faf-aa73-778107d375ef","ios":"levelo://app?vid=1b477638-8207-4faf-aa73-778107d375ef"},"vehicle_type_id":"4","last_reported":1774045020,"current_range_meters":8800,"station_id":"","pricing_plan_id":"cebpf4jnsgd1na2vs0mg"},{"bike_id":"02bf4e22-4a59-4416-ba1c-3c09acf8d761","system_id":"levelo_inurba_marseille","lat":43.270692,"lon":5.422856,"is_reserved":false,"is_disabled":false,"rental_uris":{"android":"levelo://app?vid=02bf4e22-4a59-4416-ba1c-3c09acf8d761","ios":"levelo://app?vid=02bf4e22-4a59-4416-ba1c-3c09acf8d761"},"vehicle_type_id":"4","last_reported":1774045020,"current_range_meters":8800,"station_id":"ce4bhk92rcd13ifvqgb0","pricing_plan_id":"cebpf4jnsgd1na2vs0mg"},{"bike_id":"130fb92b-9d5d-4d89-affa-d9008e4a024a","system_id":"levelo_inurba_marseille","lat":43.28547,"lon":5.39509,"is_reserved":false,"is_disabled":false,"rental_uris":{"android":"levelo://app?vid=130fb92b-9d5d-4d89-affa-d9008e4a024a","ios":"levelo://app?vid=130fb92b-9d5d-4d89-affa-d9008e4a024a"},"vehicle_type_id":"4","last_reported":1774045020,"current_range_meters":8800,"station_id":"ce4bh292rcd13ifvqdg0","pricing_plan_id":"cebpf4jnsgd1na2vs0mg"},{"bike_id":"09c512a7-5284-41de-84ab-ddef857051f9","system_id":"levelo_inurba_marseille","lat":43.2952,"lon":5.39051,"is_reserved":false,"is_disabled":false,"rental_uris":{"android":"levelo://app?vid=09c512a7-5284-41de-84ab-ddef857051f9","ios":"levelo://app?vid=09c512a7-5284-41de-84ab-ddef857051f9"},"vehicle_type_id":"4","last_reported":1774045020,"current_range_meters":8800,"station_id":"ce4bh3p2rcd13ifvqdp0","pricing_plan_id":"cebpf4jnsgd1na2vs0mg"},{"bike_id":"01701e05-f3fc-4553-ab75-a9684624e160","system_id":"levelo_inurba_marseille","lat":43.337444,"lon":5.374475,"is_reserved":false,"is_disabled":false,"rental_uris":{"android":"levelo://app?vid=01701e05-f3fc-4553-ab75-a9684624e160","ios":"levelo://app?vid=01701e05-f3fc-4553-ab75-a9684624e160"},"vehicle_type_id":"4","last_reported":1774045020,"current_range_meters":8800,"station_id":"","pricing_plan_id":"cebpf4jnsgd1na2vs0mg"},{"bike_id":"bb64248e-0e5d-4ee1-9d8f-d48a0dd77d66","system_id":"levelo_inurba_marseille","lat":43.21628,"lon":5.34468,"is_reserved":false,"is_disabled":false,"rental_uris":{"android":"levelo://app?vid=bb64248e-0e5d-4ee1-9d8f-d48a0dd77d66","ios":"levelo://app?vid=bb64248e-0e5d-4ee1-9d8f-d48a0dd77d66"},"vehicle_type_id":"4","last_reported":1774045020,"current_range_meters":8800,"station_id":"","pricing_plan_id":"cebpf4jnsgd1na2vs0mg"},{"bike_id":"a9c55401-ec21-4bac-9d6a-208c987c2cc4","system_id":"levelo_inurba_marseille","lat":43.25633,"lon":5.41839,"is_reserved":false,"is_disabled":false,"rental_uris":{"android":"levelo://app?vid=a9c55401-ec21-4bac-9d6a-208c987c2cc4","ios":"levelo://app?vid=a9c55401-ec21-4bac-9d6a-208c987c2cc4"},"vehicle_type_id":"4","last_reported":1774045020,"current_range_meters":8800,"station_id":"","pricing_plan_id":"cebpf4jnsgd1na2vs0mg"},{"bike_id":"81a90162-f3ef-4ddc-8063-c9bb73f58bd7","system_id":"levelo_inurba_marseille","lat":43.301473,"lon":5.380936,"is_reserved":false,"is_disabled":false,"rental_uris":{"android":"levelo://app?vid=81a90162-f3ef-4ddc-8063-c9bb73f58bd7","ios":"levelo://app?vid=81a90162-f3ef-4ddc-8063-c9bb73f58bd7"},"vehicle_type_id":"4","last_reported":1774045020,"current_range_meters":8800,"station_id":"ce4bgjp2rcd13ifvqbh0","pricing_plan_id":"cebpf4jnsgd1na2vs0mg"},{"bike_id":"5df306d9-ff78-44c1-8bc6-90359bc251f8","system_id":"levelo_inurba_marseille","lat":43.29545,"lon":5.38535,"is_reserved":false,"is_disabled":false,"rental_uris":{"android":"levelo://app?vid=5df306d9-ff78-44c1-8bc6-90359bc251f8","ios":"levelo://app?vid=5df306d9-ff78-44c1-8bc6-90359bc251f8"},"vehicle_type_id":"4","last_reported":1774045020,"current_range_meters":8800,"station_id":"ce4bgih2rcd13ifvqba0","pricing_plan_id":"cebpf4jnsgd1na2vs0mg"},{"bike_id":"a9cccfe0-c5b3-485c-b47b-558a30526e6e","system_id":"levelo_inurba_marseille","lat":43.29701,"lon":5.37285,"is_reserved":false,"is_disabled":false,"rental_uris":{"android":"levelo://app?vid=a9cccfe0-c5b3-485c-b47b-558a30526e6e","ios":"levelo://app?vid=a9cccfe0-c5b3-485c-b47b-558a30526e6e"},"vehicle_type_id":"4","last_reported":1774045020,"current_range_meters":8800,"station_id":"ce4bgk12rcd13ifvqbj0","pricing_plan_id":"cebpf4jnsgd1na2vs0mg"},{"bike_id":"262ada7b-e921-4972-8622-122c955ca166","system_id":"levelo_inurba_marseille","lat":43.24804,"lon":5.37449,"is_reserved":false,"is_disabled":false,"rental_uris":{"android":"levelo://app?vid=262ada7b-e921-4972-8622-122c955ca166","ios":"levelo://app?vid=262ada7b-e921-4972-8622-122c955ca166"},"vehicle_type_id":"4","last_reported":1774045020,"current_range_meters":8800,"station_id":"ce4bhgh2rcd13ifvqfb0","pricing_plan_id":"cebpf4jnsgd1na2vs0mg"},{"bike_id":"b87d7938-28e4-46e7-994e-fdebd5392225","system_id":"levelo_inurba_marseille","lat":43.32095,"lon":5.36796,"is_reserved":false,"is_disabled":false,"rental_uris":{"android":"levelo://app?vid=b87d7938-28e4-46e7-994e-fdebd5392225","ios":"levelo://app?vid=b87d7938-28e4-46e7-994e-fdebd5392225"},"vehicle_type_id":"4","last_reported":1774045020,"current_range_meters":8800,"station_id":"ce4bhrh2rcd13ifvqhug","pricing_plan_id":"cebpf4jnsgd1na2vs0mg"},{"bike_id":"5672f140-f178-4766-bb60-5301b26a0e4e","system_id":"levelo_inurba_marseille","lat":43.28472,"lon":5.48396,"is_reserved":false,"is_disabled":false,"rental_uris":{"android":"levelo://app?vid=5672f140-f178-4766-bb60-5301b26a0e4e","ios":"levelo://app?vid=5672f140-f178-4766-bb60-5301b26a0e4e"},"vehicle_type_id":"4","last_reported":1774045020,"current_range_meters":9200,"station_id":"","pricing_plan_id":"cebpf4jnsgd1na2vs0mg"},{"bike_id":"2c8d5c30-577d-4925-9767-a3e8a27bf5b4","system_id":"levelo_inurba_marseille","lat":43.24053,"lon":5.3895,"is_reserved":false,"is_disabled":false,"rental_uris":{"android":"levelo://app?vid=2c8d5c30-577d-4925-9767-a3e8a27bf5b4","ios":"levelo://app?vid=2c8d5c30-577d-4925-9767-a3e8a27bf5b4"},"vehicle_type_id":"4","last_reported":1774045020,"current_range_meters":9200,"station_id":"","pricing_plan_id":"cebpf4jnsgd1na2vs0mg"},{"bike_id":"fc7fcd33-7a04-485d-9efe-8e52ccf6b49a","system_id":"levelo_inurba_marseille","lat":43.29793,"lon":5.37106,"is_reserved":false,"is_disabled":false,"rental_uris":{"android":"levelo://app?vid=fc7fcd33-7a04-485d-9efe-8e52ccf6b49a","ios":"levelo://app?vid=fc7fcd33-7a04-485d-9efe-8e52ccf6b49a"},"vehicle_type_id":"4","last_reported":1774045020,"current_range_meters":9200,"station_id":"ce4bgop2rcd13ifvqc1g","pricing_plan_id":"cebpf4jnsgd1na2vs0mg"},{"bike_id":"3676a395-9d4a-4d07-81c5-7b1d4a0acb38","system_id":"levelo_inurba_marseille","lat":43.31532,"lon":5.37317,"is_reserved":false,"is_disabled":false,"rental_uris":{"android":"levelo://app?vid=3676a395-9d4a-4d07-81c5-7b1d4a0acb38","ios":"levelo://app?vid=3676a395-9d4a-4d07-81c5-7b1d4a0acb38"},"vehicle_type_id":"4","last_reported":1774045020,"current_range_meters":9200,"station_id":"","pricing_plan_id":"cebpf4jnsgd1na2vs0mg"},{"bike_id":"4a501649-1ae3-4f13-916a-d9d0102c5c57","system_id":"levelo_inurba_marseille","lat":43.22945,"lon":5.35374,"is_reserved":false,"is_disabled":false,"rental_uris":{"android":"levelo://app?vid=4a501649-1ae3-4f13-916a-d9d0102c5c57","ios":"levelo://app?vid=4a501649-1ae3-4f13-916a-d9d0102c5c57"},"vehicle_type_id":"4","last_reported":1774045020,"current_range_meters":9200,"station_id":"cpo3532slgdg3j2ikp40","pricing_plan_id":"cebpf4jnsgd1na2vs0mg"},{"bike_id":"df5ad533-8354-43dd-b4db-d4118becde63","system_id":"levelo_inurba_marseille","lat":43.28526,"lon":5.48303,"is_reserved":false,"is_disabled":false,"rental_uris":{"android":"levelo://app?vid=df5ad533-8354-43dd-b4db-d4118becde63","ios":"levelo://app?vid=df5ad533-8354-43dd-b4db-d4118becde63"},"vehicle_type_id":"4","last_reported":1774045020,"current_range_meters":9200,"station_id":"","pricing_plan_id":"cebpf4jnsgd1na2vs0mg"},{"bike_id":"94247b11-6408-4556-9ae3-40dd54ec1bb6","system_id":"levelo_inurba_marseille","lat":43.29533,"lon":5.38533,"is_reserved":false,"is_disabled":false,"rental_uris":{"android":"levelo://app?vid=94247b11-6408-4556-9ae3-40dd54ec1bb6","ios":"levelo://app?vid=94247b11-6408-4556-9ae3-40dd54ec1bb6"},"vehicle_type_id":"4","last_reported":1774045020,"current_range_meters":9200,"station_id":"ce4bgih2rcd13ifvqba0","pricing_plan_id":"cebpf4jnsgd1na2vs0mg"},{"bike_id":"1e835a92-0ec7-46fa-bf1f-12677f4a1b3c","system_id":"levelo_inurba_marseille","lat":43.25093,"lon":5.40301,"is_reserved":false,"is_disabled":false,"rental_uris":{"android":"levelo://app?vid=1e835a92-0ec7-46fa-bf1f-12677f4a1b3c","ios":"levelo://app?vid=1e835a92-0ec7-46fa-bf1f-12677f4a1b3c"},"vehicle_type_id":"4","last_reported":1774045020,"current_range_meters":9200,"station_id":"ce4bhlh2rcd13ifvqgig","pricing_plan_id":"cebpf4jnsgd1na2vs0mg"},