{"last_updated":1688062261,"ttl":30,"version":"2.2","data":{"bikes":[{"bike_id":"e8955956-ac8f-4417-a893-f3f7e8209be1","system_id":"levelo_inurba_marseille","lat":43.31341,"lon":5.3672,"is_reserved":false,"is_disabled":false,"rental_uris":{"android":"levelo://app?vid=e8955956-ac8f-4417-a893-f3f7e8209be1","ios":"levelo://app?vid=e8955956-ac8f-4417-a893-f3f7e8209be1"},"vehicle_type_id":"4","last_reported":1688062262,"current_range_meters":0,"station_id":"ce4bgr92rcd13ifvqc6g","pricing_plan_id":"free"},{"bike_id":"666c1415-28e9-4944-87f5-29a628446c75","system_id":"levelo_inurba_marseille","lat":43.3123,"lon":5.36871,"is_reserved":false,"is_disabled":false,"rental_uris":{"android":"levelo://app?vid=666c1415-28e9-4944-87f5-29a628446c75","ios":"levelo://app?vid=666c1415-28e9-4944-87f5-29a628446c75"},"vehicle_type_id":"4","last_reported":1688062262,"current_range_meters":31200,"station_id":"ce4bgl92rcd13ifvqbq0","pricing_plan_id":"free"},{"bike_id":"d66aad9b-ffab-4565-86ba-69c989a8ded8","system_id":"levelo_inurba_marseille","lat":43.30944,"lon":5.36703,"is_reserved":false,"is_disabled":false,"rental_uris":{"android":"levelo://app?vid=d66aad9b-ffab-4565-86ba-69c989a8ded8","ios":"levelo://app?vid=d66aad9b-ffab-4565-86ba-69c989a8ded8"},"vehicle_type_id":"4","last_reported":1688062262,"current_range_meters":14000,"station_id":"","pricing_plan_id":"free"},{"bike_id":"01888242-99f9-4c03-8e05-7f508ab09639","system_id":"levelo_inurba_marseille","lat":43.31123,"lon":5.37761,"is_reserved":false,"is_disabled":false,"rental_uris":{"android":"levelo://app?vid=01888242-99f9-4c03-8e05-7f508ab09639","ios":"levelo://app?vid=01888242-99f9-4c03-8e05-7f508ab09639"},"vehicle_type_id":"4","last_reported":1688062262,"current_range_meters":21200,"station_id":"ce4bgt92rcd13ifvqcg0","pricing_plan_id":"free"},{"bike_id":"f8290c68-0fad-4493-9058-7a75b7ecb82b","system_id":"levelo_inurba_marseille","lat":43.311131,"lon":5.377651,"is_reserved":false,"is_disabled":false,"rental_uris":{"android":"levelo://app?vid=f8290c68-0fad-4493-9058-7a75b7ecb82b","ios":"levelo://app?vid=f8290c68-0fad-4493-9058-7a75b7ecb82b"},"vehicle_type_id":"4","last_reported":1688062262,"current_range_meters":11200,"station_id":"ce4bgt92rcd13ifvqcg0","pricing_plan_id":"free"},{"bike_id":"0fd0ed7f-6986-4977-8f8f-eab36a06e9d4","system_id":"levelo_inurba_marseille","lat":43.315289,"lon":5.380349,"is_reserved":false,"is_disabled":false,"rental_uris":{"android":"levelo://app?vid=0fd0ed7f-6986-4977-8f8f-eab36a06e9d4","ios":"levelo://app?vid=0fd0ed7f-6986-4977-8f8f-eab36a06e9d4"},"vehicle_type_id":"4","last_reported":1688062262,"current_range_meters":20000,"station_id":"ce4bhsp2rcd13ifvqi50","pricing_plan_id":"free"},{"bike_id":"92555124-fa9b-48ac-b73a-4722c991dfe3","system_id":"levelo_inurba_marseille","lat":43.30187,"lon":5.36624,"is_reserved":false,"is_disabled":false,"rental_uris":{"android":"levelo://app?vid=92555124-fa9b-48ac-b73a-4722c991dfe3","ios":"levelo://app?vid=92555124-fa9b-48ac-b73a-4722c991dfe3"},"vehicle_type_id":"4","last_reported":1688062262,"current_range_meters":8800,"station_id":"","pricing_plan_id":"free"},{"bike_id":"f8a67beb-2840-442c-b2d8-acd6e4e05874","system_id":"levelo_inurba_marseille","lat":43.301939,"lon":5.366286,"is_reserved":false,"is_disabled":false,"rental_uris":{"android":"levelo://app?vid=f8a67beb-2840-442c-b2d8-acd6e4e05874","ios":"levelo://app?vid=f8a67beb-2840-442c-b2d8-acd6e4e05874"},"vehicle_type_id":"4","last_reported":1688062262,"current_range_meters":16800,"station_id":"ce4bgrh2rcd13ifvqc8g","pricing_plan_id":"free"},{"bike_id":"adb74c65-7ee4-4418-ba56-245862c9410e","system_id":"levelo_inurba_marseille","lat":43.308012,"lon":5.381511,"is_reserved":false,"is_disabled":false,"rental_uris":{"android":"levelo://app?vid=adb74c65-7ee4-4418-ba56-245862c9410e","ios":"levelo://app?vid=adb74c65-7ee4-4418-ba56-245862c9410e"},"vehicle_type_id":"4","last_reported":1688062262,"current_range_meters":400,"station_id":"ce4bgt12rcd13ifvqce0","pricing_plan_id":"free"},{"bike_id":"d779166a-40d0-4268-8645-11c27da2a820","system_id":"levelo_inurba_marseille","lat":43.304606,"lon":5.379026,"is_reserved":false,"is_disabled":false,"rental_uris":{"android":"levelo://app?vid=d779166a-40d0-4268-8645-11c27da2a820","ios":"levelo://app?vid=d779166a-40d0-4268-8645-11c27da2a820"},"vehicle_type_id":"4","last_reported":1688062262,"current_range_meters":12000,"station_id":"ce4bgup2rcd13ifvqcn0","pricing_plan_id":"free"},{"bike_id":"a277eeef-4823-4c1c-a9e2-7a2b41cd385f","system_id":"levelo_inurba_marseille","lat":43.302784,"lon":5.377158,"is_reserved":false,"is_disabled":false,"rental_uris":{"android":"levelo://app?vid=a277eeef-4823-4c1c-a9e2-7a2b41cd385f","ios":"levelo://app?vid=a277eeef-4823-4c1c-a9e2-7a2b41cd385f"},"vehicle_type_id":"4","last_reported":1688062262,"current_range_meters":12000,"station_id":"ce4bguh2rcd13ifvqcj0","pricing_plan_id":"free"},{"bike_id":"34ee49b9-c50b-4a68-a7c0-e16e42a93913","system_id":"levelo_inurba_marseille","lat":43.32534,"lon":5.36873,"is_reserved":false,"is_disabled":false,"rental_uris":{"android":"levelo://app?vid=34ee49b9-c50b-4a68-a7c0-e16e42a93913","ios":"levelo://app?vid=34ee49b9-c50b-4a68-a7c0-e16e42a93913"},"vehicle_type_id":"4","last_reported":1688062262,"current_range_meters":16000,"station_id":"","pricing_plan_id":"free"},{"bike_id":"a95db9a8-3544-4127-a403-ba78eeb190c7","system_id":"levelo_inurba_marseille","lat":43.319935,"lon":5.381699,"is_reserved":false,"is_disabled":false,"rental_uris":{"android":"levelo://app?vid=a95db9a8-3544-4127-a403-ba78eeb190c7","ios":"levelo://app?vid=a95db9a8-3544-4127-a403-ba78eeb190c7"},"vehicle_type_id":"4","last_reported":1688062262,"current_range_meters":5200,"station_id":"ce4bhr12rcd13ifvqhpg","pricing_plan_id":"free"},{"bike_id":"550d53f2-0f27-42be-bc1a-8a2a4d2c3c88","system_id":"levelo_inurba_marseille","lat":43.313571,"lon":5.384829,"is_reserved":false,"is_disabled":false,"rental_uris":{"android":"levelo://app?vid=550d53f2-0f27-42be-bc1a-8a2a4d2c3c88","ios":"levelo://app?vid=550d53f2-0f27-42be-bc1a-8a2a4d2c3c88"},"vehicle_type_id":"4","last_reported":1688062262,"current_range_meters":23200,"station_id":"ce4bgt92rcd13ifvqcf0","pricing_plan_id":"free"},{"bike_id":"2348ea96-afd4-4387-9cdf-fd0261bc0e6d","system_id":"levelo_inurba_marseille","lat":43.299222,"lon":5.365554,"is_reserved":false,"is_disabled":false,"rental_uris":{"android":"levelo://app?vid=2348ea96-afd4-4387-9cdf-fd0261bc0e6d","ios":"levelo://app?vid=2348ea96-afd4-4387-9cdf-fd0261bc0e6d"},"vehicle_type_id":"4","last_reported":1688062262,"current_range_meters":9200,"station_id":"ce4bgm92rcd13ifvqbr0","pricing_plan_id":"free"},{"bike_id":"d3122ab2-fff1-46d9-85eb-cd189470524a","system_id":"levelo_inurba_marseille","lat":43.29933,"lon":5.36555,"is_reserved":false,"is_disabled":false,"rental_uris":{"android":"levelo://app?vid=d3122ab2-fff1-46d9-85eb-cd189470524a","ios":"levelo://app?vid=d3122ab2-fff1-46d9-85eb-cd189470524a"},"vehicle_type_id":"4","last_reported":1688062262,"current_range_meters":15200,"station_id":"ce4bgm92rcd13ifvqbr0","pricing_plan_id":"free"},{"bike_id":"f87db846-ed1f-409d-9e46-18c5d908460c","system_id":"levelo_inurba_marseille","lat":43.298433,"lon":5.362774,"is_reserved":false,"is_disabled":false,"rental_uris":{"android":"levelo://app?vid=f87db846-ed1f-409d-9e46-18c5d908460c","ios":"levelo://app?vid=f87db846-ed1f-409d-9e46-18c5d908460c"},"vehicle_type_id":"4","last_reported":1688062262,"current_range_meters":4000,"station_id":"ce4bgpp2rcd13ifvqc3g","pricing_plan_id":"free"},{"bike_id":"91e8c930-c7b5-4118-8812-35bab9315ca3","system_id":"levelo_inurba_marseille","lat":43.298433,"lon":5.362774,"is_reserved":false,"is_disabled":false,"rental_uris":{"android":"levelo://app?vid=91e8c930-c7b5-4118-8812-35bab9315ca3","ios":"levelo://app?vid=91e8c930-c7b5-4118-8812-35bab9315ca3"},"vehicle_type_id":"4","last_reported":1688062262,"current_range_meters":14400,"station_id":"ce4bgpp2rcd13ifvqc3g","pricing_plan_id":"free"},{"bike_id":"893b4165-f315-438b-ad66-89a4a97a837a","system_id":"levelo_inurba_marseille","lat":43.298433,"lon":5.362774,"is_reserved":false,"is_disabled":false,"rental_uris":{"android":"levelo://app?vid=893b4165-f315-438b-ad66-89a4a97a837a","ios":"levelo://app?vid=893b4165-f315-438b-ad66-89a4a97a837a"},"vehicle_type_id":"4","last_reported":1688062262,"current_range_meters":19200,"station_id":"ce4bgpp2rcd13ifvqc3g","pricing_plan_id":"free"},{"bike_id":"ef43c2c1-f618-4694-96f1-443c419177bf","system_id":"levelo_inurba_marseille","lat":43.29848,"lon":5.36289,"is_reserved":false,"is_disabled":false,"rental_uris":{"android":"levelo://app?vid=ef43c2c1-f618-4694-96f1-443c419177bf","ios":"levelo://app?vid=ef43c2c1-f618-4694-96f1-443c419177bf"},"vehicle_type_id":"4","last_reported":1688062262,"current_range_meters":23600,"station_id":"ce4bgpp2rcd13ifvqc3g","pricing_plan_id":"free"},{"bike_id":"c4fb79fe-52f0-4029-8f24-e083904b5abd","system_id":"levelo_inurba_marseille","lat":43.298433,"lon":5.362774,"is_reserved":false,"is_disabled":false,"rental_uris":{"android":"levelo://app?vid=c4fb79fe-52f0-4029-8f24-e083904b5abd","ios":"levelo://app?vid=c4fb79fe-52f0-4029-8f24-e083904b5abd"},"vehicle_type_id":"4","last_reported":1688062262,"current_range_meters":26000,"station_id":"ce4bgpp2rcd13ifvqc3g","pricing_plan_id":"free"},{"bike_id":"d96061cd-5b1a-4dff-871d-29774886915d","system_id":"levelo_inurba_marseille","lat":43.30536,"lon":5.38423,"is_reserved":false,"is_disabled":false,"rental_uris":{"android":"levelo://app?vid=d96061cd-5b1a-4dff-871d-29774886915d","ios":"levelo://app?vid=d96061cd-5b1a-4dff-871d-29774886915d"},"vehicle_type_id":"4","last_reported":1688062262,"current_range_meters":24400,"station_id":"ce4bgg92rcd13ifvqb30","pricing_plan_id":"free"},{"bike_id":"87cef420-e224-4de2-9a66-083b58905f1c","system_id":"levelo_inurba_marseille","lat":43.298433,"lon":5.362774,"is_reserved":false,"is_disabled":false,"rental_uris":{"android":"levelo://app?vid=87cef420-e224-4de2-9a66-083b58905f1c","ios":"levelo://app?vid=87cef420-e224-4de2-9a66-083b58905f1c"},"vehicle_type_id":"4","last_reported":1688062262,"current_range_meters":28400,"station_id":"ce4bgpp2rcd13ifvqc3g","pricing_plan_id":"free"},{"bike_id":"ba093526-8d2e-4bed-9f80-d217533526f1","system_id":"levelo_inurba_marseille","lat":43.298433,"lon":5.362774,"is_reserved":false,"is_disabled":false,"rental_uris":{"android":"levelo://app?vid=ba093526-8d2e-4bed-9f80-d217533526f1","ios":"levelo://app?vid=ba093526-8d2e-4bed-9f80-d217533526f1"},"vehicle_type_id":"4","last_reported":1688062262,"current_range_meters":6000,"station_id":"ce4bgpp2rcd13ifvqc3g","pricing_plan_id":"free"},{"bike_id":"3e214ec6-b8df-4330-926c-288307bd1e95","system_id":"levelo_inurba_marseille","lat":43.298433,"lon":5.362774,"is_reserved":false,"is_disabled":false,"rental_uris":{"android":"levelo://app?vid=3e214ec6-b8df-4330-926c-288307bd1e95","ios":"levelo://app?vid=3e214ec6-b8df-4330-926c-288307bd1e95"},"vehicle_type_id":"4","last_reported":1688062262,"current_range_meters":14000,"station_id":"ce4bgpp2rcd13ifvqc3g","pricing_plan_id":"free"},{"bike_id":"180a1432-3f2d-4200-9fb6-19c8696217ca","system_id":"levelo_inurba_marseille","lat":43.29844,"lon":5.36273,"is_reserved":false,"is_disabled":false,"rental_uris":{"android":"levelo://app?vid=180a1432-3f2d-4200-9fb6-19c8696217ca","ios":"levelo://app?vid=180a1432-3f2d-4200-9fb6-19c8696217ca"},"vehicle_type_id":"4","last_reported":1688062262,"current_range_meters":27600,"station_id":"ce4bgpp2rcd13ifvqc3g","pricing_plan_id":"free"},{"bike_id":"d05a8e9a-7642-444a-b552-4e7c27bb4bef","system_id":"levelo_inurba_marseille","lat":43.29842,"lon":5.36273,"is_reserved":false,"is_disabled":false,"rental_uris":{"android":"levelo://app?vid=d05a8e9a-7642-444a-b552-4e7c27bb4bef","ios":"levelo://app?vid=d05a8e9a-7642-444a-b552-4e7c27bb4bef"},"vehicle_type_id":"4","last_reported":1688062262,"current_range_meters":0,"station_id":"ce4bgpp2rcd13ifvqc3g","pricing_plan_id":"free"},{"bike_id":"9e308144-b59d-4d47-917d-825a14557ebd","system_id":"levelo_inurba_marseille","lat":43.29841,"lon":5.36266,"is_reserved":false,"is_disabled":false,"rental_uris":{"android":"levelo://app?vid=9e308144-b59d-4d47-917d-825a14557ebd","ios":"levelo://app?vid=9e308144-b59d-4d47-917d-825a14557ebd"},"vehicle_type_id":"4","last_reported":1688062262,"current_range_meters":13600,"station_id":"ce4bgpp2rcd13ifvqc3g","pricing_plan_id":"free"},{"bike_id":"2d9217ab-1a1e-4c26-8f12-f75f4a7b1b7b","system_id":"levelo_inurba_marseille","lat":43.2984,"lon":5.36269,"is_reserved":false,"is_disabled":false,"rental_uris":{"android":"levelo://app?vid=2d9217ab-1a1e-4c26-8f12-f75f4a7b1b7b","ios":"levelo://app?vid=2d9217ab-1a1e-4c26-8f12-f75f4a7b1b7b"},"vehicle_type_id":"4","last_reported":1688062262,"current_range_meters":10000,"station_id":"ce4bgpp2rcd13ifvqc3g","pricing_plan_id":"free"},{"bike_id":"b25f6f54-56c8-404d-b23f-56d7614c2faf","system_id":"levelo_inurba_marseille","lat":43.29838,"lon":5.36273,"is_reserved":false,"is_disabled":false,"rental_uris":{"android":"levelo://app?vid=b25f6f54-56c8-404d-b23f-56d7614c2faf","ios":"levelo://app?vid=b25f6f54-56c8-404d-b23f-56d7614c2faf"},"vehicle_type_id":"4","last_reported":1688062262,"current_range_meters":16000,"station_id":"ce4bgpp2rcd13ifvqc3g","pricing_plan_id":"free"},{"bike_id":"68583d42-c91a-46b7-8bb8-d4337378d00f","system_id":"levelo_inurba_marseille","lat":43.29829,"lon":5.36296,"is_reserved":false,"is_disabled":false,"rental_uris":{"android":"levelo://app?vid=68583d42-c91a-46b7-8bb8-d4337378d00f","ios":"levelo://app?vid=68583d42-c91a-46b7-8bb8-d4337378d00f"},"vehicle_type_id":"4","last_reported":1688062262,"current_range_meters":20400,"station_id":"","pricing_plan_id":"free"},{"bike_id":"87938043-02d6-451a-b6c8-975579e17da8","system_id":"levelo_inurba_marseille","lat":43.311722,"lon":5.387247,"is_reserved":false,"is_disabled":false,"rental_uris":{"android":"levelo://app?vid=87938043-02d6-451a-b6c8-975579e17da8","ios":"levelo://app?vid=87938043-02d6-451a-b6c8-975579e17da8"},"vehicle_type_id":"4","last_reported":1688062262,"current_range_meters":20400,"station_id":"ce4bgv12rcd13ifvqcp0","pricing_plan_id":"free"},{"bike_id":"837a5377-05e7-4df8-b963-c1678769e984","system_id":"levelo_inurba_marseille","lat":43.311722,"lon":5.387247,"is_reserved":false,"is_disabled":false,"rental_uris":{"android":"levelo://app?vid=837a5377-05e7-4df8-b963-c1678769e984","ios":"levelo://app?vid=837a5377-05e7-4df8-b963-c1678769e984"},"vehicle_type_id":"4","last_reported":1688062262,"current_range_meters":12400,"station_id":"ce4bgv12rcd13ifvqcp0","pricing_plan_id":"free"},{"bike_id":"d96be0c5-9887-4428-98e4-dac6e574e755","system_id":"levelo_inurba_marseille","lat":43.311722,"lon":5.387247,"is_reserved":false,"is_disabled":false,"rental_uris":{"android":"levelo://app?vid=d96be0c5-9887-4428-98e4-dac6e574e755","ios":"levelo://app?vid=d96be0c5-9887-4428-98e4-dac6e574e755"},"vehicle_type_id":"4","last_reported":1688062262,"current_range_meters":0,"station_id":"ce4bgv12rcd13ifvqcp0","pricing_plan_id":"free"},{"bike_id":"12fe207e-d36c-49f5-acf0-ceca4625620f","system_id":"levelo_inurba_marseille","lat":43.328371,"lon":5.366909,"is_reserved":false,"is_disabled":false,"rental_uris":{"android":"levelo://app?vid=12fe207e-d36c-49f5-acf0-ceca4625620f","ios":"levelo://app?vid=12fe207e-d36c-49f5-acf0-ceca4625620f"},"vehicle_type_id":"4","last_reported":1688062262,"current_range_meters":14800,"station_id":"ce4bhs92rcd13ifvqi0g","pricing_plan_id":"free"},{"bike_id":"c308155a-030c-4de2-86d3-17e39d98d109","system_id":"levelo_inurba_marseille","lat":43.32829,"lon":5.36682,"is_reserved":false,"is_disabled":false,"rental_uris":{"android":"levelo://app?vid=c308155a-030c-4de2-86d3-17e39d98d109","ios":"levelo://app?vid=c308155a-030c-4de2-86d3-17e39d98d109"},"vehicle_type_id":"4","last_reported":1688062262,"current_range_meters":23600,"station_id":"ce4bhs92rcd13ifvqi0g","pricing_plan_id":"free"},{"bike_id":"0deb17c2-4b8c-4208-b5ce-d9378110190e","system_id":"levelo_inurba_marseille","lat":43.328371,"lon":5.366909,"is_reserved":false,"is_disabled":false,"rental_uris":{"android":"levelo://app?vid=0deb17c2-4b8c-4208-b5ce-d9378110190e","ios":"levelo://app?vid=0deb17c2-4b8c-4208-b5ce-d9378110190e"},"vehicle_type_id":"4","last_reported":1688062262,"current_range_meters":800,"station_id":"ce4bhs92rcd13ifvqi0g","pricing_plan_id":"free"},{"bike_id":"50ba392e-3db5-4f4f-bc61-7d7867a07cb4","system_id":"levelo_inurba_marseille","lat":43.31077,"lon":5.38867,"is_reserved":false,"is_disabled":false,"rental_uris":{"android":"levelo://app?vid=50ba392e-3db5-4f4f-bc61-7d7867a07cb4","ios":"levelo://app?vid=50ba392e-3db5-4f4f-bc61-7d7867a07cb4"},"vehicle_type_id":"4","last_reported":1688062262,"current_range_meters":9600,"station_id":"","pricing_plan_id":"free"},{"bike_id":"0779d832-f24a-451f-9c2d-66956f68f410","system_id":"levelo_inurba_marseille","lat":43.299028,"lon":5.381509,"is_reserved":false,"is_disabled":false,"rental_uris":{"android":"levelo://app?vid=0779d832-f24a-451f-9c2d-66956f68f410","ios":"levelo://app?vid=0779d832-f24a-451f-9c2d-66956f68f410"},"vehicle_type_id":"4","last_reported":1688062262,"current_range_meters":14400,"station_id":"ce4bgj12rcd13ifvqbc0","pricing_plan_id":"free"},{"bike_id":"022f5f38-3479-4485-bddc-4922f5bc5da2","system_id":"levelo_inurba_marseille","lat":43.299028,"lon":5.381509,"is_reserved":false,"is_disabled":false,"rental_uris":{"android":"levelo://app?vid=022f5f38-3479-4485-bddc-4922f5bc5da2","ios":"levelo://app?vid=022f5f38-3479-4485-bddc-4922f5bc5da2"},"vehicle_type_id":"4","last_reported":1688062262,"current_range_meters":1600,"station_id":"ce4bgj12rcd13ifvqbc0","pricing_plan_id":"free"},{"bike_id":"5659cdea-6764-4183-9410-17e474ba4853","system_id":"levelo_inurba_marseille","lat":43.317557,"lon":5.390173,"is_reserved":false,"is_disabled":false,"rental_uris":{"android":"levelo://app?vid=5659cdea-6764-4183-9410-17e474ba4853","ios":"levelo://app?vid=5659cdea-6764-4183-9410-17e474ba4853"},"vehicle_type_id":"4","last_reported":1688062262,"current_range_meters":31600,"station_id":"ce4bhqp2rcd13ifvqhng","pricing_plan_id":"free"},{"bike_id":"6ec79c0d-0303-4fd7-bd75-aee07039de1d","system_id":"levelo_inurba_marseille","lat":43.317557,"lon":5.390173,"is_reserved":false,"is_disabled":false,"rental_uris":{"android":"levelo://app?vid=6ec79c0d-0303-4fd7-bd75-aee07039de1d","ios":"levelo://app?vid=6ec79c0d-0303-4fd7-bd75-aee07039de1d"},"vehicle_type_id":"4","last_reported":1688062262,"current_range_meters":25600,"station_id":"ce4bhqp2rcd13ifvqhng","pricing_plan_id":"free"},{"bike_id":"e4bfb005-bd1f-4777-bd10-12bcaa16ee87","system_id":"levelo_inurba_marseille","lat":43.298037,"lon":5.381066,"is_reserved":false,"is_disabled":false,"rental_uris":{"android":"levelo://app?vid=e4bfb005-bd1f-4777-bd10-12bcaa16ee87","ios":"levelo://app?vid=e4bfb005-bd1f-4777-bd10-12bcaa16ee87"},"vehicle_type_id":"4","last_reported":1688062262,"current_range_meters":27600,"station_id":"ce4bgip2rcd13ifvqbb0","pricing_plan_id":"free"},{"bike_id":"1e518a9e-6254-46bb-8737-0dd2136b52ee","system_id":"levelo_inurba_marseille","lat":43.298037,"lon":5.381066,"is_reserved":false,"is_disabled":false,"rental_uris":{"android":"levelo://app?vid=1e518a9e-6254-46bb-8737-0dd2136b52ee","ios":"levelo://app?vid=1e518a9e-6254-46bb-8737-0dd2136b52ee"},"vehicle_type_id":"4","last_reported":1688062262,"current_range_meters":29600,"station_id":"ce4bgip2rcd13ifvqbb0","pricing_plan_id":"free"},{"bike_id":"b19762fe-6b0f-462a-891d-b6f4bf680e70","system_id":"levelo_inurba_marseille","lat":43.298037,"lon":5.381066,"is_reserved":false,"is_disabled":false,"rental_uris":{"android":"levelo://app?vid=b19762fe-6b0f-462a-891d-b6f4bf680e70","ios":"levelo://app?vid=b19762fe-6b0f-462a-891d-b6f4bf680e70"},"vehicle_type_id":"4","last_reported":1688062262,"current_range_meters":18800,"station_id":"ce4bgip2rcd13ifvqbb0","pricing_plan_id":"free"},{"bike_id":"45cbfb97-4c11-468d-a0fa-4b4d4466353a","system_id":"levelo_inurba_marseille","lat":43.29798,"lon":5.38106,"is_reserved":false,"is_disabled":false,"rental_uris":{"android":"levelo://app?vid=45cbfb97-4c11-468d-a0fa-4b4d4466353a","ios":"levelo://app?vid=45cbfb97-4c11-468d-a0fa-4b4d4466353a"},"vehicle_type_id":"4","last_reported":1688062262,"current_range_meters":0,"station_id":"ce4bgip2rcd13ifvqbb0","pricing_plan_id":"free"},{"bike_id":"cd6afb4c-0f5b-41e8-8b8c-8211196f2f06","system_id":"levelo_inurba_marseille","lat":43.304278,"lon":5.388868,"is_reserved":false,"is_disabled":false,"rental_uris":{"android":"levelo://app?vid=cd6afb4c-0f5b-41e8-8b8c-8211196f2f06","ios":"levelo://app?vid=cd6afb4c-0f5b-41e8-8b8c-8211196f2f06"},"vehicle_type_id":"4","last_reported":1688062262,"current_range_meters":0,"station_id":"ce4bgk12rcd13ifvqbi0","pricing_plan_id":"free"},{"bike_id":"d3bf805a-028c-43f3-b5e6-eebf4d4e656a","system_id":"levelo_inurba_marseille","lat":43.298037,"lon":5.381066,"is_reserved":false,"is_disabled":false,"rental_uris":{"android":"levelo://app?vid=d3bf805a-028c-43f3-b5e6-eebf4d4e656a","ios":"levelo://app?vid=d3bf805a-028c-43f3-b5e6-eebf4d4e656a"},"vehicle_type_id":"4","last_reported":1688062262,"current_range_meters":28800,"station_id":"ce4bgip2rcd13ifvqbb0","pricing_plan_id":"free"},{"bike_id":"bd2f52e9-4aea-4e47-b980-63a292f1e843","system_id":"levelo_inurba_marseille","lat":43.298037,"lon":5.381066,"is_reserved":false,"is_disabled":false,"rental_uris":{"android":"levelo://app?vid=bd2f52e9-4aea-4e47-b980-63a292f1e843","ios":"levelo://app?vid=bd2f52e9-4aea-4e47-b980-63a292f1e843"},"vehicle_type_id":"4","last_reported":1688062262,"current_range_meters":7600,"station_id":"ce4bgip2rcd13ifvqbb0","pricing_plan_id":"free"},{"bike_id":"e5a4d109-16da-4369-9981-ff655d254cae","system_id":"levelo_inurba_marseille","lat":43.297526,"lon":5.380432,"is_reserved":false,"is_disabled":false,"rental_uris":{"android":"levelo://app?vid=e5a4d109-16da-4369-9981-ff655d254cae","ios":"levelo://app?vid=e5a4d109-16da-4369-9981-ff655d254cae"},"vehicle_type_id":"4","last_reported":1688062262,"current_range_meters":21600,"station_id":"","pricing_plan_id":"free"},{"bike_id":"dbb374b9-78f0-4b88-9ab9-da50f597adc9","system_id":"levelo_inurba_marseille","lat":43.299707,"lon":5.384859,"is_reserved":false,"is_disabled":false,"rental_uris":{"android":"levelo://app?vid=dbb374b9-78f0-4b88-9ab9-da50f597adc9","ios":"levelo://app?vid=dbb374b9-78f0-4b88-9ab9-da50f597adc9"},"vehicle_type_id":"4","last_reported":1688062262,"current_range_meters":3600,"station_id":"ce4bgj92rcd13ifvqbd0","pricing_plan_id":"free"},{"bike_id":"756fd0d9-1f10-4165-86bf-e4e9be1f1f4d","system_id":"levelo_inurba_marseille","lat":43.299707,"lon":5.384859,"is_reserved":false,"is_disabled":false,"rental_uris":{"android":"levelo://app?vid=756fd0d9-1f10-4165-86bf-e4e9be1f1f4d","ios":"levelo://app?vid=756fd0d9-1f10-4165-86bf-e4e9be1f1f4d"},"vehicle_type_id":"4","last_reported":1688062262,"current_range_meters":2800,"station_id":"ce4bgj92rcd13ifvqbd0","pricing_plan_id":"free"},{"bike_id":"7a613a94-ea73-49db-8362-49b0fe089958","system_id":"levelo_inurba_marseille","lat":43.299707,"lon":5.384859,"is_reserved":false,"is_disabled":false,"rental_uris":{"android":"levelo://app?vid=7a613a94-ea73-49db-8362-49b0fe089958","ios":"levelo://app?vid=7a613a94-ea73-49db-8362-49b0fe089958"},"vehicle_type_id":"4","last_reported":1688062262,"current_range_meters":1600,"station_id":"ce4bgj92rcd13ifvqbd0","pricing_plan_id":"free"},{"bike_id":"5566cf14-6abc-4b58-aeb1-d7553072dce9","system_id":"levelo_inurba_marseille","lat":43.299717,"lon":5.384845,"is_reserved":false,"is_disabled":false,"rental_uris":{"android":"levelo://app?vid=5566cf14-6abc-4b58-aeb1-d7553072dce9","ios":"levelo://app?vid=5566cf14-6abc-4b58-aeb1-d7553072dce9"},"vehicle_type_id":"4","last_reported":1688062262,"current_range_meters":24800,"station_id":"ce4bgj92rcd13ifvqbd0","pricing_plan_id":"free"},{"bike_id":"9e210ebe-a184-4f7d-a083-a7974606756d","system_id":"levelo_inurba_marseille","lat":43.299724,"lon":5.384848,"is_reserved":false,"is_disabled":false,"rental_uris":{"android":"levelo://app?vid=9e210ebe-a184-4f7d-a083-a7974606756d","ios":"levelo://app?vid=9e210ebe-a184-4f7d-a083-a7974606756d"},"vehicle_type_id":"4","last_reported":1688062262,"current_range_meters":0,"station_id":"ce4bgj92rcd13ifvqbd0","pricing_plan_id":"free"},{"bike_id":"99d1765e-2ebc-474d-996b-792ff2adb9db","system_id":"levelo_inurba_marseille","lat":43.32205,"lon":5.38939,"is_reserved":false,"is_disabled":false,"rental_uris":{"android":"levelo://app?vid=99d1765e-2ebc-474d-996b-792ff2adb9db","ios":"levelo://app?vid=99d1765e-2ebc-474d-996b-792ff2adb9db"},"vehicle_type_id":"4","last_reported":1688062262,"current_range_meters":24800,"station_id":"","pricing_plan_id":"free"},{"bike_id":"a77c9f55-f10d-4fed-a2f3-ed48021a3bdb","system_id":"levelo_inurba_marseille","lat":43.32363,"lon":5.38874,"is_reserved":false,"is_disabled":false,"rental_uris":{"android":"levelo://app?vid=a77c9f55-f10d-4fed-a2f3-ed48021a3bdb","ios":"levelo://app?vid=a77c9f55-f10d-4fed-a2f3-ed48021a3bdb"},"vehicle_type_id":"4","last_reported":1688062262,"current_range_meters":31200,"station_id":"ce4bhqp2rcd13ifvqhog","pricing_plan_id":"free"},{"bike_id":"b80fcc20-346f-42dd-9156-a94d11555263","system_id":"levelo_inurba_marseille","lat":43.29352,"lon":5.37141,"is_reserved":false,"is_disabled":false,"rental_uris":{"android":"levelo://app?vid=b80fcc20-346f-42dd-9156-a94d11555263","ios":"levelo://app?vid=b80fcc20-346f-42dd-9156-a94d11555263"},"vehicle_type_id":"4","last_reported":1688062262,"current_range_meters":23200,"station_id":"","pricing_plan_id":"free"},{"bike_id":"c737b305-2f9e-411a-b1ca-26b0f745d0f2","system_id":"levelo_inurba_marseille","lat":43.33191,"lon":5.36162,"is_reserved":false,"is_disabled":false,"rental_uris":{"android":"levelo://app?vid=c737b305-2f9e-411a-b1ca-26b0f745d0f2","ios":"levelo://app?vid=c737b305-2f9e-411a-b1ca-26b0f745d0f2"},"vehicle_type_id":"4","last_reported":1688062262,"current_range_meters":4800,"station_id":"","pricing_plan_id":"free"},{"bike_id":"8a319311-21f5-406a-9e61-d0b8a8c26242","system_id":"levelo_inurba_marseille","lat":43.29601,"lon":5.381084,"is_reserved":false,"is_disabled":false,"rental_uris":{"android":"levelo://app?vid=8a319311-21f5-406a-9e61-d0b8a8c26242","ios":"levelo://app?vid=8a319311-21f5-406a-9e61-d0b8a8c26242"},"vehicle_type_id":"4","last_reported":1688062262,"current_range_meters":24400,"station_id":"ce4bgl12rcd13ifvqbo0","pricing_plan_id":"free"},{"bike_id":"0233a53b-9fba-40aa-97c6-ac5c259d880c","system_id":"levelo_inurba_marseille","lat":43.30036,"lon":5.38918,"is_reserved":false,"is_disabled":false,"rental_uris":{"android":"levelo://app?vid=0233a53b-9fba-40aa-97c6-ac5c259d880c","ios":"levelo://app?vid=0233a53b-9fba-40aa-97c6-ac5c259d880c"},"vehicle_type_id":"4","last_reported":1688062262,"current_range_meters":15200,"station_id":"","pricing_plan_id":"free"},{"bike_id":"54f96e03-b8cd-4955-a7f9-fc1c65f5d1fc","system_id":"levelo_inurba_marseille","lat":43.293009,"lon":5.374584,"is_reserved":false,"is_disabled":false,"rental_uris":{"android":"levelo://app?vid=54f96e03-b8cd-4955-a7f9-fc1c65f5d1fc","ios":"levelo://app?vid=54f96e03-b8cd-4955-a7f9-fc1c65f5d1fc"},"vehicle_type_id":"4","last_reported":1688062262,"current_range_meters":9600,"station_id":"ce4bgi12rcd13ifvqb70","pricing_plan_id":"free"},{"bike_id":"1d2193ce-1652-436b-9e1b-8c877f2a0dfc","system_id":"levelo_inurba_marseille","lat":43.293009,"lon":5.374584,"is_reserved":false,"is_disabled":false,"rental_uris":{"android":"levelo://app?vid=1d2193ce-1652-436b-9e1b-8c877f2a0dfc","ios":"levelo://app?vid=1d2193ce-1652-436b-9e1b-8c877f2a0dfc"},"vehicle_type_id":"4","last_reported":1688062262,"current_range_meters":6800,"station_id":"ce4bgi12rcd13ifvqb70","pricing_plan_id":"free"},{"bike_id":"0ae9c9ac-14a3-4415-81f4-ac2fd0810666","system_id":"levelo_inurba_marseille","lat":43.30085,"lon":5.390856,"is_reserved":false,"is_disabled":false,"rental_uris":{"android":"levelo://app?vid=0ae9c9ac-14a3-4415-81f4-ac2fd0810666","ios":"levelo://app?vid=0ae9c9ac-14a3-4415-81f4-ac2fd0810666"},"vehicle_type_id":"4","last_reported":1688062262,"current_range_meters":7200,"station_id":"ce4bh192rcd13ifvqdb0","pricing_plan_id":"free"},{"bike_id":"fadafedb-852b-481b-9c71-0a5d828df4fe","system_id":"levelo_inurba_marseille","lat":43.2936,"lon":5.37835,"is_reserved":false,"is_disabled":false,"rental_uris":{"android":"levelo://app?vid=fadafedb-852b-481b-9c71-0a5d828df4fe","ios":"levelo://app?vid=fadafedb-852b-481b-9c71-0a5d828df4fe"},"vehicle_type_id":"4","last_reported":1688062262,"current_range_meters":0,"station_id":"ce4bgjh2rcd13ifvqbf0","pricing_plan_id":"free"},{"bike_id":"76c890be-3e4b-4dcc-a1b1-4fffdc43a3fe","system_id":"levelo_inurba_marseille","lat":43.292663,"lon":5.376389,"is_reserved":false,"is_disabled":false,"rental_uris":{"android":"levelo://app?vid=76c890be-3e4b-4dcc-a1b1-4fffdc43a3fe","ios":"levelo://app?vid=76c890be-3e4b-4dcc-a1b1-4fffdc43a3fe"},"vehicle_type_id":"4","last_reported":1688062262,"current_range_meters":21600,"station_id":"ce4bgi12rcd13ifvqb80","pricing_plan_id":"free"},{"bike_id":"8c52669b-4fd9-4350-b84f-4eafb67749e9","system_id":"levelo_inurba_marseille","lat":43.292663,"lon":5.376389,"is_reserved":false,"is_disabled":false,"rental_uris":{"android":"levelo://app?vid=8c52669b-4fd9-4350-b84f-4eafb67749e9","ios":"levelo://app?vid=8c52669b-4fd9-4350-b84f-4eafb67749e9"},"vehicle_type_id":"4","last_reported":1688062262,"current_range_meters":17200,"station_id":"ce4bgi12rcd13ifvqb80","pricing_plan_id":"free"},{"bike_id":"035d792b-b9b6-4603-9093-d5653e5ee260","system_id":"levelo_inurba_marseille","lat":43.291671,"lon":5.371575,"is_reserved":false,"is_disabled":false,"rental_uris":{"android":"levelo://app?vid=035d792b-b9b6-4603-9093-d5653e5ee260","ios":"levelo://app?vid=035d792b-b9b6-4603-9093-d5653e5ee260"},"vehicle_type_id":"4","last_reported":1688062262,"current_range_meters":22800,"station_id":"ce4bha92rcd13ifvqeh0","pricing_plan_id":"free"},{"bike_id":"8420a53b-392d-4d39-95f4-d649f76653d2","system_id":"levelo_inurba_marseille","lat":43.309038,"lon":5.396546,"is_reserved":false,"is_disabled":false,"rental_uris":{"android":"levelo://app?vid=8420a53b-392d-4d39-95f4-d649f76653d2","ios":"levelo://app?vid=8420a53b-392d-4d39-95f4-d649f76653d2"},"vehicle_type_id":"4","last_reported":1688062262,"current_range_meters":6400,"station_id":"ce4bh012rcd13ifvqcv0","pricing_plan_id":"free"},{"bike_id":"3ca9ac4d-8545-4a82-9994-fc6123faff38","system_id":"levelo_inurba_marseille","lat":43.29538,"lon":5.38553,"is_reserved":false,"is_disabled":false,"rental_uris":{"android":"levelo://app?vid=3ca9ac4d-8545-4a82-9994-fc6123faff38","ios":"levelo://app?vid=3ca9ac4d-8545-4a82-9994-fc6123faff38"},"vehicle_type_id":"4","last_reported":1688062262,"current_range_meters":0,"station_id":"ce4bgih2rcd13ifvqba0","pricing_plan_id":"free"},{"bike_id":"64390bc6-7fb0-48ae-8ac1-4e306075c131","system_id":"levelo_inurba_marseille","lat":43.290779,"lon":5.371482,"is_reserved":false,"is_disabled":false,"rental_uris":{"android":"levelo://app?vid=64390bc6-7fb0-48ae-8ac1-4e306075c131","ios":"levelo://app?vid=64390bc6-7fb0-48ae-8ac1-4e306075c131"},"vehicle_type_id":"4","last_reported":1688062262,"current_range_meters":3600,"station_id":"ce4bh5p2rcd13ifvqe4g","pricing_plan_id":"free"},{"bike_id":"70a0f335-427b-4b46-8de2-523149357c07","system_id":"levelo_inurba_marseille","lat":43.290327,"lon":5.375711,"is_reserved":false,"is_disabled":false,"rental_uris":{"android":"levelo://app?vid=70a0f335-427b-4b46-8de2-523149357c07","ios":"levelo://app?vid=70a0f335-427b-4b46-8de2-523149357c07"},"vehicle_type_id":"4","last_reported":1688062262,"current_range_meters":0,"station_id":"ce4bh692rcd13ifvqe90","pricing_plan_id":"free"},{"bike_id":"421f55cd-b7c1-450c-b14e-38d9d6d75389","system_id":"levelo_inurba_marseille","lat":43.294174,"lon":5.386231,"is_reserved":false,"is_disabled":false,"rental_uris":{"android":"levelo://app?vid=421f55cd-b7c1-450c-b14e-38d9d6d75389","ios":"levelo://app?vid=421f55cd-b7c1-450c-b14e-38d9d6d75389"},"vehicle_type_id":"4","last_reported":1688062262,"current_range_meters":6000,"station_id":"","pricing_plan_id":"free"},{"bike_id":"399ef6b6-bd49-40a3-a085-0dfa050cfb9f","system_id":"levelo_inurba_marseille","lat":43.29411,"lon":5.38614,"is_reserved":false,"is_disabled":false,"rental_uris":{"android":"levelo://app?vid=399ef6b6-bd49-40a3-a085-0dfa050cfb9f","ios":"levelo://app?vid=399ef6b6-bd49-40a3-a085-0dfa050cfb9f"},"vehicle_type_id":"4","last_reported":1688062262,"current_range_meters":0,"station_id":"","pricing_plan_id":"free"},{"bike_id":"61c1629c-6e5b-4be3-a51c-929002024660","system_id":"levelo_inurba_marseille","lat":43.292644,"lon":5.384257,"is_reserved":false,"is_disabled":false,"rental_uris":{"android":"levelo://app?vid=61c1629c-6e5b-4be3-a51c-929002024660","ios":"levelo://app?vid=61c1629c-6e5b-4be3-a51c-929002024660"},"vehicle_type_id":"4","last_reported":1688062262,"current_range_meters":4800,"station_id":"ce4bh692rcd13ifvqea0","pricing_plan_id":"free"},{"bike_id":"057a3a64-1b50-4d9b-b492-9125c6d7a5da","system_id":"levelo_inurba_marseille","lat":43.304296,"lon":5.397513,"is_reserved":false,"is_disabled":false,"rental_uris":{"android":"levelo://app?vid=057a3a64-1b50-4d9b-b492-9125c6d7a5da","ios":"levelo://app?vid=057a3a64-1b50-4d9b-b492-9125c6d7a5da"},"vehicle_type_id":"4","last_reported":1688062262,"current_range_meters":28000,"station_id":"ce4bh092rcd13ifvqd20","pricing_plan_id":"free"},{"bike_id":"00820592-1498-4d7b-82f6-4e664e8ea57d","system_id":"levelo_inurba_marseille","lat":43.29013,"lon":5.35613,"is_reserved":false,"is_disabled":false,"rental_uris":{"android":"levelo://app?vid=00820592-1498-4d7b-82f6-4e664e8ea57d","ios":"levelo://app?vid=00820592-1498-4d7b-82f6-4e664e8ea57d"},"vehicle_type_id":"4","last_reported":1688062262,"current_range_meters":5200,"station_id":"","pricing_plan_id":"free"},{"bike_id":"b2261c19-0ee2-44b5-ba14-0a4537b7d69b","system_id":"levelo_inurba_marseille","lat":43.290104,"lon":5.356111,"is_reserved":false,"is_disabled":false,"rental_uris":{"android":"levelo://app?vid=b2261c19-0ee2-44b5-ba14-0a4537b7d69b","ios":"levelo://app?vid=b2261c19-0ee2-44b5-ba14-0a4537b7d69b"},"vehicle_type_id":"4","last_reported":1688062262,"current_range_meters":16400,"station_id":"ce4bhb92rcd13ifvqen0","pricing_plan_id":"free"},{"bike_id":"de991d47-c2bd-4ac4-b4a7-2090e7e45b45","system_id":"levelo_inurba_marseille","lat":43.290995,"lon":5.381361,"is_reserved":false,"is_disabled":false,"rental_uris":{"android":"levelo://app?vid=de991d47-c2bd-4ac4-b4a7-2090e7e45b45","ios":"levelo://app?vid=de991d47-c2bd-4ac4-b4a7-2090e7e45b45"},"vehicle_type_id":"4","last_reported":1688062262,"current_range_meters":1600,"station_id":"ce4bh512rcd13ifvqe2g","pricing_plan_id":"free"},{"bike_id":"cf5aa2e0-4bbc-4c24-a26b-05f9b41a4746","system_id":"levelo_inurba_marseille","lat":43.28981,"lon":5.37838,"is_reserved":false,"is_disabled":false,"rental_uris":{"android":"levelo://app?vid=cf5aa2e0-4bbc-4c24-a26b-05f9b41a4746","ios":"levelo://app?vid=cf5aa2e0-4bbc-4c24-a26b-05f9b41a4746"},"vehicle_type_id":"4","last_reported":1688062262,"current_range_meters":11600,"station_id":"ce4bh9p2rcd13ifvqed0","pricing_plan_id":"free"},{"bike_id":"c904da0e-05b4-41e7-a719-217ce38e181b","system_id":"levelo_inurba_marseille","lat":43.295169,"lon":5.390426,"is_reserved":false,"is_disabled":false,"rental_uris":{"android":"levelo://app?vid=c904da0e-05b4-41e7-a719-217ce38e181b","ios":"levelo://app?vid=c904da0e-05b4-41e7-a719-217ce38e181b"},"vehicle_type_id":"4","last_reported":1688062262,"current_range_meters":12400,"station_id":"ce4bh3p2rcd13ifvqdp0","pricing_plan_id":"free"},{"bike_id":"fbdcf6be-c9e0-4808-998a-58bb9b9cb69e","system_id":"levelo_inurba_marseille","lat":43.295169,"lon":5.390426,"is_reserved":false,"is_disabled":false,"rental_uris":{"android":"levelo://app?vid=fbdcf6be-c9e0-4808-998a-58bb9b9cb69e","ios":"levelo://app?vid=fbdcf6be-c9e0-4808-998a-58bb9b9cb69e"},"vehicle_type_id":"4","last_reported":1688062262,"current_range_meters":21600,"station_id":"ce4bh3p2rcd13ifvqdp0","pricing_plan_id":"free"},{"bike_id":"6e4ed59d-8295-4bda-894c-714981abd864","system_id":"levelo_inurba_marseille","lat":43.28856,"lon":5.358371,"is_reserved":false,"is_disabled":false,"rental_uris":{"android":"levelo://app?vid=6e4ed59d-8295-4bda-894c-714981abd864","ios":"levelo://app?vid=6e4ed59d-8295-4bda-894c-714981abd864"},"vehicle_type_id":"4","last_reported":1688062262,"current_range_meters":6800,"station_id":"ce4bhb12rcd13ifvqem0","pricing_plan_id":"free"},{"bike_id":"9eb1676c-99ef-44af-81a2-5e080bdc76f6","system_id":"levelo_inurba_marseille","lat":43.286039,"lon":5.370679,"is_reserved":false,"is_disabled":false,"rental_uris":{"android":"levelo://app?vid=9eb1676c-99ef-44af-81a2-5e080bdc76f6","ios":"levelo://app?vid=9eb1676c-99ef-44af-81a2-5e080bdc76f6"},"vehicle_type_id":"4","last_reported":1688062262,"current_range_meters":6000,"station_id":"ce4bht12rcd13ifvqi60","pricing_plan_id":"free"},{"bike_id":"74f10ff0-7781-4932-9e9d-caae4c249ec0","system_id":"levelo_inurba_marseille","lat":43.28856,"lon":5.35841,"is_reserved":false,"is_disabled":false,"rental_uris":{"android":"levelo://app?vid=74f10ff0-7781-4932-9e9d-caae4c249ec0","ios":"levelo://app?vid=74f10ff0-7781-4932-9e9d-caae4c249ec0"},"vehicle_type_id":"4","last_reported":1688062262,"current_range_meters":1200,"station_id":"ce4bhb12rcd13ifvqem0","pricing_plan_id":"free"},{"bike_id":"50f38ba1-3e9c-47ef-914c-f8153dcab39f","system_id":"levelo_inurba_marseille","lat":43.28856,"lon":5.358371,"is_reserved":false,"is_disabled":false,"rental_uris":{"android":"levelo://app?vid=50f38ba1-3e9c-47ef-914c-f8153dcab39f","ios":"levelo://app?vid=50f38ba1-3e9c-47ef-914c-f8153dcab39f"},"vehicle_type_id":"4","last_reported":1688062262,"current_range_meters":5200,"station_id":"ce4bhb12rcd13ifvqem0","pricing_plan_id":"free"},{"bike_id":"9b23dc38-9a44-4d64-b444-c6e61f2eae9f","system_id":"levelo_inurba_marseille","lat":43.28856,"lon":5.358371,"is_reserved":false,"is_disabled":false,"rental_uris":{"android":"levelo://app?vid=9b23dc38-9a44-4d64-b444-c6e61f2eae9f","ios":"levelo://app?vid=9b23dc38-9a44-4d64-b444-c6e61f2eae9f"},"vehicle_type_id":"4","last_reported":1688062262,"current_range_meters":4000,"station_id":"ce4bhb12rcd13ifvqem0","pricing_plan_id":"free"},{"bike_id":"50addb93-59ca-464f-9bd3-af34b1190966","system_id":"levelo_inurba_marseille","lat":43.33732,"lon":5.37399,"is_reserved":false,"is_disabled":false,"rental_uris":{"android":"levelo://app?vid=50addb93-59ca-464f-9bd3-af34b1190966","ios":"levelo://app?vid=50addb93-59ca-464f-9bd3-af34b1190966"},"vehicle_type_id":"4","last_reported":1688062262,"current_range_meters":29200,"station_id":"","pricing_plan_id":"free"},{"bike_id":"b8bf73c4-9484-46f1-97b5-8575db35b481","system_id":"levelo_inurba_marseille","lat":43.33743,"lon":5.37473,"is_reserved":false,"is_disabled":false,"rental_uris":{"android":"levelo://app?vid=b8bf73c4-9484-46f1-97b5-8575db35b481","ios":"levelo://app?vid=b8bf73c4-9484-46f1-97b5-8575db35b481"},"vehicle_type_id":"4","last_reported":1688062262,"current_range_meters":30000,"station_id":"","pricing_plan_id":"free"},{"bike_id":"d1d48dbc-bef7-4f0a-ac87-eeefad6e13c7","system_id":"levelo_inurba_marseille","lat":43.33743,"lon":5.37486,"is_reserved":false,"is_disabled":false,"rental_uris":{"android":"levelo://app?vid=d1d48dbc-bef7-4f0a-ac87-eeefad6e13c7","ios":"levelo://app?vid=d1d48dbc-bef7-4f0a-ac87-eeefad6e13c7"},"vehicle_type_id":"4","last_reported":1688062262,"current_range_meters":12400,"station_id":"","pricing_plan_id":"free"},{"bike_id":"b152602a-aaa7-4eed-93ba-89050d9c58ba","system_id":"levelo_inurba_marseille","lat":43.3067,"lon":5.40078,"is_reserved":false,"is_disabled":false,"rental_uris":{"android":"levelo://app?vid=b152602a-aaa7-4eed-93ba-89050d9c58ba","ios":"levelo://app?vid=b152602a-aaa7-4eed-93ba-89050d9c58ba"},"vehicle_type_id":"4","last_reported":1688062262,"current_range_meters":18800,"station_id":"","pricing_plan_id":"free"},{"bike_id":"476cd57c-2e9c-4f0d-a086-f93a7e3396f6","system_id":"levelo_inurba_marseille","lat":43.337516,"lon":5.374747,"is_reserved":false,"is_disabled":false,"rental_uris":{"android":"levelo://app?vid=476cd57c-2e9c-4f0d-a086-f93a7e3396f6","ios":"levelo://app?vid=476cd57c-2e9c-4f0d-a086-f93a7e3396f6"},"vehicle_type_id":"4","last_reported":1688062262,"current_range_meters":24000,"station_id":"","pricing_plan_id":"free"},{"bike_id":"9ced9c63-6a3c-448d-b0ad-4fb7a6194ca7","system_id":"levelo_inurba_marseille","lat":43.306412,"lon":5.401035,"is_reserved":false,"is_disabled":false,"rental_uris":{"android":"levelo://app?vid=9ced9c63-6a3c-448d-b0ad-4fb7a6194ca7","ios":"levelo://app?vid=9ced9c63-6a3c-448d-b0ad-4fb7a6194ca7"},"vehicle_type_id":"4","last_reported":1688062262,"current_range_meters":3200,"station_id":"ce4bh112rcd13ifvqda0","pricing_plan_id":"free"},{"bike_id":"4b0bc7bc-9595-494a-9c96-e53262de35d8","system_id":"levelo_inurba_marseille","lat":43.33782,"lon":5.37413,"is_reserved":false,"is_disabled":false,"rental_uris":{"android":"levelo://app?vid=4b0bc7bc-9595-494a-9c96-e53262de35d8","ios":"levelo://app?vid=4b0bc7bc-9595-494a-9c96-e53262de35d8"},"vehicle_type_id":"4","last_reported":1688062262,"current_range_meters":31600,"station_id":"","pricing_plan_id":"free"},{"bike_id":"a61d0899-fcf4-483c-9eb0-054bb4a26cd4","system_id":"levelo_inurba_marseille","lat":43.33781,"lon":5.37448,"is_reserved":false,"is_disabled":false,"rental_uris":{"android":"levelo://app?vid=a61d0899-fcf4-483c-9eb0-054bb4a26cd4","ios":"levelo://app?vid=a61d0899-fcf4-483c-9eb0-054bb4a26cd4"},"vehicle_type_id":"4","last_reported":1688062262,"current_range_meters":28400,"station_id":"","pricing_plan_id":"free"},{"bike_id":"dd276b70-bbcc-4992-a33d-e85f661d9f6c","system_id":"levelo_inurba_marseille","lat":43.301117,"lon":5.398795,"is_reserved":false,"is_disabled":false,"rental_uris":{"android":"levelo://app?vid=dd276b70-bbcc-4992-a33d-e85f661d9f6c","ios":"levelo://app?vid=dd276b70-bbcc-4992-a33d-e85f661d9f6c"},"vehicle_type_id":"4","last_reported":1688062262,"current_range_meters":10000,"station_id":"ce4bh0h2rcd13ifvqd40","pricing_plan_id":"free"},{"bike_id":"90aa82ea-faa6-4a86-9794-034ec6fccfd4","system_id":"levelo_inurba_marseille","lat":43.30454,"lon":5.40081,"is_reserved":false,"is_disabled":false,"rental_uris":{"android":"levelo://app?vid=90aa82ea-faa6-4a86-9794-034ec6fccfd4","ios":"levelo://app?vid=90aa82ea-faa6-4a86-9794-034ec6fccfd4"},"vehicle_type_id":"4","last_reported":1688062262,"current_range_meters":19200,"station_id":"","pricing_plan_id":"free"},{"bike_id":"6cdba6e7-473e-46f6-875b-24b9b929286a","system_id":"levelo_inurba_marseille","lat":43.29864,"lon":5.3974,"is_reserved":false,"is_disabled":false,"rental_uris":{"android":"levelo://app?vid=6cdba6e7-473e-46f6-875b-24b9b929286a","ios":"levelo://app?vid=6cdba6e7-473e-46f6-875b-24b9b929286a"},"vehicle_type_id":"4","last_reported":1688062262,"current_range_meters":5600,"station_id":"ce4bh0h2rcd13ifvqd50","pricing_plan_id":"free"},{"bike_id":"11dc6fc7-c1d5-4d69-88eb-f7c9aa97cb64","system_id":"levelo_inurba_marseille","lat":43.295194,"lon":5.39397,"is_reserved":false,"is_disabled":false,"rental_uris":{"android":"levelo://app?vid=11dc6fc7-c1d5-4d69-88eb-f7c9aa97cb64","ios":"levelo://app?vid=11dc6fc7-c1d5-4d69-88eb-f7c9aa97cb64"},"vehicle_type_id":"4","last_reported":1688062262,"current_range_meters":19600,"station_id":"ce4bh292rcd13ifvqdf0","pricing_plan_id":"free"},{"bike_id":"3774076d-1aa6-46db-b8d2-95f19d11517d","system_id":"levelo_inurba_marseille","lat":43.302759,"lon":5.400793,"is_reserved":false,"is_disabled":false,"rental_uris":{"android":"levelo://app?vid=3774076d-1aa6-46db-b8d2-95f19d11517d","ios":"levelo://app?vid=3774076d-1aa6-46db-b8d2-95f19d11517d"},"vehicle_type_id":"4","last_reported":1688062262,"current_range_meters":5200,"station_id":"ce4bgvh2rcd13ifvqcs0","pricing_plan_id":"free"},{"bike_id":"e07af657-7f14-47f8-9a90-176ae8686d8b","system_id":"levelo_inurba_marseille","lat":43.302759,"lon":5.400793,"is_reserved":false,"is_disabled":false,"rental_uris":{"android":"levelo://app?vid=e07af657-7f14-47f8-9a90-176ae8686d8b","ios":"levelo://app?vid=e07af657-7f14-47f8-9a90-176ae8686d8b"},"vehicle_type_id":"4","last_reported":1688062262,"current_range_meters":26800,"station_id":"ce4bgvh2rcd13ifvqcs0","pricing_plan_id":"free"},{"bike_id":"dcaa4235-5b75-4f96-bc72-767c6b427222","system_id":"levelo_inurba_marseille","lat":43.286039,"lon":5.370679,"is_reserved":false,"is_disabled":false,"rental_uris":{"android":"levelo://app?vid=dcaa4235-5b75-4f96-bc72-767c6b427222","ios":"levelo://app?vid=dcaa4235-5b75-4f96-bc72-767c6b427222"},"vehicle_type_id":"4","last_reported":1688062262,"current_range_meters":31600,"station_id":"ce4bht12rcd13ifvqi60","pricing_plan_id":"free"},{"bike_id":"d69fed3a-efe9-46fb-b1dc-1240b8978d3e","system_id":"levelo_inurba_marseille","lat":43.316517,"lon":5.404375,"is_reserved":false,"is_disabled":false,"rental_uris":{"android":"levelo://app?vid=d69fed3a-efe9-46fb-b1dc-1240b8978d3e","ios":"levelo://app?vid=d69fed3a-efe9-46fb-b1dc-1240b8978d3e"},"vehicle_type_id":"4","last_reported":1688062262,"current_range_meters":20400,"station_id":"ce4bh012rcd13ifvqd00","pricing_plan_id":"free"},{"bike_id":"a876c700-4ad5-459c-b89e-938ef5957898","system_id":"levelo_inurba_marseille","lat":43.284534,"lon":5.358662,"is_reserved":false,"is_disabled":false,"rental_uris":{"android":"levelo://app?vid=a876c700-4ad5-459c-b89e-938ef5957898","ios":"levelo://app?vid=a876c700-4ad5-459c-b89e-938ef5957898"},"vehicle_type_id":"4","last_reported":1688062262,"current_range_meters":4000,"station_id":"ce4bhah2rcd13ifvqei0","pricing_plan_id":"free"},{"bike_id":"70279d7a-def4-4a4f-8704-cc4b898e13b1","system_id":"levelo_inurba_marseille","lat":43.28621,"lon":5.35106,"is_reserved":false,"is_disabled":false,"rental_uris":{"android":"levelo://app?vid=70279d7a-def4-4a4f-8704-cc4b898e13b1","ios":"levelo://app?vid=70279d7a-def4-4a4f-8704-cc4b898e13b1"},"vehicle_type_id":"4","last_reported":1688062262,"current_range_meters":31200,"station_id":"ce4bhch2rcd13ifvqeug","pricing_plan_id":"free"},{"bike_id":"8c78948c-806c-4618-8361-d85673757f34","system_id":"levelo_inurba_marseille","lat":43.28617,"lon":5.35109,"is_reserved":false,"is_disabled":false,"rental_uris":{"android":"levelo://app?vid=8c78948c-806c-4618-8361-d85673757f34","ios":"levelo://app?vid=8c78948c-806c-4618-8361-d85673757f34"},"vehicle_type_id":"4","last_reported":1688062262,"current_range_meters":20000,"station_id":"ce4bhch2rcd13ifvqeug","pricing_plan_id":"free"},{"bike_id":"cc046cef-c0e0-4a01-b3fb-dd5c0efa7bce","system_id":"levelo_inurba_marseille","lat":43.28615,"lon":5.35114,"is_reserved":false,"is_disabled":false,"rental_uris":{"android":"levelo://app?vid=cc046cef-c0e0-4a01-b3fb-dd5c0efa7bce","ios":"levelo://app?vid=cc046cef-c0e0-4a01-b3fb-dd5c0efa7bce"},"vehicle_type_id":"4","last_reported":1688062262,"current_range_meters":10400,"station_id":"ce4bhch2rcd13ifvqeug","pricing_plan_id":"free"},{"bike_id":"3a8a2c20-7710-4bb6-9559-c8a9016fda2b","system_id":"levelo_inurba_marseille","lat":43.298433,"lon":5.362774,"is_reserved":false,"is_disabled":false,"rental_uris":{"android":"levelo://app?vid=3a8a2c20-7710-4bb6-9559-c8a9016fda2b","ios":"levelo://app?vid=3a8a2c20-7710-4bb6-9559-c8a9016fda2b"},"vehicle_type_id":"4","last_reported":1688062262,"current_range_meters":6400,"station_id":"ce4bgpp2rcd13ifvqc3g","pricing_plan_id":"free"},{"bike_id":"e793c357-c233-4c6e-9aaa-6cc4ad6eeeaa","system_id":"levelo_inurba_marseille","lat":43.28615,"lon":5.35107,"is_reserved":false,"is_disabled":false,"rental_uris":{"android":"levelo://app?vid=e793c357-c233-4c6e-9aaa-6cc4ad6eeeaa","ios":"levelo://app?vid=e793c357-c233-4c6e-9aaa-6cc4ad6eeeaa"},"vehicle_type_id":"4","last_reported":1688062262,"current_range_meters":25200,"station_id":"ce4bhch2rcd13ifvqeug","pricing_plan_id":"free"},{"bike_id":"4157c51d-b0f3-4df3-b58a-9fe20fa924c6","system_id":"levelo_inurba_marseille","lat":43.285856,"lon":5.350771,"is_reserved":false,"is_disabled":false,"rental_uris":{"android":"levelo://app?vid=4157c51d-b0f3-4df3-b58a-9fe20fa924c6","ios":"levelo://app?vid=4157c51d-b0f3-4df3-b58a-9fe20fa924c6"},"vehicle_type_id":"4","last_reported":1688062262,"current_range_meters":31200,"station_id":"ce4bhch2rcd13ifvqeug","pricing_plan_id":"free"},{"bike_id":"f08083fc-11b5-460f-ba64-fd3b0940125c","system_id":"levelo_inurba_marseille","lat":43.283998,"lon":5.375062,"is_reserved":false,"is_disabled":false,"rental_uris":{"android":"levelo://app?vid=f08083fc-11b5-460f-ba64-fd3b0940125c","ios":"levelo://app?vid=f08083fc-11b5-460f-ba64-fd3b0940125c"},"vehicle_type_id":"4","last_reported":1688062262,"current_range_meters":4400,"station_id":"ce4bh412rcd13ifvqds0","pricing_plan_id":"free"},{"bike_id":"d27ee3a0-0056-497c-9c31-6fd1c6d6f174","system_id":"levelo_inurba_marseille","lat":43.283998,"lon":5.375062,"is_reserved":false,"is_disabled":false,"rental_uris":{"android":"levelo://app?vid=d27ee3a0-0056-497c-9c31-6fd1c6d6f174","ios":"levelo://app?vid=d27ee3a0-0056-497c-9c31-6fd1c6d6f174"},"vehicle_type_id":"4","last_reported":1688062262,"current_range_meters":3600,"station_id":"ce4bh412rcd13ifvqds0","pricing_plan_id":"free"},{"bike_id":"0a68aeb4-a8a4-4824-ae09-2e87fc6dce55","system_id":"levelo_inurba_marseille","lat":43.283998,"lon":5.375062,"is_reserved":false,"is_disabled":false,"rental_uris":{"android":"levelo://app?vid=0a68aeb4-a8a4-4824-ae09-2e87fc6dce55","ios":"levelo://app?vid=0a68aeb4-a8a4-4824-ae09-2e87fc6dce55"},"vehicle_type_id":"4","last_reported":1688062262,"current_range_meters":400,"station_id":"ce4bh412rcd13ifvqds0","pricing_plan_id":"free"},{"bike_id":"919e2832-f156-4af5-9e77-3a940422a0c2","system_id":"levelo_inurba_marseille","lat":43.28412,"lon":5.37525,"is_reserved":false,"is_disabled":false,"rental_uris":{"android":"levelo://app?vid=919e2832-f156-4af5-9e77-3a940422a0c2","ios":"levelo://app?vid=919e2832-f156-4af5-9e77-3a940422a0c2"},"vehicle_type_id":"4","last_reported":1688062262,"current_range_meters":0,"station_id":"ce4bh412rcd13ifvqds0","pricing_plan_id":"free"},{"bike_id":"2d7b666a-2aea-4f62-a10b-86c46163e0e0","system_id":"levelo_inurba_marseille","lat":43.28406,"lon":5.37517,"is_reserved":false,"is_disabled":false,"rental_uris":{"android":"levelo://app?vid=2d7b666a-2aea-4f62-a10b-86c46163e0e0","ios":"levelo://app?vid=2d7b666a-2aea-4f62-a10b-86c46163e0e0"},"vehicle_type_id":"4","last_reported":1688062262,"current_range_meters":19600,"station_id":"ce4bh412rcd13ifvqds0","pricing_plan_id":"free"},{"bike_id":"73fa2274-0771-454c-8b03-06ffc3cbbf39","system_id":"levelo_inurba_marseille","lat":43.286595,"lon":5.386795,"is_reserved":false,"is_disabled":false,"rental_uris":{"android":"levelo://app?vid=73fa2274-0771-454c-8b03-06ffc3cbbf39","ios":"levelo://app?vid=73fa2274-0771-454c-8b03-06ffc3cbbf39"},"vehicle_type_id":"4","last_reported":1688062262,"current_range_meters":2400,"station_id":"ce4bh492rcd13ifvqdug","pricing_plan_id":"free"},{"bike_id":"1b7b0fd6-7a16-4583-98c9-b1921e383d7f","system_id":"levelo_inurba_marseille","lat":43.32328,"lon":5.40624,"is_reserved":false,"is_disabled":false,"rental_uris":{"android":"levelo://app?vid=1b7b0fd6-7a16-4583-98c9-b1921e383d7f","ios":"levelo://app?vid=1b7b0fd6-7a16-4583-98c9-b1921e383d7f"},"vehicle_type_id":"4","last_reported":1688062262,"current_range_meters":28400,"station_id":"ce4bhq92rcd13ifvqhjg","pricing_plan_id":"free"},{"bike_id":"8525491f-3db0-400c-9669-dc39652966d2","system_id":"levelo_inurba_marseille","lat":43.32339,"lon":5.40622,"is_reserved":false,"is_disabled":false,"rental_uris":{"android":"levelo://app?vid=8525491f-3db0-400c-9669-dc39652966d2","ios":"levelo://app?vid=8525491f-3db0-400c-9669-dc39652966d2"},"vehicle_type_id":"4","last_reported":1688062262,"current_range_meters":13200,"station_id":"ce4bhq92rcd13ifvqhjg","pricing_plan_id":"free"},{"bike_id":"b4c950db-352f-4a1a-8e3c-c05101a6dad0","system_id":"levelo_inurba_marseille","lat":43.28799,"lon":5.39154,"is_reserved":false,"is_disabled":false,"rental_uris":{"android":"levelo://app?vid=b4c950db-352f-4a1a-8e3c-c05101a6dad0","ios":"levelo://app?vid=b4c950db-352f-4a1a-8e3c-c05101a6dad0"},"vehicle_type_id":"4","last_reported":1688062262,"current_range_meters":29200,"station_id":"","pricing_plan_id":"free"},{"bike_id":"65be9a13-0eaa-453c-b305-0529b8d2ec8c","system_id":"levelo_inurba_marseille","lat":43.284793,"lon":5.384113,"is_reserved":false,"is_disabled":false,"rental_uris":{"android":"levelo://app?vid=65be9a13-0eaa-453c-b305-0529b8d2ec8c","ios":"levelo://app?vid=65be9a13-0eaa-453c-b305-0529b8d2ec8c"},"vehicle_type_id":"4","last_reported":1688062262,"current_range_meters":14400,"station_id":"ce4bh512rcd13ifvqe3g","pricing_plan_id":"free"},{"bike_id":"23f3b198-4596-4735-bf30-ac4887b9fc87","system_id":"levelo_inurba_marseille","lat":43.288497,"lon":5.393089,"is_reserved":false,"is_disabled":false,"rental_uris":{"android":"levelo://app?vid=23f3b198-4596-4735-bf30-ac4887b9fc87","ios":"levelo://app?vid=23f3b198-4596-4735-bf30-ac4887b9fc87"},"vehicle_type_id":"4","last_reported":1688062262,"current_range_meters":0,"station_id":"ce4bh2p2rcd13ifvqdi0","pricing_plan_id":"free"},{"bike_id":"bd564f27-f585-4d42-b539-ea5f3497a787","system_id":"levelo_inurba_marseille","lat":43.288497,"lon":5.393089,"is_reserved":false,"is_disabled":false,"rental_uris":{"android":"levelo://app?vid=bd564f27-f585-4d42-b539-ea5f3497a787","ios":"levelo://app?vid=bd564f27-f585-4d42-b539-ea5f3497a787"},"vehicle_type_id":"4","last_reported":1688062262,"current_range_meters":20000,"station_id":"ce4bh2p2rcd13ifvqdi0","pricing_plan_id":"free"},{"bike_id":"fb9f559f-ba87-45ae-a851-7abdb6c135c8","system_id":"levelo_inurba_marseille","lat":43.28427,"lon":5.34984,"is_reserved":false,"is_disabled":false,"rental_uris":{"android":"levelo://app?vid=fb9f559f-ba87-45ae-a851-7abdb6c135c8","ios":"levelo://app?vid=fb9f559f-ba87-45ae-a851-7abdb6c135c8"},"vehicle_type_id":"4","last_reported":1688062262,"current_range_meters":17600,"station_id":"ce4bhbh2rcd13ifvqepg","pricing_plan_id":"free"},{"bike_id":"710a1b70-b633-4422-a214-e7ec3e94bfa9","system_id":"levelo_inurba_marseille","lat":43.28424,"lon":5.34983,"is_reserved":false,"is_disabled":false,"rental_uris":{"android":"levelo://app?vid=710a1b70-b633-4422-a214-e7ec3e94bfa9","ios":"levelo://app?vid=710a1b70-b633-4422-a214-e7ec3e94bfa9"},"vehicle_type_id":"4","last_reported":1688062262,"current_range_meters":11600,"station_id":"ce4bhbh2rcd13ifvqepg","pricing_plan_id":"free"},{"bike_id":"a31a35a5-e61f-4317-9391-7f19d8fcfbcd","system_id":"levelo_inurba_marseille","lat":43.28418,"lon":5.34988,"is_reserved":false,"is_disabled":false,"rental_uris":{"android":"levelo://app?vid=a31a35a5-e61f-4317-9391-7f19d8fcfbcd","ios":"levelo://app?vid=a31a35a5-e61f-4317-9391-7f19d8fcfbcd"},"vehicle_type_id":"4","last_reported":1688062262,"current_range_meters":0,"station_id":"ce4bhbh2rcd13ifvqepg","pricing_plan_id":"free"},{"bike_id":"946d70cf-5fcd-4f4e-92b7-6f60ccf44325","system_id":"levelo_inurba_marseille","lat":43.28419,"lon":5.34977,"is_reserved":false,"is_disabled":false,"rental_uris":{"android":"levelo://app?vid=946d70cf-5fcd-4f4e-92b7-6f60ccf44325","ios":"levelo://app?vid=946d70cf-5fcd-4f4e-92b7-6f60ccf44325"},"vehicle_type_id":"4","last_reported":1688062262,"current_range_meters":0,"station_id":"ce4bhbh2rcd13ifvqepg","pricing_plan_id":"free"},{"bike_id":"f0bcc853-48c4-4f47-916e-90b8f0271740","system_id":"levelo_inurba_marseille","lat":43.283502,"lon":5.386471,"is_reserved":false,"is_disabled":false,"rental_uris":{"android":"levelo://app?vid=f0bcc853-48c4-4f47-916e-90b8f0271740","ios":"levelo://app?vid=f0bcc853-48c4-4f47-916e-90b8f0271740"},"vehicle_type_id":"4","last_reported":1688062262,"current_range_meters":4800,"station_id":"ce4bh492rcd13ifvqdvg","pricing_plan_id":"free"},{"bike_id":"04040f9c-86ba-4dba-a515-d6cdc13cd52d","system_id":"levelo_inurba_marseille","lat":43.284217,"lon":5.349697,"is_reserved":false,"is_disabled":false,"rental_uris":{"android":"levelo://app?vid=04040f9c-86ba-4dba-a515-d6cdc13cd52d","ios":"levelo://app?vid=04040f9c-86ba-4dba-a515-d6cdc13cd52d"},"vehicle_type_id":"4","last_reported":1688062262,"current_range_meters":14800,"station_id":"ce4bhbh2rcd13ifvqepg","pricing_plan_id":"free"},{"bike_id":"4e7beaab-f7ff-41a5-8f2e-f70eb1eafd1f","system_id":"levelo_inurba_marseille","lat":43.289363,"lon":5.396322,"is_reserved":false,"is_disabled":false,"rental_uris":{"android":"levelo://app?vid=4e7beaab-f7ff-41a5-8f2e-f70eb1eafd1f","ios":"levelo://app?vid=4e7beaab-f7ff-41a5-8f2e-f70eb1eafd1f"},"vehicle_type_id":"4","last_reported":1688062262,"current_range_meters":12400,"station_id":"ce4bh3h2rcd13ifvqdn0","pricing_plan_id":"free"},{"bike_id":"a02e29ee-0db8-4f77-8f3a-8f3f012acc54","system_id":"levelo_inurba_marseille","lat":43.28281,"lon":5.35061,"is_reserved":false,"is_disabled":false,"rental_uris":{"android":"levelo://app?vid=a02e29ee-0db8-4f77-8f3a-8f3f012acc54","ios":"levelo://app?vid=a02e29ee-0db8-4f77-8f3a-8f3f012acc54"},"vehicle_type_id":"4","last_reported":1688062262,"current_range_meters":18800,"station_id":"ce4bhbp2rcd13ifvqerg","pricing_plan_id":"free"},{"bike_id":"a235ae4c-a4ca-44e2-9cf2-b19087244b4f","system_id":"levelo_inurba_marseille","lat":43.282754,"lon":5.350519,"is_reserved":false,"is_disabled":false,"rental_uris":{"android":"levelo://app?vid=a235ae4c-a4ca-44e2-9cf2-b19087244b4f","ios":"levelo://app?vid=a235ae4c-a4ca-44e2-9cf2-b19087244b4f"},"vehicle_type_id":"4","last_reported":1688062262,"current_range_meters":24000,"station_id":"ce4bhbp2rcd13ifvqerg","pricing_plan_id":"free"},{"bike_id":"30fb374c-fcc1-4694-9259-5b7fdecf9e59","system_id":"levelo_inurba_marseille","lat":43.282754,"lon":5.350519,"is_reserved":false,"is_disabled":false,"rental_uris":{"android":"levelo://app?vid=30fb374c-fcc1-4694-9259-5b7fdecf9e59","ios":"levelo://app?vid=30fb374c-fcc1-4694-9259-5b7fdecf9e59"},"vehicle_type_id":"4","last_reported":1688062262,"current_range_meters":24800,"station_id":"ce4bhbp2rcd13ifvqerg","pricing_plan_id":"free"},{"bike_id":"dd93309c-6a99-4f8e-b624-39ae55e9c7fd","system_id":"levelo_inurba_marseille","lat":43.28369,"lon":5.38628,"is_reserved":false,"is_disabled":false,"rental_uris":{"android":"levelo://app?vid=dd93309c-6a99-4f8e-b624-39ae55e9c7fd","ios":"levelo://app?vid=dd93309c-6a99-4f8e-b624-39ae55e9c7fd"},"vehicle_type_id":"4","last_reported":1688062262,"current_range_meters":17200,"station_id":"ce4bh492rcd13ifvqdvg","pricing_plan_id":"free"},{"bike_id":"2a720163-6462-4422-85a3-a3f5411ed785","system_id":"levelo_inurba_marseille","lat":43.282754,"lon":5.350519,"is_reserved":false,"is_disabled":false,"rental_uris":{"android":"levelo://app?vid=2a720163-6462-4422-85a3-a3f5411ed785","ios":"levelo://app?vid=2a720163-6462-4422-85a3-a3f5411ed785"},"vehicle_type_id":"4","last_reported":1688062262,"current_range_meters":0,"station_id":"ce4bhbp2rcd13ifvqerg","pricing_plan_id":"free"},{"bike_id":"efb27845-d17f-4193-a967-2d9097746144","system_id":"levelo_inurba_marseille","lat":43.282754,"lon":5.350519,"is_reserved":false,"is_disabled":false,"rental_uris":{"android":"levelo://app?vid=efb27845-d17f-4193-a967-2d9097746144","ios":"levelo://app?vid=efb27845-d17f-4193-a967-2d9097746144"},"vehicle_type_id":"4","last_reported":1688062262,"current_range_meters":2400,"station_id":"ce4bhbp2rcd13ifvqerg","pricing_plan_id":"free"},{"bike_id":"fe173e2f-0873-4e4c-9a8f-ebe976922ec1","system_id":"levelo_inurba_marseille","lat":43.28267,"lon":5.3507,"is_reserved":false,"is_disabled":false,"rental_uris":{"android":"levelo://app?vid=fe173e2f-0873-4e4c-9a8f-ebe976922ec1","ios":"levelo://app?vid=fe173e2f-0873-4e4c-9a8f-ebe976922ec1"},"vehicle_type_id":"4","last_reported":1688062262,"current_range_meters":15200,"station_id":"ce4bhbp2rcd13ifvqerg","pricing_plan_id":"free"},{"bike_id":"f3807f09-754b-443a-819c-5e4a43ebf350","system_id":"levelo_inurba_marseille","lat":43.282754,"lon":5.350519,"is_reserved":false,"is_disabled":false,"rental_uris":{"android":"levelo://app?vid=f3807f09-754b-443a-819c-5e4a43ebf350","ios":"levelo://app?vid=f3807f09-754b-443a-819c-5e4a43ebf350"},"vehicle_type_id":"4","last_reported":1688062262,"current_range_meters":23200,"station_id":"ce4bhbp2rcd13ifvqerg","pricing_plan_id":"free"},{"bike_id":"f8a09c09-7f92-4933-85c0-bcde06b91ce3","system_id":"levelo_inurba_marseille","lat":43.28264,"lon":5.35069,"is_reserved":false,"is_disabled":false,"rental_uris":{"android":"levelo://app?vid=f8a09c09-7f92-4933-85c0-bcde06b91ce3","ios":"levelo://app?vid=f8a09c09-7f92-4933-85c0-bcde06b91ce3"},"vehicle_type_id":"4","last_reported":1688062262,"current_range_meters":11200,"station_id":"ce4bhbp2rcd13ifvqerg","pricing_plan_id":"free"},{"bike_id":"e3d25eef-0f47-44c3-a208-a567366f8280","system_id":"levelo_inurba_marseille","lat":43.283502,"lon":5.386471,"is_reserved":false,"is_disabled":false,"rental_uris":{"android":"levelo://app?vid=e3d25eef-0f47-44c3-a208-a567366f8280","ios":"levelo://app?vid=e3d25eef-0f47-44c3-a208-a567366f8280"},"vehicle_type_id":"4","last_reported":1688062262,"current_range_meters":0,"station_id":"ce4bh492rcd13ifvqdvg","pricing_plan_id":"free"},{"bike_id":"e01a6de4-3272-4f95-8f38-099ad6ce8a8a","system_id":"levelo_inurba_marseille","lat":43.281044,"lon":5.378308,"is_reserved":false,"is_disabled":false,"rental_uris":{"android":"levelo://app?vid=e01a6de4-3272-4f95-8f38-099ad6ce8a8a","ios":"levelo://app?vid=e01a6de4-3272-4f95-8f38-099ad6ce8a8a"},"vehicle_type_id":"4","last_reported":1688062262,"current_range_meters":22800,"station_id":"ce4bha12rcd13ifvqee0","pricing_plan_id":"free"},{"bike_id":"b6e00544-7d34-40cf-a3b7-60f78937d565","system_id":"levelo_inurba_marseille","lat":43.29631,"lon":5.40596,"is_reserved":false,"is_disabled":false,"rental_uris":{"android":"levelo://app?vid=b6e00544-7d34-40cf-a3b7-60f78937d565","ios":"levelo://app?vid=b6e00544-7d34-40cf-a3b7-60f78937d565"},"vehicle_type_id":"4","last_reported":1688062262,"current_range_meters":7600,"station_id":"ce4bh0h2rcd13ifvqd60","pricing_plan_id":"free"},{"bike_id":"3b9be4a5-2087-45ec-8562-6acb8d4b4dbf","system_id":"levelo_inurba_marseille","lat":43.29626,"lon":5.40595,"is_reserved":false,"is_disabled":false,"rental_uris":{"android":"levelo://app?vid=3b9be4a5-2087-45ec-8562-6acb8d4b4dbf","ios":"levelo://app?vid=3b9be4a5-2087-45ec-8562-6acb8d4b4dbf"},"vehicle_type_id":"4","last_reported":1688062262,"current_range_meters":22000,"station_id":"ce4bh0h2rcd13ifvqd60","pricing_plan_id":"free"},{"bike_id":"33066033-4b6b-4d57-8001-ba9e3be99e26","system_id":"levelo_inurba_marseille","lat":43.33079,"lon":5.40571,"is_reserved":false,"is_disabled":false,"rental_uris":{"android":"levelo://app?vid=33066033-4b6b-4d57-8001-ba9e3be99e26","ios":"levelo://app?vid=33066033-4b6b-4d57-8001-ba9e3be99e26"},"vehicle_type_id":"4","last_reported":1688062262,"current_range_meters":19600,"station_id":"","pricing_plan_id":"free"},{"bike_id":"c8e6ce45-f2b5-4772-a564-3c2039eea91a","system_id":"levelo_inurba_marseille","lat":43.33081,"lon":5.4057,"is_reserved":false,"is_disabled":false,"rental_uris":{"android":"levelo://app?vid=c8e6ce45-f2b5-4772-a564-3c2039eea91a","ios":"levelo://app?vid=c8e6ce45-f2b5-4772-a564-3c2039eea91a"},"vehicle_type_id":"4","last_reported":1688062262,"current_range_meters":1600,"station_id":"","pricing_plan_id":"free"},{"bike_id":"337e8b2d-09b7-4603-896f-b28749b4f851","system_id":"levelo_inurba_marseille","lat":43.284462,"lon":5.392121,"is_reserved":false,"is_disabled":false,"rental_uris":{"android":"levelo://app?vid=337e8b2d-09b7-4603-896f-b28749b4f851","ios":"levelo://app?vid=337e8b2d-09b7-4603-896f-b28749b4f851"},"vehicle_type_id":"4","last_reported":1688062262,"current_range_meters":12800,"station_id":"ce4bhoh2rcd13ifvqh5g","pricing_plan_id":"free"},{"bike_id":"8e9830a5-2d3f-4a12-ac90-31457ab54334","system_id":"levelo_inurba_marseille","lat":43.284462,"lon":5.392121,"is_reserved":false,"is_disabled":false,"rental_uris":{"android":"levelo://app?vid=8e9830a5-2d3f-4a12-ac90-31457ab54334","ios":"levelo://app?vid=8e9830a5-2d3f-4a12-ac90-31457ab54334"},"vehicle_type_id":"4","last_reported":1688062262,"current_range_meters":30800,"station_id":"ce4bhoh2rcd13ifvqh5g","pricing_plan_id":"free"},{"bike_id":"8a0bf238-2c84-4101-b20c-08f2d21faa96","system_id":"levelo_inurba_marseille","lat":43.284462,"lon":5.392121,"is_reserved":false,"is_disabled":false,"rental_uris":{"android":"levelo://app?vid=8a0bf238-2c84-4101-b20c-08f2d21faa96","ios":"levelo://app?vid=8a0bf238-2c84-4101-b20c-08f2d21faa96"},"vehicle_type_id":"4","last_reported":1688062262,"current_range_meters":17200,"station_id":"ce4bhoh2rcd13ifvqh5g","pricing_plan_id":"free"},{"bike_id":"4f3530c9-74bf-447e-9060-c8ba7a30638e","system_id":"levelo_inurba_marseille","lat":43.285742,"lon":5.395004,"is_reserved":false,"is_disabled":false,"rental_uris":{"android":"levelo://app?vid=4f3530c9-74bf-447e-9060-c8ba7a30638e","ios":"levelo://app?vid=4f3530c9-74bf-447e-9060-c8ba7a30638e"},"vehicle_type_id":"4","last_reported":1688062262,"current_range_meters":4800,"station_id":"ce4bh292rcd13ifvqdg0","pricing_plan_id":"free"},{"bike_id":"d95bf885-8bdd-4c4b-9c14-de91de31b133","system_id":"levelo_inurba_marseille","lat":43.28567,"lon":5.39498,"is_reserved":false,"is_disabled":false,"rental_uris":{"android":"levelo://app?vid=d95bf885-8bdd-4c4b-9c14-de91de31b133","ios":"levelo://app?vid=d95bf885-8bdd-4c4b-9c14-de91de31b133"},"vehicle_type_id":"4","last_reported":1688062262,"current_range_meters":16400,"station_id":"ce4bh292rcd13ifvqdg0","pricing_plan_id":"free"},{"bike_id":"12adfa21-ee13-466c-a3d5-a90214982c87","system_id":"levelo_inurba_marseille","lat":43.28573,"lon":5.394992,"is_reserved":false,"is_disabled":false,"rental_uris":{"android":"levelo://app?vid=12adfa21-ee13-466c-a3d5-a90214982c87","ios":"levelo://app?vid=12adfa21-ee13-466c-a3d5-a90214982c87"},"vehicle_type_id":"4","last_reported":1688062262,"current_range_meters":5200,"station_id":"ce4bh292rcd13ifvqdg0","pricing_plan_id":"free"},{"bike_id":"75e62f2c-3bde-47ca-a807-bb91af3cf853","system_id":"levelo_inurba_marseille","lat":43.28573,"lon":5.394992,"is_reserved":false,"is_disabled":false,"rental_uris":{"android":"levelo://app?vid=75e62f2c-3bde-47ca-a807-bb91af3cf853","ios":"levelo://app?vid=75e62f2c-3bde-47ca-a807-bb91af3cf853"},"vehicle_type_id":"4","last_reported":1688062262,"current_range_meters":4000,"station_id":"ce4bh292rcd13ifvqdg0","pricing_plan_id":"free"},{"bike_id":"0c9eee73-532e-4f1f-8b23-5a0693e22298","system_id":"levelo_inurba_marseille","lat":43.326605,"lon":5.409903,"is_reserved":false,"is_disabled":false,"rental_uris":{"android":"levelo://app?vid=0c9eee73-532e-4f1f-8b23-5a0693e22298","ios":"levelo://app?vid=0c9eee73-532e-4f1f-8b23-5a0693e22298"},"vehicle_type_id":"4","last_reported":1688062262,"current_range_meters":21200,"station_id":"ce4bhpp2rcd13ifvqhgg","pricing_plan_id":"free"},{"bike_id":"94cd5cee-81d7-4ad5-a0b7-988b3afd962f","system_id":"levelo_inurba_marseille","lat":43.32643,"lon":5.41008,"is_reserved":false,"is_disabled":false,"rental_uris":{"android":"levelo://app?vid=94cd5cee-81d7-4ad5-a0b7-988b3afd962f","ios":"levelo://app?vid=94cd5cee-81d7-4ad5-a0b7-988b3afd962f"},"vehicle_type_id":"4","last_reported":1688062262,"current_range_meters":20000,"station_id":"ce4bhpp2rcd13ifvqhgg","pricing_plan_id":"free"},{"bike_id":"e7bef63d-8bc8-493c-b798-5bfb6204e4ee","system_id":"levelo_inurba_marseille","lat":43.304188,"lon":5.412904,"is_reserved":false,"is_disabled":false,"rental_uris":{"android":"levelo://app?vid=e7bef63d-8bc8-493c-b798-5bfb6204e4ee","ios":"levelo://app?vid=e7bef63d-8bc8-493c-b798-5bfb6204e4ee"},"vehicle_type_id":"4","last_reported":1688062262,"current_range_meters":30800,"station_id":"ce4bhop2rcd13ifvqh8g","pricing_plan_id":"free"},{"bike_id":"457b441d-63c7-4c7a-8df1-4ddf5c9425f8","system_id":"levelo_inurba_marseille","lat":43.304188,"lon":5.412904,"is_reserved":false,"is_disabled":false,"rental_uris":{"android":"levelo://app?vid=457b441d-63c7-4c7a-8df1-4ddf5c9425f8","ios":"levelo://app?vid=457b441d-63c7-4c7a-8df1-4ddf5c9425f8"},"vehicle_type_id":"4","last_reported":1688062262,"current_range_meters":22400,"station_id":"ce4bhop2rcd13ifvqh8g","pricing_plan_id":"free"},{"bike_id":"50fd953c-9754-45f4-aec7-ae52bb9eb6fe","system_id":"levelo_inurba_marseille","lat":43.28702,"lon":5.39978,"is_reserved":false,"is_disabled":false,"rental_uris":{"android":"levelo://app?vid=50fd953c-9754-45f4-aec7-ae52bb9eb6fe","ios":"levelo://app?vid=50fd953c-9754-45f4-aec7-ae52bb9eb6fe"},"vehicle_type_id":"4","last_reported":1688062262,"current_range_meters":31200,"station_id":"ce4bho92rcd13ifvqh3g","pricing_plan_id":"free"},{"bike_id":"d121dca8-2596-4f85-a2a1-3d6410e5eda4","system_id":"levelo_inurba_marseille","lat":43.32036,"lon":5.41549,"is_reserved":false,"is_disabled":false,"rental_uris":{"android":"levelo://app?vid=d121dca8-2596-4f85-a2a1-3d6410e5eda4","ios":"levelo://app?vid=d121dca8-2596-4f85-a2a1-3d6410e5eda4"},"vehicle_type_id":"4","last_reported":1688062262,"current_range_meters":20400,"station_id":"ce4bhq92rcd13ifvqhkg","pricing_plan_id":"free"},{"bike_id":"bf46d875-f4cb-4abe-b4c6-e58135803aff","system_id":"levelo_inurba_marseille","lat":43.279742,"lon":5.38744,"is_reserved":false,"is_disabled":false,"rental_uris":{"android":"levelo://app?vid=bf46d875-f4cb-4abe-b4c6-e58135803aff","ios":"levelo://app?vid=bf46d875-f4cb-4abe-b4c6-e58135803aff"},"vehicle_type_id":"4","last_reported":1688062262,"current_range_meters":24800,"station_id":"ce4bhg12rcd13ifvqf80","pricing_plan_id":"free"},{"bike_id":"010303de-9f53-47c9-8014-4eeafc88e3fa","system_id":"levelo_inurba_marseille","lat":43.320045,"lon":5.415046,"is_reserved":false,"is_disabled":false,"rental_uris":{"android":"levelo://app?vid=010303de-9f53-47c9-8014-4eeafc88e3fa","ios":"levelo://app?vid=010303de-9f53-47c9-8014-4eeafc88e3fa"},"vehicle_type_id":"4","last_reported":1688062262,"current_range_meters":30800,"station_id":"ce4bhq92rcd13ifvqhkg","pricing_plan_id":"free"},{"bike_id":"b6cea0dc-876b-43d0-ad4e-95d9be97b9a6","system_id":"levelo_inurba_marseille","lat":43.292569,"lon":5.409107,"is_reserved":false,"is_disabled":false,"rental_uris":{"android":"levelo://app?vid=b6cea0dc-876b-43d0-ad4e-95d9be97b9a6","ios":"levelo://app?vid=b6cea0dc-876b-43d0-ad4e-95d9be97b9a6"},"vehicle_type_id":"4","last_reported":1688062262,"current_range_meters":21600,"station_id":"ce4bh192rcd13ifvqdc0","pricing_plan_id":"free"},{"bike_id":"339d3cf5-6002-4c6a-ae70-e3383d974012","system_id":"levelo_inurba_marseille","lat":43.278399,"lon":5.392139,"is_reserved":false,"is_disabled":false,"rental_uris":{"android":"levelo://app?vid=339d3cf5-6002-4c6a-ae70-e3383d974012","ios":"levelo://app?vid=339d3cf5-6002-4c6a-ae70-e3383d974012"},"vehicle_type_id":"4","last_reported":1688062262,"current_range_meters":8400,"station_id":"ce4bhjp2rcd13ifvqga0","pricing_plan_id":"free"},{"bike_id":"57cf6238-1254-43f8-8db3-5556ab2402d7","system_id":"levelo_inurba_marseille","lat":43.2783,"lon":5.39209,"is_reserved":false,"is_disabled":false,"rental_uris":{"android":"levelo://app?vid=57cf6238-1254-43f8-8db3-5556ab2402d7","ios":"levelo://app?vid=57cf6238-1254-43f8-8db3-5556ab2402d7"},"vehicle_type_id":"4","last_reported":1688062262,"current_range_meters":20400,"station_id":"ce4bhjp2rcd13ifvqga0","pricing_plan_id":"free"},{"bike_id":"7107e004-4457-4900-9ffd-ed478cb769e5","system_id":"levelo_inurba_marseille","lat":43.27382,"lon":5.36268,"is_reserved":false,"is_disabled":false,"rental_uris":{"android":"levelo://app?vid=7107e004-4457-4900-9ffd-ed478cb769e5","ios":"levelo://app?vid=7107e004-4457-4900-9ffd-ed478cb769e5"},"vehicle_type_id":"4","last_reported":1688062262,"current_range_meters":800,"station_id":"ce4bhbh2rcd13ifvqeo0","pricing_plan_id":"free"},{"bike_id":"b95f3725-7aae-4523-98e0-38054902b1a7","system_id":"levelo_inurba_marseille","lat":43.278399,"lon":5.392139,"is_reserved":false,"is_disabled":false,"rental_uris":{"android":"levelo://app?vid=b95f3725-7aae-4523-98e0-38054902b1a7","ios":"levelo://app?vid=b95f3725-7aae-4523-98e0-38054902b1a7"},"vehicle_type_id":"4","last_reported":1688062262,"current_range_meters":14800,"station_id":"ce4bhjp2rcd13ifvqga0","pricing_plan_id":"free"},{"bike_id":"4e2a8510-9628-496f-b2fa-54fe0f67d228","system_id":"levelo_inurba_marseille","lat":43.273613,"lon":5.362705,"is_reserved":false,"is_disabled":false,"rental_uris":{"android":"levelo://app?vid=4e2a8510-9628-496f-b2fa-54fe0f67d228","ios":"levelo://app?vid=4e2a8510-9628-496f-b2fa-54fe0f67d228"},"vehicle_type_id":"4","last_reported":1688062262,"current_range_meters":2000,"station_id":"ce4bhbh2rcd13ifvqeo0","pricing_plan_id":"free"},{"bike_id":"042278e1-dc77-4ad5-b0ef-c15f2d458a34","system_id":"levelo_inurba_marseille","lat":43.27379,"lon":5.36264,"is_reserved":false,"is_disabled":false,"rental_uris":{"android":"levelo://app?vid=042278e1-dc77-4ad5-b0ef-c15f2d458a34","ios":"levelo://app?vid=042278e1-dc77-4ad5-b0ef-c15f2d458a34"},"vehicle_type_id":"4","last_reported":1688062262,"current_range_meters":16400,"station_id":"ce4bhbh2rcd13ifvqeo0","pricing_plan_id":"free"},{"bike_id":"7938e1f0-9197-4769-8d99-8bbf860cf346","system_id":"levelo_inurba_marseille","lat":43.27378,"lon":5.36253,"is_reserved":false,"is_disabled":false,"rental_uris":{"android":"levelo://app?vid=7938e1f0-9197-4769-8d99-8bbf860cf346","ios":"levelo://app?vid=7938e1f0-9197-4769-8d99-8bbf860cf346"},"vehicle_type_id":"4","last_reported":1688062262,"current_range_meters":28800,"station_id":"ce4bhbh2rcd13ifvqeo0","pricing_plan_id":"free"},{"bike_id":"9d985c5b-0a8e-49b0-a75a-85e2d53602a0","system_id":"levelo_inurba_marseille","lat":43.27377,"lon":5.36264,"is_reserved":false,"is_disabled":false,"rental_uris":{"android":"levelo://app?vid=9d985c5b-0a8e-49b0-a75a-85e2d53602a0","ios":"levelo://app?vid=9d985c5b-0a8e-49b0-a75a-85e2d53602a0"},"vehicle_type_id":"4","last_reported":1688062262,"current_range_meters":22800,"station_id":"ce4bhbh2rcd13ifvqeo0","pricing_plan_id":"free"},{"bike_id":"33da9cd8-c48f-470a-bc64-bfd28245cada","system_id":"levelo_inurba_marseille","lat":43.27377,"lon":5.36262,"is_reserved":false,"is_disabled":false,"rental_uris":{"android":"levelo://app?vid=33da9cd8-c48f-470a-bc64-bfd28245cada","ios":"levelo://app?vid=33da9cd8-c48f-470a-bc64-bfd28245cada"},"vehicle_type_id":"4","last_reported":1688062262,"current_range_meters":31200,"station_id":"ce4bhbh2rcd13ifvqeo0","pricing_plan_id":"free"},{"bike_id":"dc5345a1-9559-4ee3-a6dc-82cab502e75d","system_id":"levelo_inurba_marseille","lat":43.27377,"lon":5.36254,"is_reserved":false,"is_disabled":false,"rental_uris":{"android":"levelo://app?vid=dc5345a1-9559-4ee3-a6dc-82cab502e75d","ios":"levelo://app?vid=dc5345a1-9559-4ee3-a6dc-82cab502e75d"},"vehicle_type_id":"4","last_reported":1688062262,"current_range_meters":27600,"station_id":"ce4bhbh2rcd13ifvqeo0","pricing_plan_id":"free"},{"bike_id":"13fbba02-9b02-4c8f-a132-0909df57a186","system_id":"levelo_inurba_marseille","lat":43.27376,"lon":5.36261,"is_reserved":false,"is_disabled":false,"rental_uris":{"android":"levelo://app?vid=13fbba02-9b02-4c8f-a132-0909df57a186","ios":"levelo://app?vid=13fbba02-9b02-4c8f-a132-0909df57a186"},"vehicle_type_id":"4","last_reported":1688062262,"current_range_meters":10000,"station_id":"ce4bhbh2rcd13ifvqeo0","pricing_plan_id":"free"},{"bike_id":"50b1784b-ce11-4681-a027-1f5ca77d9950","system_id":"levelo_inurba_marseille","lat":43.273609,"lon":5.362708,"is_reserved":false,"is_disabled":false,"rental_uris":{"android":"levelo://app?vid=50b1784b-ce11-4681-a027-1f5ca77d9950","ios":"levelo://app?vid=50b1784b-ce11-4681-a027-1f5ca77d9950"},"vehicle_type_id":"4","last_reported":1688062262,"current_range_meters":15600,"station_id":"ce4bhbh2rcd13ifvqeo0","pricing_plan_id":"free"},{"bike_id":"2ae67aeb-de3c-482c-86bf-52a04f0e0033","system_id":"levelo_inurba_marseille","lat":43.273613,"lon":5.362705,"is_reserved":false,"is_disabled":false,"rental_uris":{"android":"levelo://app?vid=2ae67aeb-de3c-482c-86bf-52a04f0e0033","ios":"levelo://app?vid=2ae67aeb-de3c-482c-86bf-52a04f0e0033"},"vehicle_type_id":"4","last_reported":1688062262,"current_range_meters":31200,"station_id":"ce4bhbh2rcd13ifvqeo0","pricing_plan_id":"free"},{"bike_id":"7e725f48-bb1c-4620-8c16-a2b48244774a","system_id":"levelo_inurba_marseille","lat":43.273613,"lon":5.362705,"is_reserved":false,"is_disabled":false,"rental_uris":{"android":"levelo://app?vid=7e725f48-bb1c-4620-8c16-a2b48244774a","ios":"levelo://app?vid=7e725f48-bb1c-4620-8c16-a2b48244774a"},"vehicle_type_id":"4","last_reported":1688062262,"current_range_meters":24400,"station_id":"ce4bhbh2rcd13ifvqeo0","pricing_plan_id":"free"},{"bike_id":"35a04bc2-fbd6-4533-8689-a2d9efd6ba0a","system_id":"levelo_inurba_marseille","lat":43.27374,"lon":5.36255,"is_reserved":false,"is_disabled":false,"rental_uris":{"android":"levelo://app?vid=35a04bc2-fbd6-4533-8689-a2d9efd6ba0a","ios":"levelo://app?vid=35a04bc2-fbd6-4533-8689-a2d9efd6ba0a"},"vehicle_type_id":"4","last_reported":1688062262,"current_range_meters":8000,"station_id":"ce4bhbh2rcd13ifvqeo0","pricing_plan_id":"free"},{"bike_id":"beaa1f01-1a57-46eb-8ab3-3a74888794fa","system_id":"levelo_inurba_marseille","lat":43.273609,"lon":5.362708,"is_reserved":false,"is_disabled":false,"rental_uris":{"android":"levelo://app?vid=beaa1f01-1a57-46eb-8ab3-3a74888794fa","ios":"levelo://app?vid=beaa1f01-1a57-46eb-8ab3-3a74888794fa"},"vehicle_type_id":"4","last_reported":1688062262,"current_range_meters":6400,"station_id":"ce4bhbh2rcd13ifvqeo0","pricing_plan_id":"free"},{"bike_id":"91d85fcd-6a1a-4cc3-b773-0c1ba2a73d65","system_id":"levelo_inurba_marseille","lat":43.273609,"lon":5.362708,"is_reserved":false,"is_disabled":false,"rental_uris":{"android":"levelo://app?vid=91d85fcd-6a1a-4cc3-b773-0c1ba2a73d65","ios":"levelo://app?vid=91d85fcd-6a1a-4cc3-b773-0c1ba2a73d65"},"vehicle_type_id":"4","last_reported":1688062262,"current_range_meters":26000,"station_id":"ce4bhbh2rcd13ifvqeo0","pricing_plan_id":"free"},{"bike_id":"abdf62ff-468d-455a-a3cd-1048a513d1b3","system_id":"levelo_inurba_marseille","lat":43.27373,"lon":5.36255,"is_reserved":false,"is_disabled":false,"rental_uris":{"android":"levelo://app?vid=abdf62ff-468d-455a-a3cd-1048a513d1b3","ios":"levelo://app?vid=abdf62ff-468d-455a-a3cd-1048a513d1b3"},"vehicle_type_id":"4","last_reported":1688062262,"current_range_meters":19600,"station_id":"ce4bhbh2rcd13ifvqeo0","pricing_plan_id":"free"},{"bike_id":"5c9ff88d-7346-4422-b8a3-eef7f9d2cb0c","system_id":"levelo_inurba_marseille","lat":43.273609,"lon":5.362708,"is_reserved":false,"is_disabled":false,"rental_uris":{"android":"levelo://app?vid=5c9ff88d-7346-4422-b8a3-eef7f9d2cb0c","ios":"levelo://app?vid=5c9ff88d-7346-4422-b8a3-eef7f9d2cb0c"},"vehicle_type_id":"4","last_reported":1688062262,"current_range_meters":0,"station_id":"ce4bhbh2rcd13ifvqeo0","pricing_plan_id":"free"},{"bike_id":"da6dd5d1-5858-4882-b8a6-4caa35c88d08","system_id":"levelo_inurba_marseille","lat":43.273609,"lon":5.362708,"is_reserved":false,"is_disabled":false,"rental_uris":{"android":"levelo://app?vid=da6dd5d1-5858-4882-b8a6-4caa35c88d08","ios":"levelo://app?vid=da6dd5d1-5858-4882-b8a6-4caa35c88d08"},"vehicle_type_id":"4","last_reported":1688062262,"current_range_meters":1200,"station_id":"ce4bhbh2rcd13ifvqeo0","pricing_plan_id":"free"},{"bike_id":"bf5dad5e-e4bc-4ca0-a483-37ddd3ec6b11","system_id":"levelo_inurba_marseille","lat":43.27372,"lon":5.36251,"is_reserved":false,"is_disabled":false,"rental_uris":{"android":"levelo://app?vid=bf5dad5e-e4bc-4ca0-a483-37ddd3ec6b11","ios":"levelo://app?vid=bf5dad5e-e4bc-4ca0-a483-37ddd3ec6b11"},"vehicle_type_id":"4","last_reported":1688062262,"current_range_meters":31200,"station_id":"ce4bhbh2rcd13ifvqeo0","pricing_plan_id":"free"},{"bike_id":"ec073f7c-86c6-4c40-8bee-b3c90be04a1e","system_id":"levelo_inurba_marseille","lat":43.27372,"lon":5.36251,"is_reserved":false,"is_disabled":false,"rental_uris":{"android":"levelo://app?vid=ec073f7c-86c6-4c40-8bee-b3c90be04a1e","ios":"levelo://app?vid=ec073f7c-86c6-4c40-8bee-b3c90be04a1e"},"vehicle_type_id":"4","last_reported":1688062262,"current_range_meters":31200,"station_id":"ce4bhbh2rcd13ifvqeo0","pricing_plan_id":"free"},{"bike_id":"4924939c-7b1d-4c1d-9f7d-0d48923e80a0","system_id":"levelo_inurba_marseille","lat":43.27371,"lon":5.36253,"is_reserved":false,"is_disabled":false,"rental_uris":{"android":"levelo://app?vid=4924939c-7b1d-4c1d-9f7d-0d48923e80a0","ios":"levelo://app?vid=4924939c-7b1d-4c1d-9f7d-0d48923e80a0"},"vehicle_type_id":"4","last_reported":1688062262,"current_range_meters":10000,"station_id":"ce4bhbh2rcd13ifvqeo0","pricing_plan_id":"free"},{"bike_id":"2274a7db-248f-439b-b6bb-8f731a349eac","system_id":"levelo_inurba_marseille","lat":43.336134,"lon":5.410341,"is_reserved":false,"is_disabled":false,"rental_uris":{"android":"levelo://app?vid=2274a7db-248f-439b-b6bb-8f731a349eac","ios":"levelo://app?vid=2274a7db-248f-439b-b6bb-8f731a349eac"},"vehicle_type_id":"4","last_reported":1688062262,"current_range_meters":31600,"station_id":"ce4bhqh2rcd13ifvqhmg","pricing_plan_id":"free"},{"bike_id":"d69c4e00-620f-4e34-a19f-2e1b143c70a0","system_id":"levelo_inurba_marseille","lat":43.276771,"lon":5.388799,"is_reserved":false,"is_disabled":false,"rental_uris":{"android":"levelo://app?vid=d69c4e00-620f-4e34-a19f-2e1b143c70a0","ios":"levelo://app?vid=d69c4e00-620f-4e34-a19f-2e1b143c70a0"},"vehicle_type_id":"4","last_reported":1688062262,"current_range_meters":22000,"station_id":"ce4bhi12rcd13ifvqfo0","pricing_plan_id":"free"},{"bike_id":"ec2d28ee-60e4-4142-a9c9-c984dd937658","system_id":"levelo_inurba_marseille","lat":43.275625,"lon":5.384392,"is_reserved":false,"is_disabled":false,"rental_uris":{"android":"levelo://app?vid=ec2d28ee-60e4-4142-a9c9-c984dd937658","ios":"levelo://app?vid=ec2d28ee-60e4-4142-a9c9-c984dd937658"},"vehicle_type_id":"4","last_reported":1688062262,"current_range_meters":0,"station_id":"ce4bhh92rcd13ifvqfi0","pricing_plan_id":"free"},{"bike_id":"bffc4f53-4bf6-475c-9ec3-2157151cd297","system_id":"levelo_inurba_marseille","lat":43.317121,"lon":5.423936,"is_reserved":false,"is_disabled":false,"rental_uris":{"android":"levelo://app?vid=bffc4f53-4bf6-475c-9ec3-2157151cd297","ios":"levelo://app?vid=bffc4f53-4bf6-475c-9ec3-2157151cd297"},"vehicle_type_id":"4","last_reported":1688062262,"current_range_meters":800,"station_id":"ce4bhp92rcd13ifvqhbg","pricing_plan_id":"free"},{"bike_id":"99cc7484-82a8-4d2b-a0bb-fca4e565c2f1","system_id":"levelo_inurba_marseille","lat":43.310785,"lon":5.424305,"is_reserved":false,"is_disabled":false,"rental_uris":{"android":"levelo://app?vid=99cc7484-82a8-4d2b-a0bb-fca4e565c2f1","ios":"levelo://app?vid=99cc7484-82a8-4d2b-a0bb-fca4e565c2f1"},"vehicle_type_id":"4","last_reported":1688062262,"current_range_meters":30400,"station_id":"ce4bhp92rcd13ifvqhag","pricing_plan_id":"free"},{"bike_id":"e54e38cf-3d88-4ca0-887e-89b5e73152ca","system_id":"levelo_inurba_marseille","lat":43.310785,"lon":5.424305,"is_reserved":false,"is_disabled":false,"rental_uris":{"android":"levelo://app?vid=e54e38cf-3d88-4ca0-887e-89b5e73152ca","ios":"levelo://app?vid=e54e38cf-3d88-4ca0-887e-89b5e73152ca"},"vehicle_type_id":"4","last_reported":1688062262,"current_range_meters":17200,"station_id":"ce4bhp92rcd13ifvqhag","pricing_plan_id":"free"},{"bike_id":"cd55c8c8-550e-4c43-8658-5f40b40216f6","system_id":"levelo_inurba_marseille","lat":43.304096,"lon":5.425385,"is_reserved":false,"is_disabled":false,"rental_uris":{"android":"levelo://app?vid=cd55c8c8-550e-4c43-8658-5f40b40216f6","ios":"levelo://app?vid=cd55c8c8-550e-4c43-8658-5f40b40216f6"},"vehicle_type_id":"4","last_reported":1688062262,"current_range_meters":19200,"station_id":"ce4bhoh2rcd13ifvqh6g","pricing_plan_id":"free"},{"bike_id":"f99fb368-37c6-43ee-aa70-4b19db82379e","system_id":"levelo_inurba_marseille","lat":43.27422,"lon":5.39418,"is_reserved":false,"is_disabled":false,"rental_uris":{"android":"levelo://app?vid=f99fb368-37c6-43ee-aa70-4b19db82379e","ios":"levelo://app?vid=f99fb368-37c6-43ee-aa70-4b19db82379e"},"vehicle_type_id":"4","last_reported":1688062262,"current_range_meters":0,"station_id":"","pricing_plan_id":"free"},{"bike_id":"e33e5363-36a3-4e8a-9f97-7dc0fd4cdb27","system_id":"levelo_inurba_marseille","lat":43.304096,"lon":5.425385,"is_reserved":false,"is_disabled":false,"rental_uris":{"android":"levelo://app?vid=e33e5363-36a3-4e8a-9f97-7dc0fd4cdb27","ios":"levelo://app?vid=e33e5363-36a3-4e8a-9f97-7dc0fd4cdb27"},"vehicle_type_id":"4","last_reported":1688062262,"current_range_meters":0,"station_id":"ce4bhoh2rcd13ifvqh6g","pricing_plan_id":"free"},{"bike_id":"5eb44957-3d09-45fd-813f-c994b7a2ba95","system_id":"levelo_inurba_marseille","lat":43.30411,"lon":5.4255,"is_reserved":false,"is_disabled":false,"rental_uris":{"android":"levelo://app?vid=5eb44957-3d09-45fd-813f-c994b7a2ba95","ios":"levelo://app?vid=5eb44957-3d09-45fd-813f-c994b7a2ba95"},"vehicle_type_id":"4","last_reported":1688062262,"current_range_meters":4800,"station_id":"ce4bhoh2rcd13ifvqh6g","pricing_plan_id":"free"},{"bike_id":"e8bebc90-b612-423c-be7c-0ebfbecd9f82","system_id":"levelo_inurba_marseille","lat":43.29559,"lon":5.42292,"is_reserved":false,"is_disabled":false,"rental_uris":{"android":"levelo://app?vid=e8bebc90-b612-423c-be7c-0ebfbecd9f82","ios":"levelo://app?vid=e8bebc90-b612-423c-be7c-0ebfbecd9f82"},"vehicle_type_id":"4","last_reported":1688062262,"current_range_meters":6400,"station_id":"ce4bhph2rcd13ifvqhdg","pricing_plan_id":"free"},{"bike_id":"1da7bd45-3c5e-4c40-ac18-3e0b7b8642c2","system_id":"levelo_inurba_marseille","lat":43.295523,"lon":5.422926,"is_reserved":false,"is_disabled":false,"rental_uris":{"android":"levelo://app?vid=1da7bd45-3c5e-4c40-ac18-3e0b7b8642c2","ios":"levelo://app?vid=1da7bd45-3c5e-4c40-ac18-3e0b7b8642c2"},"vehicle_type_id":"4","last_reported":1688062262,"current_range_meters":21200,"station_id":"ce4bhph2rcd13ifvqhdg","pricing_plan_id":"free"},{"bike_id":"eaf33c3a-f152-40a0-a086-67435d296e0a","system_id":"levelo_inurba_marseille","lat":43.295523,"lon":5.422926,"is_reserved":false,"is_disabled":false,"rental_uris":{"android":"levelo://app?vid=eaf33c3a-f152-40a0-a086-67435d296e0a","ios":"levelo://app?vid=eaf33c3a-f152-40a0-a086-67435d296e0a"},"vehicle_type_id":"4","last_reported":1688062262,"current_range_meters":25200,"station_id":"ce4bhph2rcd13ifvqhdg","pricing_plan_id":"free"},{"bike_id":"6b1b1387-e2c3-4f7f-a368-c4f4d99b3a38","system_id":"levelo_inurba_marseille","lat":43.272116,"lon":5.391747,"is_reserved":false,"is_disabled":false,"rental_uris":{"android":"levelo://app?vid=6b1b1387-e2c3-4f7f-a368-c4f4d99b3a38","ios":"levelo://app?vid=6b1b1387-e2c3-4f7f-a368-c4f4d99b3a38"},"vehicle_type_id":"4","last_reported":1688062262,"current_range_meters":0,"station_id":"ce4bhhp2rcd13ifvqfm0","pricing_plan_id":"free"},{"bike_id":"2cf57d72-e6df-49a7-afc9-ec533238f9f0","system_id":"levelo_inurba_marseille","lat":43.317104,"lon":5.436818,"is_reserved":false,"is_disabled":false,"rental_uris":{"android":"levelo://app?vid=2cf57d72-e6df-49a7-afc9-ec533238f9f0","ios":"levelo://app?vid=2cf57d72-e6df-49a7-afc9-ec533238f9f0"},"vehicle_type_id":"4","last_reported":1688062262,"current_range_meters":29200,"station_id":"ce4bhp92rcd13ifvqhcg","pricing_plan_id":"free"},{"bike_id":"d0385afd-506b-4075-a882-172d3764593d","system_id":"levelo_inurba_marseille","lat":43.278128,"lon":5.407195,"is_reserved":false,"is_disabled":false,"rental_uris":{"android":"levelo://app?vid=d0385afd-506b-4075-a882-172d3764593d","ios":"levelo://app?vid=d0385afd-506b-4075-a882-172d3764593d"},"vehicle_type_id":"4","last_reported":1688062262,"current_range_meters":18800,"station_id":"ce4bhnh2rcd13ifvqgtg","pricing_plan_id":"free"},{"bike_id":"491706f6-73af-494d-af43-532f57fe3aa0","system_id":"levelo_inurba_marseille","lat":43.278128,"lon":5.407195,"is_reserved":false,"is_disabled":false,"rental_uris":{"android":"levelo://app?vid=491706f6-73af-494d-af43-532f57fe3aa0","ios":"levelo://app?vid=491706f6-73af-494d-af43-532f57fe3aa0"},"vehicle_type_id":"4","last_reported":1688062262,"current_range_meters":0,"station_id":"ce4bhnh2rcd13ifvqgtg","pricing_plan_id":"free"},{"bike_id":"52a9aab3-d995-4f88-a9d6-800f56b61ec7","system_id":"levelo_inurba_marseille","lat":43.269319,"lon":5.389397,"is_reserved":false,"is_disabled":false,"rental_uris":{"android":"levelo://app?vid=52a9aab3-d995-4f88-a9d6-800f56b61ec7","ios":"levelo://app?vid=52a9aab3-d995-4f88-a9d6-800f56b61ec7"},"vehicle_type_id":"4","last_reported":1688062262,"current_range_meters":14000,"station_id":"ce4bhhh2rcd13ifvqfl0","pricing_plan_id":"free"},{"bike_id":"4fa21102-9c5c-4785-8da0-3d7f957b0c31","system_id":"levelo_inurba_marseille","lat":43.27039,"lon":5.39274,"is_reserved":false,"is_disabled":false,"rental_uris":{"android":"levelo://app?vid=4fa21102-9c5c-4785-8da0-3d7f957b0c31","ios":"levelo://app?vid=4fa21102-9c5c-4785-8da0-3d7f957b0c31"},"vehicle_type_id":"4","last_reported":1688062262,"current_range_meters":25600,"station_id":"","pricing_plan_id":"free"},{"bike_id":"b4991217-e35e-44e5-a17b-0e4fbab2632c","system_id":"levelo_inurba_marseille","lat":43.261918,"lon":5.374424,"is_reserved":false,"is_disabled":false,"rental_uris":{"android":"levelo://app?vid=b4991217-e35e-44e5-a17b-0e4fbab2632c","ios":"levelo://app?vid=b4991217-e35e-44e5-a17b-0e4fbab2632c"},"vehicle_type_id":"4","last_reported":1688062262,"current_range_meters":7200,"station_id":"ce4bhgp2rcd13ifvqfc0","pricing_plan_id":"free"},{"bike_id":"72832851-4ba4-452c-b865-fd3d8813e495","system_id":"levelo_inurba_marseille","lat":43.26187,"lon":5.37447,"is_reserved":false,"is_disabled":false,"rental_uris":{"android":"levelo://app?vid=72832851-4ba4-452c-b865-fd3d8813e495","ios":"levelo://app?vid=72832851-4ba4-452c-b865-fd3d8813e495"},"vehicle_type_id":"4","last_reported":1688062262,"current_range_meters":19600,"station_id":"ce4bhgp2rcd13ifvqfc0","pricing_plan_id":"free"},{"bike_id":"d97dad8d-0837-4189-b425-ce810cf36284","system_id":"levelo_inurba_marseille","lat":43.317104,"lon":5.436818,"is_reserved":false,"is_disabled":false,"rental_uris":{"android":"levelo://app?vid=d97dad8d-0837-4189-b425-ce810cf36284","ios":"levelo://app?vid=d97dad8d-0837-4189-b425-ce810cf36284"},"vehicle_type_id":"4","last_reported":1688062262,"current_range_meters":24400,"station_id":"ce4bhp92rcd13ifvqhcg","pricing_plan_id":"free"},{"bike_id":"03ceb824-de6c-4813-bb80-12b73a8a2f18","system_id":"levelo_inurba_marseille","lat":43.317104,"lon":5.436818,"is_reserved":false,"is_disabled":false,"rental_uris":{"android":"levelo://app?vid=03ceb824-de6c-4813-bb80-12b73a8a2f18","ios":"levelo://app?vid=03ceb824-de6c-4813-bb80-12b73a8a2f18"},"vehicle_type_id":"4","last_reported":1688062262,"current_range_meters":29200,"station_id":"ce4bhp92rcd13ifvqhcg","pricing_plan_id":"free"},{"bike_id":"b95d1139-3616-4ff7-a1df-399b150308b9","system_id":"levelo_inurba_marseille","lat":43.26158,"lon":5.37501,"is_reserved":false,"is_disabled":false,"rental_uris":{"android":"levelo://app?vid=b95d1139-3616-4ff7-a1df-399b150308b9","ios":"levelo://app?vid=b95d1139-3616-4ff7-a1df-399b150308b9"},"vehicle_type_id":"4","last_reported":1688062262,"current_range_meters":2800,"station_id":"","pricing_plan_id":"free"},{"bike_id":"9085cff7-db04-4b20-ae0d-b5507f0960dd","system_id":"levelo_inurba_marseille","lat":43.27179,"lon":5.40989,"is_reserved":false,"is_disabled":false,"rental_uris":{"android":"levelo://app?vid=9085cff7-db04-4b20-ae0d-b5507f0960dd","ios":"levelo://app?vid=9085cff7-db04-4b20-ae0d-b5507f0960dd"},"vehicle_type_id":"4","last_reported":1688062262,"current_range_meters":27600,"station_id":"","pricing_plan_id":"free"},{"bike_id":"fdebd92b-3c38-4eff-916c-e94408bb5b09","system_id":"levelo_inurba_marseille","lat":43.2718,"lon":5.40993,"is_reserved":false,"is_disabled":false,"rental_uris":{"android":"levelo://app?vid=fdebd92b-3c38-4eff-916c-e94408bb5b09","ios":"levelo://app?vid=fdebd92b-3c38-4eff-916c-e94408bb5b09"},"vehicle_type_id":"4","last_reported":1688062262,"current_range_meters":28400,"station_id":"","pricing_plan_id":"free"},{"bike_id":"210fe184-08d6-4dcc-9132-a2fc3f575b20","system_id":"levelo_inurba_marseille","lat":43.27171,"lon":5.40994,"is_reserved":false,"is_disabled":false,"rental_uris":{"android":"levelo://app?vid=210fe184-08d6-4dcc-9132-a2fc3f575b20","ios":"levelo://app?vid=210fe184-08d6-4dcc-9132-a2fc3f575b20"},"vehicle_type_id":"4","last_reported":1688062262,"current_range_meters":31200,"station_id":"","pricing_plan_id":"free"},{"bike_id":"ce5e5b69-c61e-4718-b9f7-e99357873131","system_id":"levelo_inurba_marseille","lat":43.27167,"lon":5.40995,"is_reserved":false,"is_disabled":false,"rental_uris":{"android":"levelo://app?vid=ce5e5b69-c61e-4718-b9f7-e99357873131","ios":"levelo://app?vid=ce5e5b69-c61e-4718-b9f7-e99357873131"},"vehicle_type_id":"4","last_reported":1688062262,"current_range_meters":29200,"station_id":"","pricing_plan_id":"free"},{"bike_id":"4d5a7a11-3397-4f77-8ef0-1017b2b7fbab","system_id":"levelo_inurba_marseille","lat":43.267959,"lon":5.402685,"is_reserved":false,"is_disabled":false,"rental_uris":{"android":"levelo://app?vid=4d5a7a11-3397-4f77-8ef0-1017b2b7fbab","ios":"levelo://app?vid=4d5a7a11-3397-4f77-8ef0-1017b2b7fbab"},"vehicle_type_id":"4","last_reported":1688062262,"current_range_meters":4000,"station_id":"ce501612rcd8frsf0b60","pricing_plan_id":"free"},{"bike_id":"6f8ceddc-2016-456c-9fa8-7fc5428b0cb6","system_id":"levelo_inurba_marseille","lat":43.267959,"lon":5.402687,"is_reserved":false,"is_disabled":false,"rental_uris":{"android":"levelo://app?vid=6f8ceddc-2016-456c-9fa8-7fc5428b0cb6","ios":"levelo://app?vid=6f8ceddc-2016-456c-9fa8-7fc5428b0cb6"},"vehicle_type_id":"4","last_reported":1688062262,"current_range_meters":14000,"station_id":"ce501612rcd8frsf0b60","pricing_plan_id":"free"},{"bike_id":"0f94d590-6a4a-44dd-a4b8-c783d6a2e6f4","system_id":"levelo_inurba_marseille","lat":43.260219,"lon":5.37546,"is_reserved":false,"is_disabled":false,"rental_uris":{"android":"levelo://app?vid=0f94d590-6a4a-44dd-a4b8-c783d6a2e6f4","ios":"levelo://app?vid=0f94d590-6a4a-44dd-a4b8-c783d6a2e6f4"},"vehicle_type_id":"4","last_reported":1688062262,"current_range_meters":400,"station_id":"ce4bhgh2rcd13ifvqfa0","pricing_plan_id":"free"},{"bike_id":"d0565cf1-5665-447a-87bf-260c2cc79d4b","system_id":"levelo_inurba_marseille","lat":43.25965,"lon":5.37528,"is_reserved":false,"is_disabled":false,"rental_uris":{"android":"levelo://app?vid=d0565cf1-5665-447a-87bf-260c2cc79d4b","ios":"levelo://app?vid=d0565cf1-5665-447a-87bf-260c2cc79d4b"},"vehicle_type_id":"4","last_reported":1688062262,"current_range_meters":2000,"station_id":"","pricing_plan_id":"free"},{"bike_id":"fe5a28f2-3b02-4e10-b075-d51f1de554fd","system_id":"levelo_inurba_marseille","lat":43.2607,"lon":5.393983,"is_reserved":false,"is_disabled":false,"rental_uris":{"android":"levelo://app?vid=fe5a28f2-3b02-4e10-b075-d51f1de554fd","ios":"levelo://app?vid=fe5a28f2-3b02-4e10-b075-d51f1de554fd"},"vehicle_type_id":"4","last_reported":1688062262,"current_range_meters":12800,"station_id":"ce4bhh92rcd13ifvqfj0","pricing_plan_id":"free"},{"bike_id":"b131505b-11b1-4465-add9-09a94dd06e7d","system_id":"levelo_inurba_marseille","lat":43.275028,"lon":5.424534,"is_reserved":false,"is_disabled":false,"rental_uris":{"android":"levelo://app?vid=b131505b-11b1-4465-add9-09a94dd06e7d","ios":"levelo://app?vid=b131505b-11b1-4465-add9-09a94dd06e7d"},"vehicle_type_id":"4","last_reported":1688062262,"current_range_meters":25600,"station_id":"ce4bhn92rcd13ifvqgrg","pricing_plan_id":"free"},{"bike_id":"9901b74f-31d3-4486-913e-f3535cee5f8b","system_id":"levelo_inurba_marseille","lat":43.275028,"lon":5.424534,"is_reserved":false,"is_disabled":false,"rental_uris":{"android":"levelo://app?vid=9901b74f-31d3-4486-913e-f3535cee5f8b","ios":"levelo://app?vid=9901b74f-31d3-4486-913e-f3535cee5f8b"},"vehicle_type_id":"4","last_reported":1688062262,"current_range_meters":16800,"station_id":"ce4bhn92rcd13ifvqgrg","pricing_plan_id":"free"},{"bike_id":"182d2410-0d09-4d96-9321-7df2cae61eab","system_id":"levelo_inurba_marseille","lat":43.275028,"lon":5.424534,"is_reserved":false,"is_disabled":false,"rental_uris":{"android":"levelo://app?vid=182d2410-0d09-4d96-9321-7df2cae61eab","ios":"levelo://app?vid=182d2410-0d09-4d96-9321-7df2cae61eab"},"vehicle_type_id":"4","last_reported":1688062262,"current_range_meters":26000,"station_id":"ce4bhn92rcd13ifvqgrg","pricing_plan_id":"free"},{"bike_id":"8405e39d-965d-4ef8-ba37-a68a3e5ccaa2","system_id":"levelo_inurba_marseille","lat":43.275028,"lon":5.424534,"is_reserved":false,"is_disabled":false,"rental_uris":{"android":"levelo://app?vid=8405e39d-965d-4ef8-ba37-a68a3e5ccaa2","ios":"levelo://app?vid=8405e39d-965d-4ef8-ba37-a68a3e5ccaa2"},"vehicle_type_id":"4","last_reported":1688062262,"current_range_meters":2400,"station_id":"ce4bhn92rcd13ifvqgrg","pricing_plan_id":"free"},{"bike_id":"3720a3af-b4b5-4bf6-bebc-3cd30275ced7","system_id":"levelo_inurba_marseille","lat":43.275028,"lon":5.424534,"is_reserved":false,"is_disabled":false,"rental_uris":{"android":"levelo://app?vid=3720a3af-b4b5-4bf6-bebc-3cd30275ced7","ios":"levelo://app?vid=3720a3af-b4b5-4bf6-bebc-3cd30275ced7"},"vehicle_type_id":"4","last_reported":1688062262,"current_range_meters":9200,"station_id":"ce4bhn92rcd13ifvqgrg","pricing_plan_id":"free"},{"bike_id":"c6324218-4ac8-4f9b-bda3-586856745dd5","system_id":"levelo_inurba_marseille","lat":43.260909,"lon":5.397591,"is_reserved":false,"is_disabled":false,"rental_uris":{"android":"levelo://app?vid=c6324218-4ac8-4f9b-bda3-586856745dd5","ios":"levelo://app?vid=c6324218-4ac8-4f9b-bda3-586856745dd5"},"vehicle_type_id":"4","last_reported":1688062262,"current_range_meters":31200,"station_id":"ce4bhi12rcd13ifvqfq0","pricing_plan_id":"free"},{"bike_id":"b8db7927-5525-4ef4-99e2-6493e1b7b89b","system_id":"levelo_inurba_marseille","lat":43.260909,"lon":5.397591,"is_reserved":false,"is_disabled":false,"rental_uris":{"android":"levelo://app?vid=b8db7927-5525-4ef4-99e2-6493e1b7b89b","ios":"levelo://app?vid=b8db7927-5525-4ef4-99e2-6493e1b7b89b"},"vehicle_type_id":"4","last_reported":1688062262,"current_range_meters":28400,"station_id":"ce4bhi12rcd13ifvqfq0","pricing_plan_id":"free"},{"bike_id":"298eb125-1f09-433c-8196-f8453bdca4eb","system_id":"levelo_inurba_marseille","lat":43.260909,"lon":5.397591,"is_reserved":false,"is_disabled":false,"rental_uris":{"android":"levelo://app?vid=298eb125-1f09-433c-8196-f8453bdca4eb","ios":"levelo://app?vid=298eb125-1f09-433c-8196-f8453bdca4eb"},"vehicle_type_id":"4","last_reported":1688062262,"current_range_meters":31200,"station_id":"ce4bhi12rcd13ifvqfq0","pricing_plan_id":"free"},{"bike_id":"c4afe797-ae82-4eb9-a7ae-e4772abfd57a","system_id":"levelo_inurba_marseille","lat":43.25508,"lon":5.37649,"is_reserved":false,"is_disabled":false,"rental_uris":{"android":"levelo://app?vid=c4afe797-ae82-4eb9-a7ae-e4772abfd57a","ios":"levelo://app?vid=c4afe797-ae82-4eb9-a7ae-e4772abfd57a"},"vehicle_type_id":"4","last_reported":1688062262,"current_range_meters":31600,"station_id":"ce4bhh12rcd13ifvqff0","pricing_plan_id":"free"},{"bike_id":"ea3280d5-6fac-4e5d-98f4-6a38dae34a34","system_id":"levelo_inurba_marseille","lat":43.254947,"lon":5.376454,"is_reserved":false,"is_disabled":false,"rental_uris":{"android":"levelo://app?vid=ea3280d5-6fac-4e5d-98f4-6a38dae34a34","ios":"levelo://app?vid=ea3280d5-6fac-4e5d-98f4-6a38dae34a34"},"vehicle_type_id":"4","last_reported":1688062262,"current_range_meters":0,"station_id":"ce4bhh12rcd13ifvqff0","pricing_plan_id":"free"},{"bike_id":"a17cc5e4-a863-433a-814d-bbe7789c4540","system_id":"levelo_inurba_marseille","lat":43.254947,"lon":5.376454,"is_reserved":false,"is_disabled":false,"rental_uris":{"android":"levelo://app?vid=a17cc5e4-a863-433a-814d-bbe7789c4540","ios":"levelo://app?vid=a17cc5e4-a863-433a-814d-bbe7789c4540"},"vehicle_type_id":"4","last_reported":1688062262,"current_range_meters":31600,"station_id":"ce4bhh12rcd13ifvqff0","pricing_plan_id":"free"},{"bike_id":"f984b621-0724-4aeb-8f8a-440cca29fa2f","system_id":"levelo_inurba_marseille","lat":43.25501,"lon":5.37652,"is_reserved":false,"is_disabled":false,"rental_uris":{"android":"levelo://app?vid=f984b621-0724-4aeb-8f8a-440cca29fa2f","ios":"levelo://app?vid=f984b621-0724-4aeb-8f8a-440cca29fa2f"},