{"last_updated":1752315054,"ttl":60,"version":"2.2","data":{"bikes":[{"bike_id":"6e51284c-25c6-4c19-a0d9-611916ecfd3e","system_id":"levelo_inurba_marseille","lat":43.29599,"lon":5.38094,"is_reserved":false,"is_disabled":false,"rental_uris":{"android":"levelo://app?vid=6e51284c-25c6-4c19-a0d9-611916ecfd3e","ios":"levelo://app?vid=6e51284c-25c6-4c19-a0d9-611916ecfd3e"},"vehicle_type_id":"4","last_reported":1752315054,"current_range_meters":5600,"station_id":"ce4bgl12rcd13ifvqbo0","pricing_plan_id":"cebpf4jnsgd1na2vs0mg"},{"bike_id":"39c43857-8393-470b-8e66-1d853682a86b","system_id":"levelo_inurba_marseille","lat":43.25873,"lon":5.39893,"is_reserved":false,"is_disabled":false,"rental_uris":{"android":"levelo://app?vid=39c43857-8393-470b-8e66-1d853682a86b","ios":"levelo://app?vid=39c43857-8393-470b-8e66-1d853682a86b"},"vehicle_type_id":"4","last_reported":1752315054,"current_range_meters":5600,"station_id":"ce4bhl92rcd13ifvqghg","pricing_plan_id":"cebpf4jnsgd1na2vs0mg"},{"bike_id":"d8f33195-93cb-4919-8fab-bd796498b905","system_id":"levelo_inurba_marseille","lat":43.265704,"lon":5.390153,"is_reserved":false,"is_disabled":true,"rental_uris":{"android":"levelo://app?vid=d8f33195-93cb-4919-8fab-bd796498b905","ios":"levelo://app?vid=d8f33195-93cb-4919-8fab-bd796498b905"},"vehicle_type_id":"4","last_reported":1752315054,"current_range_meters":6000,"station_id":"ce4bhe12rcd13ifvqf30","pricing_plan_id":"cebpf4jnsgd1na2vs0mg"},{"bike_id":"a2339d9d-6be4-415d-a160-f9b9822722fc","system_id":"levelo_inurba_marseille","lat":43.310606,"lon":5.383394,"is_reserved":false,"is_disabled":true,"rental_uris":{"android":"levelo://app?vid=a2339d9d-6be4-415d-a160-f9b9822722fc","ios":"levelo://app?vid=a2339d9d-6be4-415d-a160-f9b9822722fc"},"vehicle_type_id":"4","last_reported":1752315054,"current_range_meters":6000,"station_id":"ce4bgv92rcd13ifvqcr0","pricing_plan_id":"cebpf4jnsgd1na2vs0mg"},{"bike_id":"c0662ee8-dbf9-41c7-ad7f-ab6ba8f805b6","system_id":"levelo_inurba_marseille","lat":43.24805,"lon":5.37452,"is_reserved":false,"is_disabled":false,"rental_uris":{"android":"levelo://app?vid=c0662ee8-dbf9-41c7-ad7f-ab6ba8f805b6","ios":"levelo://app?vid=c0662ee8-dbf9-41c7-ad7f-ab6ba8f805b6"},"vehicle_type_id":"4","last_reported":1752315054,"current_range_meters":6800,"station_id":"ce4bhgh2rcd13ifvqfb0","pricing_plan_id":"cebpf4jnsgd1na2vs0mg"},{"bike_id":"30901423-d929-4157-9929-8830dd2c99b3","system_id":"levelo_inurba_marseille","lat":43.29282,"lon":5.40121,"is_reserved":false,"is_disabled":false,"rental_uris":{"android":"levelo://app?vid=30901423-d929-4157-9929-8830dd2c99b3","ios":"levelo://app?vid=30901423-d929-4157-9929-8830dd2c99b3"},"vehicle_type_id":"4","last_reported":1752315054,"current_range_meters":7200,"station_id":"ce4bh312rcd13ifvqdk0","pricing_plan_id":"cebpf4jnsgd1na2vs0mg"},{"bike_id":"ffc0f851-ae8b-4cb2-a7b3-8308dbe020c1","system_id":"levelo_inurba_marseille","lat":43.30299,"lon":5.3922,"is_reserved":false,"is_disabled":false,"rental_uris":{"android":"levelo://app?vid=ffc0f851-ae8b-4cb2-a7b3-8308dbe020c1","ios":"levelo://app?vid=ffc0f851-ae8b-4cb2-a7b3-8308dbe020c1"},"vehicle_type_id":"4","last_reported":1752315054,"current_range_meters":7200,"station_id":"ce4bgkh2rcd13ifvqbk0","pricing_plan_id":"cebpf4jnsgd1na2vs0mg"},{"bike_id":"dcb37d41-78c6-4ab3-a264-4cbee7e68aaf","system_id":"levelo_inurba_marseille","lat":43.304283,"lon":5.388947,"is_reserved":false,"is_disabled":false,"rental_uris":{"android":"levelo://app?vid=dcb37d41-78c6-4ab3-a264-4cbee7e68aaf","ios":"levelo://app?vid=dcb37d41-78c6-4ab3-a264-4cbee7e68aaf"},"vehicle_type_id":"4","last_reported":1752315054,"current_range_meters":8000,"station_id":"ce4bgk12rcd13ifvqbi0","pricing_plan_id":"cebpf4jnsgd1na2vs0mg"},{"bike_id":"534ed68d-5ceb-43a8-968b-be30f01dfa74","system_id":"levelo_inurba_marseille","lat":43.28246,"lon":5.39069,"is_reserved":false,"is_disabled":false,"rental_uris":{"android":"levelo://app?vid=534ed68d-5ceb-43a8-968b-be30f01dfa74","ios":"levelo://app?vid=534ed68d-5ceb-43a8-968b-be30f01dfa74"},"vehicle_type_id":"4","last_reported":1752315054,"current_range_meters":8400,"station_id":"","pricing_plan_id":"cebpf4jnsgd1na2vs0mg"},{"bike_id":"d09b2b15-bb48-40d3-9662-32b71af20aab","system_id":"levelo_inurba_marseille","lat":43.29711,"lon":5.37693,"is_reserved":false,"is_disabled":false,"rental_uris":{"android":"levelo://app?vid=d09b2b15-bb48-40d3-9662-32b71af20aab","ios":"levelo://app?vid=d09b2b15-bb48-40d3-9662-32b71af20aab"},"vehicle_type_id":"4","last_reported":1752315054,"current_range_meters":8800,"station_id":"ce4bgkh2rcd13ifvqbl0","pricing_plan_id":"cebpf4jnsgd1na2vs0mg"},{"bike_id":"ebe96e2c-5f30-432e-a9d1-73a83a10a4a4","system_id":"levelo_inurba_marseille","lat":43.30329,"lon":5.40431,"is_reserved":false,"is_disabled":false,"rental_uris":{"android":"levelo://app?vid=ebe96e2c-5f30-432e-a9d1-73a83a10a4a4","ios":"levelo://app?vid=ebe96e2c-5f30-432e-a9d1-73a83a10a4a4"},"vehicle_type_id":"4","last_reported":1752315054,"current_range_meters":8800,"station_id":"ce4bh012rcd13ifvqd10","pricing_plan_id":"cebpf4jnsgd1na2vs0mg"},{"bike_id":"d849a247-c2c0-4619-bac8-f5a6994e0014","system_id":"levelo_inurba_marseille","lat":43.3202,"lon":5.41587,"is_reserved":false,"is_disabled":false,"rental_uris":{"android":"levelo://app?vid=d849a247-c2c0-4619-bac8-f5a6994e0014","ios":"levelo://app?vid=d849a247-c2c0-4619-bac8-f5a6994e0014"},"vehicle_type_id":"4","last_reported":1752315054,"current_range_meters":9200,"station_id":"ce4bhq92rcd13ifvqhkg","pricing_plan_id":"cebpf4jnsgd1na2vs0mg"},{"bike_id":"24408ebf-8612-4df2-b491-b3f77a991042","system_id":"levelo_inurba_marseille","lat":43.3176,"lon":5.39015,"is_reserved":false,"is_disabled":false,"rental_uris":{"android":"levelo://app?vid=24408ebf-8612-4df2-b491-b3f77a991042","ios":"levelo://app?vid=24408ebf-8612-4df2-b491-b3f77a991042"},"vehicle_type_id":"4","last_reported":1752315054,"current_range_meters":9600,"station_id":"ce4bhqp2rcd13ifvqhng","pricing_plan_id":"cebpf4jnsgd1na2vs0mg"},{"bike_id":"6e44525d-ed45-445a-a877-081b94eb5813","system_id":"levelo_inurba_marseille","lat":43.30351,"lon":5.41879,"is_reserved":false,"is_disabled":false,"rental_uris":{"android":"levelo://app?vid=6e44525d-ed45-445a-a877-081b94eb5813","ios":"levelo://app?vid=6e44525d-ed45-445a-a877-081b94eb5813"},"vehicle_type_id":"4","last_reported":1752315054,"current_range_meters":9600,"station_id":"ce4bhop2rcd13ifvqh7g","pricing_plan_id":"cebpf4jnsgd1na2vs0mg"},{"bike_id":"e1d8d69e-fd16-4c9e-9c88-e6ea2652f0f7","system_id":"levelo_inurba_marseille","lat":43.294356,"lon":5.397527,"is_reserved":false,"is_disabled":false,"rental_uris":{"android":"levelo://app?vid=e1d8d69e-fd16-4c9e-9c88-e6ea2652f0f7","ios":"levelo://app?vid=e1d8d69e-fd16-4c9e-9c88-e6ea2652f0f7"},"vehicle_type_id":"4","last_reported":1752315054,"current_range_meters":10000,"station_id":"ce4bh3h2rcd13ifvqdo0","pricing_plan_id":"cebpf4jnsgd1na2vs0mg"},{"bike_id":"0740fead-5ad2-4801-a771-8085b7a7798e","system_id":"levelo_inurba_marseille","lat":43.2804,"lon":5.36944,"is_reserved":false,"is_disabled":false,"rental_uris":{"android":"levelo://app?vid=0740fead-5ad2-4801-a771-8085b7a7798e","ios":"levelo://app?vid=0740fead-5ad2-4801-a771-8085b7a7798e"},"vehicle_type_id":"4","last_reported":1752315054,"current_range_meters":9600,"station_id":"ce4bha12rcd13ifvqef0","pricing_plan_id":"cebpf4jnsgd1na2vs0mg"},{"bike_id":"865e8da1-ff4a-402c-b802-ac33ec88e3ea","system_id":"levelo_inurba_marseille","lat":43.33026,"lon":5.39038,"is_reserved":false,"is_disabled":false,"rental_uris":{"android":"levelo://app?vid=865e8da1-ff4a-402c-b802-ac33ec88e3ea","ios":"levelo://app?vid=865e8da1-ff4a-402c-b802-ac33ec88e3ea"},"vehicle_type_id":"4","last_reported":1752315054,"current_range_meters":10000,"station_id":"ce4bhr92rcd13ifvqhrg","pricing_plan_id":"cebpf4jnsgd1na2vs0mg"},{"bike_id":"4807356c-9359-477f-9e8b-c50294961557","system_id":"levelo_inurba_marseille","lat":43.31899,"lon":5.40738,"is_reserved":false,"is_disabled":false,"rental_uris":{"android":"levelo://app?vid=4807356c-9359-477f-9e8b-c50294961557","ios":"levelo://app?vid=4807356c-9359-477f-9e8b-c50294961557"},"vehicle_type_id":"4","last_reported":1752315054,"current_range_meters":10000,"station_id":"ce4bhq12rcd13ifvqhig","pricing_plan_id":"cebpf4jnsgd1na2vs0mg"},{"bike_id":"080f57f3-a8d5-4466-97ef-f4f40d547d09","system_id":"levelo_inurba_marseille","lat":43.31384,"lon":5.38527,"is_reserved":false,"is_disabled":false,"rental_uris":{"android":"levelo://app?vid=080f57f3-a8d5-4466-97ef-f4f40d547d09","ios":"levelo://app?vid=080f57f3-a8d5-4466-97ef-f4f40d547d09"},"vehicle_type_id":"4","last_reported":1752315054,"current_range_meters":10800,"station_id":"ce4bgt92rcd13ifvqcf0","pricing_plan_id":"cebpf4jnsgd1na2vs0mg"},{"bike_id":"fd9f5c27-5d58-42e5-badc-a12a0344229e","system_id":"levelo_inurba_marseille","lat":43.289107,"lon":5.36061,"is_reserved":false,"is_disabled":false,"rental_uris":{"android":"levelo://app?vid=fd9f5c27-5d58-42e5-badc-a12a0344229e","ios":"levelo://app?vid=fd9f5c27-5d58-42e5-badc-a12a0344229e"},"vehicle_type_id":"4","last_reported":1752315054,"current_range_meters":10800,"station_id":"","pricing_plan_id":"cebpf4jnsgd1na2vs0mg"},{"bike_id":"595e9351-a7ce-45de-8995-771f7d9fe86e","system_id":"levelo_inurba_marseille","lat":43.309243,"lon":5.378088,"is_reserved":false,"is_disabled":false,"rental_uris":{"android":"levelo://app?vid=595e9351-a7ce-45de-8995-771f7d9fe86e","ios":"levelo://app?vid=595e9351-a7ce-45de-8995-771f7d9fe86e"},"vehicle_type_id":"4","last_reported":1752315054,"current_range_meters":10800,"station_id":"","pricing_plan_id":"cebpf4jnsgd1na2vs0mg"},{"bike_id":"2711aaaf-3805-4804-9329-3207cf061148","system_id":"levelo_inurba_marseille","lat":43.28425,"lon":5.34992,"is_reserved":false,"is_disabled":false,"rental_uris":{"android":"levelo://app?vid=2711aaaf-3805-4804-9329-3207cf061148","ios":"levelo://app?vid=2711aaaf-3805-4804-9329-3207cf061148"},"vehicle_type_id":"4","last_reported":1752315054,"current_range_meters":10800,"station_id":"ce4bhbh2rcd13ifvqepg","pricing_plan_id":"cebpf4jnsgd1na2vs0mg"},{"bike_id":"605d5b3b-f287-4690-bd49-bc257cb106c3","system_id":"levelo_inurba_marseille","lat":43.23967,"lon":5.36627,"is_reserved":false,"is_disabled":false,"rental_uris":{"android":"levelo://app?vid=605d5b3b-f287-4690-bd49-bc257cb106c3","ios":"levelo://app?vid=605d5b3b-f287-4690-bd49-bc257cb106c3"},"vehicle_type_id":"4","last_reported":1752315054,"current_range_meters":10800,"station_id":"ce4bhi12rcd13ifvqfp0","pricing_plan_id":"cebpf4jnsgd1na2vs0mg"},{"bike_id":"e3a75ee9-c614-467b-8cc2-f813bcef2ab1","system_id":"levelo_inurba_marseille","lat":43.33743,"lon":5.3919,"is_reserved":false,"is_disabled":false,"rental_uris":{"android":"levelo://app?vid=e3a75ee9-c614-467b-8cc2-f813bcef2ab1","ios":"levelo://app?vid=e3a75ee9-c614-467b-8cc2-f813bcef2ab1"},"vehicle_type_id":"4","last_reported":1752315054,"current_range_meters":10800,"station_id":"ce4bhr92rcd13ifvqhsg","pricing_plan_id":"cebpf4jnsgd1na2vs0mg"},{"bike_id":"62413e55-0898-4a7b-b22f-556afa8277bb","system_id":"levelo_inurba_marseille","lat":43.28618,"lon":5.35104,"is_reserved":false,"is_disabled":false,"rental_uris":{"android":"levelo://app?vid=62413e55-0898-4a7b-b22f-556afa8277bb","ios":"levelo://app?vid=62413e55-0898-4a7b-b22f-556afa8277bb"},"vehicle_type_id":"4","last_reported":1752315054,"current_range_meters":10800,"station_id":"ce4bhch2rcd13ifvqeug","pricing_plan_id":"cebpf4jnsgd1na2vs0mg"},{"bike_id":"eda0ea69-6404-43e6-9ede-2655d170d444","system_id":"levelo_inurba_marseille","lat":43.28837,"lon":5.35816,"is_reserved":false,"is_disabled":true,"rental_uris":{"android":"levelo://app?vid=eda0ea69-6404-43e6-9ede-2655d170d444","ios":"levelo://app?vid=eda0ea69-6404-43e6-9ede-2655d170d444"},"vehicle_type_id":"4","last_reported":1752315054,"current_range_meters":10800,"station_id":"ce4bhb12rcd13ifvqem0","pricing_plan_id":"cebpf4jnsgd1na2vs0mg"},{"bike_id":"5b9b2fff-22f8-4ffc-b7a0-27211dfdc2e0","system_id":"levelo_inurba_marseille","lat":43.25716,"lon":5.41113,"is_reserved":false,"is_disabled":false,"rental_uris":{"android":"levelo://app?vid=5b9b2fff-22f8-4ffc-b7a0-27211dfdc2e0","ios":"levelo://app?vid=5b9b2fff-22f8-4ffc-b7a0-27211dfdc2e0"},"vehicle_type_id":"4","last_reported":1752315054,"current_range_meters":11200,"station_id":"ce4bhkp2rcd13ifvqgd0","pricing_plan_id":"cebpf4jnsgd1na2vs0mg"},{"bike_id":"57c84c66-066e-4358-b1d0-aebc3e80469c","system_id":"levelo_inurba_marseille","lat":43.29378,"lon":5.37857,"is_reserved":false,"is_disabled":false,"rental_uris":{"android":"levelo://app?vid=57c84c66-066e-4358-b1d0-aebc3e80469c","ios":"levelo://app?vid=57c84c66-066e-4358-b1d0-aebc3e80469c"},"vehicle_type_id":"4","last_reported":1752315054,"current_range_meters":11200,"station_id":"ce4bgjh2rcd13ifvqbf0","pricing_plan_id":"cebpf4jnsgd1na2vs0mg"},{"bike_id":"ef698040-cffd-4a0c-9a91-bf557274de35","system_id":"levelo_inurba_marseille","lat":43.31716,"lon":5.377724,"is_reserved":false,"is_disabled":false,"rental_uris":{"android":"levelo://app?vid=ef698040-cffd-4a0c-9a91-bf557274de35","ios":"levelo://app?vid=ef698040-cffd-4a0c-9a91-bf557274de35"},"vehicle_type_id":"4","last_reported":1752315054,"current_range_meters":11200,"station_id":"ce4bgth2rcd13ifvqch0","pricing_plan_id":"cebpf4jnsgd1na2vs0mg"},{"bike_id":"dafa5a87-b26d-4379-9a6b-1f02133b78a6","system_id":"levelo_inurba_marseille","lat":43.21195,"lon":5.3507,"is_reserved":false,"is_disabled":false,"rental_uris":{"android":"levelo://app?vid=dafa5a87-b26d-4379-9a6b-1f02133b78a6","ios":"levelo://app?vid=dafa5a87-b26d-4379-9a6b-1f02133b78a6"},"vehicle_type_id":"4","last_reported":1752315054,"current_range_meters":11200,"station_id":"st_cvj6sg6p6f1abm77japg","pricing_plan_id":"cebpf4jnsgd1na2vs0mg"},{"bike_id":"90a2ccd4-47e8-4c5f-a152-5ab5eff88027","system_id":"levelo_inurba_marseille","lat":43.28866,"lon":5.35849,"is_reserved":false,"is_disabled":false,"rental_uris":{"android":"levelo://app?vid=90a2ccd4-47e8-4c5f-a152-5ab5eff88027","ios":"levelo://app?vid=90a2ccd4-47e8-4c5f-a152-5ab5eff88027"},"vehicle_type_id":"4","last_reported":1752315054,"current_range_meters":11200,"station_id":"ce4bhb12rcd13ifvqem0","pricing_plan_id":"cebpf4jnsgd1na2vs0mg"},{"bike_id":"ceb8bcf8-9e11-4102-bd78-9a687c0c96d2","system_id":"levelo_inurba_marseille","lat":43.28931,"lon":5.38407,"is_reserved":false,"is_disabled":false,"rental_uris":{"android":"levelo://app?vid=ceb8bcf8-9e11-4102-bd78-9a687c0c96d2","ios":"levelo://app?vid=ceb8bcf8-9e11-4102-bd78-9a687c0c96d2"},"vehicle_type_id":"4","last_reported":1752315054,"current_range_meters":11600,"station_id":"ce4bh612rcd13ifvqe6g","pricing_plan_id":"cebpf4jnsgd1na2vs0mg"},{"bike_id":"8929c1bf-fd4d-44e4-aa66-b3eb6538c998","system_id":"levelo_inurba_marseille","lat":43.28575,"lon":5.42988,"is_reserved":false,"is_disabled":false,"rental_uris":{"android":"levelo://app?vid=8929c1bf-fd4d-44e4-aa66-b3eb6538c998","ios":"levelo://app?vid=8929c1bf-fd4d-44e4-aa66-b3eb6538c998"},"vehicle_type_id":"4","last_reported":1752315054,"current_range_meters":11600,"station_id":"","pricing_plan_id":"cebpf4jnsgd1na2vs0mg"},{"bike_id":"84d1266e-c769-4ce6-8b19-f18b8b7a08c3","system_id":"levelo_inurba_marseille","lat":43.23969,"lon":5.36631,"is_reserved":false,"is_disabled":false,"rental_uris":{"android":"levelo://app?vid=84d1266e-c769-4ce6-8b19-f18b8b7a08c3","ios":"levelo://app?vid=84d1266e-c769-4ce6-8b19-f18b8b7a08c3"},"vehicle_type_id":"4","last_reported":1752315054,"current_range_meters":11600,"station_id":"ce4bhi12rcd13ifvqfp0","pricing_plan_id":"cebpf4jnsgd1na2vs0mg"},{"bike_id":"97d4bafb-1703-482a-9af9-9c0328bf232e","system_id":"levelo_inurba_marseille","lat":43.29535,"lon":5.37508,"is_reserved":false,"is_disabled":false,"rental_uris":{"android":"levelo://app?vid=97d4bafb-1703-482a-9af9-9c0328bf232e","ios":"levelo://app?vid=97d4bafb-1703-482a-9af9-9c0328bf232e"},"vehicle_type_id":"4","last_reported":1752315054,"current_range_meters":11600,"station_id":"ce4bgkp2rcd13ifvqbmg","pricing_plan_id":"cebpf4jnsgd1na2vs0mg"},{"bike_id":"f5eb6d12-bdfc-4841-8b7c-219b56c1abe6","system_id":"levelo_inurba_marseille","lat":43.25726,"lon":5.41108,"is_reserved":false,"is_disabled":false,"rental_uris":{"android":"levelo://app?vid=f5eb6d12-bdfc-4841-8b7c-219b56c1abe6","ios":"levelo://app?vid=f5eb6d12-bdfc-4841-8b7c-219b56c1abe6"},"vehicle_type_id":"4","last_reported":1752315054,"current_range_meters":11600,"station_id":"ce4bhkp2rcd13ifvqgd0","pricing_plan_id":"cebpf4jnsgd1na2vs0mg"},{"bike_id":"d1600b65-2986-4875-8c08-c4b96ea7a68d","system_id":"levelo_inurba_marseille","lat":43.27057,"lon":5.40259,"is_reserved":false,"is_disabled":false,"rental_uris":{"android":"levelo://app?vid=d1600b65-2986-4875-8c08-c4b96ea7a68d","ios":"levelo://app?vid=d1600b65-2986-4875-8c08-c4b96ea7a68d"},"vehicle_type_id":"4","last_reported":1752315054,"current_range_meters":11600,"station_id":"ce4bhk92rcd13ifvqgc0","pricing_plan_id":"cebpf4jnsgd1na2vs0mg"},{"bike_id":"42d921ee-3551-4225-a715-7c5e650bd0b6","system_id":"levelo_inurba_marseille","lat":43.30319,"lon":5.40433,"is_reserved":false,"is_disabled":false,"rental_uris":{"android":"levelo://app?vid=42d921ee-3551-4225-a715-7c5e650bd0b6","ios":"levelo://app?vid=42d921ee-3551-4225-a715-7c5e650bd0b6"},"vehicle_type_id":"4","last_reported":1752315054,"current_range_meters":11600,"station_id":"ce4bh012rcd13ifvqd10","pricing_plan_id":"cebpf4jnsgd1na2vs0mg"},{"bike_id":"4a92b34b-1d43-4830-8a92-a24d5fc4e5ca","system_id":"levelo_inurba_marseille","lat":43.29551,"lon":5.37518,"is_reserved":false,"is_disabled":false,"rental_uris":{"android":"levelo://app?vid=4a92b34b-1d43-4830-8a92-a24d5fc4e5ca","ios":"levelo://app?vid=4a92b34b-1d43-4830-8a92-a24d5fc4e5ca"},"vehicle_type_id":"4","last_reported":1752315054,"current_range_meters":12000,"station_id":"ce4bgh92rcd13ifvqb50","pricing_plan_id":"cebpf4jnsgd1na2vs0mg"},{"bike_id":"8fccf46e-4269-459a-bd9a-cdd93f6b32bc","system_id":"levelo_inurba_marseille","lat":43.30364,"lon":5.41872,"is_reserved":false,"is_disabled":false,"rental_uris":{"android":"levelo://app?vid=8fccf46e-4269-459a-bd9a-cdd93f6b32bc","ios":"levelo://app?vid=8fccf46e-4269-459a-bd9a-cdd93f6b32bc"},"vehicle_type_id":"4","last_reported":1752315054,"current_range_meters":12000,"station_id":"ce4bhop2rcd13ifvqh7g","pricing_plan_id":"cebpf4jnsgd1na2vs0mg"},{"bike_id":"1080c49e-307f-4ac6-968b-c093ab459a73","system_id":"levelo_inurba_marseille","lat":43.3204,"lon":5.4155,"is_reserved":false,"is_disabled":false,"rental_uris":{"android":"levelo://app?vid=1080c49e-307f-4ac6-968b-c093ab459a73","ios":"levelo://app?vid=1080c49e-307f-4ac6-968b-c093ab459a73"},"vehicle_type_id":"4","last_reported":1752315054,"current_range_meters":12000,"station_id":"ce4bhq92rcd13ifvqhkg","pricing_plan_id":"cebpf4jnsgd1na2vs0mg"},{"bike_id":"65715245-ae22-4c14-a440-90c4c1db5a80","system_id":"levelo_inurba_marseille","lat":43.29323,"lon":5.37133,"is_reserved":false,"is_disabled":false,"rental_uris":{"android":"levelo://app?vid=65715245-ae22-4c14-a440-90c4c1db5a80","ios":"levelo://app?vid=65715245-ae22-4c14-a440-90c4c1db5a80"},"vehicle_type_id":"4","last_reported":1752315054,"current_range_meters":12000,"station_id":"ce4bgh92rcd13ifvqb40","pricing_plan_id":"cebpf4jnsgd1na2vs0mg"},{"bike_id":"43b90c82-97e0-4fa7-8b67-2448f07d529e","system_id":"levelo_inurba_marseille","lat":43.21193,"lon":5.3508,"is_reserved":false,"is_disabled":false,"rental_uris":{"android":"levelo://app?vid=43b90c82-97e0-4fa7-8b67-2448f07d529e","ios":"levelo://app?vid=43b90c82-97e0-4fa7-8b67-2448f07d529e"},"vehicle_type_id":"4","last_reported":1752315054,"current_range_meters":12000,"station_id":"","pricing_plan_id":"cebpf4jnsgd1na2vs0mg"},{"bike_id":"e9fd0cf8-573b-4177-88a6-f1faf33e8aca","system_id":"levelo_inurba_marseille","lat":43.28966,"lon":5.35601,"is_reserved":false,"is_disabled":false,"rental_uris":{"android":"levelo://app?vid=e9fd0cf8-573b-4177-88a6-f1faf33e8aca","ios":"levelo://app?vid=e9fd0cf8-573b-4177-88a6-f1faf33e8aca"},"vehicle_type_id":"4","last_reported":1752315054,"current_range_meters":12400,"station_id":"","pricing_plan_id":"cebpf4jnsgd1na2vs0mg"},{"bike_id":"59abd4c4-8a4d-4cab-8aea-7cfc8564355e","system_id":"levelo_inurba_marseille","lat":43.21197,"lon":5.35065,"is_reserved":false,"is_disabled":false,"rental_uris":{"android":"levelo://app?vid=59abd4c4-8a4d-4cab-8aea-7cfc8564355e","ios":"levelo://app?vid=59abd4c4-8a4d-4cab-8aea-7cfc8564355e"},"vehicle_type_id":"4","last_reported":1752315054,"current_range_meters":12800,"station_id":"st_cvj6sg6p6f1abm77japg","pricing_plan_id":"cebpf4jnsgd1na2vs0mg"},{"bike_id":"c4364e45-cabc-4e01-8708-336fd6971a01","system_id":"levelo_inurba_marseille","lat":43.29416,"lon":5.38622,"is_reserved":false,"is_disabled":false,"rental_uris":{"android":"levelo://app?vid=c4364e45-cabc-4e01-8708-336fd6971a01","ios":"levelo://app?vid=c4364e45-cabc-4e01-8708-336fd6971a01"},"vehicle_type_id":"4","last_reported":1752315054,"current_range_meters":12800,"station_id":"ce4bh2h2rcd13ifvqdh0","pricing_plan_id":"cebpf4jnsgd1na2vs0mg"},{"bike_id":"4edff1c0-26ae-4c39-9bc5-1e6f32f2d248","system_id":"levelo_inurba_marseille","lat":43.27968,"lon":5.38701,"is_reserved":false,"is_disabled":false,"rental_uris":{"android":"levelo://app?vid=4edff1c0-26ae-4c39-9bc5-1e6f32f2d248","ios":"levelo://app?vid=4edff1c0-26ae-4c39-9bc5-1e6f32f2d248"},"vehicle_type_id":"4","last_reported":1752315054,"current_range_meters":12800,"station_id":"ce4bhg12rcd13ifvqf80","pricing_plan_id":"cebpf4jnsgd1na2vs0mg"},{"bike_id":"61198919-e72c-4fce-bc96-126627987dc0","system_id":"levelo_inurba_marseille","lat":43.295769,"lon":5.378627,"is_reserved":false,"is_disabled":false,"rental_uris":{"android":"levelo://app?vid=61198919-e72c-4fce-bc96-126627987dc0","ios":"levelo://app?vid=61198919-e72c-4fce-bc96-126627987dc0"},"vehicle_type_id":"4","last_reported":1752315054,"current_range_meters":12800,"station_id":"","pricing_plan_id":"cebpf4jnsgd1na2vs0mg"},{"bike_id":"37b84a38-055a-4a6e-a56a-8ff3d0c1b2ec","system_id":"levelo_inurba_marseille","lat":43.211909,"lon":5.350721,"is_reserved":false,"is_disabled":false,"rental_uris":{"android":"levelo://app?vid=37b84a38-055a-4a6e-a56a-8ff3d0c1b2ec","ios":"levelo://app?vid=37b84a38-055a-4a6e-a56a-8ff3d0c1b2ec"},"vehicle_type_id":"4","last_reported":1752315054,"current_range_meters":12800,"station_id":"st_cvj6sg6p6f1abm77japg","pricing_plan_id":"cebpf4jnsgd1na2vs0mg"},{"bike_id":"452e8211-4f44-45d0-814a-3e9e25b8c44e","system_id":"levelo_inurba_marseille","lat":43.21194,"lon":5.35076,"is_reserved":false,"is_disabled":false,"rental_uris":{"android":"levelo://app?vid=452e8211-4f44-45d0-814a-3e9e25b8c44e","ios":"levelo://app?vid=452e8211-4f44-45d0-814a-3e9e25b8c44e"},"vehicle_type_id":"4","last_reported":1752315054,"current_range_meters":12800,"station_id":"st_cvj6sg6p6f1abm77japg","pricing_plan_id":"cebpf4jnsgd1na2vs0mg"},{"bike_id":"dbba3321-20c7-4989-a7b5-ea9ab2c4b3e8","system_id":"levelo_inurba_marseille","lat":43.261935,"lon":5.374477,"is_reserved":false,"is_disabled":false,"rental_uris":{"android":"levelo://app?vid=dbba3321-20c7-4989-a7b5-ea9ab2c4b3e8","ios":"levelo://app?vid=dbba3321-20c7-4989-a7b5-ea9ab2c4b3e8"},"vehicle_type_id":"4","last_reported":1752315054,"current_range_meters":12800,"station_id":"ce4bhgp2rcd13ifvqfc0","pricing_plan_id":"cebpf4jnsgd1na2vs0mg"},{"bike_id":"e86ba8c9-208d-482c-a826-4c100938472a","system_id":"levelo_inurba_marseille","lat":43.21188,"lon":5.35043,"is_reserved":false,"is_disabled":false,"rental_uris":{"android":"levelo://app?vid=e86ba8c9-208d-482c-a826-4c100938472a","ios":"levelo://app?vid=e86ba8c9-208d-482c-a826-4c100938472a"},"vehicle_type_id":"4","last_reported":1752315054,"current_range_meters":12800,"station_id":"st_cvj6sg6p6f1abm77japg","pricing_plan_id":"cebpf4jnsgd1na2vs0mg"},{"bike_id":"c453155a-5220-48fc-922b-600ca54f8ab5","system_id":"levelo_inurba_marseille","lat":43.286595,"lon":5.363506,"is_reserved":false,"is_disabled":true,"rental_uris":{"android":"levelo://app?vid=c453155a-5220-48fc-922b-600ca54f8ab5","ios":"levelo://app?vid=c453155a-5220-48fc-922b-600ca54f8ab5"},"vehicle_type_id":"4","last_reported":1752315054,"current_range_meters":12800,"station_id":"ce4bhah2rcd13ifvqej0","pricing_plan_id":"cebpf4jnsgd1na2vs0mg"},{"bike_id":"61d857a4-2fac-4114-a6a9-8a5e49a3ee89","system_id":"levelo_inurba_marseille","lat":43.26061,"lon":5.3939,"is_reserved":false,"is_disabled":false,"rental_uris":{"android":"levelo://app?vid=61d857a4-2fac-4114-a6a9-8a5e49a3ee89","ios":"levelo://app?vid=61d857a4-2fac-4114-a6a9-8a5e49a3ee89"},"vehicle_type_id":"4","last_reported":1752315054,"current_range_meters":13600,"station_id":"ce4bhh92rcd13ifvqfj0","pricing_plan_id":"cebpf4jnsgd1na2vs0mg"},{"bike_id":"be4818b8-9c2a-41c3-b83b-d30bee857cf2","system_id":"levelo_inurba_marseille","lat":43.29257,"lon":5.37616,"is_reserved":false,"is_disabled":false,"rental_uris":{"android":"levelo://app?vid=be4818b8-9c2a-41c3-b83b-d30bee857cf2","ios":"levelo://app?vid=be4818b8-9c2a-41c3-b83b-d30bee857cf2"},"vehicle_type_id":"4","last_reported":1752315054,"current_range_meters":14000,"station_id":"ce4bgi12rcd13ifvqb80","pricing_plan_id":"cebpf4jnsgd1na2vs0mg"},{"bike_id":"d64b31e2-2cb0-4191-8d3d-7a087e35fa79","system_id":"levelo_inurba_marseille","lat":43.21191,"lon":5.35071,"is_reserved":false,"is_disabled":false,"rental_uris":{"android":"levelo://app?vid=d64b31e2-2cb0-4191-8d3d-7a087e35fa79","ios":"levelo://app?vid=d64b31e2-2cb0-4191-8d3d-7a087e35fa79"},"vehicle_type_id":"4","last_reported":1752315054,"current_range_meters":14000,"station_id":"st_cvj6sg6p6f1abm77japg","pricing_plan_id":"cebpf4jnsgd1na2vs0mg"},{"bike_id":"a581eef9-f0fb-4e5d-8be0-84b96bfd2d41","system_id":"levelo_inurba_marseille","lat":43.29382,"lon":5.37872,"is_reserved":false,"is_disabled":false,"rental_uris":{"android":"levelo://app?vid=a581eef9-f0fb-4e5d-8be0-84b96bfd2d41","ios":"levelo://app?vid=a581eef9-f0fb-4e5d-8be0-84b96bfd2d41"},"vehicle_type_id":"4","last_reported":1752315054,"current_range_meters":14000,"station_id":"ce4bgjh2rcd13ifvqbf0","pricing_plan_id":"cebpf4jnsgd1na2vs0mg"},{"bike_id":"a100566b-d122-47f7-b059-1aae620ff9b3","system_id":"levelo_inurba_marseille","lat":43.240673,"lon":5.377583,"is_reserved":false,"is_disabled":false,"rental_uris":{"android":"levelo://app?vid=a100566b-d122-47f7-b059-1aae620ff9b3","ios":"levelo://app?vid=a100566b-d122-47f7-b059-1aae620ff9b3"},"vehicle_type_id":"4","last_reported":1752315054,"current_range_meters":14000,"station_id":"ce4bhnp2rcd13ifvqgvg","pricing_plan_id":"cebpf4jnsgd1na2vs0mg"},{"bike_id":"008260af-f96d-46f7-9f16-44b7a7c6d361","system_id":"levelo_inurba_marseille","lat":43.29293,"lon":5.36831,"is_reserved":false,"is_disabled":false,"rental_uris":{"android":"levelo://app?vid=008260af-f96d-46f7-9f16-44b7a7c6d361","ios":"levelo://app?vid=008260af-f96d-46f7-9f16-44b7a7c6d361"},"vehicle_type_id":"4","last_reported":1752315054,"current_range_meters":14400,"station_id":"ce4bhbp2rcd13ifvqesg","pricing_plan_id":"cebpf4jnsgd1na2vs0mg"},{"bike_id":"2ad3fabe-b0f7-4ff5-b7d0-22383a1a9f8e","system_id":"levelo_inurba_marseille","lat":43.29257,"lon":5.38439,"is_reserved":false,"is_disabled":false,"rental_uris":{"android":"levelo://app?vid=2ad3fabe-b0f7-4ff5-b7d0-22383a1a9f8e","ios":"levelo://app?vid=2ad3fabe-b0f7-4ff5-b7d0-22383a1a9f8e"},"vehicle_type_id":"4","last_reported":1752315054,"current_range_meters":14400,"station_id":"ce4bh692rcd13ifvqea0","pricing_plan_id":"cebpf4jnsgd1na2vs0mg"},{"bike_id":"1f7a3416-4369-4dcc-8e98-97a5e537c6de","system_id":"levelo_inurba_marseille","lat":43.2903,"lon":5.38637,"is_reserved":false,"is_disabled":false,"rental_uris":{"android":"levelo://app?vid=1f7a3416-4369-4dcc-8e98-97a5e537c6de","ios":"levelo://app?vid=1f7a3416-4369-4dcc-8e98-97a5e537c6de"},"vehicle_type_id":"4","last_reported":1752315054,"current_range_meters":14800,"station_id":"ce4bh4p2rcd13ifvqe0g","pricing_plan_id":"cebpf4jnsgd1na2vs0mg"},{"bike_id":"65eb05b8-449d-4dd2-96e0-e3aff941f577","system_id":"levelo_inurba_marseille","lat":43.26935,"lon":5.4026,"is_reserved":false,"is_disabled":false,"rental_uris":{"android":"levelo://app?vid=65eb05b8-449d-4dd2-96e0-e3aff941f577","ios":"levelo://app?vid=65eb05b8-449d-4dd2-96e0-e3aff941f577"},"vehicle_type_id":"4","last_reported":1752315054,"current_range_meters":14800,"station_id":"cjm6bp8fraef2m0cb0m0","pricing_plan_id":"cebpf4jnsgd1na2vs0mg"},{"bike_id":"5d313e3a-d797-48c4-ae72-44cfd488bb8b","system_id":"levelo_inurba_marseille","lat":43.29638,"lon":5.40588,"is_reserved":false,"is_disabled":false,"rental_uris":{"android":"levelo://app?vid=5d313e3a-d797-48c4-ae72-44cfd488bb8b","ios":"levelo://app?vid=5d313e3a-d797-48c4-ae72-44cfd488bb8b"},"vehicle_type_id":"4","last_reported":1752315054,"current_range_meters":14800,"station_id":"ce4bh0h2rcd13ifvqd60","pricing_plan_id":"cebpf4jnsgd1na2vs0mg"},{"bike_id":"f05b8bfe-6934-41c1-8e7b-6912b26dbed6","system_id":"levelo_inurba_marseille","lat":43.2659,"lon":5.39041,"is_reserved":false,"is_disabled":false,"rental_uris":{"android":"levelo://app?vid=f05b8bfe-6934-41c1-8e7b-6912b26dbed6","ios":"levelo://app?vid=f05b8bfe-6934-41c1-8e7b-6912b26dbed6"},"vehicle_type_id":"4","last_reported":1752315054,"current_range_meters":14800,"station_id":"ce4bhe12rcd13ifvqf30","pricing_plan_id":"cebpf4jnsgd1na2vs0mg"},{"bike_id":"ad3a92a9-aac6-4694-a2f3-20c935fef2b6","system_id":"levelo_inurba_marseille","lat":43.292986,"lon":5.374656,"is_reserved":false,"is_disabled":false,"rental_uris":{"android":"levelo://app?vid=ad3a92a9-aac6-4694-a2f3-20c935fef2b6","ios":"levelo://app?vid=ad3a92a9-aac6-4694-a2f3-20c935fef2b6"},"vehicle_type_id":"4","last_reported":1752315054,"current_range_meters":14800,"station_id":"","pricing_plan_id":"cebpf4jnsgd1na2vs0mg"},{"bike_id":"a105c0c6-6fb2-4348-a250-f82e4e3e3272","system_id":"levelo_inurba_marseille","lat":43.21192,"lon":5.35076,"is_reserved":false,"is_disabled":false,"rental_uris":{"android":"levelo://app?vid=a105c0c6-6fb2-4348-a250-f82e4e3e3272","ios":"levelo://app?vid=a105c0c6-6fb2-4348-a250-f82e4e3e3272"},"vehicle_type_id":"4","last_reported":1752315054,"current_range_meters":14800,"station_id":"st_cvj6sg6p6f1abm77japg","pricing_plan_id":"cebpf4jnsgd1na2vs0mg"},{"bike_id":"f062f3f8-6747-4d90-b0fe-3c9e94933ab7","system_id":"levelo_inurba_marseille","lat":43.27066,"lon":5.42286,"is_reserved":false,"is_disabled":false,"rental_uris":{"android":"levelo://app?vid=f062f3f8-6747-4d90-b0fe-3c9e94933ab7","ios":"levelo://app?vid=f062f3f8-6747-4d90-b0fe-3c9e94933ab7"},"vehicle_type_id":"4","last_reported":1752315054,"current_range_meters":14800,"station_id":"ce4bhk92rcd13ifvqgb0","pricing_plan_id":"cebpf4jnsgd1na2vs0mg"},{"bike_id":"cfee0657-6493-4e9d-b55a-affdef745be3","system_id":"levelo_inurba_marseille","lat":43.29823,"lon":5.37671,"is_reserved":false,"is_disabled":false,"rental_uris":{"android":"levelo://app?vid=cfee0657-6493-4e9d-b55a-affdef745be3","ios":"levelo://app?vid=cfee0657-6493-4e9d-b55a-affdef745be3"},"vehicle_type_id":"4","last_reported":1752315054,"current_range_meters":15200,"station_id":"","pricing_plan_id":"cebpf4jnsgd1na2vs0mg"},{"bike_id":"ad023729-3d33-44a6-99ca-a047715b7f88","system_id":"levelo_inurba_marseille","lat":43.21194,"lon":5.35092,"is_reserved":false,"is_disabled":false,"rental_uris":{"android":"levelo://app?vid=ad023729-3d33-44a6-99ca-a047715b7f88","ios":"levelo://app?vid=ad023729-3d33-44a6-99ca-a047715b7f88"},"vehicle_type_id":"4","last_reported":1752315054,"current_range_meters":15200,"station_id":"st_cvj6sg6p6f1abm77japg","pricing_plan_id":"cebpf4jnsgd1na2vs0mg"},{"bike_id":"f4406fda-49dc-47c6-a74e-f5c283100236","system_id":"levelo_inurba_marseille","lat":43.3033,"lon":5.40435,"is_reserved":false,"is_disabled":false,"rental_uris":{"android":"levelo://app?vid=f4406fda-49dc-47c6-a74e-f5c283100236","ios":"levelo://app?vid=f4406fda-49dc-47c6-a74e-f5c283100236"},"vehicle_type_id":"4","last_reported":1752315054,"current_range_meters":16000,"station_id":"ce4bh012rcd13ifvqd10","pricing_plan_id":"cebpf4jnsgd1na2vs0mg"},{"bike_id":"f20dc79a-7198-418a-9671-1d3f28b0b615","system_id":"levelo_inurba_marseille","lat":43.25123,"lon":5.40384,"is_reserved":false,"is_disabled":false,"rental_uris":{"android":"levelo://app?vid=f20dc79a-7198-418a-9671-1d3f28b0b615","ios":"levelo://app?vid=f20dc79a-7198-418a-9671-1d3f28b0b615"},"vehicle_type_id":"4","last_reported":1752315054,"current_range_meters":16000,"station_id":"ce4bhlh2rcd13ifvqgig","pricing_plan_id":"cebpf4jnsgd1na2vs0mg"},{"bike_id":"464f7d6d-a0e1-476d-a13f-46dec7b50e98","system_id":"levelo_inurba_marseille","lat":43.28706,"lon":5.38692,"is_reserved":false,"is_disabled":false,"rental_uris":{"android":"levelo://app?vid=464f7d6d-a0e1-476d-a13f-46dec7b50e98","ios":"levelo://app?vid=464f7d6d-a0e1-476d-a13f-46dec7b50e98"},"vehicle_type_id":"4","last_reported":1752315054,"current_range_meters":16000,"station_id":"","pricing_plan_id":"cebpf4jnsgd1na2vs0mg"},{"bike_id":"470d1e9d-8c05-40b8-a6b2-039f183b9f6a","system_id":"levelo_inurba_marseille","lat":43.23197,"lon":5.35573,"is_reserved":false,"is_disabled":true,"rental_uris":{"android":"levelo://app?vid=470d1e9d-8c05-40b8-a6b2-039f183b9f6a","ios":"levelo://app?vid=470d1e9d-8c05-40b8-a6b2-039f183b9f6a"},"vehicle_type_id":"4","last_reported":1752315054,"current_range_meters":16000,"station_id":"ce4bhu92rcd13ifvqi70","pricing_plan_id":"cebpf4jnsgd1na2vs0mg"},{"bike_id":"d39d79fe-b14f-4f92-b5d2-ee5d46871426","system_id":"levelo_inurba_marseille","lat":43.25006,"lon":5.38923,"is_reserved":false,"is_disabled":false,"rental_uris":{"android":"levelo://app?vid=d39d79fe-b14f-4f92-b5d2-ee5d46871426","ios":"levelo://app?vid=d39d79fe-b14f-4f92-b5d2-ee5d46871426"},"vehicle_type_id":"4","last_reported":1752315054,"current_range_meters":15200,"station_id":"ce4bhgp2rcd13ifvqfd0","pricing_plan_id":"cebpf4jnsgd1na2vs0mg"},{"bike_id":"32d055e0-9ce6-4d86-a2d6-1fcbda07ccf0","system_id":"levelo_inurba_marseille","lat":43.295936,"lon":5.380935,"is_reserved":false,"is_disabled":false,"rental_uris":{"android":"levelo://app?vid=32d055e0-9ce6-4d86-a2d6-1fcbda07ccf0","ios":"levelo://app?vid=32d055e0-9ce6-4d86-a2d6-1fcbda07ccf0"},"vehicle_type_id":"4","last_reported":1752315054,"current_range_meters":16000,"station_id":"ce4bgl12rcd13ifvqbo0","pricing_plan_id":"cebpf4jnsgd1na2vs0mg"},{"bike_id":"919e600e-ebda-4ca0-9126-38ed65a36143","system_id":"levelo_inurba_marseille","lat":43.21197,"lon":5.35078,"is_reserved":false,"is_disabled":false,"rental_uris":{"android":"levelo://app?vid=919e600e-ebda-4ca0-9126-38ed65a36143","ios":"levelo://app?vid=919e600e-ebda-4ca0-9126-38ed65a36143"},"vehicle_type_id":"4","last_reported":1752315054,"current_range_meters":16000,"station_id":"st_cvj6sg6p6f1abm77japg","pricing_plan_id":"cebpf4jnsgd1na2vs0mg"},{"bike_id":"54faa4d3-f8fa-45c3-9c4a-2aa1ed06630b","system_id":"levelo_inurba_marseille","lat":43.29607,"lon":5.38107,"is_reserved":false,"is_disabled":false,"rental_uris":{"android":"levelo://app?vid=54faa4d3-f8fa-45c3-9c4a-2aa1ed06630b","ios":"levelo://app?vid=54faa4d3-f8fa-45c3-9c4a-2aa1ed06630b"},"vehicle_type_id":"4","last_reported":1752315054,"current_range_meters":16000,"station_id":"ce4bgl12rcd13ifvqbo0","pricing_plan_id":"cebpf4jnsgd1na2vs0mg"},{"bike_id":"1e818f0e-7b95-4261-b5bf-852187a5c9fd","system_id":"levelo_inurba_marseille","lat":43.30281,"lon":5.37697,"is_reserved":false,"is_disabled":false,"rental_uris":{"android":"levelo://app?vid=1e818f0e-7b95-4261-b5bf-852187a5c9fd","ios":"levelo://app?vid=1e818f0e-7b95-4261-b5bf-852187a5c9fd"},"vehicle_type_id":"4","last_reported":1752315054,"current_range_meters":16400,"station_id":"ce4bguh2rcd13ifvqcj0","pricing_plan_id":"cebpf4jnsgd1na2vs0mg"},{"bike_id":"888bd7d8-4ec5-4282-97cb-63503f2485c0","system_id":"levelo_inurba_marseille","lat":43.30806,"lon":5.38142,"is_reserved":false,"is_disabled":false,"rental_uris":{"android":"levelo://app?vid=888bd7d8-4ec5-4282-97cb-63503f2485c0","ios":"levelo://app?vid=888bd7d8-4ec5-4282-97cb-63503f2485c0"},"vehicle_type_id":"4","last_reported":1752315054,"current_range_meters":16400,"station_id":"ce4bgt12rcd13ifvqce0","pricing_plan_id":"cebpf4jnsgd1na2vs0mg"},{"bike_id":"407b1e77-51dc-4983-95cf-04f962d77eac","system_id":"levelo_inurba_marseille","lat":43.27966,"lon":5.3869,"is_reserved":false,"is_disabled":false,"rental_uris":{"android":"levelo://app?vid=407b1e77-51dc-4983-95cf-04f962d77eac","ios":"levelo://app?vid=407b1e77-51dc-4983-95cf-04f962d77eac"},"vehicle_type_id":"4","last_reported":1752315054,"current_range_meters":16400,"station_id":"ce4bhg12rcd13ifvqf80","pricing_plan_id":"cebpf4jnsgd1na2vs0mg"},{"bike_id":"c75a4de8-cbf1-4b00-ae4b-47e1789c4b91","system_id":"levelo_inurba_marseille","lat":43.25493,"lon":5.37638,"is_reserved":false,"is_disabled":false,"rental_uris":{"android":"levelo://app?vid=c75a4de8-cbf1-4b00-ae4b-47e1789c4b91","ios":"levelo://app?vid=c75a4de8-cbf1-4b00-ae4b-47e1789c4b91"},"vehicle_type_id":"4","last_reported":1752315054,"current_range_meters":16400,"station_id":"ce4bhh12rcd13ifvqff0","pricing_plan_id":"cebpf4jnsgd1na2vs0mg"},{"bike_id":"93c09de0-2b96-4ddc-a9e4-3f313e1c4431","system_id":"levelo_inurba_marseille","lat":43.29714,"lon":5.36614,"is_reserved":false,"is_disabled":false,"rental_uris":{"android":"levelo://app?vid=93c09de0-2b96-4ddc-a9e4-3f313e1c4431","ios":"levelo://app?vid=93c09de0-2b96-4ddc-a9e4-3f313e1c4431"},"vehicle_type_id":"4","last_reported":1752315054,"current_range_meters":16400,"station_id":"ce4bgn12rcd13ifvqbt0","pricing_plan_id":"cebpf4jnsgd1na2vs0mg"},{"bike_id":"6e13bf0c-759a-4bd3-b912-2cee7fff5a21","system_id":"levelo_inurba_marseille","lat":43.30311,"lon":5.36894,"is_reserved":false,"is_disabled":false,"rental_uris":{"android":"levelo://app?vid=6e13bf0c-759a-4bd3-b912-2cee7fff5a21","ios":"levelo://app?vid=6e13bf0c-759a-4bd3-b912-2cee7fff5a21"},"vehicle_type_id":"4","last_reported":1752315054,"current_range_meters":16400,"station_id":"ce4bgqh2rcd13ifvqc5g","pricing_plan_id":"cebpf4jnsgd1na2vs0mg"},{"bike_id":"c6f7dabd-b092-4554-a710-07eb4af96a4c","system_id":"levelo_inurba_marseille","lat":43.211906,"lon":5.350691,"is_reserved":false,"is_disabled":false,"rental_uris":{"android":"levelo://app?vid=c6f7dabd-b092-4554-a710-07eb4af96a4c","ios":"levelo://app?vid=c6f7dabd-b092-4554-a710-07eb4af96a4c"},"vehicle_type_id":"4","last_reported":1752315054,"current_range_meters":16400,"station_id":"st_cvj6sg6p6f1abm77japg","pricing_plan_id":"cebpf4jnsgd1na2vs0mg"},{"bike_id":"737ead6f-e608-42f1-8a55-8949c954e8e3","system_id":"levelo_inurba_marseille","lat":43.21192,"lon":5.35073,"is_reserved":false,"is_disabled":false,"rental_uris":{"android":"levelo://app?vid=737ead6f-e608-42f1-8a55-8949c954e8e3","ios":"levelo://app?vid=737ead6f-e608-42f1-8a55-8949c954e8e3"},"vehicle_type_id":"4","last_reported":1752315054,"current_range_meters":16400,"station_id":"st_cvj6sg6p6f1abm77japg","pricing_plan_id":"cebpf4jnsgd1na2vs0mg"},{"bike_id":"607eff80-7879-4cd4-802a-27da59b17290","system_id":"levelo_inurba_marseille","lat":43.3091,"lon":5.39602,"is_reserved":false,"is_disabled":false,"rental_uris":{"android":"levelo://app?vid=607eff80-7879-4cd4-802a-27da59b17290","ios":"levelo://app?vid=607eff80-7879-4cd4-802a-27da59b17290"},"vehicle_type_id":"4","last_reported":1752315054,"current_range_meters":16800,"station_id":"ce4bh012rcd13ifvqcv0","pricing_plan_id":"cebpf4jnsgd1na2vs0mg"},{"bike_id":"96776fb0-71ae-4084-b5af-7fbce3f17df2","system_id":"levelo_inurba_marseille","lat":43.29172,"lon":5.37149,"is_reserved":false,"is_disabled":false,"rental_uris":{"android":"levelo://app?vid=96776fb0-71ae-4084-b5af-7fbce3f17df2","ios":"levelo://app?vid=96776fb0-71ae-4084-b5af-7fbce3f17df2"},"vehicle_type_id":"4","last_reported":1752315054,"current_range_meters":16800,"station_id":"ce4bha92rcd13ifvqeh0","pricing_plan_id":"cebpf4jnsgd1na2vs0mg"},{"bike_id":"53b2e3fb-77f4-44bd-9b1f-4c6e207a18dc","system_id":"levelo_inurba_marseille","lat":43.26506,"lon":5.3955,"is_reserved":false,"is_disabled":false,"rental_uris":{"android":"levelo://app?vid=53b2e3fb-77f4-44bd-9b1f-4c6e207a18dc","ios":"levelo://app?vid=53b2e3fb-77f4-44bd-9b1f-4c6e207a18dc"},"vehicle_type_id":"4","last_reported":1752315054,"current_range_meters":16800,"station_id":"ce4bhi12rcd13ifvqfq0","pricing_plan_id":"cebpf4jnsgd1na2vs0mg"},{"bike_id":"a862a812-a4e3-41db-bffe-dc440146afeb","system_id":"levelo_inurba_marseille","lat":43.27053,"lon":5.403,"is_reserved":false,"is_disabled":false,"rental_uris":{"android":"levelo://app?vid=a862a812-a4e3-41db-bffe-dc440146afeb","ios":"levelo://app?vid=a862a812-a4e3-41db-bffe-dc440146afeb"},"vehicle_type_id":"4","last_reported":1752315054,"current_range_meters":16800,"station_id":"ce4bhk92rcd13ifvqgc0","pricing_plan_id":"cebpf4jnsgd1na2vs0mg"},{"bike_id":"51890362-46b0-4ee7-9f02-afbf036d064e","system_id":"levelo_inurba_marseille","lat":43.212,"lon":5.35088,"is_reserved":false,"is_disabled":false,"rental_uris":{"android":"levelo://app?vid=51890362-46b0-4ee7-9f02-afbf036d064e","ios":"levelo://app?vid=51890362-46b0-4ee7-9f02-afbf036d064e"},"vehicle_type_id":"4","last_reported":1752315054,"current_range_meters":16800,"station_id":"st_cvj6sg6p6f1abm77japg","pricing_plan_id":"cebpf4jnsgd1na2vs0mg"},{"bike_id":"a258dc86-7c84-4445-ad0e-265b9f56cb91","system_id":"levelo_inurba_marseille","lat":43.29551,"lon":5.422894,"is_reserved":false,"is_disabled":false,"rental_uris":{"android":"levelo://app?vid=a258dc86-7c84-4445-ad0e-265b9f56cb91","ios":"levelo://app?vid=a258dc86-7c84-4445-ad0e-265b9f56cb91"},"vehicle_type_id":"4","last_reported":1752315054,"current_range_meters":16800,"station_id":"ce4bhph2rcd13ifvqhdg","pricing_plan_id":"cebpf4jnsgd1na2vs0mg"},{"bike_id":"8e96cc1c-7c1c-42f1-8e93-5f09751459d9","system_id":"levelo_inurba_marseille","lat":43.29297,"lon":5.37476,"is_reserved":false,"is_disabled":false,"rental_uris":{"android":"levelo://app?vid=8e96cc1c-7c1c-42f1-8e93-5f09751459d9","ios":"levelo://app?vid=8e96cc1c-7c1c-42f1-8e93-5f09751459d9"},"vehicle_type_id":"4","last_reported":1752315054,"current_range_meters":16800,"station_id":"ce4bgi12rcd13ifvqb70","pricing_plan_id":"cebpf4jnsgd1na2vs0mg"},{"bike_id":"a0137104-c9f4-434a-a5e3-80725cd5a2b4","system_id":"levelo_inurba_marseille","lat":43.21208,"lon":5.35147,"is_reserved":false,"is_disabled":false,"rental_uris":{"android":"levelo://app?vid=a0137104-c9f4-434a-a5e3-80725cd5a2b4","ios":"levelo://app?vid=a0137104-c9f4-434a-a5e3-80725cd5a2b4"},"vehicle_type_id":"4","last_reported":1752315054,"current_range_meters":16800,"station_id":"","pricing_plan_id":"cebpf4jnsgd1na2vs0mg"},{"bike_id":"2a66106d-d0c2-4fdb-a0d3-33bcad5edb0d","system_id":"levelo_inurba_marseille","lat":43.3211,"lon":5.36774,"is_reserved":false,"is_disabled":false,"rental_uris":{"android":"levelo://app?vid=2a66106d-d0c2-4fdb-a0d3-33bcad5edb0d","ios":"levelo://app?vid=2a66106d-d0c2-4fdb-a0d3-33bcad5edb0d"},"vehicle_type_id":"4","last_reported":1752315054,"current_range_meters":16800,"station_id":"ce4bhrh2rcd13ifvqhug","pricing_plan_id":"cebpf4jnsgd1na2vs0mg"},{"bike_id":"00bc0b3b-e317-4a17-a011-a3a9a29d816a","system_id":"levelo_inurba_marseille","lat":43.21201,"lon":5.35085,"is_reserved":false,"is_disabled":false,"rental_uris":{"android":"levelo://app?vid=00bc0b3b-e317-4a17-a011-a3a9a29d816a","ios":"levelo://app?vid=00bc0b3b-e317-4a17-a011-a3a9a29d816a"},"vehicle_type_id":"4","last_reported":1752315054,"current_range_meters":17200,"station_id":"st_cvj6sg6p6f1abm77japg","pricing_plan_id":"cebpf4jnsgd1na2vs0mg"},{"bike_id":"ee5338dd-18a1-4b48-a5b0-f8c72f7b1319","system_id":"levelo_inurba_marseille","lat":43.31804,"lon":5.36861,"is_reserved":false,"is_disabled":false,"rental_uris":{"android":"levelo://app?vid=ee5338dd-18a1-4b48-a5b0-f8c72f7b1319","ios":"levelo://app?vid=ee5338dd-18a1-4b48-a5b0-f8c72f7b1319"},"vehicle_type_id":"4","last_reported":1752315054,"current_range_meters":17200,"station_id":"","pricing_plan_id":"cebpf4jnsgd1na2vs0mg"},{"bike_id":"b9ef4702-89c4-44ae-835a-ce06e3cf439c","system_id":"levelo_inurba_marseille","lat":43.217494,"lon":5.345991,"is_reserved":false,"is_disabled":false,"rental_uris":{"android":"levelo://app?vid=b9ef4702-89c4-44ae-835a-ce06e3cf439c","ios":"levelo://app?vid=b9ef4702-89c4-44ae-835a-ce06e3cf439c"},"vehicle_type_id":"4","last_reported":1752315054,"current_range_meters":17200,"station_id":"st_cvj6r9ubvosntc0bgbag","pricing_plan_id":"cebpf4jnsgd1na2vs0mg"},{"bike_id":"79952e90-2ce3-41d3-8776-5e7196a27d57","system_id":"levelo_inurba_marseille","lat":43.2971,"lon":5.3661,"is_reserved":false,"is_disabled":false,"rental_uris":{"android":"levelo://app?vid=79952e90-2ce3-41d3-8776-5e7196a27d57","ios":"levelo://app?vid=79952e90-2ce3-41d3-8776-5e7196a27d57"},"vehicle_type_id":"4","last_reported":1752315054,"current_range_meters":17200,"station_id":"ce4bgn12rcd13ifvqbt0","pricing_plan_id":"cebpf4jnsgd1na2vs0mg"},{"bike_id":"13a0d282-fad6-4c2a-8105-5ae41bf4d5e7","system_id":"levelo_inurba_marseille","lat":43.26792,"lon":5.39409,"is_reserved":false,"is_disabled":false,"rental_uris":{"android":"levelo://app?vid=13a0d282-fad6-4c2a-8105-5ae41bf4d5e7","ios":"levelo://app?vid=13a0d282-fad6-4c2a-8105-5ae41bf4d5e7"},"vehicle_type_id":"4","last_reported":1752315054,"current_range_meters":17200,"station_id":"ce4bhh12rcd13ifvqfg0","pricing_plan_id":"cebpf4jnsgd1na2vs0mg"},{"bike_id":"06ceac69-3619-47b3-a3b2-d856a10a44f1","system_id":"levelo_inurba_marseille","lat":43.24393,"lon":5.37058,"is_reserved":false,"is_disabled":false,"rental_uris":{"android":"levelo://app?vid=06ceac69-3619-47b3-a3b2-d856a10a44f1","ios":"levelo://app?vid=06ceac69-3619-47b3-a3b2-d856a10a44f1"},"vehicle_type_id":"4","last_reported":1752315054,"current_range_meters":17200,"station_id":"ce4bhhh2rcd13ifvqfk0","pricing_plan_id":"cebpf4jnsgd1na2vs0mg"},{"bike_id":"38e70852-2f7a-4b34-a55f-7175aa6a06f9","system_id":"levelo_inurba_marseille","lat":43.27896,"lon":5.37992,"is_reserved":false,"is_disabled":false,"rental_uris":{"android":"levelo://app?vid=38e70852-2f7a-4b34-a55f-7175aa6a06f9","ios":"levelo://app?vid=38e70852-2f7a-4b34-a55f-7175aa6a06f9"},"vehicle_type_id":"4","last_reported":1752315054,"current_range_meters":17600,"station_id":"ce4bhf92rcd13ifvqf50","pricing_plan_id":"cebpf4jnsgd1na2vs0mg"},{"bike_id":"15c005ca-52e7-4b89-8afe-4bc56f68590a","system_id":"levelo_inurba_marseille","lat":43.265641,"lon":5.390097,"is_reserved":false,"is_disabled":false,"rental_uris":{"android":"levelo://app?vid=15c005ca-52e7-4b89-8afe-4bc56f68590a","ios":"levelo://app?vid=15c005ca-52e7-4b89-8afe-4bc56f68590a"},"vehicle_type_id":"4","last_reported":1752315054,"current_range_meters":17600,"station_id":"ce4bhe12rcd13ifvqf30","pricing_plan_id":"cebpf4jnsgd1na2vs0mg"},{"bike_id":"5654660c-2254-4b6a-8901-f14ecd459246","system_id":"levelo_inurba_marseille","lat":43.31122,"lon":5.377592,"is_reserved":false,"is_disabled":false,"rental_uris":{"android":"levelo://app?vid=5654660c-2254-4b6a-8901-f14ecd459246","ios":"levelo://app?vid=5654660c-2254-4b6a-8901-f14ecd459246"},"vehicle_type_id":"4","last_reported":1752315054,"current_range_meters":17600,"station_id":"ce4bgt92rcd13ifvqcg0","pricing_plan_id":"cebpf4jnsgd1na2vs0mg"},{"bike_id":"715646cc-87aa-466c-a34b-df843b8622d4","system_id":"levelo_inurba_marseille","lat":43.29567,"lon":5.37506,"is_reserved":false,"is_disabled":false,"rental_uris":{"android":"levelo://app?vid=715646cc-87aa-466c-a34b-df843b8622d4","ios":"levelo://app?vid=715646cc-87aa-466c-a34b-df843b8622d4"},"vehicle_type_id":"4","last_reported":1752315054,"current_range_meters":17600,"station_id":"ce4bgh92rcd13ifvqb50","pricing_plan_id":"cebpf4jnsgd1na2vs0mg"},{"bike_id":"8b37f03f-f226-4bbc-8648-b109da7ba145","system_id":"levelo_inurba_marseille","lat":43.30536,"lon":5.366999,"is_reserved":false,"is_disabled":false,"rental_uris":{"android":"levelo://app?vid=8b37f03f-f226-4bbc-8648-b109da7ba145","ios":"levelo://app?vid=8b37f03f-f226-4bbc-8648-b109da7ba145"},"vehicle_type_id":"4","last_reported":1752315054,"current_range_meters":17600,"station_id":"","pricing_plan_id":"cebpf4jnsgd1na2vs0mg"},{"bike_id":"f23760ff-ab61-4853-aa67-28aac93822c1","system_id":"levelo_inurba_marseille","lat":43.337444,"lon":5.374475,"is_reserved":false,"is_disabled":false,"rental_uris":{"android":"levelo://app?vid=f23760ff-ab61-4853-aa67-28aac93822c1","ios":"levelo://app?vid=f23760ff-ab61-4853-aa67-28aac93822c1"},"vehicle_type_id":"4","last_reported":1752315054,"current_range_meters":17600,"station_id":"","pricing_plan_id":"cebpf4jnsgd1na2vs0mg"},{"bike_id":"fc5ba0c6-d218-4884-bb08-6e580d7a314d","system_id":"levelo_inurba_marseille","lat":43.29683,"lon":5.3728,"is_reserved":false,"is_disabled":false,"rental_uris":{"android":"levelo://app?vid=fc5ba0c6-d218-4884-bb08-6e580d7a314d","ios":"levelo://app?vid=fc5ba0c6-d218-4884-bb08-6e580d7a314d"},"vehicle_type_id":"4","last_reported":1752315054,"current_range_meters":17600,"station_id":"ce4bgk12rcd13ifvqbj0","pricing_plan_id":"cebpf4jnsgd1na2vs0mg"},{"bike_id":"775fc0d3-6cde-492b-b703-b78970571f1a","system_id":"levelo_inurba_marseille","lat":43.32384,"lon":5.3678,"is_reserved":false,"is_disabled":false,"rental_uris":{"android":"levelo://app?vid=775fc0d3-6cde-492b-b703-b78970571f1a","ios":"levelo://app?vid=775fc0d3-6cde-492b-b703-b78970571f1a"},"vehicle_type_id":"4","last_reported":1752315054,"current_range_meters":18000,"station_id":"ce4bhsh2rcd13ifvqi2g","pricing_plan_id":"cebpf4jnsgd1na2vs0mg"},{"bike_id":"844b44b6-4e33-4917-878d-a3c647561239","system_id":"levelo_inurba_marseille","lat":43.30743,"lon":5.42502,"is_reserved":false,"is_disabled":false,"rental_uris":{"android":"levelo://app?vid=844b44b6-4e33-4917-878d-a3c647561239","ios":"levelo://app?vid=844b44b6-4e33-4917-878d-a3c647561239"},"vehicle_type_id":"4","last_reported":1752315054,"current_range_meters":18000,"station_id":"st_cvj6ca6bvosntc0bfgr0","pricing_plan_id":"cebpf4jnsgd1na2vs0mg"},{"bike_id":"4b8da722-ee9e-48a4-a5e5-3a8a10364708","system_id":"levelo_inurba_marseille","lat":43.312379,"lon":5.378066,"is_reserved":false,"is_disabled":false,"rental_uris":{"android":"levelo://app?vid=4b8da722-ee9e-48a4-a5e5-3a8a10364708","ios":"levelo://app?vid=4b8da722-ee9e-48a4-a5e5-3a8a10364708"},"vehicle_type_id":"4","last_reported":1752315054,"current_range_meters":18000,"station_id":"","pricing_plan_id":"cebpf4jnsgd1na2vs0mg"},{"bike_id":"57692aae-9841-41ad-bc01-254866eaf8b0","system_id":"levelo_inurba_marseille","lat":43.32346,"lon":5.40626,"is_reserved":false,"is_disabled":false,"rental_uris":{"android":"levelo://app?vid=57692aae-9841-41ad-bc01-254866eaf8b0","ios":"levelo://app?vid=57692aae-9841-41ad-bc01-254866eaf8b0"},"vehicle_type_id":"4","last_reported":1752315054,"current_range_meters":18000,"station_id":"ce4bhq92rcd13ifvqhjg","pricing_plan_id":"cebpf4jnsgd1na2vs0mg"},{"bike_id":"b59e51ca-d910-4846-ae9d-c6b0b3ae1ac3","system_id":"levelo_inurba_marseille","lat":43.283199,"lon":5.350359,"is_reserved":false,"is_disabled":false,"rental_uris":{"android":"levelo://app?vid=b59e51ca-d910-4846-ae9d-c6b0b3ae1ac3","ios":"levelo://app?vid=b59e51ca-d910-4846-ae9d-c6b0b3ae1ac3"},"vehicle_type_id":"4","last_reported":1752315054,"current_range_meters":18000,"station_id":"","pricing_plan_id":"cebpf4jnsgd1na2vs0mg"},{"bike_id":"d799b321-3a7d-4201-b46e-ffe2ad124f19","system_id":"levelo_inurba_marseille","lat":43.328811,"lon":5.383954,"is_reserved":false,"is_disabled":false,"rental_uris":{"android":"levelo://app?vid=d799b321-3a7d-4201-b46e-ffe2ad124f19","ios":"levelo://app?vid=d799b321-3a7d-4201-b46e-ffe2ad124f19"},"vehicle_type_id":"4","last_reported":1752315054,"current_range_meters":18000,"station_id":"","pricing_plan_id":"cebpf4jnsgd1na2vs0mg"},{"bike_id":"634611d7-6f4d-4c18-861c-ecd8c7d6fc41","system_id":"levelo_inurba_marseille","lat":43.29374,"lon":5.37847,"is_reserved":false,"is_disabled":false,"rental_uris":{"android":"levelo://app?vid=634611d7-6f4d-4c18-861c-ecd8c7d6fc41","ios":"levelo://app?vid=634611d7-6f4d-4c18-861c-ecd8c7d6fc41"},"vehicle_type_id":"4","last_reported":1752315054,"current_range_meters":18800,"station_id":"ce4bgjh2rcd13ifvqbf0","pricing_plan_id":"cebpf4jnsgd1na2vs0mg"},{"bike_id":"6d3f299a-d341-49bc-a1f9-7534528d9b67","system_id":"levelo_inurba_marseille","lat":43.2319,"lon":5.35565,"is_reserved":false,"is_disabled":false,"rental_uris":{"android":"levelo://app?vid=6d3f299a-d341-49bc-a1f9-7534528d9b67","ios":"levelo://app?vid=6d3f299a-d341-49bc-a1f9-7534528d9b67"},"vehicle_type_id":"4","last_reported":1752315054,"current_range_meters":18800,"station_id":"ce4bhu92rcd13ifvqi70","pricing_plan_id":"cebpf4jnsgd1na2vs0mg"},{"bike_id":"5af35bc3-c835-45dc-8089-0d78e9c38b02","system_id":"levelo_inurba_marseille","lat":43.27891,"lon":5.38024,"is_reserved":false,"is_disabled":false,"rental_uris":{"android":"levelo://app?vid=5af35bc3-c835-45dc-8089-0d78e9c38b02","ios":"levelo://app?vid=5af35bc3-c835-45dc-8089-0d78e9c38b02"},"vehicle_type_id":"4","last_reported":1752315054,"current_range_meters":18800,"station_id":"ce4bhf92rcd13ifvqf50","pricing_plan_id":"cebpf4jnsgd1na2vs0mg"},{"bike_id":"5a1aa169-e8de-4c42-8232-f9cf794c57f1","system_id":"levelo_inurba_marseille","lat":43.21192,"lon":5.35073,"is_reserved":false,"is_disabled":false,"rental_uris":{"android":"levelo://app?vid=5a1aa169-e8de-4c42-8232-f9cf794c57f1","ios":"levelo://app?vid=5a1aa169-e8de-4c42-8232-f9cf794c57f1"},"vehicle_type_id":"4","last_reported":1752315054,"current_range_meters":18800,"station_id":"st_cvj6sg6p6f1abm77japg","pricing_plan_id":"cebpf4jnsgd1na2vs0mg"},{"bike_id":"e817dbcf-1eb6-4edb-9c23-a648f327672e","system_id":"levelo_inurba_marseille","lat":43.30331,"lon":5.40436,"is_reserved":false,"is_disabled":false,"rental_uris":{"android":"levelo://app?vid=e817dbcf-1eb6-4edb-9c23-a648f327672e","ios":"levelo://app?vid=e817dbcf-1eb6-4edb-9c23-a648f327672e"},"vehicle_type_id":"4","last_reported":1752315054,"current_range_meters":18800,"station_id":"ce4bh012rcd13ifvqd10","pricing_plan_id":"cebpf4jnsgd1na2vs0mg"},{"bike_id":"9ebca4be-7c13-46b2-85ed-fd57a4cd9c32","system_id":"levelo_inurba_marseille","lat":43.3088,"lon":5.39647,"is_reserved":false,"is_disabled":false,"rental_uris":{"android":"levelo://app?vid=9ebca4be-7c13-46b2-85ed-fd57a4cd9c32","ios":"levelo://app?vid=9ebca4be-7c13-46b2-85ed-fd57a4cd9c32"},"vehicle_type_id":"4","last_reported":1752315054,"current_range_meters":18800,"station_id":"ce4bh012rcd13ifvqcv0","pricing_plan_id":"cebpf4jnsgd1na2vs0mg"},{"bike_id":"814a71db-9777-4777-aa0f-2a480c22a41e","system_id":"levelo_inurba_marseille","lat":43.296292,"lon":5.37736,"is_reserved":false,"is_disabled":false,"rental_uris":{"android":"levelo://app?vid=814a71db-9777-4777-aa0f-2a480c22a41e","ios":"levelo://app?vid=814a71db-9777-4777-aa0f-2a480c22a41e"},"vehicle_type_id":"4","last_reported":1752315054,"current_range_meters":19200,"station_id":"ce4bgi92rcd13ifvqb90","pricing_plan_id":"cebpf4jnsgd1na2vs0mg"},{"bike_id":"14b914a7-ac81-4524-a358-77b861ff3535","system_id":"levelo_inurba_marseille","lat":43.276191,"lon":5.361014,"is_reserved":false,"is_disabled":false,"rental_uris":{"android":"levelo://app?vid=14b914a7-ac81-4524-a358-77b861ff3535","ios":"levelo://app?vid=14b914a7-ac81-4524-a358-77b861ff3535"},"vehicle_type_id":"4","last_reported":1752315054,"current_range_meters":19200,"station_id":"ce4bgj92rcd13ifvqbe0","pricing_plan_id":"cebpf4jnsgd1na2vs0mg"},{"bike_id":"c1e31621-0aed-4b5e-af3d-40677b8cf3e0","system_id":"levelo_inurba_marseille","lat":43.29324,"lon":5.37213,"is_reserved":false,"is_disabled":false,"rental_uris":{"android":"levelo://app?vid=c1e31621-0aed-4b5e-af3d-40677b8cf3e0","ios":"levelo://app?vid=c1e31621-0aed-4b5e-af3d-40677b8cf3e0"},"vehicle_type_id":"4","last_reported":1752315054,"current_range_meters":19200,"station_id":"ce4bgh92rcd13ifvqb40","pricing_plan_id":"cebpf4jnsgd1na2vs0mg"},{"bike_id":"b8eb3130-c203-4842-b5ea-03fa9e487ff4","system_id":"levelo_inurba_marseille","lat":43.24163,"lon":5.36393,"is_reserved":false,"is_disabled":false,"rental_uris":{"android":"levelo://app?vid=b8eb3130-c203-4842-b5ea-03fa9e487ff4","ios":"levelo://app?vid=b8eb3130-c203-4842-b5ea-03fa9e487ff4"},"vehicle_type_id":"4","last_reported":1752315054,"current_range_meters":19200,"station_id":"cpo36qri1sfpv3e86is0","pricing_plan_id":"cebpf4jnsgd1na2vs0mg"},{"bike_id":"44759764-0564-4755-b2e3-ebe447668688","system_id":"levelo_inurba_marseille","lat":43.28416,"lon":5.34986,"is_reserved":false,"is_disabled":false,"rental_uris":{"android":"levelo://app?vid=44759764-0564-4755-b2e3-ebe447668688","ios":"levelo://app?vid=44759764-0564-4755-b2e3-ebe447668688"},"vehicle_type_id":"4","last_reported":1752315054,"current_range_meters":19200,"station_id":"ce4bhbh2rcd13ifvqepg","pricing_plan_id":"cebpf4jnsgd1na2vs0mg"},{"bike_id":"f1b2b101-57e1-48d9-bb5f-6d4b4f1a8fc9","system_id":"levelo_inurba_marseille","lat":43.291,"lon":5.38135,"is_reserved":false,"is_disabled":false,"rental_uris":{"android":"levelo://app?vid=f1b2b101-57e1-48d9-bb5f-6d4b4f1a8fc9","ios":"levelo://app?vid=f1b2b101-57e1-48d9-bb5f-6d4b4f1a8fc9"},"vehicle_type_id":"4","last_reported":1752315054,"current_range_meters":19600,"station_id":"ce4bh512rcd13ifvqe2g","pricing_plan_id":"cebpf4jnsgd1na2vs0mg"},{"bike_id":"81a7968c-76d4-40a6-9015-2ce2ddcae4c6","system_id":"levelo_inurba_marseille","lat":43.28425,"lon":5.39242,"is_reserved":false,"is_disabled":false,"rental_uris":{"android":"levelo://app?vid=81a7968c-76d4-40a6-9015-2ce2ddcae4c6","ios":"levelo://app?vid=81a7968c-76d4-40a6-9015-2ce2ddcae4c6"},"vehicle_type_id":"4","last_reported":1752315054,"current_range_meters":19600,"station_id":"ce4bhoh2rcd13ifvqh5g","pricing_plan_id":"cebpf4jnsgd1na2vs0mg"},{"bike_id":"ece5e006-0a29-4a34-88d5-2dde675964aa","system_id":"levelo_inurba_marseille","lat":43.276155,"lon":5.361037,"is_reserved":false,"is_disabled":false,"rental_uris":{"android":"levelo://app?vid=ece5e006-0a29-4a34-88d5-2dde675964aa","ios":"levelo://app?vid=ece5e006-0a29-4a34-88d5-2dde675964aa"},"vehicle_type_id":"4","last_reported":1752315054,"current_range_meters":19600,"station_id":"ce4bgj92rcd13ifvqbe0","pricing_plan_id":"cebpf4jnsgd1na2vs0mg"},{"bike_id":"fe9d49e1-a07a-4343-a1f5-cbcd31489875","system_id":"levelo_inurba_marseille","lat":43.25137,"lon":5.40345,"is_reserved":false,"is_disabled":false,"rental_uris":{"android":"levelo://app?vid=fe9d49e1-a07a-4343-a1f5-cbcd31489875","ios":"levelo://app?vid=fe9d49e1-a07a-4343-a1f5-cbcd31489875"},"vehicle_type_id":"4","last_reported":1752315054,"current_range_meters":19200,"station_id":"ce4bhlh2rcd13ifvqgig","pricing_plan_id":"cebpf4jnsgd1na2vs0mg"},{"bike_id":"f9924005-c8ac-4086-8e25-9a21391f65ea","system_id":"levelo_inurba_marseille","lat":43.21191,"lon":5.350745,"is_reserved":false,"is_disabled":false,"rental_uris":{"android":"levelo://app?vid=f9924005-c8ac-4086-8e25-9a21391f65ea","ios":"levelo://app?vid=f9924005-c8ac-4086-8e25-9a21391f65ea"},"vehicle_type_id":"4","last_reported":1752315054,"current_range_meters":19600,"station_id":"st_cvj6sg6p6f1abm77japg","pricing_plan_id":"cebpf4jnsgd1na2vs0mg"},{"bike_id":"2afd10ce-5f23-4122-9c7a-a3416be941b2","system_id":"levelo_inurba_marseille","lat":43.260276,"lon":5.375526,"is_reserved":false,"is_disabled":true,"rental_uris":{"android":"levelo://app?vid=2afd10ce-5f23-4122-9c7a-a3416be941b2","ios":"levelo://app?vid=2afd10ce-5f23-4122-9c7a-a3416be941b2"},"vehicle_type_id":"4","last_reported":1752315054,"current_range_meters":19600,"station_id":"ce4bhgh2rcd13ifvqfa0","pricing_plan_id":"cebpf4jnsgd1na2vs0mg"},{"bike_id":"43dea3a0-ca69-4d6e-bd14-c6197fb9b018","system_id":"levelo_inurba_marseille","lat":43.297028,"lon":5.377051,"is_reserved":false,"is_disabled":false,"rental_uris":{"android":"levelo://app?vid=43dea3a0-ca69-4d6e-bd14-c6197fb9b018","ios":"levelo://app?vid=43dea3a0-ca69-4d6e-bd14-c6197fb9b018"},"vehicle_type_id":"4","last_reported":1752315054,"current_range_meters":19600,"station_id":"ce4bgkh2rcd13ifvqbl0","pricing_plan_id":"cebpf4jnsgd1na2vs0mg"},{"bike_id":"71ffafe8-ba4f-4329-9795-1b18b71c34dd","system_id":"levelo_inurba_marseille","lat":43.297779,"lon":5.371016,"is_reserved":false,"is_disabled":false,"rental_uris":{"android":"levelo://app?vid=71ffafe8-ba4f-4329-9795-1b18b71c34dd","ios":"levelo://app?vid=71ffafe8-ba4f-4329-9795-1b18b71c34dd"},"vehicle_type_id":"4","last_reported":1752315054,"current_range_meters":20000,"station_id":"ce4bgop2rcd13ifvqc1g","pricing_plan_id":"cebpf4jnsgd1na2vs0mg"},{"bike_id":"37ce51b7-b93a-4eff-aaa5-c932a80b2f3d","system_id":"levelo_inurba_marseille","lat":43.2838,"lon":5.38631,"is_reserved":false,"is_disabled":false,"rental_uris":{"android":"levelo://app?vid=37ce51b7-b93a-4eff-aaa5-c932a80b2f3d","ios":"levelo://app?vid=37ce51b7-b93a-4eff-aaa5-c932a80b2f3d"},"vehicle_type_id":"4","last_reported":1752315054,"current_range_meters":20000,"station_id":"ce4bh492rcd13ifvqdvg","pricing_plan_id":"cebpf4jnsgd1na2vs0mg"},{"bike_id":"2789363d-6c32-4f54-a6f0-e032059a9c8e","system_id":"levelo_inurba_marseille","lat":43.24389,"lon":5.37057,"is_reserved":false,"is_disabled":false,"rental_uris":{"android":"levelo://app?vid=2789363d-6c32-4f54-a6f0-e032059a9c8e","ios":"levelo://app?vid=2789363d-6c32-4f54-a6f0-e032059a9c8e"},"vehicle_type_id":"4","last_reported":1752315054,"current_range_meters":20000,"station_id":"ce4bhhh2rcd13ifvqfk0","pricing_plan_id":"cebpf4jnsgd1na2vs0mg"},{"bike_id":"c6a8feb4-6823-4a2b-9599-dbfcc793a999","system_id":"levelo_inurba_marseille","lat":43.29263,"lon":5.37612,"is_reserved":false,"is_disabled":false,"rental_uris":{"android":"levelo://app?vid=c6a8feb4-6823-4a2b-9599-dbfcc793a999","ios":"levelo://app?vid=c6a8feb4-6823-4a2b-9599-dbfcc793a999"},"vehicle_type_id":"4","last_reported":1752315054,"current_range_meters":20000,"station_id":"ce4bgi12rcd13ifvqb80","pricing_plan_id":"cebpf4jnsgd1na2vs0mg"},{"bike_id":"2d5ece50-7b5e-4b8c-b259-cb04f9b7d133","system_id":"levelo_inurba_marseille","lat":43.313668,"lon":5.384929,"is_reserved":false,"is_disabled":false,"rental_uris":{"android":"levelo://app?vid=2d5ece50-7b5e-4b8c-b259-cb04f9b7d133","ios":"levelo://app?vid=2d5ece50-7b5e-4b8c-b259-cb04f9b7d133"},"vehicle_type_id":"4","last_reported":1752315054,"current_range_meters":20000,"station_id":"ce4bgt92rcd13ifvqcf0","pricing_plan_id":"cebpf4jnsgd1na2vs0mg"},{"bike_id":"fd6c4217-5929-42da-9fd9-3bbad6bf9407","system_id":"levelo_inurba_marseille","lat":43.29622,"lon":5.37712,"is_reserved":false,"is_disabled":false,"rental_uris":{"android":"levelo://app?vid=fd6c4217-5929-42da-9fd9-3bbad6bf9407","ios":"levelo://app?vid=fd6c4217-5929-42da-9fd9-3bbad6bf9407"},"vehicle_type_id":"4","last_reported":1752315054,"current_range_meters":19600,"station_id":"ce4bgi92rcd13ifvqb90","pricing_plan_id":"cebpf4jnsgd1na2vs0mg"},{"bike_id":"439af176-7c00-4f93-bc86-4dae25978e42","system_id":"levelo_inurba_marseille","lat":43.25501,"lon":5.37646,"is_reserved":false,"is_disabled":false,"rental_uris":{"android":"levelo://app?vid=439af176-7c00-4f93-bc86-4dae25978e42","ios":"levelo://app?vid=439af176-7c00-4f93-bc86-4dae25978e42"},"vehicle_type_id":"4","last_reported":1752315054,"current_range_meters":19600,"station_id":"ce4bhh12rcd13ifvqff0","pricing_plan_id":"cebpf4jnsgd1na2vs0mg"},{"bike_id":"4571f3bb-f34a-458a-96bd-70ee80c5f4f6","system_id":"levelo_inurba_marseille","lat":43.24171,"lon":5.36397,"is_reserved":false,"is_disabled":false,"rental_uris":{"android":"levelo://app?vid=4571f3bb-f34a-458a-96bd-70ee80c5f4f6","ios":"levelo://app?vid=4571f3bb-f34a-458a-96bd-70ee80c5f4f6"},"vehicle_type_id":"4","last_reported":1752315054,"current_range_meters":20400,"station_id":"cpo36qri1sfpv3e86is0","pricing_plan_id":"cebpf4jnsgd1na2vs0mg"},{"bike_id":"9b40dc73-509b-4d2f-8a27-44696719b175","system_id":"levelo_inurba_marseille","lat":43.27066,"lon":5.42291,"is_reserved":false,"is_disabled":false,"rental_uris":{"android":"levelo://app?vid=9b40dc73-509b-4d2f-8a27-44696719b175","ios":"levelo://app?vid=9b40dc73-509b-4d2f-8a27-44696719b175"},"vehicle_type_id":"4","last_reported":1752315054,"current_range_meters":20400,"station_id":"ce4bhk92rcd13ifvqgb0","pricing_plan_id":"cebpf4jnsgd1na2vs0mg"},{"bike_id":"5bf35d39-7e46-4c2f-a56c-a5082f6aba7d","system_id":"levelo_inurba_marseille","lat":43.29592,"lon":5.36744,"is_reserved":false,"is_disabled":false,"rental_uris":{"android":"levelo://app?vid=5bf35d39-7e46-4c2f-a56c-a5082f6aba7d","ios":"levelo://app?vid=5bf35d39-7e46-4c2f-a56c-a5082f6aba7d"},"vehicle_type_id":"4","last_reported":1752315054,"current_range_meters":20400,"station_id":"ce4bgph2rcd13ifvqc2g","pricing_plan_id":"cebpf4jnsgd1na2vs0mg"},{"bike_id":"45be3528-fd16-498e-8434-e30e29d5ac2e","system_id":"levelo_inurba_marseille","lat":43.30399,"lon":5.39782,"is_reserved":false,"is_disabled":false,"rental_uris":{"android":"levelo://app?vid=45be3528-fd16-498e-8434-e30e29d5ac2e","ios":"levelo://app?vid=45be3528-fd16-498e-8434-e30e29d5ac2e"},"vehicle_type_id":"4","last_reported":1752315054,"current_range_meters":20400,"station_id":"ce4bh092rcd13ifvqd20","pricing_plan_id":"cebpf4jnsgd1na2vs0mg"},{"bike_id":"7f8239f6-49ce-42e0-a2e5-983000e48522","system_id":"levelo_inurba_marseille","lat":43.25112,"lon":5.40328,"is_reserved":false,"is_disabled":false,"rental_uris":{"android":"levelo://app?vid=7f8239f6-49ce-42e0-a2e5-983000e48522","ios":"levelo://app?vid=7f8239f6-49ce-42e0-a2e5-983000e48522"},"vehicle_type_id":"4","last_reported":1752315054,"current_range_meters":20400,"station_id":"ce4bhlh2rcd13ifvqgig","pricing_plan_id":"cebpf4jnsgd1na2vs0mg"},{"bike_id":"5bd66fd2-a579-49f0-82c1-03d4944456a3","system_id":"levelo_inurba_marseille","lat":43.29712,"lon":5.37692,"is_reserved":false,"is_disabled":false,"rental_uris":{"android":"levelo://app?vid=5bd66fd2-a579-49f0-82c1-03d4944456a3","ios":"levelo://app?vid=5bd66fd2-a579-49f0-82c1-03d4944456a3"},"vehicle_type_id":"4","last_reported":1752315054,"current_range_meters":20400,"station_id":"ce4bgkh2rcd13ifvqbl0","pricing_plan_id":"cebpf4jnsgd1na2vs0mg"},{"bike_id":"2fc949fc-c84a-484a-bce0-e70ee0d317c6","system_id":"levelo_inurba_marseille","lat":43.29533,"lon":5.38537,"is_reserved":false,"is_disabled":false,"rental_uris":{"android":"levelo://app?vid=2fc949fc-c84a-484a-bce0-e70ee0d317c6","ios":"levelo://app?vid=2fc949fc-c84a-484a-bce0-e70ee0d317c6"},"vehicle_type_id":"4","last_reported":1752315054,"current_range_meters":20400,"station_id":"ce4bgih2rcd13ifvqba0","pricing_plan_id":"cebpf4jnsgd1na2vs0mg"},{"bike_id":"53e0c065-737d-4c67-87c2-af132c031025","system_id":"levelo_inurba_marseille","lat":43.32045,"lon":5.41548,"is_reserved":false,"is_disabled":false,"rental_uris":{"android":"levelo://app?vid=53e0c065-737d-4c67-87c2-af132c031025","ios":"levelo://app?vid=53e0c065-737d-4c67-87c2-af132c031025"},"vehicle_type_id":"4","last_reported":1752315054,"current_range_meters":20400,"station_id":"ce4bhq92rcd13ifvqhkg","pricing_plan_id":"cebpf4jnsgd1na2vs0mg"},{"bike_id":"02c71304-9c4f-4ebf-b265-2eb94afb5a95","system_id":"levelo_inurba_marseille","lat":43.30932,"lon":5.36832,"is_reserved":false,"is_disabled":false,"rental_uris":{"android":"levelo://app?vid=02c71304-9c4f-4ebf-b265-2eb94afb5a95","ios":"levelo://app?vid=02c71304-9c4f-4ebf-b265-2eb94afb5a95"},"vehicle_type_id":"4","last_reported":1752315054,"current_range_meters":20800,"station_id":"","pricing_plan_id":"cebpf4jnsgd1na2vs0mg"},{"bike_id":"2c8ec7d9-1fa3-4e87-8f89-beb6f1189f23","system_id":"levelo_inurba_marseille","lat":43.30538,"lon":5.36525,"is_reserved":false,"is_disabled":false,"rental_uris":{"android":"levelo://app?vid=2c8ec7d9-1fa3-4e87-8f89-beb6f1189f23","ios":"levelo://app?vid=2c8ec7d9-1fa3-4e87-8f89-beb6f1189f23"},"vehicle_type_id":"4","last_reported":1752315054,"current_range_meters":20800,"station_id":"ce4bgs12rcd13ifvqcag","pricing_plan_id":"cebpf4jnsgd1na2vs0mg"},{"bike_id":"663d02f3-ab95-44c6-bd5d-a510195f89e7","system_id":"levelo_inurba_marseille","lat":43.323355,"lon":5.406175,"is_reserved":false,"is_disabled":false,"rental_uris":{"android":"levelo://app?vid=663d02f3-ab95-44c6-bd5d-a510195f89e7","ios":"levelo://app?vid=663d02f3-ab95-44c6-bd5d-a510195f89e7"},"vehicle_type_id":"4","last_reported":1752315054,"current_range_meters":20800,"station_id":"ce4bhq92rcd13ifvqhjg","pricing_plan_id":"cebpf4jnsgd1na2vs0mg"},{"bike_id":"43373108-05f4-48f2-b157-8bc92bcac449","system_id":"levelo_inurba_marseille","lat":43.29179,"lon":5.35799,"is_reserved":false,"is_disabled":false,"rental_uris":{"android":"levelo://app?vid=43373108-05f4-48f2-b157-8bc92bcac449","ios":"levelo://app?vid=43373108-05f4-48f2-b157-8bc92bcac449"},"vehicle_type_id":"4","last_reported":1752315054,"current_range_meters":21600,"station_id":"ce4bhb12rcd13ifvqel0","pricing_plan_id":"cebpf4jnsgd1na2vs0mg"},{"bike_id":"ae6822eb-8288-4168-b872-48006110acb6","system_id":"levelo_inurba_marseille","lat":43.30287,"lon":5.37716,"is_reserved":false,"is_disabled":false,"rental_uris":{"android":"levelo://app?vid=ae6822eb-8288-4168-b872-48006110acb6","ios":"levelo://app?vid=ae6822eb-8288-4168-b872-48006110acb6"},"vehicle_type_id":"4","last_reported":1752315054,"current_range_meters":21600,"station_id":"ce4bguh2rcd13ifvqcj0","pricing_plan_id":"cebpf4jnsgd1na2vs0mg"},{"bike_id":"45eec8c0-514e-4d41-a378-5bdd1f434c05","system_id":"levelo_inurba_marseille","lat":43.30451,"lon":5.39752,"is_reserved":false,"is_disabled":false,"rental_uris":{"android":"levelo://app?vid=45eec8c0-514e-4d41-a378-5bdd1f434c05","ios":"levelo://app?vid=45eec8c0-514e-4d41-a378-5bdd1f434c05"},"vehicle_type_id":"4","last_reported":1752315054,"current_range_meters":20800,"station_id":"ce4bh092rcd13ifvqd20","pricing_plan_id":"cebpf4jnsgd1na2vs0mg"},{"bike_id":"80706ed8-34fd-4666-9e3e-8aacbb0a19ea","system_id":"levelo_inurba_marseille","lat":43.267966,"lon":5.402679,"is_reserved":false,"is_disabled":true,"rental_uris":{"android":"levelo://app?vid=80706ed8-34fd-4666-9e3e-8aacbb0a19ea","ios":"levelo://app?vid=80706ed8-34fd-4666-9e3e-8aacbb0a19ea"},"vehicle_type_id":"4","last_reported":1752315054,"current_range_meters":21600,"station_id":"ce501612rcd8frsf0b60","pricing_plan_id":"cebpf4jnsgd1na2vs0mg"},{"bike_id":"50ca8697-270d-499d-9ee5-ee317779974d","system_id":"levelo_inurba_marseille","lat":43.23181,"lon":5.39986,"is_reserved":false,"is_disabled":false,"rental_uris":{"android":"levelo://app?vid=50ca8697-270d-499d-9ee5-ee317779974d","ios":"levelo://app?vid=50ca8697-270d-499d-9ee5-ee317779974d"},"vehicle_type_id":"4","last_reported":1752315054,"current_range_meters":22000,"station_id":"ce4bhn12rcd13ifvqgqg","pricing_plan_id":"cebpf4jnsgd1na2vs0mg"},{"bike_id":"e9ccc84d-c8bc-4b3f-a2db-b8f92671d8a9","system_id":"levelo_inurba_marseille","lat":43.29879,"lon":5.38912,"is_reserved":false,"is_disabled":false,"rental_uris":{"android":"levelo://app?vid=e9ccc84d-c8bc-4b3f-a2db-b8f92671d8a9","ios":"levelo://app?vid=e9ccc84d-c8bc-4b3f-a2db-b8f92671d8a9"},"vehicle_type_id":"4","last_reported":1752315054,"current_range_meters":22000,"station_id":"ce4bh392rcd13ifvqdl0","pricing_plan_id":"cebpf4jnsgd1na2vs0mg"},{"bike_id":"8e748950-4bf8-44f1-bfae-23e4c2add214","system_id":"levelo_inurba_marseille","lat":43.28726,"lon":5.36091,"is_reserved":false,"is_disabled":false,"rental_uris":{"android":"levelo://app?vid=8e748950-4bf8-44f1-bfae-23e4c2add214","ios":"levelo://app?vid=8e748950-4bf8-44f1-bfae-23e4c2add214"},"vehicle_type_id":"4","last_reported":1752315054,"current_range_meters":21600,"station_id":"cki0cbj6b192h4jlfktg","pricing_plan_id":"cebpf4jnsgd1na2vs0mg"},{"bike_id":"f5a47db5-6fb2-46bd-a2de-efa4ad13bf60","system_id":"levelo_inurba_marseille","lat":43.21185,"lon":5.35113,"is_reserved":false,"is_disabled":false,"rental_uris":{"android":"levelo://app?vid=f5a47db5-6fb2-46bd-a2de-efa4ad13bf60","ios":"levelo://app?vid=f5a47db5-6fb2-46bd-a2de-efa4ad13bf60"},"vehicle_type_id":"4","last_reported":1752315054,"current_range_meters":22000,"station_id":"st_cvj6sg6p6f1abm77japg","pricing_plan_id":"cebpf4jnsgd1na2vs0mg"},{"bike_id":"579c9257-e9d2-4fed-8af3-001a27548604","system_id":"levelo_inurba_marseille","lat":43.217501,"lon":5.346006,"is_reserved":false,"is_disabled":false,"rental_uris":{"android":"levelo://app?vid=579c9257-e9d2-4fed-8af3-001a27548604","ios":"levelo://app?vid=579c9257-e9d2-4fed-8af3-001a27548604"},"vehicle_type_id":"4","last_reported":1752315054,"current_range_meters":22000,"station_id":"st_cvj6r9ubvosntc0bgbag","pricing_plan_id":"cebpf4jnsgd1na2vs0mg"},{"bike_id":"58375fde-ca97-4dab-be52-59caf98323d3","system_id":"levelo_inurba_marseille","lat":43.26551,"lon":5.37289,"is_reserved":false,"is_disabled":true,"rental_uris":{"android":"levelo://app?vid=58375fde-ca97-4dab-be52-59caf98323d3","ios":"levelo://app?vid=58375fde-ca97-4dab-be52-59caf98323d3"},"vehicle_type_id":"4","last_reported":1752315054,"current_range_meters":22000,"station_id":"ce4bhg12rcd13ifvqf70","pricing_plan_id":"cebpf4jnsgd1na2vs0mg"},{"bike_id":"65f1562e-f4a5-4f86-97d4-89b561b4a540","system_id":"levelo_inurba_marseille","lat":43.28038,"lon":5.36938,"is_reserved":false,"is_disabled":false,"rental_uris":{"android":"levelo://app?vid=65f1562e-f4a5-4f86-97d4-89b561b4a540","ios":"levelo://app?vid=65f1562e-f4a5-4f86-97d4-89b561b4a540"},"vehicle_type_id":"4","last_reported":1752315054,"current_range_meters":22000,"station_id":"ce4bha12rcd13ifvqef0","pricing_plan_id":"cebpf4jnsgd1na2vs0mg"},{"bike_id":"37e04037-4751-45cc-9e56-db1728107dad","system_id":"levelo_inurba_marseille","lat":43.31114,"lon":5.37776,"is_reserved":false,"is_disabled":false,"rental_uris":{"android":"levelo://app?vid=37e04037-4751-45cc-9e56-db1728107dad","ios":"levelo://app?vid=37e04037-4751-45cc-9e56-db1728107dad"},"vehicle_type_id":"4","last_reported":1752315054,"current_range_meters":22000,"station_id":"ce4bgt92rcd13ifvqcg0","pricing_plan_id":"cebpf4jnsgd1na2vs0mg"},{"bike_id":"9bfc7d3d-4e60-4f8a-9c32-ef3d0e77ec5b","system_id":"levelo_inurba_marseille","lat":43.21207,"lon":5.35072,"is_reserved":false,"is_disabled":false,"rental_uris":{"android":"levelo://app?vid=9bfc7d3d-4e60-4f8a-9c32-ef3d0e77ec5b","ios":"levelo://app?vid=9bfc7d3d-4e60-4f8a-9c32-ef3d0e77ec5b"},"vehicle_type_id":"4","last_reported":1752315054,"current_range_meters":22000,"station_id":"st_cvj6sg6p6f1abm77japg","pricing_plan_id":"cebpf4jnsgd1na2vs0mg"},{"bike_id":"9f7a8926-fe00-41e0-80a0-ac3ffcc68741","system_id":"levelo_inurba_marseille","lat":43.24068,"lon":5.37756,"is_reserved":false,"is_disabled":false,"rental_uris":{"android":"levelo://app?vid=9f7a8926-fe00-41e0-80a0-ac3ffcc68741","ios":"levelo://app?vid=9f7a8926-fe00-41e0-80a0-ac3ffcc68741"},"vehicle_type_id":"4","last_reported":1752315054,"current_range_meters":22400,"station_id":"ce4bhnp2rcd13ifvqgvg","pricing_plan_id":"cebpf4jnsgd1na2vs0mg"},{"bike_id":"10666549-7ebc-45b0-9816-8cedb6235d7b","system_id":"levelo_inurba_marseille","lat":43.28607,"lon":5.37087,"is_reserved":false,"is_disabled":false,"rental_uris":{"android":"levelo://app?vid=10666549-7ebc-45b0-9816-8cedb6235d7b","ios":"levelo://app?vid=10666549-7ebc-45b0-9816-8cedb6235d7b"},"vehicle_type_id":"4","last_reported":1752315054,"current_range_meters":22400,"station_id":"ce4bht12rcd13ifvqi60","pricing_plan_id":"cebpf4jnsgd1na2vs0mg"},{"bike_id":"cbc46b23-4e01-409c-932c-cd0e7a0d4caf","system_id":"levelo_inurba_marseille","lat":43.26976,"lon":5.39308,"is_reserved":false,"is_disabled":false,"rental_uris":{"android":"levelo://app?vid=cbc46b23-4e01-409c-932c-cd0e7a0d4caf","ios":"levelo://app?vid=cbc46b23-4e01-409c-932c-cd0e7a0d4caf"},"vehicle_type_id":"4","last_reported":1752315054,"current_range_meters":22000,"station_id":"ce4bhh12rcd13ifvqfg0","pricing_plan_id":"cebpf4jnsgd1na2vs0mg"},{"bike_id":"701caa78-bbb6-47aa-9858-97bbce586678","system_id":"levelo_inurba_marseille","lat":43.30951,"lon":5.39027,"is_reserved":false,"is_disabled":false,"rental_uris":{"android":"levelo://app?vid=701caa78-bbb6-47aa-9858-97bbce586678","ios":"levelo://app?vid=701caa78-bbb6-47aa-9858-97bbce586678"},"vehicle_type_id":"4","last_reported":1752315054,"current_range_meters":22400,"station_id":"ce4bgup2rcd13ifvqco0","pricing_plan_id":"cebpf4jnsgd1na2vs0mg"},{"bike_id":"5795bbc3-d17a-46de-a731-7a653a57c5b2","system_id":"levelo_inurba_marseille","lat":43.2621,"lon":5.37454,"is_reserved":false,"is_disabled":false,"rental_uris":{"android":"levelo://app?vid=5795bbc3-d17a-46de-a731-7a653a57c5b2","ios":"levelo://app?vid=5795bbc3-d17a-46de-a731-7a653a57c5b2"},"vehicle_type_id":"4","last_reported":1752315054,"current_range_meters":22800,"station_id":"ce4bhgp2rcd13ifvqfc0","pricing_plan_id":"cebpf4jnsgd1na2vs0mg"},{"bike_id":"d2eb7848-4e16-492e-bb2e-34b216f30c20","system_id":"levelo_inurba_marseille","lat":43.25927,"lon":5.40899,"is_reserved":false,"is_disabled":false,"rental_uris":{"android":"levelo://app?vid=d2eb7848-4e16-492e-bb2e-34b216f30c20","ios":"levelo://app?vid=d2eb7848-4e16-492e-bb2e-34b216f30c20"},"vehicle_type_id":"4","last_reported":1752315054,"current_range_meters":22400,"station_id":"ce4bhm92rcd13ifvqglg","pricing_plan_id":"cebpf4jnsgd1na2vs0mg"},{"bike_id":"5615b025-3e72-4ab1-b5f2-562f10259a2c","system_id":"levelo_inurba_marseille","lat":43.29023,"lon":5.38646,"is_reserved":false,"is_disabled":false,"rental_uris":{"android":"levelo://app?vid=5615b025-3e72-4ab1-b5f2-562f10259a2c","ios":"levelo://app?vid=5615b025-3e72-4ab1-b5f2-562f10259a2c"},"vehicle_type_id":"4","last_reported":1752315054,"current_range_meters":22400,"station_id":"ce4bh4p2rcd13ifvqe0g","pricing_plan_id":"cebpf4jnsgd1na2vs0mg"},{"bike_id":"e2f2a0c2-467f-4b52-b6b9-eff92b147f7e","system_id":"levelo_inurba_marseille","lat":43.28855,"lon":5.39311,"is_reserved":false,"is_disabled":false,"rental_uris":{"android":"levelo://app?vid=e2f2a0c2-467f-4b52-b6b9-eff92b147f7e","ios":"levelo://app?vid=e2f2a0c2-467f-4b52-b6b9-eff92b147f7e"},"vehicle_type_id":"4","last_reported":1752315054,"current_range_meters":22400,"station_id":"ce4bh2p2rcd13ifvqdi0","pricing_plan_id":"cebpf4jnsgd1na2vs0mg"},{"bike_id":"8c1f804e-5239-4ab4-8fd6-6515b0690b99","system_id":"levelo_inurba_marseille","lat":43.30147,"lon":5.38076,"is_reserved":false,"is_disabled":false,"rental_uris":{"android":"levelo://app?vid=8c1f804e-5239-4ab4-8fd6-6515b0690b99","ios":"levelo://app?vid=8c1f804e-5239-4ab4-8fd6-6515b0690b99"},"vehicle_type_id":"4","last_reported":1752315054,"current_range_meters":22400,"station_id":"ce4bgjp2rcd13ifvqbh0","pricing_plan_id":"cebpf4jnsgd1na2vs0mg"},{"bike_id":"cc6260c7-e588-42d7-afef-96c409802ccc","system_id":"levelo_inurba_marseille","lat":43.21194,"lon":5.35072,"is_reserved":false,"is_disabled":false,"rental_uris":{"android":"levelo://app?vid=cc6260c7-e588-42d7-afef-96c409802ccc","ios":"levelo://app?vid=cc6260c7-e588-42d7-afef-96c409802ccc"},"vehicle_type_id":"4","last_reported":1752315054,"current_range_meters":22400,"station_id":"st_cvj6sg6p6f1abm77japg","pricing_plan_id":"cebpf4jnsgd1na2vs0mg"},{"bike_id":"3b1bb547-4fa9-4d14-874f-2f58aa774d5a","system_id":"levelo_inurba_marseille","lat":43.29793,"lon":5.38091,"is_reserved":false,"is_disabled":false,"rental_uris":{"android":"levelo://app?vid=3b1bb547-4fa9-4d14-874f-2f58aa774d5a","ios":"levelo://app?vid=3b1bb547-4fa9-4d14-874f-2f58aa774d5a"},"vehicle_type_id":"4","last_reported":1752315054,"current_range_meters":22800,"station_id":"ce4bgip2rcd13ifvqbb0","pricing_plan_id":"cebpf4jnsgd1na2vs0mg"},{"bike_id":"7b24d22c-7607-4d99-a30c-c524d01a3c3f","system_id":"levelo_inurba_marseille","lat":43.28614,"lon":5.35106,"is_reserved":false,"is_disabled":false,"rental_uris":{"android":"levelo://app?vid=7b24d22c-7607-4d99-a30c-c524d01a3c3f","ios":"levelo://app?vid=7b24d22c-7607-4d99-a30c-c524d01a3c3f"},"vehicle_type_id":"4","last_reported":1752315054,"current_range_meters":22800,"station_id":"ce4bhch2rcd13ifvqeug","pricing_plan_id":"cebpf4jnsgd1na2vs0mg"},{"bike_id":"d2501d8a-17a4-488b-92ac-71df945193d6","system_id":"levelo_inurba_marseille","lat":43.27087,"lon":5.42263,"is_reserved":false,"is_disabled":false,"rental_uris":{"android":"levelo://app?vid=d2501d8a-17a4-488b-92ac-71df945193d6","ios":"levelo://app?vid=d2501d8a-17a4-488b-92ac-71df945193d6"},"vehicle_type_id":"4","last_reported":1752315054,"current_range_meters":22800,"station_id":"ce4bhk92rcd13ifvqgb0","pricing_plan_id":"cebpf4jnsgd1na2vs0mg"},{"bike_id":"23d03f32-cdcc-4b30-8260-a8e690aed6a4","system_id":"levelo_inurba_marseille","lat":43.29372,"lon":5.37835,"is_reserved":false,"is_disabled":false,"rental_uris":{"android":"levelo://app?vid=23d03f32-cdcc-4b30-8260-a8e690aed6a4","ios":"levelo://app?vid=23d03f32-cdcc-4b30-8260-a8e690aed6a4"},"vehicle_type_id":"4","last_reported":1752315054,"current_range_meters":22800,"station_id":"ce4bgjh2rcd13ifvqbf0","pricing_plan_id":"cebpf4jnsgd1na2vs0mg"},{"bike_id":"81789443-32f5-4454-80e4-277188f1aae0","system_id":"levelo_inurba_marseille","lat":43.28856,"lon":5.35841,"is_reserved":false,"is_disabled":false,"rental_uris":{"android":"levelo://app?vid=81789443-32f5-4454-80e4-277188f1aae0","ios":"levelo://app?vid=81789443-32f5-4454-80e4-277188f1aae0"},"vehicle_type_id":"4","last_reported":1752315054,"current_range_meters":22800,"station_id":"ce4bhb12rcd13ifvqem0","pricing_plan_id":"cebpf4jnsgd1na2vs0mg"},{"bike_id":"9fc4a9a4-df65-4ffb-87a7-e95c9bee6d88","system_id":"levelo_inurba_marseille","lat":43.25086,"lon":5.39508,"is_reserved":false,"is_disabled":false,"rental_uris":{"android":"levelo://app?vid=9fc4a9a4-df65-4ffb-87a7-e95c9bee6d88","ios":"levelo://app?vid=9fc4a9a4-df65-4ffb-87a7-e95c9bee6d88"},"vehicle_type_id":"4","last_reported":1752315054,"current_range_meters":22800,"station_id":"ce4bhm12rcd13ifvqgkg","pricing_plan_id":"cebpf4jnsgd1na2vs0mg"},{"bike_id":"c8c4de1a-846f-4f5b-aace-9fb14bf7ad52","system_id":"levelo_inurba_marseille","lat":43.21196,"lon":5.35076,"is_reserved":false,"is_disabled":false,"rental_uris":{"android":"levelo://app?vid=c8c4de1a-846f-4f5b-aace-9fb14bf7ad52","ios":"levelo://app?vid=c8c4de1a-846f-4f5b-aace-9fb14bf7ad52"},"vehicle_type_id":"4","last_reported":1752315054,"current_range_meters":22800,"station_id":"st_cvj6sg6p6f1abm77japg","pricing_plan_id":"cebpf4jnsgd1na2vs0mg"},{"bike_id":"05646134-6914-494e-8d1c-40622b9209bf","system_id":"levelo_inurba_marseille","lat":43.265613,"lon":5.372797,"is_reserved":false,"is_disabled":false,"rental_uris":{"android":"levelo://app?vid=05646134-6914-494e-8d1c-40622b9209bf","ios":"levelo://app?vid=05646134-6914-494e-8d1c-40622b9209bf"},"vehicle_type_id":"4","last_reported":1752315054,"current_range_meters":22800,"station_id":"ce4bhg12rcd13ifvqf70","pricing_plan_id":"cebpf4jnsgd1na2vs0mg"},{"bike_id":"498fe75b-cc05-4135-ac03-dc43c25c4f03","system_id":"levelo_inurba_marseille","lat":43.28451,"lon":5.39204,"is_reserved":false,"is_disabled":false,"rental_uris":{"android":"levelo://app?vid=498fe75b-cc05-4135-ac03-dc43c25c4f03","ios":"levelo://app?vid=498fe75b-cc05-4135-ac03-dc43c25c4f03"},"vehicle_type_id":"4","last_reported":1752315054,"current_range_meters":22800,"station_id":"ce4bhoh2rcd13ifvqh5g","pricing_plan_id":"cebpf4jnsgd1na2vs0mg"},{"bike_id":"2ec427da-b403-4a7e-86be-3f48ba535d18","system_id":"levelo_inurba_marseille","lat":43.21191,"lon":5.35073,"is_reserved":false,"is_disabled":false,"rental_uris":{"android":"levelo://app?vid=2ec427da-b403-4a7e-86be-3f48ba535d18","ios":"levelo://app?vid=2ec427da-b403-4a7e-86be-3f48ba535d18"},"vehicle_type_id":"4","last_reported":1752315054,"current_range_meters":23200,"station_id":"st_cvj6sg6p6f1abm77japg","pricing_plan_id":"cebpf4jnsgd1na2vs0mg"},{"bike_id":"e551c81f-beb8-4535-a76a-0860bd6c5653","system_id":"levelo_inurba_marseille","lat":43.294251,"lon":5.385983,"is_reserved":false,"is_disabled":true,"rental_uris":{"android":"levelo://app?vid=e551c81f-beb8-4535-a76a-0860bd6c5653","ios":"levelo://app?vid=e551c81f-beb8-4535-a76a-0860bd6c5653"},"vehicle_type_id":"4","last_reported":1752315054,"current_range_meters":23200,"station_id":"ce4bh2h2rcd13ifvqdh0","pricing_plan_id":"cebpf4jnsgd1na2vs0mg"},{"bike_id":"3e01e98e-784c-40cc-9a58-943021295c96","system_id":"levelo_inurba_marseille","lat":43.26492,"lon":5.39557,"is_reserved":false,"is_disabled":false,"rental_uris":{"android":"levelo://app?vid=3e01e98e-784c-40cc-9a58-943021295c96","ios":"levelo://app?vid=3e01e98e-784c-40cc-9a58-943021295c96"},"vehicle_type_id":"4","last_reported":1752315054,"current_range_meters":23200,"station_id":"ce4bhi12rcd13ifvqfq0","pricing_plan_id":"cebpf4jnsgd1na2vs0mg"},{"bike_id":"8f37cab4-b8a9-4703-a1e5-def52349929d","system_id":"levelo_inurba_marseille","lat":43.2872,"lon":5.3796,"is_reserved":false,"is_disabled":false,"rental_uris":{"android":"levelo://app?vid=8f37cab4-b8a9-4703-a1e5-def52349929d","ios":"levelo://app?vid=8f37cab4-b8a9-4703-a1e5-def52349929d"},"vehicle_type_id":"4","last_reported":1752315054,"current_range_meters":23200,"station_id":"ce4bh9p2rcd13ifvqec0","pricing_plan_id":"cebpf4jnsgd1na2vs0mg"},{"bike_id":"07d14d86-a176-4665-a495-26ba7e0009ea","system_id":"levelo_inurba_marseille","lat":43.28276,"lon":5.35039,"is_reserved":false,"is_disabled":false,"rental_uris":{"android":"levelo://app?vid=07d14d86-a176-4665-a495-26ba7e0009ea","ios":"levelo://app?vid=07d14d86-a176-4665-a495-26ba7e0009ea"},"vehicle_type_id":"4","last_reported":1752315054,"current_range_meters":23200,"station_id":"ce4bhbp2rcd13ifvqerg","pricing_plan_id":"cebpf4jnsgd1na2vs0mg"},{"bike_id":"149236e6-1eaa-4679-ba3f-3d97c7522abc","system_id":"levelo_inurba_marseille","lat":43.30541,"lon":5.3654,"is_reserved":false,"is_disabled":false,"rental_uris":{"android":"levelo://app?vid=149236e6-1eaa-4679-ba3f-3d97c7522abc","ios":"levelo://app?vid=149236e6-1eaa-4679-ba3f-3d97c7522abc"},"vehicle_type_id":"4","last_reported":1752315054,"current_range_meters":23200,"station_id":"ce4bgs12rcd13ifvqcag","pricing_plan_id":"cebpf4jnsgd1na2vs0mg"},{"bike_id":"99ae43ef-9981-41ec-907c-f94f73cc9ad2","system_id":"levelo_inurba_marseille","lat":43.29985,"lon":5.38484,"is_reserved":false,"is_disabled":false,"rental_uris":{"android":"levelo://app?vid=99ae43ef-9981-41ec-907c-f94f73cc9ad2","ios":"levelo://app?vid=99ae43ef-9981-41ec-907c-f94f73cc9ad2"},"vehicle_type_id":"4","last_reported":1752315054,"current_range_meters":23200,"station_id":"ce4bgj92rcd13ifvqbd0","pricing_plan_id":"cebpf4jnsgd1na2vs0mg"},{"bike_id":"40036454-35d3-4f20-9e70-ac3b500fc893","system_id":"levelo_inurba_marseille","lat":43.30541,"lon":5.38422,"is_reserved":false,"is_disabled":false,"rental_uris":{"android":"levelo://app?vid=40036454-35d3-4f20-9e70-ac3b500fc893","ios":"levelo://app?vid=40036454-35d3-4f20-9e70-ac3b500fc893"},"vehicle_type_id":"4","last_reported":1752315054,"current_range_meters":24000,"station_id":"ce4bgg92rcd13ifvqb30","pricing_plan_id":"cebpf4jnsgd1na2vs0mg"},{"bike_id":"80955d0f-8669-4c02-b90f-c6fe20790c37","system_id":"levelo_inurba_marseille","lat":43.23203,"lon":5.35046,"is_reserved":false,"is_disabled":false,"rental_uris":{"android":"levelo://app?vid=80955d0f-8669-4c02-b90f-c6fe20790c37","ios":"levelo://app?vid=80955d0f-8669-4c02-b90f-c6fe20790c37"},"vehicle_type_id":"4","last_reported":1752315054,"current_range_meters":24000,"station_id":"","pricing_plan_id":"cebpf4jnsgd1na2vs0mg"},{"bike_id":"486088c6-eb73-4d02-9c9a-8ca7a4b726b0","system_id":"levelo_inurba_marseille","lat":43.2827,"lon":5.35064,"is_reserved":false,"is_disabled":false,"rental_uris":{"android":"levelo://app?vid=486088c6-eb73-4d02-9c9a-8ca7a4b726b0","ios":"levelo://app?vid=486088c6-eb73-4d02-9c9a-8ca7a4b726b0"},"vehicle_type_id":"4","last_reported":1752315054,"current_range_meters":24000,"station_id":"ce4bhbp2rcd13ifvqerg","pricing_plan_id":"cebpf4jnsgd1na2vs0mg"},{"bike_id":"f59f6657-f62a-42fc-a273-bf50a25645d6","system_id":"levelo_inurba_marseille","lat":43.27375,"lon":5.3626,"is_reserved":false,"is_disabled":false,"rental_uris":{"android":"levelo://app?vid=f59f6657-f62a-42fc-a273-bf50a25645d6","ios":"levelo://app?vid=f59f6657-f62a-42fc-a273-bf50a25645d6"},"vehicle_type_id":"4","last_reported":1752315054,"current_range_meters":24000,"station_id":"ce4bhbh2rcd13ifvqeo0","pricing_plan_id":"cebpf4jnsgd1na2vs0mg"},{"bike_id":"a47f6651-5985-4bbf-ad52-a3efb5d66b9d","system_id":"levelo_inurba_marseille","lat":43.2931,"lon":5.37179,"is_reserved":false,"is_disabled":false,"rental_uris":{"android":"levelo://app?vid=a47f6651-5985-4bbf-ad52-a3efb5d66b9d","ios":"levelo://app?vid=a47f6651-5985-4bbf-ad52-a3efb5d66b9d"},"vehicle_type_id":"4","last_reported":1752315054,"current_range_meters":24000,"station_id":"ce4bgh92rcd13ifvqb40","pricing_plan_id":"cebpf4jnsgd1na2vs0mg"},{"bike_id":"e3d4efbc-af94-4032-99e1-bb291a0bd07c","system_id":"levelo_inurba_marseille","lat":43.28271,"lon":5.35077,"is_reserved":false,"is_disabled":false,"rental_uris":{"android":"levelo://app?vid=e3d4efbc-af94-4032-99e1-bb291a0bd07c","ios":"levelo://app?vid=e3d4efbc-af94-4032-99e1-bb291a0bd07c"},"vehicle_type_id":"4","last_reported":1752315054,"current_range_meters":24000,"station_id":"ce4bhbp2rcd13ifvqerg","pricing_plan_id":"cebpf4jnsgd1na2vs0mg"},{"bike_id":"8b34edeb-0680-4af3-8ca1-2bd5eae8a77c","system_id":"levelo_inurba_marseille","lat":43.29311,"lon":5.37184,"is_reserved":false,"is_disabled":false,"rental_uris":{"android":"levelo://app?vid=8b34edeb-0680-4af3-8ca1-2bd5eae8a77c","ios":"levelo://app?vid=8b34edeb-0680-4af3-8ca1-2bd5eae8a77c"},"vehicle_type_id":"4","last_reported":1752315054,"current_range_meters":24000,"station_id":"ce4bgh92rcd13ifvqb40","pricing_plan_id":"cebpf4jnsgd1na2vs0mg"},{"bike_id":"cf070045-79b9-4bb5-83ea-ade964db42fa","system_id":"levelo_inurba_marseille","lat":43.299,"lon":5.43666,"is_reserved":false,"is_disabled":false,"rental_uris":{"android":"levelo://app?vid=cf070045-79b9-4bb5-83ea-ade964db42fa","ios":"levelo://app?vid=cf070045-79b9-4bb5-83ea-ade964db42fa"},"vehicle_type_id":"4","last_reported":1752315054,"current_range_meters":24000,"station_id":"ce4bhpp2rcd13ifvqhfg","pricing_plan_id":"cebpf4jnsgd1na2vs0mg"},{"bike_id":"b799f899-220f-4d7e-bfad-6862bab05a50","system_id":"levelo_inurba_marseille","lat":43.24737,"lon":5.41175,"is_reserved":false,"is_disabled":false,"rental_uris":{"android":"levelo://app?vid=b799f899-220f-4d7e-bfad-6862bab05a50","ios":"levelo://app?vid=b799f899-220f-4d7e-bfad-6862bab05a50"},"vehicle_type_id":"4","last_reported":1752315054,"current_range_meters":24000,"station_id":"","pricing_plan_id":"cebpf4jnsgd1na2vs0mg"},{"bike_id":"c37d61cb-d2b0-440e-ad25-04b15ead9aa7","system_id":"levelo_inurba_marseille","lat":43.29705,"lon":5.37702,"is_reserved":false,"is_disabled":false,"rental_uris":{"android":"levelo://app?vid=c37d61cb-d2b0-440e-ad25-04b15ead9aa7","ios":"levelo://app?vid=c37d61cb-d2b0-440e-ad25-04b15ead9aa7"},"vehicle_type_id":"4","last_reported":1752315054,"current_range_meters":24000,"station_id":"ce4bgkh2rcd13ifvqbl0","pricing_plan_id":"cebpf4jnsgd1na2vs0mg"},{"bike_id":"cbba3e06-ee22-470b-935f-e3a1547fc922","system_id":"levelo_inurba_marseille","lat":43.30892,"lon":5.37193,"is_reserved":false,"is_disabled":false,"rental_uris":{"android":"levelo://app?vid=cbba3e06-ee22-470b-935f-e3a1547fc922","ios":"levelo://app?vid=cbba3e06-ee22-470b-935f-e3a1547fc922"},"vehicle_type_id":"4","last_reported":1752315054,"current_range_meters":23200,"station_id":"ce4bguh2rcd13ifvqckg","pricing_plan_id":"cebpf4jnsgd1na2vs0mg"},{"bike_id":"697d5fc4-b988-4a4e-8323-c1ce5ed61a61","system_id":"levelo_inurba_marseille","lat":43.21197,"lon":5.35068,"is_reserved":false,"is_disabled":false,"rental_uris":{"android":"levelo://app?vid=697d5fc4-b988-4a4e-8323-c1ce5ed61a61","ios":"levelo://app?vid=697d5fc4-b988-4a4e-8323-c1ce5ed61a61"},"vehicle_type_id":"4","last_reported":1752315054,"current_range_meters":24400,"station_id":"st_cvj6sg6p6f1abm77japg","pricing_plan_id":"cebpf4jnsgd1na2vs0mg"},{"bike_id":"6ac174d4-75c5-4a9c-9699-97cd631c6e65","system_id":"levelo_inurba_marseille","lat":43.25468,"lon":5.39949,"is_reserved":false,"is_disabled":false,"rental_uris":{"android":"levelo://app?vid=6ac174d4-75c5-4a9c-9699-97cd631c6e65","ios":"levelo://app?vid=6ac174d4-75c5-4a9c-9699-97cd631c6e65"},"vehicle_type_id":"4","last_reported":1752315054,"current_range_meters":24400,"station_id":"","pricing_plan_id":"cebpf4jnsgd1na2vs0mg"},{"bike_id":"da983724-2189-4fc3-8aaf-a6ee9bbfd66a","system_id":"levelo_inurba_marseille","lat":43.26919,"lon":5.40409,"is_reserved":false,"is_disabled":false,"rental_uris":{"android":"levelo://app?vid=da983724-2189-4fc3-8aaf-a6ee9bbfd66a","ios":"levelo://app?vid=da983724-2189-4fc3-8aaf-a6ee9bbfd66a"},"vehicle_type_id":"4","last_reported":1752315054,"current_range_meters":24400,"station_id":"cjm6bp8fraef2m0cb0m0","pricing_plan_id":"cebpf4jnsgd1na2vs0mg"},{"bike_id":"b29c635f-9f64-466c-a57c-b8a3bc4058b4","system_id":"levelo_inurba_marseille","lat":43.308338,"lon":5.400323,"is_reserved":false,"is_disabled":false,"rental_uris":{"android":"levelo://app?vid=b29c635f-9f64-466c-a57c-b8a3bc4058b4","ios":"levelo://app?vid=b29c635f-9f64-466c-a57c-b8a3bc4058b4"},"vehicle_type_id":"4","last_reported":1752315054,"current_range_meters":24400,"station_id":"","pricing_plan_id":"cebpf4jnsgd1na2vs0mg"},{"bike_id":"83b73f6a-9e83-4149-8630-43a3647a62b8","system_id":"levelo_inurba_marseille","lat":43.300207,"lon":5.397583,"is_reserved":false,"is_disabled":false,"rental_uris":{"android":"levelo://app?vid=83b73f6a-9e83-4149-8630-43a3647a62b8","ios":"levelo://app?vid=83b73f6a-9e83-4149-8630-43a3647a62b8"},"vehicle_type_id":"4","last_reported":1752315054,"current_range_meters":24400,"station_id":"ce4bh9p2rcd13ifvqec0","pricing_plan_id":"cebpf4jnsgd1na2vs0mg"},{"bike_id":"c9131229-fc26-406d-9791-d9ba8a95b1f4","system_id":"levelo_inurba_marseille","lat":43.33747,"lon":5.374402,"is_reserved":false,"is_disabled":false,"rental_uris":{"android":"levelo://app?vid=c9131229-fc26-406d-9791-d9ba8a95b1f4","ios":"levelo://app?vid=c9131229-fc26-406d-9791-d9ba8a95b1f4"},"vehicle_type_id":"4","last_reported":1752315054,"current_range_meters":24400,"station_id":"","pricing_plan_id":"cebpf4jnsgd1na2vs0mg"},{"bike_id":"8ad58758-a996-4b15-9696-9e763ae6ed1e","system_id":"levelo_inurba_marseille","lat":43.29294,"lon":5.37452,"is_reserved":false,"is_disabled":false,"rental_uris":{"android":"levelo://app?vid=8ad58758-a996-4b15-9696-9e763ae6ed1e","ios":"levelo://app?vid=8ad58758-a996-4b15-9696-9e763ae6ed1e"},"vehicle_type_id":"4","last_reported":1752315054,"current_range_meters":24400,"station_id":"ce4bgi12rcd13ifvqb70","pricing_plan_id":"cebpf4jnsgd1na2vs0mg"},{"bike_id":"424b4c38-aafa-40a1-a2b0-d0621b1700fb","system_id":"levelo_inurba_marseille","lat":43.32655,"lon":5.41006,"is_reserved":false,"is_disabled":false,"rental_uris":{"android":"levelo://app?vid=424b4c38-aafa-40a1-a2b0-d0621b1700fb","ios":"levelo://app?vid=424b4c38-aafa-40a1-a2b0-d0621b1700fb"},"vehicle_type_id":"4","last_reported":1752315054,"current_range_meters":24400,"station_id":"ce4bhpp2rcd13ifvqhgg","pricing_plan_id":"cebpf4jnsgd1na2vs0mg"},{"bike_id":"ef579d4a-245b-4d1d-83fd-5a28c4920e30","system_id":"levelo_inurba_marseille","lat":43.25093,"lon":5.39516,"is_reserved":false,"is_disabled":false,"rental_uris":{"android":"levelo://app?vid=ef579d4a-245b-4d1d-83fd-5a28c4920e30","ios":"levelo://app?vid=ef579d4a-245b-4d1d-83fd-5a28c4920e30"},"vehicle_type_id":"4","last_reported":1752315054,"current_range_meters":24400,"station_id":"ce4bhm12rcd13ifvqgkg","pricing_plan_id":"cebpf4jnsgd1na2vs0mg"},{"bike_id":"20d37ed8-3532-4e6d-ba29-6abdde3b6fb4","system_id":"levelo_inurba_marseille","lat":43.30643,"lon":5.4013,"is_reserved":false,"is_disabled":false,"rental_uris":{"android":"levelo://app?vid=20d37ed8-3532-4e6d-ba29-6abdde3b6fb4","ios":"levelo://app?vid=20d37ed8-3532-4e6d-ba29-6abdde3b6fb4"},"vehicle_type_id":"4","last_reported":1752315054,"current_range_meters":24400,"station_id":"ce4bh112rcd13ifvqda0","pricing_plan_id":"cebpf4jnsgd1na2vs0mg"},{"bike_id":"6d7f254a-9dc5-4ce0-b279-b279f98d9234","system_id":"levelo_inurba_marseille","lat":43.29183,"lon":5.358,"is_reserved":false,"is_disabled":false,"rental_uris":{"android":"levelo://app?vid=6d7f254a-9dc5-4ce0-b279-b279f98d9234","ios":"levelo://app?vid=6d7f254a-9dc5-4ce0-b279-b279f98d9234"},"vehicle_type_id":"4","last_reported":1752315054,"current_range_meters":24400,"station_id":"ce4bhb12rcd13ifvqel0","pricing_plan_id":"cebpf4jnsgd1na2vs0mg"},{"bike_id":"70ef708f-d898-493d-ad37-66ddda68be4a","system_id":"levelo_inurba_marseille","lat":43.2844,"lon":5.39191,"is_reserved":false,"is_disabled":false,"rental_uris":{"android":"levelo://app?vid=70ef708f-d898-493d-ad37-66ddda68be4a","ios":"levelo://app?vid=70ef708f-d898-493d-ad37-66ddda68be4a"},"vehicle_type_id":"4","last_reported":1752315054,"current_range_meters":24400,"station_id":"ce4bhoh2rcd13ifvqh5g","pricing_plan_id":"cebpf4jnsgd1na2vs0mg"},{"bike_id":"c7ccf38b-04d8-4615-b1df-b6032ca6770f","system_id":"levelo_inurba_marseille","lat":43.29104,"lon":5.38139,"is_reserved":false,"is_disabled":false,"rental_uris":{"android":"levelo://app?vid=c7ccf38b-04d8-4615-b1df-b6032ca6770f","ios":"levelo://app?vid=c7ccf38b-04d8-4615-b1df-b6032ca6770f"},"vehicle_type_id":"4","last_reported":1752315054,"current_range_meters":24400,"station_id":"ce4bh512rcd13ifvqe2g","pricing_plan_id":"cebpf4jnsgd1na2vs0mg"},{"bike_id":"5cb9f2ff-e30c-4f3f-a74a-22aaa10f216c","system_id":"levelo_inurba_marseille","lat":43.27889,"lon":5.38022,"is_reserved":false,"is_disabled":false,"rental_uris":{"android":"levelo://app?vid=5cb9f2ff-e30c-4f3f-a74a-22aaa10f216c","ios":"levelo://app?vid=5cb9f2ff-e30c-4f3f-a74a-22aaa10f216c"},"vehicle_type_id":"4","last_reported":1752315054,"current_range_meters":24800,"station_id":"ce4bhf92rcd13ifvqf50","pricing_plan_id":"cebpf4jnsgd1na2vs0mg"},{"bike_id":"b640c36c-6c5a-408e-8ac7-d6548dede463","system_id":"levelo_inurba_marseille","lat":43.240671,"lon":5.377598,"is_reserved":false,"is_disabled":false,"rental_uris":{"android":"levelo://app?vid=b640c36c-6c5a-408e-8ac7-d6548dede463","ios":"levelo://app?vid=b640c36c-6c5a-408e-8ac7-d6548dede463"},"vehicle_type_id":"4","last_reported":1752315054,"current_range_meters":24800,"station_id":"ce4bhnp2rcd13ifvqgvg","pricing_plan_id":"cebpf4jnsgd1na2vs0mg"},{"bike_id":"a4d07f45-19f9-4df9-9728-be6623530a64","system_id":"levelo_inurba_marseille","lat":43.23718,"lon":5.3882,"is_reserved":false,"is_disabled":false,"rental_uris":{"android":"levelo://app?vid=a4d07f45-19f9-4df9-9728-be6623530a64","ios":"levelo://app?vid=a4d07f45-19f9-4df9-9728-be6623530a64"},"vehicle_type_id":"4","last_reported":1752315054,"current_range_meters":24800,"station_id":"","pricing_plan_id":"cebpf4jnsgd1na2vs0mg"},{"bike_id":"83700415-ce46-4475-8f56-1f4b237d6934","system_id":"levelo_inurba_marseille","lat":43.30141,"lon":5.38104,"is_reserved":false,"is_disabled":false,"rental_uris":{"android":"levelo://app?vid=83700415-ce46-4475-8f56-1f4b237d6934","ios":"levelo://app?vid=83700415-ce46-4475-8f56-1f4b237d6934"},"vehicle_type_id":"4","last_reported":1752315054,"current_range_meters":24800,"station_id":"ce4bgjp2rcd13ifvqbh0","pricing_plan_id":"cebpf4jnsgd1na2vs0mg"},{"bike_id":"d1a6a13b-a088-4b49-87ce-a173fa5a1ecd","system_id":"levelo_inurba_marseille","lat":43.28461,"lon":5.39247,"is_reserved":false,"is_disabled":false,"rental_uris":{"android":"levelo://app?vid=d1a6a13b-a088-4b49-87ce-a173fa5a1ecd","ios":"levelo://app?vid=d1a6a13b-a088-4b49-87ce-a173fa5a1ecd"},"vehicle_type_id":"4","last_reported":1752315054,"current_range_meters":24800,"station_id":"ce4bhoh2rcd13ifvqh5g","pricing_plan_id":"cebpf4jnsgd1na2vs0mg"},{"bike_id":"a0a4a0b9-4624-43dc-a5eb-a0f1f472ae26","system_id":"levelo_inurba_marseille","lat":43.24393,"lon":5.37066,"is_reserved":false,"is_disabled":false,"rental_uris":{"android":"levelo://app?vid=a0a4a0b9-4624-43dc-a5eb-a0f1f472ae26","ios":"levelo://app?vid=a0a4a0b9-4624-43dc-a5eb-a0f1f472ae26"},"vehicle_type_id":"4","last_reported":1752315054,"current_range_meters":24800,"station_id":"ce4bhhh2rcd13ifvqfk0","pricing_plan_id":"cebpf4jnsgd1na2vs0mg"},{"bike_id":"8a01e88a-8371-4085-9838-47ae11897cd3","system_id":"levelo_inurba_marseille","lat":43.28151,"lon":5.42652,"is_reserved":false,"is_disabled":true,"rental_uris":{"android":"levelo://app?vid=8a01e88a-8371-4085-9838-47ae11897cd3","ios":"levelo://app?vid=8a01e88a-8371-4085-9838-47ae11897cd3"},"vehicle_type_id":"4","last_reported":1752315054,"current_range_meters":24800,"station_id":"ce4bhnh2rcd13ifvqgug","pricing_plan_id":"cebpf4jnsgd1na2vs0mg"},