{"last_updated":1735153633,"ttl":60,"version":"2.2","data":{"bikes":[{"bike_id":"5ebb1a0d-b940-42db-872d-a4e1cbd004a8","system_id":"levelo_inurba_marseille","lat":43.30445,"lon":5.38891,"is_reserved":false,"is_disabled":false,"rental_uris":{"android":"levelo://app?vid=5ebb1a0d-b940-42db-872d-a4e1cbd004a8","ios":"levelo://app?vid=5ebb1a0d-b940-42db-872d-a4e1cbd004a8"},"vehicle_type_id":"4","last_reported":1735153633,"current_range_meters":38400,"station_id":"ce4bgk12rcd13ifvqbi0","pricing_plan_id":"cebpf4jnsgd1na2vs0mg"},{"bike_id":"75c516d3-a5cc-4035-8666-739d671df90f","system_id":"levelo_inurba_marseille","lat":43.29977,"lon":5.38496,"is_reserved":false,"is_disabled":false,"rental_uris":{"android":"levelo://app?vid=75c516d3-a5cc-4035-8666-739d671df90f","ios":"levelo://app?vid=75c516d3-a5cc-4035-8666-739d671df90f"},"vehicle_type_id":"4","last_reported":1735153633,"current_range_meters":28800,"station_id":"ce4bgj92rcd13ifvqbd0","pricing_plan_id":"cebpf4jnsgd1na2vs0mg"},{"bike_id":"7ace0ab7-afd4-498e-afbf-17c39c8f1a00","system_id":"levelo_inurba_marseille","lat":43.2873,"lon":5.36077,"is_reserved":false,"is_disabled":false,"rental_uris":{"android":"levelo://app?vid=7ace0ab7-afd4-498e-afbf-17c39c8f1a00","ios":"levelo://app?vid=7ace0ab7-afd4-498e-afbf-17c39c8f1a00"},"vehicle_type_id":"4","last_reported":1735153633,"current_range_meters":38800,"station_id":"cki0cbj6b192h4jlfktg","pricing_plan_id":"cebpf4jnsgd1na2vs0mg"},{"bike_id":"61d02b61-4c48-4933-81d9-598a890b3f4b","system_id":"levelo_inurba_marseille","lat":43.26191,"lon":5.37925,"is_reserved":false,"is_disabled":false,"rental_uris":{"android":"levelo://app?vid=61d02b61-4c48-4933-81d9-598a890b3f4b","ios":"levelo://app?vid=61d02b61-4c48-4933-81d9-598a890b3f4b"},"vehicle_type_id":"4","last_reported":1735153633,"current_range_meters":26000,"station_id":"ce4bhjp2rcd13ifvqg90","pricing_plan_id":"cebpf4jnsgd1na2vs0mg"},{"bike_id":"b5c554a0-c246-4fb3-884b-44c7c2d84ad5","system_id":"levelo_inurba_marseille","lat":43.29047,"lon":5.35911,"is_reserved":false,"is_disabled":false,"rental_uris":{"android":"levelo://app?vid=b5c554a0-c246-4fb3-884b-44c7c2d84ad5","ios":"levelo://app?vid=b5c554a0-c246-4fb3-884b-44c7c2d84ad5"},"vehicle_type_id":"4","last_reported":1735153633,"current_range_meters":38000,"station_id":"ce4bha92rcd13ifvqeg0","pricing_plan_id":"cebpf4jnsgd1na2vs0mg"},{"bike_id":"5d27f906-1466-4a87-a8f4-d767e2a40285","system_id":"levelo_inurba_marseille","lat":43.30645,"lon":5.40059,"is_reserved":false,"is_disabled":false,"rental_uris":{"android":"levelo://app?vid=5d27f906-1466-4a87-a8f4-d767e2a40285","ios":"levelo://app?vid=5d27f906-1466-4a87-a8f4-d767e2a40285"},"vehicle_type_id":"4","last_reported":1735153633,"current_range_meters":25200,"station_id":"ce4bh112rcd13ifvqda0","pricing_plan_id":"cebpf4jnsgd1na2vs0mg"},{"bike_id":"1f14806d-ae11-4061-998c-72dada3be529","system_id":"levelo_inurba_marseille","lat":43.28937,"lon":5.36627,"is_reserved":false,"is_disabled":false,"rental_uris":{"android":"levelo://app?vid=1f14806d-ae11-4061-998c-72dada3be529","ios":"levelo://app?vid=1f14806d-ae11-4061-998c-72dada3be529"},"vehicle_type_id":"4","last_reported":1735153633,"current_range_meters":38800,"station_id":"ce4bhap2rcd13ifvqek0","pricing_plan_id":"cebpf4jnsgd1na2vs0mg"},{"bike_id":"c4104ae7-6d71-4ed6-97ba-cf7a171100c7","system_id":"levelo_inurba_marseille","lat":43.30929,"lon":5.4018,"is_reserved":false,"is_disabled":false,"rental_uris":{"android":"levelo://app?vid=c4104ae7-6d71-4ed6-97ba-cf7a171100c7","ios":"levelo://app?vid=c4104ae7-6d71-4ed6-97ba-cf7a171100c7"},"vehicle_type_id":"4","last_reported":1735153633,"current_range_meters":27200,"station_id":"ce4bgvp2rcd13ifvqct0","pricing_plan_id":"cebpf4jnsgd1na2vs0mg"},{"bike_id":"e466eb3a-3291-451c-abf2-2b0e751b4651","system_id":"levelo_inurba_marseille","lat":43.33591,"lon":5.40987,"is_reserved":false,"is_disabled":false,"rental_uris":{"android":"levelo://app?vid=e466eb3a-3291-451c-abf2-2b0e751b4651","ios":"levelo://app?vid=e466eb3a-3291-451c-abf2-2b0e751b4651"},"vehicle_type_id":"4","last_reported":1735153633,"current_range_meters":33200,"station_id":"ce4bhqh2rcd13ifvqhmg","pricing_plan_id":"cebpf4jnsgd1na2vs0mg"},{"bike_id":"fb546e02-2e09-44f7-9ea2-612c74d3db5e","system_id":"levelo_inurba_marseille","lat":43.25494,"lon":5.3765,"is_reserved":false,"is_disabled":false,"rental_uris":{"android":"levelo://app?vid=fb546e02-2e09-44f7-9ea2-612c74d3db5e","ios":"levelo://app?vid=fb546e02-2e09-44f7-9ea2-612c74d3db5e"},"vehicle_type_id":"4","last_reported":1735153633,"current_range_meters":38000,"station_id":"ce4bhh12rcd13ifvqff0","pricing_plan_id":"cebpf4jnsgd1na2vs0mg"},{"bike_id":"0a9fc545-d33b-441e-9ac0-e50452449d75","system_id":"levelo_inurba_marseille","lat":43.30098,"lon":5.39067,"is_reserved":false,"is_disabled":false,"rental_uris":{"android":"levelo://app?vid=0a9fc545-d33b-441e-9ac0-e50452449d75","ios":"levelo://app?vid=0a9fc545-d33b-441e-9ac0-e50452449d75"},"vehicle_type_id":"4","last_reported":1735153633,"current_range_meters":37600,"station_id":"ce4bh192rcd13ifvqdb0","pricing_plan_id":"cebpf4jnsgd1na2vs0mg"},{"bike_id":"8e7c191c-7403-4f99-9919-94f51e9650cc","system_id":"levelo_inurba_marseille","lat":43.28,"lon":5.40006,"is_reserved":false,"is_disabled":false,"rental_uris":{"android":"levelo://app?vid=8e7c191c-7403-4f99-9919-94f51e9650cc","ios":"levelo://app?vid=8e7c191c-7403-4f99-9919-94f51e9650cc"},"vehicle_type_id":"4","last_reported":1735153633,"current_range_meters":25200,"station_id":"ce4bho92rcd13ifvqh4g","pricing_plan_id":"cebpf4jnsgd1na2vs0mg"},{"bike_id":"a72c1683-84b7-4493-b3ed-4c14ea80ae93","system_id":"levelo_inurba_marseille","lat":43.27578,"lon":5.38446,"is_reserved":false,"is_disabled":false,"rental_uris":{"android":"levelo://app?vid=a72c1683-84b7-4493-b3ed-4c14ea80ae93","ios":"levelo://app?vid=a72c1683-84b7-4493-b3ed-4c14ea80ae93"},"vehicle_type_id":"4","last_reported":1735153633,"current_range_meters":39200,"station_id":"ce4bhh92rcd13ifvqfi0","pricing_plan_id":"cebpf4jnsgd1na2vs0mg"},{"bike_id":"102ac98a-d19c-477f-89ca-8597e972bc2f","system_id":"levelo_inurba_marseille","lat":43.27198,"lon":5.39168,"is_reserved":false,"is_disabled":false,"rental_uris":{"android":"levelo://app?vid=102ac98a-d19c-477f-89ca-8597e972bc2f","ios":"levelo://app?vid=102ac98a-d19c-477f-89ca-8597e972bc2f"},"vehicle_type_id":"4","last_reported":1735153633,"current_range_meters":36000,"station_id":"ce4bhhp2rcd13ifvqfm0","pricing_plan_id":"cebpf4jnsgd1na2vs0mg"},{"bike_id":"b9c83c83-cf96-4e57-b709-6459d0acaf9f","system_id":"levelo_inurba_marseille","lat":43.26809,"lon":5.40266,"is_reserved":false,"is_disabled":false,"rental_uris":{"android":"levelo://app?vid=b9c83c83-cf96-4e57-b709-6459d0acaf9f","ios":"levelo://app?vid=b9c83c83-cf96-4e57-b709-6459d0acaf9f"},"vehicle_type_id":"4","last_reported":1735153633,"current_range_meters":38800,"station_id":"ce501612rcd8frsf0b60","pricing_plan_id":"cebpf4jnsgd1na2vs0mg"},{"bike_id":"0c40cfa7-87ac-419a-b451-0845c4c0748a","system_id":"levelo_inurba_marseille","lat":43.29927,"lon":5.39702,"is_reserved":false,"is_disabled":false,"rental_uris":{"android":"levelo://app?vid=0c40cfa7-87ac-419a-b451-0845c4c0748a","ios":"levelo://app?vid=0c40cfa7-87ac-419a-b451-0845c4c0748a"},"vehicle_type_id":"4","last_reported":1735153633,"current_range_meters":25200,"station_id":"ce4bh0h2rcd13ifvqd50","pricing_plan_id":"cebpf4jnsgd1na2vs0mg"},{"bike_id":"b6ee9d6c-d1bd-4127-85e6-8d4ce3209754","system_id":"levelo_inurba_marseille","lat":43.31337,"lon":5.36735,"is_reserved":false,"is_disabled":false,"rental_uris":{"android":"levelo://app?vid=b6ee9d6c-d1bd-4127-85e6-8d4ce3209754","ios":"levelo://app?vid=b6ee9d6c-d1bd-4127-85e6-8d4ce3209754"},"vehicle_type_id":"4","last_reported":1735153633,"current_range_meters":38800,"station_id":"ce4bgr92rcd13ifvqc6g","pricing_plan_id":"cebpf4jnsgd1na2vs0mg"},{"bike_id":"d3528834-78d1-4f82-bf28-c4821268c440","system_id":"levelo_inurba_marseille","lat":43.28416,"lon":5.34984,"is_reserved":false,"is_disabled":false,"rental_uris":{"android":"levelo://app?vid=d3528834-78d1-4f82-bf28-c4821268c440","ios":"levelo://app?vid=d3528834-78d1-4f82-bf28-c4821268c440"},"vehicle_type_id":"4","last_reported":1735153633,"current_range_meters":7200,"station_id":"ce4bhbh2rcd13ifvqepg","pricing_plan_id":"cebpf4jnsgd1na2vs0mg"},{"bike_id":"e76cd31c-9401-4f43-89ef-f5e42b0b572d","system_id":"levelo_inurba_marseille","lat":43.27902,"lon":5.37998,"is_reserved":false,"is_disabled":false,"rental_uris":{"android":"levelo://app?vid=e76cd31c-9401-4f43-89ef-f5e42b0b572d","ios":"levelo://app?vid=e76cd31c-9401-4f43-89ef-f5e42b0b572d"},"vehicle_type_id":"4","last_reported":1735153633,"current_range_meters":16800,"station_id":"ce4bhf92rcd13ifvqf50","pricing_plan_id":"cebpf4jnsgd1na2vs0mg"},{"bike_id":"86c790d9-7551-4ac7-a8b7-adf3b37d61d8","system_id":"levelo_inurba_marseille","lat":43.29797,"lon":5.3935,"is_reserved":false,"is_disabled":false,"rental_uris":{"android":"levelo://app?vid=86c790d9-7551-4ac7-a8b7-adf3b37d61d8","ios":"levelo://app?vid=86c790d9-7551-4ac7-a8b7-adf3b37d61d8"},"vehicle_type_id":"4","last_reported":1735153633,"current_range_meters":20000,"station_id":"chh1huq6cuj3fo74tm60","pricing_plan_id":"cebpf4jnsgd1na2vs0mg"},{"bike_id":"34954d31-b4cd-4aa9-a790-de748138833e","system_id":"levelo_inurba_marseille","lat":43.29802,"lon":5.37115,"is_reserved":false,"is_disabled":false,"rental_uris":{"android":"levelo://app?vid=34954d31-b4cd-4aa9-a790-de748138833e","ios":"levelo://app?vid=34954d31-b4cd-4aa9-a790-de748138833e"},"vehicle_type_id":"4","last_reported":1735153633,"current_range_meters":12400,"station_id":"ce4bgop2rcd13ifvqc1g","pricing_plan_id":"cebpf4jnsgd1na2vs0mg"},{"bike_id":"7bf56867-f147-4165-89ee-4c8ea1ec9c93","system_id":"levelo_inurba_marseille","lat":43.29889,"lon":5.43647,"is_reserved":false,"is_disabled":false,"rental_uris":{"android":"levelo://app?vid=7bf56867-f147-4165-89ee-4c8ea1ec9c93","ios":"levelo://app?vid=7bf56867-f147-4165-89ee-4c8ea1ec9c93"},"vehicle_type_id":"4","last_reported":1735153633,"current_range_meters":6800,"station_id":"ce4bhpp2rcd13ifvqhfg","pricing_plan_id":"cebpf4jnsgd1na2vs0mg"},{"bike_id":"857344dd-6be1-4d34-90e7-6f62afbbef2e","system_id":"levelo_inurba_marseille","lat":43.3211,"lon":5.36775,"is_reserved":false,"is_disabled":false,"rental_uris":{"android":"levelo://app?vid=857344dd-6be1-4d34-90e7-6f62afbbef2e","ios":"levelo://app?vid=857344dd-6be1-4d34-90e7-6f62afbbef2e"},"vehicle_type_id":"4","last_reported":1735153633,"current_range_meters":16000,"station_id":"ce4bhrh2rcd13ifvqhug","pricing_plan_id":"cebpf4jnsgd1na2vs0mg"},{"bike_id":"6b2ec9ce-9a36-4fe4-acec-698114d5adaf","system_id":"levelo_inurba_marseille","lat":43.29536,"lon":5.3903,"is_reserved":false,"is_disabled":false,"rental_uris":{"android":"levelo://app?vid=6b2ec9ce-9a36-4fe4-acec-698114d5adaf","ios":"levelo://app?vid=6b2ec9ce-9a36-4fe4-acec-698114d5adaf"},"vehicle_type_id":"4","last_reported":1735153633,"current_range_meters":37600,"station_id":"ce4bh3p2rcd13ifvqdp0","pricing_plan_id":"cebpf4jnsgd1na2vs0mg"},{"bike_id":"40e32dd9-5102-4796-806f-d18bf978601c","system_id":"levelo_inurba_marseille","lat":43.30193,"lon":5.36577,"is_reserved":false,"is_disabled":false,"rental_uris":{"android":"levelo://app?vid=40e32dd9-5102-4796-806f-d18bf978601c","ios":"levelo://app?vid=40e32dd9-5102-4796-806f-d18bf978601c"},"vehicle_type_id":"4","last_reported":1735153633,"current_range_meters":20800,"station_id":"ce4bgrh2rcd13ifvqc8g","pricing_plan_id":"cebpf4jnsgd1na2vs0mg"},{"bike_id":"f5c0a149-3152-4173-942a-c65d4d7d496e","system_id":"levelo_inurba_marseille","lat":43.3053,"lon":5.36548,"is_reserved":false,"is_disabled":false,"rental_uris":{"android":"levelo://app?vid=f5c0a149-3152-4173-942a-c65d4d7d496e","ios":"levelo://app?vid=f5c0a149-3152-4173-942a-c65d4d7d496e"},"vehicle_type_id":"4","last_reported":1735153633,"current_range_meters":24000,"station_id":"ce4bgs12rcd13ifvqcag","pricing_plan_id":"cebpf4jnsgd1na2vs0mg"},{"bike_id":"d5d3d2c2-5b18-4b1e-a14e-2a877450ed25","system_id":"levelo_inurba_marseille","lat":43.32328,"lon":5.40619,"is_reserved":false,"is_disabled":false,"rental_uris":{"android":"levelo://app?vid=d5d3d2c2-5b18-4b1e-a14e-2a877450ed25","ios":"levelo://app?vid=d5d3d2c2-5b18-4b1e-a14e-2a877450ed25"},"vehicle_type_id":"4","last_reported":1735153633,"current_range_meters":34000,"station_id":"ce4bhq92rcd13ifvqhjg","pricing_plan_id":"cebpf4jnsgd1na2vs0mg"},{"bike_id":"903f257e-fcef-45f9-913f-d5beaa30d8b1","system_id":"levelo_inurba_marseille","lat":43.24168,"lon":5.36394,"is_reserved":false,"is_disabled":false,"rental_uris":{"android":"levelo://app?vid=903f257e-fcef-45f9-913f-d5beaa30d8b1","ios":"levelo://app?vid=903f257e-fcef-45f9-913f-d5beaa30d8b1"},"vehicle_type_id":"4","last_reported":1735153633,"current_range_meters":10800,"station_id":"cpo36qri1sfpv3e86is0","pricing_plan_id":"cebpf4jnsgd1na2vs0mg"},{"bike_id":"8c6f1d8b-f35d-43a1-8a80-2f6576f1f6c8","system_id":"levelo_inurba_marseille","lat":43.29901,"lon":5.38145,"is_reserved":false,"is_disabled":false,"rental_uris":{"android":"levelo://app?vid=8c6f1d8b-f35d-43a1-8a80-2f6576f1f6c8","ios":"levelo://app?vid=8c6f1d8b-f35d-43a1-8a80-2f6576f1f6c8"},"vehicle_type_id":"4","last_reported":1735153633,"current_range_meters":18800,"station_id":"ce4bgj12rcd13ifvqbc0","pricing_plan_id":"cebpf4jnsgd1na2vs0mg"},{"bike_id":"ad66ce9d-e2b2-4064-ae7f-fe87403c632b","system_id":"levelo_inurba_marseille","lat":43.23072,"lon":5.35499,"is_reserved":false,"is_disabled":false,"rental_uris":{"android":"levelo://app?vid=ad66ce9d-e2b2-4064-ae7f-fe87403c632b","ios":"levelo://app?vid=ad66ce9d-e2b2-4064-ae7f-fe87403c632b"},"vehicle_type_id":"4","last_reported":1735153633,"current_range_meters":32400,"station_id":"cpo3342slgdg3j2ifvpg","pricing_plan_id":"cebpf4jnsgd1na2vs0mg"},{"bike_id":"b76cea7e-5025-4e14-a8c7-eebf31292c4c","system_id":"levelo_inurba_marseille","lat":43.26067,"lon":5.39392,"is_reserved":false,"is_disabled":false,"rental_uris":{"android":"levelo://app?vid=b76cea7e-5025-4e14-a8c7-eebf31292c4c","ios":"levelo://app?vid=b76cea7e-5025-4e14-a8c7-eebf31292c4c"},"vehicle_type_id":"4","last_reported":1735153633,"current_range_meters":18000,"station_id":"ce4bhh92rcd13ifvqfj0","pricing_plan_id":"cebpf4jnsgd1na2vs0mg"},{"bike_id":"d55d74e9-1e47-49af-ac93-3822e51c970c","system_id":"levelo_inurba_marseille","lat":43.29583,"lon":5.36739,"is_reserved":false,"is_disabled":false,"rental_uris":{"android":"levelo://app?vid=d55d74e9-1e47-49af-ac93-3822e51c970c","ios":"levelo://app?vid=d55d74e9-1e47-49af-ac93-3822e51c970c"},"vehicle_type_id":"4","last_reported":1735153633,"current_range_meters":38400,"station_id":"ce4bgph2rcd13ifvqc2g","pricing_plan_id":"cebpf4jnsgd1na2vs0mg"},{"bike_id":"2a4d3781-2433-4cd5-b9ea-eba21f20a262","system_id":"levelo_inurba_marseille","lat":43.31121,"lon":5.37756,"is_reserved":false,"is_disabled":false,"rental_uris":{"android":"levelo://app?vid=2a4d3781-2433-4cd5-b9ea-eba21f20a262","ios":"levelo://app?vid=2a4d3781-2433-4cd5-b9ea-eba21f20a262"},"vehicle_type_id":"4","last_reported":1735153633,"current_range_meters":36400,"station_id":"ce4bgt92rcd13ifvqcg0","pricing_plan_id":"cebpf4jnsgd1na2vs0mg"},{"bike_id":"85d789bc-1620-42d9-96a0-d409b4a85f5c","system_id":"levelo_inurba_marseille","lat":43.29549,"lon":5.42272,"is_reserved":false,"is_disabled":false,"rental_uris":{"android":"levelo://app?vid=85d789bc-1620-42d9-96a0-d409b4a85f5c","ios":"levelo://app?vid=85d789bc-1620-42d9-96a0-d409b4a85f5c"},"vehicle_type_id":"4","last_reported":1735153633,"current_range_meters":27600,"station_id":"ce4bhph2rcd13ifvqhdg","pricing_plan_id":"cebpf4jnsgd1na2vs0mg"},{"bike_id":"d0533ccb-11ce-46dc-9cca-daa9f7a4985a","system_id":"levelo_inurba_marseille","lat":43.29557,"lon":5.42272,"is_reserved":false,"is_disabled":false,"rental_uris":{"android":"levelo://app?vid=d0533ccb-11ce-46dc-9cca-daa9f7a4985a","ios":"levelo://app?vid=d0533ccb-11ce-46dc-9cca-daa9f7a4985a"},"vehicle_type_id":"4","last_reported":1735153633,"current_range_meters":38800,"station_id":"ce4bhph2rcd13ifvqhdg","pricing_plan_id":"cebpf4jnsgd1na2vs0mg"},{"bike_id":"1c5c97c8-ca35-4c7a-8123-f5611c0aef26","system_id":"levelo_inurba_marseille","lat":43.29219,"lon":5.36068,"is_reserved":false,"is_disabled":false,"rental_uris":{"android":"levelo://app?vid=1c5c97c8-ca35-4c7a-8123-f5611c0aef26","ios":"levelo://app?vid=1c5c97c8-ca35-4c7a-8123-f5611c0aef26"},"vehicle_type_id":"4","last_reported":1735153633,"current_range_meters":38800,"station_id":"ce4bhbh2rcd13ifvqeqg","pricing_plan_id":"cebpf4jnsgd1na2vs0mg"},{"bike_id":"29eb3af6-9b8f-4f02-83ee-c26ba61c04d7","system_id":"levelo_inurba_marseille","lat":43.34149,"lon":5.409,"is_reserved":false,"is_disabled":false,"rental_uris":{"android":"levelo://app?vid=29eb3af6-9b8f-4f02-83ee-c26ba61c04d7","ios":"levelo://app?vid=29eb3af6-9b8f-4f02-83ee-c26ba61c04d7"},"vehicle_type_id":"4","last_reported":1735153633,"current_range_meters":22800,"station_id":"ce4bhqh2rcd13ifvqhlg","pricing_plan_id":"cebpf4jnsgd1na2vs0mg"},{"bike_id":"5d29fc56-dbb2-4006-96bc-27e181f8d4f5","system_id":"levelo_inurba_marseille","lat":43.29854,"lon":5.36271,"is_reserved":false,"is_disabled":false,"rental_uris":{"android":"levelo://app?vid=5d29fc56-dbb2-4006-96bc-27e181f8d4f5","ios":"levelo://app?vid=5d29fc56-dbb2-4006-96bc-27e181f8d4f5"},"vehicle_type_id":"4","last_reported":1735153633,"current_range_meters":30400,"station_id":"ce4bgpp2rcd13ifvqc3g","pricing_plan_id":"cebpf4jnsgd1na2vs0mg"},{"bike_id":"b32fb18a-c8a8-4404-98aa-9a585746a89d","system_id":"levelo_inurba_marseille","lat":43.32084,"lon":5.41555,"is_reserved":false,"is_disabled":false,"rental_uris":{"android":"levelo://app?vid=b32fb18a-c8a8-4404-98aa-9a585746a89d","ios":"levelo://app?vid=b32fb18a-c8a8-4404-98aa-9a585746a89d"},"vehicle_type_id":"4","last_reported":1735153633,"current_range_meters":36000,"station_id":"ce4bhq92rcd13ifvqhkg","pricing_plan_id":"cebpf4jnsgd1na2vs0mg"},{"bike_id":"353cf4bf-62f4-49e8-b2f4-5a6260c37422","system_id":"levelo_inurba_marseille","lat":43.29997,"lon":5.38475,"is_reserved":false,"is_disabled":false,"rental_uris":{"android":"levelo://app?vid=353cf4bf-62f4-49e8-b2f4-5a6260c37422","ios":"levelo://app?vid=353cf4bf-62f4-49e8-b2f4-5a6260c37422"},"vehicle_type_id":"4","last_reported":1735153633,"current_range_meters":39200,"station_id":"ce4bgj92rcd13ifvqbd0","pricing_plan_id":"cebpf4jnsgd1na2vs0mg"},{"bike_id":"249ae69f-0c4d-44b5-a674-a80b1a677100","system_id":"levelo_inurba_marseille","lat":43.23211,"lon":5.39901,"is_reserved":false,"is_disabled":false,"rental_uris":{"android":"levelo://app?vid=249ae69f-0c4d-44b5-a674-a80b1a677100","ios":"levelo://app?vid=249ae69f-0c4d-44b5-a674-a80b1a677100"},"vehicle_type_id":"4","last_reported":1735153633,"current_range_meters":15200,"station_id":"ce4bhn12rcd13ifvqgqg","pricing_plan_id":"cebpf4jnsgd1na2vs0mg"},{"bike_id":"7ca2e3d6-4ca3-4d99-b34e-9fb53337dde8","system_id":"levelo_inurba_marseille","lat":43.24162,"lon":5.36386,"is_reserved":false,"is_disabled":false,"rental_uris":{"android":"levelo://app?vid=7ca2e3d6-4ca3-4d99-b34e-9fb53337dde8","ios":"levelo://app?vid=7ca2e3d6-4ca3-4d99-b34e-9fb53337dde8"},"vehicle_type_id":"4","last_reported":1735153633,"current_range_meters":17200,"station_id":"cpo36qri1sfpv3e86is0","pricing_plan_id":"cebpf4jnsgd1na2vs0mg"},{"bike_id":"61b6d437-e950-46a2-8cbf-76c4bc393d6f","system_id":"levelo_inurba_marseille","lat":43.27085,"lon":5.42297,"is_reserved":false,"is_disabled":false,"rental_uris":{"android":"levelo://app?vid=61b6d437-e950-46a2-8cbf-76c4bc393d6f","ios":"levelo://app?vid=61b6d437-e950-46a2-8cbf-76c4bc393d6f"},"vehicle_type_id":"4","last_reported":1735153633,"current_range_meters":14400,"station_id":"ce4bhk92rcd13ifvqgb0","pricing_plan_id":"cebpf4jnsgd1na2vs0mg"},{"bike_id":"ee09bb5a-418e-4e4b-aa9d-02cb6f33df58","system_id":"levelo_inurba_marseille","lat":43.3021,"lon":5.39471,"is_reserved":false,"is_disabled":false,"rental_uris":{"android":"levelo://app?vid=ee09bb5a-418e-4e4b-aa9d-02cb6f33df58","ios":"levelo://app?vid=ee09bb5a-418e-4e4b-aa9d-02cb6f33df58"},"vehicle_type_id":"4","last_reported":1735153633,"current_range_meters":10800,"station_id":"ce4bh0p2rcd13ifvqd70","pricing_plan_id":"cebpf4jnsgd1na2vs0mg"},{"bike_id":"7ec3319e-e8cc-404b-a9a7-29fe820e2e42","system_id":"levelo_inurba_marseille","lat":43.26205,"lon":5.37445,"is_reserved":false,"is_disabled":false,"rental_uris":{"android":"levelo://app?vid=7ec3319e-e8cc-404b-a9a7-29fe820e2e42","ios":"levelo://app?vid=7ec3319e-e8cc-404b-a9a7-29fe820e2e42"},"vehicle_type_id":"4","last_reported":1735153633,"current_range_meters":24400,"station_id":"ce4bhgp2rcd13ifvqfc0","pricing_plan_id":"cebpf4jnsgd1na2vs0mg"},{"bike_id":"3c95ea0b-053a-4c01-af11-27d14bb38759","system_id":"levelo_inurba_marseille","lat":43.30557,"lon":5.36676,"is_reserved":false,"is_disabled":false,"rental_uris":{"android":"levelo://app?vid=3c95ea0b-053a-4c01-af11-27d14bb38759","ios":"levelo://app?vid=3c95ea0b-053a-4c01-af11-27d14bb38759"},"vehicle_type_id":"4","last_reported":1735153633,"current_range_meters":25600,"station_id":"ce4bgrp2rcd13ifvqc9g","pricing_plan_id":"cebpf4jnsgd1na2vs0mg"},{"bike_id":"23e25e04-dd29-4836-8ab5-f117edae0dca","system_id":"levelo_inurba_marseille","lat":43.3013,"lon":5.37403,"is_reserved":false,"is_disabled":false,"rental_uris":{"android":"levelo://app?vid=23e25e04-dd29-4836-8ab5-f117edae0dca","ios":"levelo://app?vid=23e25e04-dd29-4836-8ab5-f117edae0dca"},"vehicle_type_id":"4","last_reported":1735153633,"current_range_meters":39200,"station_id":"ce4bgs92rcd13ifvqcc0","pricing_plan_id":"cebpf4jnsgd1na2vs0mg"},{"bike_id":"2b32f2fd-c423-430c-8c50-af4c8ca4051b","system_id":"levelo_inurba_marseille","lat":43.30881,"lon":5.39642,"is_reserved":false,"is_disabled":false,"rental_uris":{"android":"levelo://app?vid=2b32f2fd-c423-430c-8c50-af4c8ca4051b","ios":"levelo://app?vid=2b32f2fd-c423-430c-8c50-af4c8ca4051b"},"vehicle_type_id":"4","last_reported":1735153633,"current_range_meters":30000,"station_id":"ce4bh012rcd13ifvqcv0","pricing_plan_id":"cebpf4jnsgd1na2vs0mg"},{"bike_id":"b83de0f4-e7b8-401e-80b8-8efd9a39b487","system_id":"levelo_inurba_marseille","lat":43.28432,"lon":5.39185,"is_reserved":false,"is_disabled":false,"rental_uris":{"android":"levelo://app?vid=b83de0f4-e7b8-401e-80b8-8efd9a39b487","ios":"levelo://app?vid=b83de0f4-e7b8-401e-80b8-8efd9a39b487"},"vehicle_type_id":"4","last_reported":1735153633,"current_range_meters":28000,"station_id":"ce4bhoh2rcd13ifvqh5g","pricing_plan_id":"cebpf4jnsgd1na2vs0mg"},{"bike_id":"40c0bad0-8626-4c9b-b59b-9fad04a61df9","system_id":"levelo_inurba_marseille","lat":43.2837,"lon":5.38645,"is_reserved":false,"is_disabled":false,"rental_uris":{"android":"levelo://app?vid=40c0bad0-8626-4c9b-b59b-9fad04a61df9","ios":"levelo://app?vid=40c0bad0-8626-4c9b-b59b-9fad04a61df9"},"vehicle_type_id":"4","last_reported":1735153633,"current_range_meters":38800,"station_id":"ce4bh492rcd13ifvqdvg","pricing_plan_id":"cebpf4jnsgd1na2vs0mg"},{"bike_id":"b991065a-6465-45e5-b550-5b8a145bbe8b","system_id":"levelo_inurba_marseille","lat":43.30545,"lon":5.38408,"is_reserved":false,"is_disabled":false,"rental_uris":{"android":"levelo://app?vid=b991065a-6465-45e5-b550-5b8a145bbe8b","ios":"levelo://app?vid=b991065a-6465-45e5-b550-5b8a145bbe8b"},"vehicle_type_id":"4","last_reported":1735153633,"current_range_meters":34800,"station_id":"ce4bgg92rcd13ifvqb30","pricing_plan_id":"cebpf4jnsgd1na2vs0mg"},{"bike_id":"23f223a7-cc44-4227-b5c8-9b31a8c11b36","system_id":"levelo_inurba_marseille","lat":43.32044,"lon":5.41553,"is_reserved":false,"is_disabled":false,"rental_uris":{"android":"levelo://app?vid=23f223a7-cc44-4227-b5c8-9b31a8c11b36","ios":"levelo://app?vid=23f223a7-cc44-4227-b5c8-9b31a8c11b36"},"vehicle_type_id":"4","last_reported":1735153633,"current_range_meters":29600,"station_id":"ce4bhq92rcd13ifvqhkg","pricing_plan_id":"cebpf4jnsgd1na2vs0mg"},{"bike_id":"bddd6665-1a58-43b3-a046-f348761f2b92","system_id":"levelo_inurba_marseille","lat":43.29026,"lon":5.38625,"is_reserved":false,"is_disabled":false,"rental_uris":{"android":"levelo://app?vid=bddd6665-1a58-43b3-a046-f348761f2b92","ios":"levelo://app?vid=bddd6665-1a58-43b3-a046-f348761f2b92"},"vehicle_type_id":"4","last_reported":1735153633,"current_range_meters":30000,"station_id":"ce4bh4p2rcd13ifvqe0g","pricing_plan_id":"cebpf4jnsgd1na2vs0mg"},{"bike_id":"e0e900c2-54ec-4c86-b19c-6bdbedf2d726","system_id":"levelo_inurba_marseille","lat":43.28496,"lon":5.38577,"is_reserved":false,"is_disabled":false,"rental_uris":{"android":"levelo://app?vid=e0e900c2-54ec-4c86-b19c-6bdbedf2d726","ios":"levelo://app?vid=e0e900c2-54ec-4c86-b19c-6bdbedf2d726"},"vehicle_type_id":"4","last_reported":1735153633,"current_range_meters":23200,"station_id":"ce4bh8p2rcd13ifvqeb0","pricing_plan_id":"cebpf4jnsgd1na2vs0mg"},{"bike_id":"19c0a0c0-9857-43fa-bca0-8d8e9d966de8","system_id":"levelo_inurba_marseille","lat":43.318923,"lon":5.407336,"is_reserved":false,"is_disabled":false,"rental_uris":{"android":"levelo://app?vid=19c0a0c0-9857-43fa-bca0-8d8e9d966de8","ios":"levelo://app?vid=19c0a0c0-9857-43fa-bca0-8d8e9d966de8"},"vehicle_type_id":"4","last_reported":1735153633,"current_range_meters":38800,"station_id":"ce4bhq12rcd13ifvqhig","pricing_plan_id":"cebpf4jnsgd1na2vs0mg"},{"bike_id":"fa7b6f51-07ff-4e1f-ba75-2880fb9ee1b2","system_id":"levelo_inurba_marseille","lat":43.2416,"lon":5.36402,"is_reserved":false,"is_disabled":false,"rental_uris":{"android":"levelo://app?vid=fa7b6f51-07ff-4e1f-ba75-2880fb9ee1b2","ios":"levelo://app?vid=fa7b6f51-07ff-4e1f-ba75-2880fb9ee1b2"},"vehicle_type_id":"4","last_reported":1735153633,"current_range_meters":30400,"station_id":"cpo36qri1sfpv3e86is0","pricing_plan_id":"cebpf4jnsgd1na2vs0mg"},{"bike_id":"9ff763ff-e414-4d0e-8bb9-b34d48217a3e","system_id":"levelo_inurba_marseille","lat":43.23185,"lon":5.39982,"is_reserved":false,"is_disabled":false,"rental_uris":{"android":"levelo://app?vid=9ff763ff-e414-4d0e-8bb9-b34d48217a3e","ios":"levelo://app?vid=9ff763ff-e414-4d0e-8bb9-b34d48217a3e"},"vehicle_type_id":"4","last_reported":1735153633,"current_range_meters":13600,"station_id":"ce4bhn12rcd13ifvqgqg","pricing_plan_id":"cebpf4jnsgd1na2vs0mg"},{"bike_id":"ee50f761-bbef-4b74-be18-015802b7cf0f","system_id":"levelo_inurba_marseille","lat":43.33119,"lon":5.39161,"is_reserved":false,"is_disabled":false,"rental_uris":{"android":"levelo://app?vid=ee50f761-bbef-4b74-be18-015802b7cf0f","ios":"levelo://app?vid=ee50f761-bbef-4b74-be18-015802b7cf0f"},"vehicle_type_id":"4","last_reported":1735153633,"current_range_meters":16400,"station_id":"","pricing_plan_id":"cebpf4jnsgd1na2vs0mg"},{"bike_id":"50f50bdd-bdce-4362-a157-c43af826c5ff","system_id":"levelo_inurba_marseille","lat":43.28073,"lon":5.39645,"is_reserved":false,"is_disabled":false,"rental_uris":{"android":"levelo://app?vid=50f50bdd-bdce-4362-a157-c43af826c5ff","ios":"levelo://app?vid=50f50bdd-bdce-4362-a157-c43af826c5ff"},"vehicle_type_id":"4","last_reported":1735153633,"current_range_meters":30800,"station_id":"ce4bho12rcd13ifvqh2g","pricing_plan_id":"cebpf4jnsgd1na2vs0mg"},{"bike_id":"b6dc9db8-cf3c-4b13-ab92-e0518ea0faf7","system_id":"levelo_inurba_marseille","lat":43.23191,"lon":5.39982,"is_reserved":false,"is_disabled":false,"rental_uris":{"android":"levelo://app?vid=b6dc9db8-cf3c-4b13-ab92-e0518ea0faf7","ios":"levelo://app?vid=b6dc9db8-cf3c-4b13-ab92-e0518ea0faf7"},"vehicle_type_id":"4","last_reported":1735153633,"current_range_meters":8800,"station_id":"ce4bhn12rcd13ifvqgqg","pricing_plan_id":"cebpf4jnsgd1na2vs0mg"},{"bike_id":"81bec969-1a90-43d9-83c6-f89e1596bc17","system_id":"levelo_inurba_marseille","lat":43.30162,"lon":5.37431,"is_reserved":false,"is_disabled":false,"rental_uris":{"android":"levelo://app?vid=81bec969-1a90-43d9-83c6-f89e1596bc17","ios":"levelo://app?vid=81bec969-1a90-43d9-83c6-f89e1596bc17"},"vehicle_type_id":"4","last_reported":1735153633,"current_range_meters":30000,"station_id":"ce4bgs92rcd13ifvqcc0","pricing_plan_id":"cebpf4jnsgd1na2vs0mg"},{"bike_id":"b81e8144-3fa1-44dd-804b-b934f9862d1d","system_id":"levelo_inurba_marseille","lat":43.29917,"lon":5.38135,"is_reserved":false,"is_disabled":false,"rental_uris":{"android":"levelo://app?vid=b81e8144-3fa1-44dd-804b-b934f9862d1d","ios":"levelo://app?vid=b81e8144-3fa1-44dd-804b-b934f9862d1d"},"vehicle_type_id":"4","last_reported":1735153633,"current_range_meters":38800,"station_id":"ce4bgj12rcd13ifvqbc0","pricing_plan_id":"cebpf4jnsgd1na2vs0mg"},{"bike_id":"6158cb83-2d77-4dc9-bbd7-a123e9b17c67","system_id":"levelo_inurba_marseille","lat":43.28565,"lon":5.39488,"is_reserved":false,"is_disabled":false,"rental_uris":{"android":"levelo://app?vid=6158cb83-2d77-4dc9-bbd7-a123e9b17c67","ios":"levelo://app?vid=6158cb83-2d77-4dc9-bbd7-a123e9b17c67"},"vehicle_type_id":"4","last_reported":1735153633,"current_range_meters":16400,"station_id":"ce4bh292rcd13ifvqdg0","pricing_plan_id":"cebpf4jnsgd1na2vs0mg"},{"bike_id":"a75bbc23-aa3f-44bd-8bd9-1b76f294eba0","system_id":"levelo_inurba_marseille","lat":43.28479,"lon":5.38572,"is_reserved":false,"is_disabled":false,"rental_uris":{"android":"levelo://app?vid=a75bbc23-aa3f-44bd-8bd9-1b76f294eba0","ios":"levelo://app?vid=a75bbc23-aa3f-44bd-8bd9-1b76f294eba0"},"vehicle_type_id":"4","last_reported":1735153633,"current_range_meters":36800,"station_id":"ce4bh8p2rcd13ifvqeb0","pricing_plan_id":"cebpf4jnsgd1na2vs0mg"},{"bike_id":"1f9a219f-6771-4547-a412-3c103ad15f6d","system_id":"levelo_inurba_marseille","lat":43.29265,"lon":5.36849,"is_reserved":false,"is_disabled":false,"rental_uris":{"android":"levelo://app?vid=1f9a219f-6771-4547-a412-3c103ad15f6d","ios":"levelo://app?vid=1f9a219f-6771-4547-a412-3c103ad15f6d"},"vehicle_type_id":"4","last_reported":1735153633,"current_range_meters":24800,"station_id":"ce4bhbp2rcd13ifvqesg","pricing_plan_id":"cebpf4jnsgd1na2vs0mg"},{"bike_id":"21f1959c-9397-4e64-a030-86a94f9a2a3e","system_id":"levelo_inurba_marseille","lat":43.30095,"lon":5.39084,"is_reserved":false,"is_disabled":false,"rental_uris":{"android":"levelo://app?vid=21f1959c-9397-4e64-a030-86a94f9a2a3e","ios":"levelo://app?vid=21f1959c-9397-4e64-a030-86a94f9a2a3e"},"vehicle_type_id":"4","last_reported":1735153633,"current_range_meters":28400,"station_id":"ce4bh192rcd13ifvqdb0","pricing_plan_id":"cebpf4jnsgd1na2vs0mg"},{"bike_id":"fcaf1022-b8ca-4e5c-a198-375c8e01b7f0","system_id":"levelo_inurba_marseille","lat":43.29159,"lon":5.37163,"is_reserved":false,"is_disabled":false,"rental_uris":{"android":"levelo://app?vid=fcaf1022-b8ca-4e5c-a198-375c8e01b7f0","ios":"levelo://app?vid=fcaf1022-b8ca-4e5c-a198-375c8e01b7f0"},"vehicle_type_id":"4","last_reported":1735153633,"current_range_meters":38800,"station_id":"ce4bha92rcd13ifvqeh0","pricing_plan_id":"cebpf4jnsgd1na2vs0mg"},{"bike_id":"d2f0bcd7-d8c1-4482-89b0-acb7039bc842","system_id":"levelo_inurba_marseille","lat":43.30132,"lon":5.39879,"is_reserved":false,"is_disabled":false,"rental_uris":{"android":"levelo://app?vid=d2f0bcd7-d8c1-4482-89b0-acb7039bc842","ios":"levelo://app?vid=d2f0bcd7-d8c1-4482-89b0-acb7039bc842"},"vehicle_type_id":"4","last_reported":1735153633,"current_range_meters":28400,"station_id":"ce4bh0h2rcd13ifvqd40","pricing_plan_id":"cebpf4jnsgd1na2vs0mg"},{"bike_id":"3c079412-698a-4ad7-872c-5c56e449290c","system_id":"levelo_inurba_marseille","lat":43.23143,"lon":5.43713,"is_reserved":false,"is_disabled":false,"rental_uris":{"android":"levelo://app?vid=3c079412-698a-4ad7-872c-5c56e449290c","ios":"levelo://app?vid=3c079412-698a-4ad7-872c-5c56e449290c"},"vehicle_type_id":"4","last_reported":1735153633,"current_range_meters":30400,"station_id":"ce4bhmp2rcd13ifvqgog","pricing_plan_id":"cebpf4jnsgd1na2vs0mg"},{"bike_id":"eb493c73-faad-4c01-b4aa-27ac99a1af59","system_id":"levelo_inurba_marseille","lat":43.29631,"lon":5.37172,"is_reserved":false,"is_disabled":false,"rental_uris":{"android":"levelo://app?vid=eb493c73-faad-4c01-b4aa-27ac99a1af59","ios":"levelo://app?vid=eb493c73-faad-4c01-b4aa-27ac99a1af59"},"vehicle_type_id":"4","last_reported":1735153633,"current_range_meters":38000,"station_id":"ce4bgnh2rcd13ifvqc0g","pricing_plan_id":"cebpf4jnsgd1na2vs0mg"},{"bike_id":"09898dd2-84ad-4911-a21d-d1f0823964b3","system_id":"levelo_inurba_marseille","lat":43.296174,"lon":5.377214,"is_reserved":false,"is_disabled":false,"rental_uris":{"android":"levelo://app?vid=09898dd2-84ad-4911-a21d-d1f0823964b3","ios":"levelo://app?vid=09898dd2-84ad-4911-a21d-d1f0823964b3"},"vehicle_type_id":"4","last_reported":1735153633,"current_range_meters":38800,"station_id":"ce4bgi92rcd13ifvqb90","pricing_plan_id":"cebpf4jnsgd1na2vs0mg"},{"bike_id":"d088e544-2e9a-4635-800d-80e17a6d547f","system_id":"levelo_inurba_marseille","lat":43.289803,"lon":5.400141,"is_reserved":false,"is_disabled":false,"rental_uris":{"android":"levelo://app?vid=d088e544-2e9a-4635-800d-80e17a6d547f","ios":"levelo://app?vid=d088e544-2e9a-4635-800d-80e17a6d547f"},"vehicle_type_id":"4","last_reported":1735153633,"current_range_meters":38800,"station_id":"ce4bh3h2rcd13ifvqdn0","pricing_plan_id":"cebpf4jnsgd1na2vs0mg"},{"bike_id":"7608f1ad-6069-4760-9820-c5af492fd707","system_id":"levelo_inurba_marseille","lat":43.29581,"lon":5.36765,"is_reserved":false,"is_disabled":false,"rental_uris":{"android":"levelo://app?vid=7608f1ad-6069-4760-9820-c5af492fd707","ios":"levelo://app?vid=7608f1ad-6069-4760-9820-c5af492fd707"},"vehicle_type_id":"4","last_reported":1735153633,"current_range_meters":38400,"station_id":"ce4bgph2rcd13ifvqc2g","pricing_plan_id":"cebpf4jnsgd1na2vs0mg"},{"bike_id":"47a54073-9beb-4283-915b-53362887b984","system_id":"levelo_inurba_marseille","lat":43.28906,"lon":5.38387,"is_reserved":false,"is_disabled":false,"rental_uris":{"android":"levelo://app?vid=47a54073-9beb-4283-915b-53362887b984","ios":"levelo://app?vid=47a54073-9beb-4283-915b-53362887b984"},"vehicle_type_id":"4","last_reported":1735153633,"current_range_meters":30000,"station_id":"ce4bh612rcd13ifvqe6g","pricing_plan_id":"cebpf4jnsgd1na2vs0mg"},{"bike_id":"b5065ded-fa50-4490-ba1a-d9454529924e","system_id":"levelo_inurba_marseille","lat":43.30894,"lon":5.39637,"is_reserved":false,"is_disabled":false,"rental_uris":{"android":"levelo://app?vid=b5065ded-fa50-4490-ba1a-d9454529924e","ios":"levelo://app?vid=b5065ded-fa50-4490-ba1a-d9454529924e"},"vehicle_type_id":"4","last_reported":1735153633,"current_range_meters":38800,"station_id":"ce4bh012rcd13ifvqcv0","pricing_plan_id":"cebpf4jnsgd1na2vs0mg"},{"bike_id":"2ed0c379-21a4-416f-95e6-c6a4adae152d","system_id":"levelo_inurba_marseille","lat":43.29931,"lon":5.38159,"is_reserved":false,"is_disabled":false,"rental_uris":{"android":"levelo://app?vid=2ed0c379-21a4-416f-95e6-c6a4adae152d","ios":"levelo://app?vid=2ed0c379-21a4-416f-95e6-c6a4adae152d"},"vehicle_type_id":"4","last_reported":1735153633,"current_range_meters":30400,"station_id":"ce4bgj12rcd13ifvqbc0","pricing_plan_id":"cebpf4jnsgd1na2vs0mg"},{"bike_id":"6fc39219-982d-4feb-9b3b-e1ba4db40afe","system_id":"levelo_inurba_marseille","lat":43.29607,"lon":5.38076,"is_reserved":false,"is_disabled":false,"rental_uris":{"android":"levelo://app?vid=6fc39219-982d-4feb-9b3b-e1ba4db40afe","ios":"levelo://app?vid=6fc39219-982d-4feb-9b3b-e1ba4db40afe"},"vehicle_type_id":"4","last_reported":1735153633,"current_range_meters":38800,"station_id":"ce4bgl12rcd13ifvqbo0","pricing_plan_id":"cebpf4jnsgd1na2vs0mg"},{"bike_id":"e73e6057-e6e9-407b-a17e-f4e119a96aba","system_id":"levelo_inurba_marseille","lat":43.32114,"lon":5.36769,"is_reserved":false,"is_disabled":false,"rental_uris":{"android":"levelo://app?vid=e73e6057-e6e9-407b-a17e-f4e119a96aba","ios":"levelo://app?vid=e73e6057-e6e9-407b-a17e-f4e119a96aba"},"vehicle_type_id":"4","last_reported":1735153633,"current_range_meters":30000,"station_id":"ce4bhrh2rcd13ifvqhug","pricing_plan_id":"cebpf4jnsgd1na2vs0mg"},{"bike_id":"565d5cd4-03a8-460c-93ea-b6f10798ede0","system_id":"levelo_inurba_marseille","lat":43.29837,"lon":5.36271,"is_reserved":false,"is_disabled":false,"rental_uris":{"android":"levelo://app?vid=565d5cd4-03a8-460c-93ea-b6f10798ede0","ios":"levelo://app?vid=565d5cd4-03a8-460c-93ea-b6f10798ede0"},"vehicle_type_id":"4","last_reported":1735153633,"current_range_meters":12000,"station_id":"ce4bgpp2rcd13ifvqc3g","pricing_plan_id":"cebpf4jnsgd1na2vs0mg"},{"bike_id":"5ea46888-81a7-43b6-94b8-06274ed4d4cf","system_id":"levelo_inurba_marseille","lat":43.30309,"lon":5.36908,"is_reserved":false,"is_disabled":true,"rental_uris":{"android":"levelo://app?vid=5ea46888-81a7-43b6-94b8-06274ed4d4cf","ios":"levelo://app?vid=5ea46888-81a7-43b6-94b8-06274ed4d4cf"},"vehicle_type_id":"4","last_reported":1735153633,"current_range_meters":38800,"station_id":"ce4bgqh2rcd13ifvqc5g","pricing_plan_id":"cebpf4jnsgd1na2vs0mg"},{"bike_id":"7229805d-820e-4381-aa07-8ea31958c18a","system_id":"levelo_inurba_marseille","lat":43.30881,"lon":5.39635,"is_reserved":false,"is_disabled":false,"rental_uris":{"android":"levelo://app?vid=7229805d-820e-4381-aa07-8ea31958c18a","ios":"levelo://app?vid=7229805d-820e-4381-aa07-8ea31958c18a"},"vehicle_type_id":"4","last_reported":1735153633,"current_range_meters":25600,"station_id":"ce4bh012rcd13ifvqcv0","pricing_plan_id":"cebpf4jnsgd1na2vs0mg"},{"bike_id":"3d66a438-9084-4808-9409-cb8bd53b2077","system_id":"levelo_inurba_marseille","lat":43.284373,"lon":5.3918,"is_reserved":false,"is_disabled":false,"rental_uris":{"android":"levelo://app?vid=3d66a438-9084-4808-9409-cb8bd53b2077","ios":"levelo://app?vid=3d66a438-9084-4808-9409-cb8bd53b2077"},"vehicle_type_id":"4","last_reported":1735153633,"current_range_meters":37600,"station_id":"ce4bhoh2rcd13ifvqh5g","pricing_plan_id":"cebpf4jnsgd1na2vs0mg"},{"bike_id":"76bdf9c0-a3eb-452e-a555-b96478b69568","system_id":"levelo_inurba_marseille","lat":43.23187,"lon":5.35552,"is_reserved":false,"is_disabled":false,"rental_uris":{"android":"levelo://app?vid=76bdf9c0-a3eb-452e-a555-b96478b69568","ios":"levelo://app?vid=76bdf9c0-a3eb-452e-a555-b96478b69568"},"vehicle_type_id":"4","last_reported":1735153633,"current_range_meters":8400,"station_id":"ce4bhu92rcd13ifvqi70","pricing_plan_id":"cebpf4jnsgd1na2vs0mg"},{"bike_id":"fa4aab2c-881d-426e-9895-68cab6a2f78f","system_id":"levelo_inurba_marseille","lat":43.3204,"lon":5.41561,"is_reserved":false,"is_disabled":false,"rental_uris":{"android":"levelo://app?vid=fa4aab2c-881d-426e-9895-68cab6a2f78f","ios":"levelo://app?vid=fa4aab2c-881d-426e-9895-68cab6a2f78f"},"vehicle_type_id":"4","last_reported":1735153633,"current_range_meters":8000,"station_id":"ce4bhq92rcd13ifvqhkg","pricing_plan_id":"cebpf4jnsgd1na2vs0mg"},{"bike_id":"2259961a-ddfe-4241-9785-0bdb001ca539","system_id":"levelo_inurba_marseille","lat":43.30891,"lon":5.37198,"is_reserved":false,"is_disabled":false,"rental_uris":{"android":"levelo://app?vid=2259961a-ddfe-4241-9785-0bdb001ca539","ios":"levelo://app?vid=2259961a-ddfe-4241-9785-0bdb001ca539"},"vehicle_type_id":"4","last_reported":1735153633,"current_range_meters":38000,"station_id":"ce4bguh2rcd13ifvqckg","pricing_plan_id":"cebpf4jnsgd1na2vs0mg"},{"bike_id":"e3055757-4e5c-471b-bc49-10de19223f16","system_id":"levelo_inurba_marseille","lat":43.32051,"lon":5.41578,"is_reserved":false,"is_disabled":false,"rental_uris":{"android":"levelo://app?vid=e3055757-4e5c-471b-bc49-10de19223f16","ios":"levelo://app?vid=e3055757-4e5c-471b-bc49-10de19223f16"},"vehicle_type_id":"4","last_reported":1735153633,"current_range_meters":38800,"station_id":"ce4bhq92rcd13ifvqhkg","pricing_plan_id":"cebpf4jnsgd1na2vs0mg"},{"bike_id":"dd2cd180-715a-4a0e-b792-90277756c339","system_id":"levelo_inurba_marseille","lat":43.30221,"lon":5.39478,"is_reserved":false,"is_disabled":true,"rental_uris":{"android":"levelo://app?vid=dd2cd180-715a-4a0e-b792-90277756c339","ios":"levelo://app?vid=dd2cd180-715a-4a0e-b792-90277756c339"},"vehicle_type_id":"4","last_reported":1735153633,"current_range_meters":6400,"station_id":"ce4bh0p2rcd13ifvqd70","pricing_plan_id":"cebpf4jnsgd1na2vs0mg"},{"bike_id":"2d6fd443-b22c-4c7f-b10d-c55270ef2355","system_id":"levelo_inurba_marseille","lat":43.291693,"lon":5.371594,"is_reserved":false,"is_disabled":false,"rental_uris":{"android":"levelo://app?vid=2d6fd443-b22c-4c7f-b10d-c55270ef2355","ios":"levelo://app?vid=2d6fd443-b22c-4c7f-b10d-c55270ef2355"},"vehicle_type_id":"4","last_reported":1735153633,"current_range_meters":16400,"station_id":"ce4bha92rcd13ifvqeh0","pricing_plan_id":"cebpf4jnsgd1na2vs0mg"},{"bike_id":"3a580331-9372-4bb5-b733-a8f2ad942a85","system_id":"levelo_inurba_marseille","lat":43.30208,"lon":5.39446,"is_reserved":false,"is_disabled":false,"rental_uris":{"android":"levelo://app?vid=3a580331-9372-4bb5-b733-a8f2ad942a85","ios":"levelo://app?vid=3a580331-9372-4bb5-b733-a8f2ad942a85"},"vehicle_type_id":"4","last_reported":1735153633,"current_range_meters":29600,"station_id":"ce4bh0p2rcd13ifvqd70","pricing_plan_id":"cebpf4jnsgd1na2vs0mg"},{"bike_id":"6a274b0b-6334-4b5f-bcb1-6735639f1869","system_id":"levelo_inurba_marseille","lat":43.30194,"lon":5.36613,"is_reserved":false,"is_disabled":false,"rental_uris":{"android":"levelo://app?vid=6a274b0b-6334-4b5f-bcb1-6735639f1869","ios":"levelo://app?vid=6a274b0b-6334-4b5f-bcb1-6735639f1869"},"vehicle_type_id":"4","last_reported":1735153633,"current_range_meters":39200,"station_id":"ce4bgrh2rcd13ifvqc8g","pricing_plan_id":"cebpf4jnsgd1na2vs0mg"},{"bike_id":"50e9988d-8c66-43a7-82cb-9818dcb38114","system_id":"levelo_inurba_marseille","lat":43.30427,"lon":5.39751,"is_reserved":false,"is_disabled":false,"rental_uris":{"android":"levelo://app?vid=50e9988d-8c66-43a7-82cb-9818dcb38114","ios":"levelo://app?vid=50e9988d-8c66-43a7-82cb-9818dcb38114"},"vehicle_type_id":"4","last_reported":1735153633,"current_range_meters":38800,"station_id":"ce4bh092rcd13ifvqd20","pricing_plan_id":"cebpf4jnsgd1na2vs0mg"},{"bike_id":"7910ee8e-4f91-48af-a0cd-0a6dd58aa0f1","system_id":"levelo_inurba_marseille","lat":43.3133,"lon":5.39696,"is_reserved":false,"is_disabled":false,"rental_uris":{"android":"levelo://app?vid=7910ee8e-4f91-48af-a0cd-0a6dd58aa0f1","ios":"levelo://app?vid=7910ee8e-4f91-48af-a0cd-0a6dd58aa0f1"},"vehicle_type_id":"4","last_reported":1735153633,"current_range_meters":38800,"station_id":"ce4bgvp2rcd13ifvqcu0","pricing_plan_id":"cebpf4jnsgd1na2vs0mg"},{"bike_id":"15bbec24-7186-42cd-b0e0-aa9b8e89e04a","system_id":"levelo_inurba_marseille","lat":43.30306,"lon":5.36896,"is_reserved":false,"is_disabled":false,"rental_uris":{"android":"levelo://app?vid=15bbec24-7186-42cd-b0e0-aa9b8e89e04a","ios":"levelo://app?vid=15bbec24-7186-42cd-b0e0-aa9b8e89e04a"},"vehicle_type_id":"4","last_reported":1735153633,"current_range_meters":37600,"station_id":"ce4bgqh2rcd13ifvqc5g","pricing_plan_id":"cebpf4jnsgd1na2vs0mg"},{"bike_id":"dad6db58-f5bc-4da2-b0b4-3d5d1002166b","system_id":"levelo_inurba_marseille","lat":43.32112,"lon":5.36774,"is_reserved":false,"is_disabled":false,"rental_uris":{"android":"levelo://app?vid=dad6db58-f5bc-4da2-b0b4-3d5d1002166b","ios":"levelo://app?vid=dad6db58-f5bc-4da2-b0b4-3d5d1002166b"},"vehicle_type_id":"4","last_reported":1735153633,"current_range_meters":26000,"station_id":"ce4bhrh2rcd13ifvqhug","pricing_plan_id":"cebpf4jnsgd1na2vs0mg"},{"bike_id":"d215e6a3-2dbb-4240-82c4-dbdd5ce5595f","system_id":"levelo_inurba_marseille","lat":43.29911,"lon":5.38155,"is_reserved":false,"is_disabled":false,"rental_uris":{"android":"levelo://app?vid=d215e6a3-2dbb-4240-82c4-dbdd5ce5595f","ios":"levelo://app?vid=d215e6a3-2dbb-4240-82c4-dbdd5ce5595f"},"vehicle_type_id":"4","last_reported":1735153633,"current_range_meters":38800,"station_id":"ce4bgj12rcd13ifvqbc0","pricing_plan_id":"cebpf4jnsgd1na2vs0mg"},{"bike_id":"5288de5a-7b5d-49f6-a273-76e383ab7ff0","system_id":"levelo_inurba_marseille","lat":43.30315,"lon":5.39205,"is_reserved":false,"is_disabled":false,"rental_uris":{"android":"levelo://app?vid=5288de5a-7b5d-49f6-a273-76e383ab7ff0","ios":"levelo://app?vid=5288de5a-7b5d-49f6-a273-76e383ab7ff0"},"vehicle_type_id":"4","last_reported":1735153633,"current_range_meters":19600,"station_id":"ce4bgkh2rcd13ifvqbk0","pricing_plan_id":"cebpf4jnsgd1na2vs0mg"},{"bike_id":"bb9b563a-45f8-4329-8f3c-a50a095982e4","system_id":"levelo_inurba_marseille","lat":43.29907,"lon":5.3814,"is_reserved":false,"is_disabled":false,"rental_uris":{"android":"levelo://app?vid=bb9b563a-45f8-4329-8f3c-a50a095982e4","ios":"levelo://app?vid=bb9b563a-45f8-4329-8f3c-a50a095982e4"},"vehicle_type_id":"4","last_reported":1735153633,"current_range_meters":38800,"station_id":"ce4bgj12rcd13ifvqbc0","pricing_plan_id":"cebpf4jnsgd1na2vs0mg"},{"bike_id":"c880705e-1b0a-4ec8-9ef6-ece26fe220cc","system_id":"levelo_inurba_marseille","lat":43.30888,"lon":5.37188,"is_reserved":false,"is_disabled":false,"rental_uris":{"android":"levelo://app?vid=c880705e-1b0a-4ec8-9ef6-ece26fe220cc","ios":"levelo://app?vid=c880705e-1b0a-4ec8-9ef6-ece26fe220cc"},"vehicle_type_id":"4","last_reported":1735153633,"current_range_meters":34800,"station_id":"ce4bguh2rcd13ifvqckg","pricing_plan_id":"cebpf4jnsgd1na2vs0mg"},{"bike_id":"782d72ba-77f2-401b-815a-c2f5c4af0e33","system_id":"levelo_inurba_marseille","lat":43.29573,"lon":5.39989,"is_reserved":false,"is_disabled":false,"rental_uris":{"android":"levelo://app?vid=782d72ba-77f2-401b-815a-c2f5c4af0e33","ios":"levelo://app?vid=782d72ba-77f2-401b-815a-c2f5c4af0e33"},"vehicle_type_id":"4","last_reported":1735153633,"current_range_meters":8400,"station_id":"ce4bh312rcd13ifvqdj0","pricing_plan_id":"cebpf4jnsgd1na2vs0mg"},{"bike_id":"7a437b8a-6fc7-43cf-8f4d-686b538e40b6","system_id":"levelo_inurba_marseille","lat":43.30639,"lon":5.40057,"is_reserved":false,"is_disabled":false,"rental_uris":{"android":"levelo://app?vid=7a437b8a-6fc7-43cf-8f4d-686b538e40b6","ios":"levelo://app?vid=7a437b8a-6fc7-43cf-8f4d-686b538e40b6"},"vehicle_type_id":"4","last_reported":1735153633,"current_range_meters":38800,"station_id":"ce4bh112rcd13ifvqda0","pricing_plan_id":"cebpf4jnsgd1na2vs0mg"},{"bike_id":"d73ec0a9-d109-43b4-becb-9dca2330fd90","system_id":"levelo_inurba_marseille","lat":43.25576,"lon":5.38221,"is_reserved":false,"is_disabled":false,"rental_uris":{"android":"levelo://app?vid=d73ec0a9-d109-43b4-becb-9dca2330fd90","ios":"levelo://app?vid=d73ec0a9-d109-43b4-becb-9dca2330fd90"},"vehicle_type_id":"4","last_reported":1735153633,"current_range_meters":19200,"station_id":"ce4bhih2rcd13ifvqfs0","pricing_plan_id":"cebpf4jnsgd1na2vs0mg"},{"bike_id":"38041b21-b436-460d-ac8d-2e495fb18686","system_id":"levelo_inurba_marseille","lat":43.28517,"lon":5.38423,"is_reserved":false,"is_disabled":false,"rental_uris":{"android":"levelo://app?vid=38041b21-b436-460d-ac8d-2e495fb18686","ios":"levelo://app?vid=38041b21-b436-460d-ac8d-2e495fb18686"},"vehicle_type_id":"4","last_reported":1735153633,"current_range_meters":36400,"station_id":"ce4bh512rcd13ifvqe3g","pricing_plan_id":"cebpf4jnsgd1na2vs0mg"},{"bike_id":"9edf034e-2879-4003-9a8c-1c31ecac6d1f","system_id":"levelo_inurba_marseille","lat":43.30797,"lon":5.43517,"is_reserved":false,"is_disabled":false,"rental_uris":{"android":"levelo://app?vid=9edf034e-2879-4003-9a8c-1c31ecac6d1f","ios":"levelo://app?vid=9edf034e-2879-4003-9a8c-1c31ecac6d1f"},"vehicle_type_id":"4","last_reported":1735153633,"current_range_meters":38800,"station_id":"ce4bhph2rcd13ifvqheg","pricing_plan_id":"cebpf4jnsgd1na2vs0mg"},{"bike_id":"1866340a-45b4-4bd2-ac73-392a4ecb2e72","system_id":"levelo_inurba_marseille","lat":43.29847,"lon":5.36272,"is_reserved":false,"is_disabled":false,"rental_uris":{"android":"levelo://app?vid=1866340a-45b4-4bd2-ac73-392a4ecb2e72","ios":"levelo://app?vid=1866340a-45b4-4bd2-ac73-392a4ecb2e72"},"vehicle_type_id":"4","last_reported":1735153633,"current_range_meters":39200,"station_id":"ce4bgpp2rcd13ifvqc3g","pricing_plan_id":"cebpf4jnsgd1na2vs0mg"},{"bike_id":"356fdf04-5389-4dea-9842-bb9771f47806","system_id":"levelo_inurba_marseille","lat":43.29612,"lon":5.37725,"is_reserved":false,"is_disabled":false,"rental_uris":{"android":"levelo://app?vid=356fdf04-5389-4dea-9842-bb9771f47806","ios":"levelo://app?vid=356fdf04-5389-4dea-9842-bb9771f47806"},"vehicle_type_id":"4","last_reported":1735153633,"current_range_meters":38800,"station_id":"ce4bgi92rcd13ifvqb90","pricing_plan_id":"cebpf4jnsgd1na2vs0mg"},{"bike_id":"46b95399-9dd0-4961-99e3-6dd64174c307","system_id":"levelo_inurba_marseille","lat":43.28705,"lon":5.37393,"is_reserved":false,"is_disabled":false,"rental_uris":{"android":"levelo://app?vid=46b95399-9dd0-4961-99e3-6dd64174c307","ios":"levelo://app?vid=46b95399-9dd0-4961-99e3-6dd64174c307"},"vehicle_type_id":"4","last_reported":1735153633,"current_range_meters":38800,"station_id":"ce4bh3p2rcd13ifvqdq0","pricing_plan_id":"cebpf4jnsgd1na2vs0mg"},{"bike_id":"a4662aba-26fa-4360-9dcc-7f1d2500cd3b","system_id":"levelo_inurba_marseille","lat":43.29028,"lon":5.38635,"is_reserved":false,"is_disabled":false,"rental_uris":{"android":"levelo://app?vid=a4662aba-26fa-4360-9dcc-7f1d2500cd3b","ios":"levelo://app?vid=a4662aba-26fa-4360-9dcc-7f1d2500cd3b"},"vehicle_type_id":"4","last_reported":1735153633,"current_range_meters":37600,"station_id":"ce4bh4p2rcd13ifvqe0g","pricing_plan_id":"cebpf4jnsgd1na2vs0mg"},{"bike_id":"ff152d6a-b6bc-406b-998e-dbf3ad51a72e","system_id":"levelo_inurba_marseille","lat":43.25585,"lon":5.38234,"is_reserved":false,"is_disabled":false,"rental_uris":{"android":"levelo://app?vid=ff152d6a-b6bc-406b-998e-dbf3ad51a72e","ios":"levelo://app?vid=ff152d6a-b6bc-406b-998e-dbf3ad51a72e"},"vehicle_type_id":"4","last_reported":1735153633,"current_range_meters":38000,"station_id":"ce4bhih2rcd13ifvqfs0","pricing_plan_id":"cebpf4jnsgd1na2vs0mg"},{"bike_id":"836d944f-6d75-4c17-b70a-d071158594dd","system_id":"levelo_inurba_marseille","lat":43.274412,"lon":5.393929,"is_reserved":false,"is_disabled":false,"rental_uris":{"android":"levelo://app?vid=836d944f-6d75-4c17-b70a-d071158594dd","ios":"levelo://app?vid=836d944f-6d75-4c17-b70a-d071158594dd"},"vehicle_type_id":"4","last_reported":1735153633,"current_range_meters":28800,"station_id":"ce4bhdp2rcd13ifvqf20","pricing_plan_id":"cebpf4jnsgd1na2vs0mg"},{"bike_id":"2fff29bb-7992-489e-beef-77aa63855005","system_id":"levelo_inurba_marseille","lat":43.286992,"lon":5.399946,"is_reserved":false,"is_disabled":false,"rental_uris":{"android":"levelo://app?vid=2fff29bb-7992-489e-beef-77aa63855005","ios":"levelo://app?vid=2fff29bb-7992-489e-beef-77aa63855005"},"vehicle_type_id":"4","last_reported":1735153633,"current_range_meters":35600,"station_id":"ce4bho92rcd13ifvqh3g","pricing_plan_id":"cebpf4jnsgd1na2vs0mg"},{"bike_id":"13c39096-92de-47dd-a9ee-5b5cda0c5bbc","system_id":"levelo_inurba_marseille","lat":43.24646,"lon":5.38905,"is_reserved":false,"is_disabled":false,"rental_uris":{"android":"levelo://app?vid=13c39096-92de-47dd-a9ee-5b5cda0c5bbc","ios":"levelo://app?vid=13c39096-92de-47dd-a9ee-5b5cda0c5bbc"},"vehicle_type_id":"4","last_reported":1735153633,"current_range_meters":25600,"station_id":"ce4bhg12rcd13ifvqf60","pricing_plan_id":"cebpf4jnsgd1na2vs0mg"},{"bike_id":"1107b56a-98a5-4a01-8449-9eba086fee5a","system_id":"levelo_inurba_marseille","lat":43.29062,"lon":5.39917,"is_reserved":false,"is_disabled":false,"rental_uris":{"android":"levelo://app?vid=1107b56a-98a5-4a01-8449-9eba086fee5a","ios":"levelo://app?vid=1107b56a-98a5-4a01-8449-9eba086fee5a"},"vehicle_type_id":"4","last_reported":1735153633,"current_range_meters":20800,"station_id":"ce4bh392rcd13ifvqdm0","pricing_plan_id":"cebpf4jnsgd1na2vs0mg"},{"bike_id":"c828ec64-3a4b-4b42-a2cd-7387cc8bea43","system_id":"levelo_inurba_marseille","lat":43.28865,"lon":5.35832,"is_reserved":false,"is_disabled":false,"rental_uris":{"android":"levelo://app?vid=c828ec64-3a4b-4b42-a2cd-7387cc8bea43","ios":"levelo://app?vid=c828ec64-3a4b-4b42-a2cd-7387cc8bea43"},"vehicle_type_id":"4","last_reported":1735153633,"current_range_meters":37600,"station_id":"ce4bhb12rcd13ifvqem0","pricing_plan_id":"cebpf4jnsgd1na2vs0mg"},{"bike_id":"4e4277ec-b79e-43a1-bae0-d0f951c20956","system_id":"levelo_inurba_marseille","lat":43.29796,"lon":5.39345,"is_reserved":false,"is_disabled":false,"rental_uris":{"android":"levelo://app?vid=4e4277ec-b79e-43a1-bae0-d0f951c20956","ios":"levelo://app?vid=4e4277ec-b79e-43a1-bae0-d0f951c20956"},"vehicle_type_id":"4","last_reported":1735153633,"current_range_meters":38800,"station_id":"chh1huq6cuj3fo74tm60","pricing_plan_id":"cebpf4jnsgd1na2vs0mg"},{"bike_id":"6f68edfd-fb24-4919-b968-971a44d10505","system_id":"levelo_inurba_marseille","lat":43.337286,"lon":5.391871,"is_reserved":false,"is_disabled":false,"rental_uris":{"android":"levelo://app?vid=6f68edfd-fb24-4919-b968-971a44d10505","ios":"levelo://app?vid=6f68edfd-fb24-4919-b968-971a44d10505"},"vehicle_type_id":"4","last_reported":1735153633,"current_range_meters":38000,"station_id":"ce4bhr92rcd13ifvqhsg","pricing_plan_id":"cebpf4jnsgd1na2vs0mg"},{"bike_id":"cc21b185-4d4e-4a3b-8a8d-df98ce3e413b","system_id":"levelo_inurba_marseille","lat":43.30639,"lon":5.40086,"is_reserved":false,"is_disabled":false,"rental_uris":{"android":"levelo://app?vid=cc21b185-4d4e-4a3b-8a8d-df98ce3e413b","ios":"levelo://app?vid=cc21b185-4d4e-4a3b-8a8d-df98ce3e413b"},"vehicle_type_id":"4","last_reported":1735153633,"current_range_meters":28800,"station_id":"ce4bh112rcd13ifvqda0","pricing_plan_id":"cebpf4jnsgd1na2vs0mg"},{"bike_id":"89503b09-225c-4fee-888a-fcd103a1de8e","system_id":"levelo_inurba_marseille","lat":43.295833,"lon":5.375176,"is_reserved":false,"is_disabled":false,"rental_uris":{"android":"levelo://app?vid=89503b09-225c-4fee-888a-fcd103a1de8e","ios":"levelo://app?vid=89503b09-225c-4fee-888a-fcd103a1de8e"},"vehicle_type_id":"4","last_reported":1735153633,"current_range_meters":33200,"station_id":"ce4bgh92rcd13ifvqb50","pricing_plan_id":"cebpf4jnsgd1na2vs0mg"},{"bike_id":"081617f2-352d-433d-abf2-e1c0c70491b7","system_id":"levelo_inurba_marseille","lat":43.27326,"lon":5.391,"is_reserved":false,"is_disabled":false,"rental_uris":{"android":"levelo://app?vid=081617f2-352d-433d-abf2-e1c0c70491b7","ios":"levelo://app?vid=081617f2-352d-433d-abf2-e1c0c70491b7"},"vehicle_type_id":"4","last_reported":1735153633,"current_range_meters":38800,"station_id":"ce4bhgp2rcd13ifvqfe0","pricing_plan_id":"cebpf4jnsgd1na2vs0mg"},{"bike_id":"5608df94-b66e-460e-9f45-682a8f36b500","system_id":"levelo_inurba_marseille","lat":43.26931,"lon":5.389216,"is_reserved":false,"is_disabled":false,"rental_uris":{"android":"levelo://app?vid=5608df94-b66e-460e-9f45-682a8f36b500","ios":"levelo://app?vid=5608df94-b66e-460e-9f45-682a8f36b500"},"vehicle_type_id":"4","last_reported":1735153633,"current_range_meters":38800,"station_id":"ce4bhhh2rcd13ifvqfl0","pricing_plan_id":"cebpf4jnsgd1na2vs0mg"},{"bike_id":"4e6d0ca2-6374-490a-b48e-6cba90785a4f","system_id":"levelo_inurba_marseille","lat":43.24645,"lon":5.38896,"is_reserved":false,"is_disabled":false,"rental_uris":{"android":"levelo://app?vid=4e6d0ca2-6374-490a-b48e-6cba90785a4f","ios":"levelo://app?vid=4e6d0ca2-6374-490a-b48e-6cba90785a4f"},"vehicle_type_id":"4","last_reported":1735153633,"current_range_meters":16000,"station_id":"ce4bhg12rcd13ifvqf60","pricing_plan_id":"cebpf4jnsgd1na2vs0mg"},{"bike_id":"d152c0c4-a548-4726-8ce7-ac4c2324948b","system_id":"levelo_inurba_marseille","lat":43.296249,"lon":5.37166,"is_reserved":false,"is_disabled":false,"rental_uris":{"android":"levelo://app?vid=d152c0c4-a548-4726-8ce7-ac4c2324948b","ios":"levelo://app?vid=d152c0c4-a548-4726-8ce7-ac4c2324948b"},"vehicle_type_id":"4","last_reported":1735153633,"current_range_meters":20400,"station_id":"ce4bgnh2rcd13ifvqc0g","pricing_plan_id":"cebpf4jnsgd1na2vs0mg"},{"bike_id":"cffdb5d9-706d-4270-8144-29c891a5788a","system_id":"levelo_inurba_marseille","lat":43.26214,"lon":5.42125,"is_reserved":false,"is_disabled":false,"rental_uris":{"android":"levelo://app?vid=cffdb5d9-706d-4270-8144-29c891a5788a","ios":"levelo://app?vid=cffdb5d9-706d-4270-8144-29c891a5788a"},"vehicle_type_id":"4","last_reported":1735153633,"current_range_meters":8800,"station_id":"","pricing_plan_id":"cebpf4jnsgd1na2vs0mg"},{"bike_id":"963b50d8-757b-4c39-84ed-9fb9fa9d8d9e","system_id":"levelo_inurba_marseille","lat":43.29236,"lon":5.36053,"is_reserved":false,"is_disabled":false,"rental_uris":{"android":"levelo://app?vid=963b50d8-757b-4c39-84ed-9fb9fa9d8d9e","ios":"levelo://app?vid=963b50d8-757b-4c39-84ed-9fb9fa9d8d9e"},"vehicle_type_id":"4","last_reported":1735153633,"current_range_meters":31200,"station_id":"ce4bhbh2rcd13ifvqeqg","pricing_plan_id":"cebpf4jnsgd1na2vs0mg"},{"bike_id":"140341f0-824e-441a-a46c-67019bc1a6e4","system_id":"levelo_inurba_marseille","lat":43.32295,"lon":5.38268,"is_reserved":false,"is_disabled":false,"rental_uris":{"android":"levelo://app?vid=140341f0-824e-441a-a46c-67019bc1a6e4","ios":"levelo://app?vid=140341f0-824e-441a-a46c-67019bc1a6e4"},"vehicle_type_id":"4","last_reported":1735153633,"current_range_meters":12800,"station_id":"ce4bhr12rcd13ifvqhqg","pricing_plan_id":"cebpf4jnsgd1na2vs0mg"},{"bike_id":"5f097007-684c-40ef-842b-6083b568a971","system_id":"levelo_inurba_marseille","lat":43.28437,"lon":5.39215,"is_reserved":false,"is_disabled":false,"rental_uris":{"android":"levelo://app?vid=5f097007-684c-40ef-842b-6083b568a971","ios":"levelo://app?vid=5f097007-684c-40ef-842b-6083b568a971"},"vehicle_type_id":"4","last_reported":1735153633,"current_range_meters":38000,"station_id":"ce4bhoh2rcd13ifvqh5g","pricing_plan_id":"cebpf4jnsgd1na2vs0mg"},{"bike_id":"ba65d07a-204d-4be9-96e0-b91b2ca6d251","system_id":"levelo_inurba_marseille","lat":43.26935,"lon":5.40252,"is_reserved":false,"is_disabled":false,"rental_uris":{"android":"levelo://app?vid=ba65d07a-204d-4be9-96e0-b91b2ca6d251","ios":"levelo://app?vid=ba65d07a-204d-4be9-96e0-b91b2ca6d251"},"vehicle_type_id":"4","last_reported":1735153633,"current_range_meters":38800,"station_id":"cjm6bp8fraef2m0cb0m0","pricing_plan_id":"cebpf4jnsgd1na2vs0mg"},{"bike_id":"5ca093cb-437c-4e7d-bc7e-09c7ab1b0f93","system_id":"levelo_inurba_marseille","lat":43.29915,"lon":5.37471,"is_reserved":false,"is_disabled":false,"rental_uris":{"android":"levelo://app?vid=5ca093cb-437c-4e7d-bc7e-09c7ab1b0f93","ios":"levelo://app?vid=5ca093cb-437c-4e7d-bc7e-09c7ab1b0f93"},"vehicle_type_id":"4","last_reported":1735153633,"current_range_meters":38800,"station_id":"ce4bgjh2rcd13ifvqbg0","pricing_plan_id":"cebpf4jnsgd1na2vs0mg"},{"bike_id":"dcb87de2-ef9d-49cc-839c-62b44084804f","system_id":"levelo_inurba_marseille","lat":43.28156,"lon":5.42644,"is_reserved":false,"is_disabled":false,"rental_uris":{"android":"levelo://app?vid=dcb87de2-ef9d-49cc-839c-62b44084804f","ios":"levelo://app?vid=dcb87de2-ef9d-49cc-839c-62b44084804f"},"vehicle_type_id":"4","last_reported":1735153633,"current_range_meters":7200,"station_id":"ce4bhnh2rcd13ifvqgug","pricing_plan_id":"cebpf4jnsgd1na2vs0mg"},{"bike_id":"adeb9f24-5201-4746-a674-4bf30daf0224","system_id":"levelo_inurba_marseille","lat":43.297082,"lon":5.366099,"is_reserved":false,"is_disabled":false,"rental_uris":{"android":"levelo://app?vid=adeb9f24-5201-4746-a674-4bf30daf0224","ios":"levelo://app?vid=adeb9f24-5201-4746-a674-4bf30daf0224"},"vehicle_type_id":"4","last_reported":1735153633,"current_range_meters":39200,"station_id":"ce4bgn12rcd13ifvqbt0","pricing_plan_id":"cebpf4jnsgd1na2vs0mg"},{"bike_id":"5259df95-e7f7-4991-8a9f-c29c9264851b","system_id":"levelo_inurba_marseille","lat":43.26058,"lon":5.39392,"is_reserved":false,"is_disabled":false,"rental_uris":{"android":"levelo://app?vid=5259df95-e7f7-4991-8a9f-c29c9264851b","ios":"levelo://app?vid=5259df95-e7f7-4991-8a9f-c29c9264851b"},"vehicle_type_id":"4","last_reported":1735153633,"current_range_meters":34800,"station_id":"ce4bhh92rcd13ifvqfj0","pricing_plan_id":"cebpf4jnsgd1na2vs0mg"},{"bike_id":"6a8570d1-eb04-4587-aa7b-7e8a4cf28911","system_id":"levelo_inurba_marseille","lat":43.31317,"lon":5.39691,"is_reserved":false,"is_disabled":false,"rental_uris":{"android":"levelo://app?vid=6a8570d1-eb04-4587-aa7b-7e8a4cf28911","ios":"levelo://app?vid=6a8570d1-eb04-4587-aa7b-7e8a4cf28911"},"vehicle_type_id":"4","last_reported":1735153633,"current_range_meters":36400,"station_id":"ce4bgvp2rcd13ifvqcu0","pricing_plan_id":"cebpf4jnsgd1na2vs0mg"},{"bike_id":"4e04e3c8-bad8-47c2-a784-0c5eba8b5d4f","system_id":"levelo_inurba_marseille","lat":43.27056,"lon":5.42281,"is_reserved":false,"is_disabled":false,"rental_uris":{"android":"levelo://app?vid=4e04e3c8-bad8-47c2-a784-0c5eba8b5d4f","ios":"levelo://app?vid=4e04e3c8-bad8-47c2-a784-0c5eba8b5d4f"},"vehicle_type_id":"4","last_reported":1735153633,"current_range_meters":38000,"station_id":"ce4bhk92rcd13ifvqgb0","pricing_plan_id":"cebpf4jnsgd1na2vs0mg"},{"bike_id":"3964cc91-6b10-4fb9-9b4d-cbe3e8abef97","system_id":"levelo_inurba_marseille","lat":43.30103,"lon":5.39074,"is_reserved":false,"is_disabled":false,"rental_uris":{"android":"levelo://app?vid=3964cc91-6b10-4fb9-9b4d-cbe3e8abef97","ios":"levelo://app?vid=3964cc91-6b10-4fb9-9b4d-cbe3e8abef97"},"vehicle_type_id":"4","last_reported":1735153633,"current_range_meters":38800,"station_id":"ce4bh192rcd13ifvqdb0","pricing_plan_id":"cebpf4jnsgd1na2vs0mg"},{"bike_id":"6acd59a7-8f7c-4599-aa0b-64fd7d521194","system_id":"levelo_inurba_marseille","lat":43.30416,"lon":5.39758,"is_reserved":false,"is_disabled":false,"rental_uris":{"android":"levelo://app?vid=6acd59a7-8f7c-4599-aa0b-64fd7d521194","ios":"levelo://app?vid=6acd59a7-8f7c-4599-aa0b-64fd7d521194"},"vehicle_type_id":"4","last_reported":1735153633,"current_range_meters":38800,"station_id":"ce4bh092rcd13ifvqd20","pricing_plan_id":"cebpf4jnsgd1na2vs0mg"},{"bike_id":"1d566864-663a-4b46-a74a-c479e2e82e1e","system_id":"levelo_inurba_marseille","lat":43.29536,"lon":5.38545,"is_reserved":false,"is_disabled":true,"rental_uris":{"android":"levelo://app?vid=1d566864-663a-4b46-a74a-c479e2e82e1e","ios":"levelo://app?vid=1d566864-663a-4b46-a74a-c479e2e82e1e"},"vehicle_type_id":"4","last_reported":1735153633,"current_range_meters":38800,"station_id":"ce4bgih2rcd13ifvqba0","pricing_plan_id":"cebpf4jnsgd1na2vs0mg"},{"bike_id":"440e3196-84f0-46ce-9f51-f1d77928123c","system_id":"levelo_inurba_marseille","lat":43.23192,"lon":5.39969,"is_reserved":false,"is_disabled":false,"rental_uris":{"android":"levelo://app?vid=440e3196-84f0-46ce-9f51-f1d77928123c","ios":"levelo://app?vid=440e3196-84f0-46ce-9f51-f1d77928123c"},"vehicle_type_id":"4","last_reported":1735153633,"current_range_meters":31200,"station_id":"ce4bhn12rcd13ifvqgqg","pricing_plan_id":"cebpf4jnsgd1na2vs0mg"},{"bike_id":"fb0e6359-3fe6-4009-9014-99d06d5c7222","system_id":"levelo_inurba_marseille","lat":43.29621,"lon":5.37155,"is_reserved":false,"is_disabled":false,"rental_uris":{"android":"levelo://app?vid=fb0e6359-3fe6-4009-9014-99d06d5c7222","ios":"levelo://app?vid=fb0e6359-3fe6-4009-9014-99d06d5c7222"},"vehicle_type_id":"4","last_reported":1735153633,"current_range_meters":36400,"station_id":"ce4bgnh2rcd13ifvqc0g","pricing_plan_id":"cebpf4jnsgd1na2vs0mg"},{"bike_id":"f949e99e-d030-4c70-b600-40a4a8569a0c","system_id":"levelo_inurba_marseille","lat":43.29623,"lon":5.37169,"is_reserved":false,"is_disabled":false,"rental_uris":{"android":"levelo://app?vid=f949e99e-d030-4c70-b600-40a4a8569a0c","ios":"levelo://app?vid=f949e99e-d030-4c70-b600-40a4a8569a0c"},"vehicle_type_id":"4","last_reported":1735153633,"current_range_meters":26800,"station_id":"ce4bgnh2rcd13ifvqc0g","pricing_plan_id":"cebpf4jnsgd1na2vs0mg"},{"bike_id":"0a2385ea-f9f9-422a-bcca-433d02bd2e82","system_id":"levelo_inurba_marseille","lat":43.29808,"lon":5.38099,"is_reserved":false,"is_disabled":false,"rental_uris":{"android":"levelo://app?vid=0a2385ea-f9f9-422a-bcca-433d02bd2e82","ios":"levelo://app?vid=0a2385ea-f9f9-422a-bcca-433d02bd2e82"},"vehicle_type_id":"4","last_reported":1735153633,"current_range_meters":37600,"station_id":"ce4bgip2rcd13ifvqbb0","pricing_plan_id":"cebpf4jnsgd1na2vs0mg"},{"bike_id":"02eac5a5-bd22-4f52-aa2f-0694ef430cb4","system_id":"levelo_inurba_marseille","lat":43.304247,"lon":5.39747,"is_reserved":false,"is_disabled":false,"rental_uris":{"android":"levelo://app?vid=02eac5a5-bd22-4f52-aa2f-0694ef430cb4","ios":"levelo://app?vid=02eac5a5-bd22-4f52-aa2f-0694ef430cb4"},"vehicle_type_id":"4","last_reported":1735153633,"current_range_meters":38800,"station_id":"ce4bh092rcd13ifvqd20","pricing_plan_id":"cebpf4jnsgd1na2vs0mg"},{"bike_id":"c884328a-a6bb-4f4e-abaa-b2205216351f","system_id":"levelo_inurba_marseille","lat":43.26502,"lon":5.39536,"is_reserved":false,"is_disabled":false,"rental_uris":{"android":"levelo://app?vid=c884328a-a6bb-4f4e-abaa-b2205216351f","ios":"levelo://app?vid=c884328a-a6bb-4f4e-abaa-b2205216351f"},"vehicle_type_id":"4","last_reported":1735153633,"current_range_meters":6800,"station_id":"ce4bhi12rcd13ifvqfq0","pricing_plan_id":"cebpf4jnsgd1na2vs0mg"},{"bike_id":"1601cb4d-c6b7-4894-b7f8-eeab49590138","system_id":"levelo_inurba_marseille","lat":43.26547,"lon":5.37312,"is_reserved":false,"is_disabled":false,"rental_uris":{"android":"levelo://app?vid=1601cb4d-c6b7-4894-b7f8-eeab49590138","ios":"levelo://app?vid=1601cb4d-c6b7-4894-b7f8-eeab49590138"},"vehicle_type_id":"4","last_reported":1735153633,"current_range_meters":33200,"station_id":"ce4bhg12rcd13ifvqf70","pricing_plan_id":"cebpf4jnsgd1na2vs0mg"},{"bike_id":"8c5da3bb-c2e6-43d4-b963-ad2d9b262d8f","system_id":"levelo_inurba_marseille","lat":43.27941,"lon":5.41046,"is_reserved":false,"is_disabled":false,"rental_uris":{"android":"levelo://app?vid=8c5da3bb-c2e6-43d4-b963-ad2d9b262d8f","ios":"levelo://app?vid=8c5da3bb-c2e6-43d4-b963-ad2d9b262d8f"},"vehicle_type_id":"4","last_reported":1735153633,"current_range_meters":38800,"station_id":"ce4bhnp2rcd13ifvqh0g","pricing_plan_id":"cebpf4jnsgd1na2vs0mg"},{"bike_id":"aa5d5d16-a2f6-4c81-8cd4-c9ee96949ae4","system_id":"levelo_inurba_marseille","lat":43.23198,"lon":5.39981,"is_reserved":false,"is_disabled":false,"rental_uris":{"android":"levelo://app?vid=aa5d5d16-a2f6-4c81-8cd4-c9ee96949ae4","ios":"levelo://app?vid=aa5d5d16-a2f6-4c81-8cd4-c9ee96949ae4"},"vehicle_type_id":"4","last_reported":1735153633,"current_range_meters":38800,"station_id":"ce4bhn12rcd13ifvqgqg","pricing_plan_id":"cebpf4jnsgd1na2vs0mg"},{"bike_id":"e3ef34f6-0bd5-4679-9355-cfd293dbf562","system_id":"levelo_inurba_marseille","lat":43.30097,"lon":5.3906,"is_reserved":false,"is_disabled":false,"rental_uris":{"android":"levelo://app?vid=e3ef34f6-0bd5-4679-9355-cfd293dbf562","ios":"levelo://app?vid=e3ef34f6-0bd5-4679-9355-cfd293dbf562"},"vehicle_type_id":"4","last_reported":1735153633,"current_range_meters":27200,"station_id":"ce4bh192rcd13ifvqdb0","pricing_plan_id":"cebpf4jnsgd1na2vs0mg"},{"bike_id":"3a09733c-496c-4bdc-83ab-985a5e8ff398","system_id":"levelo_inurba_marseille","lat":43.25502,"lon":5.37653,"is_reserved":false,"is_disabled":true,"rental_uris":{"android":"levelo://app?vid=3a09733c-496c-4bdc-83ab-985a5e8ff398","ios":"levelo://app?vid=3a09733c-496c-4bdc-83ab-985a5e8ff398"},"vehicle_type_id":"4","last_reported":1735153633,"current_range_meters":0,"station_id":"ce4bhh12rcd13ifvqff0","pricing_plan_id":"cebpf4jnsgd1na2vs0mg"},{"bike_id":"360332b9-e614-4783-9874-93f13a5e8049","system_id":"levelo_inurba_marseille","lat":43.30805,"lon":5.3813,"is_reserved":false,"is_disabled":false,"rental_uris":{"android":"levelo://app?vid=360332b9-e614-4783-9874-93f13a5e8049","ios":"levelo://app?vid=360332b9-e614-4783-9874-93f13a5e8049"},"vehicle_type_id":"4","last_reported":1735153633,"current_range_meters":38800,"station_id":"ce4bgt12rcd13ifvqce0","pricing_plan_id":"cebpf4jnsgd1na2vs0mg"},{"bike_id":"673ed0fe-3027-4e1f-9efc-2804b0e32190","system_id":"levelo_inurba_marseille","lat":43.26684,"lon":5.38268,"is_reserved":false,"is_disabled":false,"rental_uris":{"android":"levelo://app?vid=673ed0fe-3027-4e1f-9efc-2804b0e32190","ios":"levelo://app?vid=673ed0fe-3027-4e1f-9efc-2804b0e32190"},"vehicle_type_id":"4","last_reported":1735153633,"current_range_meters":27600,"station_id":"ce4bhg92rcd13ifvqf90","pricing_plan_id":"cebpf4jnsgd1na2vs0mg"},{"bike_id":"88be3c03-2d70-4e9f-b22a-dfb5a5ff36ea","system_id":"levelo_inurba_marseille","lat":43.29447,"lon":5.3975,"is_reserved":false,"is_disabled":false,"rental_uris":{"android":"levelo://app?vid=88be3c03-2d70-4e9f-b22a-dfb5a5ff36ea","ios":"levelo://app?vid=88be3c03-2d70-4e9f-b22a-dfb5a5ff36ea"},"vehicle_type_id":"4","last_reported":1735153633,"current_range_meters":38000,"station_id":"ce4bh3h2rcd13ifvqdo0","pricing_plan_id":"cebpf4jnsgd1na2vs0mg"},{"bike_id":"2e48270a-c773-45cd-b6b6-1f931f6c2627","system_id":"levelo_inurba_marseille","lat":43.29884,"lon":5.38906,"is_reserved":false,"is_disabled":false,"rental_uris":{"android":"levelo://app?vid=2e48270a-c773-45cd-b6b6-1f931f6c2627","ios":"levelo://app?vid=2e48270a-c773-45cd-b6b6-1f931f6c2627"},"vehicle_type_id":"4","last_reported":1735153633,"current_range_meters":39200,"station_id":"ce4bh392rcd13ifvqdl0","pricing_plan_id":"cebpf4jnsgd1na2vs0mg"},{"bike_id":"02e8cf79-1a2b-4805-9b9c-ae2b5a954d14","system_id":"levelo_inurba_marseille","lat":43.27926,"lon":5.39571,"is_reserved":false,"is_disabled":false,"rental_uris":{"android":"levelo://app?vid=02e8cf79-1a2b-4805-9b9c-ae2b5a954d14","ios":"levelo://app?vid=02e8cf79-1a2b-4805-9b9c-ae2b5a954d14"},"vehicle_type_id":"4","last_reported":1735153633,"current_range_meters":38800,"station_id":"ce4bhf92rcd13ifvqf40","pricing_plan_id":"cebpf4jnsgd1na2vs0mg"},{"bike_id":"4d3d183e-e267-4f8a-bfc2-0a7633d2e1f7","system_id":"levelo_inurba_marseille","lat":43.29615,"lon":5.37718,"is_reserved":false,"is_disabled":false,"rental_uris":{"android":"levelo://app?vid=4d3d183e-e267-4f8a-bfc2-0a7633d2e1f7","ios":"levelo://app?vid=4d3d183e-e267-4f8a-bfc2-0a7633d2e1f7"},"vehicle_type_id":"4","last_reported":1735153633,"current_range_meters":26800,"station_id":"ce4bgi92rcd13ifvqb90","pricing_plan_id":"cebpf4jnsgd1na2vs0mg"},{"bike_id":"6f699b48-96de-41b7-8197-cd5ab9f03e09","system_id":"levelo_inurba_marseille","lat":43.27992,"lon":5.41656,"is_reserved":false,"is_disabled":false,"rental_uris":{"android":"levelo://app?vid=6f699b48-96de-41b7-8197-cd5ab9f03e09","ios":"levelo://app?vid=6f699b48-96de-41b7-8197-cd5ab9f03e09"},"vehicle_type_id":"4","last_reported":1735153633,"current_range_meters":39200,"station_id":"ce4bho12rcd13ifvqh1g","pricing_plan_id":"cebpf4jnsgd1na2vs0mg"},{"bike_id":"fd25bbdd-e888-4359-8488-fdc91b50cf4d","system_id":"levelo_inurba_marseille","lat":43.3136,"lon":5.38499,"is_reserved":false,"is_disabled":false,"rental_uris":{"android":"levelo://app?vid=fd25bbdd-e888-4359-8488-fdc91b50cf4d","ios":"levelo://app?vid=fd25bbdd-e888-4359-8488-fdc91b50cf4d"},"vehicle_type_id":"4","last_reported":1735153633,"current_range_meters":21600,"station_id":"ce4bgt92rcd13ifvqcf0","pricing_plan_id":"cebpf4jnsgd1na2vs0mg"},{"bike_id":"48a37bc0-9aba-46ef-86af-1ab458f0e0c4","system_id":"levelo_inurba_marseille","lat":43.29613,"lon":5.37722,"is_reserved":false,"is_disabled":false,"rental_uris":{"android":"levelo://app?vid=48a37bc0-9aba-46ef-86af-1ab458f0e0c4","ios":"levelo://app?vid=48a37bc0-9aba-46ef-86af-1ab458f0e0c4"},"vehicle_type_id":"4","last_reported":1735153633,"current_range_meters":29600,"station_id":"ce4bgi92rcd13ifvqb90","pricing_plan_id":"cebpf4jnsgd1na2vs0mg"},{"bike_id":"cf9ebf9c-f7cc-4de0-a198-b9838d585b70","system_id":"levelo_inurba_marseille","lat":43.28992,"lon":5.35603,"is_reserved":false,"is_disabled":true,"rental_uris":{"android":"levelo://app?vid=cf9ebf9c-f7cc-4de0-a198-b9838d585b70","ios":"levelo://app?vid=cf9ebf9c-f7cc-4de0-a198-b9838d585b70"},"vehicle_type_id":"4","last_reported":1735153633,"current_range_meters":1200,"station_id":"ce4bhb92rcd13ifvqen0","pricing_plan_id":"cebpf4jnsgd1na2vs0mg"},{"bike_id":"9537f047-7765-4389-ba54-cede393d57fd","system_id":"levelo_inurba_marseille","lat":43.31716,"lon":5.43699,"is_reserved":false,"is_disabled":false,"rental_uris":{"android":"levelo://app?vid=9537f047-7765-4389-ba54-cede393d57fd","ios":"levelo://app?vid=9537f047-7765-4389-ba54-cede393d57fd"},"vehicle_type_id":"4","last_reported":1735153633,"current_range_meters":38800,"station_id":"ce4bhp92rcd13ifvqhcg","pricing_plan_id":"cebpf4jnsgd1na2vs0mg"},{"bike_id":"82719b16-0394-44a1-963a-3161d6b762b8","system_id":"levelo_inurba_marseille","lat":43.29633,"lon":5.3717,"is_reserved":false,"is_disabled":false,"rental_uris":{"android":"levelo://app?vid=82719b16-0394-44a1-963a-3161d6b762b8","ios":"levelo://app?vid=82719b16-0394-44a1-963a-3161d6b762b8"},"vehicle_type_id":"4","last_reported":1735153633,"current_range_meters":36400,"station_id":"ce4bgnh2rcd13ifvqc0g","pricing_plan_id":"cebpf4jnsgd1na2vs0mg"},{"bike_id":"a5b95a5f-98a9-4995-beea-39b6756268a8","system_id":"levelo_inurba_marseille","lat":43.27073,"lon":5.42257,"is_reserved":false,"is_disabled":false,"rental_uris":{"android":"levelo://app?vid=a5b95a5f-98a9-4995-beea-39b6756268a8","ios":"levelo://app?vid=a5b95a5f-98a9-4995-beea-39b6756268a8"},"vehicle_type_id":"4","last_reported":1735153633,"current_range_meters":38800,"station_id":"ce4bhk92rcd13ifvqgb0","pricing_plan_id":"cebpf4jnsgd1na2vs0mg"},{"bike_id":"42e2de93-7807-42bf-816d-10c8375ccd4f","system_id":"levelo_inurba_marseille","lat":43.31227,"lon":5.36865,"is_reserved":false,"is_disabled":false,"rental_uris":{"android":"levelo://app?vid=42e2de93-7807-42bf-816d-10c8375ccd4f","ios":"levelo://app?vid=42e2de93-7807-42bf-816d-10c8375ccd4f"},"vehicle_type_id":"4","last_reported":1735153633,"current_range_meters":39200,"station_id":"ce4bgl92rcd13ifvqbq0","pricing_plan_id":"cebpf4jnsgd1na2vs0mg"},{"bike_id":"d2239e2e-0410-46ba-bc11-f5eed116a9a6","system_id":"levelo_inurba_marseille","lat":43.30534,"lon":5.38421,"is_reserved":false,"is_disabled":false,"rental_uris":{"android":"levelo://app?vid=d2239e2e-0410-46ba-bc11-f5eed116a9a6","ios":"levelo://app?vid=d2239e2e-0410-46ba-bc11-f5eed116a9a6"},"vehicle_type_id":"4","last_reported":1735153633,"current_range_meters":17600,"station_id":"ce4bgg92rcd13ifvqb30","pricing_plan_id":"cebpf4jnsgd1na2vs0mg"},{"bike_id":"4dbac046-8f9a-4500-85b8-75203039eb07","system_id":"levelo_inurba_marseille","lat":43.28095,"lon":5.37852,"is_reserved":false,"is_disabled":false,"rental_uris":{"android":"levelo://app?vid=4dbac046-8f9a-4500-85b8-75203039eb07","ios":"levelo://app?vid=4dbac046-8f9a-4500-85b8-75203039eb07"},"vehicle_type_id":"4","last_reported":1735153633,"current_range_meters":38800,"station_id":"ce4bha12rcd13ifvqee0","pricing_plan_id":"cebpf4jnsgd1na2vs0mg"},{"bike_id":"cb03cf66-d2b9-453d-8ff0-a05157d6006a","system_id":"levelo_inurba_marseille","lat":43.269397,"lon":5.38911,"is_reserved":false,"is_disabled":false,"rental_uris":{"android":"levelo://app?vid=cb03cf66-d2b9-453d-8ff0-a05157d6006a","ios":"levelo://app?vid=cb03cf66-d2b9-453d-8ff0-a05157d6006a"},"vehicle_type_id":"4","last_reported":1735153633,"current_range_meters":38000,"station_id":"ce4bhhh2rcd13ifvqfl0","pricing_plan_id":"cebpf4jnsgd1na2vs0mg"},{"bike_id":"4f5db02c-99f9-460e-a880-3ca7100df048","system_id":"levelo_inurba_marseille","lat":43.27428,"lon":5.39382,"is_reserved":false,"is_disabled":false,"rental_uris":{"android":"levelo://app?vid=4f5db02c-99f9-460e-a880-3ca7100df048","ios":"levelo://app?vid=4f5db02c-99f9-460e-a880-3ca7100df048"},"vehicle_type_id":"4","last_reported":1735153633,"current_range_meters":38000,"station_id":"ce4bhdp2rcd13ifvqf20","pricing_plan_id":"cebpf4jnsgd1na2vs0mg"},{"bike_id":"de8bcbda-0644-47f7-848a-36f4fe8800e6","system_id":"levelo_inurba_marseille","lat":43.29571,"lon":5.37525,"is_reserved":false,"is_disabled":false,"rental_uris":{"android":"levelo://app?vid=de8bcbda-0644-47f7-848a-36f4fe8800e6","ios":"levelo://app?vid=de8bcbda-0644-47f7-848a-36f4fe8800e6"},"vehicle_type_id":"4","last_reported":1735153633,"current_range_meters":20400,"station_id":"ce4bgh92rcd13ifvqb50","pricing_plan_id":"cebpf4jnsgd1na2vs0mg"},{"bike_id":"5d35556a-77eb-471a-9074-b9042a3815ab","system_id":"levelo_inurba_marseille","lat":43.296,"lon":5.38089,"is_reserved":false,"is_disabled":false,"rental_uris":{"android":"levelo://app?vid=5d35556a-77eb-471a-9074-b9042a3815ab","ios":"levelo://app?vid=5d35556a-77eb-471a-9074-b9042a3815ab"},"vehicle_type_id":"4","last_reported":1735153633,"current_range_meters":24000,"station_id":"ce4bgl12rcd13ifvqbo0","pricing_plan_id":"cebpf4jnsgd1na2vs0mg"},{"bike_id":"456c106e-8907-4948-8f77-0a93510c530b","system_id":"levelo_inurba_marseille","lat":43.31109,"lon":5.377687,"is_reserved":false,"is_disabled":false,"rental_uris":{"android":"levelo://app?vid=456c106e-8907-4948-8f77-0a93510c530b","ios":"levelo://app?vid=456c106e-8907-4948-8f77-0a93510c530b"},"vehicle_type_id":"4","last_reported":1735153633,"current_range_meters":22800,"station_id":"ce4bgt92rcd13ifvqcg0","pricing_plan_id":"cebpf4jnsgd1na2vs0mg"},{"bike_id":"dc5e7ea0-a412-4de9-92c3-6b61b2cc2423","system_id":"levelo_inurba_marseille","lat":43.30927,"lon":5.40167,"is_reserved":false,"is_disabled":false,"rental_uris":{"android":"levelo://app?vid=dc5e7ea0-a412-4de9-92c3-6b61b2cc2423","ios":"levelo://app?vid=dc5e7ea0-a412-4de9-92c3-6b61b2cc2423"},"vehicle_type_id":"4","last_reported":1735153633,"current_range_meters":39200,"station_id":"ce4bgvp2rcd13ifvqct0","pricing_plan_id":"cebpf4jnsgd1na2vs0mg"},{"bike_id":"7e280087-baa2-4bd0-8c4a-22460101cbf6","system_id":"levelo_inurba_marseille","lat":43.29522,"lon":5.3905,"is_reserved":false,"is_disabled":false,"rental_uris":{"android":"levelo://app?vid=7e280087-baa2-4bd0-8c4a-22460101cbf6","ios":"levelo://app?vid=7e280087-baa2-4bd0-8c4a-22460101cbf6"},"vehicle_type_id":"4","last_reported":1735153633,"current_range_meters":28400,"station_id":"ce4bh3p2rcd13ifvqdp0","pricing_plan_id":"cebpf4jnsgd1na2vs0mg"},{"bike_id":"76f6766c-1dfc-4f6c-819f-cab85d99b068","system_id":"levelo_inurba_marseille","lat":43.29569,"lon":5.39979,"is_reserved":false,"is_disabled":false,"rental_uris":{"android":"levelo://app?vid=76f6766c-1dfc-4f6c-819f-cab85d99b068","ios":"levelo://app?vid=76f6766c-1dfc-4f6c-819f-cab85d99b068"},"vehicle_type_id":"4","last_reported":1735153633,"current_range_meters":38000,"station_id":"ce4bh312rcd13ifvqdj0","pricing_plan_id":"cebpf4jnsgd1na2vs0mg"},{"bike_id":"b07e0204-2c57-49d1-a1f7-320de8610e25","system_id":"levelo_inurba_marseille","lat":43.29402,"lon":5.37344,"is_reserved":false,"is_disabled":true,"rental_uris":{"android":"levelo://app?vid=b07e0204-2c57-49d1-a1f7-320de8610e25","ios":"levelo://app?vid=b07e0204-2c57-49d1-a1f7-320de8610e25"},"vehicle_type_id":"4","last_reported":1735153633,"current_range_meters":14000,"station_id":"","pricing_plan_id":"cebpf4jnsgd1na2vs0mg"},{"bike_id":"fdd038a4-79d5-4c95-a63d-a1c3452f83b6","system_id":"levelo_inurba_marseille","lat":43.30906,"lon":5.36852,"is_reserved":false,"is_disabled":false,"rental_uris":{"android":"levelo://app?vid=fdd038a4-79d5-4c95-a63d-a1c3452f83b6","ios":"levelo://app?vid=fdd038a4-79d5-4c95-a63d-a1c3452f83b6"},"vehicle_type_id":"4","last_reported":1735153633,"current_range_meters":31200,"station_id":"ce4bgn92rcd13ifvqbvg","pricing_plan_id":"cebpf4jnsgd1na2vs0mg"},{"bike_id":"71f050e2-2d24-4aad-9d34-fdffb8e01e2f","system_id":"levelo_inurba_marseille","lat":43.3089,"lon":5.39639,"is_reserved":false,"is_disabled":false,"rental_uris":{"android":"levelo://app?vid=71f050e2-2d24-4aad-9d34-fdffb8e01e2f","ios":"levelo://app?vid=71f050e2-2d24-4aad-9d34-fdffb8e01e2f"},"vehicle_type_id":"4","last_reported":1735153633,"current_range_meters":17200,"station_id":"ce4bh012rcd13ifvqcv0","pricing_plan_id":"cebpf4jnsgd1na2vs0mg"},{"bike_id":"9c66369a-7491-451f-a68c-1d037de82218","system_id":"levelo_inurba_marseille","lat":43.29005,"lon":5.35611,"is_reserved":false,"is_disabled":false,"rental_uris":{"android":"levelo://app?vid=9c66369a-7491-451f-a68c-1d037de82218","ios":"levelo://app?vid=9c66369a-7491-451f-a68c-1d037de82218"},"vehicle_type_id":"4","last_reported":1735153633,"current_range_meters":38400,"station_id":"ce4bhb92rcd13ifvqen0","pricing_plan_id":"cebpf4jnsgd1na2vs0mg"},{"bike_id":"734234e3-449c-4c44-aa42-38f61f3762f2","system_id":"levelo_inurba_marseille","lat":43.29224,"lon":5.36074,"is_reserved":false,"is_disabled":false,"rental_uris":{"android":"levelo://app?vid=734234e3-449c-4c44-aa42-38f61f3762f2","ios":"levelo://app?vid=734234e3-449c-4c44-aa42-38f61f3762f2"},"vehicle_type_id":"4","last_reported":1735153633,"current_range_meters":32000,"station_id":"ce4bhbh2rcd13ifvqeqg","pricing_plan_id":"cebpf4jnsgd1na2vs0mg"},{"bike_id":"0fe68c31-9b64-4dab-973a-b0ae7a3f2dc3","system_id":"levelo_inurba_marseille","lat":43.29519,"lon":5.37489,"is_reserved":false,"is_disabled":false,"rental_uris":{"android":"levelo://app?vid=0fe68c31-9b64-4dab-973a-b0ae7a3f2dc3","ios":"levelo://app?vid=0fe68c31-9b64-4dab-973a-b0ae7a3f2dc3"},"vehicle_type_id":"4","last_reported":1735153633,"current_range_meters":38800,"station_id":"ce4bgkp2rcd13ifvqbmg","pricing_plan_id":"cebpf4jnsgd1na2vs0mg"},{"bike_id":"aca50fb9-8453-4fe0-a8ef-4c22adf62f3f","system_id":"levelo_inurba_marseille","lat":43.28431,"lon":5.39184,"is_reserved":false,"is_disabled":false,"rental_uris":{"android":"levelo://app?vid=aca50fb9-8453-4fe0-a8ef-4c22adf62f3f","ios":"levelo://app?vid=aca50fb9-8453-4fe0-a8ef-4c22adf62f3f"},"vehicle_type_id":"4","last_reported":1735153633,"current_range_meters":29600,"station_id":"ce4bhoh2rcd13ifvqh5g","pricing_plan_id":"cebpf4jnsgd1na2vs0mg"},{"bike_id":"142407df-e449-45a9-b1d1-57a94f256792","system_id":"levelo_inurba_marseille","lat":43.313538,"lon":5.367128,"is_reserved":false,"is_disabled":false,"rental_uris":{"android":"levelo://app?vid=142407df-e449-45a9-b1d1-57a94f256792","ios":"levelo://app?vid=142407df-e449-45a9-b1d1-57a94f256792"},"vehicle_type_id":"4","last_reported":1735153633,"current_range_meters":38000,"station_id":"ce4bgr92rcd13ifvqc6g","pricing_plan_id":"cebpf4jnsgd1na2vs0mg"},{"bike_id":"9db22f89-44e0-4977-ad0c-3c254737f622","system_id":"levelo_inurba_marseille","lat":43.28463,"lon":5.38527,"is_reserved":false,"is_disabled":false,"rental_uris":{"android":"levelo://app?vid=9db22f89-44e0-4977-ad0c-3c254737f622","ios":"levelo://app?vid=9db22f89-44e0-4977-ad0c-3c254737f622"},"vehicle_type_id":"4","last_reported":1735153633,"current_range_meters":38400,"station_id":"ce4bh8p2rcd13ifvqeb0","pricing_plan_id":"cebpf4jnsgd1na2vs0mg"},{"bike_id":"2863f660-7b31-4c26-8cc5-e2eb7afc53f1","system_id":"levelo_inurba_marseille","lat":43.29906,"lon":5.38142,"is_reserved":false,"is_disabled":false,"rental_uris":{"android":"levelo://app?vid=2863f660-7b31-4c26-8cc5-e2eb7afc53f1","ios":"levelo://app?vid=2863f660-7b31-4c26-8cc5-e2eb7afc53f1"},"vehicle_type_id":"4","last_reported":1735153633,"current_range_meters":38800,"station_id":"ce4bgj12rcd13ifvqbc0","pricing_plan_id":"cebpf4jnsgd1na2vs0mg"},{"bike_id":"e87c3b99-5e71-4722-af07-f1b0e4f84d7a","system_id":"levelo_inurba_marseille","lat":43.29836,"lon":5.3626,"is_reserved":false,"is_disabled":false,"rental_uris":{"android":"levelo://app?vid=e87c3b99-5e71-4722-af07-f1b0e4f84d7a","ios":"levelo://app?vid=e87c3b99-5e71-4722-af07-f1b0e4f84d7a"},"vehicle_type_id":"4","last_reported":1735153633,"current_range_meters":22800,"station_id":"ce4bgpp2rcd13ifvqc3g","pricing_plan_id":"cebpf4jnsgd1na2vs0mg"},{"bike_id":"dda65ac8-8d64-45c8-923b-7c11f156fdc0","system_id":"levelo_inurba_marseille","lat":43.241755,"lon":5.397293,"is_reserved":false,"is_disabled":false,"rental_uris":{"android":"levelo://app?vid=dda65ac8-8d64-45c8-923b-7c11f156fdc0","ios":"levelo://app?vid=dda65ac8-8d64-45c8-923b-7c11f156fdc0"},"vehicle_type_id":"4","last_reported":1735153633,"current_range_meters":38800,"station_id":"ce4bhn12rcd13ifvqgpg","pricing_plan_id":"cebpf4jnsgd1na2vs0mg"},{"bike_id":"b5255c6c-70b0-499d-b8a4-87d9fd718011","system_id":"levelo_inurba_marseille","lat":43.27952,"lon":5.41045,"is_reserved":false,"is_disabled":false,"rental_uris":{"android":"levelo://app?vid=b5255c6c-70b0-499d-b8a4-87d9fd718011","ios":"levelo://app?vid=b5255c6c-70b0-499d-b8a4-87d9fd718011"},"vehicle_type_id":"4","last_reported":1735153633,"current_range_meters":26000,"station_id":"ce4bhnp2rcd13ifvqh0g","pricing_plan_id":"cebpf4jnsgd1na2vs0mg"},{"bike_id":"02ae5f5d-b269-4172-816a-ea811cb30ffd","system_id":"levelo_inurba_marseille","lat":43.29623,"lon":5.37709,"is_reserved":false,"is_disabled":false,"rental_uris":{"android":"levelo://app?vid=02ae5f5d-b269-4172-816a-ea811cb30ffd","ios":"levelo://app?vid=02ae5f5d-b269-4172-816a-ea811cb30ffd"},"vehicle_type_id":"4","last_reported":1735153633,"current_range_meters":26800,"station_id":"ce4bgi92rcd13ifvqb90","pricing_plan_id":"cebpf4jnsgd1na2vs0mg"},{"bike_id":"c9751a8a-79d3-40c3-84a6-e2e10badf950","system_id":"levelo_inurba_marseille","lat":43.29917,"lon":5.3815,"is_reserved":false,"is_disabled":false,"rental_uris":{"android":"levelo://app?vid=c9751a8a-79d3-40c3-84a6-e2e10badf950","ios":"levelo://app?vid=c9751a8a-79d3-40c3-84a6-e2e10badf950"},"vehicle_type_id":"4","last_reported":1735153633,"current_range_meters":38800,"station_id":"ce4bgj12rcd13ifvqbc0","pricing_plan_id":"cebpf4jnsgd1na2vs0mg"},{"bike_id":"88a70819-395e-4da0-9f24-b8e1c65d9a67","system_id":"levelo_inurba_marseille","lat":43.28858,"lon":5.35859,"is_reserved":false,"is_disabled":false,"rental_uris":{"android":"levelo://app?vid=88a70819-395e-4da0-9f24-b8e1c65d9a67","ios":"levelo://app?vid=88a70819-395e-4da0-9f24-b8e1c65d9a67"},"vehicle_type_id":"4","last_reported":1735153633,"current_range_meters":36000,"station_id":"ce4bhb12rcd13ifvqem0","pricing_plan_id":"cebpf4jnsgd1na2vs0mg"},{"bike_id":"00f2299e-6e78-4b67-898f-d05e3c74d6f8","system_id":"levelo_inurba_marseille","lat":43.27435,"lon":5.39408,"is_reserved":false,"is_disabled":false,"rental_uris":{"android":"levelo://app?vid=00f2299e-6e78-4b67-898f-d05e3c74d6f8","ios":"levelo://app?vid=00f2299e-6e78-4b67-898f-d05e3c74d6f8"},"vehicle_type_id":"4","last_reported":1735153633,"current_range_meters":11600,"station_id":"ce4bhdp2rcd13ifvqf20","pricing_plan_id":"cebpf4jnsgd1na2vs0mg"},{"bike_id":"526c3b21-f659-466e-a14d-5675dcf072b5","system_id":"levelo_inurba_marseille","lat":43.27068,"lon":5.42267,"is_reserved":false,"is_disabled":false,"rental_uris":{"android":"levelo://app?vid=526c3b21-f659-466e-a14d-5675dcf072b5","ios":"levelo://app?vid=526c3b21-f659-466e-a14d-5675dcf072b5"},"vehicle_type_id":"4","last_reported":1735153633,"current_range_meters":35200,"station_id":"ce4bhk92rcd13ifvqgb0","pricing_plan_id":"cebpf4jnsgd1na2vs0mg"},{"bike_id":"6bca16b1-3eb4-4299-91bc-9740eea99592","system_id":"levelo_inurba_marseille","lat":43.29851,"lon":5.36279,"is_reserved":false,"is_disabled":false,"rental_uris":{"android":"levelo://app?vid=6bca16b1-3eb4-4299-91bc-9740eea99592","ios":"levelo://app?vid=6bca16b1-3eb4-4299-91bc-9740eea99592"},"vehicle_type_id":"4","last_reported":1735153633,"current_range_meters":39200,"station_id":"ce4bgpp2rcd13ifvqc3g","pricing_plan_id":"cebpf4jnsgd1na2vs0mg"},{"bike_id":"66c4cea7-6706-4a03-a4e2-6dd2841453fb","system_id":"levelo_inurba_marseille","lat":43.32249,"lon":5.39486,"is_reserved":false,"is_disabled":false,"rental_uris":{"android":"levelo://app?vid=66c4cea7-6706-4a03-a4e2-6dd2841453fb","ios":"levelo://app?vid=66c4cea7-6706-4a03-a4e2-6dd2841453fb"},"vehicle_type_id":"4","last_reported":1735153633,"current_range_meters":28400,"station_id":"","pricing_plan_id":"cebpf4jnsgd1na2vs0mg"},{"bike_id":"812d61de-c0d1-4794-bdbf-49937c5fb339","system_id":"levelo_inurba_marseille","lat":43.28439,"lon":5.39179,"is_reserved":false,"is_disabled":false,"rental_uris":{"android":"levelo://app?vid=812d61de-c0d1-4794-bdbf-49937c5fb339","ios":"levelo://app?vid=812d61de-c0d1-4794-bdbf-49937c5fb339"},"vehicle_type_id":"4","last_reported":1735153633,"current_range_meters":38800,"station_id":"ce4bhoh2rcd13ifvqh5g","pricing_plan_id":"cebpf4jnsgd1na2vs0mg"},{"bike_id":"b2caa9c6-c390-48a3-9ad3-d74f863e92a7","system_id":"levelo_inurba_marseille","lat":43.30143,"lon":5.37405,"is_reserved":false,"is_disabled":false,"rental_uris":{"android":"levelo://app?vid=b2caa9c6-c390-48a3-9ad3-d74f863e92a7","ios":"levelo://app?vid=b2caa9c6-c390-48a3-9ad3-d74f863e92a7"},"vehicle_type_id":"4","last_reported":1735153633,"current_range_meters":29600,"station_id":"ce4bgs92rcd13ifvqcc0","pricing_plan_id":"cebpf4jnsgd1na2vs0mg"},{"bike_id":"6a20fe92-f0bd-49b0-8390-7d71a4ed4c83","system_id":"levelo_inurba_marseille","lat":43.30803,"lon":5.38156,"is_reserved":false,"is_disabled":false,"rental_uris":{"android":"levelo://app?vid=6a20fe92-f0bd-49b0-8390-7d71a4ed4c83","ios":"levelo://app?vid=6a20fe92-f0bd-49b0-8390-7d71a4ed4c83"},"vehicle_type_id":"4","last_reported":1735153633,"current_range_meters":16000,"station_id":"ce4bgt12rcd13ifvqce0","pricing_plan_id":"cebpf4jnsgd1na2vs0mg"},{"bike_id":"1695f27a-9e40-44de-aae6-2b016129c621","system_id":"levelo_inurba_marseille","lat":43.32656,"lon":5.40996,"is_reserved":false,"is_disabled":false,"rental_uris":{"android":"levelo://app?vid=1695f27a-9e40-44de-aae6-2b016129c621","ios":"levelo://app?vid=1695f27a-9e40-44de-aae6-2b016129c621"},"vehicle_type_id":"4","last_reported":1735153633,"current_range_meters":26800,"station_id":"ce4bhpp2rcd13ifvqhgg","pricing_plan_id":"cebpf4jnsgd1na2vs0mg"},{"bike_id":"1a70180c-1ae5-4764-a9dd-45d21958c688","system_id":"levelo_inurba_marseille","lat":43.30147,"lon":5.39868,"is_reserved":false,"is_disabled":false,"rental_uris":{"android":"levelo://app?vid=1a70180c-1ae5-4764-a9dd-45d21958c688","ios":"levelo://app?vid=1a70180c-1ae5-4764-a9dd-45d21958c688"},"vehicle_type_id":"4","last_reported":1735153633,"current_range_meters":33200,"station_id":"ce4bh0h2rcd13ifvqd40","pricing_plan_id":"cebpf4jnsgd1na2vs0mg"},{"bike_id":"25d2bc58-f6d3-4508-aa97-5261c6aa48a4","system_id":"levelo_inurba_marseille","lat":43.30101,"lon":5.39085,"is_reserved":false,"is_disabled":false,"rental_uris":{"android":"levelo://app?vid=25d2bc58-f6d3-4508-aa97-5261c6aa48a4","ios":"levelo://app?vid=25d2bc58-f6d3-4508-aa97-5261c6aa48a4"},"vehicle_type_id":"4","last_reported":1735153633,"current_range_meters":28000,"station_id":"ce4bh192rcd13ifvqdb0","pricing_plan_id":"cebpf4jnsgd1na2vs0mg"},{"bike_id":"8879d58d-570f-466c-bff6-20496b018051","system_id":"levelo_inurba_marseille","lat":43.30894,"lon":5.37079,"is_reserved":false,"is_disabled":false,"rental_uris":{"android":"levelo://app?vid=8879d58d-570f-466c-bff6-20496b018051","ios":"levelo://app?vid=8879d58d-570f-466c-bff6-20496b018051"},"vehicle_type_id":"4","last_reported":1735153633,"current_range_meters":10800,"station_id":"","pricing_plan_id":"cebpf4jnsgd1na2vs0mg"},{"bike_id":"d24bcf9e-7df9-4fc0-9736-a88fb5d67669","system_id":"levelo_inurba_marseille","lat":43.3112,"lon":5.37765,"is_reserved":false,"is_disabled":false,"rental_uris":{"android":"levelo://app?vid=d24bcf9e-7df9-4fc0-9736-a88fb5d67669","ios":"levelo://app?vid=d24bcf9e-7df9-4fc0-9736-a88fb5d67669"},"vehicle_type_id":"4","last_reported":1735153633,"current_range_meters":24000,"station_id":"ce4bgt92rcd13ifvqcg0","pricing_plan_id":"cebpf4jnsgd1na2vs0mg"},{"bike_id":"d40810ce-4a46-40fb-bd12-613f7153604d","system_id":"levelo_inurba_marseille","lat":43.29304,"lon":5.37464,"is_reserved":false,"is_disabled":false,"rental_uris":{"android":"levelo://app?vid=d40810ce-4a46-40fb-bd12-613f7153604d","ios":"levelo://app?vid=d40810ce-4a46-40fb-bd12-613f7153604d"},"vehicle_type_id":"4","last_reported":1735153633,"current_range_meters":30400,"station_id":"ce4bgi12rcd13ifvqb70","pricing_plan_id":"cebpf4jnsgd1na2vs0mg"},{"bike_id":"eb94956d-a37a-47d9-bfab-17deeb9d48aa","system_id":"levelo_inurba_marseille","lat":43.28606,"lon":5.37051,"is_reserved":false,"is_disabled":false,"rental_uris":{"android":"levelo://app?vid=eb94956d-a37a-47d9-bfab-17deeb9d48aa","ios":"levelo://app?vid=eb94956d-a37a-47d9-bfab-17deeb9d48aa"},"vehicle_type_id":"4","last_reported":1735153633,"current_range_meters":38000,"station_id":"ce4bht12rcd13ifvqi60","pricing_plan_id":"cebpf4jnsgd1na2vs0mg"},{"bike_id":"57beebe0-790e-4213-b4f4-044a1703d5b5","system_id":"levelo_inurba_marseille","lat":43.26063,"lon":5.39387,"is_reserved":false,"is_disabled":false,"rental_uris":{"android":"levelo://app?vid=57beebe0-790e-4213-b4f4-044a1703d5b5","ios":"levelo://app?vid=57beebe0-790e-4213-b4f4-044a1703d5b5"},"vehicle_type_id":"4","last_reported":1735153633,"current_range_meters":16400,"station_id":"ce4bhh92rcd13ifvqfj0","pricing_plan_id":"cebpf4jnsgd1na2vs0mg"},{"bike_id":"9da590cf-9e0b-4ae4-a009-5d750badc2c9","system_id":"levelo_inurba_marseille","lat":43.28938,"lon":5.36636,"is_reserved":false,"is_disabled":false,"rental_uris":{"android":"levelo://app?vid=9da590cf-9e0b-4ae4-a009-5d750badc2c9","ios":"levelo://app?vid=9da590cf-9e0b-4ae4-a009-5d750badc2c9"},"vehicle_type_id":"4","last_reported":1735153633,"current_range_meters":38000,"station_id":"ce4bhap2rcd13ifvqek0","pricing_plan_id":"cebpf4jnsgd1na2vs0mg"},{"bike_id":"4e80fb69-89fc-4bc8-b1e4-f13a99f2e910","system_id":"levelo_inurba_marseille","lat":43.28487,"lon":5.38531,"is_reserved":false,"is_disabled":false,"rental_uris":{"android":"levelo://app?vid=4e80fb69-89fc-4bc8-b1e4-f13a99f2e910","ios":"levelo://app?vid=4e80fb69-89fc-4bc8-b1e4-f13a99f2e910"},"vehicle_type_id":"4","last_reported":1735153633,"current_range_meters":38800,"station_id":"ce4bh8p2rcd13ifvqeb0","pricing_plan_id":"cebpf4jnsgd1na2vs0mg"},{"bike_id":"8735588c-f2a4-4884-b541-d6b7b88e92d8","system_id":"levelo_inurba_marseille","lat":43.30131,"lon":5.39866,"is_reserved":false,"is_disabled":false,"rental_uris":{"android":"levelo://app?vid=8735588c-f2a4-4884-b541-d6b7b88e92d8","ios":"levelo://app?vid=8735588c-f2a4-4884-b541-d6b7b88e92d8"},"vehicle_type_id":"4","last_reported":1735153633,"current_range_meters":38800,"station_id":"ce4bh0h2rcd13ifvqd40","pricing_plan_id":"cebpf4jnsgd1na2vs0mg"},{"bike_id":"4f0978bb-2568-4421-9860-b196c4f6425f","system_id":"levelo_inurba_marseille","lat":43.29275,"lon":5.3685,"is_reserved":false,"is_disabled":false,"rental_uris":{"android":"levelo://app?vid=4f0978bb-2568-4421-9860-b196c4f6425f","ios":"levelo://app?vid=4f0978bb-2568-4421-9860-b196c4f6425f"},"vehicle_type_id":"4","last_reported":1735153633,"current_range_meters":28800,"station_id":"ce4bhbp2rcd13ifvqesg","pricing_plan_id":"cebpf4jnsgd1na2vs0mg"},{"bike_id":"956ba2f3-7e5a-4823-8a48-6572efa40ef2","system_id":"levelo_inurba_marseille","lat":43.29793,"lon":5.37102,"is_reserved":false,"is_disabled":false,"rental_uris":{"android":"levelo://app?vid=956ba2f3-7e5a-4823-8a48-6572efa40ef2","ios":"levelo://app?vid=956ba2f3-7e5a-4823-8a48-6572efa40ef2"},"vehicle_type_id":"4","last_reported":1735153633,"current_range_meters":35200,"station_id":"ce4bgop2rcd13ifvqc1g","pricing_plan_id":"cebpf4jnsgd1na2vs0mg"},{"bike_id":"dc104f9a-1826-4977-9415-2e0325ffdd78","system_id":"levelo_inurba_marseille","lat":43.28068,"lon":5.39655,"is_reserved":false,"is_disabled":false,"rental_uris":{"android":"levelo://app?vid=dc104f9a-1826-4977-9415-2e0325ffdd78","ios":"levelo://app?vid=dc104f9a-1826-4977-9415-2e0325ffdd78"},"vehicle_type_id":"4","last_reported":1735153633,"current_range_meters":11600,"station_id":"ce4bho12rcd13ifvqh2g","pricing_plan_id":"cebpf4jnsgd1na2vs0mg"},{"bike_id":"30a2f515-e594-409d-8eaf-f89d300b2f1b","system_id":"levelo_inurba_marseille","lat":43.31091,"lon":5.38353,"is_reserved":false,"is_disabled":false,"rental_uris":{"android":"levelo://app?vid=30a2f515-e594-409d-8eaf-f89d300b2f1b","ios":"levelo://app?vid=30a2f515-e594-409d-8eaf-f89d300b2f1b"},"vehicle_type_id":"4","last_reported":1735153633,"current_range_meters":18000,"station_id":"ce4bgv92rcd13ifvqcr0","pricing_plan_id":"cebpf4jnsgd1na2vs0mg"},{"bike_id":"84333cca-c52c-4b63-8e34-f2ff38525e7f","system_id":"levelo_inurba_marseille","lat":43.29627,"lon":5.37726,"is_reserved":false,"is_disabled":false,"rental_uris":{"android":"levelo://app?vid=84333cca-c52c-4b63-8e34-f2ff38525e7f","ios":"levelo://app?vid=84333cca-c52c-4b63-8e34-f2ff38525e7f"},"vehicle_type_id":"4","last_reported":1735153633,"current_range_meters":36400,"station_id":"ce4bgi92rcd13ifvqb90","pricing_plan_id":"cebpf4jnsgd1na2vs0mg"},{"bike_id":"25d6da57-f95c-401f-8ecf-cd3da8aa93af","system_id":"levelo_inurba_marseille","lat":43.30609,"lon":5.39347,"is_reserved":false,"is_disabled":false,"rental_uris":{"android":"levelo://app?vid=25d6da57-f95c-401f-8ecf-cd3da8aa93af","ios":"levelo://app?vid=25d6da57-f95c-401f-8ecf-cd3da8aa93af"},"vehicle_type_id":"4","last_reported":1735153633,"current_range_meters":38000,"station_id":"ce4bh492rcd13ifvqdug","pricing_plan_id":"cebpf4jnsgd1na2vs0mg"},{"bike_id":"09ead425-9d13-43d4-acec-357363767fd3","system_id":"levelo_inurba_marseille","lat":43.29524,"lon":5.39036,"is_reserved":false,"is_disabled":false,"rental_uris":{"android":"levelo://app?vid=09ead425-9d13-43d4-acec-357363767fd3","ios":"levelo://app?vid=09ead425-9d13-43d4-acec-357363767fd3"},"vehicle_type_id":"4","last_reported":1735153633,"current_range_meters":25600,"station_id":"ce4bh3p2rcd13ifvqdp0","pricing_plan_id":"cebpf4jnsgd1na2vs0mg"},{"bike_id":"89c31185-79e8-41ba-aeec-7ee23fd07219","system_id":"levelo_inurba_marseille","lat":43.26953,"lon":5.38626,"is_reserved":false,"is_disabled":false,"rental_uris":{"android":"levelo://app?vid=89c31185-79e8-41ba-aeec-7ee23fd07219","ios":"levelo://app?vid=89c31185-79e8-41ba-aeec-7ee23fd07219"},"vehicle_type_id":"4","last_reported":1735153633,"current_range_meters":35600,"station_id":"ce4bhh92rcd13ifvqfh0","pricing_plan_id":"cebpf4jnsgd1na2vs0mg"},{"bike_id":"621d593b-ed22-48f5-a28d-0e2719a211a2","system_id":"levelo_inurba_marseille","lat":43.32488,"lon":5.36561,"is_reserved":false,"is_disabled":false,"rental_uris":{"android":"levelo://app?vid=621d593b-ed22-48f5-a28d-0e2719a211a2","ios":"levelo://app?vid=621d593b-ed22-48f5-a28d-0e2719a211a2"},"vehicle_type_id":"4","last_reported":1735153633,"current_range_meters":38400,"station_id":"ce4bhs12rcd13ifvqhvg","pricing_plan_id":"cebpf4jnsgd1na2vs0mg"},{"bike_id":"dad2569f-c6f1-49c8-b60e-8c397489fca6","system_id":"levelo_inurba_marseille","lat":43.30879,"lon":5.39609,"is_reserved":false,"is_disabled":false,"rental_uris":{"android":"levelo://app?vid=dad2569f-c6f1-49c8-b60e-8c397489fca6","ios":"levelo://app?vid=dad2569f-c6f1-49c8-b60e-8c397489fca6"},"vehicle_type_id":"4","last_reported":1735153633,"current_range_meters":39200,"station_id":"ce4bh012rcd13ifvqcv0","pricing_plan_id":"cebpf4jnsgd1na2vs0mg"},{"bike_id":"3bcae9d5-69ac-4402-a5fa-13dc20fb6629","system_id":"levelo_inurba_marseille","lat":43.33593,"lon":5.40978,"is_reserved":false,"is_disabled":false,"rental_uris":{"android":"levelo://app?vid=3bcae9d5-69ac-4402-a5fa-13dc20fb6629","ios":"levelo://app?vid=3bcae9d5-69ac-4402-a5fa-13dc20fb6629"},"vehicle_type_id":"4","last_reported":1735153633,"current_range_meters":10800,"station_id":"ce4bhqh2rcd13ifvqhmg","pricing_plan_id":"cebpf4jnsgd1na2vs0mg"},{"bike_id":"1b4edc2f-54a6-4a09-a5f7-025e9e022c66","system_id":"levelo_inurba_marseille","lat":43.29623,"lon":5.37153,"is_reserved":false,"is_disabled":false,"rental_uris":{"android":"levelo://app?vid=1b4edc2f-54a6-4a09-a5f7-025e9e022c66","ios":"levelo://app?vid=1b4edc2f-54a6-4a09-a5f7-025e9e022c66"},"vehicle_type_id":"4","last_reported":1735153633,"current_range_meters":38800,"station_id":"ce4bgnh2rcd13ifvqc0g","pricing_plan_id":"cebpf4jnsgd1na2vs0mg"},{"bike_id":"6934ee50-ec35-487d-8cd8-e94726eaca11","system_id":"levelo_inurba_marseille","lat":43.26209,"lon":5.37444,"is_reserved":false,"is_disabled":false,"rental_uris":{"android":"levelo://app?vid=6934ee50-ec35-487d-8cd8-e94726eaca11","ios":"levelo://app?vid=6934ee50-ec35-487d-8cd8-e94726eaca11"},"vehicle_type_id":"4","last_reported":1735153633,"current_range_meters":35200,"station_id":"ce4bhgp2rcd13ifvqfc0","pricing_plan_id":"cebpf4jnsgd1na2vs0mg"},{"bike_id":"441c8311-0c47-449c-9802-2d24792eb261","system_id":"levelo_inurba_marseille","lat":43.30423,"lon":5.39756,"is_reserved":false,"is_disabled":false,"rental_uris":{"android":"levelo://app?vid=441c8311-0c47-449c-9802-2d24792eb261","ios":"levelo://app?vid=441c8311-0c47-449c-9802-2d24792eb261"},"vehicle_type_id":"4","last_reported":1735153633,"current_range_meters":12800,"station_id":"ce4bh092rcd13ifvqd20","pricing_plan_id":"cebpf4jnsgd1na2vs0mg"},{"bike_id":"33d20d6a-d945-4038-8d83-b193f6810a61","system_id":"levelo_inurba_marseille","lat":43.28479,"lon":5.38425,"is_reserved":false,"is_disabled":false,"rental_uris":{"android":"levelo://app?vid=33d20d6a-d945-4038-8d83-b193f6810a61","ios":"levelo://app?vid=33d20d6a-d945-4038-8d83-b193f6810a61"},