{"last_updated":1759072133,"ttl":60,"version":"2.2","data":{"bikes":[{"bike_id":"588bb5c6-d90f-4edd-b1de-2d2164a39c00","system_id":"levelo_inurba_marseille","lat":43.32923,"lon":5.39008,"is_reserved":false,"is_disabled":true,"rental_uris":{"android":"levelo://app?vid=588bb5c6-d90f-4edd-b1de-2d2164a39c00","ios":"levelo://app?vid=588bb5c6-d90f-4edd-b1de-2d2164a39c00"},"vehicle_type_id":"4","last_reported":1759072133,"current_range_meters":2800,"station_id":"","pricing_plan_id":"cebpf4jnsgd1na2vs0mg"},{"bike_id":"305036cf-9680-4c41-a750-c91193834399","system_id":"levelo_inurba_marseille","lat":43.29613,"lon":5.38104,"is_reserved":false,"is_disabled":false,"rental_uris":{"android":"levelo://app?vid=305036cf-9680-4c41-a750-c91193834399","ios":"levelo://app?vid=305036cf-9680-4c41-a750-c91193834399"},"vehicle_type_id":"4","last_reported":1759072133,"current_range_meters":2800,"station_id":"ce4bgl12rcd13ifvqbo0","pricing_plan_id":"cebpf4jnsgd1na2vs0mg"},{"bike_id":"b48854c8-6857-46e1-ba20-8e3c15b83ca3","system_id":"levelo_inurba_marseille","lat":43.28351,"lon":5.38097,"is_reserved":false,"is_disabled":false,"rental_uris":{"android":"levelo://app?vid=b48854c8-6857-46e1-ba20-8e3c15b83ca3","ios":"levelo://app?vid=b48854c8-6857-46e1-ba20-8e3c15b83ca3"},"vehicle_type_id":"4","last_reported":1759072133,"current_range_meters":2800,"station_id":"ce4bh412rcd13ifvqdr0","pricing_plan_id":"cebpf4jnsgd1na2vs0mg"},{"bike_id":"af5b7fdf-6b71-4411-b11f-406ea44ecb80","system_id":"levelo_inurba_marseille","lat":43.2417,"lon":5.36399,"is_reserved":false,"is_disabled":true,"rental_uris":{"android":"levelo://app?vid=af5b7fdf-6b71-4411-b11f-406ea44ecb80","ios":"levelo://app?vid=af5b7fdf-6b71-4411-b11f-406ea44ecb80"},"vehicle_type_id":"4","last_reported":1759072133,"current_range_meters":2800,"station_id":"cpo36qri1sfpv3e86is0","pricing_plan_id":"cebpf4jnsgd1na2vs0mg"},{"bike_id":"be890e47-9fe0-4c17-aeaa-4694a10ac62a","system_id":"levelo_inurba_marseille","lat":43.28426,"lon":5.34982,"is_reserved":false,"is_disabled":false,"rental_uris":{"android":"levelo://app?vid=be890e47-9fe0-4c17-aeaa-4694a10ac62a","ios":"levelo://app?vid=be890e47-9fe0-4c17-aeaa-4694a10ac62a"},"vehicle_type_id":"4","last_reported":1759072133,"current_range_meters":2800,"station_id":"ce4bhbh2rcd13ifvqepg","pricing_plan_id":"cebpf4jnsgd1na2vs0mg"},{"bike_id":"12fcf498-497d-448a-9f18-483f75aa6fa6","system_id":"levelo_inurba_marseille","lat":43.22927,"lon":5.35376,"is_reserved":false,"is_disabled":false,"rental_uris":{"android":"levelo://app?vid=12fcf498-497d-448a-9f18-483f75aa6fa6","ios":"levelo://app?vid=12fcf498-497d-448a-9f18-483f75aa6fa6"},"vehicle_type_id":"4","last_reported":1759072133,"current_range_meters":3200,"station_id":"cpo3532slgdg3j2ikp40","pricing_plan_id":"cebpf4jnsgd1na2vs0mg"},{"bike_id":"05bc9778-38e6-4a96-ac16-8e20862b1b08","system_id":"levelo_inurba_marseille","lat":43.28609,"lon":5.35111,"is_reserved":false,"is_disabled":false,"rental_uris":{"android":"levelo://app?vid=05bc9778-38e6-4a96-ac16-8e20862b1b08","ios":"levelo://app?vid=05bc9778-38e6-4a96-ac16-8e20862b1b08"},"vehicle_type_id":"4","last_reported":1759072133,"current_range_meters":3200,"station_id":"ce4bhch2rcd13ifvqeug","pricing_plan_id":"cebpf4jnsgd1na2vs0mg"},{"bike_id":"61d2a593-ccee-4606-8642-afddeef4dfc4","system_id":"levelo_inurba_marseille","lat":43.28613,"lon":5.35102,"is_reserved":false,"is_disabled":false,"rental_uris":{"android":"levelo://app?vid=61d2a593-ccee-4606-8642-afddeef4dfc4","ios":"levelo://app?vid=61d2a593-ccee-4606-8642-afddeef4dfc4"},"vehicle_type_id":"4","last_reported":1759072133,"current_range_meters":3200,"station_id":"ce4bhch2rcd13ifvqeug","pricing_plan_id":"cebpf4jnsgd1na2vs0mg"},{"bike_id":"a831da64-d65a-4ca9-be87-028f6b35aff9","system_id":"levelo_inurba_marseille","lat":43.25503,"lon":5.3765,"is_reserved":false,"is_disabled":false,"rental_uris":{"android":"levelo://app?vid=a831da64-d65a-4ca9-be87-028f6b35aff9","ios":"levelo://app?vid=a831da64-d65a-4ca9-be87-028f6b35aff9"},"vehicle_type_id":"4","last_reported":1759072133,"current_range_meters":3200,"station_id":"ce4bhh12rcd13ifvqff0","pricing_plan_id":"cebpf4jnsgd1na2vs0mg"},{"bike_id":"710afc9d-f327-4edf-9cc6-1daf66cca427","system_id":"levelo_inurba_marseille","lat":43.2861,"lon":5.35108,"is_reserved":false,"is_disabled":false,"rental_uris":{"android":"levelo://app?vid=710afc9d-f327-4edf-9cc6-1daf66cca427","ios":"levelo://app?vid=710afc9d-f327-4edf-9cc6-1daf66cca427"},"vehicle_type_id":"4","last_reported":1759072133,"current_range_meters":3200,"station_id":"ce4bhch2rcd13ifvqeug","pricing_plan_id":"cebpf4jnsgd1na2vs0mg"},{"bike_id":"1b5f9b74-3460-4a1a-bfb0-5a3c3ce5fd65","system_id":"levelo_inurba_marseille","lat":43.23174,"lon":5.39985,"is_reserved":false,"is_disabled":false,"rental_uris":{"android":"levelo://app?vid=1b5f9b74-3460-4a1a-bfb0-5a3c3ce5fd65","ios":"levelo://app?vid=1b5f9b74-3460-4a1a-bfb0-5a3c3ce5fd65"},"vehicle_type_id":"4","last_reported":1759072133,"current_range_meters":3200,"station_id":"ce4bhn12rcd13ifvqgqg","pricing_plan_id":"cebpf4jnsgd1na2vs0mg"},{"bike_id":"2fca84cf-4b42-48dd-b381-06d7c68a43ab","system_id":"levelo_inurba_marseille","lat":43.28484,"lon":5.38426,"is_reserved":false,"is_disabled":false,"rental_uris":{"android":"levelo://app?vid=2fca84cf-4b42-48dd-b381-06d7c68a43ab","ios":"levelo://app?vid=2fca84cf-4b42-48dd-b381-06d7c68a43ab"},"vehicle_type_id":"4","last_reported":1759072133,"current_range_meters":3200,"station_id":"ce4bh512rcd13ifvqe3g","pricing_plan_id":"cebpf4jnsgd1na2vs0mg"},{"bike_id":"8aa49507-d658-46dd-9e21-03dce4dd9ed9","system_id":"levelo_inurba_marseille","lat":43.22543,"lon":5.348412,"is_reserved":false,"is_disabled":false,"rental_uris":{"android":"levelo://app?vid=8aa49507-d658-46dd-9e21-03dce4dd9ed9","ios":"levelo://app?vid=8aa49507-d658-46dd-9e21-03dce4dd9ed9"},"vehicle_type_id":"4","last_reported":1759072133,"current_range_meters":3200,"station_id":"","pricing_plan_id":"cebpf4jnsgd1na2vs0mg"},{"bike_id":"85531783-ff1b-4259-a3fd-567f1c9479b2","system_id":"levelo_inurba_marseille","lat":43.30593,"lon":5.39359,"is_reserved":false,"is_disabled":false,"rental_uris":{"android":"levelo://app?vid=85531783-ff1b-4259-a3fd-567f1c9479b2","ios":"levelo://app?vid=85531783-ff1b-4259-a3fd-567f1c9479b2"},"vehicle_type_id":"4","last_reported":1759072133,"current_range_meters":2800,"station_id":"ce4bh0p2rcd13ifvqd80","pricing_plan_id":"cebpf4jnsgd1na2vs0mg"},{"bike_id":"66883f00-c963-4717-b74d-3215b648cfa5","system_id":"levelo_inurba_marseille","lat":43.309602,"lon":5.390533,"is_reserved":false,"is_disabled":false,"rental_uris":{"android":"levelo://app?vid=66883f00-c963-4717-b74d-3215b648cfa5","ios":"levelo://app?vid=66883f00-c963-4717-b74d-3215b648cfa5"},"vehicle_type_id":"4","last_reported":1759072133,"current_range_meters":3200,"station_id":"ce4bgup2rcd13ifvqco0","pricing_plan_id":"cebpf4jnsgd1na2vs0mg"},{"bike_id":"367743e3-f35a-4efd-9436-6839b77f0d84","system_id":"levelo_inurba_marseille","lat":43.28463,"lon":5.35892,"is_reserved":false,"is_disabled":false,"rental_uris":{"android":"levelo://app?vid=367743e3-f35a-4efd-9436-6839b77f0d84","ios":"levelo://app?vid=367743e3-f35a-4efd-9436-6839b77f0d84"},"vehicle_type_id":"4","last_reported":1759072133,"current_range_meters":3200,"station_id":"ce4bhah2rcd13ifvqei0","pricing_plan_id":"cebpf4jnsgd1na2vs0mg"},{"bike_id":"9a819dc8-447d-4df7-8b5f-0b18332a26a7","system_id":"levelo_inurba_marseille","lat":43.32918,"lon":5.37543,"is_reserved":false,"is_disabled":false,"rental_uris":{"android":"levelo://app?vid=9a819dc8-447d-4df7-8b5f-0b18332a26a7","ios":"levelo://app?vid=9a819dc8-447d-4df7-8b5f-0b18332a26a7"},"vehicle_type_id":"4","last_reported":1759072133,"current_range_meters":4000,"station_id":"","pricing_plan_id":"cebpf4jnsgd1na2vs0mg"},{"bike_id":"506b03c1-4457-4f9a-8cc6-d8d155aaf368","system_id":"levelo_inurba_marseille","lat":43.27214,"lon":5.39177,"is_reserved":false,"is_disabled":false,"rental_uris":{"android":"levelo://app?vid=506b03c1-4457-4f9a-8cc6-d8d155aaf368","ios":"levelo://app?vid=506b03c1-4457-4f9a-8cc6-d8d155aaf368"},"vehicle_type_id":"4","last_reported":1759072133,"current_range_meters":4400,"station_id":"ce4bhhp2rcd13ifvqfm0","pricing_plan_id":"cebpf4jnsgd1na2vs0mg"},{"bike_id":"2336a081-3301-4818-b498-4e2b16a6631f","system_id":"levelo_inurba_marseille","lat":43.32337,"lon":5.44012,"is_reserved":false,"is_disabled":false,"rental_uris":{"android":"levelo://app?vid=2336a081-3301-4818-b498-4e2b16a6631f","ios":"levelo://app?vid=2336a081-3301-4818-b498-4e2b16a6631f"},"vehicle_type_id":"4","last_reported":1759072133,"current_range_meters":4400,"station_id":"","pricing_plan_id":"cebpf4jnsgd1na2vs0mg"},{"bike_id":"52364855-f69f-479c-9cae-f50921bf88ae","system_id":"levelo_inurba_marseille","lat":43.25338,"lon":5.421785,"is_reserved":false,"is_disabled":false,"rental_uris":{"android":"levelo://app?vid=52364855-f69f-479c-9cae-f50921bf88ae","ios":"levelo://app?vid=52364855-f69f-479c-9cae-f50921bf88ae"},"vehicle_type_id":"4","last_reported":1759072133,"current_range_meters":4400,"station_id":"st_d2m65c5bi1j21697t3ng","pricing_plan_id":"cebpf4jnsgd1na2vs0mg"},{"bike_id":"08fe2b08-b3fa-43f8-ae73-04061f76318d","system_id":"levelo_inurba_marseille","lat":43.305552,"lon":5.365395,"is_reserved":false,"is_disabled":false,"rental_uris":{"android":"levelo://app?vid=08fe2b08-b3fa-43f8-ae73-04061f76318d","ios":"levelo://app?vid=08fe2b08-b3fa-43f8-ae73-04061f76318d"},"vehicle_type_id":"4","last_reported":1759072133,"current_range_meters":4400,"station_id":"","pricing_plan_id":"cebpf4jnsgd1na2vs0mg"},{"bike_id":"6266bc05-bd87-4f31-b9c7-2b15c535a109","system_id":"levelo_inurba_marseille","lat":43.282776,"lon":5.350616,"is_reserved":false,"is_disabled":true,"rental_uris":{"android":"levelo://app?vid=6266bc05-bd87-4f31-b9c7-2b15c535a109","ios":"levelo://app?vid=6266bc05-bd87-4f31-b9c7-2b15c535a109"},"vehicle_type_id":"4","last_reported":1759072133,"current_range_meters":4400,"station_id":"ce4bhbp2rcd13ifvqerg","pricing_plan_id":"cebpf4jnsgd1na2vs0mg"},{"bike_id":"1b457d99-005f-4de8-97f6-64f434a49d41","system_id":"levelo_inurba_marseille","lat":43.29922,"lon":5.36508,"is_reserved":false,"is_disabled":false,"rental_uris":{"android":"levelo://app?vid=1b457d99-005f-4de8-97f6-64f434a49d41","ios":"levelo://app?vid=1b457d99-005f-4de8-97f6-64f434a49d41"},"vehicle_type_id":"4","last_reported":1759072133,"current_range_meters":4800,"station_id":"ce4bgm92rcd13ifvqbr0","pricing_plan_id":"cebpf4jnsgd1na2vs0mg"},{"bike_id":"5413aecb-b5c5-42a1-ab1c-532f03a3a989","system_id":"levelo_inurba_marseille","lat":43.29815,"lon":5.38106,"is_reserved":false,"is_disabled":false,"rental_uris":{"android":"levelo://app?vid=5413aecb-b5c5-42a1-ab1c-532f03a3a989","ios":"levelo://app?vid=5413aecb-b5c5-42a1-ab1c-532f03a3a989"},"vehicle_type_id":"4","last_reported":1759072133,"current_range_meters":4800,"station_id":"ce4bgip2rcd13ifvqbb0","pricing_plan_id":"cebpf4jnsgd1na2vs0mg"},{"bike_id":"5279259c-45ab-425c-adc7-05d3e3b83f65","system_id":"levelo_inurba_marseille","lat":43.29915,"lon":5.38508,"is_reserved":false,"is_disabled":false,"rental_uris":{"android":"levelo://app?vid=5279259c-45ab-425c-adc7-05d3e3b83f65","ios":"levelo://app?vid=5279259c-45ab-425c-adc7-05d3e3b83f65"},"vehicle_type_id":"4","last_reported":1759072133,"current_range_meters":4800,"station_id":"","pricing_plan_id":"cebpf4jnsgd1na2vs0mg"},{"bike_id":"8e385f69-4a89-4bf0-86a4-c68fbcf7e1cb","system_id":"levelo_inurba_marseille","lat":43.225324,"lon":5.348325,"is_reserved":false,"is_disabled":false,"rental_uris":{"android":"levelo://app?vid=8e385f69-4a89-4bf0-86a4-c68fbcf7e1cb","ios":"levelo://app?vid=8e385f69-4a89-4bf0-86a4-c68fbcf7e1cb"},"vehicle_type_id":"4","last_reported":1759072133,"current_range_meters":4800,"station_id":"","pricing_plan_id":"cebpf4jnsgd1na2vs0mg"},{"bike_id":"f8723556-6224-46a2-bbbb-f7110f35c59f","system_id":"levelo_inurba_marseille","lat":43.27368,"lon":5.36257,"is_reserved":false,"is_disabled":true,"rental_uris":{"android":"levelo://app?vid=f8723556-6224-46a2-bbbb-f7110f35c59f","ios":"levelo://app?vid=f8723556-6224-46a2-bbbb-f7110f35c59f"},"vehicle_type_id":"4","last_reported":1759072133,"current_range_meters":4800,"station_id":"ce4bhbh2rcd13ifvqeo0","pricing_plan_id":"cebpf4jnsgd1na2vs0mg"},{"bike_id":"fee74e98-eb52-4f66-a612-109c75f34aa6","system_id":"levelo_inurba_marseille","lat":43.29607,"lon":5.37946,"is_reserved":false,"is_disabled":false,"rental_uris":{"android":"levelo://app?vid=fee74e98-eb52-4f66-a612-109c75f34aa6","ios":"levelo://app?vid=fee74e98-eb52-4f66-a612-109c75f34aa6"},"vehicle_type_id":"4","last_reported":1759072133,"current_range_meters":4800,"station_id":"","pricing_plan_id":"cebpf4jnsgd1na2vs0mg"},{"bike_id":"4c156548-7587-48be-ba7c-95a1560f6447","system_id":"levelo_inurba_marseille","lat":43.28426,"lon":5.34984,"is_reserved":false,"is_disabled":false,"rental_uris":{"android":"levelo://app?vid=4c156548-7587-48be-ba7c-95a1560f6447","ios":"levelo://app?vid=4c156548-7587-48be-ba7c-95a1560f6447"},"vehicle_type_id":"4","last_reported":1759072133,"current_range_meters":4800,"station_id":"ce4bhbh2rcd13ifvqepg","pricing_plan_id":"cebpf4jnsgd1na2vs0mg"},{"bike_id":"00b0b978-4e9a-4ce5-9c1c-a2a003b09fe1","system_id":"levelo_inurba_marseille","lat":43.26225,"lon":5.37452,"is_reserved":false,"is_disabled":false,"rental_uris":{"android":"levelo://app?vid=00b0b978-4e9a-4ce5-9c1c-a2a003b09fe1","ios":"levelo://app?vid=00b0b978-4e9a-4ce5-9c1c-a2a003b09fe1"},"vehicle_type_id":"4","last_reported":1759072133,"current_range_meters":5600,"station_id":"","pricing_plan_id":"cebpf4jnsgd1na2vs0mg"},{"bike_id":"754291d0-f3fe-4d1b-a17b-6458259922ad","system_id":"levelo_inurba_marseille","lat":43.2439,"lon":5.37061,"is_reserved":false,"is_disabled":false,"rental_uris":{"android":"levelo://app?vid=754291d0-f3fe-4d1b-a17b-6458259922ad","ios":"levelo://app?vid=754291d0-f3fe-4d1b-a17b-6458259922ad"},"vehicle_type_id":"4","last_reported":1759072133,"current_range_meters":5600,"station_id":"ce4bhhh2rcd13ifvqfk0","pricing_plan_id":"cebpf4jnsgd1na2vs0mg"},{"bike_id":"0081f95c-0d66-401c-a8b0-4e5fa9a1dafe","system_id":"levelo_inurba_marseille","lat":43.2823,"lon":5.39069,"is_reserved":false,"is_disabled":false,"rental_uris":{"android":"levelo://app?vid=0081f95c-0d66-401c-a8b0-4e5fa9a1dafe","ios":"levelo://app?vid=0081f95c-0d66-401c-a8b0-4e5fa9a1dafe"},"vehicle_type_id":"4","last_reported":1759072133,"current_range_meters":5600,"station_id":"ce4bhn92rcd13ifvqgsg","pricing_plan_id":"cebpf4jnsgd1na2vs0mg"},{"bike_id":"cc10a393-c8ce-43fb-8334-7d6d68691d22","system_id":"levelo_inurba_marseille","lat":43.26923,"lon":5.36687,"is_reserved":false,"is_disabled":false,"rental_uris":{"android":"levelo://app?vid=cc10a393-c8ce-43fb-8334-7d6d68691d22","ios":"levelo://app?vid=cc10a393-c8ce-43fb-8334-7d6d68691d22"},"vehicle_type_id":"4","last_reported":1759072133,"current_range_meters":6000,"station_id":"","pricing_plan_id":"cebpf4jnsgd1na2vs0mg"},{"bike_id":"7e1a52ac-2f0f-4f9a-94bc-865b1893fdc8","system_id":"levelo_inurba_marseille","lat":43.31236,"lon":5.36848,"is_reserved":false,"is_disabled":false,"rental_uris":{"android":"levelo://app?vid=7e1a52ac-2f0f-4f9a-94bc-865b1893fdc8","ios":"levelo://app?vid=7e1a52ac-2f0f-4f9a-94bc-865b1893fdc8"},"vehicle_type_id":"4","last_reported":1759072133,"current_range_meters":6000,"station_id":"ce4bgl92rcd13ifvqbq0","pricing_plan_id":"cebpf4jnsgd1na2vs0mg"},{"bike_id":"ed5ef1f4-67ca-4499-8575-660b762d8025","system_id":"levelo_inurba_marseille","lat":43.24634,"lon":5.43139,"is_reserved":false,"is_disabled":false,"rental_uris":{"android":"levelo://app?vid=ed5ef1f4-67ca-4499-8575-660b762d8025","ios":"levelo://app?vid=ed5ef1f4-67ca-4499-8575-660b762d8025"},"vehicle_type_id":"4","last_reported":1759072133,"current_range_meters":6000,"station_id":"st_d2m6c4gdas8pm72e190g","pricing_plan_id":"cebpf4jnsgd1na2vs0mg"},{"bike_id":"eb3a0e85-c387-4ef6-8529-88d138697598","system_id":"levelo_inurba_marseille","lat":43.28866,"lon":5.42521,"is_reserved":false,"is_disabled":false,"rental_uris":{"android":"levelo://app?vid=eb3a0e85-c387-4ef6-8529-88d138697598","ios":"levelo://app?vid=eb3a0e85-c387-4ef6-8529-88d138697598"},"vehicle_type_id":"4","last_reported":1759072133,"current_range_meters":6000,"station_id":"st_d3b462108ojc7389ooeg","pricing_plan_id":"cebpf4jnsgd1na2vs0mg"},{"bike_id":"efc34325-1846-4ba7-a2f6-39fe684e3bfd","system_id":"levelo_inurba_marseille","lat":43.28937,"lon":5.36634,"is_reserved":false,"is_disabled":false,"rental_uris":{"android":"levelo://app?vid=efc34325-1846-4ba7-a2f6-39fe684e3bfd","ios":"levelo://app?vid=efc34325-1846-4ba7-a2f6-39fe684e3bfd"},"vehicle_type_id":"4","last_reported":1759072133,"current_range_meters":5600,"station_id":"ce4bhap2rcd13ifvqek0","pricing_plan_id":"cebpf4jnsgd1na2vs0mg"},{"bike_id":"258cdec3-550e-4dba-a68a-b6b29bffdab6","system_id":"levelo_inurba_marseille","lat":43.29275,"lon":5.36838,"is_reserved":false,"is_disabled":false,"rental_uris":{"android":"levelo://app?vid=258cdec3-550e-4dba-a68a-b6b29bffdab6","ios":"levelo://app?vid=258cdec3-550e-4dba-a68a-b6b29bffdab6"},"vehicle_type_id":"4","last_reported":1759072133,"current_range_meters":6000,"station_id":"ce4bhbp2rcd13ifvqesg","pricing_plan_id":"cebpf4jnsgd1na2vs0mg"},{"bike_id":"9bb4db31-0bf9-4171-bca1-76cb045f53a3","system_id":"levelo_inurba_marseille","lat":43.26924,"lon":5.389081,"is_reserved":false,"is_disabled":true,"rental_uris":{"android":"levelo://app?vid=9bb4db31-0bf9-4171-bca1-76cb045f53a3","ios":"levelo://app?vid=9bb4db31-0bf9-4171-bca1-76cb045f53a3"},"vehicle_type_id":"4","last_reported":1759072133,"current_range_meters":6400,"station_id":"ce4bhhh2rcd13ifvqfl0","pricing_plan_id":"cebpf4jnsgd1na2vs0mg"},{"bike_id":"7fa790bb-5e3a-4f97-ad5f-d588f2a9c34f","system_id":"levelo_inurba_marseille","lat":43.297039,"lon":5.376717,"is_reserved":false,"is_disabled":false,"rental_uris":{"android":"levelo://app?vid=7fa790bb-5e3a-4f97-ad5f-d588f2a9c34f","ios":"levelo://app?vid=7fa790bb-5e3a-4f97-ad5f-d588f2a9c34f"},"vehicle_type_id":"4","last_reported":1759072133,"current_range_meters":6000,"station_id":"ce4bgkh2rcd13ifvqbl0","pricing_plan_id":"cebpf4jnsgd1na2vs0mg"},{"bike_id":"aa7b7ec4-7ab9-4508-9073-cd42f9b66aca","system_id":"levelo_inurba_marseille","lat":43.30421,"lon":5.41275,"is_reserved":false,"is_disabled":false,"rental_uris":{"android":"levelo://app?vid=aa7b7ec4-7ab9-4508-9073-cd42f9b66aca","ios":"levelo://app?vid=aa7b7ec4-7ab9-4508-9073-cd42f9b66aca"},"vehicle_type_id":"4","last_reported":1759072133,"current_range_meters":6000,"station_id":"ce4bhop2rcd13ifvqh8g","pricing_plan_id":"cebpf4jnsgd1na2vs0mg"},{"bike_id":"b3e34fc3-3564-4a25-85da-1cd028c24aa3","system_id":"levelo_inurba_marseille","lat":43.28232,"lon":5.39067,"is_reserved":false,"is_disabled":false,"rental_uris":{"android":"levelo://app?vid=b3e34fc3-3564-4a25-85da-1cd028c24aa3","ios":"levelo://app?vid=b3e34fc3-3564-4a25-85da-1cd028c24aa3"},"vehicle_type_id":"4","last_reported":1759072133,"current_range_meters":6400,"station_id":"ce4bhn92rcd13ifvqgsg","pricing_plan_id":"cebpf4jnsgd1na2vs0mg"},{"bike_id":"1fe44ba1-3d92-424b-9e42-34c947824d4a","system_id":"levelo_inurba_marseille","lat":43.31716,"lon":5.42406,"is_reserved":false,"is_disabled":false,"rental_uris":{"android":"levelo://app?vid=1fe44ba1-3d92-424b-9e42-34c947824d4a","ios":"levelo://app?vid=1fe44ba1-3d92-424b-9e42-34c947824d4a"},"vehicle_type_id":"4","last_reported":1759072133,"current_range_meters":6800,"station_id":"ce4bhp92rcd13ifvqhbg","pricing_plan_id":"cebpf4jnsgd1na2vs0mg"},{"bike_id":"5365e873-98ea-45e2-9689-7e119051f22e","system_id":"levelo_inurba_marseille","lat":43.33032,"lon":5.35917,"is_reserved":false,"is_disabled":true,"rental_uris":{"android":"levelo://app?vid=5365e873-98ea-45e2-9689-7e119051f22e","ios":"levelo://app?vid=5365e873-98ea-45e2-9689-7e119051f22e"},"vehicle_type_id":"4","last_reported":1759072133,"current_range_meters":6800,"station_id":"","pricing_plan_id":"cebpf4jnsgd1na2vs0mg"},{"bike_id":"1b29a3de-7642-4a19-a01c-b02eab2a0e8b","system_id":"levelo_inurba_marseille","lat":43.28856,"lon":5.35848,"is_reserved":false,"is_disabled":false,"rental_uris":{"android":"levelo://app?vid=1b29a3de-7642-4a19-a01c-b02eab2a0e8b","ios":"levelo://app?vid=1b29a3de-7642-4a19-a01c-b02eab2a0e8b"},"vehicle_type_id":"4","last_reported":1759072133,"current_range_meters":6800,"station_id":"ce4bhb12rcd13ifvqem0","pricing_plan_id":"cebpf4jnsgd1na2vs0mg"},{"bike_id":"fbef676b-8f42-450e-b448-da45ad596c28","system_id":"levelo_inurba_marseille","lat":43.28416,"lon":5.36247,"is_reserved":false,"is_disabled":false,"rental_uris":{"android":"levelo://app?vid=fbef676b-8f42-450e-b448-da45ad596c28","ios":"levelo://app?vid=fbef676b-8f42-450e-b448-da45ad596c28"},"vehicle_type_id":"4","last_reported":1759072133,"current_range_meters":6800,"station_id":"","pricing_plan_id":"cebpf4jnsgd1na2vs0mg"},{"bike_id":"c604472e-e6ae-44cb-8f0d-3a18fd107603","system_id":"levelo_inurba_marseille","lat":43.29715,"lon":5.36621,"is_reserved":false,"is_disabled":false,"rental_uris":{"android":"levelo://app?vid=c604472e-e6ae-44cb-8f0d-3a18fd107603","ios":"levelo://app?vid=c604472e-e6ae-44cb-8f0d-3a18fd107603"},"vehicle_type_id":"4","last_reported":1759072133,"current_range_meters":6800,"station_id":"ce4bgn12rcd13ifvqbt0","pricing_plan_id":"cebpf4jnsgd1na2vs0mg"},{"bike_id":"fdecee9b-bc23-4a96-b40a-1cac91689b0e","system_id":"levelo_inurba_marseille","lat":43.308871,"lon":5.372,"is_reserved":false,"is_disabled":false,"rental_uris":{"android":"levelo://app?vid=fdecee9b-bc23-4a96-b40a-1cac91689b0e","ios":"levelo://app?vid=fdecee9b-bc23-4a96-b40a-1cac91689b0e"},"vehicle_type_id":"4","last_reported":1759072133,"current_range_meters":6800,"station_id":"ce4bguh2rcd13ifvqckg","pricing_plan_id":"cebpf4jnsgd1na2vs0mg"},{"bike_id":"01bf55f2-4ac6-46f6-8504-3267bf31e1a6","system_id":"levelo_inurba_marseille","lat":43.2973,"lon":5.381787,"is_reserved":false,"is_disabled":false,"rental_uris":{"android":"levelo://app?vid=01bf55f2-4ac6-46f6-8504-3267bf31e1a6","ios":"levelo://app?vid=01bf55f2-4ac6-46f6-8504-3267bf31e1a6"},"vehicle_type_id":"4","last_reported":1759072133,"current_range_meters":6800,"station_id":"","pricing_plan_id":"cebpf4jnsgd1na2vs0mg"},{"bike_id":"ee96a502-9b76-492e-840a-498b02aefe72","system_id":"levelo_inurba_marseille","lat":43.32354,"lon":5.39225,"is_reserved":false,"is_disabled":false,"rental_uris":{"android":"levelo://app?vid=ee96a502-9b76-492e-840a-498b02aefe72","ios":"levelo://app?vid=ee96a502-9b76-492e-840a-498b02aefe72"},"vehicle_type_id":"4","last_reported":1759072133,"current_range_meters":6800,"station_id":"","pricing_plan_id":"cebpf4jnsgd1na2vs0mg"},{"bike_id":"3f51e03c-3abb-4dde-8cdd-da596aa3252f","system_id":"levelo_inurba_marseille","lat":43.27724,"lon":5.38836,"is_reserved":false,"is_disabled":true,"rental_uris":{"android":"levelo://app?vid=3f51e03c-3abb-4dde-8cdd-da596aa3252f","ios":"levelo://app?vid=3f51e03c-3abb-4dde-8cdd-da596aa3252f"},"vehicle_type_id":"4","last_reported":1759072133,"current_range_meters":7200,"station_id":"","pricing_plan_id":"cebpf4jnsgd1na2vs0mg"},{"bike_id":"8ca950af-c734-4953-a223-5154340dcfd8","system_id":"levelo_inurba_marseille","lat":43.272077,"lon":5.391826,"is_reserved":false,"is_disabled":false,"rental_uris":{"android":"levelo://app?vid=8ca950af-c734-4953-a223-5154340dcfd8","ios":"levelo://app?vid=8ca950af-c734-4953-a223-5154340dcfd8"},"vehicle_type_id":"4","last_reported":1759072133,"current_range_meters":7200,"station_id":"ce4bhhp2rcd13ifvqfm0","pricing_plan_id":"cebpf4jnsgd1na2vs0mg"},{"bike_id":"6b4056da-d6fb-4105-99ab-9200a9f9f4ce","system_id":"levelo_inurba_marseille","lat":43.211983,"lon":5.350481,"is_reserved":false,"is_disabled":false,"rental_uris":{"android":"levelo://app?vid=6b4056da-d6fb-4105-99ab-9200a9f9f4ce","ios":"levelo://app?vid=6b4056da-d6fb-4105-99ab-9200a9f9f4ce"},"vehicle_type_id":"4","last_reported":1759072133,"current_range_meters":7200,"station_id":"st_cvj6sg6p6f1abm77japg","pricing_plan_id":"cebpf4jnsgd1na2vs0mg"},{"bike_id":"298706a5-ec75-430f-9804-fe297583f42e","system_id":"levelo_inurba_marseille","lat":43.284811,"lon":5.384188,"is_reserved":false,"is_disabled":false,"rental_uris":{"android":"levelo://app?vid=298706a5-ec75-430f-9804-fe297583f42e","ios":"levelo://app?vid=298706a5-ec75-430f-9804-fe297583f42e"},"vehicle_type_id":"4","last_reported":1759072133,"current_range_meters":7200,"station_id":"ce4bh512rcd13ifvqe3g","pricing_plan_id":"cebpf4jnsgd1na2vs0mg"},{"bike_id":"3d689bbb-3aad-403d-80a5-3a184aff6886","system_id":"levelo_inurba_marseille","lat":43.30537,"lon":5.36534,"is_reserved":false,"is_disabled":true,"rental_uris":{"android":"levelo://app?vid=3d689bbb-3aad-403d-80a5-3a184aff6886","ios":"levelo://app?vid=3d689bbb-3aad-403d-80a5-3a184aff6886"},"vehicle_type_id":"4","last_reported":1759072133,"current_range_meters":8000,"station_id":"ce4bgs12rcd13ifvqcag","pricing_plan_id":"cebpf4jnsgd1na2vs0mg"},{"bike_id":"f4700d7c-c4f4-4346-88f1-31c5451190d1","system_id":"levelo_inurba_marseille","lat":43.29316,"lon":5.3717,"is_reserved":false,"is_disabled":true,"rental_uris":{"android":"levelo://app?vid=f4700d7c-c4f4-4346-88f1-31c5451190d1","ios":"levelo://app?vid=f4700d7c-c4f4-4346-88f1-31c5451190d1"},"vehicle_type_id":"4","last_reported":1759072133,"current_range_meters":8000,"station_id":"ce4bgh92rcd13ifvqb40","pricing_plan_id":"cebpf4jnsgd1na2vs0mg"},{"bike_id":"934ea1ec-b7f6-49a1-9efa-287317d4eb22","system_id":"levelo_inurba_marseille","lat":43.29048,"lon":5.35914,"is_reserved":false,"is_disabled":false,"rental_uris":{"android":"levelo://app?vid=934ea1ec-b7f6-49a1-9efa-287317d4eb22","ios":"levelo://app?vid=934ea1ec-b7f6-49a1-9efa-287317d4eb22"},"vehicle_type_id":"4","last_reported":1759072133,"current_range_meters":8000,"station_id":"","pricing_plan_id":"cebpf4jnsgd1na2vs0mg"},{"bike_id":"8360fe96-8a6b-4a67-9ba4-0ef948b002e1","system_id":"levelo_inurba_marseille","lat":43.2499,"lon":5.38912,"is_reserved":false,"is_disabled":true,"rental_uris":{"android":"levelo://app?vid=8360fe96-8a6b-4a67-9ba4-0ef948b002e1","ios":"levelo://app?vid=8360fe96-8a6b-4a67-9ba4-0ef948b002e1"},"vehicle_type_id":"4","last_reported":1759072133,"current_range_meters":8000,"station_id":"ce4bhgp2rcd13ifvqfd0","pricing_plan_id":"cebpf4jnsgd1na2vs0mg"},{"bike_id":"72f29b73-bc46-48ab-bb44-875a253fa97b","system_id":"levelo_inurba_marseille","lat":43.29734,"lon":5.38039,"is_reserved":false,"is_disabled":false,"rental_uris":{"android":"levelo://app?vid=72f29b73-bc46-48ab-bb44-875a253fa97b","ios":"levelo://app?vid=72f29b73-bc46-48ab-bb44-875a253fa97b"},"vehicle_type_id":"4","last_reported":1759072133,"current_range_meters":8400,"station_id":"","pricing_plan_id":"cebpf4jnsgd1na2vs0mg"},{"bike_id":"2d6da291-e08b-406f-9ae8-919b43ebf8be","system_id":"levelo_inurba_marseille","lat":43.30541,"lon":5.38426,"is_reserved":false,"is_disabled":false,"rental_uris":{"android":"levelo://app?vid=2d6da291-e08b-406f-9ae8-919b43ebf8be","ios":"levelo://app?vid=2d6da291-e08b-406f-9ae8-919b43ebf8be"},"vehicle_type_id":"4","last_reported":1759072133,"current_range_meters":8000,"station_id":"ce4bgg92rcd13ifvqb30","pricing_plan_id":"cebpf4jnsgd1na2vs0mg"},{"bike_id":"251ba6b0-6002-4bd9-bd39-134491cfd64b","system_id":"levelo_inurba_marseille","lat":43.29697,"lon":5.36608,"is_reserved":false,"is_disabled":false,"rental_uris":{"android":"levelo://app?vid=251ba6b0-6002-4bd9-bd39-134491cfd64b","ios":"levelo://app?vid=251ba6b0-6002-4bd9-bd39-134491cfd64b"},"vehicle_type_id":"4","last_reported":1759072133,"current_range_meters":8400,"station_id":"ce4bgn12rcd13ifvqbt0","pricing_plan_id":"cebpf4jnsgd1na2vs0mg"},{"bike_id":"3fd7c937-a838-4d6f-932e-9e3bccbc6d3b","system_id":"levelo_inurba_marseille","lat":43.29938,"lon":5.3823,"is_reserved":false,"is_disabled":false,"rental_uris":{"android":"levelo://app?vid=3fd7c937-a838-4d6f-932e-9e3bccbc6d3b","ios":"levelo://app?vid=3fd7c937-a838-4d6f-932e-9e3bccbc6d3b"},"vehicle_type_id":"4","last_reported":1759072133,"current_range_meters":8400,"station_id":"","pricing_plan_id":"cebpf4jnsgd1na2vs0mg"},{"bike_id":"83744827-a2d9-4578-bf04-14639f68f894","system_id":"levelo_inurba_marseille","lat":43.29593,"lon":5.38098,"is_reserved":false,"is_disabled":false,"rental_uris":{"android":"levelo://app?vid=83744827-a2d9-4578-bf04-14639f68f894","ios":"levelo://app?vid=83744827-a2d9-4578-bf04-14639f68f894"},"vehicle_type_id":"4","last_reported":1759072133,"current_range_meters":8800,"station_id":"ce4bgl12rcd13ifvqbo0","pricing_plan_id":"cebpf4jnsgd1na2vs0mg"},{"bike_id":"83f0b0f6-af2a-402e-8b87-2e6342c4132b","system_id":"levelo_inurba_marseille","lat":43.2742,"lon":5.394271,"is_reserved":false,"is_disabled":false,"rental_uris":{"android":"levelo://app?vid=83f0b0f6-af2a-402e-8b87-2e6342c4132b","ios":"levelo://app?vid=83f0b0f6-af2a-402e-8b87-2e6342c4132b"},"vehicle_type_id":"4","last_reported":1759072133,"current_range_meters":8800,"station_id":"ce4bhdp2rcd13ifvqf20","pricing_plan_id":"cebpf4jnsgd1na2vs0mg"},{"bike_id":"f2fd2284-837d-45c8-8a92-163c2aa30979","system_id":"levelo_inurba_marseille","lat":43.269348,"lon":5.389149,"is_reserved":false,"is_disabled":true,"rental_uris":{"android":"levelo://app?vid=f2fd2284-837d-45c8-8a92-163c2aa30979","ios":"levelo://app?vid=f2fd2284-837d-45c8-8a92-163c2aa30979"},"vehicle_type_id":"4","last_reported":1759072133,"current_range_meters":8800,"station_id":"ce4bhhh2rcd13ifvqfl0","pricing_plan_id":"cebpf4jnsgd1na2vs0mg"},{"bike_id":"720623f7-9148-4a0e-ade4-a205c6fa44f0","system_id":"levelo_inurba_marseille","lat":43.28975,"lon":5.42903,"is_reserved":false,"is_disabled":false,"rental_uris":{"android":"levelo://app?vid=720623f7-9148-4a0e-ade4-a205c6fa44f0","ios":"levelo://app?vid=720623f7-9148-4a0e-ade4-a205c6fa44f0"},"vehicle_type_id":"4","last_reported":1759072133,"current_range_meters":8800,"station_id":"","pricing_plan_id":"cebpf4jnsgd1na2vs0mg"},{"bike_id":"ce7b68b6-103b-4b2e-82fc-e9208000eb61","system_id":"levelo_inurba_marseille","lat":43.255005,"lon":5.376517,"is_reserved":false,"is_disabled":false,"rental_uris":{"android":"levelo://app?vid=ce7b68b6-103b-4b2e-82fc-e9208000eb61","ios":"levelo://app?vid=ce7b68b6-103b-4b2e-82fc-e9208000eb61"},"vehicle_type_id":"4","last_reported":1759072133,"current_range_meters":8800,"station_id":"ce4bhh12rcd13ifvqff0","pricing_plan_id":"cebpf4jnsgd1na2vs0mg"},{"bike_id":"695662ab-65fe-4c59-81b6-3dceb9f5066d","system_id":"levelo_inurba_marseille","lat":43.2558,"lon":5.38231,"is_reserved":false,"is_disabled":true,"rental_uris":{"android":"levelo://app?vid=695662ab-65fe-4c59-81b6-3dceb9f5066d","ios":"levelo://app?vid=695662ab-65fe-4c59-81b6-3dceb9f5066d"},"vehicle_type_id":"4","last_reported":1759072133,"current_range_meters":8800,"station_id":"ce4bhih2rcd13ifvqfs0","pricing_plan_id":"cebpf4jnsgd1na2vs0mg"},{"bike_id":"03350417-1098-4d6c-b8fe-9e64358744bf","system_id":"levelo_inurba_marseille","lat":43.31041,"lon":5.37619,"is_reserved":false,"is_disabled":false,"rental_uris":{"android":"levelo://app?vid=03350417-1098-4d6c-b8fe-9e64358744bf","ios":"levelo://app?vid=03350417-1098-4d6c-b8fe-9e64358744bf"},"vehicle_type_id":"4","last_reported":1759072133,"current_range_meters":8800,"station_id":"","pricing_plan_id":"cebpf4jnsgd1na2vs0mg"},{"bike_id":"728edf79-edb8-4ce9-b915-4b3699cc808e","system_id":"levelo_inurba_marseille","lat":43.31494,"lon":5.37307,"is_reserved":false,"is_disabled":false,"rental_uris":{"android":"levelo://app?vid=728edf79-edb8-4ce9-b915-4b3699cc808e","ios":"levelo://app?vid=728edf79-edb8-4ce9-b915-4b3699cc808e"},"vehicle_type_id":"4","last_reported":1759072133,"current_range_meters":9200,"station_id":"ce4bgt12rcd13ifvqcd0","pricing_plan_id":"cebpf4jnsgd1na2vs0mg"},{"bike_id":"0b10856b-3dad-4052-bc3a-2c17e6f16e23","system_id":"levelo_inurba_marseille","lat":43.27563,"lon":5.38404,"is_reserved":false,"is_disabled":true,"rental_uris":{"android":"levelo://app?vid=0b10856b-3dad-4052-bc3a-2c17e6f16e23","ios":"levelo://app?vid=0b10856b-3dad-4052-bc3a-2c17e6f16e23"},"vehicle_type_id":"4","last_reported":1759072133,"current_range_meters":9200,"station_id":"ce4bhh92rcd13ifvqfi0","pricing_plan_id":"cebpf4jnsgd1na2vs0mg"},{"bike_id":"1c71b3be-a633-4004-93eb-b264e286e03c","system_id":"levelo_inurba_marseille","lat":43.24082,"lon":5.37754,"is_reserved":false,"is_disabled":false,"rental_uris":{"android":"levelo://app?vid=1c71b3be-a633-4004-93eb-b264e286e03c","ios":"levelo://app?vid=1c71b3be-a633-4004-93eb-b264e286e03c"},"vehicle_type_id":"4","last_reported":1759072133,"current_range_meters":8800,"station_id":"ce4bhnp2rcd13ifvqgvg","pricing_plan_id":"cebpf4jnsgd1na2vs0mg"},{"bike_id":"db9ce362-8980-4bb5-8280-48f8dcd9be84","system_id":"levelo_inurba_marseille","lat":43.28273,"lon":5.3506,"is_reserved":false,"is_disabled":true,"rental_uris":{"android":"levelo://app?vid=db9ce362-8980-4bb5-8280-48f8dcd9be84","ios":"levelo://app?vid=db9ce362-8980-4bb5-8280-48f8dcd9be84"},"vehicle_type_id":"4","last_reported":1759072133,"current_range_meters":9200,"station_id":"ce4bhbp2rcd13ifvqerg","pricing_plan_id":"cebpf4jnsgd1na2vs0mg"},{"bike_id":"db5a5883-48b9-4ee2-ba07-bca0c3730455","system_id":"levelo_inurba_marseille","lat":43.2603,"lon":5.37544,"is_reserved":false,"is_disabled":false,"rental_uris":{"android":"levelo://app?vid=db5a5883-48b9-4ee2-ba07-bca0c3730455","ios":"levelo://app?vid=db5a5883-48b9-4ee2-ba07-bca0c3730455"},"vehicle_type_id":"4","last_reported":1759072133,"current_range_meters":9200,"station_id":"ce4bhgh2rcd13ifvqfa0","pricing_plan_id":"cebpf4jnsgd1na2vs0mg"},{"bike_id":"579526e6-1a96-4dcb-9bab-181bf678c4cb","system_id":"levelo_inurba_marseille","lat":43.24177,"lon":5.39694,"is_reserved":false,"is_disabled":true,"rental_uris":{"android":"levelo://app?vid=579526e6-1a96-4dcb-9bab-181bf678c4cb","ios":"levelo://app?vid=579526e6-1a96-4dcb-9bab-181bf678c4cb"},"vehicle_type_id":"4","last_reported":1759072133,"current_range_meters":9200,"station_id":"ce4bhn12rcd13ifvqgpg","pricing_plan_id":"cebpf4jnsgd1na2vs0mg"},{"bike_id":"e67d30c9-865a-4ee7-893d-2aad1e475f2b","system_id":"levelo_inurba_marseille","lat":43.26216,"lon":5.41541,"is_reserved":false,"is_disabled":false,"rental_uris":{"android":"levelo://app?vid=e67d30c9-865a-4ee7-893d-2aad1e475f2b","ios":"levelo://app?vid=e67d30c9-865a-4ee7-893d-2aad1e475f2b"},"vehicle_type_id":"4","last_reported":1759072133,"current_range_meters":9200,"station_id":"","pricing_plan_id":"cebpf4jnsgd1na2vs0mg"},{"bike_id":"79db51e9-4261-4095-8b29-653ab25c1ca7","system_id":"levelo_inurba_marseille","lat":43.29933,"lon":5.36551,"is_reserved":false,"is_disabled":false,"rental_uris":{"android":"levelo://app?vid=79db51e9-4261-4095-8b29-653ab25c1ca7","ios":"levelo://app?vid=79db51e9-4261-4095-8b29-653ab25c1ca7"},"vehicle_type_id":"4","last_reported":1759072133,"current_range_meters":9200,"station_id":"ce4bgm92rcd13ifvqbr0","pricing_plan_id":"cebpf4jnsgd1na2vs0mg"},{"bike_id":"bef4d2ea-14a4-4716-a095-ced3be4b4feb","system_id":"levelo_inurba_marseille","lat":43.24802,"lon":5.37447,"is_reserved":false,"is_disabled":false,"rental_uris":{"android":"levelo://app?vid=bef4d2ea-14a4-4716-a095-ced3be4b4feb","ios":"levelo://app?vid=bef4d2ea-14a4-4716-a095-ced3be4b4feb"},"vehicle_type_id":"4","last_reported":1759072133,"current_range_meters":9600,"station_id":"ce4bhgh2rcd13ifvqfb0","pricing_plan_id":"cebpf4jnsgd1na2vs0mg"},{"bike_id":"dc4883ea-8f06-44d1-8b3d-6660e39a87ec","system_id":"levelo_inurba_marseille","lat":43.22925,"lon":5.35389,"is_reserved":false,"is_disabled":true,"rental_uris":{"android":"levelo://app?vid=dc4883ea-8f06-44d1-8b3d-6660e39a87ec","ios":"levelo://app?vid=dc4883ea-8f06-44d1-8b3d-6660e39a87ec"},"vehicle_type_id":"4","last_reported":1759072133,"current_range_meters":9600,"station_id":"cpo3532slgdg3j2ikp40","pricing_plan_id":"cebpf4jnsgd1na2vs0mg"},{"bike_id":"5bc2170b-3caa-468a-a819-e8106a86a598","system_id":"levelo_inurba_marseille","lat":43.29275,"lon":5.38454,"is_reserved":false,"is_disabled":false,"rental_uris":{"android":"levelo://app?vid=5bc2170b-3caa-468a-a819-e8106a86a598","ios":"levelo://app?vid=5bc2170b-3caa-468a-a819-e8106a86a598"},"vehicle_type_id":"4","last_reported":1759072133,"current_range_meters":9600,"station_id":"ce4bh692rcd13ifvqea0","pricing_plan_id":"cebpf4jnsgd1na2vs0mg"},{"bike_id":"c047fb2c-1c11-4166-8c7a-2c22744e2a9c","system_id":"levelo_inurba_marseille","lat":43.290321,"lon":5.376542,"is_reserved":false,"is_disabled":false,"rental_uris":{"android":"levelo://app?vid=c047fb2c-1c11-4166-8c7a-2c22744e2a9c","ios":"levelo://app?vid=c047fb2c-1c11-4166-8c7a-2c22744e2a9c"},"vehicle_type_id":"4","last_reported":1759072133,"current_range_meters":9600,"station_id":"","pricing_plan_id":"cebpf4jnsgd1na2vs0mg"},{"bike_id":"edfcb064-52a4-495c-a90c-f2ba028e8b86","system_id":"levelo_inurba_marseille","lat":43.27974,"lon":5.38742,"is_reserved":false,"is_disabled":false,"rental_uris":{"android":"levelo://app?vid=edfcb064-52a4-495c-a90c-f2ba028e8b86","ios":"levelo://app?vid=edfcb064-52a4-495c-a90c-f2ba028e8b86"},"vehicle_type_id":"4","last_reported":1759072133,"current_range_meters":10000,"station_id":"ce4bhg12rcd13ifvqf80","pricing_plan_id":"cebpf4jnsgd1na2vs0mg"},{"bike_id":"28072a77-eefd-4cfa-bd68-7696e02f507d","system_id":"levelo_inurba_marseille","lat":43.32505,"lon":5.36785,"is_reserved":false,"is_disabled":false,"rental_uris":{"android":"levelo://app?vid=28072a77-eefd-4cfa-bd68-7696e02f507d","ios":"levelo://app?vid=28072a77-eefd-4cfa-bd68-7696e02f507d"},"vehicle_type_id":"4","last_reported":1759072133,"current_range_meters":10000,"station_id":"","pricing_plan_id":"cebpf4jnsgd1na2vs0mg"},{"bike_id":"096c311a-e31f-4e60-ab8c-de0b76354103","system_id":"levelo_inurba_marseille","lat":43.27171,"lon":5.41007,"is_reserved":false,"is_disabled":true,"rental_uris":{"android":"levelo://app?vid=096c311a-e31f-4e60-ab8c-de0b76354103","ios":"levelo://app?vid=096c311a-e31f-4e60-ab8c-de0b76354103"},"vehicle_type_id":"4","last_reported":1759072133,"current_range_meters":10000,"station_id":"ce4bhl12rcd13ifvqgf0","pricing_plan_id":"cebpf4jnsgd1na2vs0mg"},{"bike_id":"31ad08df-2e9b-49d8-ae7e-84ffa71954ee","system_id":"levelo_inurba_marseille","lat":43.28599,"lon":5.35101,"is_reserved":false,"is_disabled":false,"rental_uris":{"android":"levelo://app?vid=31ad08df-2e9b-49d8-ae7e-84ffa71954ee","ios":"levelo://app?vid=31ad08df-2e9b-49d8-ae7e-84ffa71954ee"},"vehicle_type_id":"4","last_reported":1759072133,"current_range_meters":10000,"station_id":"ce4bhch2rcd13ifvqeug","pricing_plan_id":"cebpf4jnsgd1na2vs0mg"},{"bike_id":"eedfbf61-711e-444c-88e3-b720ea74f76a","system_id":"levelo_inurba_marseille","lat":43.21197,"lon":5.35073,"is_reserved":false,"is_disabled":false,"rental_uris":{"android":"levelo://app?vid=eedfbf61-711e-444c-88e3-b720ea74f76a","ios":"levelo://app?vid=eedfbf61-711e-444c-88e3-b720ea74f76a"},"vehicle_type_id":"4","last_reported":1759072133,"current_range_meters":10000,"station_id":"st_cvj6sg6p6f1abm77japg","pricing_plan_id":"cebpf4jnsgd1na2vs0mg"},{"bike_id":"40f490b7-04ae-4879-bbd9-464a5a04736b","system_id":"levelo_inurba_marseille","lat":43.26781,"lon":5.39415,"is_reserved":false,"is_disabled":false,"rental_uris":{"android":"levelo://app?vid=40f490b7-04ae-4879-bbd9-464a5a04736b","ios":"levelo://app?vid=40f490b7-04ae-4879-bbd9-464a5a04736b"},"vehicle_type_id":"4","last_reported":1759072133,"current_range_meters":9600,"station_id":"ce4bhh12rcd13ifvqfg0","pricing_plan_id":"cebpf4jnsgd1na2vs0mg"},{"bike_id":"901584d3-5fb8-4c95-8664-5b3fed63d36e","system_id":"levelo_inurba_marseille","lat":43.28726,"lon":5.36096,"is_reserved":false,"is_disabled":false,"rental_uris":{"android":"levelo://app?vid=901584d3-5fb8-4c95-8664-5b3fed63d36e","ios":"levelo://app?vid=901584d3-5fb8-4c95-8664-5b3fed63d36e"},"vehicle_type_id":"4","last_reported":1759072133,"current_range_meters":9600,"station_id":"cki0cbj6b192h4jlfktg","pricing_plan_id":"cebpf4jnsgd1na2vs0mg"},{"bike_id":"fa2e32be-8d75-406c-b385-34a684af0e2a","system_id":"levelo_inurba_marseille","lat":43.26502,"lon":5.3953,"is_reserved":false,"is_disabled":false,"rental_uris":{"android":"levelo://app?vid=fa2e32be-8d75-406c-b385-34a684af0e2a","ios":"levelo://app?vid=fa2e32be-8d75-406c-b385-34a684af0e2a"},"vehicle_type_id":"4","last_reported":1759072133,"current_range_meters":9600,"station_id":"ce4bhi12rcd13ifvqfq0","pricing_plan_id":"cebpf4jnsgd1na2vs0mg"},{"bike_id":"0fdee6d9-8d4f-4012-8c6f-5b04682b35e0","system_id":"levelo_inurba_marseille","lat":43.29763,"lon":5.36973,"is_reserved":false,"is_disabled":false,"rental_uris":{"android":"levelo://app?vid=0fdee6d9-8d4f-4012-8c6f-5b04682b35e0","ios":"levelo://app?vid=0fdee6d9-8d4f-4012-8c6f-5b04682b35e0"},"vehicle_type_id":"4","last_reported":1759072133,"current_range_meters":10000,"station_id":"","pricing_plan_id":"cebpf4jnsgd1na2vs0mg"},{"bike_id":"71fa408d-4b21-48f0-9122-e7cac71ef7bb","system_id":"levelo_inurba_marseille","lat":43.290301,"lon":5.386472,"is_reserved":false,"is_disabled":false,"rental_uris":{"android":"levelo://app?vid=71fa408d-4b21-48f0-9122-e7cac71ef7bb","ios":"levelo://app?vid=71fa408d-4b21-48f0-9122-e7cac71ef7bb"},"vehicle_type_id":"4","last_reported":1759072133,"current_range_meters":10800,"station_id":"ce4bh4p2rcd13ifvqe0g","pricing_plan_id":"cebpf4jnsgd1na2vs0mg"},{"bike_id":"4062f7e5-21b5-4791-8574-8ad3f23ad449","system_id":"levelo_inurba_marseille","lat":43.21217,"lon":5.35082,"is_reserved":false,"is_disabled":false,"rental_uris":{"android":"levelo://app?vid=4062f7e5-21b5-4791-8574-8ad3f23ad449","ios":"levelo://app?vid=4062f7e5-21b5-4791-8574-8ad3f23ad449"},"vehicle_type_id":"4","last_reported":1759072133,"current_range_meters":10800,"station_id":"st_cvj6sg6p6f1abm77japg","pricing_plan_id":"cebpf4jnsgd1na2vs0mg"},{"bike_id":"6d98ab21-1faa-4b15-97b2-a1dd6f53a5a7","system_id":"levelo_inurba_marseille","lat":43.27429,"lon":5.39401,"is_reserved":false,"is_disabled":true,"rental_uris":{"android":"levelo://app?vid=6d98ab21-1faa-4b15-97b2-a1dd6f53a5a7","ios":"levelo://app?vid=6d98ab21-1faa-4b15-97b2-a1dd6f53a5a7"},"vehicle_type_id":"4","last_reported":1759072133,"current_range_meters":10800,"station_id":"ce4bhdp2rcd13ifvqf20","pricing_plan_id":"cebpf4jnsgd1na2vs0mg"},{"bike_id":"3ad0c33b-9299-420d-a52f-cd430523dfe3","system_id":"levelo_inurba_marseille","lat":43.281072,"lon":5.378284,"is_reserved":false,"is_disabled":false,"rental_uris":{"android":"levelo://app?vid=3ad0c33b-9299-420d-a52f-cd430523dfe3","ios":"levelo://app?vid=3ad0c33b-9299-420d-a52f-cd430523dfe3"},"vehicle_type_id":"4","last_reported":1759072133,"current_range_meters":10800,"station_id":"ce4bha12rcd13ifvqee0","pricing_plan_id":"cebpf4jnsgd1na2vs0mg"},{"bike_id":"94135a68-394b-488b-b15f-316f414f5c11","system_id":"levelo_inurba_marseille","lat":43.211872,"lon":5.350669,"is_reserved":false,"is_disabled":false,"rental_uris":{"android":"levelo://app?vid=94135a68-394b-488b-b15f-316f414f5c11","ios":"levelo://app?vid=94135a68-394b-488b-b15f-316f414f5c11"},"vehicle_type_id":"4","last_reported":1759072133,"current_range_meters":10800,"station_id":"st_cvj6sg6p6f1abm77japg","pricing_plan_id":"cebpf4jnsgd1na2vs0mg"},{"bike_id":"179205bc-39f5-4d7d-9b80-a8304bb1e409","system_id":"levelo_inurba_marseille","lat":43.21201,"lon":5.3507,"is_reserved":false,"is_disabled":false,"rental_uris":{"android":"levelo://app?vid=179205bc-39f5-4d7d-9b80-a8304bb1e409","ios":"levelo://app?vid=179205bc-39f5-4d7d-9b80-a8304bb1e409"},"vehicle_type_id":"4","last_reported":1759072133,"current_range_meters":10800,"station_id":"st_cvj6sg6p6f1abm77japg","pricing_plan_id":"cebpf4jnsgd1na2vs0mg"},{"bike_id":"26bbfbb9-4413-47e3-a087-54fd398639f1","system_id":"levelo_inurba_marseille","lat":43.2595,"lon":5.41374,"is_reserved":false,"is_disabled":false,"rental_uris":{"android":"levelo://app?vid=26bbfbb9-4413-47e3-a087-54fd398639f1","ios":"levelo://app?vid=26bbfbb9-4413-47e3-a087-54fd398639f1"},"vehicle_type_id":"4","last_reported":1759072133,"current_range_meters":10800,"station_id":"","pricing_plan_id":"cebpf4jnsgd1na2vs0mg"},{"bike_id":"033d200e-d944-4547-8591-927ac95d86d2","system_id":"levelo_inurba_marseille","lat":43.29871,"lon":5.39729,"is_reserved":false,"is_disabled":false,"rental_uris":{"android":"levelo://app?vid=033d200e-d944-4547-8591-927ac95d86d2","ios":"levelo://app?vid=033d200e-d944-4547-8591-927ac95d86d2"},"vehicle_type_id":"4","last_reported":1759072133,"current_range_meters":10000,"station_id":"ce4bh0h2rcd13ifvqd50","pricing_plan_id":"cebpf4jnsgd1na2vs0mg"},{"bike_id":"2872a350-29c2-48eb-9127-3c001bc2b0bc","system_id":"levelo_inurba_marseille","lat":43.33024,"lon":5.39029,"is_reserved":false,"is_disabled":false,"rental_uris":{"android":"levelo://app?vid=2872a350-29c2-48eb-9127-3c001bc2b0bc","ios":"levelo://app?vid=2872a350-29c2-48eb-9127-3c001bc2b0bc"},"vehicle_type_id":"4","last_reported":1759072133,"current_range_meters":11200,"station_id":"ce4bhr92rcd13ifvqhrg","pricing_plan_id":"cebpf4jnsgd1na2vs0mg"},{"bike_id":"d712afa1-8dc8-4e88-9833-329510caff7c","system_id":"levelo_inurba_marseille","lat":43.30791,"lon":5.37652,"is_reserved":false,"is_disabled":false,"rental_uris":{"android":"levelo://app?vid=d712afa1-8dc8-4e88-9833-329510caff7c","ios":"levelo://app?vid=d712afa1-8dc8-4e88-9833-329510caff7c"},"vehicle_type_id":"4","last_reported":1759072133,"current_range_meters":11200,"station_id":"ce4bgv92rcd13ifvqcq0","pricing_plan_id":"cebpf4jnsgd1na2vs0mg"},{"bike_id":"4c02c545-ad59-45b1-9b9c-d3678a5922c7","system_id":"levelo_inurba_marseille","lat":43.337444,"lon":5.374475,"is_reserved":false,"is_disabled":false,"rental_uris":{"android":"levelo://app?vid=4c02c545-ad59-45b1-9b9c-d3678a5922c7","ios":"levelo://app?vid=4c02c545-ad59-45b1-9b9c-d3678a5922c7"},"vehicle_type_id":"4","last_reported":1759072133,"current_range_meters":11200,"station_id":"","pricing_plan_id":"cebpf4jnsgd1na2vs0mg"},{"bike_id":"c097f066-7651-435e-913f-a8a7838aba88","system_id":"levelo_inurba_marseille","lat":43.33722,"lon":5.37459,"is_reserved":false,"is_disabled":false,"rental_uris":{"android":"levelo://app?vid=c097f066-7651-435e-913f-a8a7838aba88","ios":"levelo://app?vid=c097f066-7651-435e-913f-a8a7838aba88"},"vehicle_type_id":"4","last_reported":1759072133,"current_range_meters":11200,"station_id":"","pricing_plan_id":"cebpf4jnsgd1na2vs0mg"},{"bike_id":"80424971-bc99-4940-b768-08e08f2f8272","system_id":"levelo_inurba_marseille","lat":43.2465,"lon":5.38891,"is_reserved":false,"is_disabled":false,"rental_uris":{"android":"levelo://app?vid=80424971-bc99-4940-b768-08e08f2f8272","ios":"levelo://app?vid=80424971-bc99-4940-b768-08e08f2f8272"},"vehicle_type_id":"4","last_reported":1759072133,"current_range_meters":11600,"station_id":"ce4bhg12rcd13ifvqf60","pricing_plan_id":"cebpf4jnsgd1na2vs0mg"},{"bike_id":"2243febf-ebaf-474b-8e3e-799410e4c867","system_id":"levelo_inurba_marseille","lat":43.3256,"lon":5.36351,"is_reserved":false,"is_disabled":false,"rental_uris":{"android":"levelo://app?vid=2243febf-ebaf-474b-8e3e-799410e4c867","ios":"levelo://app?vid=2243febf-ebaf-474b-8e3e-799410e4c867"},"vehicle_type_id":"4","last_reported":1759072133,"current_range_meters":11600,"station_id":"","pricing_plan_id":"cebpf4jnsgd1na2vs0mg"},{"bike_id":"33cbd8fb-809d-4d40-9856-390e625b6c41","system_id":"levelo_inurba_marseille","lat":43.25926,"lon":5.40921,"is_reserved":false,"is_disabled":false,"rental_uris":{"android":"levelo://app?vid=33cbd8fb-809d-4d40-9856-390e625b6c41","ios":"levelo://app?vid=33cbd8fb-809d-4d40-9856-390e625b6c41"},"vehicle_type_id":"4","last_reported":1759072133,"current_range_meters":11600,"station_id":"ce4bhm92rcd13ifvqglg","pricing_plan_id":"cebpf4jnsgd1na2vs0mg"},{"bike_id":"72c47d07-f4a8-4f58-b6bc-b8c6013ac540","system_id":"levelo_inurba_marseille","lat":43.3149,"lon":5.38752,"is_reserved":false,"is_disabled":false,"rental_uris":{"android":"levelo://app?vid=72c47d07-f4a8-4f58-b6bc-b8c6013ac540","ios":"levelo://app?vid=72c47d07-f4a8-4f58-b6bc-b8c6013ac540"},"vehicle_type_id":"4","last_reported":1759072133,"current_range_meters":11600,"station_id":"","pricing_plan_id":"cebpf4jnsgd1na2vs0mg"},{"bike_id":"1f0bed97-f43b-42b0-9131-f55e4c13bdc4","system_id":"levelo_inurba_marseille","lat":43.28364,"lon":5.38101,"is_reserved":false,"is_disabled":false,"rental_uris":{"android":"levelo://app?vid=1f0bed97-f43b-42b0-9131-f55e4c13bdc4","ios":"levelo://app?vid=1f0bed97-f43b-42b0-9131-f55e4c13bdc4"},"vehicle_type_id":"4","last_reported":1759072133,"current_range_meters":11600,"station_id":"ce4bh412rcd13ifvqdr0","pricing_plan_id":"cebpf4jnsgd1na2vs0mg"},{"bike_id":"6d1bccdb-76b4-4e18-9e2a-905375dd8686","system_id":"levelo_inurba_marseille","lat":43.28621,"lon":5.35095,"is_reserved":false,"is_disabled":false,"rental_uris":{"android":"levelo://app?vid=6d1bccdb-76b4-4e18-9e2a-905375dd8686","ios":"levelo://app?vid=6d1bccdb-76b4-4e18-9e2a-905375dd8686"},"vehicle_type_id":"4","last_reported":1759072133,"current_range_meters":11600,"station_id":"ce4bhch2rcd13ifvqeug","pricing_plan_id":"cebpf4jnsgd1na2vs0mg"},{"bike_id":"d5c6547e-c678-437e-a66c-da200efa426d","system_id":"levelo_inurba_marseille","lat":43.2846,"lon":5.35882,"is_reserved":false,"is_disabled":false,"rental_uris":{"android":"levelo://app?vid=d5c6547e-c678-437e-a66c-da200efa426d","ios":"levelo://app?vid=d5c6547e-c678-437e-a66c-da200efa426d"},"vehicle_type_id":"4","last_reported":1759072133,"current_range_meters":11600,"station_id":"ce4bhah2rcd13ifvqei0","pricing_plan_id":"cebpf4jnsgd1na2vs0mg"},{"bike_id":"f12c1c9a-5ec0-4d16-b161-288c3eaaa062","system_id":"levelo_inurba_marseille","lat":43.252881,"lon":5.421965,"is_reserved":false,"is_disabled":false,"rental_uris":{"android":"levelo://app?vid=f12c1c9a-5ec0-4d16-b161-288c3eaaa062","ios":"levelo://app?vid=f12c1c9a-5ec0-4d16-b161-288c3eaaa062"},"vehicle_type_id":"4","last_reported":1759072133,"current_range_meters":11600,"station_id":"","pricing_plan_id":"cebpf4jnsgd1na2vs0mg"},{"bike_id":"f62fe733-90ac-444a-a20a-73d227678ff7","system_id":"levelo_inurba_marseille","lat":43.29594,"lon":5.37739,"is_reserved":false,"is_disabled":true,"rental_uris":{"android":"levelo://app?vid=f62fe733-90ac-444a-a20a-73d227678ff7","ios":"levelo://app?vid=f62fe733-90ac-444a-a20a-73d227678ff7"},"vehicle_type_id":"4","last_reported":1759072133,"current_range_meters":12000,"station_id":"ce4bgi92rcd13ifvqb90","pricing_plan_id":"cebpf4jnsgd1na2vs0mg"},{"bike_id":"0fd0c927-4233-40f0-86de-fca65390471c","system_id":"levelo_inurba_marseille","lat":43.23962,"lon":5.36628,"is_reserved":false,"is_disabled":false,"rental_uris":{"android":"levelo://app?vid=0fd0c927-4233-40f0-86de-fca65390471c","ios":"levelo://app?vid=0fd0c927-4233-40f0-86de-fca65390471c"},"vehicle_type_id":"4","last_reported":1759072133,"current_range_meters":12000,"station_id":"ce4bhi12rcd13ifvqfp0","pricing_plan_id":"cebpf4jnsgd1na2vs0mg"},{"bike_id":"95bafeb0-6c7b-407a-a73b-a6569ff5cb66","system_id":"levelo_inurba_marseille","lat":43.33771,"lon":5.37469,"is_reserved":false,"is_disabled":false,"rental_uris":{"android":"levelo://app?vid=95bafeb0-6c7b-407a-a73b-a6569ff5cb66","ios":"levelo://app?vid=95bafeb0-6c7b-407a-a73b-a6569ff5cb66"},"vehicle_type_id":"4","last_reported":1759072133,"current_range_meters":12000,"station_id":"","pricing_plan_id":"cebpf4jnsgd1na2vs0mg"},{"bike_id":"99f8e706-cfb0-4eb6-929e-527298f2a0db","system_id":"levelo_inurba_marseille","lat":43.28348,"lon":5.37645,"is_reserved":false,"is_disabled":false,"rental_uris":{"android":"levelo://app?vid=99f8e706-cfb0-4eb6-929e-527298f2a0db","ios":"levelo://app?vid=99f8e706-cfb0-4eb6-929e-527298f2a0db"},"vehicle_type_id":"4","last_reported":1759072133,"current_range_meters":12000,"station_id":"","pricing_plan_id":"cebpf4jnsgd1na2vs0mg"},{"bike_id":"aeb266ef-480f-4b78-bf97-3dc1627e635b","system_id":"levelo_inurba_marseille","lat":43.302831,"lon":5.377105,"is_reserved":false,"is_disabled":false,"rental_uris":{"android":"levelo://app?vid=aeb266ef-480f-4b78-bf97-3dc1627e635b","ios":"levelo://app?vid=aeb266ef-480f-4b78-bf97-3dc1627e635b"},"vehicle_type_id":"4","last_reported":1759072133,"current_range_meters":11600,"station_id":"ce4bguh2rcd13ifvqcj0","pricing_plan_id":"cebpf4jnsgd1na2vs0mg"},{"bike_id":"842f1d18-5309-4a7f-9cea-53d9cfbc2157","system_id":"levelo_inurba_marseille","lat":43.272102,"lon":5.391775,"is_reserved":false,"is_disabled":true,"rental_uris":{"android":"levelo://app?vid=842f1d18-5309-4a7f-9cea-53d9cfbc2157","ios":"levelo://app?vid=842f1d18-5309-4a7f-9cea-53d9cfbc2157"},"vehicle_type_id":"4","last_reported":1759072133,"current_range_meters":11600,"station_id":"ce4bhhp2rcd13ifvqfm0","pricing_plan_id":"cebpf4jnsgd1na2vs0mg"},{"bike_id":"8ba5e33b-48f1-42b5-a531-76085f7229c8","system_id":"levelo_inurba_marseille","lat":43.246301,"lon":5.431489,"is_reserved":false,"is_disabled":false,"rental_uris":{"android":"levelo://app?vid=8ba5e33b-48f1-42b5-a531-76085f7229c8","ios":"levelo://app?vid=8ba5e33b-48f1-42b5-a531-76085f7229c8"},"vehicle_type_id":"4","last_reported":1759072133,"current_range_meters":12000,"station_id":"st_d2m6c4gdas8pm72e190g","pricing_plan_id":"cebpf4jnsgd1na2vs0mg"},{"bike_id":"698c6353-3e85-48c6-be1b-848951b9cd4f","system_id":"levelo_inurba_marseille","lat":43.29048,"lon":5.41973,"is_reserved":false,"is_disabled":false,"rental_uris":{"android":"levelo://app?vid=698c6353-3e85-48c6-be1b-848951b9cd4f","ios":"levelo://app?vid=698c6353-3e85-48c6-be1b-848951b9cd4f"},"vehicle_type_id":"4","last_reported":1759072133,"current_range_meters":12000,"station_id":"","pricing_plan_id":"cebpf4jnsgd1na2vs0mg"},{"bike_id":"258ab053-1083-4ca9-a32a-1e85f085fc22","system_id":"levelo_inurba_marseille","lat":43.337444,"lon":5.374475,"is_reserved":false,"is_disabled":false,"rental_uris":{"android":"levelo://app?vid=258ab053-1083-4ca9-a32a-1e85f085fc22","ios":"levelo://app?vid=258ab053-1083-4ca9-a32a-1e85f085fc22"},"vehicle_type_id":"4","last_reported":1759072133,"current_range_meters":12000,"station_id":"","pricing_plan_id":"cebpf4jnsgd1na2vs0mg"},{"bike_id":"c9916796-5f07-4d22-aceb-87882fb08ac5","system_id":"levelo_inurba_marseille","lat":43.30601,"lon":5.3654,"is_reserved":false,"is_disabled":false,"rental_uris":{"android":"levelo://app?vid=c9916796-5f07-4d22-aceb-87882fb08ac5","ios":"levelo://app?vid=c9916796-5f07-4d22-aceb-87882fb08ac5"},"vehicle_type_id":"4","last_reported":1759072133,"current_range_meters":12400,"station_id":"ce4bgs12rcd13ifvqcag","pricing_plan_id":"cebpf4jnsgd1na2vs0mg"},{"bike_id":"f4c53ff4-73a4-4134-bb3f-bbf464878afb","system_id":"levelo_inurba_marseille","lat":43.241656,"lon":5.363928,"is_reserved":false,"is_disabled":true,"rental_uris":{"android":"levelo://app?vid=f4c53ff4-73a4-4134-bb3f-bbf464878afb","ios":"levelo://app?vid=f4c53ff4-73a4-4134-bb3f-bbf464878afb"},"vehicle_type_id":"4","last_reported":1759072133,"current_range_meters":12400,"station_id":"cpo36qri1sfpv3e86is0","pricing_plan_id":"cebpf4jnsgd1na2vs0mg"},{"bike_id":"bfa53767-1d5b-4ce0-a3b6-d6a008782941","system_id":"levelo_inurba_marseille","lat":43.22585,"lon":5.34835,"is_reserved":false,"is_disabled":false,"rental_uris":{"android":"levelo://app?vid=bfa53767-1d5b-4ce0-a3b6-d6a008782941","ios":"levelo://app?vid=bfa53767-1d5b-4ce0-a3b6-d6a008782941"},"vehicle_type_id":"4","last_reported":1759072133,"current_range_meters":12400,"station_id":"","pricing_plan_id":"cebpf4jnsgd1na2vs0mg"},{"bike_id":"360c0746-c854-4629-884f-7c911de53d9d","system_id":"levelo_inurba_marseille","lat":43.31098,"lon":5.37693,"is_reserved":false,"is_disabled":true,"rental_uris":{"android":"levelo://app?vid=360c0746-c854-4629-884f-7c911de53d9d","ios":"levelo://app?vid=360c0746-c854-4629-884f-7c911de53d9d"},"vehicle_type_id":"4","last_reported":1759072133,"current_range_meters":12400,"station_id":"","pricing_plan_id":"cebpf4jnsgd1na2vs0mg"},{"bike_id":"7ac81eae-aed2-4f3f-a100-b35f399befc9","system_id":"levelo_inurba_marseille","lat":43.25085,"lon":5.40319,"is_reserved":false,"is_disabled":false,"rental_uris":{"android":"levelo://app?vid=7ac81eae-aed2-4f3f-a100-b35f399befc9","ios":"levelo://app?vid=7ac81eae-aed2-4f3f-a100-b35f399befc9"},"vehicle_type_id":"4","last_reported":1759072133,"current_range_meters":12400,"station_id":"ce4bhlh2rcd13ifvqgig","pricing_plan_id":"cebpf4jnsgd1na2vs0mg"},{"bike_id":"a2a842f6-fc46-40d7-b7a6-d9d5a8c99dfa","system_id":"levelo_inurba_marseille","lat":43.319976,"lon":5.381476,"is_reserved":false,"is_disabled":true,"rental_uris":{"android":"levelo://app?vid=a2a842f6-fc46-40d7-b7a6-d9d5a8c99dfa","ios":"levelo://app?vid=a2a842f6-fc46-40d7-b7a6-d9d5a8c99dfa"},"vehicle_type_id":"4","last_reported":1759072133,"current_range_meters":12400,"station_id":"ce4bhr12rcd13ifvqhpg","pricing_plan_id":"cebpf4jnsgd1na2vs0mg"},{"bike_id":"5e3280f7-8b38-420e-8b88-2976971e6781","system_id":"levelo_inurba_marseille","lat":43.27999,"lon":5.41662,"is_reserved":false,"is_disabled":false,"rental_uris":{"android":"levelo://app?vid=5e3280f7-8b38-420e-8b88-2976971e6781","ios":"levelo://app?vid=5e3280f7-8b38-420e-8b88-2976971e6781"},"vehicle_type_id":"4","last_reported":1759072133,"current_range_meters":12400,"station_id":"ce4bho12rcd13ifvqh1g","pricing_plan_id":"cebpf4jnsgd1na2vs0mg"},{"bike_id":"2f5564e8-cf26-4143-838b-b38a8d61121b","system_id":"levelo_inurba_marseille","lat":43.28471,"lon":5.3842,"is_reserved":false,"is_disabled":false,"rental_uris":{"android":"levelo://app?vid=2f5564e8-cf26-4143-838b-b38a8d61121b","ios":"levelo://app?vid=2f5564e8-cf26-4143-838b-b38a8d61121b"},"vehicle_type_id":"4","last_reported":1759072133,"current_range_meters":12000,"station_id":"ce4bh512rcd13ifvqe3g","pricing_plan_id":"cebpf4jnsgd1na2vs0mg"},{"bike_id":"afb3a0b1-c807-4eff-8fb4-4964910f49c8","system_id":"levelo_inurba_marseille","lat":43.21745,"lon":5.34604,"is_reserved":false,"is_disabled":true,"rental_uris":{"android":"levelo://app?vid=afb3a0b1-c807-4eff-8fb4-4964910f49c8","ios":"levelo://app?vid=afb3a0b1-c807-4eff-8fb4-4964910f49c8"},"vehicle_type_id":"4","last_reported":1759072133,"current_range_meters":12400,"station_id":"st_cvj6r9ubvosntc0bgbag","pricing_plan_id":"cebpf4jnsgd1na2vs0mg"},{"bike_id":"2c6518be-b3f0-42d2-93c9-c1de9e54885f","system_id":"levelo_inurba_marseille","lat":43.29227,"lon":5.38219,"is_reserved":false,"is_disabled":false,"rental_uris":{"android":"levelo://app?vid=2c6518be-b3f0-42d2-93c9-c1de9e54885f","ios":"levelo://app?vid=2c6518be-b3f0-42d2-93c9-c1de9e54885f"},"vehicle_type_id":"4","last_reported":1759072133,"current_range_meters":12800,"station_id":"","pricing_plan_id":"cebpf4jnsgd1na2vs0mg"},{"bike_id":"750405e2-85be-43b8-977e-6caf7ae2e3f0","system_id":"levelo_inurba_marseille","lat":43.26062,"lon":5.39397,"is_reserved":false,"is_disabled":false,"rental_uris":{"android":"levelo://app?vid=750405e2-85be-43b8-977e-6caf7ae2e3f0","ios":"levelo://app?vid=750405e2-85be-43b8-977e-6caf7ae2e3f0"},"vehicle_type_id":"4","last_reported":1759072133,"current_range_meters":12400,"station_id":"ce4bhh92rcd13ifvqfj0","pricing_plan_id":"cebpf4jnsgd1na2vs0mg"},{"bike_id":"6e0a79dc-cf9e-4a9d-adfd-efff76358b62","system_id":"levelo_inurba_marseille","lat":43.29036,"lon":5.38646,"is_reserved":false,"is_disabled":false,"rental_uris":{"android":"levelo://app?vid=6e0a79dc-cf9e-4a9d-adfd-efff76358b62","ios":"levelo://app?vid=6e0a79dc-cf9e-4a9d-adfd-efff76358b62"},"vehicle_type_id":"4","last_reported":1759072133,"current_range_meters":12400,"station_id":"ce4bh4p2rcd13ifvqe0g","pricing_plan_id":"cebpf4jnsgd1na2vs0mg"},{"bike_id":"5fe7f407-3191-4d84-bcf8-5bce6d58e56d","system_id":"levelo_inurba_marseille","lat":43.22893,"lon":5.35354,"is_reserved":false,"is_disabled":false,"rental_uris":{"android":"levelo://app?vid=5fe7f407-3191-4d84-bcf8-5bce6d58e56d","ios":"levelo://app?vid=5fe7f407-3191-4d84-bcf8-5bce6d58e56d"},"vehicle_type_id":"4","last_reported":1759072133,"current_range_meters":12800,"station_id":"cpo3532slgdg3j2ikp40","pricing_plan_id":"cebpf4jnsgd1na2vs0mg"},{"bike_id":"215f0ada-3775-46da-b912-43b405ec691d","system_id":"levelo_inurba_marseille","lat":43.29277,"lon":5.3684,"is_reserved":false,"is_disabled":false,"rental_uris":{"android":"levelo://app?vid=215f0ada-3775-46da-b912-43b405ec691d","ios":"levelo://app?vid=215f0ada-3775-46da-b912-43b405ec691d"},"vehicle_type_id":"4","last_reported":1759072133,"current_range_meters":12800,"station_id":"ce4bhbp2rcd13ifvqesg","pricing_plan_id":"cebpf4jnsgd1na2vs0mg"},{"bike_id":"35d4e42f-84c6-4355-8ea0-07e9ddf3ac43","system_id":"levelo_inurba_marseille","lat":43.28485,"lon":5.38413,"is_reserved":false,"is_disabled":false,"rental_uris":{"android":"levelo://app?vid=35d4e42f-84c6-4355-8ea0-07e9ddf3ac43","ios":"levelo://app?vid=35d4e42f-84c6-4355-8ea0-07e9ddf3ac43"},"vehicle_type_id":"4","last_reported":1759072133,"current_range_meters":12800,"station_id":"ce4bh512rcd13ifvqe3g","pricing_plan_id":"cebpf4jnsgd1na2vs0mg"},{"bike_id":"1dad2113-89e2-44fc-a0b6-ddd6a09baff1","system_id":"levelo_inurba_marseille","lat":43.337444,"lon":5.374475,"is_reserved":false,"is_disabled":false,"rental_uris":{"android":"levelo://app?vid=1dad2113-89e2-44fc-a0b6-ddd6a09baff1","ios":"levelo://app?vid=1dad2113-89e2-44fc-a0b6-ddd6a09baff1"},"vehicle_type_id":"4","last_reported":1759072133,"current_range_meters":12800,"station_id":"","pricing_plan_id":"cebpf4jnsgd1na2vs0mg"},{"bike_id":"52bcf661-78af-40f8-ade0-64a225913972","system_id":"levelo_inurba_marseille","lat":43.299744,"lon":5.384901,"is_reserved":false,"is_disabled":false,"rental_uris":{"android":"levelo://app?vid=52bcf661-78af-40f8-ade0-64a225913972","ios":"levelo://app?vid=52bcf661-78af-40f8-ade0-64a225913972"},"vehicle_type_id":"4","last_reported":1759072133,"current_range_meters":13600,"station_id":"ce4bgj92rcd13ifvqbd0","pricing_plan_id":"cebpf4jnsgd1na2vs0mg"},{"bike_id":"a1e2b7f3-f53e-4b6a-b8f1-27b0fbf9634d","system_id":"levelo_inurba_marseille","lat":43.315898,"lon":5.375817,"is_reserved":false,"is_disabled":false,"rental_uris":{"android":"levelo://app?vid=a1e2b7f3-f53e-4b6a-b8f1-27b0fbf9634d","ios":"levelo://app?vid=a1e2b7f3-f53e-4b6a-b8f1-27b0fbf9634d"},"vehicle_type_id":"4","last_reported":1759072133,"current_range_meters":13600,"station_id":"","pricing_plan_id":"cebpf4jnsgd1na2vs0mg"},{"bike_id":"3cb1dae7-6bcd-41e5-b1b7-c1d25c751a99","system_id":"levelo_inurba_marseille","lat":43.337635,"lon":5.374385,"is_reserved":false,"is_disabled":false,"rental_uris":{"android":"levelo://app?vid=3cb1dae7-6bcd-41e5-b1b7-c1d25c751a99","ios":"levelo://app?vid=3cb1dae7-6bcd-41e5-b1b7-c1d25c751a99"},"vehicle_type_id":"4","last_reported":1759072133,"current_range_meters":13600,"station_id":"","pricing_plan_id":"cebpf4jnsgd1na2vs0mg"},{"bike_id":"0c38051c-a803-44c4-90a1-151a4109583c","system_id":"levelo_inurba_marseille","lat":43.28672,"lon":5.386617,"is_reserved":false,"is_disabled":true,"rental_uris":{"android":"levelo://app?vid=0c38051c-a803-44c4-90a1-151a4109583c","ios":"levelo://app?vid=0c38051c-a803-44c4-90a1-151a4109583c"},"vehicle_type_id":"4","last_reported":1759072133,"current_range_meters":13600,"station_id":"ce4bh492rcd13ifvqdug","pricing_plan_id":"cebpf4jnsgd1na2vs0mg"},{"bike_id":"d58ddcbe-70d7-4259-abad-73cc43b8b8b9","system_id":"levelo_inurba_marseille","lat":43.23069,"lon":5.35594,"is_reserved":false,"is_disabled":true,"rental_uris":{"android":"levelo://app?vid=d58ddcbe-70d7-4259-abad-73cc43b8b8b9","ios":"levelo://app?vid=d58ddcbe-70d7-4259-abad-73cc43b8b8b9"},"vehicle_type_id":"4","last_reported":1759072133,"current_range_meters":13600,"station_id":"cpo3342slgdg3j2ifvpg","pricing_plan_id":"cebpf4jnsgd1na2vs0mg"},{"bike_id":"043a30e5-1017-49e0-89e5-47654af10be8","system_id":"levelo_inurba_marseille","lat":43.30306,"lon":5.36889,"is_reserved":false,"is_disabled":false,"rental_uris":{"android":"levelo://app?vid=043a30e5-1017-49e0-89e5-47654af10be8","ios":"levelo://app?vid=043a30e5-1017-49e0-89e5-47654af10be8"},"vehicle_type_id":"4","last_reported":1759072133,"current_range_meters":13600,"station_id":"ce4bgqh2rcd13ifvqc5g","pricing_plan_id":"cebpf4jnsgd1na2vs0mg"},{"bike_id":"e3fe1c25-77d6-4c99-a172-35c670f24da9","system_id":"levelo_inurba_marseille","lat":43.29007,"lon":5.35619,"is_reserved":false,"is_disabled":true,"rental_uris":{"android":"levelo://app?vid=e3fe1c25-77d6-4c99-a172-35c670f24da9","ios":"levelo://app?vid=e3fe1c25-77d6-4c99-a172-35c670f24da9"},"vehicle_type_id":"4","last_reported":1759072133,"current_range_meters":13600,"station_id":"ce4bhb92rcd13ifvqen0","pricing_plan_id":"cebpf4jnsgd1na2vs0mg"},{"bike_id":"87df8208-6849-432a-80b7-167edcd79fdf","system_id":"levelo_inurba_marseille","lat":43.31492,"lon":5.3731,"is_reserved":false,"is_disabled":false,"rental_uris":{"android":"levelo://app?vid=87df8208-6849-432a-80b7-167edcd79fdf","ios":"levelo://app?vid=87df8208-6849-432a-80b7-167edcd79fdf"},"vehicle_type_id":"4","last_reported":1759072133,"current_range_meters":13600,"station_id":"ce4bgt12rcd13ifvqcd0","pricing_plan_id":"cebpf4jnsgd1na2vs0mg"},{"bike_id":"6f0c1749-517c-4897-91c9-50c589e202de","system_id":"levelo_inurba_marseille","lat":43.341459,"lon":5.409313,"is_reserved":false,"is_disabled":true,"rental_uris":{"android":"levelo://app?vid=6f0c1749-517c-4897-91c9-50c589e202de","ios":"levelo://app?vid=6f0c1749-517c-4897-91c9-50c589e202de"},"vehicle_type_id":"4","last_reported":1759072133,"current_range_meters":14000,"station_id":"ce4bhqh2rcd13ifvqhlg","pricing_plan_id":"cebpf4jnsgd1na2vs0mg"},{"bike_id":"72dfe78c-7413-46c8-9431-20c14760210e","system_id":"levelo_inurba_marseille","lat":43.2571,"lon":5.4112,"is_reserved":false,"is_disabled":false,"rental_uris":{"android":"levelo://app?vid=72dfe78c-7413-46c8-9431-20c14760210e","ios":"levelo://app?vid=72dfe78c-7413-46c8-9431-20c14760210e"},"vehicle_type_id":"4","last_reported":1759072133,"current_range_meters":14000,"station_id":"ce4bhkp2rcd13ifvqgd0","pricing_plan_id":"cebpf4jnsgd1na2vs0mg"},{"bike_id":"151d75a0-434c-41d6-a3a8-42bc6a9a604c","system_id":"levelo_inurba_marseille","lat":43.31757,"lon":5.39017,"is_reserved":false,"is_disabled":false,"rental_uris":{"android":"levelo://app?vid=151d75a0-434c-41d6-a3a8-42bc6a9a604c","ios":"levelo://app?vid=151d75a0-434c-41d6-a3a8-42bc6a9a604c"},"vehicle_type_id":"4","last_reported":1759072133,"current_range_meters":14000,"station_id":"ce4bgt92rcd13ifvqcf0","pricing_plan_id":"cebpf4jnsgd1na2vs0mg"},{"bike_id":"e53c6c98-adda-4dac-ba02-fa79d0ebf1d7","system_id":"levelo_inurba_marseille","lat":43.29935,"lon":5.36533,"is_reserved":false,"is_disabled":false,"rental_uris":{"android":"levelo://app?vid=e53c6c98-adda-4dac-ba02-fa79d0ebf1d7","ios":"levelo://app?vid=e53c6c98-adda-4dac-ba02-fa79d0ebf1d7"},"vehicle_type_id":"4","last_reported":1759072133,"current_range_meters":14000,"station_id":"ce4bgm92rcd13ifvqbr0","pricing_plan_id":"cebpf4jnsgd1na2vs0mg"},{"bike_id":"c3fbd9d5-807a-470d-9847-b57698a5a915","system_id":"levelo_inurba_marseille","lat":43.30376,"lon":5.42493,"is_reserved":false,"is_disabled":false,"rental_uris":{"android":"levelo://app?vid=c3fbd9d5-807a-470d-9847-b57698a5a915","ios":"levelo://app?vid=c3fbd9d5-807a-470d-9847-b57698a5a915"},"vehicle_type_id":"4","last_reported":1759072133,"current_range_meters":14000,"station_id":"ce4bhoh2rcd13ifvqh6g","pricing_plan_id":"cebpf4jnsgd1na2vs0mg"},{"bike_id":"20c1c77a-f4d0-45da-bf37-9dfdc8268d18","system_id":"levelo_inurba_marseille","lat":43.31997,"lon":5.38148,"is_reserved":false,"is_disabled":false,"rental_uris":{"android":"levelo://app?vid=20c1c77a-f4d0-45da-bf37-9dfdc8268d18","ios":"levelo://app?vid=20c1c77a-f4d0-45da-bf37-9dfdc8268d18"},"vehicle_type_id":"4","last_reported":1759072133,"current_range_meters":14400,"station_id":"ce4bhr12rcd13ifvqhpg","pricing_plan_id":"cebpf4jnsgd1na2vs0mg"},{"bike_id":"e45002d0-f45c-4533-a1a6-e68ec97c2fc5","system_id":"levelo_inurba_marseille","lat":43.30141,"lon":5.39859,"is_reserved":false,"is_disabled":false,"rental_uris":{"android":"levelo://app?vid=e45002d0-f45c-4533-a1a6-e68ec97c2fc5","ios":"levelo://app?vid=e45002d0-f45c-4533-a1a6-e68ec97c2fc5"},"vehicle_type_id":"4","last_reported":1759072133,"current_range_meters":14000,"station_id":"ce4bh0h2rcd13ifvqd40","pricing_plan_id":"cebpf4jnsgd1na2vs0mg"},{"bike_id":"d7d09523-34bb-44d2-9695-02f0abea9b47","system_id":"levelo_inurba_marseille","lat":43.29726,"lon":5.3793,"is_reserved":false,"is_disabled":false,"rental_uris":{"android":"levelo://app?vid=d7d09523-34bb-44d2-9695-02f0abea9b47","ios":"levelo://app?vid=d7d09523-34bb-44d2-9695-02f0abea9b47"},"vehicle_type_id":"4","last_reported":1759072133,"current_range_meters":14400,"station_id":"","pricing_plan_id":"cebpf4jnsgd1na2vs0mg"},{"bike_id":"35e8f722-b82a-4247-beb8-7e2827829ce6","system_id":"levelo_inurba_marseille","lat":43.32405,"lon":5.3911,"is_reserved":false,"is_disabled":false,"rental_uris":{"android":"levelo://app?vid=35e8f722-b82a-4247-beb8-7e2827829ce6","ios":"levelo://app?vid=35e8f722-b82a-4247-beb8-7e2827829ce6"},"vehicle_type_id":"4","last_reported":1759072133,"current_range_meters":14400,"station_id":"","pricing_plan_id":"cebpf4jnsgd1na2vs0mg"},{"bike_id":"566eaed9-627a-4e56-9c60-c861de12c54d","system_id":"levelo_inurba_marseille","lat":43.23185,"lon":5.39991,"is_reserved":false,"is_disabled":false,"rental_uris":{"android":"levelo://app?vid=566eaed9-627a-4e56-9c60-c861de12c54d","ios":"levelo://app?vid=566eaed9-627a-4e56-9c60-c861de12c54d"},"vehicle_type_id":"4","last_reported":1759072133,"current_range_meters":14000,"station_id":"ce4bhn12rcd13ifvqgqg","pricing_plan_id":"cebpf4jnsgd1na2vs0mg"},{"bike_id":"e5378695-fba9-432a-9cfb-3b5b05e40fec","system_id":"levelo_inurba_marseille","lat":43.337986,"lon":5.374304,"is_reserved":false,"is_disabled":false,"rental_uris":{"android":"levelo://app?vid=e5378695-fba9-432a-9cfb-3b5b05e40fec","ios":"levelo://app?vid=e5378695-fba9-432a-9cfb-3b5b05e40fec"},"vehicle_type_id":"4","last_reported":1759072133,"current_range_meters":14400,"station_id":"","pricing_plan_id":"cebpf4jnsgd1na2vs0mg"},{"bike_id":"5ca87814-d32d-44ea-bff0-ce9a84dcf603","system_id":"levelo_inurba_marseille","lat":43.29787,"lon":5.39338,"is_reserved":false,"is_disabled":false,"rental_uris":{"android":"levelo://app?vid=5ca87814-d32d-44ea-bff0-ce9a84dcf603","ios":"levelo://app?vid=5ca87814-d32d-44ea-bff0-ce9a84dcf603"},"vehicle_type_id":"4","last_reported":1759072133,"current_range_meters":14800,"station_id":"chh1huq6cuj3fo74tm60","pricing_plan_id":"cebpf4jnsgd1na2vs0mg"},{"bike_id":"473be798-955e-44ad-a92b-7b9cc5bbebba","system_id":"levelo_inurba_marseille","lat":43.23978,"lon":5.36612,"is_reserved":false,"is_disabled":false,"rental_uris":{"android":"levelo://app?vid=473be798-955e-44ad-a92b-7b9cc5bbebba","ios":"levelo://app?vid=473be798-955e-44ad-a92b-7b9cc5bbebba"},"vehicle_type_id":"4","last_reported":1759072133,"current_range_meters":14800,"station_id":"ce4bhi12rcd13ifvqfp0","pricing_plan_id":"cebpf4jnsgd1na2vs0mg"},{"bike_id":"01e260f5-828c-4df2-9bc4-ca80e799f979","system_id":"levelo_inurba_marseille","lat":43.24166,"lon":5.36397,"is_reserved":false,"is_disabled":true,"rental_uris":{"android":"levelo://app?vid=01e260f5-828c-4df2-9bc4-ca80e799f979","ios":"levelo://app?vid=01e260f5-828c-4df2-9bc4-ca80e799f979"},"vehicle_type_id":"4","last_reported":1759072133,"current_range_meters":14800,"station_id":"cpo36qri1sfpv3e86is0","pricing_plan_id":"cebpf4jnsgd1na2vs0mg"},{"bike_id":"4822dd99-56ec-44f6-a9b9-ee0ae5dcc1bf","system_id":"levelo_inurba_marseille","lat":43.30009,"lon":5.39994,"is_reserved":false,"is_disabled":false,"rental_uris":{"android":"levelo://app?vid=4822dd99-56ec-44f6-a9b9-ee0ae5dcc1bf","ios":"levelo://app?vid=4822dd99-56ec-44f6-a9b9-ee0ae5dcc1bf"},"vehicle_type_id":"4","last_reported":1759072133,"current_range_meters":14800,"station_id":"ce4bh0h2rcd13ifvqd40","pricing_plan_id":"cebpf4jnsgd1na2vs0mg"},{"bike_id":"d1607a37-7a06-451d-93aa-af4983210155","system_id":"levelo_inurba_marseille","lat":43.31223,"lon":5.36887,"is_reserved":false,"is_disabled":false,"rental_uris":{"android":"levelo://app?vid=d1607a37-7a06-451d-93aa-af4983210155","ios":"levelo://app?vid=d1607a37-7a06-451d-93aa-af4983210155"},"vehicle_type_id":"4","last_reported":1759072133,"current_range_meters":14800,"station_id":"ce4bgl92rcd13ifvqbq0","pricing_plan_id":"cebpf4jnsgd1na2vs0mg"},{"bike_id":"e5cca1d3-7b83-4815-adc1-45ead40eb28d","system_id":"levelo_inurba_marseille","lat":43.32099,"lon":5.3677,"is_reserved":false,"is_disabled":false,"rental_uris":{"android":"levelo://app?vid=e5cca1d3-7b83-4815-adc1-45ead40eb28d","ios":"levelo://app?vid=e5cca1d3-7b83-4815-adc1-45ead40eb28d"},"vehicle_type_id":"4","last_reported":1759072133,"current_range_meters":14800,"station_id":"ce4bhrh2rcd13ifvqhug","pricing_plan_id":"cebpf4jnsgd1na2vs0mg"},{"bike_id":"327c041e-5c9e-4b0d-a97c-a2dbaab036ae","system_id":"levelo_inurba_marseille","lat":43.32813,"lon":5.4113,"is_reserved":false,"is_disabled":false,"rental_uris":{"android":"levelo://app?vid=327c041e-5c9e-4b0d-a97c-a2dbaab036ae","ios":"levelo://app?vid=327c041e-5c9e-4b0d-a97c-a2dbaab036ae"},"vehicle_type_id":"4","last_reported":1759072133,"current_range_meters":15200,"station_id":"","pricing_plan_id":"cebpf4jnsgd1na2vs0mg"},{"bike_id":"80b3304d-7f9d-413b-98e5-a79ee708a367","system_id":"levelo_inurba_marseille","lat":43.29264,"lon":5.40906,"is_reserved":false,"is_disabled":false,"rental_uris":{"android":"levelo://app?vid=80b3304d-7f9d-413b-98e5-a79ee708a367","ios":"levelo://app?vid=80b3304d-7f9d-413b-98e5-a79ee708a367"},"vehicle_type_id":"4","last_reported":1759072133,"current_range_meters":15200,"station_id":"ce4bh192rcd13ifvqdc0","pricing_plan_id":"cebpf4jnsgd1na2vs0mg"},{"bike_id":"aef170f6-3306-46fe-9dab-25f26114ab13","system_id":"levelo_inurba_marseille","lat":43.32382,"lon":5.36787,"is_reserved":false,"is_disabled":false,"rental_uris":{"android":"levelo://app?vid=aef170f6-3306-46fe-9dab-25f26114ab13","ios":"levelo://app?vid=aef170f6-3306-46fe-9dab-25f26114ab13"},"vehicle_type_id":"4","last_reported":1759072133,"current_range_meters":15200,"station_id":"ce4bhsh2rcd13ifvqi2g","pricing_plan_id":"cebpf4jnsgd1na2vs0mg"},{"bike_id":"6ed6f23f-9d6c-42fe-a4ba-f07670482dbd","system_id":"levelo_inurba_marseille","lat":43.29204,"lon":5.35802,"is_reserved":false,"is_disabled":false,"rental_uris":{"android":"levelo://app?vid=6ed6f23f-9d6c-42fe-a4ba-f07670482dbd","ios":"levelo://app?vid=6ed6f23f-9d6c-42fe-a4ba-f07670482dbd"},"vehicle_type_id":"4","last_reported":1759072133,"current_range_meters":14800,"station_id":"ce4bhb12rcd13ifvqel0","pricing_plan_id":"cebpf4jnsgd1na2vs0mg"},{"bike_id":"f1aed6d1-98cc-458f-93c4-54430d20c1ac","system_id":"levelo_inurba_marseille","lat":43.21192,"lon":5.35073,"is_reserved":false,"is_disabled":false,"rental_uris":{"android":"levelo://app?vid=f1aed6d1-98cc-458f-93c4-54430d20c1ac","ios":"levelo://app?vid=f1aed6d1-98cc-458f-93c4-54430d20c1ac"},"vehicle_type_id":"4","last_reported":1759072133,"current_range_meters":15200,"station_id":"st_cvj6sg6p6f1abm77japg","pricing_plan_id":"cebpf4jnsgd1na2vs0mg"},{"bike_id":"bae5902c-b7cf-40a4-9123-e936c8dbf1d8","system_id":"levelo_inurba_marseille","lat":43.2119,"lon":5.35077,"is_reserved":false,"is_disabled":false,"rental_uris":{"android":"levelo://app?vid=bae5902c-b7cf-40a4-9123-e936c8dbf1d8","ios":"levelo://app?vid=bae5902c-b7cf-40a4-9123-e936c8dbf1d8"},"vehicle_type_id":"4","last_reported":1759072133,"current_range_meters":15200,"station_id":"st_cvj6sg6p6f1abm77japg","pricing_plan_id":"cebpf4jnsgd1na2vs0mg"},{"bike_id":"0656741e-4baa-4804-921b-3ed5233045aa","system_id":"levelo_inurba_marseille","lat":43.24619,"lon":5.4316,"is_reserved":false,"is_disabled":false,"rental_uris":{"android":"levelo://app?vid=0656741e-4baa-4804-921b-3ed5233045aa","ios":"levelo://app?vid=0656741e-4baa-4804-921b-3ed5233045aa"},"vehicle_type_id":"4","last_reported":1759072133,"current_range_meters":15200,"station_id":"st_d2m6c4gdas8pm72e190g","pricing_plan_id":"cebpf4jnsgd1na2vs0mg"},{"bike_id":"cf5bd213-ba60-4faa-94f2-8e954176abd4","system_id":"levelo_inurba_marseille","lat":43.23963,"lon":5.36644,"is_reserved":false,"is_disabled":false,"rental_uris":{"android":"levelo://app?vid=cf5bd213-ba60-4faa-94f2-8e954176abd4","ios":"levelo://app?vid=cf5bd213-ba60-4faa-94f2-8e954176abd4"},"vehicle_type_id":"4","last_reported":1759072133,"current_range_meters":16000,"station_id":"ce4bhi12rcd13ifvqfp0","pricing_plan_id":"cebpf4jnsgd1na2vs0mg"},{"bike_id":"677a0b1c-d5ca-4154-a464-cd0c0a8279d2","system_id":"levelo_inurba_marseille","lat":43.29016,"lon":5.35612,"is_reserved":false,"is_disabled":true,"rental_uris":{"android":"levelo://app?vid=677a0b1c-d5ca-4154-a464-cd0c0a8279d2","ios":"levelo://app?vid=677a0b1c-d5ca-4154-a464-cd0c0a8279d2"},"vehicle_type_id":"4","last_reported":1759072133,"current_range_meters":16000,"station_id":"ce4bhb92rcd13ifvqen0","pricing_plan_id":"cebpf4jnsgd1na2vs0mg"},{"bike_id":"e0e9194b-710d-4981-ad65-ba5929d7512b","system_id":"levelo_inurba_marseille","lat":43.306022,"lon":5.384559,"is_reserved":false,"is_disabled":false,"rental_uris":{"android":"levelo://app?vid=e0e9194b-710d-4981-ad65-ba5929d7512b","ios":"levelo://app?vid=e0e9194b-710d-4981-ad65-ba5929d7512b"},"vehicle_type_id":"4","last_reported":1759072133,"current_range_meters":16000,"station_id":"","pricing_plan_id":"cebpf4jnsgd1na2vs0mg"},{"bike_id":"80b98ce0-3233-47ce-84db-722943723d1e","system_id":"levelo_inurba_marseille","lat":43.269329,"lon":5.38928,"is_reserved":false,"is_disabled":false,"rental_uris":{"android":"levelo://app?vid=80b98ce0-3233-47ce-84db-722943723d1e","ios":"levelo://app?vid=80b98ce0-3233-47ce-84db-722943723d1e"},"vehicle_type_id":"4","last_reported":1759072133,"current_range_meters":16000,"station_id":"","pricing_plan_id":"cebpf4jnsgd1na2vs0mg"},{"bike_id":"1c55bfd1-d87e-4c77-a278-1a1aa89c112e","system_id":"levelo_inurba_marseille","lat":43.24663,"lon":5.38219,"is_reserved":false,"is_disabled":false,"rental_uris":{"android":"levelo://app?vid=1c55bfd1-d87e-4c77-a278-1a1aa89c112e","ios":"levelo://app?vid=1c55bfd1-d87e-4c77-a278-1a1aa89c112e"},"vehicle_type_id":"4","last_reported":1759072133,"current_range_meters":16000,"station_id":"ce4bhih2rcd13ifvqfr0","pricing_plan_id":"cebpf4jnsgd1na2vs0mg"},{"bike_id":"465fca6c-422f-403e-835f-be0fba51ed67","system_id":"levelo_inurba_marseille","lat":43.261169,"lon":5.393642,"is_reserved":false,"is_disabled":false,"rental_uris":{"android":"levelo://app?vid=465fca6c-422f-403e-835f-be0fba51ed67","ios":"levelo://app?vid=465fca6c-422f-403e-835f-be0fba51ed67"},"vehicle_type_id":"4","last_reported":1759072133,"current_range_meters":16400,"station_id":"ce4bhh92rcd13ifvqfj0","pricing_plan_id":"cebpf4jnsgd1na2vs0mg"},{"bike_id":"3ecab9fb-ebd1-48b2-bfce-30928b04fa5e","system_id":"levelo_inurba_marseille","lat":43.26286,"lon":5.39894,"is_reserved":false,"is_disabled":false,"rental_uris":{"android":"levelo://app?vid=3ecab9fb-ebd1-48b2-bfce-30928b04fa5e","ios":"levelo://app?vid=3ecab9fb-ebd1-48b2-bfce-30928b04fa5e"},"vehicle_type_id":"4","last_reported":1759072133,"current_range_meters":16000,"station_id":"","pricing_plan_id":"cebpf4jnsgd1na2vs0mg"},{"bike_id":"01d71389-0b80-4650-affd-c19dc5c27b50","system_id":"levelo_inurba_marseille","lat":43.23964,"lon":5.36618,"is_reserved":false,"is_disabled":true,"rental_uris":{"android":"levelo://app?vid=01d71389-0b80-4650-affd-c19dc5c27b50","ios":"levelo://app?vid=01d71389-0b80-4650-affd-c19dc5c27b50"},"vehicle_type_id":"4","last_reported":1759072133,"current_range_meters":16000,"station_id":"ce4bhi12rcd13ifvqfp0","pricing_plan_id":"cebpf4jnsgd1na2vs0mg"},{"bike_id":"f060d515-f268-4371-95a2-f04eea0ad05f","system_id":"levelo_inurba_marseille","lat":43.246299,"lon":5.431455,"is_reserved":false,"is_disabled":false,"rental_uris":{"android":"levelo://app?vid=f060d515-f268-4371-95a2-f04eea0ad05f","ios":"levelo://app?vid=f060d515-f268-4371-95a2-f04eea0ad05f"},"vehicle_type_id":"4","last_reported":1759072133,"current_range_meters":16000,"station_id":"st_d2m6c4gdas8pm72e190g","pricing_plan_id":"cebpf4jnsgd1na2vs0mg"},{"bike_id":"e1ee0e3c-4542-4413-aab1-f04f9fb68458","system_id":"levelo_inurba_marseille","lat":43.31757,"lon":5.39016,"is_reserved":false,"is_disabled":false,"rental_uris":{"android":"levelo://app?vid=e1ee0e3c-4542-4413-aab1-f04f9fb68458","ios":"levelo://app?vid=e1ee0e3c-4542-4413-aab1-f04f9fb68458"},"vehicle_type_id":"4","last_reported":1759072133,"current_range_meters":16400,"station_id":"ce4bhqp2rcd13ifvqhng","pricing_plan_id":"cebpf4jnsgd1na2vs0mg"},{"bike_id":"1d65299e-cf34-435b-a60a-0ba0d66bcde6","system_id":"levelo_inurba_marseille","lat":43.28412,"lon":5.37517,"is_reserved":false,"is_disabled":true,"rental_uris":{"android":"levelo://app?vid=1d65299e-cf34-435b-a60a-0ba0d66bcde6","ios":"levelo://app?vid=1d65299e-cf34-435b-a60a-0ba0d66bcde6"},"vehicle_type_id":"4","last_reported":1759072133,"current_range_meters":16400,"station_id":"ce4bh412rcd13ifvqds0","pricing_plan_id":"cebpf4jnsgd1na2vs0mg"},{"bike_id":"73bbd8a8-62e4-4a7e-9641-f59dbff0423a","system_id":"levelo_inurba_marseille","lat":43.3033,"lon":5.39428,"is_reserved":false,"is_disabled":true,"rental_uris":{"android":"levelo://app?vid=73bbd8a8-62e4-4a7e-9641-f59dbff0423a","ios":"levelo://app?vid=73bbd8a8-62e4-4a7e-9641-f59dbff0423a"},"vehicle_type_id":"4","last_reported":1759072133,"current_range_meters":16400,"station_id":"ce4bh0p2rcd13ifvqd70","pricing_plan_id":"cebpf4jnsgd1na2vs0mg"},{"bike_id":"2aece734-e830-466b-a66a-8122d9ebdb30","system_id":"levelo_inurba_marseille","lat":43.2958,"lon":5.36739,"is_reserved":false,"is_disabled":false,"rental_uris":{"android":"levelo://app?vid=2aece734-e830-466b-a66a-8122d9ebdb30","ios":"levelo://app?vid=2aece734-e830-466b-a66a-8122d9ebdb30"},"vehicle_type_id":"4","last_reported":1759072133,"current_range_meters":12000,"station_id":"ce4bgph2rcd13ifvqc2g","pricing_plan_id":"cebpf4jnsgd1na2vs0mg"},{"bike_id":"91ba376c-1a65-4fc0-ab01-070b716f0ff5","system_id":"levelo_inurba_marseille","lat":43.25582,"lon":5.382104,"is_reserved":false,"is_disabled":false,"rental_uris":{"android":"levelo://app?vid=91ba376c-1a65-4fc0-ab01-070b716f0ff5","ios":"levelo://app?vid=91ba376c-1a65-4fc0-ab01-070b716f0ff5"},"vehicle_type_id":"4","last_reported":1759072133,"current_range_meters":16400,"station_id":"ce4bhih2rcd13ifvqfs0","pricing_plan_id":"cebpf4jnsgd1na2vs0mg"},{"bike_id":"42d49c57-fab6-4057-815c-c8e4ef9cf57b","system_id":"levelo_inurba_marseille","lat":43.29002,"lon":5.35605,"is_reserved":false,"is_disabled":false,"rental_uris":{"android":"levelo://app?vid=42d49c57-fab6-4057-815c-c8e4ef9cf57b","ios":"levelo://app?vid=42d49c57-fab6-4057-815c-c8e4ef9cf57b"},"vehicle_type_id":"4","last_reported":1759072133,"current_range_meters":16400,"station_id":"ce4bhb92rcd13ifvqen0","pricing_plan_id":"cebpf4jnsgd1na2vs0mg"},{"bike_id":"c8eb7660-6046-4e9c-8c85-8306cbdbfdf8","system_id":"levelo_inurba_marseille","lat":43.24632,"lon":5.43149,"is_reserved":false,"is_disabled":false,"rental_uris":{"android":"levelo://app?vid=c8eb7660-6046-4e9c-8c85-8306cbdbfdf8","ios":"levelo://app?vid=c8eb7660-6046-4e9c-8c85-8306cbdbfdf8"},"vehicle_type_id":"4","last_reported":1759072133,"current_range_meters":16400,"station_id":"st_d2m6c4gdas8pm72e190g","pricing_plan_id":"cebpf4jnsgd1na2vs0mg"},{"bike_id":"74dab905-f0a5-4a35-8e06-8ce13422dbf0","system_id":"levelo_inurba_marseille","lat":43.295409,"lon":5.387069,"is_reserved":false,"is_disabled":false,"rental_uris":{"android":"levelo://app?vid=74dab905-f0a5-4a35-8e06-8ce13422dbf0","ios":"levelo://app?vid=74dab905-f0a5-4a35-8e06-8ce13422dbf0"},"vehicle_type_id":"4","last_reported":1759072133,"current_range_meters":16400,"station_id":"","pricing_plan_id":"cebpf4jnsgd1na2vs0mg"},{"bike_id":"1c154c5a-4d35-49ee-add1-7acb6ddd2478","system_id":"levelo_inurba_marseille","lat":43.299039,"lon":5.436673,"is_reserved":false,"is_disabled":false,"rental_uris":{"android":"levelo://app?vid=1c154c5a-4d35-49ee-add1-7acb6ddd2478","ios":"levelo://app?vid=1c154c5a-4d35-49ee-add1-7acb6ddd2478"},"vehicle_type_id":"4","last_reported":1759072133,"current_range_meters":16400,"station_id":"ce4bhpp2rcd13ifvqhfg","pricing_plan_id":"cebpf4jnsgd1na2vs0mg"},{"bike_id":"9c4235da-d3d0-4056-aa6b-c6aa6e8e7367","system_id":"levelo_inurba_marseille","lat":43.30668,"lon":5.37523,"is_reserved":false,"is_disabled":false,"rental_uris":{"android":"levelo://app?vid=9c4235da-d3d0-4056-aa6b-c6aa6e8e7367","ios":"levelo://app?vid=9c4235da-d3d0-4056-aa6b-c6aa6e8e7367"},"vehicle_type_id":"4","last_reported":1759072133,"current_range_meters":16400,"station_id":"","pricing_plan_id":"cebpf4jnsgd1na2vs0mg"},{"bike_id":"58f6df6b-cafe-4a4b-b9ec-553eb3cf5354","system_id":"levelo_inurba_marseille","lat":43.28419,"lon":5.34973,"is_reserved":false,"is_disabled":false,"rental_uris":{"android":"levelo://app?vid=58f6df6b-cafe-4a4b-b9ec-553eb3cf5354","ios":"levelo://app?vid=58f6df6b-cafe-4a4b-b9ec-553eb3cf5354"},"vehicle_type_id":"4","last_reported":1759072133,"current_range_meters":16400,"station_id":"ce4bhbh2rcd13ifvqepg","pricing_plan_id":"cebpf4jnsgd1na2vs0mg"},{"bike_id":"3c6fc69e-fa56-4f7c-b940-759196add457","system_id":"levelo_inurba_marseille","lat":43.2416,"lon":5.36393,"is_reserved":false,"is_disabled":false,"rental_uris":{"android":"levelo://app?vid=3c6fc69e-fa56-4f7c-b940-759196add457","ios":"levelo://app?vid=3c6fc69e-fa56-4f7c-b940-759196add457"},"vehicle_type_id":"4","last_reported":1759072133,"current_range_meters":16800,"station_id":"cpo36qri1sfpv3e86is0","pricing_plan_id":"cebpf4jnsgd1na2vs0mg"},{"bike_id":"db54ae1e-766a-4881-94b4-a4cf26d411ba","system_id":"levelo_inurba_marseille","lat":43.2925,"lon":5.38428,"is_reserved":false,"is_disabled":true,"rental_uris":{"android":"levelo://app?vid=db54ae1e-766a-4881-94b4-a4cf26d411ba","ios":"levelo://app?vid=db54ae1e-766a-4881-94b4-a4cf26d411ba"},"vehicle_type_id":"4","last_reported":1759072133,"current_range_meters":16800,"station_id":"ce4bh692rcd13ifvqea0","pricing_plan_id":"cebpf4jnsgd1na2vs0mg"},{"bike_id":"e513a866-cd1f-4ab8-9fb8-3a9b56a6ac10","system_id":"levelo_inurba_marseille","lat":43.29965,"lon":5.38485,"is_reserved":false,"is_disabled":false,"rental_uris":{"android":"levelo://app?vid=e513a866-cd1f-4ab8-9fb8-3a9b56a6ac10","ios":"levelo://app?vid=e513a866-cd1f-4ab8-9fb8-3a9b56a6ac10"},"vehicle_type_id":"4","last_reported":1759072133,"current_range_meters":16800,"station_id":"ce4bgj92rcd13ifvqbd0","pricing_plan_id":"cebpf4jnsgd1na2vs0mg"},{"bike_id":"9b5229aa-3965-445e-8fc0-256e10aa18ff","system_id":"levelo_inurba_marseille","lat":43.283987,"lon":5.387263,"is_reserved":false,"is_disabled":false,"rental_uris":{"android":"levelo://app?vid=9b5229aa-3965-445e-8fc0-256e10aa18ff","ios":"levelo://app?vid=9b5229aa-3965-445e-8fc0-256e10aa18ff"},"vehicle_type_id":"4","last_reported":1759072133,"current_range_meters":16800,"station_id":"ce4bhoh2rcd13ifvqh5g","pricing_plan_id":"cebpf4jnsgd1na2vs0mg"},{"bike_id":"89fe513c-a434-4cf8-a56c-ee0844b2f3be","system_id":"levelo_inurba_marseille","lat":43.29968,"lon":5.38498,"is_reserved":false,"is_disabled":true,"rental_uris":{"android":"levelo://app?vid=89fe513c-a434-4cf8-a56c-ee0844b2f3be","ios":"levelo://app?vid=89fe513c-a434-4cf8-a56c-ee0844b2f3be"},"vehicle_type_id":"4","last_reported":1759072133,"current_range_meters":16800,"station_id":"ce4bgj92rcd13ifvqbd0","pricing_plan_id":"cebpf4jnsgd1na2vs0mg"},{"bike_id":"d723227d-7893-4120-a3a4-fb81a4015b5c","system_id":"levelo_inurba_marseille","lat":43.32483,"lon":5.36574,"is_reserved":false,"is_disabled":false,"rental_uris":{"android":"levelo://app?vid=d723227d-7893-4120-a3a4-fb81a4015b5c","ios":"levelo://app?vid=d723227d-7893-4120-a3a4-fb81a4015b5c"},"vehicle_type_id":"4","last_reported":1759072133,"current_range_meters":16800,"station_id":"ce4bhs12rcd13ifvqhvg","pricing_plan_id":"cebpf4jnsgd1na2vs0mg"},{"bike_id":"52c84e1b-4d26-4791-bbdd-dcd38cf1f46e","system_id":"levelo_inurba_marseille","lat":43.24179,"lon":5.36384,"is_reserved":false,"is_disabled":false,"rental_uris":{"android":"levelo://app?vid=52c84e1b-4d26-4791-bbdd-dcd38cf1f46e","ios":"levelo://app?vid=52c84e1b-4d26-4791-bbdd-dcd38cf1f46e"},"vehicle_type_id":"4","last_reported":1759072133,"current_range_meters":16800,"station_id":"cpo36qri1sfpv3e86is0","pricing_plan_id":"cebpf4jnsgd1na2vs0mg"},{"bike_id":"2a6a3584-2936-4341-bdd1-1b7835b481e7","system_id":"levelo_inurba_marseille","lat":43.297656,"lon":5.38107,"is_reserved":false,"is_disabled":false,"rental_uris":{"android":"levelo://app?vid=2a6a3584-2936-4341-bdd1-1b7835b481e7","ios":"levelo://app?vid=2a6a3584-2936-4341-bdd1-1b7835b481e7"},"vehicle_type_id":"4","last_reported":1759072133,"current_range_meters":17200,"station_id":"ce4bgip2rcd13ifvqbb0","pricing_plan_id":"cebpf4jnsgd1na2vs0mg"},{"bike_id":"d6388aa9-87b7-4aff-b1aa-5c7b3b746d13","system_id":"levelo_inurba_marseille","lat":43.27959,"lon":5.41029,"is_reserved":false,"is_disabled":false,"rental_uris":{"android":"levelo://app?vid=d6388aa9-87b7-4aff-b1aa-5c7b3b746d13","ios":"levelo://app?vid=d6388aa9-87b7-4aff-b1aa-5c7b3b746d13"},"vehicle_type_id":"4","last_reported":1759072133,"current_range_meters":17200,"station_id":"ce4bhnp2rcd13ifvqh0g","pricing_plan_id":"cebpf4jnsgd1na2vs0mg"},{"bike_id":"1c274bba-08c7-4b10-bb6e-db99144c6def","system_id":"levelo_inurba_marseille","lat":43.2119,"lon":5.35072,"is_reserved":false,"is_disabled":false,"rental_uris":{"android":"levelo://app?vid=1c274bba-08c7-4b10-bb6e-db99144c6def","ios":"levelo://app?vid=1c274bba-08c7-4b10-bb6e-db99144c6def"},"vehicle_type_id":"4","last_reported":1759072133,"current_range_meters":17200,"station_id":"st_cvj6sg6p6f1abm77japg","pricing_plan_id":"cebpf4jnsgd1na2vs0mg"},{"bike_id":"a632479f-10f0-4c83-97eb-f7bc38dc3f01","system_id":"levelo_inurba_marseille","lat":43.29552,"lon":5.42255,"is_reserved":false,"is_disabled":false,"rental_uris":{"android":"levelo://app?vid=a632479f-10f0-4c83-97eb-f7bc38dc3f01","ios":"levelo://app?vid=a632479f-10f0-4c83-97eb-f7bc38dc3f01"},"vehicle_type_id":"4","last_reported":1759072133,"current_range_meters":17200,"station_id":"ce4bhph2rcd13ifvqhdg","pricing_plan_id":"cebpf4jnsgd1na2vs0mg"},{"bike_id":"eac398bb-9c21-4643-abda-247e63614ec2","system_id":"levelo_inurba_marseille","lat":43.29006,"lon":5.35604,"is_reserved":false,"is_disabled":false,"rental_uris":{"android":"levelo://app?vid=eac398bb-9c21-4643-abda-247e63614ec2","ios":"levelo://app?vid=eac398bb-9c21-4643-abda-247e63614ec2"},"vehicle_type_id":"4","last_reported":1759072133,"current_range_meters":17200,"station_id":"ce4bhb92rcd13ifvqen0","pricing_plan_id":"cebpf4jnsgd1na2vs0mg"},{"bike_id":"46713879-9b72-4827-b2c8-d0fb78ae6cb6","system_id":"levelo_inurba_marseille","lat":43.28856,"lon":5.35856,"is_reserved":false,"is_disabled":false,"rental_uris":{"android":"levelo://app?vid=46713879-9b72-4827-b2c8-d0fb78ae6cb6","ios":"levelo://app?vid=46713879-9b72-4827-b2c8-d0fb78ae6cb6"},"vehicle_type_id":"4","last_reported":1759072133,"current_range_meters":17200,"station_id":"ce4bhb12rcd13ifvqem0","pricing_plan_id":"cebpf4jnsgd1na2vs0mg"},{"bike_id":"d26a9dbf-d953-4a54-9d2a-7808eeadb40c","system_id":"levelo_inurba_marseille","lat":43.28364,"lon":5.38634,"is_reserved":false,"is_disabled":false,"rental_uris":{"android":"levelo://app?vid=d26a9dbf-d953-4a54-9d2a-7808eeadb40c","ios":"levelo://app?vid=d26a9dbf-d953-4a54-9d2a-7808eeadb40c"},"vehicle_type_id":"4","last_reported":1759072133,"current_range_meters":17200,"station_id":"ce4bh492rcd13ifvqdvg","pricing_plan_id":"cebpf4jnsgd1na2vs0mg"},{"bike_id":"a07a513e-e5a9-4481-8592-d991379bc662","system_id":"levelo_inurba_marseille","lat":43.33735,"lon":5.37481,"is_reserved":false,"is_disabled":false,"rental_uris":{"android":"levelo://app?vid=a07a513e-e5a9-4481-8592-d991379bc662","ios":"levelo://app?vid=a07a513e-e5a9-4481-8592-d991379bc662"},"vehicle_type_id":"4","last_reported":1759072133,"current_range_meters":17200,"station_id":"","pricing_plan_id":"cebpf4jnsgd1na2vs0mg"},{"bike_id":"71b2b05c-9ff1-4d57-a8f6-d481051c9a72","system_id":"levelo_inurba_marseille","lat":43.29538,"lon":5.3854,"is_reserved":false,"is_disabled":true,"rental_uris":{"android":"levelo://app?vid=71b2b05c-9ff1-4d57-a8f6-d481051c9a72","ios":"levelo://app?vid=71b2b05c-9ff1-4d57-a8f6-d481051c9a72"},"vehicle_type_id":"4","last_reported":1759072133,"current_range_meters":17600,"station_id":"ce4bgih2rcd13ifvqba0","pricing_plan_id":"cebpf4jnsgd1na2vs0mg"},{"bike_id":"3419d9ff-7a93-41e4-968b-65a71521c9dc","system_id":"levelo_inurba_marseille","lat":43.29585,"lon":5.36738,"is_reserved":false,"is_disabled":false,"rental_uris":{"android":"levelo://app?vid=3419d9ff-7a93-41e4-968b-65a71521c9dc","ios":"levelo://app?vid=3419d9ff-7a93-41e4-968b-65a71521c9dc"},"vehicle_type_id":"4","last_reported":1759072133,"current_range_meters":18000,"station_id":"ce4bgph2rcd13ifvqc2g","pricing_plan_id":"cebpf4jnsgd1na2vs0mg"},{"bike_id":"5184bf5b-3cc8-4111-8b99-b9c4fcc9d2b3","system_id":"levelo_inurba_marseille","lat":43.24171,"lon":5.39734,"is_reserved":false,"is_disabled":false,"rental_uris":{"android":"levelo://app?vid=5184bf5b-3cc8-4111-8b99-b9c4fcc9d2b3","ios":"levelo://app?vid=5184bf5b-3cc8-4111-8b99-b9c4fcc9d2b3"},"vehicle_type_id":"4","last_reported":1759072133,"current_range_meters":17600,"station_id":"ce4bhn12rcd13ifvqgpg","pricing_plan_id":"cebpf4jnsgd1na2vs0mg"},{"bike_id":"7dc10ae7-7366-4aef-afb3-946c513f88ef","system_id":"levelo_inurba_marseille","lat":43.279976,"lon":5.364055,"is_reserved":false,"is_disabled":false,"rental_uris":{"android":"levelo://app?vid=7dc10ae7-7366-4aef-afb3-946c513f88ef","ios":"levelo://app?vid=7dc10ae7-7366-4aef-afb3-946c513f88ef"},"vehicle_type_id":"4","last_reported":1759072133,"current_range_meters":17600,"station_id":"ce4bha12rcd13ifvqef0","pricing_plan_id":"cebpf4jnsgd1na2vs0mg"},{"bike_id":"e48eb6de-f069-4709-924c-08384c1f854e","system_id":"levelo_inurba_marseille","lat":43.28361,"lon":5.38089,"is_reserved":false,"is_disabled":false,"rental_uris":{"android":"levelo://app?vid=e48eb6de-f069-4709-924c-08384c1f854e","ios":"levelo://app?vid=e48eb6de-f069-4709-924c-08384c1f854e"},"vehicle_type_id":"4","last_reported":1759072133,"current_range_meters":17600,"station_id":"ce4bh412rcd13ifvqdr0","pricing_plan_id":"cebpf4jnsgd1na2vs0mg"},{"bike_id":"88bab79e-f428-48c7-9fe8-35fa768316c1","system_id":"levelo_inurba_marseille","lat":43.32379,"lon":5.382132,"is_reserved":false,"is_disabled":false,"rental_uris":{"android":"levelo://app?vid=88bab79e-f428-48c7-9fe8-35fa768316c1","ios":"levelo://app?vid=88bab79e-f428-48c7-9fe8-35fa768316c1"},"vehicle_type_id":"4","last_reported":1759072133,"current_range_meters":17600,"station_id":"","pricing_plan_id":"cebpf4jnsgd1na2vs0mg"},{"bike_id":"2449685c-9620-4565-b6ce-8dfa9dde0c02","system_id":"levelo_inurba_marseille","lat":43.29571,"lon":5.37526,"is_reserved":false,"is_disabled":false,"rental_uris":{"android":"levelo://app?vid=2449685c-9620-4565-b6ce-8dfa9dde0c02","ios":"levelo://app?vid=2449685c-9620-4565-b6ce-8dfa9dde0c02"},"vehicle_type_id":"4","last_reported":1759072133,"current_range_meters":17600,"station_id":"ce4bgh92rcd13ifvqb50","pricing_plan_id":"cebpf4jnsgd1na2vs0mg"},{"bike_id":"75ca829a-ee93-4ede-b3ba-45d993c38e92","system_id":"levelo_inurba_marseille","lat":43.25721,"lon":5.41113,"is_reserved":false,"is_disabled":false,"rental_uris":{"android":"levelo://app?vid=75ca829a-ee93-4ede-b3ba-45d993c38e92","ios":"levelo://app?vid=75ca829a-ee93-4ede-b3ba-45d993c38e92"},"vehicle_type_id":"4","last_reported":1759072133,"current_range_meters":17600,"station_id":"ce4bhkp2rcd13ifvqgd0","pricing_plan_id":"cebpf4jnsgd1na2vs0mg"},{"bike_id":"a63906d9-70e3-4694-a19f-f783d775e9bb","system_id":"levelo_inurba_marseille","lat":43.31287,"lon":5.37378,"is_reserved":false,"is_disabled":false,"rental_uris":{"android":"levelo://app?vid=a63906d9-70e3-4694-a19f-f783d775e9bb","ios":"levelo://app?vid=a63906d9-70e3-4694-a19f-f783d775e9bb"},"vehicle_type_id":"4","last_reported":1759072133,"current_range_meters":17600,"station_id":"","pricing_plan_id":"cebpf4jnsgd1na2vs0mg"},{"bike_id":"c8d7f4fe-be5b-447b-ba1b-2244460fc221","system_id":"levelo_inurba_marseille","lat":43.24649,"lon":5.38891,"is_reserved":false,"is_disabled":false,"rental_uris":{"android":"levelo://app?vid=c8d7f4fe-be5b-447b-ba1b-2244460fc221","ios":"levelo://app?vid=c8d7f4fe-be5b-447b-ba1b-2244460fc221"},"vehicle_type_id":"4","last_reported":1759072133,"current_range_meters":17600,"station_id":"ce4bhg12rcd13ifvqf60","pricing_plan_id":"cebpf4jnsgd1na2vs0mg"},{"bike_id":"8b353c9e-13c5-42ee-a76f-ccbd6269a3dc","system_id":"levelo_inurba_marseille","lat":43.29899,"lon":5.37492,"is_reserved":false,"is_disabled":false,"rental_uris":{"android":"levelo://app?vid=8b353c9e-13c5-42ee-a76f-ccbd6269a3dc","ios":"levelo://app?vid=8b353c9e-13c5-42ee-a76f-ccbd6269a3dc"},"vehicle_type_id":"4","last_reported":1759072133,"current_range_meters":18000,"station_id":"","pricing_plan_id":"cebpf4jnsgd1na2vs0mg"},{"bike_id":"b693c217-ec4a-42dc-9fd5-9b714e6c5599","system_id":"levelo_inurba_marseille","lat":43.27824,"lon":5.37833,"is_reserved":false,"is_disabled":false,"rental_uris":{"android":"levelo://app?vid=b693c217-ec4a-42dc-9fd5-9b714e6c5599","ios":"levelo://app?vid=b693c217-ec4a-42dc-9fd5-9b714e6c5599"},"vehicle_type_id":"4","last_reported":1759072133,"current_range_meters":18000,"station_id":"","pricing_plan_id":"cebpf4jnsgd1na2vs0mg"},{"bike_id":"26049b79-80df-4227-b3c1-ea5b58fd3499","system_id":"levelo_inurba_marseille","lat":43.30884,"lon":5.37184,"is_reserved":false,"is_disabled":false,"rental_uris":{"android":"levelo://app?vid=26049b79-80df-4227-b3c1-ea5b58fd3499","ios":"levelo://app?vid=26049b79-80df-4227-b3c1-ea5b58fd3499"},"vehicle_type_id":"4","last_reported":1759072133,"current_range_meters":18000,"station_id":"ce4bguh2rcd13ifvqckg","pricing_plan_id":"cebpf4jnsgd1na2vs0mg"},{"bike_id":"bc13d534-4562-43e1-af8b-1c0333787a93","system_id":"levelo_inurba_marseille","lat":43.231535,"lon":5.437066,"is_reserved":false,"is_disabled":false,"rental_uris":{"android":"levelo://app?vid=bc13d534-4562-43e1-af8b-1c0333787a93","ios":"levelo://app?vid=bc13d534-4562-43e1-af8b-1c0333787a93"},"vehicle_type_id":"4","last_reported":1759072133,"current_range_meters":18000,"station_id":"ce4bhmp2rcd13ifvqgog","pricing_plan_id":"cebpf4jnsgd1na2vs0mg"},{"bike_id":"0993d5b1-a6cd-41f2-a222-1737b85af2fc","system_id":"levelo_inurba_marseille","lat":43.28723,"lon":5.36095,"is_reserved":false,"is_disabled":false,"rental_uris":{"android":"levelo://app?vid=0993d5b1-a6cd-41f2-a222-1737b85af2fc","ios":"levelo://app?vid=0993d5b1-a6cd-41f2-a222-1737b85af2fc"},"vehicle_type_id":"4","last_reported":1759072133,"current_range_meters":18000,"station_id":"cki0cbj6b192h4jlfktg","pricing_plan_id":"cebpf4jnsgd1na2vs0mg"},{"bike_id":"899af826-7c5d-4a2b-b0fd-d061ab2a7573","system_id":"levelo_inurba_marseille","lat":43.2567,"lon":5.41129,"is_reserved":false,"is_disabled":false,"rental_uris":{"android":"levelo://app?vid=899af826-7c5d-4a2b-b0fd-d061ab2a7573","ios":"levelo://app?vid=899af826-7c5d-4a2b-b0fd-d061ab2a7573"},"vehicle_type_id":"4","last_reported":1759072133,"current_range_meters":18000,"station_id":"ce4bhkp2rcd13ifvqgd0","pricing_plan_id":"cebpf4jnsgd1na2vs0mg"},{"bike_id":"8ffac578-131d-4171-941b-d073a175c44c","system_id":"levelo_inurba_marseille","lat":43.26214,"lon":5.37435,"is_reserved":false,"is_disabled":true,"rental_uris":{"android":"levelo://app?vid=8ffac578-131d-4171-941b-d073a175c44c","ios":"levelo://app?vid=8ffac578-131d-4171-941b-d073a175c44c"},"vehicle_type_id":"4","last_reported":1759072133,"current_range_meters":18000,"station_id":"ce4bhgp2rcd13ifvqfc0","pricing_plan_id":"cebpf4jnsgd1na2vs0mg"},{"bike_id":"c627b34a-8e81-4438-af3b-4fd0aab1c160","system_id":"levelo_inurba_marseille","lat":43.29692,"lon":5.36005,"is_reserved":false,"is_disabled":false,"rental_uris":{"android":"levelo://app?vid=c627b34a-8e81-4438-af3b-4fd0aab1c160","ios":"levelo://app?vid=c627b34a-8e81-4438-af3b-4fd0aab1c160"},"vehicle_type_id":"4","last_reported":1759072133,"current_range_meters":18000,"station_id":"","pricing_plan_id":"cebpf4jnsgd1na2vs0mg"},{"bike_id":"6664cf6d-c7c4-4918-a7bf-99f36e5df316","system_id":"levelo_inurba_marseille","lat":43.29709,"lon":5.36611,"is_reserved":false,"is_disabled":false,"rental_uris":{"android":"levelo://app?vid=6664cf6d-c7c4-4918-a7bf-99f36e5df316","ios":"levelo://app?vid=6664cf6d-c7c4-4918-a7bf-99f36e5df316"},"vehicle_type_id":"4","last_reported":1759072133,"current_range_meters":18800,"station_id":"ce4bgn12rcd13ifvqbt0","pricing_plan_id":"cebpf4jnsgd1na2vs0mg"},