{"last_updated":1751641819,"ttl":60,"version":"2.2","data":{"bikes":[{"bike_id":"3da29fb8-fc97-44c6-b9ac-31dd456b2fd4","system_id":"levelo_inurba_marseille","lat":43.33771,"lon":5.37424,"is_reserved":false,"is_disabled":true,"rental_uris":{"android":"levelo://app?vid=3da29fb8-fc97-44c6-b9ac-31dd456b2fd4","ios":"levelo://app?vid=3da29fb8-fc97-44c6-b9ac-31dd456b2fd4"},"vehicle_type_id":"4","last_reported":1751641819,"current_range_meters":0,"station_id":"","pricing_plan_id":"cebpf4jnsgd1na2vs0mg"},{"bike_id":"01861ad8-a8d7-4be6-816e-651927c87584","system_id":"levelo_inurba_marseille","lat":43.33751,"lon":5.37456,"is_reserved":false,"is_disabled":true,"rental_uris":{"android":"levelo://app?vid=01861ad8-a8d7-4be6-816e-651927c87584","ios":"levelo://app?vid=01861ad8-a8d7-4be6-816e-651927c87584"},"vehicle_type_id":"4","last_reported":1751641819,"current_range_meters":0,"station_id":"","pricing_plan_id":"cebpf4jnsgd1na2vs0mg"},{"bike_id":"bf258842-98b1-4a26-8d22-bfd632384292","system_id":"levelo_inurba_marseille","lat":43.27056,"lon":5.40264,"is_reserved":false,"is_disabled":true,"rental_uris":{"android":"levelo://app?vid=bf258842-98b1-4a26-8d22-bfd632384292","ios":"levelo://app?vid=bf258842-98b1-4a26-8d22-bfd632384292"},"vehicle_type_id":"4","last_reported":1751641819,"current_range_meters":0,"station_id":"","pricing_plan_id":"cebpf4jnsgd1na2vs0mg"},{"bike_id":"fb7eaa34-3090-467a-bc3a-a4c2c7cd510d","system_id":"levelo_inurba_marseille","lat":43.21743,"lon":5.34606,"is_reserved":false,"is_disabled":true,"rental_uris":{"android":"levelo://app?vid=fb7eaa34-3090-467a-bc3a-a4c2c7cd510d","ios":"levelo://app?vid=fb7eaa34-3090-467a-bc3a-a4c2c7cd510d"},"vehicle_type_id":"4","last_reported":1751641819,"current_range_meters":0,"station_id":"","pricing_plan_id":"cebpf4jnsgd1na2vs0mg"},{"bike_id":"f2dcbd24-5203-4207-baad-1308afcbb561","system_id":"levelo_inurba_marseille","lat":43.305509,"lon":5.365394,"is_reserved":false,"is_disabled":true,"rental_uris":{"android":"levelo://app?vid=f2dcbd24-5203-4207-baad-1308afcbb561","ios":"levelo://app?vid=f2dcbd24-5203-4207-baad-1308afcbb561"},"vehicle_type_id":"4","last_reported":1751641819,"current_range_meters":0,"station_id":"ce4bgs12rcd13ifvqcag","pricing_plan_id":"cebpf4jnsgd1na2vs0mg"},{"bike_id":"22a8da77-9721-44b8-aa1b-d66851ae0301","system_id":"levelo_inurba_marseille","lat":43.31481,"lon":5.37302,"is_reserved":false,"is_disabled":true,"rental_uris":{"android":"levelo://app?vid=22a8da77-9721-44b8-aa1b-d66851ae0301","ios":"levelo://app?vid=22a8da77-9721-44b8-aa1b-d66851ae0301"},"vehicle_type_id":"4","last_reported":1751641819,"current_range_meters":0,"station_id":"ce4bgt12rcd13ifvqcd0","pricing_plan_id":"cebpf4jnsgd1na2vs0mg"},{"bike_id":"22c664e7-4f60-4c4c-bc5a-ffd08bc47d70","system_id":"levelo_inurba_marseille","lat":43.31329,"lon":5.3969,"is_reserved":false,"is_disabled":true,"rental_uris":{"android":"levelo://app?vid=22c664e7-4f60-4c4c-bc5a-ffd08bc47d70","ios":"levelo://app?vid=22c664e7-4f60-4c4c-bc5a-ffd08bc47d70"},"vehicle_type_id":"4","last_reported":1751641819,"current_range_meters":0,"station_id":"ce4bgvp2rcd13ifvqcu0","pricing_plan_id":"cebpf4jnsgd1na2vs0mg"},{"bike_id":"d594088d-7cb9-4f95-8646-b495a2c02aa9","system_id":"levelo_inurba_marseille","lat":43.31682,"lon":5.40472,"is_reserved":false,"is_disabled":true,"rental_uris":{"android":"levelo://app?vid=d594088d-7cb9-4f95-8646-b495a2c02aa9","ios":"levelo://app?vid=d594088d-7cb9-4f95-8646-b495a2c02aa9"},"vehicle_type_id":"4","last_reported":1751641819,"current_range_meters":0,"station_id":"ce4bh012rcd13ifvqd00","pricing_plan_id":"cebpf4jnsgd1na2vs0mg"},{"bike_id":"fe7cbc0f-3142-4f53-a9d7-59c7a60b9e2b","system_id":"levelo_inurba_marseille","lat":43.29259,"lon":5.40896,"is_reserved":false,"is_disabled":true,"rental_uris":{"android":"levelo://app?vid=fe7cbc0f-3142-4f53-a9d7-59c7a60b9e2b","ios":"levelo://app?vid=fe7cbc0f-3142-4f53-a9d7-59c7a60b9e2b"},"vehicle_type_id":"4","last_reported":1751641819,"current_range_meters":0,"station_id":"ce4bh192rcd13ifvqdc0","pricing_plan_id":"cebpf4jnsgd1na2vs0mg"},{"bike_id":"f9b7cf18-dab2-4095-9677-2bd9f8242fc3","system_id":"levelo_inurba_marseille","lat":43.26588,"lon":5.38991,"is_reserved":false,"is_disabled":true,"rental_uris":{"android":"levelo://app?vid=f9b7cf18-dab2-4095-9677-2bd9f8242fc3","ios":"levelo://app?vid=f9b7cf18-dab2-4095-9677-2bd9f8242fc3"},"vehicle_type_id":"4","last_reported":1751641819,"current_range_meters":0,"station_id":"ce4bhe12rcd13ifvqf30","pricing_plan_id":"cebpf4jnsgd1na2vs0mg"},{"bike_id":"de7da378-551c-4a79-8693-1fec5b588b2f","system_id":"levelo_inurba_marseille","lat":43.24801,"lon":5.37451,"is_reserved":false,"is_disabled":true,"rental_uris":{"android":"levelo://app?vid=de7da378-551c-4a79-8693-1fec5b588b2f","ios":"levelo://app?vid=de7da378-551c-4a79-8693-1fec5b588b2f"},"vehicle_type_id":"4","last_reported":1751641819,"current_range_meters":0,"station_id":"ce4bhgh2rcd13ifvqfb0","pricing_plan_id":"cebpf4jnsgd1na2vs0mg"},{"bike_id":"d3876719-88ec-43e1-91c1-a43cd43e19b2","system_id":"levelo_inurba_marseille","lat":43.26211,"lon":5.37441,"is_reserved":false,"is_disabled":true,"rental_uris":{"android":"levelo://app?vid=d3876719-88ec-43e1-91c1-a43cd43e19b2","ios":"levelo://app?vid=d3876719-88ec-43e1-91c1-a43cd43e19b2"},"vehicle_type_id":"4","last_reported":1751641819,"current_range_meters":0,"station_id":"ce4bhgp2rcd13ifvqfc0","pricing_plan_id":"cebpf4jnsgd1na2vs0mg"},{"bike_id":"9b90f678-78ae-45a7-a227-b64b63ffde6f","system_id":"levelo_inurba_marseille","lat":43.26192,"lon":5.374486,"is_reserved":false,"is_disabled":true,"rental_uris":{"android":"levelo://app?vid=9b90f678-78ae-45a7-a227-b64b63ffde6f","ios":"levelo://app?vid=9b90f678-78ae-45a7-a227-b64b63ffde6f"},"vehicle_type_id":"4","last_reported":1751641819,"current_range_meters":0,"station_id":"ce4bhgp2rcd13ifvqfc0","pricing_plan_id":"cebpf4jnsgd1na2vs0mg"},{"bike_id":"1e2aced4-6cf6-44ec-bd05-37348fce88b6","system_id":"levelo_inurba_marseille","lat":43.2418,"lon":5.39723,"is_reserved":false,"is_disabled":true,"rental_uris":{"android":"levelo://app?vid=1e2aced4-6cf6-44ec-bd05-37348fce88b6","ios":"levelo://app?vid=1e2aced4-6cf6-44ec-bd05-37348fce88b6"},"vehicle_type_id":"4","last_reported":1751641819,"current_range_meters":0,"station_id":"ce4bhn12rcd13ifvqgpg","pricing_plan_id":"cebpf4jnsgd1na2vs0mg"},{"bike_id":"3da1ba9c-9ff8-43e0-85aa-641a6eda3973","system_id":"levelo_inurba_marseille","lat":43.245202,"lon":5.368226,"is_reserved":false,"is_disabled":true,"rental_uris":{"android":"levelo://app?vid=3da1ba9c-9ff8-43e0-85aa-641a6eda3973","ios":"levelo://app?vid=3da1ba9c-9ff8-43e0-85aa-641a6eda3973"},"vehicle_type_id":"4","last_reported":1751641819,"current_range_meters":0,"station_id":"ce4bhnp2rcd13ifvqgvg","pricing_plan_id":"cebpf4jnsgd1na2vs0mg"},{"bike_id":"a5d1fa5f-9ebe-4cfb-b45c-3e29919bec59","system_id":"levelo_inurba_marseille","lat":43.304213,"lon":5.41278,"is_reserved":false,"is_disabled":true,"rental_uris":{"android":"levelo://app?vid=a5d1fa5f-9ebe-4cfb-b45c-3e29919bec59","ios":"levelo://app?vid=a5d1fa5f-9ebe-4cfb-b45c-3e29919bec59"},"vehicle_type_id":"4","last_reported":1751641819,"current_range_meters":0,"station_id":"ce4bhop2rcd13ifvqh8g","pricing_plan_id":"cebpf4jnsgd1na2vs0mg"},{"bike_id":"2db7de25-6c57-447b-bff5-ea01c3753780","system_id":"levelo_inurba_marseille","lat":43.21742,"lon":5.34611,"is_reserved":false,"is_disabled":true,"rental_uris":{"android":"levelo://app?vid=2db7de25-6c57-447b-bff5-ea01c3753780","ios":"levelo://app?vid=2db7de25-6c57-447b-bff5-ea01c3753780"},"vehicle_type_id":"4","last_reported":1751641819,"current_range_meters":0,"station_id":"st_cvj6r9ubvosntc0bgbag","pricing_plan_id":"cebpf4jnsgd1na2vs0mg"},{"bike_id":"5e8830ec-34e5-4f0f-b607-434b2954d153","system_id":"levelo_inurba_marseille","lat":43.21192,"lon":5.35074,"is_reserved":false,"is_disabled":true,"rental_uris":{"android":"levelo://app?vid=5e8830ec-34e5-4f0f-b607-434b2954d153","ios":"levelo://app?vid=5e8830ec-34e5-4f0f-b607-434b2954d153"},"vehicle_type_id":"4","last_reported":1751641819,"current_range_meters":0,"station_id":"st_cvj6sg6p6f1abm77japg","pricing_plan_id":"cebpf4jnsgd1na2vs0mg"},{"bike_id":"cd2a3af2-854b-4519-92e5-1eaf70ba8a37","system_id":"levelo_inurba_marseille","lat":43.21207,"lon":5.350695,"is_reserved":false,"is_disabled":true,"rental_uris":{"android":"levelo://app?vid=cd2a3af2-854b-4519-92e5-1eaf70ba8a37","ios":"levelo://app?vid=cd2a3af2-854b-4519-92e5-1eaf70ba8a37"},"vehicle_type_id":"4","last_reported":1751641819,"current_range_meters":0,"station_id":"st_cvj6sg6p6f1abm77japg","pricing_plan_id":"cebpf4jnsgd1na2vs0mg"},{"bike_id":"16a6a8b4-15b2-4b2e-9100-4e66206feba3","system_id":"levelo_inurba_marseille","lat":43.27968,"lon":5.38744,"is_reserved":false,"is_disabled":true,"rental_uris":{"android":"levelo://app?vid=16a6a8b4-15b2-4b2e-9100-4e66206feba3","ios":"levelo://app?vid=16a6a8b4-15b2-4b2e-9100-4e66206feba3"},"vehicle_type_id":"4","last_reported":1751641819,"current_range_meters":400,"station_id":"ce4bhg12rcd13ifvqf80","pricing_plan_id":"cebpf4jnsgd1na2vs0mg"},{"bike_id":"a2cba17b-b388-410e-afe2-eb25f16854f2","system_id":"levelo_inurba_marseille","lat":43.25876,"lon":5.399,"is_reserved":false,"is_disabled":true,"rental_uris":{"android":"levelo://app?vid=a2cba17b-b388-410e-afe2-eb25f16854f2","ios":"levelo://app?vid=a2cba17b-b388-410e-afe2-eb25f16854f2"},"vehicle_type_id":"4","last_reported":1751641819,"current_range_meters":400,"station_id":"ce4bhl92rcd13ifvqghg","pricing_plan_id":"cebpf4jnsgd1na2vs0mg"},{"bike_id":"6eb4dfb9-bffd-499b-8d8e-95218854438c","system_id":"levelo_inurba_marseille","lat":43.29618,"lon":5.38115,"is_reserved":false,"is_disabled":true,"rental_uris":{"android":"levelo://app?vid=6eb4dfb9-bffd-499b-8d8e-95218854438c","ios":"levelo://app?vid=6eb4dfb9-bffd-499b-8d8e-95218854438c"},"vehicle_type_id":"4","last_reported":1751641819,"current_range_meters":800,"station_id":"ce4bgl12rcd13ifvqbo0","pricing_plan_id":"cebpf4jnsgd1na2vs0mg"},{"bike_id":"c683d052-fd7f-4cd5-a658-a15451f1b7dd","system_id":"levelo_inurba_marseille","lat":43.30548,"lon":5.36516,"is_reserved":false,"is_disabled":true,"rental_uris":{"android":"levelo://app?vid=c683d052-fd7f-4cd5-a658-a15451f1b7dd","ios":"levelo://app?vid=c683d052-fd7f-4cd5-a658-a15451f1b7dd"},"vehicle_type_id":"4","last_reported":1751641819,"current_range_meters":800,"station_id":"ce4bgs12rcd13ifvqcag","pricing_plan_id":"cebpf4jnsgd1na2vs0mg"},{"bike_id":"54e5d73a-37d2-4d78-a35f-3016e81cf185","system_id":"levelo_inurba_marseille","lat":43.30143,"lon":5.37404,"is_reserved":false,"is_disabled":true,"rental_uris":{"android":"levelo://app?vid=54e5d73a-37d2-4d78-a35f-3016e81cf185","ios":"levelo://app?vid=54e5d73a-37d2-4d78-a35f-3016e81cf185"},"vehicle_type_id":"4","last_reported":1751641819,"current_range_meters":800,"station_id":"ce4bgs92rcd13ifvqcc0","pricing_plan_id":"cebpf4jnsgd1na2vs0mg"},{"bike_id":"7505bfe2-54f4-4ff8-8284-d58dbe346231","system_id":"levelo_inurba_marseille","lat":43.30886,"lon":5.39656,"is_reserved":false,"is_disabled":true,"rental_uris":{"android":"levelo://app?vid=7505bfe2-54f4-4ff8-8284-d58dbe346231","ios":"levelo://app?vid=7505bfe2-54f4-4ff8-8284-d58dbe346231"},"vehicle_type_id":"4","last_reported":1751641819,"current_range_meters":800,"station_id":"ce4bh012rcd13ifvqcv0","pricing_plan_id":"cebpf4jnsgd1na2vs0mg"},{"bike_id":"4c8ac98e-9ff3-400d-984a-d149c80f2ce6","system_id":"levelo_inurba_marseille","lat":43.28151,"lon":5.42643,"is_reserved":false,"is_disabled":true,"rental_uris":{"android":"levelo://app?vid=4c8ac98e-9ff3-400d-984a-d149c80f2ce6","ios":"levelo://app?vid=4c8ac98e-9ff3-400d-984a-d149c80f2ce6"},"vehicle_type_id":"4","last_reported":1751641819,"current_range_meters":800,"station_id":"ce4bhnh2rcd13ifvqgug","pricing_plan_id":"cebpf4jnsgd1na2vs0mg"},{"bike_id":"bb326041-a5f8-4d78-8885-b73efb302f7a","system_id":"levelo_inurba_marseille","lat":43.29787,"lon":5.38125,"is_reserved":false,"is_disabled":true,"rental_uris":{"android":"levelo://app?vid=bb326041-a5f8-4d78-8885-b73efb302f7a","ios":"levelo://app?vid=bb326041-a5f8-4d78-8885-b73efb302f7a"},"vehicle_type_id":"4","last_reported":1751641819,"current_range_meters":1200,"station_id":"ce4bgip2rcd13ifvqbb0","pricing_plan_id":"cebpf4jnsgd1na2vs0mg"},{"bike_id":"a01c836c-acd9-46d2-a544-ea22f108cee2","system_id":"levelo_inurba_marseille","lat":43.312115,"lon":5.36817,"is_reserved":false,"is_disabled":true,"rental_uris":{"android":"levelo://app?vid=a01c836c-acd9-46d2-a544-ea22f108cee2","ios":"levelo://app?vid=a01c836c-acd9-46d2-a544-ea22f108cee2"},"vehicle_type_id":"4","last_reported":1751641819,"current_range_meters":1200,"station_id":"ce4bgl92rcd13ifvqbq0","pricing_plan_id":"cebpf4jnsgd1na2vs0mg"},{"bike_id":"eb980d2d-12c7-4eea-b96a-23de9f86c1d0","system_id":"levelo_inurba_marseille","lat":43.3096,"lon":5.39032,"is_reserved":false,"is_disabled":true,"rental_uris":{"android":"levelo://app?vid=eb980d2d-12c7-4eea-b96a-23de9f86c1d0","ios":"levelo://app?vid=eb980d2d-12c7-4eea-b96a-23de9f86c1d0"},"vehicle_type_id":"4","last_reported":1751641819,"current_range_meters":1200,"station_id":"ce4bgup2rcd13ifvqco0","pricing_plan_id":"cebpf4jnsgd1na2vs0mg"},{"bike_id":"6612dfd3-ff6d-4b09-9d03-b283d48d979d","system_id":"levelo_inurba_marseille","lat":43.29575,"lon":5.39991,"is_reserved":false,"is_disabled":true,"rental_uris":{"android":"levelo://app?vid=6612dfd3-ff6d-4b09-9d03-b283d48d979d","ios":"levelo://app?vid=6612dfd3-ff6d-4b09-9d03-b283d48d979d"},"vehicle_type_id":"4","last_reported":1751641819,"current_range_meters":1600,"station_id":"ce4bh312rcd13ifvqdj0","pricing_plan_id":"cebpf4jnsgd1na2vs0mg"},{"bike_id":"9755a03c-8ab9-4a58-bd2c-40e869d64e05","system_id":"levelo_inurba_marseille","lat":43.27378,"lon":5.362622,"is_reserved":false,"is_disabled":true,"rental_uris":{"android":"levelo://app?vid=9755a03c-8ab9-4a58-bd2c-40e869d64e05","ios":"levelo://app?vid=9755a03c-8ab9-4a58-bd2c-40e869d64e05"},"vehicle_type_id":"4","last_reported":1751641819,"current_range_meters":1600,"station_id":"ce4bhbh2rcd13ifvqeo0","pricing_plan_id":"cebpf4jnsgd1na2vs0mg"},{"bike_id":"d0cd87dc-ff06-4f54-815d-56b2df5b0a4a","system_id":"levelo_inurba_marseille","lat":43.2549,"lon":5.37645,"is_reserved":false,"is_disabled":true,"rental_uris":{"android":"levelo://app?vid=d0cd87dc-ff06-4f54-815d-56b2df5b0a4a","ios":"levelo://app?vid=d0cd87dc-ff06-4f54-815d-56b2df5b0a4a"},"vehicle_type_id":"4","last_reported":1751641819,"current_range_meters":1600,"station_id":"ce4bhh12rcd13ifvqff0","pricing_plan_id":"cebpf4jnsgd1na2vs0mg"},{"bike_id":"a097ca23-2859-414f-9a1f-666fcbf8518a","system_id":"levelo_inurba_marseille","lat":43.29957,"lon":5.41317,"is_reserved":false,"is_disabled":true,"rental_uris":{"android":"levelo://app?vid=a097ca23-2859-414f-9a1f-666fcbf8518a","ios":"levelo://app?vid=a097ca23-2859-414f-9a1f-666fcbf8518a"},"vehicle_type_id":"4","last_reported":1751641819,"current_range_meters":1600,"station_id":"ce4bhp12rcd13ifvqh9g","pricing_plan_id":"cebpf4jnsgd1na2vs0mg"},{"bike_id":"cee0b5b6-9b90-457a-85f4-540287a23b84","system_id":"levelo_inurba_marseille","lat":43.21185,"lon":5.35064,"is_reserved":false,"is_disabled":true,"rental_uris":{"android":"levelo://app?vid=cee0b5b6-9b90-457a-85f4-540287a23b84","ios":"levelo://app?vid=cee0b5b6-9b90-457a-85f4-540287a23b84"},"vehicle_type_id":"4","last_reported":1751641819,"current_range_meters":1600,"station_id":"st_cvj6sg6p6f1abm77japg","pricing_plan_id":"cebpf4jnsgd1na2vs0mg"},{"bike_id":"34c6e3d0-b005-424f-a0a7-52f9f8bd654f","system_id":"levelo_inurba_marseille","lat":43.23622,"lon":5.36207,"is_reserved":false,"is_disabled":true,"rental_uris":{"android":"levelo://app?vid=34c6e3d0-b005-424f-a0a7-52f9f8bd654f","ios":"levelo://app?vid=34c6e3d0-b005-424f-a0a7-52f9f8bd654f"},"vehicle_type_id":"4","last_reported":1751641819,"current_range_meters":2000,"station_id":"","pricing_plan_id":"cebpf4jnsgd1na2vs0mg"},{"bike_id":"c774bfdc-722d-4154-bb26-15f92e1fe594","system_id":"levelo_inurba_marseille","lat":43.27193,"lon":5.39189,"is_reserved":false,"is_disabled":true,"rental_uris":{"android":"levelo://app?vid=c774bfdc-722d-4154-bb26-15f92e1fe594","ios":"levelo://app?vid=c774bfdc-722d-4154-bb26-15f92e1fe594"},"vehicle_type_id":"4","last_reported":1751641819,"current_range_meters":2000,"station_id":"ce4bhhp2rcd13ifvqfm0","pricing_plan_id":"cebpf4jnsgd1na2vs0mg"},{"bike_id":"ac79b713-e1ac-45bf-8c39-306d74512259","system_id":"levelo_inurba_marseille","lat":43.30112,"lon":5.39881,"is_reserved":false,"is_disabled":false,"rental_uris":{"android":"levelo://app?vid=ac79b713-e1ac-45bf-8c39-306d74512259","ios":"levelo://app?vid=ac79b713-e1ac-45bf-8c39-306d74512259"},"vehicle_type_id":"4","last_reported":1751641819,"current_range_meters":2800,"station_id":"ce4bh0h2rcd13ifvqd40","pricing_plan_id":"cebpf4jnsgd1na2vs0mg"},{"bike_id":"2b27b8c1-8612-4aaa-9612-186cc74297fa","system_id":"levelo_inurba_marseille","lat":43.29632,"lon":5.40595,"is_reserved":false,"is_disabled":false,"rental_uris":{"android":"levelo://app?vid=2b27b8c1-8612-4aaa-9612-186cc74297fa","ios":"levelo://app?vid=2b27b8c1-8612-4aaa-9612-186cc74297fa"},"vehicle_type_id":"4","last_reported":1751641819,"current_range_meters":2800,"station_id":"ce4bh0h2rcd13ifvqd60","pricing_plan_id":"cebpf4jnsgd1na2vs0mg"},{"bike_id":"41468180-bf11-4024-93f0-eb14481b77bc","system_id":"levelo_inurba_marseille","lat":43.29094,"lon":5.38136,"is_reserved":false,"is_disabled":false,"rental_uris":{"android":"levelo://app?vid=41468180-bf11-4024-93f0-eb14481b77bc","ios":"levelo://app?vid=41468180-bf11-4024-93f0-eb14481b77bc"},"vehicle_type_id":"4","last_reported":1751641819,"current_range_meters":2800,"station_id":"ce4bh512rcd13ifvqe2g","pricing_plan_id":"cebpf4jnsgd1na2vs0mg"},{"bike_id":"b7730369-34f0-46be-abf6-76b74d5e2114","system_id":"levelo_inurba_marseille","lat":43.2791,"lon":5.38008,"is_reserved":false,"is_disabled":false,"rental_uris":{"android":"levelo://app?vid=b7730369-34f0-46be-abf6-76b74d5e2114","ios":"levelo://app?vid=b7730369-34f0-46be-abf6-76b74d5e2114"},"vehicle_type_id":"4","last_reported":1751641819,"current_range_meters":2800,"station_id":"ce4bhf92rcd13ifvqf50","pricing_plan_id":"cebpf4jnsgd1na2vs0mg"},{"bike_id":"d92ac049-7b3c-44c5-a379-e85b9d5987b2","system_id":"levelo_inurba_marseille","lat":43.29576,"lon":5.36741,"is_reserved":false,"is_disabled":false,"rental_uris":{"android":"levelo://app?vid=d92ac049-7b3c-44c5-a379-e85b9d5987b2","ios":"levelo://app?vid=d92ac049-7b3c-44c5-a379-e85b9d5987b2"},"vehicle_type_id":"4","last_reported":1751641819,"current_range_meters":3200,"station_id":"ce4bgph2rcd13ifvqc2g","pricing_plan_id":"cebpf4jnsgd1na2vs0mg"},{"bike_id":"423a1b65-0f5e-4fc3-9027-062ab0d7e431","system_id":"levelo_inurba_marseille","lat":43.29039,"lon":5.3996,"is_reserved":false,"is_disabled":false,"rental_uris":{"android":"levelo://app?vid=423a1b65-0f5e-4fc3-9027-062ab0d7e431","ios":"levelo://app?vid=423a1b65-0f5e-4fc3-9027-062ab0d7e431"},"vehicle_type_id":"4","last_reported":1751641819,"current_range_meters":3200,"station_id":"ce4bh392rcd13ifvqdm0","pricing_plan_id":"cebpf4jnsgd1na2vs0mg"},{"bike_id":"1169c069-f04a-4bc7-b63d-9edd9c2a8130","system_id":"levelo_inurba_marseille","lat":43.27807,"lon":5.40703,"is_reserved":false,"is_disabled":false,"rental_uris":{"android":"levelo://app?vid=1169c069-f04a-4bc7-b63d-9edd9c2a8130","ios":"levelo://app?vid=1169c069-f04a-4bc7-b63d-9edd9c2a8130"},"vehicle_type_id":"4","last_reported":1751641819,"current_range_meters":3200,"station_id":"ce4bhnh2rcd13ifvqgtg","pricing_plan_id":"cebpf4jnsgd1na2vs0mg"},{"bike_id":"e390d252-cda2-495d-b4e5-a36f988feec0","system_id":"levelo_inurba_marseille","lat":43.28852,"lon":5.35858,"is_reserved":false,"is_disabled":false,"rental_uris":{"android":"levelo://app?vid=e390d252-cda2-495d-b4e5-a36f988feec0","ios":"levelo://app?vid=e390d252-cda2-495d-b4e5-a36f988feec0"},"vehicle_type_id":"4","last_reported":1751641819,"current_range_meters":3600,"station_id":"ce4bhb12rcd13ifvqem0","pricing_plan_id":"cebpf4jnsgd1na2vs0mg"},{"bike_id":"11e7b8be-6254-46c8-a705-c6941c346d56","system_id":"levelo_inurba_marseille","lat":43.30127,"lon":5.37736,"is_reserved":false,"is_disabled":false,"rental_uris":{"android":"levelo://app?vid=11e7b8be-6254-46c8-a705-c6941c346d56","ios":"levelo://app?vid=11e7b8be-6254-46c8-a705-c6941c346d56"},"vehicle_type_id":"4","last_reported":1751641819,"current_range_meters":4800,"station_id":"","pricing_plan_id":"cebpf4jnsgd1na2vs0mg"},{"bike_id":"f6d9a65e-7378-4f08-85f6-2e07799e928b","system_id":"levelo_inurba_marseille","lat":43.21745,"lon":5.34603,"is_reserved":false,"is_disabled":false,"rental_uris":{"android":"levelo://app?vid=f6d9a65e-7378-4f08-85f6-2e07799e928b","ios":"levelo://app?vid=f6d9a65e-7378-4f08-85f6-2e07799e928b"},"vehicle_type_id":"4","last_reported":1751641819,"current_range_meters":5600,"station_id":"st_cvj6r9ubvosntc0bgbag","pricing_plan_id":"cebpf4jnsgd1na2vs0mg"},{"bike_id":"8afa7640-ebe8-4025-983a-c83f3912a2dd","system_id":"levelo_inurba_marseille","lat":43.21175,"lon":5.35081,"is_reserved":false,"is_disabled":false,"rental_uris":{"android":"levelo://app?vid=8afa7640-ebe8-4025-983a-c83f3912a2dd","ios":"levelo://app?vid=8afa7640-ebe8-4025-983a-c83f3912a2dd"},"vehicle_type_id":"4","last_reported":1751641819,"current_range_meters":5600,"station_id":"st_cvj6sg6p6f1abm77japg","pricing_plan_id":"cebpf4jnsgd1na2vs0mg"},{"bike_id":"e26ba497-efc7-4420-b8c5-9fa5e27f2ce4","system_id":"levelo_inurba_marseille","lat":43.3136,"lon":5.3706,"is_reserved":false,"is_disabled":false,"rental_uris":{"android":"levelo://app?vid=e26ba497-efc7-4420-b8c5-9fa5e27f2ce4","ios":"levelo://app?vid=e26ba497-efc7-4420-b8c5-9fa5e27f2ce4"},"vehicle_type_id":"4","last_reported":1751641819,"current_range_meters":6000,"station_id":"","pricing_plan_id":"cebpf4jnsgd1na2vs0mg"},{"bike_id":"090a66e5-3e8d-489c-98c6-27cc15bc7ad1","system_id":"levelo_inurba_marseille","lat":43.30602,"lon":5.3722,"is_reserved":false,"is_disabled":false,"rental_uris":{"android":"levelo://app?vid=090a66e5-3e8d-489c-98c6-27cc15bc7ad1","ios":"levelo://app?vid=090a66e5-3e8d-489c-98c6-27cc15bc7ad1"},"vehicle_type_id":"4","last_reported":1751641819,"current_range_meters":6000,"station_id":"ce4bgqh2rcd13ifvqc4g","pricing_plan_id":"cebpf4jnsgd1na2vs0mg"},{"bike_id":"7bbc4046-c7cf-4ebc-8245-ac4ac0eeb021","system_id":"levelo_inurba_marseille","lat":43.28426,"lon":5.39174,"is_reserved":false,"is_disabled":false,"rental_uris":{"android":"levelo://app?vid=7bbc4046-c7cf-4ebc-8245-ac4ac0eeb021","ios":"levelo://app?vid=7bbc4046-c7cf-4ebc-8245-ac4ac0eeb021"},"vehicle_type_id":"4","last_reported":1751641819,"current_range_meters":6000,"station_id":"ce4bhoh2rcd13ifvqh5g","pricing_plan_id":"cebpf4jnsgd1na2vs0mg"},{"bike_id":"b923ceff-7e3d-44d2-9a9b-d43affd6e6fc","system_id":"levelo_inurba_marseille","lat":43.29274,"lon":5.40927,"is_reserved":false,"is_disabled":false,"rental_uris":{"android":"levelo://app?vid=b923ceff-7e3d-44d2-9a9b-d43affd6e6fc","ios":"levelo://app?vid=b923ceff-7e3d-44d2-9a9b-d43affd6e6fc"},"vehicle_type_id":"4","last_reported":1751641819,"current_range_meters":6400,"station_id":"ce4bh192rcd13ifvqdc0","pricing_plan_id":"cebpf4jnsgd1na2vs0mg"},{"bike_id":"53affc4b-c492-4a8b-bf00-a5d22f6ac5d1","system_id":"levelo_inurba_marseille","lat":43.27608,"lon":5.36102,"is_reserved":false,"is_disabled":false,"rental_uris":{"android":"levelo://app?vid=53affc4b-c492-4a8b-bf00-a5d22f6ac5d1","ios":"levelo://app?vid=53affc4b-c492-4a8b-bf00-a5d22f6ac5d1"},"vehicle_type_id":"4","last_reported":1751641819,"current_range_meters":6800,"station_id":"ce4bgj92rcd13ifvqbe0","pricing_plan_id":"cebpf4jnsgd1na2vs0mg"},{"bike_id":"32102c76-1664-495e-9dfa-0a0f1576ec5b","system_id":"levelo_inurba_marseille","lat":43.306,"lon":5.393301,"is_reserved":false,"is_disabled":false,"rental_uris":{"android":"levelo://app?vid=32102c76-1664-495e-9dfa-0a0f1576ec5b","ios":"levelo://app?vid=32102c76-1664-495e-9dfa-0a0f1576ec5b"},"vehicle_type_id":"4","last_reported":1751641819,"current_range_meters":6800,"station_id":"ce4bh0p2rcd13ifvqd80","pricing_plan_id":"cebpf4jnsgd1na2vs0mg"},{"bike_id":"7458b9eb-bacd-4917-9e05-3c8cf933b9bd","system_id":"levelo_inurba_marseille","lat":43.29024,"lon":5.39978,"is_reserved":false,"is_disabled":false,"rental_uris":{"android":"levelo://app?vid=7458b9eb-bacd-4917-9e05-3c8cf933b9bd","ios":"levelo://app?vid=7458b9eb-bacd-4917-9e05-3c8cf933b9bd"},"vehicle_type_id":"4","last_reported":1751641819,"current_range_meters":6800,"station_id":"ce4bh392rcd13ifvqdm0","pricing_plan_id":"cebpf4jnsgd1na2vs0mg"},{"bike_id":"e8c93c7c-a849-489d-ad49-041fc73ca7fd","system_id":"levelo_inurba_marseille","lat":43.29522,"lon":5.39046,"is_reserved":false,"is_disabled":false,"rental_uris":{"android":"levelo://app?vid=e8c93c7c-a849-489d-ad49-041fc73ca7fd","ios":"levelo://app?vid=e8c93c7c-a849-489d-ad49-041fc73ca7fd"},"vehicle_type_id":"4","last_reported":1751641819,"current_range_meters":6800,"station_id":"ce4bh3p2rcd13ifvqdp0","pricing_plan_id":"cebpf4jnsgd1na2vs0mg"},{"bike_id":"d567a98a-7952-4227-875f-9176613e0a81","system_id":"levelo_inurba_marseille","lat":43.303754,"lon":5.42486,"is_reserved":false,"is_disabled":false,"rental_uris":{"android":"levelo://app?vid=d567a98a-7952-4227-875f-9176613e0a81","ios":"levelo://app?vid=d567a98a-7952-4227-875f-9176613e0a81"},"vehicle_type_id":"4","last_reported":1751641819,"current_range_meters":6800,"station_id":"ce4bhoh2rcd13ifvqh6g","pricing_plan_id":"cebpf4jnsgd1na2vs0mg"},{"bike_id":"e9f93152-c103-42e7-8290-70a0dd64d0c1","system_id":"levelo_inurba_marseille","lat":43.24811,"lon":5.37457,"is_reserved":false,"is_disabled":false,"rental_uris":{"android":"levelo://app?vid=e9f93152-c103-42e7-8290-70a0dd64d0c1","ios":"levelo://app?vid=e9f93152-c103-42e7-8290-70a0dd64d0c1"},"vehicle_type_id":"4","last_reported":1751641819,"current_range_meters":7200,"station_id":"","pricing_plan_id":"cebpf4jnsgd1na2vs0mg"},{"bike_id":"69b4473c-921b-49c5-bf9d-c855f12ad3f1","system_id":"levelo_inurba_marseille","lat":43.30539,"lon":5.38422,"is_reserved":false,"is_disabled":false,"rental_uris":{"android":"levelo://app?vid=69b4473c-921b-49c5-bf9d-c855f12ad3f1","ios":"levelo://app?vid=69b4473c-921b-49c5-bf9d-c855f12ad3f1"},"vehicle_type_id":"4","last_reported":1751641819,"current_range_meters":7200,"station_id":"ce4bgg92rcd13ifvqb30","pricing_plan_id":"cebpf4jnsgd1na2vs0mg"},{"bike_id":"20607f67-407c-4e85-bd47-aa56f8901d9f","system_id":"levelo_inurba_marseille","lat":43.23964,"lon":5.36626,"is_reserved":false,"is_disabled":false,"rental_uris":{"android":"levelo://app?vid=20607f67-407c-4e85-bd47-aa56f8901d9f","ios":"levelo://app?vid=20607f67-407c-4e85-bd47-aa56f8901d9f"},"vehicle_type_id":"4","last_reported":1751641819,"current_range_meters":7200,"station_id":"ce4bhi12rcd13ifvqfp0","pricing_plan_id":"cebpf4jnsgd1na2vs0mg"},{"bike_id":"9fb18d2d-54a3-4b90-b1e0-ef499ec14b74","system_id":"levelo_inurba_marseille","lat":43.27491,"lon":5.42448,"is_reserved":false,"is_disabled":false,"rental_uris":{"android":"levelo://app?vid=9fb18d2d-54a3-4b90-b1e0-ef499ec14b74","ios":"levelo://app?vid=9fb18d2d-54a3-4b90-b1e0-ef499ec14b74"},"vehicle_type_id":"4","last_reported":1751641819,"current_range_meters":7200,"station_id":"ce4bhn92rcd13ifvqgrg","pricing_plan_id":"cebpf4jnsgd1na2vs0mg"},{"bike_id":"09454f46-e55e-4559-820c-cbc05b531847","system_id":"levelo_inurba_marseille","lat":43.32295,"lon":5.38991,"is_reserved":false,"is_disabled":false,"rental_uris":{"android":"levelo://app?vid=09454f46-e55e-4559-820c-cbc05b531847","ios":"levelo://app?vid=09454f46-e55e-4559-820c-cbc05b531847"},"vehicle_type_id":"4","last_reported":1751641819,"current_range_meters":8000,"station_id":"","pricing_plan_id":"cebpf4jnsgd1na2vs0mg"},{"bike_id":"67b9a914-738d-4786-b2ad-b31069831213","system_id":"levelo_inurba_marseille","lat":43.30584,"lon":5.37236,"is_reserved":false,"is_disabled":false,"rental_uris":{"android":"levelo://app?vid=67b9a914-738d-4786-b2ad-b31069831213","ios":"levelo://app?vid=67b9a914-738d-4786-b2ad-b31069831213"},"vehicle_type_id":"4","last_reported":1751641819,"current_range_meters":8000,"station_id":"ce4bgqh2rcd13ifvqc4g","pricing_plan_id":"cebpf4jnsgd1na2vs0mg"},{"bike_id":"0400f038-dddb-4994-828f-3f298f2279df","system_id":"levelo_inurba_marseille","lat":43.2694,"lon":5.40253,"is_reserved":false,"is_disabled":false,"rental_uris":{"android":"levelo://app?vid=0400f038-dddb-4994-828f-3f298f2279df","ios":"levelo://app?vid=0400f038-dddb-4994-828f-3f298f2279df"},"vehicle_type_id":"4","last_reported":1751641819,"current_range_meters":8000,"station_id":"cjm6bp8fraef2m0cb0m0","pricing_plan_id":"cebpf4jnsgd1na2vs0mg"},{"bike_id":"d1128dc9-eddf-4aa4-9160-9d94e6f099eb","system_id":"levelo_inurba_marseille","lat":43.286122,"lon":5.35104,"is_reserved":false,"is_disabled":false,"rental_uris":{"android":"levelo://app?vid=d1128dc9-eddf-4aa4-9160-9d94e6f099eb","ios":"levelo://app?vid=d1128dc9-eddf-4aa4-9160-9d94e6f099eb"},"vehicle_type_id":"4","last_reported":1751641819,"current_range_meters":8400,"station_id":"","pricing_plan_id":"cebpf4jnsgd1na2vs0mg"},{"bike_id":"c0f4fef6-df67-497d-ba1d-0e36fde54c33","system_id":"levelo_inurba_marseille","lat":43.285341,"lon":5.383767,"is_reserved":false,"is_disabled":false,"rental_uris":{"android":"levelo://app?vid=c0f4fef6-df67-497d-ba1d-0e36fde54c33","ios":"levelo://app?vid=c0f4fef6-df67-497d-ba1d-0e36fde54c33"},"vehicle_type_id":"4","last_reported":1751641819,"current_range_meters":8400,"station_id":"","pricing_plan_id":"cebpf4jnsgd1na2vs0mg"},{"bike_id":"ddfdd600-a039-4e4e-83d9-a8ddabdcd9df","system_id":"levelo_inurba_marseille","lat":43.30458,"lon":5.37903,"is_reserved":false,"is_disabled":false,"rental_uris":{"android":"levelo://app?vid=ddfdd600-a039-4e4e-83d9-a8ddabdcd9df","ios":"levelo://app?vid=ddfdd600-a039-4e4e-83d9-a8ddabdcd9df"},"vehicle_type_id":"4","last_reported":1751641819,"current_range_meters":8400,"station_id":"ce4bgup2rcd13ifvqcn0","pricing_plan_id":"cebpf4jnsgd1na2vs0mg"},{"bike_id":"ce92d3e4-ca26-4fde-bef2-c95509952747","system_id":"levelo_inurba_marseille","lat":43.23147,"lon":5.43723,"is_reserved":false,"is_disabled":false,"rental_uris":{"android":"levelo://app?vid=ce92d3e4-ca26-4fde-bef2-c95509952747","ios":"levelo://app?vid=ce92d3e4-ca26-4fde-bef2-c95509952747"},"vehicle_type_id":"4","last_reported":1751641819,"current_range_meters":8400,"station_id":"ce4bhmp2rcd13ifvqgog","pricing_plan_id":"cebpf4jnsgd1na2vs0mg"},{"bike_id":"9bfc7d3d-4e60-4f8a-9c32-ef3d0e77ec5b","system_id":"levelo_inurba_marseille","lat":43.21207,"lon":5.35061,"is_reserved":false,"is_disabled":false,"rental_uris":{"android":"levelo://app?vid=9bfc7d3d-4e60-4f8a-9c32-ef3d0e77ec5b","ios":"levelo://app?vid=9bfc7d3d-4e60-4f8a-9c32-ef3d0e77ec5b"},"vehicle_type_id":"4","last_reported":1751641819,"current_range_meters":8400,"station_id":"st_cvj6sg6p6f1abm77japg","pricing_plan_id":"cebpf4jnsgd1na2vs0mg"},{"bike_id":"f6168451-03cb-4fec-b1e9-fd848640bcd1","system_id":"levelo_inurba_marseille","lat":43.30548,"lon":5.36544,"is_reserved":false,"is_disabled":false,"rental_uris":{"android":"levelo://app?vid=f6168451-03cb-4fec-b1e9-fd848640bcd1","ios":"levelo://app?vid=f6168451-03cb-4fec-b1e9-fd848640bcd1"},"vehicle_type_id":"4","last_reported":1751641819,"current_range_meters":8800,"station_id":"ce4bgs12rcd13ifvqcag","pricing_plan_id":"cebpf4jnsgd1na2vs0mg"},{"bike_id":"c4d5b409-8585-45aa-b75d-15d22a6e604f","system_id":"levelo_inurba_marseille","lat":43.28925,"lon":5.38391,"is_reserved":false,"is_disabled":false,"rental_uris":{"android":"levelo://app?vid=c4d5b409-8585-45aa-b75d-15d22a6e604f","ios":"levelo://app?vid=c4d5b409-8585-45aa-b75d-15d22a6e604f"},"vehicle_type_id":"4","last_reported":1751641819,"current_range_meters":8800,"station_id":"ce4bh612rcd13ifvqe6g","pricing_plan_id":"cebpf4jnsgd1na2vs0mg"},{"bike_id":"f2e983d4-6cd2-429a-bf90-540190b2a347","system_id":"levelo_inurba_marseille","lat":43.23169,"lon":5.39988,"is_reserved":false,"is_disabled":false,"rental_uris":{"android":"levelo://app?vid=f2e983d4-6cd2-429a-bf90-540190b2a347","ios":"levelo://app?vid=f2e983d4-6cd2-429a-bf90-540190b2a347"},"vehicle_type_id":"4","last_reported":1751641819,"current_range_meters":8800,"station_id":"ce4bhn12rcd13ifvqgqg","pricing_plan_id":"cebpf4jnsgd1na2vs0mg"},{"bike_id":"da85db66-5ac3-42fa-a9ec-1eac0e6e2e39","system_id":"levelo_inurba_marseille","lat":43.24166,"lon":5.36396,"is_reserved":false,"is_disabled":false,"rental_uris":{"android":"levelo://app?vid=da85db66-5ac3-42fa-a9ec-1eac0e6e2e39","ios":"levelo://app?vid=da85db66-5ac3-42fa-a9ec-1eac0e6e2e39"},"vehicle_type_id":"4","last_reported":1751641819,"current_range_meters":8800,"station_id":"cpo36qri1sfpv3e86is0","pricing_plan_id":"cebpf4jnsgd1na2vs0mg"},{"bike_id":"be4e2ba2-f83c-4be6-923a-932d435bb5ce","system_id":"levelo_inurba_marseille","lat":43.28241,"lon":5.40432,"is_reserved":false,"is_disabled":false,"rental_uris":{"android":"levelo://app?vid=be4e2ba2-f83c-4be6-923a-932d435bb5ce","ios":"levelo://app?vid=be4e2ba2-f83c-4be6-923a-932d435bb5ce"},"vehicle_type_id":"4","last_reported":1751641819,"current_range_meters":9200,"station_id":"","pricing_plan_id":"cebpf4jnsgd1na2vs0mg"},{"bike_id":"d799b321-3a7d-4201-b46e-ffe2ad124f19","system_id":"levelo_inurba_marseille","lat":43.329176,"lon":5.383806,"is_reserved":false,"is_disabled":false,"rental_uris":{"android":"levelo://app?vid=d799b321-3a7d-4201-b46e-ffe2ad124f19","ios":"levelo://app?vid=d799b321-3a7d-4201-b46e-ffe2ad124f19"},"vehicle_type_id":"4","last_reported":1751641819,"current_range_meters":9200,"station_id":"","pricing_plan_id":"cebpf4jnsgd1na2vs0mg"},{"bike_id":"7dcbd41b-eb6a-4347-8d99-bd60900b577f","system_id":"levelo_inurba_marseille","lat":43.30591,"lon":5.39359,"is_reserved":false,"is_disabled":false,"rental_uris":{"android":"levelo://app?vid=7dcbd41b-eb6a-4347-8d99-bd60900b577f","ios":"levelo://app?vid=7dcbd41b-eb6a-4347-8d99-bd60900b577f"},"vehicle_type_id":"4","last_reported":1751641819,"current_range_meters":9200,"station_id":"ce4bh0p2rcd13ifvqd80","pricing_plan_id":"cebpf4jnsgd1na2vs0mg"},{"bike_id":"1e2f3e13-9500-49d7-a165-aa29550d6719","system_id":"levelo_inurba_marseille","lat":43.29031,"lon":5.38637,"is_reserved":false,"is_disabled":false,"rental_uris":{"android":"levelo://app?vid=1e2f3e13-9500-49d7-a165-aa29550d6719","ios":"levelo://app?vid=1e2f3e13-9500-49d7-a165-aa29550d6719"},"vehicle_type_id":"4","last_reported":1751641819,"current_range_meters":9200,"station_id":"ce4bh4p2rcd13ifvqe0g","pricing_plan_id":"cebpf4jnsgd1na2vs0mg"},{"bike_id":"61087253-ad6e-4c1f-ab3e-7a21fee02900","system_id":"levelo_inurba_marseille","lat":43.31881,"lon":5.40749,"is_reserved":false,"is_disabled":false,"rental_uris":{"android":"levelo://app?vid=61087253-ad6e-4c1f-ab3e-7a21fee02900","ios":"levelo://app?vid=61087253-ad6e-4c1f-ab3e-7a21fee02900"},"vehicle_type_id":"4","last_reported":1751641819,"current_range_meters":9200,"station_id":"ce4bhq12rcd13ifvqhig","pricing_plan_id":"cebpf4jnsgd1na2vs0mg"},{"bike_id":"3538737c-6b97-4470-b09a-59d5491ab6e7","system_id":"levelo_inurba_marseille","lat":43.25486,"lon":5.37648,"is_reserved":false,"is_disabled":false,"rental_uris":{"android":"levelo://app?vid=3538737c-6b97-4470-b09a-59d5491ab6e7","ios":"levelo://app?vid=3538737c-6b97-4470-b09a-59d5491ab6e7"},"vehicle_type_id":"4","last_reported":1751641819,"current_range_meters":9600,"station_id":"","pricing_plan_id":"cebpf4jnsgd1na2vs0mg"},{"bike_id":"4bac3f2b-eb39-405f-9e58-7764b5148051","system_id":"levelo_inurba_marseille","lat":43.321525,"lon":5.417625,"is_reserved":false,"is_disabled":false,"rental_uris":{"android":"levelo://app?vid=4bac3f2b-eb39-405f-9e58-7764b5148051","ios":"levelo://app?vid=4bac3f2b-eb39-405f-9e58-7764b5148051"},"vehicle_type_id":"4","last_reported":1751641819,"current_range_meters":9600,"station_id":"","pricing_plan_id":"cebpf4jnsgd1na2vs0mg"},{"bike_id":"0e023f9d-cc39-4dcf-934f-ba4bbd3d4593","system_id":"levelo_inurba_marseille","lat":43.30438,"lon":5.389,"is_reserved":false,"is_disabled":false,"rental_uris":{"android":"levelo://app?vid=0e023f9d-cc39-4dcf-934f-ba4bbd3d4593","ios":"levelo://app?vid=0e023f9d-cc39-4dcf-934f-ba4bbd3d4593"},"vehicle_type_id":"4","last_reported":1751641819,"current_range_meters":9600,"station_id":"ce4bgk12rcd13ifvqbi0","pricing_plan_id":"cebpf4jnsgd1na2vs0mg"},{"bike_id":"d63bc5ad-63e9-436f-95ad-9b3ba5eada95","system_id":"levelo_inurba_marseille","lat":43.3095,"lon":5.39022,"is_reserved":false,"is_disabled":false,"rental_uris":{"android":"levelo://app?vid=d63bc5ad-63e9-436f-95ad-9b3ba5eada95","ios":"levelo://app?vid=d63bc5ad-63e9-436f-95ad-9b3ba5eada95"},"vehicle_type_id":"4","last_reported":1751641819,"current_range_meters":9600,"station_id":"ce4bgup2rcd13ifvqco0","pricing_plan_id":"cebpf4jnsgd1na2vs0mg"},{"bike_id":"5fab908a-eaa4-4c49-a50f-7735dddc20ff","system_id":"levelo_inurba_marseille","lat":43.304135,"lon":5.4128,"is_reserved":false,"is_disabled":false,"rental_uris":{"android":"levelo://app?vid=5fab908a-eaa4-4c49-a50f-7735dddc20ff","ios":"levelo://app?vid=5fab908a-eaa4-4c49-a50f-7735dddc20ff"},"vehicle_type_id":"4","last_reported":1751641819,"current_range_meters":9600,"station_id":"ce4bhop2rcd13ifvqh8g","pricing_plan_id":"cebpf4jnsgd1na2vs0mg"},{"bike_id":"2346f85f-9246-45b8-beb6-066a494293f3","system_id":"levelo_inurba_marseille","lat":43.32076,"lon":5.36783,"is_reserved":false,"is_disabled":false,"rental_uris":{"android":"levelo://app?vid=2346f85f-9246-45b8-beb6-066a494293f3","ios":"levelo://app?vid=2346f85f-9246-45b8-beb6-066a494293f3"},"vehicle_type_id":"4","last_reported":1751641819,"current_range_meters":9600,"station_id":"ce4bhrh2rcd13ifvqhug","pricing_plan_id":"cebpf4jnsgd1na2vs0mg"},{"bike_id":"c76381fd-b6b9-4d02-a8a4-fd4e6891e706","system_id":"levelo_inurba_marseille","lat":43.302573,"lon":5.390473,"is_reserved":false,"is_disabled":false,"rental_uris":{"android":"levelo://app?vid=c76381fd-b6b9-4d02-a8a4-fd4e6891e706","ios":"levelo://app?vid=c76381fd-b6b9-4d02-a8a4-fd4e6891e706"},"vehicle_type_id":"4","last_reported":1751641819,"current_range_meters":10000,"station_id":"","pricing_plan_id":"cebpf4jnsgd1na2vs0mg"},{"bike_id":"ee0c95fe-dabd-4787-8664-9aeb19dfc1e8","system_id":"levelo_inurba_marseille","lat":43.28412,"lon":5.34971,"is_reserved":false,"is_disabled":false,"rental_uris":{"android":"levelo://app?vid=ee0c95fe-dabd-4787-8664-9aeb19dfc1e8","ios":"levelo://app?vid=ee0c95fe-dabd-4787-8664-9aeb19dfc1e8"},"vehicle_type_id":"4","last_reported":1751641819,"current_range_meters":10000,"station_id":"ce4bhbh2rcd13ifvqepg","pricing_plan_id":"cebpf4jnsgd1na2vs0mg"},{"bike_id":"ba154a12-11bd-42a5-958a-5992f5d043d1","system_id":"levelo_inurba_marseille","lat":43.305006,"lon":5.370731,"is_reserved":false,"is_disabled":false,"rental_uris":{"android":"levelo://app?vid=ba154a12-11bd-42a5-958a-5992f5d043d1","ios":"levelo://app?vid=ba154a12-11bd-42a5-958a-5992f5d043d1"},"vehicle_type_id":"4","last_reported":1751641819,"current_range_meters":10800,"station_id":"","pricing_plan_id":"cebpf4jnsgd1na2vs0mg"},{"bike_id":"086ec20a-71bf-4983-b90d-fa23d4686999","system_id":"levelo_inurba_marseille","lat":43.30922,"lon":5.40159,"is_reserved":false,"is_disabled":false,"rental_uris":{"android":"levelo://app?vid=086ec20a-71bf-4983-b90d-fa23d4686999","ios":"levelo://app?vid=086ec20a-71bf-4983-b90d-fa23d4686999"},"vehicle_type_id":"4","last_reported":1751641819,"current_range_meters":10800,"station_id":"ce4bgvp2rcd13ifvqct0","pricing_plan_id":"cebpf4jnsgd1na2vs0mg"},{"bike_id":"74e0da6a-8eb1-4c3a-8c04-b8b6cdc6229e","system_id":"levelo_inurba_marseille","lat":43.29282,"lon":5.40123,"is_reserved":false,"is_disabled":false,"rental_uris":{"android":"levelo://app?vid=74e0da6a-8eb1-4c3a-8c04-b8b6cdc6229e","ios":"levelo://app?vid=74e0da6a-8eb1-4c3a-8c04-b8b6cdc6229e"},"vehicle_type_id":"4","last_reported":1751641819,"current_range_meters":10800,"station_id":"ce4bh312rcd13ifvqdk0","pricing_plan_id":"cebpf4jnsgd1na2vs0mg"},{"bike_id":"799751f8-ee7b-48e9-95fd-f23e51aeaae8","system_id":"levelo_inurba_marseille","lat":43.26028,"lon":5.37545,"is_reserved":false,"is_disabled":false,"rental_uris":{"android":"levelo://app?vid=799751f8-ee7b-48e9-95fd-f23e51aeaae8","ios":"levelo://app?vid=799751f8-ee7b-48e9-95fd-f23e51aeaae8"},"vehicle_type_id":"4","last_reported":1751641819,"current_range_meters":10800,"station_id":"ce4bhgh2rcd13ifvqfa0","pricing_plan_id":"cebpf4jnsgd1na2vs0mg"},{"bike_id":"e3f665b7-68ab-49fe-b14f-94433fdc5d40","system_id":"levelo_inurba_marseille","lat":43.26189,"lon":5.37448,"is_reserved":false,"is_disabled":false,"rental_uris":{"android":"levelo://app?vid=e3f665b7-68ab-49fe-b14f-94433fdc5d40","ios":"levelo://app?vid=e3f665b7-68ab-49fe-b14f-94433fdc5d40"},"vehicle_type_id":"4","last_reported":1751641819,"current_range_meters":10800,"station_id":"ce4bhgp2rcd13ifvqfc0","pricing_plan_id":"cebpf4jnsgd1na2vs0mg"},{"bike_id":"dad5955a-35fa-4b1b-82c8-8edafe549436","system_id":"levelo_inurba_marseille","lat":43.25865,"lon":5.39898,"is_reserved":false,"is_disabled":false,"rental_uris":{"android":"levelo://app?vid=dad5955a-35fa-4b1b-82c8-8edafe549436","ios":"levelo://app?vid=dad5955a-35fa-4b1b-82c8-8edafe549436"},"vehicle_type_id":"4","last_reported":1751641819,"current_range_meters":10800,"station_id":"ce4bhl92rcd13ifvqghg","pricing_plan_id":"cebpf4jnsgd1na2vs0mg"},{"bike_id":"2325146a-aaf7-46c3-b242-000907578e90","system_id":"levelo_inurba_marseille","lat":43.28153,"lon":5.42651,"is_reserved":false,"is_disabled":false,"rental_uris":{"android":"levelo://app?vid=2325146a-aaf7-46c3-b242-000907578e90","ios":"levelo://app?vid=2325146a-aaf7-46c3-b242-000907578e90"},"vehicle_type_id":"4","last_reported":1751641819,"current_range_meters":10800,"station_id":"ce4bhnh2rcd13ifvqgug","pricing_plan_id":"cebpf4jnsgd1na2vs0mg"},{"bike_id":"9f1f6042-7e07-4b00-9dc1-8f0343d9174e","system_id":"levelo_inurba_marseille","lat":43.21193,"lon":5.35067,"is_reserved":false,"is_disabled":false,"rental_uris":{"android":"levelo://app?vid=9f1f6042-7e07-4b00-9dc1-8f0343d9174e","ios":"levelo://app?vid=9f1f6042-7e07-4b00-9dc1-8f0343d9174e"},"vehicle_type_id":"4","last_reported":1751641819,"current_range_meters":10800,"station_id":"st_cvj6sg6p6f1abm77japg","pricing_plan_id":"cebpf4jnsgd1na2vs0mg"},{"bike_id":"d7409919-6002-4812-8459-e4824c9e2ccd","system_id":"levelo_inurba_marseille","lat":43.294916,"lon":5.385929,"is_reserved":false,"is_disabled":false,"rental_uris":{"android":"levelo://app?vid=d7409919-6002-4812-8459-e4824c9e2ccd","ios":"levelo://app?vid=d7409919-6002-4812-8459-e4824c9e2ccd"},"vehicle_type_id":"4","last_reported":1751641819,"current_range_meters":11200,"station_id":"ce4bgih2rcd13ifvqba0","pricing_plan_id":"cebpf4jnsgd1na2vs0mg"},{"bike_id":"e4f1a149-cf17-4999-89d5-1b0b5b5b2364","system_id":"levelo_inurba_marseille","lat":43.25496,"lon":5.37651,"is_reserved":false,"is_disabled":false,"rental_uris":{"android":"levelo://app?vid=e4f1a149-cf17-4999-89d5-1b0b5b5b2364","ios":"levelo://app?vid=e4f1a149-cf17-4999-89d5-1b0b5b5b2364"},"vehicle_type_id":"4","last_reported":1751641819,"current_range_meters":11200,"station_id":"ce4bhh12rcd13ifvqff0","pricing_plan_id":"cebpf4jnsgd1na2vs0mg"},{"bike_id":"0c4b7fdb-b39e-49b3-a2b0-ae3d0f43e89d","system_id":"levelo_inurba_marseille","lat":43.3291,"lon":5.40581,"is_reserved":false,"is_disabled":false,"rental_uris":{"android":"levelo://app?vid=0c4b7fdb-b39e-49b3-a2b0-ae3d0f43e89d","ios":"levelo://app?vid=0c4b7fdb-b39e-49b3-a2b0-ae3d0f43e89d"},"vehicle_type_id":"4","last_reported":1751641819,"current_range_meters":11600,"station_id":"","pricing_plan_id":"cebpf4jnsgd1na2vs0mg"},{"bike_id":"175513bb-dce2-48e2-83c8-1e9f1cb23cd0","system_id":"levelo_inurba_marseille","lat":43.286255,"lon":5.412651,"is_reserved":false,"is_disabled":false,"rental_uris":{"android":"levelo://app?vid=175513bb-dce2-48e2-83c8-1e9f1cb23cd0","ios":"levelo://app?vid=175513bb-dce2-48e2-83c8-1e9f1cb23cd0"},"vehicle_type_id":"4","last_reported":1751641819,"current_range_meters":11600,"station_id":"","pricing_plan_id":"cebpf4jnsgd1na2vs0mg"},{"bike_id":"a18f2137-2cae-4b5c-9a21-6e3f679a5127","system_id":"levelo_inurba_marseille","lat":43.290314,"lon":5.386539,"is_reserved":false,"is_disabled":false,"rental_uris":{"android":"levelo://app?vid=a18f2137-2cae-4b5c-9a21-6e3f679a5127","ios":"levelo://app?vid=a18f2137-2cae-4b5c-9a21-6e3f679a5127"},"vehicle_type_id":"4","last_reported":1751641819,"current_range_meters":11600,"station_id":"ce4bh4p2rcd13ifvqe0g","pricing_plan_id":"cebpf4jnsgd1na2vs0mg"},{"bike_id":"76d247f7-49b4-418b-8ed8-61b53eaf8515","system_id":"levelo_inurba_marseille","lat":43.27961,"lon":5.38665,"is_reserved":false,"is_disabled":false,"rental_uris":{"android":"levelo://app?vid=76d247f7-49b4-418b-8ed8-61b53eaf8515","ios":"levelo://app?vid=76d247f7-49b4-418b-8ed8-61b53eaf8515"},"vehicle_type_id":"4","last_reported":1751641819,"current_range_meters":11600,"station_id":"ce4bhg12rcd13ifvqf80","pricing_plan_id":"cebpf4jnsgd1na2vs0mg"},{"bike_id":"18e03d2b-69ba-4af2-bdb8-60416e0aab62","system_id":"levelo_inurba_marseille","lat":43.298975,"lon":5.43665,"is_reserved":false,"is_disabled":false,"rental_uris":{"android":"levelo://app?vid=18e03d2b-69ba-4af2-bdb8-60416e0aab62","ios":"levelo://app?vid=18e03d2b-69ba-4af2-bdb8-60416e0aab62"},"vehicle_type_id":"4","last_reported":1751641819,"current_range_meters":11600,"station_id":"ce4bhpp2rcd13ifvqhfg","pricing_plan_id":"cebpf4jnsgd1na2vs0mg"},{"bike_id":"ce92e1b0-c8cd-464d-a8da-b54e99b30a87","system_id":"levelo_inurba_marseille","lat":43.28656,"lon":5.38662,"is_reserved":false,"is_disabled":false,"rental_uris":{"android":"levelo://app?vid=ce92e1b0-c8cd-464d-a8da-b54e99b30a87","ios":"levelo://app?vid=ce92e1b0-c8cd-464d-a8da-b54e99b30a87"},"vehicle_type_id":"4","last_reported":1751641819,"current_range_meters":12000,"station_id":"ce4bh492rcd13ifvqdug","pricing_plan_id":"cebpf4jnsgd1na2vs0mg"},{"bike_id":"60c282ed-9b89-4a43-8179-9a9582c2f206","system_id":"levelo_inurba_marseille","lat":43.28843,"lon":5.35858,"is_reserved":false,"is_disabled":false,"rental_uris":{"android":"levelo://app?vid=60c282ed-9b89-4a43-8179-9a9582c2f206","ios":"levelo://app?vid=60c282ed-9b89-4a43-8179-9a9582c2f206"},"vehicle_type_id":"4","last_reported":1751641819,"current_range_meters":12000,"station_id":"ce4bhb12rcd13ifvqem0","pricing_plan_id":"cebpf4jnsgd1na2vs0mg"},{"bike_id":"2dfefc75-ee6a-4525-ab73-850b46d8f26c","system_id":"levelo_inurba_marseille","lat":43.26034,"lon":5.37535,"is_reserved":false,"is_disabled":false,"rental_uris":{"android":"levelo://app?vid=2dfefc75-ee6a-4525-ab73-850b46d8f26c","ios":"levelo://app?vid=2dfefc75-ee6a-4525-ab73-850b46d8f26c"},"vehicle_type_id":"4","last_reported":1751641819,"current_range_meters":12000,"station_id":"ce4bhgh2rcd13ifvqfa0","pricing_plan_id":"cebpf4jnsgd1na2vs0mg"},{"bike_id":"1b19ee50-f242-4a40-b59c-631477d87288","system_id":"levelo_inurba_marseille","lat":43.337444,"lon":5.374475,"is_reserved":false,"is_disabled":false,"rental_uris":{"android":"levelo://app?vid=1b19ee50-f242-4a40-b59c-631477d87288","ios":"levelo://app?vid=1b19ee50-f242-4a40-b59c-631477d87288"},"vehicle_type_id":"4","last_reported":1751641819,"current_range_meters":12400,"station_id":"","pricing_plan_id":"cebpf4jnsgd1na2vs0mg"},{"bike_id":"af36a0a0-a5d7-4d88-baef-5c548ed294a1","system_id":"levelo_inurba_marseille","lat":43.29015,"lon":5.38163,"is_reserved":false,"is_disabled":false,"rental_uris":{"android":"levelo://app?vid=af36a0a0-a5d7-4d88-baef-5c548ed294a1","ios":"levelo://app?vid=af36a0a0-a5d7-4d88-baef-5c548ed294a1"},"vehicle_type_id":"4","last_reported":1751641819,"current_range_meters":12400,"station_id":"ce4bh4p2rcd13ifvqe1g","pricing_plan_id":"cebpf4jnsgd1na2vs0mg"},{"bike_id":"e4e38e17-d162-473e-8d8d-73b26e25c74b","system_id":"levelo_inurba_marseille","lat":43.28105,"lon":5.37831,"is_reserved":false,"is_disabled":false,"rental_uris":{"android":"levelo://app?vid=e4e38e17-d162-473e-8d8d-73b26e25c74b","ios":"levelo://app?vid=e4e38e17-d162-473e-8d8d-73b26e25c74b"},"vehicle_type_id":"4","last_reported":1751641819,"current_range_meters":12400,"station_id":"ce4bha12rcd13ifvqee0","pricing_plan_id":"cebpf4jnsgd1na2vs0mg"},{"bike_id":"5e197122-e8ec-4f01-b370-6bbfc10c6950","system_id":"levelo_inurba_marseille","lat":43.21187,"lon":5.35076,"is_reserved":false,"is_disabled":false,"rental_uris":{"android":"levelo://app?vid=5e197122-e8ec-4f01-b370-6bbfc10c6950","ios":"levelo://app?vid=5e197122-e8ec-4f01-b370-6bbfc10c6950"},"vehicle_type_id":"4","last_reported":1751641819,"current_range_meters":12400,"station_id":"st_cvj6sg6p6f1abm77japg","pricing_plan_id":"cebpf4jnsgd1na2vs0mg"},{"bike_id":"43b8b648-960e-46ea-bfad-839bb09cb576","system_id":"levelo_inurba_marseille","lat":43.26214,"lon":5.37041,"is_reserved":false,"is_disabled":false,"rental_uris":{"android":"levelo://app?vid=43b8b648-960e-46ea-bfad-839bb09cb576","ios":"levelo://app?vid=43b8b648-960e-46ea-bfad-839bb09cb576"},"vehicle_type_id":"4","last_reported":1751641819,"current_range_meters":12800,"station_id":"","pricing_plan_id":"cebpf4jnsgd1na2vs0mg"},{"bike_id":"9fb41512-39a1-4f48-b5a7-c7fe6b89633e","system_id":"levelo_inurba_marseille","lat":43.30297,"lon":5.40332,"is_reserved":false,"is_disabled":false,"rental_uris":{"android":"levelo://app?vid=9fb41512-39a1-4f48-b5a7-c7fe6b89633e","ios":"levelo://app?vid=9fb41512-39a1-4f48-b5a7-c7fe6b89633e"},"vehicle_type_id":"4","last_reported":1751641819,"current_range_meters":12800,"station_id":"","pricing_plan_id":"cebpf4jnsgd1na2vs0mg"},{"bike_id":"6e703efe-d004-492b-a4e1-8f9a45caf618","system_id":"levelo_inurba_marseille","lat":43.30376,"lon":5.42478,"is_reserved":false,"is_disabled":false,"rental_uris":{"android":"levelo://app?vid=6e703efe-d004-492b-a4e1-8f9a45caf618","ios":"levelo://app?vid=6e703efe-d004-492b-a4e1-8f9a45caf618"},"vehicle_type_id":"4","last_reported":1751641819,"current_range_meters":12800,"station_id":"ce4bhoh2rcd13ifvqh6g","pricing_plan_id":"cebpf4jnsgd1na2vs0mg"},{"bike_id":"6eebadd3-99fa-48af-8556-1f64731f83a2","system_id":"levelo_inurba_marseille","lat":43.230663,"lon":5.354924,"is_reserved":false,"is_disabled":false,"rental_uris":{"android":"levelo://app?vid=6eebadd3-99fa-48af-8556-1f64731f83a2","ios":"levelo://app?vid=6eebadd3-99fa-48af-8556-1f64731f83a2"},"vehicle_type_id":"4","last_reported":1751641819,"current_range_meters":12800,"station_id":"cpo3342slgdg3j2ifvpg","pricing_plan_id":"cebpf4jnsgd1na2vs0mg"},{"bike_id":"d7d5b776-bcc7-423d-8a89-6abd09a6c07c","system_id":"levelo_inurba_marseille","lat":43.24186,"lon":5.36379,"is_reserved":false,"is_disabled":false,"rental_uris":{"android":"levelo://app?vid=d7d5b776-bcc7-423d-8a89-6abd09a6c07c","ios":"levelo://app?vid=d7d5b776-bcc7-423d-8a89-6abd09a6c07c"},"vehicle_type_id":"4","last_reported":1751641819,"current_range_meters":12800,"station_id":"cpo36qri1sfpv3e86is0","pricing_plan_id":"cebpf4jnsgd1na2vs0mg"},{"bike_id":"22888734-05db-4b2c-9ebf-e2f83575acc2","system_id":"levelo_inurba_marseille","lat":43.28416,"lon":5.34984,"is_reserved":false,"is_disabled":false,"rental_uris":{"android":"levelo://app?vid=22888734-05db-4b2c-9ebf-e2f83575acc2","ios":"levelo://app?vid=22888734-05db-4b2c-9ebf-e2f83575acc2"},"vehicle_type_id":"4","last_reported":1751641819,"current_range_meters":13600,"station_id":"ce4bhbh2rcd13ifvqepg","pricing_plan_id":"cebpf4jnsgd1na2vs0mg"},{"bike_id":"e1aa5983-6325-42e2-8323-42350f78e1b6","system_id":"levelo_inurba_marseille","lat":43.2551,"lon":5.37638,"is_reserved":false,"is_disabled":false,"rental_uris":{"android":"levelo://app?vid=e1aa5983-6325-42e2-8323-42350f78e1b6","ios":"levelo://app?vid=e1aa5983-6325-42e2-8323-42350f78e1b6"},"vehicle_type_id":"4","last_reported":1751641819,"current_range_meters":13600,"station_id":"ce4bhh12rcd13ifvqff0","pricing_plan_id":"cebpf4jnsgd1na2vs0mg"},{"bike_id":"38dd7cfa-249d-4426-bcf3-a60bca65fa92","system_id":"levelo_inurba_marseille","lat":43.27546,"lon":5.38429,"is_reserved":false,"is_disabled":false,"rental_uris":{"android":"levelo://app?vid=38dd7cfa-249d-4426-bcf3-a60bca65fa92","ios":"levelo://app?vid=38dd7cfa-249d-4426-bcf3-a60bca65fa92"},"vehicle_type_id":"4","last_reported":1751641819,"current_range_meters":13600,"station_id":"ce4bhh92rcd13ifvqfi0","pricing_plan_id":"cebpf4jnsgd1na2vs0mg"},{"bike_id":"3ef57958-07bf-4d5f-ab85-670eaa5a780c","system_id":"levelo_inurba_marseille","lat":43.24085,"lon":5.37751,"is_reserved":false,"is_disabled":false,"rental_uris":{"android":"levelo://app?vid=3ef57958-07bf-4d5f-ab85-670eaa5a780c","ios":"levelo://app?vid=3ef57958-07bf-4d5f-ab85-670eaa5a780c"},"vehicle_type_id":"4","last_reported":1751641819,"current_range_meters":13600,"station_id":"ce4bhnp2rcd13ifvqgvg","pricing_plan_id":"cebpf4jnsgd1na2vs0mg"},{"bike_id":"67d8f339-63ff-4897-afe4-9c3cff5677c0","system_id":"levelo_inurba_marseille","lat":43.33022,"lon":5.39031,"is_reserved":false,"is_disabled":false,"rental_uris":{"android":"levelo://app?vid=67d8f339-63ff-4897-afe4-9c3cff5677c0","ios":"levelo://app?vid=67d8f339-63ff-4897-afe4-9c3cff5677c0"},"vehicle_type_id":"4","last_reported":1751641819,"current_range_meters":13600,"station_id":"ce4bhr92rcd13ifvqhrg","pricing_plan_id":"cebpf4jnsgd1na2vs0mg"},{"bike_id":"1c8ab180-05fd-405f-9922-b2b2c2d5142f","system_id":"levelo_inurba_marseille","lat":43.33781,"lon":5.381214,"is_reserved":false,"is_disabled":false,"rental_uris":{"android":"levelo://app?vid=1c8ab180-05fd-405f-9922-b2b2c2d5142f","ios":"levelo://app?vid=1c8ab180-05fd-405f-9922-b2b2c2d5142f"},"vehicle_type_id":"4","last_reported":1751641819,"current_range_meters":14000,"station_id":"","pricing_plan_id":"cebpf4jnsgd1na2vs0mg"},{"bike_id":"b8dd919b-06c3-475e-9a31-b17c746aebd4","system_id":"levelo_inurba_marseille","lat":43.26589,"lon":5.3905,"is_reserved":false,"is_disabled":false,"rental_uris":{"android":"levelo://app?vid=b8dd919b-06c3-475e-9a31-b17c746aebd4","ios":"levelo://app?vid=b8dd919b-06c3-475e-9a31-b17c746aebd4"},"vehicle_type_id":"4","last_reported":1751641819,"current_range_meters":14000,"station_id":"","pricing_plan_id":"cebpf4jnsgd1na2vs0mg"},{"bike_id":"d60bd9e4-0817-4411-89e8-0e92827a5388","system_id":"levelo_inurba_marseille","lat":43.29271,"lon":5.40125,"is_reserved":false,"is_disabled":false,"rental_uris":{"android":"levelo://app?vid=d60bd9e4-0817-4411-89e8-0e92827a5388","ios":"levelo://app?vid=d60bd9e4-0817-4411-89e8-0e92827a5388"},"vehicle_type_id":"4","last_reported":1751641819,"current_range_meters":14000,"station_id":"ce4bh312rcd13ifvqdk0","pricing_plan_id":"cebpf4jnsgd1na2vs0mg"},{"bike_id":"9dfe0a1a-00c7-414f-ad45-b36247313fa6","system_id":"levelo_inurba_marseille","lat":43.27938,"lon":5.41048,"is_reserved":false,"is_disabled":false,"rental_uris":{"android":"levelo://app?vid=9dfe0a1a-00c7-414f-ad45-b36247313fa6","ios":"levelo://app?vid=9dfe0a1a-00c7-414f-ad45-b36247313fa6"},"vehicle_type_id":"4","last_reported":1751641819,"current_range_meters":14000,"station_id":"ce4bhnp2rcd13ifvqh0g","pricing_plan_id":"cebpf4jnsgd1na2vs0mg"},{"bike_id":"62e288d8-e99a-4ebc-a826-066ab28ebb35","system_id":"levelo_inurba_marseille","lat":43.30787,"lon":5.43529,"is_reserved":false,"is_disabled":false,"rental_uris":{"android":"levelo://app?vid=62e288d8-e99a-4ebc-a826-066ab28ebb35","ios":"levelo://app?vid=62e288d8-e99a-4ebc-a826-066ab28ebb35"},"vehicle_type_id":"4","last_reported":1751641819,"current_range_meters":14000,"station_id":"ce4bhph2rcd13ifvqheg","pricing_plan_id":"cebpf4jnsgd1na2vs0mg"},{"bike_id":"fe2fa8ec-8dae-412a-a387-87d100e2aae9","system_id":"levelo_inurba_marseille","lat":43.231962,"lon":5.355552,"is_reserved":false,"is_disabled":false,"rental_uris":{"android":"levelo://app?vid=fe2fa8ec-8dae-412a-a387-87d100e2aae9","ios":"levelo://app?vid=fe2fa8ec-8dae-412a-a387-87d100e2aae9"},"vehicle_type_id":"4","last_reported":1751641819,"current_range_meters":14000,"station_id":"ce4bhu92rcd13ifvqi70","pricing_plan_id":"cebpf4jnsgd1na2vs0mg"},{"bike_id":"6cfbb839-4f13-4141-be5b-c7bdca673a54","system_id":"levelo_inurba_marseille","lat":43.2736,"lon":5.36221,"is_reserved":false,"is_disabled":false,"rental_uris":{"android":"levelo://app?vid=6cfbb839-4f13-4141-be5b-c7bdca673a54","ios":"levelo://app?vid=6cfbb839-4f13-4141-be5b-c7bdca673a54"},"vehicle_type_id":"4","last_reported":1751641819,"current_range_meters":14400,"station_id":"ce4bhbh2rcd13ifvqeo0","pricing_plan_id":"cebpf4jnsgd1na2vs0mg"},{"bike_id":"bf3d6f1f-bd58-495e-9496-07ed886eb058","system_id":"levelo_inurba_marseille","lat":43.28415,"lon":5.34975,"is_reserved":false,"is_disabled":false,"rental_uris":{"android":"levelo://app?vid=bf3d6f1f-bd58-495e-9496-07ed886eb058","ios":"levelo://app?vid=bf3d6f1f-bd58-495e-9496-07ed886eb058"},"vehicle_type_id":"4","last_reported":1751641819,"current_range_meters":14400,"station_id":"ce4bhbh2rcd13ifvqepg","pricing_plan_id":"cebpf4jnsgd1na2vs0mg"},{"bike_id":"a4ff5183-d12a-4af0-a634-e90af4872b41","system_id":"levelo_inurba_marseille","lat":43.27892,"lon":5.38022,"is_reserved":false,"is_disabled":false,"rental_uris":{"android":"levelo://app?vid=a4ff5183-d12a-4af0-a634-e90af4872b41","ios":"levelo://app?vid=a4ff5183-d12a-4af0-a634-e90af4872b41"},"vehicle_type_id":"4","last_reported":1751641819,"current_range_meters":14400,"station_id":"ce4bhf92rcd13ifvqf50","pricing_plan_id":"cebpf4jnsgd1na2vs0mg"},{"bike_id":"7757fa2b-7960-49f3-bf7a-28b7d2cd6b06","system_id":"levelo_inurba_marseille","lat":43.2398,"lon":5.36621,"is_reserved":false,"is_disabled":false,"rental_uris":{"android":"levelo://app?vid=7757fa2b-7960-49f3-bf7a-28b7d2cd6b06","ios":"levelo://app?vid=7757fa2b-7960-49f3-bf7a-28b7d2cd6b06"},"vehicle_type_id":"4","last_reported":1751641819,"current_range_meters":14400,"station_id":"ce4bhi12rcd13ifvqfp0","pricing_plan_id":"cebpf4jnsgd1na2vs0mg"},{"bike_id":"cadb5e9b-3a1c-415f-8c6b-3b64818c35cc","system_id":"levelo_inurba_marseille","lat":43.29303,"lon":5.37172,"is_reserved":false,"is_disabled":false,"rental_uris":{"android":"levelo://app?vid=cadb5e9b-3a1c-415f-8c6b-3b64818c35cc","ios":"levelo://app?vid=cadb5e9b-3a1c-415f-8c6b-3b64818c35cc"},"vehicle_type_id":"4","last_reported":1751641819,"current_range_meters":14800,"station_id":"ce4bgh92rcd13ifvqb40","pricing_plan_id":"cebpf4jnsgd1na2vs0mg"},{"bike_id":"0762b542-a9ec-4122-9228-01d41231d491","system_id":"levelo_inurba_marseille","lat":43.27367,"lon":5.3624,"is_reserved":false,"is_disabled":false,"rental_uris":{"android":"levelo://app?vid=0762b542-a9ec-4122-9228-01d41231d491","ios":"levelo://app?vid=0762b542-a9ec-4122-9228-01d41231d491"},"vehicle_type_id":"4","last_reported":1751641819,"current_range_meters":14800,"station_id":"ce4bhbh2rcd13ifvqeo0","pricing_plan_id":"cebpf4jnsgd1na2vs0mg"},{"bike_id":"ec5471a7-9074-44dc-942a-ee46388be4d2","system_id":"levelo_inurba_marseille","lat":43.23978,"lon":5.36621,"is_reserved":false,"is_disabled":false,"rental_uris":{"android":"levelo://app?vid=ec5471a7-9074-44dc-942a-ee46388be4d2","ios":"levelo://app?vid=ec5471a7-9074-44dc-942a-ee46388be4d2"},"vehicle_type_id":"4","last_reported":1751641819,"current_range_meters":14800,"station_id":"ce4bhi12rcd13ifvqfp0","pricing_plan_id":"cebpf4jnsgd1na2vs0mg"},{"bike_id":"5d5db2ec-cda7-4436-8d94-288db2657953","system_id":"levelo_inurba_marseille","lat":43.27169,"lon":5.40995,"is_reserved":false,"is_disabled":false,"rental_uris":{"android":"levelo://app?vid=5d5db2ec-cda7-4436-8d94-288db2657953","ios":"levelo://app?vid=5d5db2ec-cda7-4436-8d94-288db2657953"},"vehicle_type_id":"4","last_reported":1751641819,"current_range_meters":14800,"station_id":"ce4bhl12rcd13ifvqgf0","pricing_plan_id":"cebpf4jnsgd1na2vs0mg"},{"bike_id":"7951a809-b73d-4ab0-a0be-cbcc9a5d451b","system_id":"levelo_inurba_marseille","lat":43.3046,"lon":5.37908,"is_reserved":false,"is_disabled":false,"rental_uris":{"android":"levelo://app?vid=7951a809-b73d-4ab0-a0be-cbcc9a5d451b","ios":"levelo://app?vid=7951a809-b73d-4ab0-a0be-cbcc9a5d451b"},"vehicle_type_id":"4","last_reported":1751641819,"current_range_meters":15200,"station_id":"ce4bgup2rcd13ifvqcn0","pricing_plan_id":"cebpf4jnsgd1na2vs0mg"},{"bike_id":"928c5190-b1aa-452e-85d5-8fc36629f3dc","system_id":"levelo_inurba_marseille","lat":43.28847,"lon":5.39303,"is_reserved":false,"is_disabled":false,"rental_uris":{"android":"levelo://app?vid=928c5190-b1aa-452e-85d5-8fc36629f3dc","ios":"levelo://app?vid=928c5190-b1aa-452e-85d5-8fc36629f3dc"},"vehicle_type_id":"4","last_reported":1751641819,"current_range_meters":15200,"station_id":"ce4bh2p2rcd13ifvqdi0","pricing_plan_id":"cebpf4jnsgd1na2vs0mg"},{"bike_id":"282f46f6-58bd-4bef-8b1a-429186abaf07","system_id":"levelo_inurba_marseille","lat":43.28618,"lon":5.35097,"is_reserved":false,"is_disabled":false,"rental_uris":{"android":"levelo://app?vid=282f46f6-58bd-4bef-8b1a-429186abaf07","ios":"levelo://app?vid=282f46f6-58bd-4bef-8b1a-429186abaf07"},"vehicle_type_id":"4","last_reported":1751641819,"current_range_meters":15200,"station_id":"ce4bhch2rcd13ifvqeug","pricing_plan_id":"cebpf4jnsgd1na2vs0mg"},{"bike_id":"e8b199ed-744c-47f9-ad68-7c59de5be47d","system_id":"levelo_inurba_marseille","lat":43.28618,"lon":5.35101,"is_reserved":false,"is_disabled":false,"rental_uris":{"android":"levelo://app?vid=e8b199ed-744c-47f9-ad68-7c59de5be47d","ios":"levelo://app?vid=e8b199ed-744c-47f9-ad68-7c59de5be47d"},"vehicle_type_id":"4","last_reported":1751641819,"current_range_meters":15200,"station_id":"ce4bhch2rcd13ifvqeug","pricing_plan_id":"cebpf4jnsgd1na2vs0mg"},{"bike_id":"6eca0d35-b5de-4e52-ae8c-393409e84dec","system_id":"levelo_inurba_marseille","lat":43.2668,"lon":5.38267,"is_reserved":false,"is_disabled":false,"rental_uris":{"android":"levelo://app?vid=6eca0d35-b5de-4e52-ae8c-393409e84dec","ios":"levelo://app?vid=6eca0d35-b5de-4e52-ae8c-393409e84dec"},"vehicle_type_id":"4","last_reported":1751641819,"current_range_meters":15200,"station_id":"ce4bhg92rcd13ifvqf90","pricing_plan_id":"cebpf4jnsgd1na2vs0mg"},{"bike_id":"e6645133-5b2c-4159-9eb9-e536db5cc1c7","system_id":"levelo_inurba_marseille","lat":43.23163,"lon":5.43719,"is_reserved":false,"is_disabled":false,"rental_uris":{"android":"levelo://app?vid=e6645133-5b2c-4159-9eb9-e536db5cc1c7","ios":"levelo://app?vid=e6645133-5b2c-4159-9eb9-e536db5cc1c7"},"vehicle_type_id":"4","last_reported":1751641819,"current_range_meters":15200,"station_id":"ce4bhmp2rcd13ifvqgog","pricing_plan_id":"cebpf4jnsgd1na2vs0mg"},{"bike_id":"bf16840f-2e0f-47eb-8d30-3dc4199df254","system_id":"levelo_inurba_marseille","lat":43.31751,"lon":5.39017,"is_reserved":false,"is_disabled":false,"rental_uris":{"android":"levelo://app?vid=bf16840f-2e0f-47eb-8d30-3dc4199df254","ios":"levelo://app?vid=bf16840f-2e0f-47eb-8d30-3dc4199df254"},"vehicle_type_id":"4","last_reported":1751641819,"current_range_meters":15200,"station_id":"ce4bhqp2rcd13ifvqhng","pricing_plan_id":"cebpf4jnsgd1na2vs0mg"},{"bike_id":"094015c2-44e4-40f7-a843-9cd2d9cb1f82","system_id":"levelo_inurba_marseille","lat":43.2173,"lon":5.346,"is_reserved":false,"is_disabled":false,"rental_uris":{"android":"levelo://app?vid=094015c2-44e4-40f7-a843-9cd2d9cb1f82","ios":"levelo://app?vid=094015c2-44e4-40f7-a843-9cd2d9cb1f82"},"vehicle_type_id":"4","last_reported":1751641819,"current_range_meters":15200,"station_id":"st_cvj6r9ubvosntc0bgbag","pricing_plan_id":"cebpf4jnsgd1na2vs0mg"},{"bike_id":"4b8da722-ee9e-48a4-a5e5-3a8a10364708","system_id":"levelo_inurba_marseille","lat":43.31235,"lon":5.37821,"is_reserved":false,"is_disabled":false,"rental_uris":{"android":"levelo://app?vid=4b8da722-ee9e-48a4-a5e5-3a8a10364708","ios":"levelo://app?vid=4b8da722-ee9e-48a4-a5e5-3a8a10364708"},"vehicle_type_id":"4","last_reported":1751641819,"current_range_meters":16000,"station_id":"","pricing_plan_id":"cebpf4jnsgd1na2vs0mg"},{"bike_id":"2c8d6737-b89d-408d-8770-af93b507a41f","system_id":"levelo_inurba_marseille","lat":43.30126,"lon":5.40056,"is_reserved":false,"is_disabled":false,"rental_uris":{"android":"levelo://app?vid=2c8d6737-b89d-408d-8770-af93b507a41f","ios":"levelo://app?vid=2c8d6737-b89d-408d-8770-af93b507a41f"},"vehicle_type_id":"4","last_reported":1751641819,"current_range_meters":16000,"station_id":"","pricing_plan_id":"cebpf4jnsgd1na2vs0mg"},{"bike_id":"d6616079-46d2-443e-91f2-47915eeb33df","system_id":"levelo_inurba_marseille","lat":43.31114,"lon":5.37773,"is_reserved":false,"is_disabled":false,"rental_uris":{"android":"levelo://app?vid=d6616079-46d2-443e-91f2-47915eeb33df","ios":"levelo://app?vid=d6616079-46d2-443e-91f2-47915eeb33df"},"vehicle_type_id":"4","last_reported":1751641819,"current_range_meters":16000,"station_id":"ce4bgt92rcd13ifvqcg0","pricing_plan_id":"cebpf4jnsgd1na2vs0mg"},{"bike_id":"c038fadc-ffcb-489a-9247-2c42da92f73b","system_id":"levelo_inurba_marseille","lat":43.29006,"lon":5.35607,"is_reserved":false,"is_disabled":false,"rental_uris":{"android":"levelo://app?vid=c038fadc-ffcb-489a-9247-2c42da92f73b","ios":"levelo://app?vid=c038fadc-ffcb-489a-9247-2c42da92f73b"},"vehicle_type_id":"4","last_reported":1751641819,"current_range_meters":16000,"station_id":"ce4bhb92rcd13ifvqen0","pricing_plan_id":"cebpf4jnsgd1na2vs0mg"},{"bike_id":"4dd556e9-3510-4743-a418-06546773db8e","system_id":"levelo_inurba_marseille","lat":43.28421,"lon":5.34982,"is_reserved":false,"is_disabled":false,"rental_uris":{"android":"levelo://app?vid=4dd556e9-3510-4743-a418-06546773db8e","ios":"levelo://app?vid=4dd556e9-3510-4743-a418-06546773db8e"},"vehicle_type_id":"4","last_reported":1751641819,"current_range_meters":16000,"station_id":"ce4bhbh2rcd13ifvqepg","pricing_plan_id":"cebpf4jnsgd1na2vs0mg"},{"bike_id":"0b0bad2f-b763-42c6-9d52-a1c500f983d8","system_id":"levelo_inurba_marseille","lat":43.28269,"lon":5.35057,"is_reserved":false,"is_disabled":false,"rental_uris":{"android":"levelo://app?vid=0b0bad2f-b763-42c6-9d52-a1c500f983d8","ios":"levelo://app?vid=0b0bad2f-b763-42c6-9d52-a1c500f983d8"},"vehicle_type_id":"4","last_reported":1751641819,"current_range_meters":16000,"station_id":"ce4bhbp2rcd13ifvqerg","pricing_plan_id":"cebpf4jnsgd1na2vs0mg"},{"bike_id":"11069914-c649-4cdd-b0cf-b4577e6037a4","system_id":"levelo_inurba_marseille","lat":43.266843,"lon":5.382609,"is_reserved":false,"is_disabled":false,"rental_uris":{"android":"levelo://app?vid=11069914-c649-4cdd-b0cf-b4577e6037a4","ios":"levelo://app?vid=11069914-c649-4cdd-b0cf-b4577e6037a4"},"vehicle_type_id":"4","last_reported":1751641819,"current_range_meters":16000,"station_id":"ce4bhg92rcd13ifvqf90","pricing_plan_id":"cebpf4jnsgd1na2vs0mg"},{"bike_id":"47aa4993-07f5-44a8-a359-fc3fe1880568","system_id":"levelo_inurba_marseille","lat":43.23961,"lon":5.36625,"is_reserved":false,"is_disabled":false,"rental_uris":{"android":"levelo://app?vid=47aa4993-07f5-44a8-a359-fc3fe1880568","ios":"levelo://app?vid=47aa4993-07f5-44a8-a359-fc3fe1880568"},"vehicle_type_id":"4","last_reported":1751641819,"current_range_meters":16000,"station_id":"ce4bhi12rcd13ifvqfp0","pricing_plan_id":"cebpf4jnsgd1na2vs0mg"},{"bike_id":"a19f5b95-bf20-4dfd-bf23-17cb9de5b9d1","system_id":"levelo_inurba_marseille","lat":43.30139,"lon":5.39851,"is_reserved":false,"is_disabled":false,"rental_uris":{"android":"levelo://app?vid=a19f5b95-bf20-4dfd-bf23-17cb9de5b9d1","ios":"levelo://app?vid=a19f5b95-bf20-4dfd-bf23-17cb9de5b9d1"},"vehicle_type_id":"4","last_reported":1751641819,"current_range_meters":16800,"station_id":"ce4bh0h2rcd13ifvqd40","pricing_plan_id":"cebpf4jnsgd1na2vs0mg"},{"bike_id":"b0d27917-bd55-46b1-989e-0629c6d1ea78","system_id":"levelo_inurba_marseille","lat":43.28092,"lon":5.37856,"is_reserved":false,"is_disabled":false,"rental_uris":{"android":"levelo://app?vid=b0d27917-bd55-46b1-989e-0629c6d1ea78","ios":"levelo://app?vid=b0d27917-bd55-46b1-989e-0629c6d1ea78"},"vehicle_type_id":"4","last_reported":1751641819,"current_range_meters":16800,"station_id":"ce4bha12rcd13ifvqee0","pricing_plan_id":"cebpf4jnsgd1na2vs0mg"},{"bike_id":"dce77c40-63cf-4369-8aff-655bb37a0b57","system_id":"levelo_inurba_marseille","lat":43.28096,"lon":5.37843,"is_reserved":false,"is_disabled":false,"rental_uris":{"android":"levelo://app?vid=dce77c40-63cf-4369-8aff-655bb37a0b57","ios":"levelo://app?vid=dce77c40-63cf-4369-8aff-655bb37a0b57"},"vehicle_type_id":"4","last_reported":1751641819,"current_range_meters":16800,"station_id":"ce4bha12rcd13ifvqee0","pricing_plan_id":"cebpf4jnsgd1na2vs0mg"},{"bike_id":"1bbe87fa-7751-4499-9c9f-02df3ce5b80c","system_id":"levelo_inurba_marseille","lat":43.25007,"lon":5.38911,"is_reserved":false,"is_disabled":false,"rental_uris":{"android":"levelo://app?vid=1bbe87fa-7751-4499-9c9f-02df3ce5b80c","ios":"levelo://app?vid=1bbe87fa-7751-4499-9c9f-02df3ce5b80c"},"vehicle_type_id":"4","last_reported":1751641819,"current_range_meters":16800,"station_id":"ce4bhgp2rcd13ifvqfd0","pricing_plan_id":"cebpf4jnsgd1na2vs0mg"},{"bike_id":"3847022a-5187-4521-af78-80f88fe96595","system_id":"levelo_inurba_marseille","lat":43.21196,"lon":5.35072,"is_reserved":false,"is_disabled":false,"rental_uris":{"android":"levelo://app?vid=3847022a-5187-4521-af78-80f88fe96595","ios":"levelo://app?vid=3847022a-5187-4521-af78-80f88fe96595"},"vehicle_type_id":"4","last_reported":1751641819,"current_range_meters":16800,"station_id":"st_cvj6sg6p6f1abm77japg","pricing_plan_id":"cebpf4jnsgd1na2vs0mg"},{"bike_id":"2ca40407-4c87-43cb-a44a-af61cf4b91e7","system_id":"levelo_inurba_marseille","lat":43.23959,"lon":5.36622,"is_reserved":false,"is_disabled":false,"rental_uris":{"android":"levelo://app?vid=2ca40407-4c87-43cb-a44a-af61cf4b91e7","ios":"levelo://app?vid=2ca40407-4c87-43cb-a44a-af61cf4b91e7"},"vehicle_type_id":"4","last_reported":1751641819,"current_range_meters":17200,"station_id":"ce4bhi12rcd13ifvqfp0","pricing_plan_id":"cebpf4jnsgd1na2vs0mg"},{"bike_id":"ab4b5bc2-edae-4a48-9288-a7725b778677","system_id":"levelo_inurba_marseille","lat":43.29571,"lon":5.37519,"is_reserved":false,"is_disabled":false,"rental_uris":{"android":"levelo://app?vid=ab4b5bc2-edae-4a48-9288-a7725b778677","ios":"levelo://app?vid=ab4b5bc2-edae-4a48-9288-a7725b778677"},"vehicle_type_id":"4","last_reported":1751641819,"current_range_meters":17600,"station_id":"ce4bgh92rcd13ifvqb50","pricing_plan_id":"cebpf4jnsgd1na2vs0mg"},{"bike_id":"cf51c5d1-66d3-4619-83d2-3482bbdd4d26","system_id":"levelo_inurba_marseille","lat":43.27373,"lon":5.36256,"is_reserved":false,"is_disabled":false,"rental_uris":{"android":"levelo://app?vid=cf51c5d1-66d3-4619-83d2-3482bbdd4d26","ios":"levelo://app?vid=cf51c5d1-66d3-4619-83d2-3482bbdd4d26"},"vehicle_type_id":"4","last_reported":1751641819,"current_range_meters":17600,"station_id":"ce4bhbh2rcd13ifvqeo0","pricing_plan_id":"cebpf4jnsgd1na2vs0mg"},{"bike_id":"a70e5335-fb5d-4e50-af2f-e7fb4ef6c838","system_id":"levelo_inurba_marseille","lat":43.28417,"lon":5.34994,"is_reserved":false,"is_disabled":false,"rental_uris":{"android":"levelo://app?vid=a70e5335-fb5d-4e50-af2f-e7fb4ef6c838","ios":"levelo://app?vid=a70e5335-fb5d-4e50-af2f-e7fb4ef6c838"},"vehicle_type_id":"4","last_reported":1751641819,"current_range_meters":17600,"station_id":"ce4bhbh2rcd13ifvqepg","pricing_plan_id":"cebpf4jnsgd1na2vs0mg"},{"bike_id":"81cb3a0c-82a1-48cb-a528-cd36be530be4","system_id":"levelo_inurba_marseille","lat":43.26215,"lon":5.37434,"is_reserved":false,"is_disabled":false,"rental_uris":{"android":"levelo://app?vid=81cb3a0c-82a1-48cb-a528-cd36be530be4","ios":"levelo://app?vid=81cb3a0c-82a1-48cb-a528-cd36be530be4"},"vehicle_type_id":"4","last_reported":1751641819,"current_range_meters":17600,"station_id":"ce4bhgp2rcd13ifvqfc0","pricing_plan_id":"cebpf4jnsgd1na2vs0mg"},{"bike_id":"c14b2ec1-cb82-4620-84c8-c2ca39a0b317","system_id":"levelo_inurba_marseille","lat":43.29551,"lon":5.42291,"is_reserved":false,"is_disabled":false,"rental_uris":{"android":"levelo://app?vid=c14b2ec1-cb82-4620-84c8-c2ca39a0b317","ios":"levelo://app?vid=c14b2ec1-cb82-4620-84c8-c2ca39a0b317"},"vehicle_type_id":"4","last_reported":1751641819,"current_range_meters":17600,"station_id":"ce4bhph2rcd13ifvqhdg","pricing_plan_id":"cebpf4jnsgd1na2vs0mg"},{"bike_id":"5f470112-8139-4343-b082-08a74e0b7074","system_id":"levelo_inurba_marseille","lat":43.211876,"lon":5.350828,"is_reserved":false,"is_disabled":false,"rental_uris":{"android":"levelo://app?vid=5f470112-8139-4343-b082-08a74e0b7074","ios":"levelo://app?vid=5f470112-8139-4343-b082-08a74e0b7074"},"vehicle_type_id":"4","last_reported":1751641819,"current_range_meters":17600,"station_id":"st_cvj6sg6p6f1abm77japg","pricing_plan_id":"cebpf4jnsgd1na2vs0mg"},{"bike_id":"8ec4b01d-924a-400a-a7ea-7e76588b355a","system_id":"levelo_inurba_marseille","lat":43.296272,"lon":5.377147,"is_reserved":false,"is_disabled":false,"rental_uris":{"android":"levelo://app?vid=8ec4b01d-924a-400a-a7ea-7e76588b355a","ios":"levelo://app?vid=8ec4b01d-924a-400a-a7ea-7e76588b355a"},"vehicle_type_id":"4","last_reported":1751641819,"current_range_meters":18000,"station_id":"ce4bgi92rcd13ifvqb90","pricing_plan_id":"cebpf4jnsgd1na2vs0mg"},{"bike_id":"9e12dbaa-d627-4846-822f-c6d5b97fcfb6","system_id":"levelo_inurba_marseille","lat":43.303226,"lon":5.392061,"is_reserved":false,"is_disabled":false,"rental_uris":{"android":"levelo://app?vid=9e12dbaa-d627-4846-822f-c6d5b97fcfb6","ios":"levelo://app?vid=9e12dbaa-d627-4846-822f-c6d5b97fcfb6"},"vehicle_type_id":"4","last_reported":1751641819,"current_range_meters":18000,"station_id":"ce4bgkh2rcd13ifvqbk0","pricing_plan_id":"cebpf4jnsgd1na2vs0mg"},{"bike_id":"552bcf28-72f1-4f10-b8f6-f0512fe0cc4b","system_id":"levelo_inurba_marseille","lat":43.27363,"lon":5.36222,"is_reserved":false,"is_disabled":false,"rental_uris":{"android":"levelo://app?vid=552bcf28-72f1-4f10-b8f6-f0512fe0cc4b","ios":"levelo://app?vid=552bcf28-72f1-4f10-b8f6-f0512fe0cc4b"},"vehicle_type_id":"4","last_reported":1751641819,"current_range_meters":18000,"station_id":"ce4bhbh2rcd13ifvqeo0","pricing_plan_id":"cebpf4jnsgd1na2vs0mg"},{"bike_id":"ea1ea04b-99c0-4d72-a698-a5c8354b769c","system_id":"levelo_inurba_marseille","lat":43.26548,"lon":5.37289,"is_reserved":false,"is_disabled":false,"rental_uris":{"android":"levelo://app?vid=ea1ea04b-99c0-4d72-a698-a5c8354b769c","ios":"levelo://app?vid=ea1ea04b-99c0-4d72-a698-a5c8354b769c"},"vehicle_type_id":"4","last_reported":1751641819,"current_range_meters":18000,"station_id":"ce4bhg12rcd13ifvqf70","pricing_plan_id":"cebpf4jnsgd1na2vs0mg"},{"bike_id":"6f482fdc-5592-422e-aa8e-7c66cf9e3791","system_id":"levelo_inurba_marseille","lat":43.23206,"lon":5.35533,"is_reserved":false,"is_disabled":false,"rental_uris":{"android":"levelo://app?vid=6f482fdc-5592-422e-aa8e-7c66cf9e3791","ios":"levelo://app?vid=6f482fdc-5592-422e-aa8e-7c66cf9e3791"},"vehicle_type_id":"4","last_reported":1751641819,"current_range_meters":18000,"station_id":"ce4bhu92rcd13ifvqi70","pricing_plan_id":"cebpf4jnsgd1na2vs0mg"},{"bike_id":"1036f3b5-5954-48a3-93e5-d291f1ca0c73","system_id":"levelo_inurba_marseille","lat":43.29519,"lon":5.37547,"is_reserved":false,"is_disabled":false,"rental_uris":{"android":"levelo://app?vid=1036f3b5-5954-48a3-93e5-d291f1ca0c73","ios":"levelo://app?vid=1036f3b5-5954-48a3-93e5-d291f1ca0c73"},"vehicle_type_id":"4","last_reported":1751641819,"current_range_meters":18800,"station_id":"ce4bgkp2rcd13ifvqbmg","pricing_plan_id":"cebpf4jnsgd1na2vs0mg"},{"bike_id":"046b3718-085f-472b-a917-00b205a331be","system_id":"levelo_inurba_marseille","lat":43.28459,"lon":5.35886,"is_reserved":false,"is_disabled":false,"rental_uris":{"android":"levelo://app?vid=046b3718-085f-472b-a917-00b205a331be","ios":"levelo://app?vid=046b3718-085f-472b-a917-00b205a331be"},"vehicle_type_id":"4","last_reported":1751641819,"current_range_meters":18800,"station_id":"ce4bhah2rcd13ifvqei0","pricing_plan_id":"cebpf4jnsgd1na2vs0mg"},{"bike_id":"0c39e47c-9acf-479f-a7f4-31cb052a4c9c","system_id":"levelo_inurba_marseille","lat":43.28869,"lon":5.35879,"is_reserved":false,"is_disabled":false,"rental_uris":{"android":"levelo://app?vid=0c39e47c-9acf-479f-a7f4-31cb052a4c9c","ios":"levelo://app?vid=0c39e47c-9acf-479f-a7f4-31cb052a4c9c"},"vehicle_type_id":"4","last_reported":1751641819,"current_range_meters":18800,"station_id":"ce4bhb12rcd13ifvqem0","pricing_plan_id":"cebpf4jnsgd1na2vs0mg"},{"bike_id":"b49c01e0-8ee3-4fdf-9036-50fac903dae3","system_id":"levelo_inurba_marseille","lat":43.265594,"lon":5.373035,"is_reserved":false,"is_disabled":false,"rental_uris":{"android":"levelo://app?vid=b49c01e0-8ee3-4fdf-9036-50fac903dae3","ios":"levelo://app?vid=b49c01e0-8ee3-4fdf-9036-50fac903dae3"},"vehicle_type_id":"4","last_reported":1751641819,"current_range_meters":18800,"station_id":"ce4bhg12rcd13ifvqf70","pricing_plan_id":"cebpf4jnsgd1na2vs0mg"},{"bike_id":"dc4ac27f-5fef-44d5-8886-678c77aa6370","system_id":"levelo_inurba_marseille","lat":43.26554,"lon":5.37282,"is_reserved":false,"is_disabled":false,"rental_uris":{"android":"levelo://app?vid=dc4ac27f-5fef-44d5-8886-678c77aa6370","ios":"levelo://app?vid=dc4ac27f-5fef-44d5-8886-678c77aa6370"},"vehicle_type_id":"4","last_reported":1751641819,"current_range_meters":18800,"station_id":"ce4bhg12rcd13ifvqf70","pricing_plan_id":"cebpf4jnsgd1na2vs0mg"},{"bike_id":"4fc690c8-41ff-46d3-ad6b-f61599f22e68","system_id":"levelo_inurba_marseille","lat":43.27177,"lon":5.40974,"is_reserved":false,"is_disabled":false,"rental_uris":{"android":"levelo://app?vid=4fc690c8-41ff-46d3-ad6b-f61599f22e68","ios":"levelo://app?vid=4fc690c8-41ff-46d3-ad6b-f61599f22e68"},"vehicle_type_id":"4","last_reported":1751641819,"current_range_meters":18800,"station_id":"ce4bhl12rcd13ifvqgf0","pricing_plan_id":"cebpf4jnsgd1na2vs0mg"},{"bike_id":"7b323759-df3a-4d00-8eb7-8d960c33764a","system_id":"levelo_inurba_marseille","lat":43.23183,"lon":5.39991,"is_reserved":false,"is_disabled":false,"rental_uris":{"android":"levelo://app?vid=7b323759-df3a-4d00-8eb7-8d960c33764a","ios":"levelo://app?vid=7b323759-df3a-4d00-8eb7-8d960c33764a"},"vehicle_type_id":"4","last_reported":1751641819,"current_range_meters":18800,"station_id":"ce4bhn12rcd13ifvqgqg","pricing_plan_id":"cebpf4jnsgd1na2vs0mg"},{"bike_id":"8501c7f1-4540-433a-9226-9677bd87b71a","system_id":"levelo_inurba_marseille","lat":43.21209,"lon":5.35069,"is_reserved":false,"is_disabled":false,"rental_uris":{"android":"levelo://app?vid=8501c7f1-4540-433a-9226-9677bd87b71a","ios":"levelo://app?vid=8501c7f1-4540-433a-9226-9677bd87b71a"},"vehicle_type_id":"4","last_reported":1751641819,"current_range_meters":18800,"station_id":"st_cvj6sg6p6f1abm77japg","pricing_plan_id":"cebpf4jnsgd1na2vs0mg"},{"bike_id":"25d65b54-2483-49ad-9e8c-b4102ded682f","system_id":"levelo_inurba_marseille","lat":43.2121,"lon":5.35062,"is_reserved":false,"is_disabled":false,"rental_uris":{"android":"levelo://app?vid=25d65b54-2483-49ad-9e8c-b4102ded682f","ios":"levelo://app?vid=25d65b54-2483-49ad-9e8c-b4102ded682f"},"vehicle_type_id":"4","last_reported":1751641819,"current_range_meters":18800,"station_id":"st_cvj6sg6p6f1abm77japg","pricing_plan_id":"cebpf4jnsgd1na2vs0mg"},{"bike_id":"eee40584-a53a-46c2-94a4-491b77e8d9d1","system_id":"levelo_inurba_marseille","lat":43.21742,"lon":5.34612,"is_reserved":false,"is_disabled":false,"rental_uris":{"android":"levelo://app?vid=eee40584-a53a-46c2-94a4-491b77e8d9d1","ios":"levelo://app?vid=eee40584-a53a-46c2-94a4-491b77e8d9d1"},"vehicle_type_id":"4","last_reported":1751641819,"current_range_meters":19200,"station_id":"","pricing_plan_id":"cebpf4jnsgd1na2vs0mg"},{"bike_id":"adf1d38d-1f03-40cf-9b57-0a8f15f62b2d","system_id":"levelo_inurba_marseille","lat":43.32972,"lon":5.36417,"is_reserved":false,"is_disabled":false,"rental_uris":{"android":"levelo://app?vid=adf1d38d-1f03-40cf-9b57-0a8f15f62b2d","ios":"levelo://app?vid=adf1d38d-1f03-40cf-9b57-0a8f15f62b2d"},"vehicle_type_id":"4","last_reported":1751641819,"current_range_meters":19200,"station_id":"","pricing_plan_id":"cebpf4jnsgd1na2vs0mg"},{"bike_id":"3ad44345-9616-42e5-8a13-a2e22cbbf363","system_id":"levelo_inurba_marseille","lat":43.28415,"lon":5.34975,"is_reserved":false,"is_disabled":false,"rental_uris":{"android":"levelo://app?vid=3ad44345-9616-42e5-8a13-a2e22cbbf363","ios":"levelo://app?vid=3ad44345-9616-42e5-8a13-a2e22cbbf363"},"vehicle_type_id":"4","last_reported":1751641819,"current_range_meters":19200,"station_id":"ce4bhbh2rcd13ifvqepg","pricing_plan_id":"cebpf4jnsgd1na2vs0mg"},{"bike_id":"4e084cce-8548-4ef6-a63b-63958da9d329","system_id":"levelo_inurba_marseille","lat":43.24805,"lon":5.37457,"is_reserved":false,"is_disabled":false,"rental_uris":{"android":"levelo://app?vid=4e084cce-8548-4ef6-a63b-63958da9d329","ios":"levelo://app?vid=4e084cce-8548-4ef6-a63b-63958da9d329"},"vehicle_type_id":"4","last_reported":1751641819,"current_range_meters":19200,"station_id":"ce4bhgh2rcd13ifvqfb0","pricing_plan_id":"cebpf4jnsgd1na2vs0mg"},{"bike_id":"e6f5b10a-f2b7-44bc-88d3-8d846dc2bc1e","system_id":"levelo_inurba_marseille","lat":43.25033,"lon":5.38913,"is_reserved":false,"is_disabled":false,"rental_uris":{"android":"levelo://app?vid=e6f5b10a-f2b7-44bc-88d3-8d846dc2bc1e","ios":"levelo://app?vid=e6f5b10a-f2b7-44bc-88d3-8d846dc2bc1e"},"vehicle_type_id":"4","last_reported":1751641819,"current_range_meters":19200,"station_id":"ce4bhgp2rcd13ifvqfd0","pricing_plan_id":"cebpf4jnsgd1na2vs0mg"},{"bike_id":"1f970516-2340-4fe4-946a-9ffac343ed31","system_id":"levelo_inurba_marseille","lat":43.24168,"lon":5.36391,"is_reserved":false,"is_disabled":false,"rental_uris":{"android":"levelo://app?vid=1f970516-2340-4fe4-946a-9ffac343ed31","ios":"levelo://app?vid=1f970516-2340-4fe4-946a-9ffac343ed31"},"vehicle_type_id":"4","last_reported":1751641819,"current_range_meters":19200,"station_id":"cpo36qri1sfpv3e86is0","pricing_plan_id":"cebpf4jnsgd1na2vs0mg"},{"bike_id":"a2f8704a-f035-4a16-bfeb-d691595a881e","system_id":"levelo_inurba_marseille","lat":43.217468,"lon":5.346017,"is_reserved":false,"is_disabled":false,"rental_uris":{"android":"levelo://app?vid=a2f8704a-f035-4a16-bfeb-d691595a881e","ios":"levelo://app?vid=a2f8704a-f035-4a16-bfeb-d691595a881e"},"vehicle_type_id":"4","last_reported":1751641819,"current_range_meters":19200,"station_id":"st_cvj6r9ubvosntc0bgbag","pricing_plan_id":"cebpf4jnsgd1na2vs0mg"},{"bike_id":"94b8253a-c816-47be-9f9e-876cf02f4a4f","system_id":"levelo_inurba_marseille","lat":43.2118,"lon":5.3507,"is_reserved":false,"is_disabled":false,"rental_uris":{"android":"levelo://app?vid=94b8253a-c816-47be-9f9e-876cf02f4a4f","ios":"levelo://app?vid=94b8253a-c816-47be-9f9e-876cf02f4a4f"},"vehicle_type_id":"4","last_reported":1751641819,"current_range_meters":19200,"station_id":"st_cvj6sg6p6f1abm77japg","pricing_plan_id":"cebpf4jnsgd1na2vs0mg"},{"bike_id":"134a6fd1-cb8b-4ade-a0c2-0b22bf7dca76","system_id":"levelo_inurba_marseille","lat":43.21188,"lon":5.35077,"is_reserved":false,"is_disabled":false,"rental_uris":{"android":"levelo://app?vid=134a6fd1-cb8b-4ade-a0c2-0b22bf7dca76","ios":"levelo://app?vid=134a6fd1-cb8b-4ade-a0c2-0b22bf7dca76"},"vehicle_type_id":"4","last_reported":1751641819,"current_range_meters":19200,"station_id":"st_cvj6sg6p6f1abm77japg","pricing_plan_id":"cebpf4jnsgd1na2vs0mg"},{"bike_id":"fe8ee84c-fdfc-40aa-a1c2-6e36409c0740","system_id":"levelo_inurba_marseille","lat":43.268149,"lon":5.390514,"is_reserved":false,"is_disabled":false,"rental_uris":{"android":"levelo://app?vid=fe8ee84c-fdfc-40aa-a1c2-6e36409c0740","ios":"levelo://app?vid=fe8ee84c-fdfc-40aa-a1c2-6e36409c0740"},"vehicle_type_id":"4","last_reported":1751641819,"current_range_meters":19600,"station_id":"","pricing_plan_id":"cebpf4jnsgd1na2vs0mg"},{"bike_id":"6a7f8a39-e3c1-4056-9824-1ce92ef95311","system_id":"levelo_inurba_marseille","lat":43.239543,"lon":5.366611,"is_reserved":false,"is_disabled":false,"rental_uris":{"android":"levelo://app?vid=6a7f8a39-e3c1-4056-9824-1ce92ef95311","ios":"levelo://app?vid=6a7f8a39-e3c1-4056-9824-1ce92ef95311"},"vehicle_type_id":"4","last_reported":1751641819,"current_range_meters":19600,"station_id":"ce4bhi12rcd13ifvqfp0","pricing_plan_id":"cebpf4jnsgd1na2vs0mg"},{"bike_id":"3fc62123-78f7-4bfd-9645-67a7412e0768","system_id":"levelo_inurba_marseille","lat":43.2573,"lon":5.41107,"is_reserved":false,"is_disabled":false,"rental_uris":{"android":"levelo://app?vid=3fc62123-78f7-4bfd-9645-67a7412e0768","ios":"levelo://app?vid=3fc62123-78f7-4bfd-9645-67a7412e0768"},"vehicle_type_id":"4","last_reported":1751641819,"current_range_meters":20000,"station_id":"","pricing_plan_id":"cebpf4jnsgd1na2vs0mg"},{"bike_id":"03e9eecd-8900-4d4c-95ea-3d4c54b48c17","system_id":"levelo_inurba_marseille","lat":43.316817,"lon":5.40479,"is_reserved":false,"is_disabled":false,"rental_uris":{"android":"levelo://app?vid=03e9eecd-8900-4d4c-95ea-3d4c54b48c17","ios":"levelo://app?vid=03e9eecd-8900-4d4c-95ea-3d4c54b48c17"},"vehicle_type_id":"4","last_reported":1751641819,"current_range_meters":20000,"station_id":"ce4bh012rcd13ifvqd00","pricing_plan_id":"cebpf4jnsgd1na2vs0mg"},{"bike_id":"aca05101-36a3-469a-8f75-e3270e85fd82","system_id":"levelo_inurba_marseille","lat":43.28413,"lon":5.34976,"is_reserved":false,"is_disabled":false,"rental_uris":{"android":"levelo://app?vid=aca05101-36a3-469a-8f75-e3270e85fd82","ios":"levelo://app?vid=aca05101-36a3-469a-8f75-e3270e85fd82"},"vehicle_type_id":"4","last_reported":1751641819,"current_range_meters":20000,"station_id":"ce4bhbh2rcd13ifvqepg","pricing_plan_id":"cebpf4jnsgd1na2vs0mg"},{"bike_id":"317e8fac-7c07-43e9-afe0-a3ea352f5b06","system_id":"levelo_inurba_marseille","lat":43.27557,"lon":5.38414,"is_reserved":false,"is_disabled":false,"rental_uris":{"android":"levelo://app?vid=317e8fac-7c07-43e9-afe0-a3ea352f5b06","ios":"levelo://app?vid=317e8fac-7c07-43e9-afe0-a3ea352f5b06"},"vehicle_type_id":"4","last_reported":1751641819,"current_range_meters":20000,"station_id":"ce4bhh92rcd13ifvqfi0","pricing_plan_id":"cebpf4jnsgd1na2vs0mg"},{"bike_id":"db41792f-81e6-4396-955a-7c06aefea4f1","system_id":"levelo_inurba_marseille","lat":43.23967,"lon":5.36631,"is_reserved":false,"is_disabled":false,"rental_uris":{"android":"levelo://app?vid=db41792f-81e6-4396-955a-7c06aefea4f1","ios":"levelo://app?vid=db41792f-81e6-4396-955a-7c06aefea4f1"},"vehicle_type_id":"4","last_reported":1751641819,"current_range_meters":20000,"station_id":"ce4bhi12rcd13ifvqfp0","pricing_plan_id":"cebpf4jnsgd1na2vs0mg"},{"bike_id":"fcd50977-f455-40a2-a7b3-ac2d0619493e","system_id":"levelo_inurba_marseille","lat":43.29545,"lon":5.42269,"is_reserved":false,"is_disabled":false,"rental_uris":{"android":"levelo://app?vid=fcd50977-f455-40a2-a7b3-ac2d0619493e","ios":"levelo://app?vid=fcd50977-f455-40a2-a7b3-ac2d0619493e"},"vehicle_type_id":"4","last_reported":1751641819,"current_range_meters":20000,"station_id":"ce4bhph2rcd13ifvqhdg","pricing_plan_id":"cebpf4jnsgd1na2vs0mg"},{"bike_id":"d5ef770d-9759-47e3-b3a5-7d2785ef76db","system_id":"levelo_inurba_marseille","lat":43.330264,"lon":5.390411,"is_reserved":false,"is_disabled":false,"rental_uris":{"android":"levelo://app?vid=d5ef770d-9759-47e3-b3a5-7d2785ef76db","ios":"levelo://app?vid=d5ef770d-9759-47e3-b3a5-7d2785ef76db"},"vehicle_type_id":"4","last_reported":1751641819,"current_range_meters":20000,"station_id":"ce4bhr92rcd13ifvqhrg","pricing_plan_id":"cebpf4jnsgd1na2vs0mg"},{"bike_id":"bf24b26e-7f51-4120-9a48-54c87edaa2f7","system_id":"levelo_inurba_marseille","lat":43.211905,"lon":5.350728,"is_reserved":false,"is_disabled":false,"rental_uris":{"android":"levelo://app?vid=bf24b26e-7f51-4120-9a48-54c87edaa2f7","ios":"levelo://app?vid=bf24b26e-7f51-4120-9a48-54c87edaa2f7"},"vehicle_type_id":"4","last_reported":1751641819,"current_range_meters":20000,"station_id":"st_cvj6sg6p6f1abm77japg","pricing_plan_id":"cebpf4jnsgd1na2vs0mg"},{"bike_id":"9e02a108-7aae-460c-ab48-32be5aaadcee","system_id":"levelo_inurba_marseille","lat":43.30439,"lon":5.38883,"is_reserved":false,"is_disabled":false,"rental_uris":{"android":"levelo://app?vid=9e02a108-7aae-460c-ab48-32be5aaadcee","ios":"levelo://app?vid=9e02a108-7aae-460c-ab48-32be5aaadcee"},"vehicle_type_id":"4","last_reported":1751641819,"current_range_meters":20400,"station_id":"ce4bgk12rcd13ifvqbi0","pricing_plan_id":"cebpf4jnsgd1na2vs0mg"},{"bike_id":"5b5ca915-19f5-4c5c-ba88-71fe4a9869eb","system_id":"levelo_inurba_marseille","lat":43.31735,"lon":5.3772,"is_reserved":false,"is_disabled":false,"rental_uris":{"android":"levelo://app?vid=5b5ca915-19f5-4c5c-ba88-71fe4a9869eb","ios":"levelo://app?vid=5b5ca915-19f5-4c5c-ba88-71fe4a9869eb"},"vehicle_type_id":"4","last_reported":1751641819,"current_range_meters":20400,"station_id":"ce4bgth2rcd13ifvqch0","pricing_plan_id":"cebpf4jnsgd1na2vs0mg"},{"bike_id":"94c59680-3c09-45f1-9341-de04b9aaedb8","system_id":"levelo_inurba_marseille","lat":43.29565,"lon":5.39987,"is_reserved":false,"is_disabled":false,"rental_uris":{"android":"levelo://app?vid=94c59680-3c09-45f1-9341-de04b9aaedb8","ios":"levelo://app?vid=94c59680-3c09-45f1-9341-de04b9aaedb8"},"vehicle_type_id":"4","last_reported":1751641819,"current_range_meters":20400,"station_id":"ce4bh312rcd13ifvqdj0","pricing_plan_id":"cebpf4jnsgd1na2vs0mg"},{"bike_id":"7bba8a3e-5b56-4797-a43e-860cbf4b2360","system_id":"levelo_inurba_marseille","lat":43.27374,"lon":5.36266,"is_reserved":false,"is_disabled":false,"rental_uris":{"android":"levelo://app?vid=7bba8a3e-5b56-4797-a43e-860cbf4b2360","ios":"levelo://app?vid=7bba8a3e-5b56-4797-a43e-860cbf4b2360"},"vehicle_type_id":"4","last_reported":1751641819,"current_range_meters":20400,"station_id":"ce4bhbh2rcd13ifvqeo0","pricing_plan_id":"cebpf4jnsgd1na2vs0mg"},{"bike_id":"22831798-ff7c-4bc3-a37f-765fbdef7409","system_id":"levelo_inurba_marseille","lat":43.28403,"lon":5.34986,"is_reserved":false,"is_disabled":false,"rental_uris":{"android":"levelo://app?vid=22831798-ff7c-4bc3-a37f-765fbdef7409","ios":"levelo://app?vid=22831798-ff7c-4bc3-a37f-765fbdef7409"},"vehicle_type_id":"4","last_reported":1751641819,"current_range_meters":20400,"station_id":"ce4bhbh2rcd13ifvqepg","pricing_plan_id":"cebpf4jnsgd1na2vs0mg"},{"bike_id":"d79582d6-f852-42e4-b0e4-8e8e52185a45","system_id":"levelo_inurba_marseille","lat":43.28611,"lon":5.35104,"is_reserved":false,"is_disabled":false,"rental_uris":{"android":"levelo://app?vid=d79582d6-f852-42e4-b0e4-8e8e52185a45","ios":"levelo://app?vid=d79582d6-f852-42e4-b0e4-8e8e52185a45"},"vehicle_type_id":"4","last_reported":1751641819,"current_range_meters":20400,"station_id":"ce4bhch2rcd13ifvqeug","pricing_plan_id":"cebpf4jnsgd1na2vs0mg"},{"bike_id":"143f5251-f5c0-4e17-ab72-cb2506b90224","system_id":"levelo_inurba_marseille","lat":43.25003,"lon":5.38922,"is_reserved":false,"is_disabled":false,"rental_uris":{"android":"levelo://app?vid=143f5251-f5c0-4e17-ab72-cb2506b90224","ios":"levelo://app?vid=143f5251-f5c0-4e17-ab72-cb2506b90224"},"vehicle_type_id":"4","last_reported":1751641819,"current_range_meters":20400,"station_id":"ce4bhgp2rcd13ifvqfd0","pricing_plan_id":"cebpf4jnsgd1na2vs0mg"},{"bike_id":"2145d376-4aba-46a1-b195-e1f6ef6f20fa","system_id":"levelo_inurba_marseille","lat":43.2307,"lon":5.35493,"is_reserved":false,"is_disabled":false,"rental_uris":{"android":"levelo://app?vid=2145d376-4aba-46a1-b195-e1f6ef6f20fa","ios":"levelo://app?vid=2145d376-4aba-46a1-b195-e1f6ef6f20fa"},"vehicle_type_id":"4","last_reported":1751641819,"current_range_meters":20400,"station_id":"cpo3342slgdg3j2ifvpg","pricing_plan_id":"cebpf4jnsgd1na2vs0mg"},{"bike_id":"ac00e223-eace-4129-bba2-b5db79a4a623","system_id":"levelo_inurba_marseille","lat":43.28612,"lon":5.35105,"is_reserved":false,"is_disabled":false,"rental_uris":{"android":"levelo://app?vid=ac00e223-eace-4129-bba2-b5db79a4a623","ios":"levelo://app?vid=ac00e223-eace-4129-bba2-b5db79a4a623"},"vehicle_type_id":"4","last_reported":1751641819,"current_range_meters":20800,"station_id":"","pricing_plan_id":"cebpf4jnsgd1na2vs0mg"},{"bike_id":"d9627628-ca0a-4d5c-a4f9-2699a13b35b0","system_id":"levelo_inurba_marseille","lat":43.29537,"lon":5.38562,"is_reserved":false,"is_disabled":false,"rental_uris":{"android":"levelo://app?vid=d9627628-ca0a-4d5c-a4f9-2699a13b35b0","ios":"levelo://app?vid=d9627628-ca0a-4d5c-a4f9-2699a13b35b0"},"vehicle_type_id":"4","last_reported":1751641819,"current_range_meters":20800,"station_id":"","pricing_plan_id":"cebpf4jnsgd1na2vs0mg"},{"bike_id":"37392116-7b60-4581-8068-d86d32994018","system_id":"levelo_inurba_marseille","lat":43.30586,"lon":5.3935,"is_reserved":false,"is_disabled":false,"rental_uris":{"android":"levelo://app?vid=37392116-7b60-4581-8068-d86d32994018","ios":"levelo://app?vid=37392116-7b60-4581-8068-d86d32994018"},"vehicle_type_id":"4","last_reported":1751641819,"current_range_meters":20800,"station_id":"ce4bh0p2rcd13ifvqd80","pricing_plan_id":"cebpf4jnsgd1na2vs0mg"},{"bike_id":"e7429c79-1897-43a6-be67-4327771c3ccc","system_id":"levelo_inurba_marseille","lat":43.29505,"lon":5.39425,"is_reserved":false,"is_disabled":false,"rental_uris":{"android":"levelo://app?vid=e7429c79-1897-43a6-be67-4327771c3ccc","ios":"levelo://app?vid=e7429c79-1897-43a6-be67-4327771c3ccc"},"vehicle_type_id":"4","last_reported":1751641819,"current_range_meters":20800,"station_id":"ce4bh292rcd13ifvqdf0","pricing_plan_id":"cebpf4jnsgd1na2vs0mg"},{"bike_id":"1e839fe1-8ccd-4553-aad4-3d7b00c34999","system_id":"levelo_inurba_marseille","lat":43.23146,"lon":5.43724,"is_reserved":false,"is_disabled":false,"rental_uris":{"android":"levelo://app?vid=1e839fe1-8ccd-4553-aad4-3d7b00c34999","ios":"levelo://app?vid=1e839fe1-8ccd-4553-aad4-3d7b00c34999"},"vehicle_type_id":"4","last_reported":1751641819,"current_range_meters":20800,"station_id":"ce4bhmp2rcd13ifvqgog","pricing_plan_id":"cebpf4jnsgd1na2vs0mg"},{"bike_id":"680c0b49-8cf9-4620-ab98-135c175fbb43","system_id":"levelo_inurba_marseille","lat":43.29551,"lon":5.42301,"is_reserved":false,"is_disabled":false,"rental_uris":{"android":"levelo://app?vid=680c0b49-8cf9-4620-ab98-135c175fbb43","ios":"levelo://app?vid=680c0b49-8cf9-4620-ab98-135c175fbb43"},"vehicle_type_id":"4","last_reported":1751641819,"current_range_meters":20800,"station_id":"ce4bhph2rcd13ifvqhdg","pricing_plan_id":"cebpf4jnsgd1na2vs0mg"},{"bike_id":"00bb43e1-47ca-408b-83f9-dcf384b705f0","system_id":"levelo_inurba_marseille","lat":43.2983,"lon":5.36275,"is_reserved":false,"is_disabled":false,"rental_uris":{"android":"levelo://app?vid=00bb43e1-47ca-408b-83f9-dcf384b705f0","ios":"levelo://app?vid=00bb43e1-47ca-408b-83f9-dcf384b705f0"},"vehicle_type_id":"4","last_reported":1751641819,"current_range_meters":21600,"station_id":"ce4bgpp2rcd13ifvqc3g","pricing_plan_id":"cebpf4jnsgd1na2vs0mg"},{"bike_id":"1ce8d2ba-d49e-4384-9b38-6dec4c97f6f9","system_id":"levelo_inurba_marseille","lat":43.260306,"lon":5.375577,"is_reserved":false,"is_disabled":false,"rental_uris":{"android":"levelo://app?vid=1ce8d2ba-d49e-4384-9b38-6dec4c97f6f9","ios":"levelo://app?vid=1ce8d2ba-d49e-4384-9b38-6dec4c97f6f9"},"vehicle_type_id":"4","last_reported":1751641819,"current_range_meters":21600,"station_id":"ce4bhgh2rcd13ifvqfa0","pricing_plan_id":"cebpf4jnsgd1na2vs0mg"},{"bike_id":"2bf6a579-0ae6-4f39-a237-d75c8a46d567","system_id":"levelo_inurba_marseille","lat":43.23964,"lon":5.36631,"is_reserved":false,"is_disabled":false,"rental_uris":{"android":"levelo://app?vid=2bf6a579-0ae6-4f39-a237-d75c8a46d567","ios":"levelo://app?vid=2bf6a579-0ae6-4f39-a237-d75c8a46d567"},"vehicle_type_id":"4","last_reported":1751641819,"current_range_meters":21600,"station_id":"ce4bhi12rcd13ifvqfp0","pricing_plan_id":"cebpf4jnsgd1na2vs0mg"},{"bike_id":"afc1222e-e469-44ba-975d-acfe063a8307","system_id":"levelo_inurba_marseille","lat":43.3211,"lon":5.36767,"is_reserved":false,"is_disabled":false,"rental_uris":{"android":"levelo://app?vid=afc1222e-e469-44ba-975d-acfe063a8307","ios":"levelo://app?vid=afc1222e-e469-44ba-975d-acfe063a8307"},"vehicle_type_id":"4","last_reported":1751641819,"current_range_meters":21600,"station_id":"ce4bhrh2rcd13ifvqhug","pricing_plan_id":"cebpf4jnsgd1na2vs0mg"},{"bike_id":"b67e3de7-3a98-48a8-ada1-6072073e6e54","system_id":"levelo_inurba_marseille","lat":43.2305,"lon":5.35486,"is_reserved":false,"is_disabled":false,"rental_uris":{"android":"levelo://app?vid=b67e3de7-3a98-48a8-ada1-6072073e6e54","ios":"levelo://app?vid=b67e3de7-3a98-48a8-ada1-6072073e6e54"},"vehicle_type_id":"4","last_reported":1751641819,"current_range_meters":21600,"station_id":"cpo3342slgdg3j2ifvpg","pricing_plan_id":"cebpf4jnsgd1na2vs0mg"},{"bike_id":"e449aa29-cae1-4432-9aec-dedc13360b20","system_id":"levelo_inurba_marseille","lat":43.211913,"lon":5.350678,"is_reserved":false,"is_disabled":false,"rental_uris":{"android":"levelo://app?vid=e449aa29-cae1-4432-9aec-dedc13360b20","ios":"levelo://app?vid=e449aa29-cae1-4432-9aec-dedc13360b20"},"vehicle_type_id":"4","last_reported":1751641819,"current_range_meters":21600,"station_id":"st_cvj6sg6p6f1abm77japg","pricing_plan_id":"cebpf4jnsgd1na2vs0mg"},{"bike_id":"f37760c6-ab8b-450e-9ddc-f3de596404e2","system_id":"levelo_inurba_marseille","lat":43.290224,"lon":5.375486,"is_reserved":false,"is_disabled":false,"rental_uris":{"android":"levelo://app?vid=f37760c6-ab8b-450e-9ddc-f3de596404e2","ios":"levelo://app?vid=f37760c6-ab8b-450e-9ddc-f3de596404e2"},"vehicle_type_id":"4","last_reported":1751641819,"current_range_meters":22000,"station_id":"","pricing_plan_id":"cebpf4jnsgd1na2vs0mg"},{"bike_id":"083f65c2-fd81-4c7a-8530-513a30ad5e9d","system_id":"levelo_inurba_marseille","lat":43.29257,"lon":5.37615,"is_reserved":false,"is_disabled":false,"rental_uris":{"android":"levelo://app?vid=083f65c2-fd81-4c7a-8530-513a30ad5e9d","ios":"levelo://app?vid=083f65c2-fd81-4c7a-8530-513a30ad5e9d"},"vehicle_type_id":"4","last_reported":1751641819,"current_range_meters":22000,"station_id":"ce4bgi12rcd13ifvqb80","pricing_plan_id":"cebpf4jnsgd1na2vs0mg"},{"bike_id":"702a2ef1-0870-4fc2-baba-e6ee90340c91","system_id":"levelo_inurba_marseille","lat":43.28408,"lon":5.34996,"is_reserved":false,"is_disabled":false,"rental_uris":{"android":"levelo://app?vid=702a2ef1-0870-4fc2-baba-e6ee90340c91","ios":"levelo://app?vid=702a2ef1-0870-4fc2-baba-e6ee90340c91"},"vehicle_type_id":"4","last_reported":1751641819,"current_range_meters":22000,"station_id":"ce4bhbh2rcd13ifvqepg","pricing_plan_id":"cebpf4jnsgd1na2vs0mg"},{"bike_id":"866b4862-4528-492c-85c2-08d8391e5ca4","system_id":"levelo_inurba_marseille","lat":43.27907,"lon":5.3802,"is_reserved":false,"is_disabled":false,"rental_uris":{"android":"levelo://app?vid=866b4862-4528-492c-85c2-08d8391e5ca4","ios":"levelo://app?vid=866b4862-4528-492c-85c2-08d8391e5ca4"},"vehicle_type_id":"4","last_reported":1751641819,"current_range_meters":22000,"station_id":"ce4bhf92rcd13ifvqf50","pricing_plan_id":"cebpf4jnsgd1na2vs0mg"},{"bike_id":"375e2804-4f65-49f6-8b01-bb68be855053","system_id":"levelo_inurba_marseille","lat":43.2791,"lon":5.38004,"is_reserved":false,"is_disabled":false,"rental_uris":{"android":"levelo://app?vid=375e2804-4f65-49f6-8b01-bb68be855053","ios":"levelo://app?vid=375e2804-4f65-49f6-8b01-bb68be855053"},"vehicle_type_id":"4","last_reported":1751641819,"current_range_meters":22000,"station_id":"ce4bhf92rcd13ifvqf50","pricing_plan_id":"cebpf4jnsgd1na2vs0mg"},{"bike_id":"fbd4182a-09da-44bf-be19-d21b35359f0e","system_id":"levelo_inurba_marseille","lat":43.28413,"lon":5.34977,"is_reserved":false,"is_disabled":false,"rental_uris":{"android":"levelo://app?vid=fbd4182a-09da-44bf-be19-d21b35359f0e","ios":"levelo://app?vid=fbd4182a-09da-44bf-be19-d21b35359f0e"},"vehicle_type_id":"4","last_reported":1751641819,"current_range_meters":22400,"station_id":"ce4bhbh2rcd13ifvqepg","pricing_plan_id":"cebpf4jnsgd1na2vs0mg"},{"bike_id":"eef083e8-abfb-440e-9f8f-5113e5e6a5eb","system_id":"levelo_inurba_marseille","lat":43.24387,"lon":5.3706,"is_reserved":false,"is_disabled":false,"rental_uris":{"android":"levelo://app?vid=eef083e8-abfb-440e-9f8f-5113e5e6a5eb","ios":"levelo://app?vid=eef083e8-abfb-440e-9f8f-5113e5e6a5eb"},"vehicle_type_id":"4","last_reported":1751641819,"current_range_meters":22400,"station_id":"ce4bhhh2rcd13ifvqfk0","pricing_plan_id":"cebpf4jnsgd1na2vs0mg"},{"bike_id":"54ed0814-6464-4cd7-910f-9c56587d75bf","system_id":"levelo_inurba_marseille","lat":43.28077,"lon":5.3966,"is_reserved":false,"is_disabled":false,"rental_uris":{"android":"levelo://app?vid=54ed0814-6464-4cd7-910f-9c56587d75bf","ios":"levelo://app?vid=54ed0814-6464-4cd7-910f-9c56587d75bf"},"vehicle_type_id":"4","last_reported":1751641819,"current_range_meters":22400,"station_id":"ce4bho12rcd13ifvqh2g","pricing_plan_id":"cebpf4jnsgd1na2vs0mg"},