{"last_updated":1740600648,"ttl":60,"version":"2.2","data":{"bikes":[{"bike_id":"b1390c52-917d-4eb2-9a5a-de5ed9ba5ddc","system_id":"levelo_inurba_marseille","lat":43.29896,"lon":5.43671,"is_reserved":false,"is_disabled":false,"rental_uris":{"android":"levelo://app?vid=b1390c52-917d-4eb2-9a5a-de5ed9ba5ddc","ios":"levelo://app?vid=b1390c52-917d-4eb2-9a5a-de5ed9ba5ddc"},"vehicle_type_id":"4","last_reported":1740600648,"current_range_meters":2800,"station_id":"ce4bhpp2rcd13ifvqhfg","pricing_plan_id":"cebpf4jnsgd1na2vs0mg"},{"bike_id":"2d9fd4d8-c93e-4482-ac9a-27e0eb1c2dfe","system_id":"levelo_inurba_marseille","lat":43.31438,"lon":5.38824,"is_reserved":false,"is_disabled":false,"rental_uris":{"android":"levelo://app?vid=2d9fd4d8-c93e-4482-ac9a-27e0eb1c2dfe","ios":"levelo://app?vid=2d9fd4d8-c93e-4482-ac9a-27e0eb1c2dfe"},"vehicle_type_id":"4","last_reported":1740600648,"current_range_meters":3200,"station_id":"","pricing_plan_id":"cebpf4jnsgd1na2vs0mg"},{"bike_id":"d8241dcb-1b5b-4fe6-aa5d-18612a4c32c1","system_id":"levelo_inurba_marseille","lat":43.29584,"lon":5.36749,"is_reserved":false,"is_disabled":false,"rental_uris":{"android":"levelo://app?vid=d8241dcb-1b5b-4fe6-aa5d-18612a4c32c1","ios":"levelo://app?vid=d8241dcb-1b5b-4fe6-aa5d-18612a4c32c1"},"vehicle_type_id":"4","last_reported":1740600648,"current_range_meters":3200,"station_id":"ce4bgph2rcd13ifvqc2g","pricing_plan_id":"cebpf4jnsgd1na2vs0mg"},{"bike_id":"f7a500e1-81e0-4c94-8979-e283652f0a3a","system_id":"levelo_inurba_marseille","lat":43.31321,"lon":5.39711,"is_reserved":false,"is_disabled":false,"rental_uris":{"android":"levelo://app?vid=f7a500e1-81e0-4c94-8979-e283652f0a3a","ios":"levelo://app?vid=f7a500e1-81e0-4c94-8979-e283652f0a3a"},"vehicle_type_id":"4","last_reported":1740600648,"current_range_meters":3200,"station_id":"ce4bgvp2rcd13ifvqcu0","pricing_plan_id":"cebpf4jnsgd1na2vs0mg"},{"bike_id":"4df591c0-6182-41eb-a252-dab3ecc79a22","system_id":"levelo_inurba_marseille","lat":43.29841,"lon":5.36276,"is_reserved":false,"is_disabled":false,"rental_uris":{"android":"levelo://app?vid=4df591c0-6182-41eb-a252-dab3ecc79a22","ios":"levelo://app?vid=4df591c0-6182-41eb-a252-dab3ecc79a22"},"vehicle_type_id":"4","last_reported":1740600648,"current_range_meters":3200,"station_id":"ce4bgpp2rcd13ifvqc3g","pricing_plan_id":"cebpf4jnsgd1na2vs0mg"},{"bike_id":"e4620c0e-1033-4457-ae74-e5c9617307be","system_id":"levelo_inurba_marseille","lat":43.30268,"lon":5.40079,"is_reserved":false,"is_disabled":false,"rental_uris":{"android":"levelo://app?vid=e4620c0e-1033-4457-ae74-e5c9617307be","ios":"levelo://app?vid=e4620c0e-1033-4457-ae74-e5c9617307be"},"vehicle_type_id":"4","last_reported":1740600648,"current_range_meters":3600,"station_id":"ce4bgvh2rcd13ifvqcs0","pricing_plan_id":"cebpf4jnsgd1na2vs0mg"},{"bike_id":"c696410a-11fc-4320-bb80-6b35118f9694","system_id":"levelo_inurba_marseille","lat":43.2438,"lon":5.37087,"is_reserved":false,"is_disabled":false,"rental_uris":{"android":"levelo://app?vid=c696410a-11fc-4320-bb80-6b35118f9694","ios":"levelo://app?vid=c696410a-11fc-4320-bb80-6b35118f9694"},"vehicle_type_id":"4","last_reported":1740600648,"current_range_meters":3600,"station_id":"ce4bhhh2rcd13ifvqfk0","pricing_plan_id":"cebpf4jnsgd1na2vs0mg"},{"bike_id":"9462b0f8-9642-4530-bbb0-bea2253a2a0f","system_id":"levelo_inurba_marseille","lat":43.29029,"lon":5.38647,"is_reserved":false,"is_disabled":false,"rental_uris":{"android":"levelo://app?vid=9462b0f8-9642-4530-bbb0-bea2253a2a0f","ios":"levelo://app?vid=9462b0f8-9642-4530-bbb0-bea2253a2a0f"},"vehicle_type_id":"4","last_reported":1740600648,"current_range_meters":3600,"station_id":"ce4bh4p2rcd13ifvqe0g","pricing_plan_id":"cebpf4jnsgd1na2vs0mg"},{"bike_id":"ee15ed7b-f9f3-4755-862a-ec44a4b5f560","system_id":"levelo_inurba_marseille","lat":43.31269,"lon":5.4018,"is_reserved":false,"is_disabled":false,"rental_uris":{"android":"levelo://app?vid=ee15ed7b-f9f3-4755-862a-ec44a4b5f560","ios":"levelo://app?vid=ee15ed7b-f9f3-4755-862a-ec44a4b5f560"},"vehicle_type_id":"4","last_reported":1740600648,"current_range_meters":3200,"station_id":"ce4bh092rcd13ifvqd30","pricing_plan_id":"cebpf4jnsgd1na2vs0mg"},{"bike_id":"9944af48-b598-4d4e-868b-a92c542fdf0e","system_id":"levelo_inurba_marseille","lat":43.28936,"lon":5.36617,"is_reserved":false,"is_disabled":false,"rental_uris":{"android":"levelo://app?vid=9944af48-b598-4d4e-868b-a92c542fdf0e","ios":"levelo://app?vid=9944af48-b598-4d4e-868b-a92c542fdf0e"},"vehicle_type_id":"4","last_reported":1740600648,"current_range_meters":3600,"station_id":"ce4bhap2rcd13ifvqek0","pricing_plan_id":"cebpf4jnsgd1na2vs0mg"},{"bike_id":"23862ae8-c8ea-4b11-8f47-396d8dd69535","system_id":"levelo_inurba_marseille","lat":43.301,"lon":5.39082,"is_reserved":false,"is_disabled":false,"rental_uris":{"android":"levelo://app?vid=23862ae8-c8ea-4b11-8f47-396d8dd69535","ios":"levelo://app?vid=23862ae8-c8ea-4b11-8f47-396d8dd69535"},"vehicle_type_id":"4","last_reported":1740600648,"current_range_meters":4000,"station_id":"ce4bh192rcd13ifvqdb0","pricing_plan_id":"cebpf4jnsgd1na2vs0mg"},{"bike_id":"0c4d1a7f-f081-41c3-ba40-810126238833","system_id":"levelo_inurba_marseille","lat":43.30251,"lon":5.40073,"is_reserved":false,"is_disabled":false,"rental_uris":{"android":"levelo://app?vid=0c4d1a7f-f081-41c3-ba40-810126238833","ios":"levelo://app?vid=0c4d1a7f-f081-41c3-ba40-810126238833"},"vehicle_type_id":"4","last_reported":1740600648,"current_range_meters":4000,"station_id":"ce4bgvh2rcd13ifvqcs0","pricing_plan_id":"cebpf4jnsgd1na2vs0mg"},{"bike_id":"9f0700be-1941-448e-8bc4-6fdec8590b39","system_id":"levelo_inurba_marseille","lat":43.2804,"lon":5.3694,"is_reserved":false,"is_disabled":false,"rental_uris":{"android":"levelo://app?vid=9f0700be-1941-448e-8bc4-6fdec8590b39","ios":"levelo://app?vid=9f0700be-1941-448e-8bc4-6fdec8590b39"},"vehicle_type_id":"4","last_reported":1740600648,"current_range_meters":7200,"station_id":"ce4bha12rcd13ifvqef0","pricing_plan_id":"cebpf4jnsgd1na2vs0mg"},{"bike_id":"349e0b42-9005-4524-ae81-70f682769f76","system_id":"levelo_inurba_marseille","lat":43.2396,"lon":5.36638,"is_reserved":false,"is_disabled":false,"rental_uris":{"android":"levelo://app?vid=349e0b42-9005-4524-ae81-70f682769f76","ios":"levelo://app?vid=349e0b42-9005-4524-ae81-70f682769f76"},"vehicle_type_id":"4","last_reported":1740600648,"current_range_meters":4000,"station_id":"ce4bhi12rcd13ifvqfp0","pricing_plan_id":"cebpf4jnsgd1na2vs0mg"},{"bike_id":"182f6018-90e7-452d-8604-9765ed27d15d","system_id":"levelo_inurba_marseille","lat":43.28698,"lon":5.40014,"is_reserved":false,"is_disabled":false,"rental_uris":{"android":"levelo://app?vid=182f6018-90e7-452d-8604-9765ed27d15d","ios":"levelo://app?vid=182f6018-90e7-452d-8604-9765ed27d15d"},"vehicle_type_id":"4","last_reported":1740600648,"current_range_meters":4400,"station_id":"ce4bho92rcd13ifvqh3g","pricing_plan_id":"cebpf4jnsgd1na2vs0mg"},{"bike_id":"8c35d2f6-1214-4b92-b21e-5a6480a0f50b","system_id":"levelo_inurba_marseille","lat":43.2833,"lon":5.38117,"is_reserved":false,"is_disabled":false,"rental_uris":{"android":"levelo://app?vid=8c35d2f6-1214-4b92-b21e-5a6480a0f50b","ios":"levelo://app?vid=8c35d2f6-1214-4b92-b21e-5a6480a0f50b"},"vehicle_type_id":"4","last_reported":1740600648,"current_range_meters":5600,"station_id":"ce4bh412rcd13ifvqdr0","pricing_plan_id":"cebpf4jnsgd1na2vs0mg"},{"bike_id":"f1ac3114-0d4b-4a9b-9960-f283796fe758","system_id":"levelo_inurba_marseille","lat":43.28265,"lon":5.35066,"is_reserved":false,"is_disabled":false,"rental_uris":{"android":"levelo://app?vid=f1ac3114-0d4b-4a9b-9960-f283796fe758","ios":"levelo://app?vid=f1ac3114-0d4b-4a9b-9960-f283796fe758"},"vehicle_type_id":"4","last_reported":1740600648,"current_range_meters":4800,"station_id":"ce4bhbp2rcd13ifvqerg","pricing_plan_id":"cebpf4jnsgd1na2vs0mg"},{"bike_id":"1f0dcaf3-20ff-45bc-b4ef-8f34cf36e226","system_id":"levelo_inurba_marseille","lat":43.27817,"lon":5.40691,"is_reserved":false,"is_disabled":true,"rental_uris":{"android":"levelo://app?vid=1f0dcaf3-20ff-45bc-b4ef-8f34cf36e226","ios":"levelo://app?vid=1f0dcaf3-20ff-45bc-b4ef-8f34cf36e226"},"vehicle_type_id":"4","last_reported":1740600648,"current_range_meters":4800,"station_id":"ce4bhnh2rcd13ifvqgtg","pricing_plan_id":"cebpf4jnsgd1na2vs0mg"},{"bike_id":"02f873e8-48ea-4d20-b518-2ade924a606f","system_id":"levelo_inurba_marseille","lat":43.2942,"lon":5.38606,"is_reserved":false,"is_disabled":true,"rental_uris":{"android":"levelo://app?vid=02f873e8-48ea-4d20-b518-2ade924a606f","ios":"levelo://app?vid=02f873e8-48ea-4d20-b518-2ade924a606f"},"vehicle_type_id":"4","last_reported":1740600648,"current_range_meters":5600,"station_id":"ce4bh2h2rcd13ifvqdh0","pricing_plan_id":"cebpf4jnsgd1na2vs0mg"},{"bike_id":"e5c275a2-a964-47d8-9489-ed1126cf4cef","system_id":"levelo_inurba_marseille","lat":43.29609,"lon":5.37904,"is_reserved":false,"is_disabled":false,"rental_uris":{"android":"levelo://app?vid=e5c275a2-a964-47d8-9489-ed1126cf4cef","ios":"levelo://app?vid=e5c275a2-a964-47d8-9489-ed1126cf4cef"},"vehicle_type_id":"4","last_reported":1740600648,"current_range_meters":5600,"station_id":"","pricing_plan_id":"cebpf4jnsgd1na2vs0mg"},{"bike_id":"77d72656-ec37-44f1-ab2b-c05ee9e3e3e9","system_id":"levelo_inurba_marseille","lat":43.29238,"lon":5.37563,"is_reserved":false,"is_disabled":false,"rental_uris":{"android":"levelo://app?vid=77d72656-ec37-44f1-ab2b-c05ee9e3e3e9","ios":"levelo://app?vid=77d72656-ec37-44f1-ab2b-c05ee9e3e3e9"},"vehicle_type_id":"4","last_reported":1740600648,"current_range_meters":6000,"station_id":"","pricing_plan_id":"cebpf4jnsgd1na2vs0mg"},{"bike_id":"cf3ab1f0-0123-4e26-8e4f-f65d17d40274","system_id":"levelo_inurba_marseille","lat":43.293,"lon":5.37158,"is_reserved":false,"is_disabled":false,"rental_uris":{"android":"levelo://app?vid=cf3ab1f0-0123-4e26-8e4f-f65d17d40274","ios":"levelo://app?vid=cf3ab1f0-0123-4e26-8e4f-f65d17d40274"},"vehicle_type_id":"4","last_reported":1740600648,"current_range_meters":6000,"station_id":"ce4bgh92rcd13ifvqb40","pricing_plan_id":"cebpf4jnsgd1na2vs0mg"},{"bike_id":"411b5315-e03f-43f4-b5cd-9f0caf8d3081","system_id":"levelo_inurba_marseille","lat":43.2319,"lon":5.3999,"is_reserved":false,"is_disabled":false,"rental_uris":{"android":"levelo://app?vid=411b5315-e03f-43f4-b5cd-9f0caf8d3081","ios":"levelo://app?vid=411b5315-e03f-43f4-b5cd-9f0caf8d3081"},"vehicle_type_id":"4","last_reported":1740600648,"current_range_meters":6400,"station_id":"ce4bhn12rcd13ifvqgqg","pricing_plan_id":"cebpf4jnsgd1na2vs0mg"},{"bike_id":"b1422999-51d3-43c1-a3a6-2d67039ffa02","system_id":"levelo_inurba_marseille","lat":43.27206,"lon":5.39181,"is_reserved":false,"is_disabled":false,"rental_uris":{"android":"levelo://app?vid=b1422999-51d3-43c1-a3a6-2d67039ffa02","ios":"levelo://app?vid=b1422999-51d3-43c1-a3a6-2d67039ffa02"},"vehicle_type_id":"4","last_reported":1740600648,"current_range_meters":5600,"station_id":"ce4bhhp2rcd13ifvqfm0","pricing_plan_id":"cebpf4jnsgd1na2vs0mg"},{"bike_id":"1cf1ec02-40f9-4368-a950-dc33269bfa18","system_id":"levelo_inurba_marseille","lat":43.33043,"lon":5.39021,"is_reserved":false,"is_disabled":false,"rental_uris":{"android":"levelo://app?vid=1cf1ec02-40f9-4368-a950-dc33269bfa18","ios":"levelo://app?vid=1cf1ec02-40f9-4368-a950-dc33269bfa18"},"vehicle_type_id":"4","last_reported":1740600648,"current_range_meters":6000,"station_id":"ce4bhr92rcd13ifvqhrg","pricing_plan_id":"cebpf4jnsgd1na2vs0mg"},{"bike_id":"09d061ec-336d-425e-9e7b-aa465df14384","system_id":"levelo_inurba_marseille","lat":43.31068,"lon":5.38377,"is_reserved":false,"is_disabled":false,"rental_uris":{"android":"levelo://app?vid=09d061ec-336d-425e-9e7b-aa465df14384","ios":"levelo://app?vid=09d061ec-336d-425e-9e7b-aa465df14384"},"vehicle_type_id":"4","last_reported":1740600648,"current_range_meters":6400,"station_id":"ce4bgv92rcd13ifvqcr0","pricing_plan_id":"cebpf4jnsgd1na2vs0mg"},{"bike_id":"cd10686f-c971-4b3f-932b-0955ecbea819","system_id":"levelo_inurba_marseille","lat":43.29283,"lon":5.38414,"is_reserved":false,"is_disabled":false,"rental_uris":{"android":"levelo://app?vid=cd10686f-c971-4b3f-932b-0955ecbea819","ios":"levelo://app?vid=cd10686f-c971-4b3f-932b-0955ecbea819"},"vehicle_type_id":"4","last_reported":1740600648,"current_range_meters":6800,"station_id":"ce4bh692rcd13ifvqea0","pricing_plan_id":"cebpf4jnsgd1na2vs0mg"},{"bike_id":"d5e8cc27-3497-44c3-9323-2ed745fdeb66","system_id":"levelo_inurba_marseille","lat":43.29261,"lon":5.38435,"is_reserved":false,"is_disabled":false,"rental_uris":{"android":"levelo://app?vid=d5e8cc27-3497-44c3-9323-2ed745fdeb66","ios":"levelo://app?vid=d5e8cc27-3497-44c3-9323-2ed745fdeb66"},"vehicle_type_id":"4","last_reported":1740600648,"current_range_meters":6400,"station_id":"ce4bh692rcd13ifvqea0","pricing_plan_id":"cebpf4jnsgd1na2vs0mg"},{"bike_id":"345a2a27-d318-4432-ac2a-158311af24ed","system_id":"levelo_inurba_marseille","lat":43.29784,"lon":5.39337,"is_reserved":false,"is_disabled":false,"rental_uris":{"android":"levelo://app?vid=345a2a27-d318-4432-ac2a-158311af24ed","ios":"levelo://app?vid=345a2a27-d318-4432-ac2a-158311af24ed"},"vehicle_type_id":"4","last_reported":1740600648,"current_range_meters":6400,"station_id":"chh1huq6cuj3fo74tm60","pricing_plan_id":"cebpf4jnsgd1na2vs0mg"},{"bike_id":"671a7762-18bf-47ad-beba-e6ea5f5872c9","system_id":"levelo_inurba_marseille","lat":43.29779,"lon":5.39335,"is_reserved":false,"is_disabled":false,"rental_uris":{"android":"levelo://app?vid=671a7762-18bf-47ad-beba-e6ea5f5872c9","ios":"levelo://app?vid=671a7762-18bf-47ad-beba-e6ea5f5872c9"},"vehicle_type_id":"4","last_reported":1740600648,"current_range_meters":6400,"station_id":"chh1huq6cuj3fo74tm60","pricing_plan_id":"cebpf4jnsgd1na2vs0mg"},{"bike_id":"39c490fa-7a92-47db-bc32-fe7f8b3890e2","system_id":"levelo_inurba_marseille","lat":43.29273,"lon":5.36841,"is_reserved":false,"is_disabled":true,"rental_uris":{"android":"levelo://app?vid=39c490fa-7a92-47db-bc32-fe7f8b3890e2","ios":"levelo://app?vid=39c490fa-7a92-47db-bc32-fe7f8b3890e2"},"vehicle_type_id":"4","last_reported":1740600648,"current_range_meters":6400,"station_id":"ce4bhbp2rcd13ifvqesg","pricing_plan_id":"cebpf4jnsgd1na2vs0mg"},{"bike_id":"4b7a4017-5f70-41cb-99f3-9671829aab0a","system_id":"levelo_inurba_marseille","lat":43.28463,"lon":5.35882,"is_reserved":false,"is_disabled":false,"rental_uris":{"android":"levelo://app?vid=4b7a4017-5f70-41cb-99f3-9671829aab0a","ios":"levelo://app?vid=4b7a4017-5f70-41cb-99f3-9671829aab0a"},"vehicle_type_id":"4","last_reported":1740600648,"current_range_meters":6800,"station_id":"ce4bhah2rcd13ifvqei0","pricing_plan_id":"cebpf4jnsgd1na2vs0mg"},{"bike_id":"53b168fc-afa9-465a-89bf-9c7f9c71c224","system_id":"levelo_inurba_marseille","lat":43.23135,"lon":5.43749,"is_reserved":false,"is_disabled":false,"rental_uris":{"android":"levelo://app?vid=53b168fc-afa9-465a-89bf-9c7f9c71c224","ios":"levelo://app?vid=53b168fc-afa9-465a-89bf-9c7f9c71c224"},"vehicle_type_id":"4","last_reported":1740600648,"current_range_meters":6800,"station_id":"ce4bhmp2rcd13ifvqgog","pricing_plan_id":"cebpf4jnsgd1na2vs0mg"},{"bike_id":"7c95904b-ee6c-442a-a902-49c0c9d387e4","system_id":"levelo_inurba_marseille","lat":43.24404,"lon":5.3705,"is_reserved":false,"is_disabled":false,"rental_uris":{"android":"levelo://app?vid=7c95904b-ee6c-442a-a902-49c0c9d387e4","ios":"levelo://app?vid=7c95904b-ee6c-442a-a902-49c0c9d387e4"},"vehicle_type_id":"4","last_reported":1740600648,"current_range_meters":6800,"station_id":"ce4bhhh2rcd13ifvqfk0","pricing_plan_id":"cebpf4jnsgd1na2vs0mg"},{"bike_id":"274a0001-6316-4453-9c79-e95591e69152","system_id":"levelo_inurba_marseille","lat":43.31892,"lon":5.40749,"is_reserved":false,"is_disabled":false,"rental_uris":{"android":"levelo://app?vid=274a0001-6316-4453-9c79-e95591e69152","ios":"levelo://app?vid=274a0001-6316-4453-9c79-e95591e69152"},"vehicle_type_id":"4","last_reported":1740600648,"current_range_meters":6800,"station_id":"ce4bhq12rcd13ifvqhig","pricing_plan_id":"cebpf4jnsgd1na2vs0mg"},{"bike_id":"fc38769d-8972-45e8-a6cd-3b4041631a40","system_id":"levelo_inurba_marseille","lat":43.31276,"lon":5.40174,"is_reserved":false,"is_disabled":false,"rental_uris":{"android":"levelo://app?vid=fc38769d-8972-45e8-a6cd-3b4041631a40","ios":"levelo://app?vid=fc38769d-8972-45e8-a6cd-3b4041631a40"},"vehicle_type_id":"4","last_reported":1740600648,"current_range_meters":6800,"station_id":"ce4bh092rcd13ifvqd30","pricing_plan_id":"cebpf4jnsgd1na2vs0mg"},{"bike_id":"1e391ff2-f727-425b-ab9a-69cb18862161","system_id":"levelo_inurba_marseille","lat":43.32365,"lon":5.38883,"is_reserved":false,"is_disabled":false,"rental_uris":{"android":"levelo://app?vid=1e391ff2-f727-425b-ab9a-69cb18862161","ios":"levelo://app?vid=1e391ff2-f727-425b-ab9a-69cb18862161"},"vehicle_type_id":"4","last_reported":1740600648,"current_range_meters":6800,"station_id":"ce4bhqp2rcd13ifvqhog","pricing_plan_id":"cebpf4jnsgd1na2vs0mg"},{"bike_id":"b99ec3be-2984-4ff0-ad0d-9d6a054c811c","system_id":"levelo_inurba_marseille","lat":43.30644,"lon":5.40068,"is_reserved":false,"is_disabled":false,"rental_uris":{"android":"levelo://app?vid=b99ec3be-2984-4ff0-ad0d-9d6a054c811c","ios":"levelo://app?vid=b99ec3be-2984-4ff0-ad0d-9d6a054c811c"},"vehicle_type_id":"4","last_reported":1740600648,"current_range_meters":4000,"station_id":"ce4bh112rcd13ifvqda0","pricing_plan_id":"cebpf4jnsgd1na2vs0mg"},{"bike_id":"68db716c-6572-40ea-b079-987ee4623b4d","system_id":"levelo_inurba_marseille","lat":43.26873,"lon":5.4094,"is_reserved":false,"is_disabled":false,"rental_uris":{"android":"levelo://app?vid=68db716c-6572-40ea-b079-987ee4623b4d","ios":"levelo://app?vid=68db716c-6572-40ea-b079-987ee4623b4d"},"vehicle_type_id":"4","last_reported":1740600648,"current_range_meters":7200,"station_id":"","pricing_plan_id":"cebpf4jnsgd1na2vs0mg"},{"bike_id":"5f8aceff-c443-40b0-a9ac-6e840ab57a6d","system_id":"levelo_inurba_marseille","lat":43.293671,"lon":5.378474,"is_reserved":false,"is_disabled":false,"rental_uris":{"android":"levelo://app?vid=5f8aceff-c443-40b0-a9ac-6e840ab57a6d","ios":"levelo://app?vid=5f8aceff-c443-40b0-a9ac-6e840ab57a6d"},"vehicle_type_id":"4","last_reported":1740600648,"current_range_meters":4400,"station_id":"ce4bh4p2rcd13ifvqe1g","pricing_plan_id":"cebpf4jnsgd1na2vs0mg"},{"bike_id":"c52cb992-57cd-481f-9732-07bb7645a69a","system_id":"levelo_inurba_marseille","lat":43.30808,"lon":5.38145,"is_reserved":false,"is_disabled":false,"rental_uris":{"android":"levelo://app?vid=c52cb992-57cd-481f-9732-07bb7645a69a","ios":"levelo://app?vid=c52cb992-57cd-481f-9732-07bb7645a69a"},"vehicle_type_id":"4","last_reported":1740600648,"current_range_meters":4000,"station_id":"ce4bgt12rcd13ifvqce0","pricing_plan_id":"cebpf4jnsgd1na2vs0mg"},{"bike_id":"64d1dcdb-2974-4aea-a074-f7aa761c6db6","system_id":"levelo_inurba_marseille","lat":43.25089,"lon":5.41068,"is_reserved":false,"is_disabled":false,"rental_uris":{"android":"levelo://app?vid=64d1dcdb-2974-4aea-a074-f7aa761c6db6","ios":"levelo://app?vid=64d1dcdb-2974-4aea-a074-f7aa761c6db6"},"vehicle_type_id":"4","last_reported":1740600648,"current_range_meters":8000,"station_id":"","pricing_plan_id":"cebpf4jnsgd1na2vs0mg"},{"bike_id":"7c36a674-7382-4bc3-b1dd-6590ec980661","system_id":"levelo_inurba_marseille","lat":43.28669,"lon":5.36354,"is_reserved":false,"is_disabled":false,"rental_uris":{"android":"levelo://app?vid=7c36a674-7382-4bc3-b1dd-6590ec980661","ios":"levelo://app?vid=7c36a674-7382-4bc3-b1dd-6590ec980661"},"vehicle_type_id":"4","last_reported":1740600648,"current_range_meters":8000,"station_id":"ce4bhah2rcd13ifvqej0","pricing_plan_id":"cebpf4jnsgd1na2vs0mg"},{"bike_id":"8a62c3a8-af16-4093-898f-393ba99441e2","system_id":"levelo_inurba_marseille","lat":43.32343,"lon":5.40616,"is_reserved":false,"is_disabled":false,"rental_uris":{"android":"levelo://app?vid=8a62c3a8-af16-4093-898f-393ba99441e2","ios":"levelo://app?vid=8a62c3a8-af16-4093-898f-393ba99441e2"},"vehicle_type_id":"4","last_reported":1740600648,"current_range_meters":8000,"station_id":"ce4bhq92rcd13ifvqhjg","pricing_plan_id":"cebpf4jnsgd1na2vs0mg"},{"bike_id":"5c47d4c3-83ff-4b25-91fb-a87385c61f6a","system_id":"levelo_inurba_marseille","lat":43.31712,"lon":5.43679,"is_reserved":false,"is_disabled":false,"rental_uris":{"android":"levelo://app?vid=5c47d4c3-83ff-4b25-91fb-a87385c61f6a","ios":"levelo://app?vid=5c47d4c3-83ff-4b25-91fb-a87385c61f6a"},"vehicle_type_id":"4","last_reported":1740600648,"current_range_meters":8000,"station_id":"ce4bhp92rcd13ifvqhcg","pricing_plan_id":"cebpf4jnsgd1na2vs0mg"},{"bike_id":"e80aada6-8a51-4d84-89a9-f7834d4683b3","system_id":"levelo_inurba_marseille","lat":43.28149,"lon":5.42644,"is_reserved":false,"is_disabled":false,"rental_uris":{"android":"levelo://app?vid=e80aada6-8a51-4d84-89a9-f7834d4683b3","ios":"levelo://app?vid=e80aada6-8a51-4d84-89a9-f7834d4683b3"},"vehicle_type_id":"4","last_reported":1740600648,"current_range_meters":8000,"station_id":"ce4bhnh2rcd13ifvqgug","pricing_plan_id":"cebpf4jnsgd1na2vs0mg"},{"bike_id":"6f919063-e13f-432d-8c87-9b4ea48dcb4d","system_id":"levelo_inurba_marseille","lat":43.2894,"lon":5.36642,"is_reserved":false,"is_disabled":false,"rental_uris":{"android":"levelo://app?vid=6f919063-e13f-432d-8c87-9b4ea48dcb4d","ios":"levelo://app?vid=6f919063-e13f-432d-8c87-9b4ea48dcb4d"},"vehicle_type_id":"4","last_reported":1740600648,"current_range_meters":8000,"station_id":"ce4bhap2rcd13ifvqek0","pricing_plan_id":"cebpf4jnsgd1na2vs0mg"},{"bike_id":"ae9e9ca0-46c1-4d44-8c89-9b22663cf71c","system_id":"levelo_inurba_marseille","lat":43.24384,"lon":5.37064,"is_reserved":false,"is_disabled":false,"rental_uris":{"android":"levelo://app?vid=ae9e9ca0-46c1-4d44-8c89-9b22663cf71c","ios":"levelo://app?vid=ae9e9ca0-46c1-4d44-8c89-9b22663cf71c"},"vehicle_type_id":"4","last_reported":1740600648,"current_range_meters":8000,"station_id":"ce4bhhh2rcd13ifvqfk0","pricing_plan_id":"cebpf4jnsgd1na2vs0mg"},{"bike_id":"8f4f5c61-91cc-4fd5-85ad-d5b23eff483d","system_id":"levelo_inurba_marseille","lat":43.29663,"lon":5.36254,"is_reserved":false,"is_disabled":false,"rental_uris":{"android":"levelo://app?vid=8f4f5c61-91cc-4fd5-85ad-d5b23eff483d","ios":"levelo://app?vid=8f4f5c61-91cc-4fd5-85ad-d5b23eff483d"},"vehicle_type_id":"4","last_reported":1740600648,"current_range_meters":8000,"station_id":"","pricing_plan_id":"cebpf4jnsgd1na2vs0mg"},{"bike_id":"37e99989-7bc5-4327-b075-6f578166a871","system_id":"levelo_inurba_marseille","lat":43.31326,"lon":5.39694,"is_reserved":false,"is_disabled":false,"rental_uris":{"android":"levelo://app?vid=37e99989-7bc5-4327-b075-6f578166a871","ios":"levelo://app?vid=37e99989-7bc5-4327-b075-6f578166a871"},"vehicle_type_id":"4","last_reported":1740600648,"current_range_meters":8000,"station_id":"ce4bgvp2rcd13ifvqcu0","pricing_plan_id":"cebpf4jnsgd1na2vs0mg"},{"bike_id":"a7ed6a95-7b5c-4e93-9ca2-524d82ab9b62","system_id":"levelo_inurba_marseille","lat":43.29774,"lon":5.38135,"is_reserved":false,"is_disabled":false,"rental_uris":{"android":"levelo://app?vid=a7ed6a95-7b5c-4e93-9ca2-524d82ab9b62","ios":"levelo://app?vid=a7ed6a95-7b5c-4e93-9ca2-524d82ab9b62"},"vehicle_type_id":"4","last_reported":1740600648,"current_range_meters":8400,"station_id":"ce4bgip2rcd13ifvqbb0","pricing_plan_id":"cebpf4jnsgd1na2vs0mg"},{"bike_id":"6a026966-e923-4ba0-b0e4-e63a63f7d54f","system_id":"levelo_inurba_marseille","lat":43.29426,"lon":5.38621,"is_reserved":false,"is_disabled":false,"rental_uris":{"android":"levelo://app?vid=6a026966-e923-4ba0-b0e4-e63a63f7d54f","ios":"levelo://app?vid=6a026966-e923-4ba0-b0e4-e63a63f7d54f"},"vehicle_type_id":"4","last_reported":1740600648,"current_range_meters":8400,"station_id":"ce4bh2h2rcd13ifvqdh0","pricing_plan_id":"cebpf4jnsgd1na2vs0mg"},{"bike_id":"54aec3fc-770c-4db3-813b-0f7bdd71d2f6","system_id":"levelo_inurba_marseille","lat":43.28561,"lon":5.39478,"is_reserved":false,"is_disabled":false,"rental_uris":{"android":"levelo://app?vid=54aec3fc-770c-4db3-813b-0f7bdd71d2f6","ios":"levelo://app?vid=54aec3fc-770c-4db3-813b-0f7bdd71d2f6"},"vehicle_type_id":"4","last_reported":1740600648,"current_range_meters":8400,"station_id":"ce4bh292rcd13ifvqdg0","pricing_plan_id":"cebpf4jnsgd1na2vs0mg"},{"bike_id":"26d1edd1-2a52-428c-b2a6-7dd75e71037c","system_id":"levelo_inurba_marseille","lat":43.286195,"lon":5.351078,"is_reserved":false,"is_disabled":false,"rental_uris":{"android":"levelo://app?vid=26d1edd1-2a52-428c-b2a6-7dd75e71037c","ios":"levelo://app?vid=26d1edd1-2a52-428c-b2a6-7dd75e71037c"},"vehicle_type_id":"4","last_reported":1740600648,"current_range_meters":8400,"station_id":"ce4bhch2rcd13ifvqeug","pricing_plan_id":"cebpf4jnsgd1na2vs0mg"},{"bike_id":"b156e998-d6d4-4844-95a7-fdc37eed401c","system_id":"levelo_inurba_marseille","lat":43.28424,"lon":5.349877,"is_reserved":false,"is_disabled":false,"rental_uris":{"android":"levelo://app?vid=b156e998-d6d4-4844-95a7-fdc37eed401c","ios":"levelo://app?vid=b156e998-d6d4-4844-95a7-fdc37eed401c"},"vehicle_type_id":"4","last_reported":1740600648,"current_range_meters":8400,"station_id":"ce4bhbh2rcd13ifvqepg","pricing_plan_id":"cebpf4jnsgd1na2vs0mg"},{"bike_id":"c6fa545f-2198-4c3a-b784-f5770fc48525","system_id":"levelo_inurba_marseille","lat":43.29254,"lon":5.38442,"is_reserved":false,"is_disabled":false,"rental_uris":{"android":"levelo://app?vid=c6fa545f-2198-4c3a-b784-f5770fc48525","ios":"levelo://app?vid=c6fa545f-2198-4c3a-b784-f5770fc48525"},"vehicle_type_id":"4","last_reported":1740600648,"current_range_meters":8400,"station_id":"ce4bh692rcd13ifvqea0","pricing_plan_id":"cebpf4jnsgd1na2vs0mg"},{"bike_id":"dc784251-4aa0-493c-9bc5-5c82436f92a9","system_id":"levelo_inurba_marseille","lat":43.30794,"lon":5.38182,"is_reserved":false,"is_disabled":false,"rental_uris":{"android":"levelo://app?vid=dc784251-4aa0-493c-9bc5-5c82436f92a9","ios":"levelo://app?vid=dc784251-4aa0-493c-9bc5-5c82436f92a9"},"vehicle_type_id":"4","last_reported":1740600648,"current_range_meters":8400,"station_id":"ce4bgt12rcd13ifvqce0","pricing_plan_id":"cebpf4jnsgd1na2vs0mg"},{"bike_id":"eddb909d-bf4a-4d76-a25a-7ebf4e498d1f","system_id":"levelo_inurba_marseille","lat":43.2439,"lon":5.37055,"is_reserved":false,"is_disabled":false,"rental_uris":{"android":"levelo://app?vid=eddb909d-bf4a-4d76-a25a-7ebf4e498d1f","ios":"levelo://app?vid=eddb909d-bf4a-4d76-a25a-7ebf4e498d1f"},"vehicle_type_id":"4","last_reported":1740600648,"current_range_meters":8400,"station_id":"ce4bhhh2rcd13ifvqfk0","pricing_plan_id":"cebpf4jnsgd1na2vs0mg"},{"bike_id":"a18d2462-6430-4fa5-8ce7-637ac348b4cd","system_id":"levelo_inurba_marseille","lat":43.27954,"lon":5.41052,"is_reserved":false,"is_disabled":false,"rental_uris":{"android":"levelo://app?vid=a18d2462-6430-4fa5-8ce7-637ac348b4cd","ios":"levelo://app?vid=a18d2462-6430-4fa5-8ce7-637ac348b4cd"},"vehicle_type_id":"4","last_reported":1740600648,"current_range_meters":8400,"station_id":"ce4bhnp2rcd13ifvqh0g","pricing_plan_id":"cebpf4jnsgd1na2vs0mg"},{"bike_id":"749b8865-8421-4153-8fd1-9d77ec509272","system_id":"levelo_inurba_marseille","lat":43.2885,"lon":5.36358,"is_reserved":false,"is_disabled":false,"rental_uris":{"android":"levelo://app?vid=749b8865-8421-4153-8fd1-9d77ec509272","ios":"levelo://app?vid=749b8865-8421-4153-8fd1-9d77ec509272"},"vehicle_type_id":"4","last_reported":1740600648,"current_range_meters":8400,"station_id":"","pricing_plan_id":"cebpf4jnsgd1na2vs0mg"},{"bike_id":"6b286004-f086-4023-9675-02a95f8e917b","system_id":"levelo_inurba_marseille","lat":43.30965,"lon":5.39052,"is_reserved":false,"is_disabled":true,"rental_uris":{"android":"levelo://app?vid=6b286004-f086-4023-9675-02a95f8e917b","ios":"levelo://app?vid=6b286004-f086-4023-9675-02a95f8e917b"},"vehicle_type_id":"4","last_reported":1740600648,"current_range_meters":8800,"station_id":"ce4bgup2rcd13ifvqco0","pricing_plan_id":"cebpf4jnsgd1na2vs0mg"},{"bike_id":"b007f058-4163-4bbe-ba13-50835769bd43","system_id":"levelo_inurba_marseille","lat":43.31717,"lon":5.43703,"is_reserved":false,"is_disabled":false,"rental_uris":{"android":"levelo://app?vid=b007f058-4163-4bbe-ba13-50835769bd43","ios":"levelo://app?vid=b007f058-4163-4bbe-ba13-50835769bd43"},"vehicle_type_id":"4","last_reported":1740600648,"current_range_meters":8800,"station_id":"ce4bhp92rcd13ifvqhcg","pricing_plan_id":"cebpf4jnsgd1na2vs0mg"},{"bike_id":"57772caa-8ab8-4428-afea-3c045597a429","system_id":"levelo_inurba_marseille","lat":43.30549,"lon":5.38439,"is_reserved":false,"is_disabled":true,"rental_uris":{"android":"levelo://app?vid=57772caa-8ab8-4428-afea-3c045597a429","ios":"levelo://app?vid=57772caa-8ab8-4428-afea-3c045597a429"},"vehicle_type_id":"4","last_reported":1740600648,"current_range_meters":8800,"station_id":"ce4bgg92rcd13ifvqb30","pricing_plan_id":"cebpf4jnsgd1na2vs0mg"},{"bike_id":"e7e7027c-2ea3-4f62-b0fe-1687b5820395","system_id":"levelo_inurba_marseille","lat":43.28461,"lon":5.35888,"is_reserved":false,"is_disabled":false,"rental_uris":{"android":"levelo://app?vid=e7e7027c-2ea3-4f62-b0fe-1687b5820395","ios":"levelo://app?vid=e7e7027c-2ea3-4f62-b0fe-1687b5820395"},"vehicle_type_id":"4","last_reported":1740600648,"current_range_meters":8800,"station_id":"ce4bhah2rcd13ifvqei0","pricing_plan_id":"cebpf4jnsgd1na2vs0mg"},{"bike_id":"d66c4c2f-8a7c-42b3-8adc-6056e6aa3202","system_id":"levelo_inurba_marseille","lat":43.30891,"lon":5.39659,"is_reserved":false,"is_disabled":false,"rental_uris":{"android":"levelo://app?vid=d66c4c2f-8a7c-42b3-8adc-6056e6aa3202","ios":"levelo://app?vid=d66c4c2f-8a7c-42b3-8adc-6056e6aa3202"},"vehicle_type_id":"4","last_reported":1740600648,"current_range_meters":9200,"station_id":"ce4bh012rcd13ifvqcv0","pricing_plan_id":"cebpf4jnsgd1na2vs0mg"},{"bike_id":"719baaea-c293-42a3-a0f8-1e9953de7b58","system_id":"levelo_inurba_marseille","lat":43.26562,"lon":5.3901,"is_reserved":false,"is_disabled":true,"rental_uris":{"android":"levelo://app?vid=719baaea-c293-42a3-a0f8-1e9953de7b58","ios":"levelo://app?vid=719baaea-c293-42a3-a0f8-1e9953de7b58"},"vehicle_type_id":"4","last_reported":1740600648,"current_range_meters":9200,"station_id":"ce4bhe12rcd13ifvqf30","pricing_plan_id":"cebpf4jnsgd1na2vs0mg"},{"bike_id":"4264f8fd-9c14-4e0f-aea5-927f677b14c4","system_id":"levelo_inurba_marseille","lat":43.29195,"lon":5.39319,"is_reserved":false,"is_disabled":false,"rental_uris":{"android":"levelo://app?vid=4264f8fd-9c14-4e0f-aea5-927f677b14c4","ios":"levelo://app?vid=4264f8fd-9c14-4e0f-aea5-927f677b14c4"},"vehicle_type_id":"4","last_reported":1740600648,"current_range_meters":400,"station_id":"ce4bh192rcd13ifvqdd0","pricing_plan_id":"cebpf4jnsgd1na2vs0mg"},{"bike_id":"1a7a0729-e98b-42d3-b72a-70efa2fa009a","system_id":"levelo_inurba_marseille","lat":43.28106,"lon":5.37822,"is_reserved":false,"is_disabled":false,"rental_uris":{"android":"levelo://app?vid=1a7a0729-e98b-42d3-b72a-70efa2fa009a","ios":"levelo://app?vid=1a7a0729-e98b-42d3-b72a-70efa2fa009a"},"vehicle_type_id":"4","last_reported":1740600648,"current_range_meters":8800,"station_id":"ce4bha12rcd13ifvqee0","pricing_plan_id":"cebpf4jnsgd1na2vs0mg"},{"bike_id":"406eb12e-9ab3-4a76-9ae1-a4c0b76467a6","system_id":"levelo_inurba_marseille","lat":43.29536,"lon":5.39023,"is_reserved":false,"is_disabled":false,"rental_uris":{"android":"levelo://app?vid=406eb12e-9ab3-4a76-9ae1-a4c0b76467a6","ios":"levelo://app?vid=406eb12e-9ab3-4a76-9ae1-a4c0b76467a6"},"vehicle_type_id":"4","last_reported":1740600648,"current_range_meters":9600,"station_id":"ce4bh3p2rcd13ifvqdp0","pricing_plan_id":"cebpf4jnsgd1na2vs0mg"},{"bike_id":"fc93982a-7dca-4c19-864e-f8bd7ae4048b","system_id":"levelo_inurba_marseille","lat":43.31113,"lon":5.37768,"is_reserved":false,"is_disabled":false,"rental_uris":{"android":"levelo://app?vid=fc93982a-7dca-4c19-864e-f8bd7ae4048b","ios":"levelo://app?vid=fc93982a-7dca-4c19-864e-f8bd7ae4048b"},"vehicle_type_id":"4","last_reported":1740600648,"current_range_meters":4000,"station_id":"ce4bgt92rcd13ifvqcg0","pricing_plan_id":"cebpf4jnsgd1na2vs0mg"},{"bike_id":"52a02ec7-8e0c-4781-ae9b-a63b7edaabaf","system_id":"levelo_inurba_marseille","lat":43.28273,"lon":5.35086,"is_reserved":false,"is_disabled":false,"rental_uris":{"android":"levelo://app?vid=52a02ec7-8e0c-4781-ae9b-a63b7edaabaf","ios":"levelo://app?vid=52a02ec7-8e0c-4781-ae9b-a63b7edaabaf"},"vehicle_type_id":"4","last_reported":1740600648,"current_range_meters":10000,"station_id":"ce4bhbp2rcd13ifvqerg","pricing_plan_id":"cebpf4jnsgd1na2vs0mg"},{"bike_id":"be819727-7666-46d1-a076-c2f35caa7be9","system_id":"levelo_inurba_marseille","lat":43.30655,"lon":5.40105,"is_reserved":false,"is_disabled":false,"rental_uris":{"android":"levelo://app?vid=be819727-7666-46d1-a076-c2f35caa7be9","ios":"levelo://app?vid=be819727-7666-46d1-a076-c2f35caa7be9"},"vehicle_type_id":"4","last_reported":1740600648,"current_range_meters":10000,"station_id":"ce4bh112rcd13ifvqda0","pricing_plan_id":"cebpf4jnsgd1na2vs0mg"},{"bike_id":"abca7d8c-3ea1-47f9-b791-a0deee4597a3","system_id":"levelo_inurba_marseille","lat":43.28688,"lon":5.3867,"is_reserved":false,"is_disabled":false,"rental_uris":{"android":"levelo://app?vid=abca7d8c-3ea1-47f9-b791-a0deee4597a3","ios":"levelo://app?vid=abca7d8c-3ea1-47f9-b791-a0deee4597a3"},"vehicle_type_id":"4","last_reported":1740600648,"current_range_meters":9600,"station_id":"ce4bh492rcd13ifvqdug","pricing_plan_id":"cebpf4jnsgd1na2vs0mg"},{"bike_id":"cc0f0a33-8776-49b0-b177-6d3fba0c78fd","system_id":"levelo_inurba_marseille","lat":43.31329,"lon":5.39692,"is_reserved":false,"is_disabled":false,"rental_uris":{"android":"levelo://app?vid=cc0f0a33-8776-49b0-b177-6d3fba0c78fd","ios":"levelo://app?vid=cc0f0a33-8776-49b0-b177-6d3fba0c78fd"},"vehicle_type_id":"4","last_reported":1740600648,"current_range_meters":9600,"station_id":"ce4bgvp2rcd13ifvqcu0","pricing_plan_id":"cebpf4jnsgd1na2vs0mg"},{"bike_id":"b983d621-06d1-4a23-a18d-766fc62bb8c7","system_id":"levelo_inurba_marseille","lat":43.28155,"lon":5.42648,"is_reserved":false,"is_disabled":false,"rental_uris":{"android":"levelo://app?vid=b983d621-06d1-4a23-a18d-766fc62bb8c7","ios":"levelo://app?vid=b983d621-06d1-4a23-a18d-766fc62bb8c7"},"vehicle_type_id":"4","last_reported":1740600648,"current_range_meters":9600,"station_id":"ce4bhnh2rcd13ifvqgug","pricing_plan_id":"cebpf4jnsgd1na2vs0mg"},{"bike_id":"692705f3-2190-4c8f-bba8-623114f168d1","system_id":"levelo_inurba_marseille","lat":43.29041,"lon":5.37562,"is_reserved":false,"is_disabled":false,"rental_uris":{"android":"levelo://app?vid=692705f3-2190-4c8f-bba8-623114f168d1","ios":"levelo://app?vid=692705f3-2190-4c8f-bba8-623114f168d1"},"vehicle_type_id":"4","last_reported":1740600648,"current_range_meters":9600,"station_id":"ce4bh692rcd13ifvqe90","pricing_plan_id":"cebpf4jnsgd1na2vs0mg"},{"bike_id":"3e708db2-576c-4a83-90c2-c4f3b3b880f2","system_id":"levelo_inurba_marseille","lat":43.2512,"lon":5.40312,"is_reserved":false,"is_disabled":false,"rental_uris":{"android":"levelo://app?vid=3e708db2-576c-4a83-90c2-c4f3b3b880f2","ios":"levelo://app?vid=3e708db2-576c-4a83-90c2-c4f3b3b880f2"},"vehicle_type_id":"4","last_reported":1740600648,"current_range_meters":14800,"station_id":"ce4bhlh2rcd13ifvqgig","pricing_plan_id":"cebpf4jnsgd1na2vs0mg"},{"bike_id":"f9eed1e4-1895-44e2-8624-cc9551693ed5","system_id":"levelo_inurba_marseille","lat":43.29879,"lon":5.36264,"is_reserved":false,"is_disabled":false,"rental_uris":{"android":"levelo://app?vid=f9eed1e4-1895-44e2-8624-cc9551693ed5","ios":"levelo://app?vid=f9eed1e4-1895-44e2-8624-cc9551693ed5"},"vehicle_type_id":"4","last_reported":1740600648,"current_range_meters":10000,"station_id":"ce4bgpp2rcd13ifvqc3g","pricing_plan_id":"cebpf4jnsgd1na2vs0mg"},{"bike_id":"1e37517c-7c13-497e-93a6-2c0209fd3d04","system_id":"levelo_inurba_marseille","lat":43.2863,"lon":5.3511,"is_reserved":false,"is_disabled":false,"rental_uris":{"android":"levelo://app?vid=1e37517c-7c13-497e-93a6-2c0209fd3d04","ios":"levelo://app?vid=1e37517c-7c13-497e-93a6-2c0209fd3d04"},"vehicle_type_id":"4","last_reported":1740600648,"current_range_meters":10000,"station_id":"ce4bhch2rcd13ifvqeug","pricing_plan_id":"cebpf4jnsgd1na2vs0mg"},{"bike_id":"1d70c622-10e8-4a33-8612-a7dc67991c51","system_id":"levelo_inurba_marseille","lat":43.31689,"lon":5.37662,"is_reserved":false,"is_disabled":false,"rental_uris":{"android":"levelo://app?vid=1d70c622-10e8-4a33-8612-a7dc67991c51","ios":"levelo://app?vid=1d70c622-10e8-4a33-8612-a7dc67991c51"},"vehicle_type_id":"4","last_reported":1740600648,"current_range_meters":10000,"station_id":"ce4bgth2rcd13ifvqch0","pricing_plan_id":"cebpf4jnsgd1na2vs0mg"},{"bike_id":"36cf5870-6173-44e4-9009-2aa0943c3183","system_id":"levelo_inurba_marseille","lat":43.29779,"lon":5.37103,"is_reserved":false,"is_disabled":false,"rental_uris":{"android":"levelo://app?vid=36cf5870-6173-44e4-9009-2aa0943c3183","ios":"levelo://app?vid=36cf5870-6173-44e4-9009-2aa0943c3183"},"vehicle_type_id":"4","last_reported":1740600648,"current_range_meters":9600,"station_id":"ce4bgop2rcd13ifvqc1g","pricing_plan_id":"cebpf4jnsgd1na2vs0mg"},{"bike_id":"b3e62d70-5da9-4a62-bca1-32f5705dbcde","system_id":"levelo_inurba_marseille","lat":43.29514,"lon":5.39406,"is_reserved":false,"is_disabled":false,"rental_uris":{"android":"levelo://app?vid=b3e62d70-5da9-4a62-bca1-32f5705dbcde","ios":"levelo://app?vid=b3e62d70-5da9-4a62-bca1-32f5705dbcde"},"vehicle_type_id":"4","last_reported":1740600648,"current_range_meters":10000,"station_id":"ce4bh292rcd13ifvqdf0","pricing_plan_id":"cebpf4jnsgd1na2vs0mg"},{"bike_id":"ae2472fe-6e33-4854-bf66-0d5772a0bc9a","system_id":"levelo_inurba_marseille","lat":43.30097,"lon":5.3908,"is_reserved":false,"is_disabled":false,"rental_uris":{"android":"levelo://app?vid=ae2472fe-6e33-4854-bf66-0d5772a0bc9a","ios":"levelo://app?vid=ae2472fe-6e33-4854-bf66-0d5772a0bc9a"},"vehicle_type_id":"4","last_reported":1740600648,"current_range_meters":10000,"station_id":"ce4bh192rcd13ifvqdb0","pricing_plan_id":"cebpf4jnsgd1na2vs0mg"},{"bike_id":"7adec233-a05c-4987-b429-306f302068e8","system_id":"levelo_inurba_marseille","lat":43.29529,"lon":5.39407,"is_reserved":false,"is_disabled":false,"rental_uris":{"android":"levelo://app?vid=7adec233-a05c-4987-b429-306f302068e8","ios":"levelo://app?vid=7adec233-a05c-4987-b429-306f302068e8"},"vehicle_type_id":"4","last_reported":1740600648,"current_range_meters":10800,"station_id":"ce4bh292rcd13ifvqdf0","pricing_plan_id":"cebpf4jnsgd1na2vs0mg"},{"bike_id":"128d9f19-560e-4907-b2b5-99db2fe70c71","system_id":"levelo_inurba_marseille","lat":43.30642,"lon":5.40074,"is_reserved":false,"is_disabled":false,"rental_uris":{"android":"levelo://app?vid=128d9f19-560e-4907-b2b5-99db2fe70c71","ios":"levelo://app?vid=128d9f19-560e-4907-b2b5-99db2fe70c71"},"vehicle_type_id":"4","last_reported":1740600648,"current_range_meters":10800,"station_id":"ce4bh112rcd13ifvqda0","pricing_plan_id":"cebpf4jnsgd1na2vs0mg"},{"bike_id":"2d702097-88b5-468f-b2af-8d8d9627a684","system_id":"levelo_inurba_marseille","lat":43.30592,"lon":5.37229,"is_reserved":false,"is_disabled":false,"rental_uris":{"android":"levelo://app?vid=2d702097-88b5-468f-b2af-8d8d9627a684","ios":"levelo://app?vid=2d702097-88b5-468f-b2af-8d8d9627a684"},"vehicle_type_id":"4","last_reported":1740600648,"current_range_meters":10000,"station_id":"ce4bgqh2rcd13ifvqc4g","pricing_plan_id":"cebpf4jnsgd1na2vs0mg"},{"bike_id":"3e0c8d38-ca09-486f-9f84-8409d9a9b6f2","system_id":"levelo_inurba_marseille","lat":43.30322,"lon":5.40447,"is_reserved":false,"is_disabled":false,"rental_uris":{"android":"levelo://app?vid=3e0c8d38-ca09-486f-9f84-8409d9a9b6f2","ios":"levelo://app?vid=3e0c8d38-ca09-486f-9f84-8409d9a9b6f2"},"vehicle_type_id":"4","last_reported":1740600648,"current_range_meters":10800,"station_id":"ce4bh012rcd13ifvqd10","pricing_plan_id":"cebpf4jnsgd1na2vs0mg"},{"bike_id":"930e8c91-afc8-485c-88c1-5dd6f737e345","system_id":"levelo_inurba_marseille","lat":43.29238,"lon":5.3604,"is_reserved":false,"is_disabled":false,"rental_uris":{"android":"levelo://app?vid=930e8c91-afc8-485c-88c1-5dd6f737e345","ios":"levelo://app?vid=930e8c91-afc8-485c-88c1-5dd6f737e345"},"vehicle_type_id":"4","last_reported":1740600648,"current_range_meters":10800,"station_id":"ce4bhbh2rcd13ifvqeqg","pricing_plan_id":"cebpf4jnsgd1na2vs0mg"},{"bike_id":"1690cf1f-489e-42fe-b2b4-7448c418d56d","system_id":"levelo_inurba_marseille","lat":43.3202,"lon":5.38167,"is_reserved":false,"is_disabled":false,"rental_uris":{"android":"levelo://app?vid=1690cf1f-489e-42fe-b2b4-7448c418d56d","ios":"levelo://app?vid=1690cf1f-489e-42fe-b2b4-7448c418d56d"},"vehicle_type_id":"4","last_reported":1740600648,"current_range_meters":10800,"station_id":"ce4bhr12rcd13ifvqhpg","pricing_plan_id":"cebpf4jnsgd1na2vs0mg"},{"bike_id":"53f6206c-2750-42e7-a8f3-9533b6f35c4a","system_id":"levelo_inurba_marseille","lat":43.28606,"lon":5.35102,"is_reserved":false,"is_disabled":false,"rental_uris":{"android":"levelo://app?vid=53f6206c-2750-42e7-a8f3-9533b6f35c4a","ios":"levelo://app?vid=53f6206c-2750-42e7-a8f3-9533b6f35c4a"},"vehicle_type_id":"4","last_reported":1740600648,"current_range_meters":10800,"station_id":"ce4bhch2rcd13ifvqeug","pricing_plan_id":"cebpf4jnsgd1na2vs0mg"},{"bike_id":"aa1c1254-8b09-4cc6-908c-bacac335dd0d","system_id":"levelo_inurba_marseille","lat":43.24076,"lon":5.37736,"is_reserved":false,"is_disabled":false,"rental_uris":{"android":"levelo://app?vid=aa1c1254-8b09-4cc6-908c-bacac335dd0d","ios":"levelo://app?vid=aa1c1254-8b09-4cc6-908c-bacac335dd0d"},"vehicle_type_id":"4","last_reported":1740600648,"current_range_meters":11600,"station_id":"ce4bhnp2rcd13ifvqgvg","pricing_plan_id":"cebpf4jnsgd1na2vs0mg"},{"bike_id":"0675c01a-0eb8-4c4e-b36c-ccca8044c6d6","system_id":"levelo_inurba_marseille","lat":43.31693,"lon":5.37732,"is_reserved":false,"is_disabled":false,"rental_uris":{"android":"levelo://app?vid=0675c01a-0eb8-4c4e-b36c-ccca8044c6d6","ios":"levelo://app?vid=0675c01a-0eb8-4c4e-b36c-ccca8044c6d6"},"vehicle_type_id":"4","last_reported":1740600648,"current_range_meters":11200,"station_id":"ce4bgth2rcd13ifvqch0","pricing_plan_id":"cebpf4jnsgd1na2vs0mg"},{"bike_id":"0a64e61f-897c-4815-820c-abd46ad90ec9","system_id":"levelo_inurba_marseille","lat":43.29583,"lon":5.36747,"is_reserved":false,"is_disabled":false,"rental_uris":{"android":"levelo://app?vid=0a64e61f-897c-4815-820c-abd46ad90ec9","ios":"levelo://app?vid=0a64e61f-897c-4815-820c-abd46ad90ec9"},"vehicle_type_id":"4","last_reported":1740600648,"current_range_meters":11600,"station_id":"ce4bgph2rcd13ifvqc2g","pricing_plan_id":"cebpf4jnsgd1na2vs0mg"},{"bike_id":"1d603e55-5939-499f-95ae-55d30c9c2364","system_id":"levelo_inurba_marseille","lat":43.28143,"lon":5.42656,"is_reserved":false,"is_disabled":false,"rental_uris":{"android":"levelo://app?vid=1d603e55-5939-499f-95ae-55d30c9c2364","ios":"levelo://app?vid=1d603e55-5939-499f-95ae-55d30c9c2364"},"vehicle_type_id":"4","last_reported":1740600648,"current_range_meters":11600,"station_id":"ce4bhnh2rcd13ifvqgug","pricing_plan_id":"cebpf4jnsgd1na2vs0mg"},{"bike_id":"ad9571bc-5194-4f71-90ef-f1cb0835f36e","system_id":"levelo_inurba_marseille","lat":43.25502,"lon":5.37648,"is_reserved":false,"is_disabled":false,"rental_uris":{"android":"levelo://app?vid=ad9571bc-5194-4f71-90ef-f1cb0835f36e","ios":"levelo://app?vid=ad9571bc-5194-4f71-90ef-f1cb0835f36e"},"vehicle_type_id":"4","last_reported":1740600648,"current_range_meters":12000,"station_id":"ce4bhh12rcd13ifvqff0","pricing_plan_id":"cebpf4jnsgd1na2vs0mg"},{"bike_id":"a7791d15-770e-4fea-a2f7-660eb501014c","system_id":"levelo_inurba_marseille","lat":43.283988,"lon":5.375203,"is_reserved":false,"is_disabled":false,"rental_uris":{"android":"levelo://app?vid=a7791d15-770e-4fea-a2f7-660eb501014c","ios":"levelo://app?vid=a7791d15-770e-4fea-a2f7-660eb501014c"},"vehicle_type_id":"4","last_reported":1740600648,"current_range_meters":11600,"station_id":"ce4bgup2rcd13ifvqcn0","pricing_plan_id":"cebpf4jnsgd1na2vs0mg"},{"bike_id":"4a55367e-93a4-4ad3-bcb1-42567a1393b2","system_id":"levelo_inurba_marseille","lat":43.29229,"lon":5.36072,"is_reserved":false,"is_disabled":false,"rental_uris":{"android":"levelo://app?vid=4a55367e-93a4-4ad3-bcb1-42567a1393b2","ios":"levelo://app?vid=4a55367e-93a4-4ad3-bcb1-42567a1393b2"},"vehicle_type_id":"4","last_reported":1740600648,"current_range_meters":11600,"station_id":"ce4bhbh2rcd13ifvqeqg","pricing_plan_id":"cebpf4jnsgd1na2vs0mg"},{"bike_id":"7b33f413-8f08-43ef-9261-24eef4ff1549","system_id":"levelo_inurba_marseille","lat":43.239648,"lon":5.366326,"is_reserved":false,"is_disabled":false,"rental_uris":{"android":"levelo://app?vid=7b33f413-8f08-43ef-9261-24eef4ff1549","ios":"levelo://app?vid=7b33f413-8f08-43ef-9261-24eef4ff1549"},"vehicle_type_id":"4","last_reported":1740600648,"current_range_meters":11600,"station_id":"ce4bhi12rcd13ifvqfp0","pricing_plan_id":"cebpf4jnsgd1na2vs0mg"},{"bike_id":"36875ac8-6de8-4d51-a0b1-ad698d9672e5","system_id":"levelo_inurba_marseille","lat":43.31227,"lon":5.3687,"is_reserved":false,"is_disabled":false,"rental_uris":{"android":"levelo://app?vid=36875ac8-6de8-4d51-a0b1-ad698d9672e5","ios":"levelo://app?vid=36875ac8-6de8-4d51-a0b1-ad698d9672e5"},"vehicle_type_id":"4","last_reported":1740600648,"current_range_meters":11200,"station_id":"ce4bgl92rcd13ifvqbq0","pricing_plan_id":"cebpf4jnsgd1na2vs0mg"},{"bike_id":"8499335b-1f69-46ce-b2b8-b33648ef3191","system_id":"levelo_inurba_marseille","lat":43.30881,"lon":5.3964,"is_reserved":false,"is_disabled":false,"rental_uris":{"android":"levelo://app?vid=8499335b-1f69-46ce-b2b8-b33648ef3191","ios":"levelo://app?vid=8499335b-1f69-46ce-b2b8-b33648ef3191"},"vehicle_type_id":"4","last_reported":1740600648,"current_range_meters":12000,"station_id":"ce4bh012rcd13ifvqcv0","pricing_plan_id":"cebpf4jnsgd1na2vs0mg"},{"bike_id":"240631fb-e1ef-49c9-bf78-176ba3465e14","system_id":"levelo_inurba_marseille","lat":43.28851,"lon":5.35845,"is_reserved":false,"is_disabled":false,"rental_uris":{"android":"levelo://app?vid=240631fb-e1ef-49c9-bf78-176ba3465e14","ios":"levelo://app?vid=240631fb-e1ef-49c9-bf78-176ba3465e14"},"vehicle_type_id":"4","last_reported":1740600648,"current_range_meters":12000,"station_id":"ce4bhb12rcd13ifvqem0","pricing_plan_id":"cebpf4jnsgd1na2vs0mg"},{"bike_id":"18f45b2d-8036-4344-a27f-ed20c67bd98b","system_id":"levelo_inurba_marseille","lat":43.29264,"lon":5.38448,"is_reserved":false,"is_disabled":false,"rental_uris":{"android":"levelo://app?vid=18f45b2d-8036-4344-a27f-ed20c67bd98b","ios":"levelo://app?vid=18f45b2d-8036-4344-a27f-ed20c67bd98b"},"vehicle_type_id":"4","last_reported":1740600648,"current_range_meters":15200,"station_id":"ce4bh692rcd13ifvqea0","pricing_plan_id":"cebpf4jnsgd1na2vs0mg"},{"bike_id":"f66913d8-adc8-4497-b81a-8613461ae8a9","system_id":"levelo_inurba_marseille","lat":43.284,"lon":5.35005,"is_reserved":false,"is_disabled":false,"rental_uris":{"android":"levelo://app?vid=f66913d8-adc8-4497-b81a-8613461ae8a9","ios":"levelo://app?vid=f66913d8-adc8-4497-b81a-8613461ae8a9"},"vehicle_type_id":"4","last_reported":1740600648,"current_range_meters":12400,"station_id":"ce4bhbh2rcd13ifvqepg","pricing_plan_id":"cebpf4jnsgd1na2vs0mg"},{"bike_id":"65928b5c-d37b-4131-9d88-92a40f510ddb","system_id":"levelo_inurba_marseille","lat":43.28459,"lon":5.35902,"is_reserved":false,"is_disabled":false,"rental_uris":{"android":"levelo://app?vid=65928b5c-d37b-4131-9d88-92a40f510ddb","ios":"levelo://app?vid=65928b5c-d37b-4131-9d88-92a40f510ddb"},"vehicle_type_id":"4","last_reported":1740600648,"current_range_meters":11600,"station_id":"ce4bhah2rcd13ifvqei0","pricing_plan_id":"cebpf4jnsgd1na2vs0mg"},{"bike_id":"437e6621-b156-4a1e-bd84-e54967d3a594","system_id":"levelo_inurba_marseille","lat":43.29449,"lon":5.38591,"is_reserved":false,"is_disabled":false,"rental_uris":{"android":"levelo://app?vid=437e6621-b156-4a1e-bd84-e54967d3a594","ios":"levelo://app?vid=437e6621-b156-4a1e-bd84-e54967d3a594"},"vehicle_type_id":"4","last_reported":1740600648,"current_range_meters":12400,"station_id":"ce4bh2h2rcd13ifvqdh0","pricing_plan_id":"cebpf4jnsgd1na2vs0mg"},{"bike_id":"31519e41-8910-4816-a8e7-d8675cc902be","system_id":"levelo_inurba_marseille","lat":43.29516,"lon":5.39048,"is_reserved":false,"is_disabled":false,"rental_uris":{"android":"levelo://app?vid=31519e41-8910-4816-a8e7-d8675cc902be","ios":"levelo://app?vid=31519e41-8910-4816-a8e7-d8675cc902be"},"vehicle_type_id":"4","last_reported":1740600648,"current_range_meters":12400,"station_id":"ce4bh3p2rcd13ifvqdp0","pricing_plan_id":"cebpf4jnsgd1na2vs0mg"},{"bike_id":"620faf8f-9860-4e84-b6cd-4559a0b9a89c","system_id":"levelo_inurba_marseille","lat":43.32469,"lon":5.36526,"is_reserved":false,"is_disabled":false,"rental_uris":{"android":"levelo://app?vid=620faf8f-9860-4e84-b6cd-4559a0b9a89c","ios":"levelo://app?vid=620faf8f-9860-4e84-b6cd-4559a0b9a89c"},"vehicle_type_id":"4","last_reported":1740600648,"current_range_meters":12400,"station_id":"ce4bhs12rcd13ifvqhvg","pricing_plan_id":"cebpf4jnsgd1na2vs0mg"},{"bike_id":"afd98e29-9e65-49b1-96e9-da6c0e62de76","system_id":"levelo_inurba_marseille","lat":43.29266,"lon":5.3822,"is_reserved":false,"is_disabled":false,"rental_uris":{"android":"levelo://app?vid=afd98e29-9e65-49b1-96e9-da6c0e62de76","ios":"levelo://app?vid=afd98e29-9e65-49b1-96e9-da6c0e62de76"},"vehicle_type_id":"4","last_reported":1740600648,"current_range_meters":12800,"station_id":"","pricing_plan_id":"cebpf4jnsgd1na2vs0mg"},{"bike_id":"e2231c40-4e68-4e65-8d31-9d3b67df341a","system_id":"levelo_inurba_marseille","lat":43.254947,"lon":5.376529,"is_reserved":false,"is_disabled":false,"rental_uris":{"android":"levelo://app?vid=e2231c40-4e68-4e65-8d31-9d3b67df341a","ios":"levelo://app?vid=e2231c40-4e68-4e65-8d31-9d3b67df341a"},"vehicle_type_id":"4","last_reported":1740600648,"current_range_meters":12800,"station_id":"ce4bhh12rcd13ifvqff0","pricing_plan_id":"cebpf4jnsgd1na2vs0mg"},{"bike_id":"d905ca0c-c944-4730-94c6-4871cc7ae277","system_id":"levelo_inurba_marseille","lat":43.28404,"lon":5.37535,"is_reserved":false,"is_disabled":false,"rental_uris":{"android":"levelo://app?vid=d905ca0c-c944-4730-94c6-4871cc7ae277","ios":"levelo://app?vid=d905ca0c-c944-4730-94c6-4871cc7ae277"},"vehicle_type_id":"4","last_reported":1740600648,"current_range_meters":12800,"station_id":"ce4bh412rcd13ifvqds0","pricing_plan_id":"cebpf4jnsgd1na2vs0mg"},{"bike_id":"f936892d-33ed-4515-b9e7-e65db5ec0c1f","system_id":"levelo_inurba_marseille","lat":43.30085,"lon":5.39082,"is_reserved":false,"is_disabled":false,"rental_uris":{"android":"levelo://app?vid=f936892d-33ed-4515-b9e7-e65db5ec0c1f","ios":"levelo://app?vid=f936892d-33ed-4515-b9e7-e65db5ec0c1f"},"vehicle_type_id":"4","last_reported":1740600648,"current_range_meters":12800,"station_id":"ce4bh192rcd13ifvqdb0","pricing_plan_id":"cebpf4jnsgd1na2vs0mg"},{"bike_id":"e04a9f8f-606b-4134-9126-5302efad29d1","system_id":"levelo_inurba_marseille","lat":43.29186,"lon":5.35797,"is_reserved":false,"is_disabled":false,"rental_uris":{"android":"levelo://app?vid=e04a9f8f-606b-4134-9126-5302efad29d1","ios":"levelo://app?vid=e04a9f8f-606b-4134-9126-5302efad29d1"},"vehicle_type_id":"4","last_reported":1740600648,"current_range_meters":12800,"station_id":"ce4bhb12rcd13ifvqel0","pricing_plan_id":"cebpf4jnsgd1na2vs0mg"},{"bike_id":"19e4983d-b74d-4524-9c14-80fb6905f947","system_id":"levelo_inurba_marseille","lat":43.32093,"lon":5.36796,"is_reserved":false,"is_disabled":false,"rental_uris":{"android":"levelo://app?vid=19e4983d-b74d-4524-9c14-80fb6905f947","ios":"levelo://app?vid=19e4983d-b74d-4524-9c14-80fb6905f947"},"vehicle_type_id":"4","last_reported":1740600648,"current_range_meters":12800,"station_id":"ce4bhrh2rcd13ifvqhug","pricing_plan_id":"cebpf4jnsgd1na2vs0mg"},{"bike_id":"bbaf0710-6b80-4071-80e0-5c1f789d5d60","system_id":"levelo_inurba_marseille","lat":43.28625,"lon":5.3509,"is_reserved":false,"is_disabled":false,"rental_uris":{"android":"levelo://app?vid=bbaf0710-6b80-4071-80e0-5c1f789d5d60","ios":"levelo://app?vid=bbaf0710-6b80-4071-80e0-5c1f789d5d60"},"vehicle_type_id":"4","last_reported":1740600648,"current_range_meters":12800,"station_id":"ce4bhch2rcd13ifvqeug","pricing_plan_id":"cebpf4jnsgd1na2vs0mg"},{"bike_id":"1a9d4f29-9d50-4f8b-aa45-565e9c718798","system_id":"levelo_inurba_marseille","lat":43.29246,"lon":5.40919,"is_reserved":false,"is_disabled":false,"rental_uris":{"android":"levelo://app?vid=1a9d4f29-9d50-4f8b-aa45-565e9c718798","ios":"levelo://app?vid=1a9d4f29-9d50-4f8b-aa45-565e9c718798"},"vehicle_type_id":"4","last_reported":1740600648,"current_range_meters":12800,"station_id":"ce4bh192rcd13ifvqdc0","pricing_plan_id":"cebpf4jnsgd1na2vs0mg"},{"bike_id":"7266af47-e9f0-4e43-bba1-095ebf3818bf","system_id":"levelo_inurba_marseille","lat":43.25081,"lon":5.39536,"is_reserved":false,"is_disabled":false,"rental_uris":{"android":"levelo://app?vid=7266af47-e9f0-4e43-bba1-095ebf3818bf","ios":"levelo://app?vid=7266af47-e9f0-4e43-bba1-095ebf3818bf"},"vehicle_type_id":"4","last_reported":1740600648,"current_range_meters":12800,"station_id":"ce4bhm12rcd13ifvqgkg","pricing_plan_id":"cebpf4jnsgd1na2vs0mg"},{"bike_id":"8499c9a4-2224-4239-ba4c-373a3fbd9223","system_id":"levelo_inurba_marseille","lat":43.29028,"lon":5.38123,"is_reserved":false,"is_disabled":false,"rental_uris":{"android":"levelo://app?vid=8499c9a4-2224-4239-ba4c-373a3fbd9223","ios":"levelo://app?vid=8499c9a4-2224-4239-ba4c-373a3fbd9223"},"vehicle_type_id":"4","last_reported":1740600648,"current_range_meters":13600,"station_id":"ce4bh4p2rcd13ifvqe1g","pricing_plan_id":"cebpf4jnsgd1na2vs0mg"},{"bike_id":"9ea15ae9-9c11-486a-bb35-d4dcef991c05","system_id":"levelo_inurba_marseille","lat":43.2863,"lon":5.35095,"is_reserved":false,"is_disabled":false,"rental_uris":{"android":"levelo://app?vid=9ea15ae9-9c11-486a-bb35-d4dcef991c05","ios":"levelo://app?vid=9ea15ae9-9c11-486a-bb35-d4dcef991c05"},"vehicle_type_id":"4","last_reported":1740600648,"current_range_meters":13600,"station_id":"ce4bhch2rcd13ifvqeug","pricing_plan_id":"cebpf4jnsgd1na2vs0mg"},{"bike_id":"0fe73288-2a9e-45dd-a7fd-796e3cdd5bff","system_id":"levelo_inurba_marseille","lat":43.28476,"lon":5.39118,"is_reserved":false,"is_disabled":false,"rental_uris":{"android":"levelo://app?vid=0fe73288-2a9e-45dd-a7fd-796e3cdd5bff","ios":"levelo://app?vid=0fe73288-2a9e-45dd-a7fd-796e3cdd5bff"},"vehicle_type_id":"4","last_reported":1740600648,"current_range_meters":13600,"station_id":"ce4bhoh2rcd13ifvqh5g","pricing_plan_id":"cebpf4jnsgd1na2vs0mg"},{"bike_id":"a37edf90-cb31-497f-8d6e-762511ef38f4","system_id":"levelo_inurba_marseille","lat":43.27989,"lon":5.41652,"is_reserved":false,"is_disabled":false,"rental_uris":{"android":"levelo://app?vid=a37edf90-cb31-497f-8d6e-762511ef38f4","ios":"levelo://app?vid=a37edf90-cb31-497f-8d6e-762511ef38f4"},"vehicle_type_id":"4","last_reported":1740600648,"current_range_meters":13600,"station_id":"ce4bho12rcd13ifvqh1g","pricing_plan_id":"cebpf4jnsgd1na2vs0mg"},{"bike_id":"3f7ee1e3-d518-49d8-b2cf-8d55bf28bc5a","system_id":"levelo_inurba_marseille","lat":43.27976,"lon":5.41656,"is_reserved":false,"is_disabled":false,"rental_uris":{"android":"levelo://app?vid=3f7ee1e3-d518-49d8-b2cf-8d55bf28bc5a","ios":"levelo://app?vid=3f7ee1e3-d518-49d8-b2cf-8d55bf28bc5a"},"vehicle_type_id":"4","last_reported":1740600648,"current_range_meters":13600,"station_id":"ce4bho12rcd13ifvqh1g","pricing_plan_id":"cebpf4jnsgd1na2vs0mg"},{"bike_id":"17973595-0627-4cbe-be09-6d52168568c1","system_id":"levelo_inurba_marseille","lat":43.27808,"lon":5.40724,"is_reserved":false,"is_disabled":false,"rental_uris":{"android":"levelo://app?vid=17973595-0627-4cbe-be09-6d52168568c1","ios":"levelo://app?vid=17973595-0627-4cbe-be09-6d52168568c1"},"vehicle_type_id":"4","last_reported":1740600648,"current_range_meters":13600,"station_id":"ce4bhnh2rcd13ifvqgtg","pricing_plan_id":"cebpf4jnsgd1na2vs0mg"},{"bike_id":"ee07e172-028f-4d96-9f9c-0e283dc141d5","system_id":"levelo_inurba_marseille","lat":43.32367,"lon":5.3889,"is_reserved":false,"is_disabled":false,"rental_uris":{"android":"levelo://app?vid=ee07e172-028f-4d96-9f9c-0e283dc141d5","ios":"levelo://app?vid=ee07e172-028f-4d96-9f9c-0e283dc141d5"},"vehicle_type_id":"4","last_reported":1740600648,"current_range_meters":14800,"station_id":"ce4bhqp2rcd13ifvqhog","pricing_plan_id":"cebpf4jnsgd1na2vs0mg"},{"bike_id":"bc6ef5b5-466c-4f14-b43a-a23b7fb12a30","system_id":"levelo_inurba_marseille","lat":43.28465,"lon":5.35886,"is_reserved":false,"is_disabled":false,"rental_uris":{"android":"levelo://app?vid=bc6ef5b5-466c-4f14-b43a-a23b7fb12a30","ios":"levelo://app?vid=bc6ef5b5-466c-4f14-b43a-a23b7fb12a30"},"vehicle_type_id":"4","last_reported":1740600648,"current_range_meters":14000,"station_id":"ce4bhah2rcd13ifvqei0","pricing_plan_id":"cebpf4jnsgd1na2vs0mg"},{"bike_id":"01a22565-1bbc-42aa-83fd-7468861ea29a","system_id":"levelo_inurba_marseille","lat":43.30139,"lon":5.38785,"is_reserved":false,"is_disabled":false,"rental_uris":{"android":"levelo://app?vid=01a22565-1bbc-42aa-83fd-7468861ea29a","ios":"levelo://app?vid=01a22565-1bbc-42aa-83fd-7468861ea29a"},"vehicle_type_id":"4","last_reported":1740600648,"current_range_meters":13600,"station_id":"ce4bghh2rcd13ifvqb60","pricing_plan_id":"cebpf4jnsgd1na2vs0mg"},{"bike_id":"555da0d3-9aa3-498c-81f8-f4ef96e72283","system_id":"levelo_inurba_marseille","lat":43.30891,"lon":5.39651,"is_reserved":false,"is_disabled":false,"rental_uris":{"android":"levelo://app?vid=555da0d3-9aa3-498c-81f8-f4ef96e72283","ios":"levelo://app?vid=555da0d3-9aa3-498c-81f8-f4ef96e72283"},"vehicle_type_id":"4","last_reported":1740600648,"current_range_meters":14000,"station_id":"ce4bh012rcd13ifvqcv0","pricing_plan_id":"cebpf4jnsgd1na2vs0mg"},{"bike_id":"dbbfe273-fe78-4ee1-abd4-c84186b9f85c","system_id":"levelo_inurba_marseille","lat":43.24068,"lon":5.37766,"is_reserved":false,"is_disabled":false,"rental_uris":{"android":"levelo://app?vid=dbbfe273-fe78-4ee1-abd4-c84186b9f85c","ios":"levelo://app?vid=dbbfe273-fe78-4ee1-abd4-c84186b9f85c"},"vehicle_type_id":"4","last_reported":1740600648,"current_range_meters":14000,"station_id":"ce4bhnp2rcd13ifvqgvg","pricing_plan_id":"cebpf4jnsgd1na2vs0mg"},{"bike_id":"9ee05a79-6ed0-471b-8dcb-b288b1c46214","system_id":"levelo_inurba_marseille","lat":43.29206,"lon":5.39314,"is_reserved":false,"is_disabled":false,"rental_uris":{"android":"levelo://app?vid=9ee05a79-6ed0-471b-8dcb-b288b1c46214","ios":"levelo://app?vid=9ee05a79-6ed0-471b-8dcb-b288b1c46214"},"vehicle_type_id":"4","last_reported":1740600648,"current_range_meters":14000,"station_id":"ce4bh192rcd13ifvqdd0","pricing_plan_id":"cebpf4jnsgd1na2vs0mg"},{"bike_id":"1145334b-6869-47bc-9bf8-274fd21b83dc","system_id":"levelo_inurba_marseille","lat":43.30218,"lon":5.39466,"is_reserved":false,"is_disabled":false,"rental_uris":{"android":"levelo://app?vid=1145334b-6869-47bc-9bf8-274fd21b83dc","ios":"levelo://app?vid=1145334b-6869-47bc-9bf8-274fd21b83dc"},"vehicle_type_id":"4","last_reported":1740600648,"current_range_meters":14000,"station_id":"ce4bh0p2rcd13ifvqd70","pricing_plan_id":"cebpf4jnsgd1na2vs0mg"},{"bike_id":"79cc0608-061b-4524-989a-3ca25bd347a5","system_id":"levelo_inurba_marseille","lat":43.28857,"lon":5.35837,"is_reserved":false,"is_disabled":false,"rental_uris":{"android":"levelo://app?vid=79cc0608-061b-4524-989a-3ca25bd347a5","ios":"levelo://app?vid=79cc0608-061b-4524-989a-3ca25bd347a5"},"vehicle_type_id":"4","last_reported":1740600648,"current_range_meters":14800,"station_id":"ce4bhb12rcd13ifvqem0","pricing_plan_id":"cebpf4jnsgd1na2vs0mg"},{"bike_id":"9177f6ef-ee0d-4f4b-b161-9946d5a82b6f","system_id":"levelo_inurba_marseille","lat":43.29415,"lon":5.38631,"is_reserved":false,"is_disabled":false,"rental_uris":{"android":"levelo://app?vid=9177f6ef-ee0d-4f4b-b161-9946d5a82b6f","ios":"levelo://app?vid=9177f6ef-ee0d-4f4b-b161-9946d5a82b6f"},"vehicle_type_id":"4","last_reported":1740600648,"current_range_meters":16800,"station_id":"ce4bh2h2rcd13ifvqdh0","pricing_plan_id":"cebpf4jnsgd1na2vs0mg"},{"bike_id":"91f909e9-358e-43ed-a45f-822af931a978","system_id":"levelo_inurba_marseille","lat":43.23215,"lon":5.4036,"is_reserved":false,"is_disabled":false,"rental_uris":{"android":"levelo://app?vid=91f909e9-358e-43ed-a45f-822af931a978","ios":"levelo://app?vid=91f909e9-358e-43ed-a45f-822af931a978"},"vehicle_type_id":"4","last_reported":1740600648,"current_range_meters":14000,"station_id":"","pricing_plan_id":"cebpf4jnsgd1na2vs0mg"},{"bike_id":"eedd36d0-74d7-4af9-87da-31b2bb62bd76","system_id":"levelo_inurba_marseille","lat":43.30246,"lon":5.40045,"is_reserved":false,"is_disabled":false,"rental_uris":{"android":"levelo://app?vid=eedd36d0-74d7-4af9-87da-31b2bb62bd76","ios":"levelo://app?vid=eedd36d0-74d7-4af9-87da-31b2bb62bd76"},"vehicle_type_id":"4","last_reported":1740600648,"current_range_meters":14400,"station_id":"ce4bgvh2rcd13ifvqcs0","pricing_plan_id":"cebpf4jnsgd1na2vs0mg"},{"bike_id":"01132a76-981f-470b-9f0e-14b7306462ab","system_id":"levelo_inurba_marseille","lat":43.31068,"lon":5.38352,"is_reserved":false,"is_disabled":false,"rental_uris":{"android":"levelo://app?vid=01132a76-981f-470b-9f0e-14b7306462ab","ios":"levelo://app?vid=01132a76-981f-470b-9f0e-14b7306462ab"},"vehicle_type_id":"4","last_reported":1740600648,"current_range_meters":14400,"station_id":"ce4bgv92rcd13ifvqcr0","pricing_plan_id":"cebpf4jnsgd1na2vs0mg"},{"bike_id":"62cbb18c-2f31-4f5c-9351-9e9b31dd9036","system_id":"levelo_inurba_marseille","lat":43.29847,"lon":5.38712,"is_reserved":false,"is_disabled":false,"rental_uris":{"android":"levelo://app?vid=62cbb18c-2f31-4f5c-9351-9e9b31dd9036","ios":"levelo://app?vid=62cbb18c-2f31-4f5c-9351-9e9b31dd9036"},"vehicle_type_id":"4","last_reported":1740600648,"current_range_meters":14400,"station_id":"","pricing_plan_id":"cebpf4jnsgd1na2vs0mg"},{"bike_id":"12233c19-4786-43c7-b87e-c054ec841669","system_id":"levelo_inurba_marseille","lat":43.28407,"lon":5.37515,"is_reserved":false,"is_disabled":false,"rental_uris":{"android":"levelo://app?vid=12233c19-4786-43c7-b87e-c054ec841669","ios":"levelo://app?vid=12233c19-4786-43c7-b87e-c054ec841669"},"vehicle_type_id":"4","last_reported":1740600648,"current_range_meters":14400,"station_id":"ce4bh412rcd13ifvqds0","pricing_plan_id":"cebpf4jnsgd1na2vs0mg"},{"bike_id":"af053d62-4d28-4cf9-89aa-942656fd56f3","system_id":"levelo_inurba_marseille","lat":43.29705,"lon":5.36593,"is_reserved":false,"is_disabled":false,"rental_uris":{"android":"levelo://app?vid=af053d62-4d28-4cf9-89aa-942656fd56f3","ios":"levelo://app?vid=af053d62-4d28-4cf9-89aa-942656fd56f3"},"vehicle_type_id":"4","last_reported":1740600648,"current_range_meters":14000,"station_id":"ce4bgn12rcd13ifvqbt0","pricing_plan_id":"cebpf4jnsgd1na2vs0mg"},{"bike_id":"985d16b2-8859-4895-bc32-7c0857320f09","system_id":"levelo_inurba_marseille","lat":43.29256,"lon":5.3845,"is_reserved":false,"is_disabled":false,"rental_uris":{"android":"levelo://app?vid=985d16b2-8859-4895-bc32-7c0857320f09","ios":"levelo://app?vid=985d16b2-8859-4895-bc32-7c0857320f09"},"vehicle_type_id":"4","last_reported":1740600648,"current_range_meters":15200,"station_id":"ce4bh692rcd13ifvqea0","pricing_plan_id":"cebpf4jnsgd1na2vs0mg"},{"bike_id":"2215d5e4-8798-4621-81ec-24430288d53b","system_id":"levelo_inurba_marseille","lat":43.32012,"lon":5.38165,"is_reserved":false,"is_disabled":false,"rental_uris":{"android":"levelo://app?vid=2215d5e4-8798-4621-81ec-24430288d53b","ios":"levelo://app?vid=2215d5e4-8798-4621-81ec-24430288d53b"},"vehicle_type_id":"4","last_reported":1740600648,"current_range_meters":15200,"station_id":"ce4bhr12rcd13ifvqhpg","pricing_plan_id":"cebpf4jnsgd1na2vs0mg"},{"bike_id":"2199a98d-0b01-413d-a5db-41d988d5115a","system_id":"levelo_inurba_marseille","lat":43.289367,"lon":5.366347,"is_reserved":false,"is_disabled":false,"rental_uris":{"android":"levelo://app?vid=2199a98d-0b01-413d-a5db-41d988d5115a","ios":"levelo://app?vid=2199a98d-0b01-413d-a5db-41d988d5115a"},"vehicle_type_id":"4","last_reported":1740600648,"current_range_meters":14800,"station_id":"ce4bhap2rcd13ifvqek0","pricing_plan_id":"cebpf4jnsgd1na2vs0mg"},{"bike_id":"a28b3278-fef6-4a1f-98a8-32adfdbbcf34","system_id":"levelo_inurba_marseille","lat":43.29744,"lon":5.3688,"is_reserved":false,"is_disabled":false,"rental_uris":{"android":"levelo://app?vid=a28b3278-fef6-4a1f-98a8-32adfdbbcf34","ios":"levelo://app?vid=a28b3278-fef6-4a1f-98a8-32adfdbbcf34"},"vehicle_type_id":"4","last_reported":1740600648,"current_range_meters":14800,"station_id":"ce4bgn12rcd13ifvqbt0","pricing_plan_id":"cebpf4jnsgd1na2vs0mg"},{"bike_id":"f52c14bd-4c5f-4f3d-bec5-1037bbe10a59","system_id":"levelo_inurba_marseille","lat":43.28856,"lon":5.393193,"is_reserved":false,"is_disabled":false,"rental_uris":{"android":"levelo://app?vid=f52c14bd-4c5f-4f3d-bec5-1037bbe10a59","ios":"levelo://app?vid=f52c14bd-4c5f-4f3d-bec5-1037bbe10a59"},"vehicle_type_id":"4","last_reported":1740600648,"current_range_meters":14800,"station_id":"ce4bh2p2rcd13ifvqdi0","pricing_plan_id":"cebpf4jnsgd1na2vs0mg"},{"bike_id":"dc1deb5f-be60-47dd-a397-2458bf714b12","system_id":"levelo_inurba_marseille","lat":43.23048,"lon":5.35498,"is_reserved":false,"is_disabled":false,"rental_uris":{"android":"levelo://app?vid=dc1deb5f-be60-47dd-a397-2458bf714b12","ios":"levelo://app?vid=dc1deb5f-be60-47dd-a397-2458bf714b12"},"vehicle_type_id":"4","last_reported":1740600648,"current_range_meters":15200,"station_id":"cpo3342slgdg3j2ifvpg","pricing_plan_id":"cebpf4jnsgd1na2vs0mg"},{"bike_id":"7eebcedb-18f4-4398-b9bd-d7d8a33415a2","system_id":"levelo_inurba_marseille","lat":43.29212,"lon":5.36085,"is_reserved":false,"is_disabled":false,"rental_uris":{"android":"levelo://app?vid=7eebcedb-18f4-4398-b9bd-d7d8a33415a2","ios":"levelo://app?vid=7eebcedb-18f4-4398-b9bd-d7d8a33415a2"},"vehicle_type_id":"4","last_reported":1740600648,"current_range_meters":14800,"station_id":"ce4bhbh2rcd13ifvqeqg","pricing_plan_id":"cebpf4jnsgd1na2vs0mg"},{"bike_id":"2542ae8c-3486-484c-9849-2c11a9a59b73","system_id":"levelo_inurba_marseille","lat":43.29898,"lon":5.38139,"is_reserved":false,"is_disabled":false,"rental_uris":{"android":"levelo://app?vid=2542ae8c-3486-484c-9849-2c11a9a59b73","ios":"levelo://app?vid=2542ae8c-3486-484c-9849-2c11a9a59b73"},"vehicle_type_id":"4","last_reported":1740600648,"current_range_meters":15200,"station_id":"ce4bgj12rcd13ifvqbc0","pricing_plan_id":"cebpf4jnsgd1na2vs0mg"},{"bike_id":"79a585c5-cf42-4150-9df4-5cf43862e690","system_id":"levelo_inurba_marseille","lat":43.24649,"lon":5.38919,"is_reserved":false,"is_disabled":false,"rental_uris":{"android":"levelo://app?vid=79a585c5-cf42-4150-9df4-5cf43862e690","ios":"levelo://app?vid=79a585c5-cf42-4150-9df4-5cf43862e690"},"vehicle_type_id":"4","last_reported":1740600648,"current_range_meters":15200,"station_id":"ce4bhg12rcd13ifvqf60","pricing_plan_id":"cebpf4jnsgd1na2vs0mg"},{"bike_id":"d8cd6d3b-0976-4fa6-b69a-5eba926a7561","system_id":"levelo_inurba_marseille","lat":43.29879,"lon":5.38162,"is_reserved":false,"is_disabled":false,"rental_uris":{"android":"levelo://app?vid=d8cd6d3b-0976-4fa6-b69a-5eba926a7561","ios":"levelo://app?vid=d8cd6d3b-0976-4fa6-b69a-5eba926a7561"},"vehicle_type_id":"4","last_reported":1740600648,"current_range_meters":15200,"station_id":"ce4bgj12rcd13ifvqbc0","pricing_plan_id":"cebpf4jnsgd1na2vs0mg"},{"bike_id":"e63ee71a-904d-4a0d-8330-b9b7e14f9142","system_id":"levelo_inurba_marseille","lat":43.29528,"lon":5.38539,"is_reserved":false,"is_disabled":false,"rental_uris":{"android":"levelo://app?vid=e63ee71a-904d-4a0d-8330-b9b7e14f9142","ios":"levelo://app?vid=e63ee71a-904d-4a0d-8330-b9b7e14f9142"},"vehicle_type_id":"4","last_reported":1740600648,"current_range_meters":16000,"station_id":"ce4bgih2rcd13ifvqba0","pricing_plan_id":"cebpf4jnsgd1na2vs0mg"},{"bike_id":"3cfd9f15-938e-4847-a1ff-4593aebb65fd","system_id":"levelo_inurba_marseille","lat":43.29048,"lon":5.38662,"is_reserved":false,"is_disabled":false,"rental_uris":{"android":"levelo://app?vid=3cfd9f15-938e-4847-a1ff-4593aebb65fd","ios":"levelo://app?vid=3cfd9f15-938e-4847-a1ff-4593aebb65fd"},"vehicle_type_id":"4","last_reported":1740600648,"current_range_meters":14800,"station_id":"ce4bh4p2rcd13ifvqe0g","pricing_plan_id":"cebpf4jnsgd1na2vs0mg"},{"bike_id":"80dd457c-05ef-4ec4-97fe-bd372bc536ad","system_id":"levelo_inurba_marseille","lat":43.30523,"lon":5.36719,"is_reserved":false,"is_disabled":false,"rental_uris":{"android":"levelo://app?vid=80dd457c-05ef-4ec4-97fe-bd372bc536ad","ios":"levelo://app?vid=80dd457c-05ef-4ec4-97fe-bd372bc536ad"},"vehicle_type_id":"4","last_reported":1740600648,"current_range_meters":16000,"station_id":"ce4bgrp2rcd13ifvqc9g","pricing_plan_id":"cebpf4jnsgd1na2vs0mg"},{"bike_id":"5ab74027-0266-42e6-903d-055b2632fc94","system_id":"levelo_inurba_marseille","lat":43.2761,"lon":5.36131,"is_reserved":false,"is_disabled":false,"rental_uris":{"android":"levelo://app?vid=5ab74027-0266-42e6-903d-055b2632fc94","ios":"levelo://app?vid=5ab74027-0266-42e6-903d-055b2632fc94"},"vehicle_type_id":"4","last_reported":1740600648,"current_range_meters":16000,"station_id":"ce4bgj92rcd13ifvqbe0","pricing_plan_id":"cebpf4jnsgd1na2vs0mg"},{"bike_id":"7d901e7e-c344-47ec-95e0-c0b38a0b3b34","system_id":"levelo_inurba_marseille","lat":43.28483,"lon":5.38547,"is_reserved":false,"is_disabled":false,"rental_uris":{"android":"levelo://app?vid=7d901e7e-c344-47ec-95e0-c0b38a0b3b34","ios":"levelo://app?vid=7d901e7e-c344-47ec-95e0-c0b38a0b3b34"},"vehicle_type_id":"4","last_reported":1740600648,"current_range_meters":16000,"station_id":"ce4bh8p2rcd13ifvqeb0","pricing_plan_id":"cebpf4jnsgd1na2vs0mg"},{"bike_id":"8ef81c1a-3d5e-401e-9c2c-c024f755ea23","system_id":"levelo_inurba_marseille","lat":43.29195,"lon":5.35803,"is_reserved":false,"is_disabled":false,"rental_uris":{"android":"levelo://app?vid=8ef81c1a-3d5e-401e-9c2c-c024f755ea23","ios":"levelo://app?vid=8ef81c1a-3d5e-401e-9c2c-c024f755ea23"},"vehicle_type_id":"4","last_reported":1740600648,"current_range_meters":16000,"station_id":"ce4bhb12rcd13ifvqel0","pricing_plan_id":"cebpf4jnsgd1na2vs0mg"},{"bike_id":"5041972a-893e-4b63-889b-44cb0684ba40","system_id":"levelo_inurba_marseille","lat":43.29873,"lon":5.39739,"is_reserved":false,"is_disabled":false,"rental_uris":{"android":"levelo://app?vid=5041972a-893e-4b63-889b-44cb0684ba40","ios":"levelo://app?vid=5041972a-893e-4b63-889b-44cb0684ba40"},"vehicle_type_id":"4","last_reported":1740600648,"current_range_meters":16000,"station_id":"ce4bh0h2rcd13ifvqd50","pricing_plan_id":"cebpf4jnsgd1na2vs0mg"},{"bike_id":"26017cf1-9492-4b4c-bfc5-334e608e8e8e","system_id":"levelo_inurba_marseille","lat":43.27828,"lon":5.39222,"is_reserved":false,"is_disabled":false,"rental_uris":{"android":"levelo://app?vid=26017cf1-9492-4b4c-bfc5-334e608e8e8e","ios":"levelo://app?vid=26017cf1-9492-4b4c-bfc5-334e608e8e8e"},"vehicle_type_id":"4","last_reported":1740600648,"current_range_meters":15200,"station_id":"ce4bhjp2rcd13ifvqga0","pricing_plan_id":"cebpf4jnsgd1na2vs0mg"},{"bike_id":"10194aa5-b5c0-44a6-8a7e-78c3d138ed8b","system_id":"levelo_inurba_marseille","lat":43.28611,"lon":5.37061,"is_reserved":false,"is_disabled":false,"rental_uris":{"android":"levelo://app?vid=10194aa5-b5c0-44a6-8a7e-78c3d138ed8b","ios":"levelo://app?vid=10194aa5-b5c0-44a6-8a7e-78c3d138ed8b"},"vehicle_type_id":"4","last_reported":1740600648,"current_range_meters":16000,"station_id":"ce4bht12rcd13ifvqi60","pricing_plan_id":"cebpf4jnsgd1na2vs0mg"},{"bike_id":"a326cc5b-7790-493f-8d06-7b97c147df2f","system_id":"levelo_inurba_marseille","lat":43.28262,"lon":5.35074,"is_reserved":false,"is_disabled":false,"rental_uris":{"android":"levelo://app?vid=a326cc5b-7790-493f-8d06-7b97c147df2f","ios":"levelo://app?vid=a326cc5b-7790-493f-8d06-7b97c147df2f"},"vehicle_type_id":"4","last_reported":1740600648,"current_range_meters":15200,"station_id":"ce4bhbp2rcd13ifvqerg","pricing_plan_id":"cebpf4jnsgd1na2vs0mg"},{"bike_id":"46dfa746-ce50-4000-8117-251275b614cc","system_id":"levelo_inurba_marseille","lat":43.24809,"lon":5.37474,"is_reserved":false,"is_disabled":false,"rental_uris":{"android":"levelo://app?vid=46dfa746-ce50-4000-8117-251275b614cc","ios":"levelo://app?vid=46dfa746-ce50-4000-8117-251275b614cc"},"vehicle_type_id":"4","last_reported":1740600648,"current_range_meters":15200,"station_id":"ce4bhgh2rcd13ifvqfb0","pricing_plan_id":"cebpf4jnsgd1na2vs0mg"},{"bike_id":"9d301360-426b-4103-9783-18a245c174ea","system_id":"levelo_inurba_marseille","lat":43.25728,"lon":5.4111,"is_reserved":false,"is_disabled":false,"rental_uris":{"android":"levelo://app?vid=9d301360-426b-4103-9783-18a245c174ea","ios":"levelo://app?vid=9d301360-426b-4103-9783-18a245c174ea"},"vehicle_type_id":"4","last_reported":1740600648,"current_range_meters":16000,"station_id":"ce4bhkp2rcd13ifvqgd0","pricing_plan_id":"cebpf4jnsgd1na2vs0mg"},{"bike_id":"1c3a4ad0-f1ab-4345-9c18-3610f53f2a57","system_id":"levelo_inurba_marseille","lat":43.29977,"lon":5.38496,"is_reserved":false,"is_disabled":false,"rental_uris":{"android":"levelo://app?vid=1c3a4ad0-f1ab-4345-9c18-3610f53f2a57","ios":"levelo://app?vid=1c3a4ad0-f1ab-4345-9c18-3610f53f2a57"},"vehicle_type_id":"4","last_reported":1740600648,"current_range_meters":15200,"station_id":"ce4bgj92rcd13ifvqbd0","pricing_plan_id":"cebpf4jnsgd1na2vs0mg"},{"bike_id":"12088dd7-c6de-4cf0-839a-091d3222b947","system_id":"levelo_inurba_marseille","lat":43.29517,"lon":5.39403,"is_reserved":false,"is_disabled":false,"rental_uris":{"android":"levelo://app?vid=12088dd7-c6de-4cf0-839a-091d3222b947","ios":"levelo://app?vid=12088dd7-c6de-4cf0-839a-091d3222b947"},"vehicle_type_id":"4","last_reported":1740600648,"current_range_meters":16400,"station_id":"ce4bh292rcd13ifvqdf0","pricing_plan_id":"cebpf4jnsgd1na2vs0mg"},{"bike_id":"bc679af8-b2d8-495d-8f01-39de79e9748b","system_id":"levelo_inurba_marseille","lat":43.29586,"lon":5.36747,"is_reserved":false,"is_disabled":false,"rental_uris":{"android":"levelo://app?vid=bc679af8-b2d8-495d-8f01-39de79e9748b","ios":"levelo://app?vid=bc679af8-b2d8-495d-8f01-39de79e9748b"},"vehicle_type_id":"4","last_reported":1740600648,"current_range_meters":16400,"station_id":"ce4bgph2rcd13ifvqc2g","pricing_plan_id":"cebpf4jnsgd1na2vs0mg"},{"bike_id":"3ef4a283-1278-481d-a678-2032504e228a","system_id":"levelo_inurba_marseille","lat":43.29,"lon":5.35632,"is_reserved":false,"is_disabled":true,"rental_uris":{"android":"levelo://app?vid=3ef4a283-1278-481d-a678-2032504e228a","ios":"levelo://app?vid=3ef4a283-1278-481d-a678-2032504e228a"},"vehicle_type_id":"4","last_reported":1740600648,"current_range_meters":16400,"station_id":"ce4bhb92rcd13ifvqen0","pricing_plan_id":"cebpf4jnsgd1na2vs0mg"},{"bike_id":"19e09a69-c57f-482a-b847-7f66783bd645","system_id":"levelo_inurba_marseille","lat":43.27817,"lon":5.40711,"is_reserved":false,"is_disabled":false,"rental_uris":{"android":"levelo://app?vid=19e09a69-c57f-482a-b847-7f66783bd645","ios":"levelo://app?vid=19e09a69-c57f-482a-b847-7f66783bd645"},"vehicle_type_id":"4","last_reported":1740600648,"current_range_meters":16400,"station_id":"ce4bhnh2rcd13ifvqgtg","pricing_plan_id":"cebpf4jnsgd1na2vs0mg"},{"bike_id":"63569115-3240-4df6-ada0-ada3d9c2e5bc","system_id":"levelo_inurba_marseille","lat":43.23965,"lon":5.36631,"is_reserved":false,"is_disabled":false,"rental_uris":{"android":"levelo://app?vid=63569115-3240-4df6-ada0-ada3d9c2e5bc","ios":"levelo://app?vid=63569115-3240-4df6-ada0-ada3d9c2e5bc"},"vehicle_type_id":"4","last_reported":1740600648,"current_range_meters":16400,"station_id":"ce4bhi12rcd13ifvqfp0","pricing_plan_id":"cebpf4jnsgd1na2vs0mg"},{"bike_id":"d9edb359-99e6-43de-99dd-b9b1164fad3d","system_id":"levelo_inurba_marseille","lat":43.2847,"lon":5.38446,"is_reserved":false,"is_disabled":true,"rental_uris":{"android":"levelo://app?vid=d9edb359-99e6-43de-99dd-b9b1164fad3d","ios":"levelo://app?vid=d9edb359-99e6-43de-99dd-b9b1164fad3d"},"vehicle_type_id":"4","last_reported":1740600648,"current_range_meters":16400,"station_id":"ce4bh512rcd13ifvqe3g","pricing_plan_id":"cebpf4jnsgd1na2vs0mg"},{"bike_id":"f247f684-c145-4555-8751-9ac96cb4e764","system_id":"levelo_inurba_marseille","lat":43.29267,"lon":5.40908,"is_reserved":false,"is_disabled":false,"rental_uris":{"android":"levelo://app?vid=f247f684-c145-4555-8751-9ac96cb4e764","ios":"levelo://app?vid=f247f684-c145-4555-8751-9ac96cb4e764"},"vehicle_type_id":"4","last_reported":1740600648,"current_range_meters":16800,"station_id":"ce4bh192rcd13ifvqdc0","pricing_plan_id":"cebpf4jnsgd1na2vs0mg"},{"bike_id":"55a17672-2d25-487d-8220-6819989599ff","system_id":"levelo_inurba_marseille","lat":43.29539,"lon":5.39002,"is_reserved":false,"is_disabled":false,"rental_uris":{"android":"levelo://app?vid=55a17672-2d25-487d-8220-6819989599ff","ios":"levelo://app?vid=55a17672-2d25-487d-8220-6819989599ff"},"vehicle_type_id":"4","last_reported":1740600648,"current_range_meters":12400,"station_id":"ce4bh3p2rcd13ifvqdp0","pricing_plan_id":"cebpf4jnsgd1na2vs0mg"},{"bike_id":"ecdc758f-27bc-4608-bc67-5f7d33facb06","system_id":"levelo_inurba_marseille","lat":43.30321,"lon":5.40445,"is_reserved":false,"is_disabled":false,"rental_uris":{"android":"levelo://app?vid=ecdc758f-27bc-4608-bc67-5f7d33facb06","ios":"levelo://app?vid=ecdc758f-27bc-4608-bc67-5f7d33facb06"},"vehicle_type_id":"4","last_reported":1740600648,"current_range_meters":16400,"station_id":"ce4bh012rcd13ifvqd10","pricing_plan_id":"cebpf4jnsgd1na2vs0mg"},{"bike_id":"f3a30e9b-47fe-47d5-ac2e-267d81f68680","system_id":"levelo_inurba_marseille","lat":43.30938,"lon":5.40181,"is_reserved":false,"is_disabled":false,"rental_uris":{"android":"levelo://app?vid=f3a30e9b-47fe-47d5-ac2e-267d81f68680","ios":"levelo://app?vid=f3a30e9b-47fe-47d5-ac2e-267d81f68680"},"vehicle_type_id":"4","last_reported":1740600648,"current_range_meters":16800,"station_id":"ce4bgvp2rcd13ifvqct0","pricing_plan_id":"cebpf4jnsgd1na2vs0mg"},{"bike_id":"8a5ee120-be8b-4cc4-b22f-0c42dd1110c0","system_id":"levelo_inurba_marseille","lat":43.29882,"lon":5.39761,"is_reserved":false,"is_disabled":false,"rental_uris":{"android":"levelo://app?vid=8a5ee120-be8b-4cc4-b22f-0c42dd1110c0","ios":"levelo://app?vid=8a5ee120-be8b-4cc4-b22f-0c42dd1110c0"},"vehicle_type_id":"4","last_reported":1740600648,"current_range_meters":16400,"station_id":"ce4bh0h2rcd13ifvqd50","pricing_plan_id":"cebpf4jnsgd1na2vs0mg"},{"bike_id":"6f5e6b2b-b94b-4eea-910a-3764064b3c05","system_id":"levelo_inurba_marseille","lat":43.27994,"lon":5.40027,"is_reserved":false,"is_disabled":false,"rental_uris":{"android":"levelo://app?vid=6f5e6b2b-b94b-4eea-910a-3764064b3c05","ios":"levelo://app?vid=6f5e6b2b-b94b-4eea-910a-3764064b3c05"},"vehicle_type_id":"4","last_reported":1740600648,"current_range_meters":16800,"station_id":"ce4bho92rcd13ifvqh4g","pricing_plan_id":"cebpf4jnsgd1na2vs0mg"},{"bike_id":"8a339686-9723-415b-8f3c-02f3810e4035","system_id":"levelo_inurba_marseille","lat":43.29942,"lon":5.39756,"is_reserved":false,"is_disabled":false,"rental_uris":{"android":"levelo://app?vid=8a339686-9723-415b-8f3c-02f3810e4035","ios":"levelo://app?vid=8a339686-9723-415b-8f3c-02f3810e4035"},"vehicle_type_id":"4","last_reported":1740600648,"current_range_meters":16800,"station_id":"ce4bh0h2rcd13ifvqd50","pricing_plan_id":"cebpf4jnsgd1na2vs0mg"},{"bike_id":"3648d549-1aa7-44d1-bde4-30bac4ece65c","system_id":"levelo_inurba_marseille","lat":43.2558,"lon":5.38234,"is_reserved":false,"is_disabled":false,"rental_uris":{"android":"levelo://app?vid=3648d549-1aa7-44d1-bde4-30bac4ece65c","ios":"levelo://app?vid=3648d549-1aa7-44d1-bde4-30bac4ece65c"},"vehicle_type_id":"4","last_reported":1740600648,"current_range_meters":16800,"station_id":"ce4bhih2rcd13ifvqfs0","pricing_plan_id":"cebpf4jnsgd1na2vs0mg"},{"bike_id":"c8cf8366-0c44-45bd-9143-3b5fae02e2ac","system_id":"levelo_inurba_marseille","lat":43.28149,"lon":5.4264,"is_reserved":false,"is_disabled":false,"rental_uris":{"android":"levelo://app?vid=c8cf8366-0c44-45bd-9143-3b5fae02e2ac","ios":"levelo://app?vid=c8cf8366-0c44-45bd-9143-3b5fae02e2ac"},"vehicle_type_id":"4","last_reported":1740600648,"current_range_meters":16800,"station_id":"ce4bhnh2rcd13ifvqgug","pricing_plan_id":"cebpf4jnsgd1na2vs0mg"},{"bike_id":"fb59a9c9-98bc-4042-8ca3-b4052f95fd49","system_id":"levelo_inurba_marseille","lat":43.2587,"lon":5.39899,"is_reserved":false,"is_disabled":false,"rental_uris":{"android":"levelo://app?vid=fb59a9c9-98bc-4042-8ca3-b4052f95fd49","ios":"levelo://app?vid=fb59a9c9-98bc-4042-8ca3-b4052f95fd49"},"vehicle_type_id":"4","last_reported":1740600648,"current_range_meters":16400,"station_id":"ce4bhl92rcd13ifvqghg","pricing_plan_id":"cebpf4jnsgd1na2vs0mg"},{"bike_id":"f19dd094-5c44-418c-8234-16e21013357f","system_id":"levelo_inurba_marseille","lat":43.30643,"lon":5.40072,"is_reserved":false,"is_disabled":false,"rental_uris":{"android":"levelo://app?vid=f19dd094-5c44-418c-8234-16e21013357f","ios":"levelo://app?vid=f19dd094-5c44-418c-8234-16e21013357f"},"vehicle_type_id":"4","last_reported":1740600648,"current_range_meters":16800,"station_id":"ce4bh112rcd13ifvqda0","pricing_plan_id":"cebpf4jnsgd1na2vs0mg"},{"bike_id":"31c58e5d-9342-432b-b32a-4dfcdf1667fa","system_id":"levelo_inurba_marseille","lat":43.24409,"lon":5.37046,"is_reserved":false,"is_disabled":false,"rental_uris":{"android":"levelo://app?vid=31c58e5d-9342-432b-b32a-4dfcdf1667fa","ios":"levelo://app?vid=31c58e5d-9342-432b-b32a-4dfcdf1667fa"},"vehicle_type_id":"4","last_reported":1740600648,"current_range_meters":16800,"station_id":"ce4bhhh2rcd13ifvqfk0","pricing_plan_id":"cebpf4jnsgd1na2vs0mg"},{"bike_id":"ad3f0595-a3c5-4dd3-86fa-bd940d0dc018","system_id":"levelo_inurba_marseille","lat":43.2869,"lon":5.38661,"is_reserved":false,"is_disabled":false,"rental_uris":{"android":"levelo://app?vid=ad3f0595-a3c5-4dd3-86fa-bd940d0dc018","ios":"levelo://app?vid=ad3f0595-a3c5-4dd3-86fa-bd940d0dc018"},"vehicle_type_id":"4","last_reported":1740600648,"current_range_meters":17200,"station_id":"ce4bh492rcd13ifvqdug","pricing_plan_id":"cebpf4jnsgd1na2vs0mg"},{"bike_id":"8e7ca1de-f2e1-45da-a0a6-c0442942ed30","system_id":"levelo_inurba_marseille","lat":43.25493,"lon":5.37671,"is_reserved":false,"is_disabled":false,"rental_uris":{"android":"levelo://app?vid=8e7ca1de-f2e1-45da-a0a6-c0442942ed30","ios":"levelo://app?vid=8e7ca1de-f2e1-45da-a0a6-c0442942ed30"},"vehicle_type_id":"4","last_reported":1740600648,"current_range_meters":17200,"station_id":"ce4bhh12rcd13ifvqff0","pricing_plan_id":"cebpf4jnsgd1na2vs0mg"},{"bike_id":"2f5b3d2e-8f30-4ac7-a434-71d93f6dcd07","system_id":"levelo_inurba_marseille","lat":43.3064,"lon":5.40102,"is_reserved":false,"is_disabled":false,"rental_uris":{"android":"levelo://app?vid=2f5b3d2e-8f30-4ac7-a434-71d93f6dcd07","ios":"levelo://app?vid=2f5b3d2e-8f30-4ac7-a434-71d93f6dcd07"},"vehicle_type_id":"4","last_reported":1740600648,"current_range_meters":16800,"station_id":"ce4bh112rcd13ifvqda0","pricing_plan_id":"cebpf4jnsgd1na2vs0mg"},{"bike_id":"9b25dd48-5431-4b2d-ae42-2021c326595e","system_id":"levelo_inurba_marseille","lat":43.29903,"lon":5.38137,"is_reserved":false,"is_disabled":false,"rental_uris":{"android":"levelo://app?vid=9b25dd48-5431-4b2d-ae42-2021c326595e","ios":"levelo://app?vid=9b25dd48-5431-4b2d-ae42-2021c326595e"},"vehicle_type_id":"4","last_reported":1740600648,"current_range_meters":17200,"station_id":"ce4bgj12rcd13ifvqbc0","pricing_plan_id":"cebpf4jnsgd1na2vs0mg"},{"bike_id":"3de9aeda-1f9a-4bbc-8b90-e02a49e56ca9","system_id":"levelo_inurba_marseille","lat":43.2319,"lon":5.35558,"is_reserved":false,"is_disabled":false,"rental_uris":{"android":"levelo://app?vid=3de9aeda-1f9a-4bbc-8b90-e02a49e56ca9","ios":"levelo://app?vid=3de9aeda-1f9a-4bbc-8b90-e02a49e56ca9"},"vehicle_type_id":"4","last_reported":1740600648,"current_range_meters":17200,"station_id":"ce4bhu92rcd13ifvqi70","pricing_plan_id":"cebpf4jnsgd1na2vs0mg"},{"bike_id":"b23784ab-03ef-491e-93b4-52d6d917af9e","system_id":"levelo_inurba_marseille","lat":43.3112,"lon":5.37764,"is_reserved":false,"is_disabled":false,"rental_uris":{"android":"levelo://app?vid=b23784ab-03ef-491e-93b4-52d6d917af9e","ios":"levelo://app?vid=b23784ab-03ef-491e-93b4-52d6d917af9e"},"vehicle_type_id":"4","last_reported":1740600648,"current_range_meters":17600,"station_id":"ce4bgt92rcd13ifvqcg0","pricing_plan_id":"cebpf4jnsgd1na2vs0mg"},{"bike_id":"09fb2b97-9496-41b8-9d32-e99548e76cd9","system_id":"levelo_inurba_marseille","lat":43.29297,"lon":5.37458,"is_reserved":false,"is_disabled":false,"rental_uris":{"android":"levelo://app?vid=09fb2b97-9496-41b8-9d32-e99548e76cd9","ios":"levelo://app?vid=09fb2b97-9496-41b8-9d32-e99548e76cd9"},"vehicle_type_id":"4","last_reported":1740600648,"current_range_meters":17200,"station_id":"ce4bgi12rcd13ifvqb70","pricing_plan_id":"cebpf4jnsgd1na2vs0mg"},{"bike_id":"7f319ef0-f091-49a0-b3bf-1dc7a7a815a3","system_id":"levelo_inurba_marseille","lat":43.2882,"lon":5.39315,"is_reserved":false,"is_disabled":false,"rental_uris":{"android":"levelo://app?vid=7f319ef0-f091-49a0-b3bf-1dc7a7a815a3","ios":"levelo://app?vid=7f319ef0-f091-49a0-b3bf-1dc7a7a815a3"},"vehicle_type_id":"4","last_reported":1740600648,"current_range_meters":17600,"station_id":"ce4bh2p2rcd13ifvqdi0","pricing_plan_id":"cebpf4jnsgd1na2vs0mg"},{"bike_id":"496915c7-eb4d-4506-8286-11ac6afab698","system_id":"levelo_inurba_marseille","lat":43.28458,"lon":5.35874,"is_reserved":false,"is_disabled":false,"rental_uris":{"android":"levelo://app?vid=496915c7-eb4d-4506-8286-11ac6afab698","ios":"levelo://app?vid=496915c7-eb4d-4506-8286-11ac6afab698"},"vehicle_type_id":"4","last_reported":1740600648,"current_range_meters":17600,"station_id":"ce4bhah2rcd13ifvqei0","pricing_plan_id":"cebpf4jnsgd1na2vs0mg"},{"bike_id":"7c6f2e19-e14e-482e-81a7-645fe762ee86","system_id":"levelo_inurba_marseille","lat":43.2958,"lon":5.36742,"is_reserved":false,"is_disabled":false,"rental_uris":{"android":"levelo://app?vid=7c6f2e19-e14e-482e-81a7-645fe762ee86","ios":"levelo://app?vid=7c6f2e19-e14e-482e-81a7-645fe762ee86"},"vehicle_type_id":"4","last_reported":1740600648,"current_range_meters":18000,"station_id":"ce4bgph2rcd13ifvqc2g","pricing_plan_id":"cebpf4jnsgd1na2vs0mg"},{"bike_id":"09f4132e-5e92-4e9b-9b60-810a2a16cbfb","system_id":"levelo_inurba_marseille","lat":43.292298,"lon":5.360704,"is_reserved":false,"is_disabled":false,"rental_uris":{"android":"levelo://app?vid=09f4132e-5e92-4e9b-9b60-810a2a16cbfb","ios":"levelo://app?vid=09f4132e-5e92-4e9b-9b60-810a2a16cbfb"},"vehicle_type_id":"4","last_reported":1740600648,"current_range_meters":17600,"station_id":"","pricing_plan_id":"cebpf4jnsgd1na2vs0mg"},{"bike_id":"62e23b1a-6404-4959-9b0b-13d3254c4229","system_id":"levelo_inurba_marseille","lat":43.32476,"lon":5.36553,"is_reserved":false,"is_disabled":false,"rental_uris":{"android":"levelo://app?vid=62e23b1a-6404-4959-9b0b-13d3254c4229","ios":"levelo://app?vid=62e23b1a-6404-4959-9b0b-13d3254c4229"},"vehicle_type_id":"4","last_reported":1740600648,"current_range_meters":17200,"station_id":"ce4bhs12rcd13ifvqhvg","pricing_plan_id":"cebpf4jnsgd1na2vs0mg"},{"bike_id":"8a03402d-e155-4348-8c61-4ca779e77406","system_id":"levelo_inurba_marseille","lat":43.25111,"lon":5.40322,"is_reserved":false,"is_disabled":false,"rental_uris":{"android":"levelo://app?vid=8a03402d-e155-4348-8c61-4ca779e77406","ios":"levelo://app?vid=8a03402d-e155-4348-8c61-4ca779e77406"},"vehicle_type_id":"4","last_reported":1740600648,"current_range_meters":17600,"station_id":"ce4bhlh2rcd13ifvqgig","pricing_plan_id":"cebpf4jnsgd1na2vs0mg"},{"bike_id":"4c56b05b-d311-4d1d-b526-605a805d1bd4","system_id":"levelo_inurba_marseille","lat":43.28112,"lon":5.40576,"is_reserved":false,"is_disabled":false,"rental_uris":{"android":"levelo://app?vid=4c56b05b-d311-4d1d-b526-605a805d1bd4","ios":"levelo://app?vid=4c56b05b-d311-4d1d-b526-605a805d1bd4"},"vehicle_type_id":"4","last_reported":1740600648,"current_range_meters":16000,"station_id":"","pricing_plan_id":"cebpf4jnsgd1na2vs0mg"},{"bike_id":"65d8420b-015e-4098-985c-035e76551666","system_id":"levelo_inurba_marseille","lat":43.25579,"lon":5.38239,"is_reserved":false,"is_disabled":false,"rental_uris":{"android":"levelo://app?vid=65d8420b-015e-4098-985c-035e76551666","ios":"levelo://app?vid=65d8420b-015e-4098-985c-035e76551666"},"vehicle_type_id":"4","last_reported":1740600648,"current_range_meters":17600,"station_id":"ce4bhih2rcd13ifvqfs0","pricing_plan_id":"cebpf4jnsgd1na2vs0mg"},{"bike_id":"a05f0b98-a92c-4bff-8a2e-dc25e96a6b19","system_id":"levelo_inurba_marseille","lat":43.28637,"lon":5.35085,"is_reserved":false,"is_disabled":false,"rental_uris":{"android":"levelo://app?vid=a05f0b98-a92c-4bff-8a2e-dc25e96a6b19","ios":"levelo://app?vid=a05f0b98-a92c-4bff-8a2e-dc25e96a6b19"},"vehicle_type_id":"4","last_reported":1740600648,"current_range_meters":17600,"station_id":"ce4bhch2rcd13ifvqeug","pricing_plan_id":"cebpf4jnsgd1na2vs0mg"},{"bike_id":"40617187-8eba-418d-9999-90d2f7ba5169","system_id":"levelo_inurba_marseille","lat":43.29064,"lon":5.37547,"is_reserved":false,"is_disabled":false,"rental_uris":{"android":"levelo://app?vid=40617187-8eba-418d-9999-90d2f7ba5169","ios":"levelo://app?vid=40617187-8eba-418d-9999-90d2f7ba5169"},"vehicle_type_id":"4","last_reported":1740600648,"current_range_meters":17600,"station_id":"ce4bh692rcd13ifvqe90","pricing_plan_id":"cebpf4jnsgd1na2vs0mg"},{"bike_id":"39cc7a64-ac26-4b89-8a7b-a94c8cf7d966","system_id":"levelo_inurba_marseille","lat":43.29299,"lon":5.37448,"is_reserved":false,"is_disabled":false,"rental_uris":{"android":"levelo://app?vid=39cc7a64-ac26-4b89-8a7b-a94c8cf7d966","ios":"levelo://app?vid=39cc7a64-ac26-4b89-8a7b-a94c8cf7d966"},"vehicle_type_id":"4","last_reported":1740600648,"current_range_meters":17600,"station_id":"ce4bgi12rcd13ifvqb70","pricing_plan_id":"cebpf4jnsgd1na2vs0mg"},{"bike_id":"a2d5e0e2-9526-4581-b4c8-fa0ff594db4b","system_id":"levelo_inurba_marseille","lat":43.3088,"lon":5.39639,"is_reserved":false,"is_disabled":false,"rental_uris":{"android":"levelo://app?vid=a2d5e0e2-9526-4581-b4c8-fa0ff594db4b","ios":"levelo://app?vid=a2d5e0e2-9526-4581-b4c8-fa0ff594db4b"},"vehicle_type_id":"4","last_reported":1740600648,"current_range_meters":17600,"station_id":"ce4bh012rcd13ifvqcv0","pricing_plan_id":"cebpf4jnsgd1na2vs0mg"},{"bike_id":"7df8bf54-0a8a-40ac-a202-7f0a339a954d","system_id":"levelo_inurba_marseille","lat":43.28151,"lon":5.42627,"is_reserved":false,"is_disabled":false,"rental_uris":{"android":"levelo://app?vid=7df8bf54-0a8a-40ac-a202-7f0a339a954d","ios":"levelo://app?vid=7df8bf54-0a8a-40ac-a202-7f0a339a954d"},"vehicle_type_id":"4","last_reported":1740600648,"current_range_meters":18000,"station_id":"ce4bhnh2rcd13ifvqgug","pricing_plan_id":"cebpf4jnsgd1na2vs0mg"},{"bike_id":"f2652af0-7f89-4f32-835a-da4ab8b102ce","system_id":"levelo_inurba_marseille","lat":43.28434,"lon":5.34975,"is_reserved":false,"is_disabled":false,"rental_uris":{"android":"levelo://app?vid=f2652af0-7f89-4f32-835a-da4ab8b102ce","ios":"levelo://app?vid=f2652af0-7f89-4f32-835a-da4ab8b102ce"},"vehicle_type_id":"4","last_reported":1740600648,"current_range_meters":18000,"station_id":"ce4bhbh2rcd13ifvqepg","pricing_plan_id":"cebpf4jnsgd1na2vs0mg"},{"bike_id":"90dd9a51-1aab-490d-87a6-a1d9b259577c","system_id":"levelo_inurba_marseille","lat":43.29705,"lon":5.36597,"is_reserved":false,"is_disabled":false,"rental_uris":{"android":"levelo://app?vid=90dd9a51-1aab-490d-87a6-a1d9b259577c","ios":"levelo://app?vid=90dd9a51-1aab-490d-87a6-a1d9b259577c"},"vehicle_type_id":"4","last_reported":1740600648,"current_range_meters":17600,"station_id":"ce4bgn12rcd13ifvqbt0","pricing_plan_id":"cebpf4jnsgd1na2vs0mg"},{"bike_id":"40e25f70-02b5-4811-add6-6e8dbc26a035","system_id":"levelo_inurba_marseille","lat":43.28426,"lon":5.35008,"is_reserved":false,"is_disabled":false,"rental_uris":{"android":"levelo://app?vid=40e25f70-02b5-4811-add6-6e8dbc26a035","ios":"levelo://app?vid=40e25f70-02b5-4811-add6-6e8dbc26a035"},"vehicle_type_id":"4","last_reported":1740600648,"current_range_meters":18000,"station_id":"ce4bhbh2rcd13ifvqepg","pricing_plan_id":"cebpf4jnsgd1na2vs0mg"},{"bike_id":"eb7ad72c-b42c-4983-b7c5-53a635a50dd3","system_id":"levelo_inurba_marseille","lat":43.29419,"lon":5.38632,"is_reserved":false,"is_disabled":false,"rental_uris":{"android":"levelo://app?vid=eb7ad72c-b42c-4983-b7c5-53a635a50dd3","ios":"levelo://app?vid=eb7ad72c-b42c-4983-b7c5-53a635a50dd3"},"vehicle_type_id":"4","last_reported":1740600648,"current_range_meters":18000,"station_id":"ce4bh2h2rcd13ifvqdh0","pricing_plan_id":"cebpf4jnsgd1na2vs0mg"},{"bike_id":"5a15810c-0011-4f4f-a987-c1620c46a0ec","system_id":"levelo_inurba_marseille","lat":43.25575,"lon":5.38241,"is_reserved":false,"is_disabled":false,"rental_uris":{"android":"levelo://app?vid=5a15810c-0011-4f4f-a987-c1620c46a0ec","ios":"levelo://app?vid=5a15810c-0011-4f4f-a987-c1620c46a0ec"},"vehicle_type_id":"4","last_reported":1740600648,"current_range_meters":18000,"station_id":"ce4bhih2rcd13ifvqfs0","pricing_plan_id":"cebpf4jnsgd1na2vs0mg"},{"bike_id":"e7d4a5ba-3259-4868-80fd-096b5bf62833","system_id":"levelo_inurba_marseille","lat":43.29525,"lon":5.3903,"is_reserved":false,"is_disabled":false,"rental_uris":{"android":"levelo://app?vid=e7d4a5ba-3259-4868-80fd-096b5bf62833","ios":"levelo://app?vid=e7d4a5ba-3259-4868-80fd-096b5bf62833"},"vehicle_type_id":"4","last_reported":1740600648,"current_range_meters":17600,"station_id":"ce4bh3p2rcd13ifvqdp0","pricing_plan_id":"cebpf4jnsgd1na2vs0mg"},{"bike_id":"ff0901e1-a278-4079-9f00-7a5c594c76c8","system_id":"levelo_inurba_marseille","lat":43.292,"lon":5.39318,"is_reserved":false,"is_disabled":false,"rental_uris":{"android":"levelo://app?vid=ff0901e1-a278-4079-9f00-7a5c594c76c8","ios":"levelo://app?vid=ff0901e1-a278-4079-9f00-7a5c594c76c8"},"vehicle_type_id":"4","last_reported":1740600648,"current_range_meters":17600,"station_id":"ce4bh192rcd13ifvqdd0","pricing_plan_id":"cebpf4jnsgd1na2vs0mg"},{"bike_id":"201b43e1-9166-4b93-9ecb-211bb1985890","system_id":"levelo_inurba_marseille","lat":43.32352,"lon":5.36712,"is_reserved":false,"is_disabled":false,"rental_uris":{"android":"levelo://app?vid=201b43e1-9166-4b93-9ecb-211bb1985890","ios":"levelo://app?vid=201b43e1-9166-4b93-9ecb-211bb1985890"},"vehicle_type_id":"4","last_reported":1740600648,"current_range_meters":18000,"station_id":"ce4bhsh2rcd13ifvqi2g","pricing_plan_id":"cebpf4jnsgd1na2vs0mg"},{"bike_id":"d337cc62-b29d-4e4a-bd4f-e767bd643d41","system_id":"levelo_inurba_marseille","lat":43.32125,"lon":5.36791,"is_reserved":false,"is_disabled":false,"rental_uris":{"android":"levelo://app?vid=d337cc62-b29d-4e4a-bd4f-e767bd643d41","ios":"levelo://app?vid=d337cc62-b29d-4e4a-bd4f-e767bd643d41"},"vehicle_type_id":"4","last_reported":1740600648,"current_range_meters":18000,"station_id":"ce4bhrh2rcd13ifvqhug","pricing_plan_id":"cebpf4jnsgd1na2vs0mg"},{"bike_id":"907f6c55-73e8-438e-b2f3-183a399a20ec","system_id":"levelo_inurba_marseille","lat":43.29263,"lon":5.38436,"is_reserved":false,"is_disabled":false,"rental_uris":{"android":"levelo://app?vid=907f6c55-73e8-438e-b2f3-183a399a20ec","ios":"levelo://app?vid=907f6c55-73e8-438e-b2f3-183a399a20ec"},"vehicle_type_id":"4","last_reported":1740600648,"current_range_meters":18000,"station_id":"ce4bh692rcd13ifvqea0","pricing_plan_id":"cebpf4jnsgd1na2vs0mg"},{"bike_id":"07e71897-7b0a-4f02-b034-4876af832b3a","system_id":"levelo_inurba_marseille","lat":43.28254,"lon":5.35085,"is_reserved":false,"is_disabled":false,"rental_uris":{"android":"levelo://app?vid=07e71897-7b0a-4f02-b034-4876af832b3a","ios":"levelo://app?vid=07e71897-7b0a-4f02-b034-4876af832b3a"},"vehicle_type_id":"4","last_reported":1740600648,"current_range_meters":19200,"station_id":"ce4bhbp2rcd13ifvqerg","pricing_plan_id":"cebpf4jnsgd1na2vs0mg"},{"bike_id":"233fae72-e506-4095-9343-c9a2fe7160c0","system_id":"levelo_inurba_marseille","lat":43.28925,"lon":5.38387,"is_reserved":false,"is_disabled":false,"rental_uris":{"android":"levelo://app?vid=233fae72-e506-4095-9343-c9a2fe7160c0","ios":"levelo://app?vid=233fae72-e506-4095-9343-c9a2fe7160c0"},"vehicle_type_id":"4","last_reported":1740600648,"current_range_meters":17600,"station_id":"ce4bh612rcd13ifvqe6g","pricing_plan_id":"cebpf4jnsgd1na2vs0mg"},{"bike_id":"f45dcd0e-9c9b-484c-b974-a8bd1368db5d","system_id":"levelo_inurba_marseille","lat":43.27683,"lon":5.38875,"is_reserved":false,"is_disabled":false,"rental_uris":{"android":"levelo://app?vid=f45dcd0e-9c9b-484c-b974-a8bd1368db5d","ios":"levelo://app?vid=f45dcd0e-9c9b-484c-b974-a8bd1368db5d"},"vehicle_type_id":"4","last_reported":1740600648,"current_range_meters":18000,"station_id":"ce4bhi12rcd13ifvqfo0","pricing_plan_id":"cebpf4jnsgd1na2vs0mg"},{"bike_id":"78faf8ab-fdd7-412f-902d-0fa7f6a56bc9","system_id":"levelo_inurba_marseille","lat":43.28716,"lon":5.3609,"is_reserved":false,"is_disabled":false,"rental_uris":{"android":"levelo://app?vid=78faf8ab-fdd7-412f-902d-0fa7f6a56bc9","ios":"levelo://app?vid=78faf8ab-fdd7-412f-902d-0fa7f6a56bc9"},"vehicle_type_id":"4","last_reported":1740600648,"current_range_meters":18800,"station_id":"cki0cbj6b192h4jlfktg","pricing_plan_id":"cebpf4jnsgd1na2vs0mg"},{"bike_id":"8e5970ad-dc10-42e4-955e-ae8f9c3e18b8","system_id":"levelo_inurba_marseille","lat":43.27947,"lon":5.41045,"is_reserved":false,"is_disabled":false,"rental_uris":{"android":"levelo://app?vid=8e5970ad-dc10-42e4-955e-ae8f9c3e18b8","ios":"levelo://app?vid=8e5970ad-dc10-42e4-955e-ae8f9c3e18b8"},"vehicle_type_id":"4","last_reported":1740600648,"current_range_meters":18800,"station_id":"ce4bhnp2rcd13ifvqh0g","pricing_plan_id":"cebpf4jnsgd1na2vs0mg"},{"bike_id":"1764f22b-0fcc-40e7-a82c-d7970e042752","system_id":"levelo_inurba_marseille","lat":43.29869,"lon":5.38912,"is_reserved":false,"is_disabled":false,"rental_uris":{"android":"levelo://app?vid=1764f22b-0fcc-40e7-a82c-d7970e042752","ios":"levelo://app?vid=1764f22b-0fcc-40e7-a82c-d7970e042752"},"vehicle_type_id":"4","last_reported":1740600648,"current_range_meters":18800,"station_id":"ce4bh392rcd13ifvqdl0","pricing_plan_id":"cebpf4jnsgd1na2vs0mg"},{"bike_id":"ef77bf7f-5b88-41c9-8d3b-c8c9c0447dd9","system_id":"levelo_inurba_marseille","lat":43.28038,"lon":5.35048,"is_reserved":false,"is_disabled":false,"rental_uris":{"android":"levelo://app?vid=ef77bf7f-5b88-41c9-8d3b-c8c9c0447dd9","ios":"levelo://app?vid=ef77bf7f-5b88-41c9-8d3b-c8c9c0447dd9"},"vehicle_type_id":"4","last_reported":1740600648,"current_range_meters":18800,"station_id":"","pricing_plan_id":"cebpf4jnsgd1na2vs0mg"},{"bike_id":"0ffceea9-ca7f-496b-b9ee-c18123072cf4","system_id":"levelo_inurba_marseille","lat":43.30137,"lon":5.39868,"is_reserved":false,"is_disabled":false,"rental_uris":{"android":"levelo://app?vid=0ffceea9-ca7f-496b-b9ee-c18123072cf4","ios":"levelo://app?vid=0ffceea9-ca7f-496b-b9ee-c18123072cf4"},"vehicle_type_id":"4","last_reported":1740600648,"current_range_meters":18800,"station_id":"ce4bh0h2rcd13ifvqd40","pricing_plan_id":"cebpf4jnsgd1na2vs0mg"},{"bike_id":"e279b0c8-2582-4da0-a439-675dfd1a3e36","system_id":"levelo_inurba_marseille","lat":43.30095,"lon":5.39079,"is_reserved":false,"is_disabled":false,"rental_uris":{"android":"levelo://app?vid=e279b0c8-2582-4da0-a439-675dfd1a3e36","ios":"levelo://app?vid=e279b0c8-2582-4da0-a439-675dfd1a3e36"},"vehicle_type_id":"4","last_reported":1740600648,"current_range_meters":18800,"station_id":"ce4bh192rcd13ifvqdb0","pricing_plan_id":"cebpf4jnsgd1na2vs0mg"},{"bike_id":"8e6795ef-5cc7-4703-bc55-898144eada56","system_id":"levelo_inurba_marseille","lat":43.28412,"lon":5.34981,"is_reserved":false,"is_disabled":false,"rental_uris":{"android":"levelo://app?vid=8e6795ef-5cc7-4703-bc55-898144eada56","ios":"levelo://app?vid=8e6795ef-5cc7-4703-bc55-898144eada56"},"vehicle_type_id":"4","last_reported":1740600648,"current_range_meters":18800,"station_id":"ce4bhbh2rcd13ifvqepg","pricing_plan_id":"cebpf4jnsgd1na2vs0mg"},{"bike_id":"7c25aa04-4a25-438f-9750-4c3f92151e91","system_id":"levelo_inurba_marseille","lat":43.30877,"lon":5.39647,"is_reserved":false,"is_disabled":false,"rental_uris":{"android":"levelo://app?vid=7c25aa04-4a25-438f-9750-4c3f92151e91","ios":"levelo://app?vid=7c25aa04-4a25-438f-9750-4c3f92151e91"},"vehicle_type_id":"4","last_reported":1740600648,"current_range_meters":18800,"station_id":"ce4bh012rcd13ifvqcv0","pricing_plan_id":"cebpf4jnsgd1na2vs0mg"},