{"last_updated":1731517679,"ttl":60,"version":"2.2","data":{"bikes":[{"bike_id":"5e0b96eb-e320-4b74-ad8d-6b94f8ca4d3f","system_id":"levelo_inurba_marseille","lat":43.27948,"lon":5.38749,"is_reserved":false,"is_disabled":false,"rental_uris":{"android":"levelo://app?vid=5e0b96eb-e320-4b74-ad8d-6b94f8ca4d3f","ios":"levelo://app?vid=5e0b96eb-e320-4b74-ad8d-6b94f8ca4d3f"},"vehicle_type_id":"4","last_reported":1731517679,"current_range_meters":38000,"station_id":"ce4bhg12rcd13ifvqf80","pricing_plan_id":"cebpf4jnsgd1na2vs0mg"},{"bike_id":"a8b5795a-f92a-4c99-951c-d3c4edb74e83","system_id":"levelo_inurba_marseille","lat":43.28461,"lon":5.358849,"is_reserved":false,"is_disabled":false,"rental_uris":{"android":"levelo://app?vid=a8b5795a-f92a-4c99-951c-d3c4edb74e83","ios":"levelo://app?vid=a8b5795a-f92a-4c99-951c-d3c4edb74e83"},"vehicle_type_id":"4","last_reported":1731517679,"current_range_meters":38000,"station_id":"ce4bhah2rcd13ifvqei0","pricing_plan_id":"cebpf4jnsgd1na2vs0mg"},{"bike_id":"9713de80-8499-47fb-a8b4-573a1511026c","system_id":"levelo_inurba_marseille","lat":43.28661,"lon":5.36352,"is_reserved":false,"is_disabled":false,"rental_uris":{"android":"levelo://app?vid=9713de80-8499-47fb-a8b4-573a1511026c","ios":"levelo://app?vid=9713de80-8499-47fb-a8b4-573a1511026c"},"vehicle_type_id":"4","last_reported":1731517679,"current_range_meters":38800,"station_id":"ce4bhah2rcd13ifvqej0","pricing_plan_id":"cebpf4jnsgd1na2vs0mg"},{"bike_id":"eb66c83e-9c22-451e-9a96-11fcf0b6a22c","system_id":"levelo_inurba_marseille","lat":43.31755,"lon":5.39017,"is_reserved":false,"is_disabled":false,"rental_uris":{"android":"levelo://app?vid=eb66c83e-9c22-451e-9a96-11fcf0b6a22c","ios":"levelo://app?vid=eb66c83e-9c22-451e-9a96-11fcf0b6a22c"},"vehicle_type_id":"4","last_reported":1731517679,"current_range_meters":39200,"station_id":"ce4bhqp2rcd13ifvqhng","pricing_plan_id":"cebpf4jnsgd1na2vs0mg"},{"bike_id":"4dcf22e6-a3a5-4fd7-b7ec-2c480fc2bda6","system_id":"levelo_inurba_marseille","lat":43.2846,"lon":5.35894,"is_reserved":false,"is_disabled":false,"rental_uris":{"android":"levelo://app?vid=4dcf22e6-a3a5-4fd7-b7ec-2c480fc2bda6","ios":"levelo://app?vid=4dcf22e6-a3a5-4fd7-b7ec-2c480fc2bda6"},"vehicle_type_id":"4","last_reported":1731517679,"current_range_meters":11600,"station_id":"ce4bhah2rcd13ifvqei0","pricing_plan_id":"cebpf4jnsgd1na2vs0mg"},{"bike_id":"0b942ed8-fbd0-47eb-aca2-23553ed1cd02","system_id":"levelo_inurba_marseille","lat":43.26801,"lon":5.40263,"is_reserved":false,"is_disabled":false,"rental_uris":{"android":"levelo://app?vid=0b942ed8-fbd0-47eb-aca2-23553ed1cd02","ios":"levelo://app?vid=0b942ed8-fbd0-47eb-aca2-23553ed1cd02"},"vehicle_type_id":"4","last_reported":1731517679,"current_range_meters":18800,"station_id":"ce501612rcd8frsf0b60","pricing_plan_id":"cebpf4jnsgd1na2vs0mg"},{"bike_id":"83810fab-8578-49ce-942d-263af71c2d83","system_id":"levelo_inurba_marseille","lat":43.28102,"lon":5.37846,"is_reserved":false,"is_disabled":false,"rental_uris":{"android":"levelo://app?vid=83810fab-8578-49ce-942d-263af71c2d83","ios":"levelo://app?vid=83810fab-8578-49ce-942d-263af71c2d83"},"vehicle_type_id":"4","last_reported":1731517679,"current_range_meters":17200,"station_id":"ce4bha12rcd13ifvqee0","pricing_plan_id":"cebpf4jnsgd1na2vs0mg"},{"bike_id":"f657cc61-e186-40a8-8ff4-0f569e71f03f","system_id":"levelo_inurba_marseille","lat":43.29866,"lon":5.38903,"is_reserved":false,"is_disabled":false,"rental_uris":{"android":"levelo://app?vid=f657cc61-e186-40a8-8ff4-0f569e71f03f","ios":"levelo://app?vid=f657cc61-e186-40a8-8ff4-0f569e71f03f"},"vehicle_type_id":"4","last_reported":1731517679,"current_range_meters":400,"station_id":"ce4bh392rcd13ifvqdl0","pricing_plan_id":"cebpf4jnsgd1na2vs0mg"},{"bike_id":"89742cca-9d04-4dbf-a95e-b333288f1064","system_id":"levelo_inurba_marseille","lat":43.26808,"lon":5.40271,"is_reserved":false,"is_disabled":false,"rental_uris":{"android":"levelo://app?vid=89742cca-9d04-4dbf-a95e-b333288f1064","ios":"levelo://app?vid=89742cca-9d04-4dbf-a95e-b333288f1064"},"vehicle_type_id":"4","last_reported":1731517679,"current_range_meters":4400,"station_id":"ce501612rcd8frsf0b60","pricing_plan_id":"cebpf4jnsgd1na2vs0mg"},{"bike_id":"a69f4d7b-3e5e-4cdf-a3a5-2686fa0be77b","system_id":"levelo_inurba_marseille","lat":43.33022,"lon":5.39044,"is_reserved":false,"is_disabled":false,"rental_uris":{"android":"levelo://app?vid=a69f4d7b-3e5e-4cdf-a3a5-2686fa0be77b","ios":"levelo://app?vid=a69f4d7b-3e5e-4cdf-a3a5-2686fa0be77b"},"vehicle_type_id":"4","last_reported":1731517679,"current_range_meters":23200,"station_id":"ce4bhr92rcd13ifvqhrg","pricing_plan_id":"cebpf4jnsgd1na2vs0mg"},{"bike_id":"fd44d913-a64b-49db-81d6-7a415543f20d","system_id":"levelo_inurba_marseille","lat":43.28446,"lon":5.39209,"is_reserved":false,"is_disabled":false,"rental_uris":{"android":"levelo://app?vid=fd44d913-a64b-49db-81d6-7a415543f20d","ios":"levelo://app?vid=fd44d913-a64b-49db-81d6-7a415543f20d"},"vehicle_type_id":"4","last_reported":1731517679,"current_range_meters":34800,"station_id":"ce4bhoh2rcd13ifvqh5g","pricing_plan_id":"cebpf4jnsgd1na2vs0mg"},{"bike_id":"cbc19349-e630-4dd8-baac-6335f6904726","system_id":"levelo_inurba_marseille","lat":43.27613,"lon":5.36113,"is_reserved":false,"is_disabled":false,"rental_uris":{"android":"levelo://app?vid=cbc19349-e630-4dd8-baac-6335f6904726","ios":"levelo://app?vid=cbc19349-e630-4dd8-baac-6335f6904726"},"vehicle_type_id":"4","last_reported":1731517679,"current_range_meters":4800,"station_id":"ce4bgj92rcd13ifvqbe0","pricing_plan_id":"cebpf4jnsgd1na2vs0mg"},{"bike_id":"281fbaa2-25ce-4272-b523-c987388ef83c","system_id":"levelo_inurba_marseille","lat":43.249725,"lon":5.37525,"is_reserved":false,"is_disabled":false,"rental_uris":{"android":"levelo://app?vid=281fbaa2-25ce-4272-b523-c987388ef83c","ios":"levelo://app?vid=281fbaa2-25ce-4272-b523-c987388ef83c"},"vehicle_type_id":"4","last_reported":1731517679,"current_range_meters":20000,"station_id":"ce4bhf92rcd13ifvqf50","pricing_plan_id":"cebpf4jnsgd1na2vs0mg"},{"bike_id":"4a74f469-1d99-48ee-a8ca-9199898c00a4","system_id":"levelo_inurba_marseille","lat":43.23197,"lon":5.35553,"is_reserved":false,"is_disabled":false,"rental_uris":{"android":"levelo://app?vid=4a74f469-1d99-48ee-a8ca-9199898c00a4","ios":"levelo://app?vid=4a74f469-1d99-48ee-a8ca-9199898c00a4"},"vehicle_type_id":"4","last_reported":1731517679,"current_range_meters":26800,"station_id":"ce4bhu92rcd13ifvqi70","pricing_plan_id":"cebpf4jnsgd1na2vs0mg"},{"bike_id":"31978f73-55d5-4b65-bb7d-03a24f2f394b","system_id":"levelo_inurba_marseille","lat":43.29529,"lon":5.39057,"is_reserved":false,"is_disabled":false,"rental_uris":{"android":"levelo://app?vid=31978f73-55d5-4b65-bb7d-03a24f2f394b","ios":"levelo://app?vid=31978f73-55d5-4b65-bb7d-03a24f2f394b"},"vehicle_type_id":"4","last_reported":1731517679,"current_range_meters":20800,"station_id":"ce4bh3p2rcd13ifvqdp0","pricing_plan_id":"cebpf4jnsgd1na2vs0mg"},{"bike_id":"77849bd5-5bfe-4445-8191-82da714d15fa","system_id":"levelo_inurba_marseille","lat":43.27808,"lon":5.4072,"is_reserved":false,"is_disabled":false,"rental_uris":{"android":"levelo://app?vid=77849bd5-5bfe-4445-8191-82da714d15fa","ios":"levelo://app?vid=77849bd5-5bfe-4445-8191-82da714d15fa"},"vehicle_type_id":"4","last_reported":1731517679,"current_range_meters":36800,"station_id":"ce4bhnh2rcd13ifvqgtg","pricing_plan_id":"cebpf4jnsgd1na2vs0mg"},{"bike_id":"baeed238-b5b4-482c-9e5c-2accf4da025a","system_id":"levelo_inurba_marseille","lat":43.28039,"lon":5.36954,"is_reserved":false,"is_disabled":false,"rental_uris":{"android":"levelo://app?vid=baeed238-b5b4-482c-9e5c-2accf4da025a","ios":"levelo://app?vid=baeed238-b5b4-482c-9e5c-2accf4da025a"},"vehicle_type_id":"4","last_reported":1731517679,"current_range_meters":28800,"station_id":"ce4bha12rcd13ifvqef0","pricing_plan_id":"cebpf4jnsgd1na2vs0mg"},{"bike_id":"20b7e07c-18b1-4207-a3ae-4a484d80a2cd","system_id":"levelo_inurba_marseille","lat":43.26948,"lon":5.40247,"is_reserved":false,"is_disabled":false,"rental_uris":{"android":"levelo://app?vid=20b7e07c-18b1-4207-a3ae-4a484d80a2cd","ios":"levelo://app?vid=20b7e07c-18b1-4207-a3ae-4a484d80a2cd"},"vehicle_type_id":"4","last_reported":1731517679,"current_range_meters":30400,"station_id":"cjm6bp8fraef2m0cb0m0","pricing_plan_id":"cebpf4jnsgd1na2vs0mg"},{"bike_id":"1672805f-5ad9-4751-9c27-e42db1935544","system_id":"levelo_inurba_marseille","lat":43.300819,"lon":5.365499,"is_reserved":false,"is_disabled":false,"rental_uris":{"android":"levelo://app?vid=1672805f-5ad9-4751-9c27-e42db1935544","ios":"levelo://app?vid=1672805f-5ad9-4751-9c27-e42db1935544"},"vehicle_type_id":"4","last_reported":1731517679,"current_range_meters":23200,"station_id":"ce4bgrh2rcd13ifvqc8g","pricing_plan_id":"cebpf4jnsgd1na2vs0mg"},{"bike_id":"32ac40ae-d0d2-48d5-b96f-4081ecbcf506","system_id":"levelo_inurba_marseille","lat":43.2929,"lon":5.37475,"is_reserved":false,"is_disabled":false,"rental_uris":{"android":"levelo://app?vid=32ac40ae-d0d2-48d5-b96f-4081ecbcf506","ios":"levelo://app?vid=32ac40ae-d0d2-48d5-b96f-4081ecbcf506"},"vehicle_type_id":"4","last_reported":1731517679,"current_range_meters":18800,"station_id":"ce4bgi12rcd13ifvqb70","pricing_plan_id":"cebpf4jnsgd1na2vs0mg"},{"bike_id":"cd8a114a-5d3f-4519-8758-7784560f3a71","system_id":"levelo_inurba_marseille","lat":43.29037,"lon":5.39973,"is_reserved":false,"is_disabled":false,"rental_uris":{"android":"levelo://app?vid=cd8a114a-5d3f-4519-8758-7784560f3a71","ios":"levelo://app?vid=cd8a114a-5d3f-4519-8758-7784560f3a71"},"vehicle_type_id":"4","last_reported":1731517679,"current_range_meters":8000,"station_id":"ce4bh392rcd13ifvqdm0","pricing_plan_id":"cebpf4jnsgd1na2vs0mg"},{"bike_id":"4c8dde88-876b-4982-8735-3bb511f7639f","system_id":"levelo_inurba_marseille","lat":43.29037,"lon":5.37563,"is_reserved":false,"is_disabled":false,"rental_uris":{"android":"levelo://app?vid=4c8dde88-876b-4982-8735-3bb511f7639f","ios":"levelo://app?vid=4c8dde88-876b-4982-8735-3bb511f7639f"},"vehicle_type_id":"4","last_reported":1731517679,"current_range_meters":17200,"station_id":"ce4bh692rcd13ifvqe90","pricing_plan_id":"cebpf4jnsgd1na2vs0mg"},{"bike_id":"bf563478-0c62-48ab-aa69-014e6b3707b4","system_id":"levelo_inurba_marseille","lat":43.24174,"lon":5.39736,"is_reserved":false,"is_disabled":false,"rental_uris":{"android":"levelo://app?vid=bf563478-0c62-48ab-aa69-014e6b3707b4","ios":"levelo://app?vid=bf563478-0c62-48ab-aa69-014e6b3707b4"},"vehicle_type_id":"4","last_reported":1731517679,"current_range_meters":38800,"station_id":"ce4bhn12rcd13ifvqgpg","pricing_plan_id":"cebpf4jnsgd1na2vs0mg"},{"bike_id":"422c5d1b-a5e0-4dad-bf52-e0121e822935","system_id":"levelo_inurba_marseille","lat":43.28367,"lon":5.38643,"is_reserved":false,"is_disabled":false,"rental_uris":{"android":"levelo://app?vid=422c5d1b-a5e0-4dad-bf52-e0121e822935","ios":"levelo://app?vid=422c5d1b-a5e0-4dad-bf52-e0121e822935"},"vehicle_type_id":"4","last_reported":1731517679,"current_range_meters":30400,"station_id":"ce4bh492rcd13ifvqdvg","pricing_plan_id":"cebpf4jnsgd1na2vs0mg"},{"bike_id":"ceaf1c85-1d4c-4daa-b4b7-bbb91b330960","system_id":"levelo_inurba_marseille","lat":43.2866,"lon":5.36354,"is_reserved":false,"is_disabled":false,"rental_uris":{"android":"levelo://app?vid=ceaf1c85-1d4c-4daa-b4b7-bbb91b330960","ios":"levelo://app?vid=ceaf1c85-1d4c-4daa-b4b7-bbb91b330960"},"vehicle_type_id":"4","last_reported":1731517679,"current_range_meters":9600,"station_id":"ce4bhah2rcd13ifvqej0","pricing_plan_id":"cebpf4jnsgd1na2vs0mg"},{"bike_id":"1bc74813-704a-4f10-8c42-1cc5e112dcad","system_id":"levelo_inurba_marseille","lat":43.25114,"lon":5.40324,"is_reserved":false,"is_disabled":false,"rental_uris":{"android":"levelo://app?vid=1bc74813-704a-4f10-8c42-1cc5e112dcad","ios":"levelo://app?vid=1bc74813-704a-4f10-8c42-1cc5e112dcad"},"vehicle_type_id":"4","last_reported":1731517679,"current_range_meters":4000,"station_id":"ce4bhlh2rcd13ifvqgig","pricing_plan_id":"cebpf4jnsgd1na2vs0mg"},{"bike_id":"8e270c71-7479-4765-b391-980840d65495","system_id":"levelo_inurba_marseille","lat":43.25087,"lon":5.3952,"is_reserved":false,"is_disabled":false,"rental_uris":{"android":"levelo://app?vid=8e270c71-7479-4765-b391-980840d65495","ios":"levelo://app?vid=8e270c71-7479-4765-b391-980840d65495"},"vehicle_type_id":"4","last_reported":1731517679,"current_range_meters":12400,"station_id":"ce4bhm12rcd13ifvqgkg","pricing_plan_id":"cebpf4jnsgd1na2vs0mg"},{"bike_id":"c20d09fb-f23c-4a1a-9f7e-1f3d5e0601d8","system_id":"levelo_inurba_marseille","lat":43.26191,"lon":5.37456,"is_reserved":false,"is_disabled":false,"rental_uris":{"android":"levelo://app?vid=c20d09fb-f23c-4a1a-9f7e-1f3d5e0601d8","ios":"levelo://app?vid=c20d09fb-f23c-4a1a-9f7e-1f3d5e0601d8"},"vehicle_type_id":"4","last_reported":1731517679,"current_range_meters":38800,"station_id":"ce4bhgp2rcd13ifvqfc0","pricing_plan_id":"cebpf4jnsgd1na2vs0mg"},{"bike_id":"d99bff46-e3e0-4c25-9719-3fa3dd9a1a6e","system_id":"levelo_inurba_marseille","lat":43.3141,"lon":5.37434,"is_reserved":false,"is_disabled":false,"rental_uris":{"android":"levelo://app?vid=d99bff46-e3e0-4c25-9719-3fa3dd9a1a6e","ios":"levelo://app?vid=d99bff46-e3e0-4c25-9719-3fa3dd9a1a6e"},"vehicle_type_id":"4","last_reported":1731517679,"current_range_meters":22400,"station_id":"","pricing_plan_id":"cebpf4jnsgd1na2vs0mg"},{"bike_id":"e9bb8950-76de-4c9d-9aff-35253f090ff2","system_id":"levelo_inurba_marseille","lat":43.28119,"lon":5.37841,"is_reserved":false,"is_disabled":false,"rental_uris":{"android":"levelo://app?vid=e9bb8950-76de-4c9d-9aff-35253f090ff2","ios":"levelo://app?vid=e9bb8950-76de-4c9d-9aff-35253f090ff2"},"vehicle_type_id":"4","last_reported":1731517679,"current_range_meters":35600,"station_id":"ce4bha12rcd13ifvqee0","pricing_plan_id":"cebpf4jnsgd1na2vs0mg"},{"bike_id":"db6c500d-62cb-4d5e-bce8-780f51236f30","system_id":"levelo_inurba_marseille","lat":43.30902,"lon":5.36849,"is_reserved":false,"is_disabled":false,"rental_uris":{"android":"levelo://app?vid=db6c500d-62cb-4d5e-bce8-780f51236f30","ios":"levelo://app?vid=db6c500d-62cb-4d5e-bce8-780f51236f30"},"vehicle_type_id":"4","last_reported":1731517679,"current_range_meters":8400,"station_id":"ce4bgn92rcd13ifvqbvg","pricing_plan_id":"cebpf4jnsgd1na2vs0mg"},{"bike_id":"8e034435-97e6-4f6e-b61d-930d5226d990","system_id":"levelo_inurba_marseille","lat":43.33733,"lon":5.39193,"is_reserved":false,"is_disabled":false,"rental_uris":{"android":"levelo://app?vid=8e034435-97e6-4f6e-b61d-930d5226d990","ios":"levelo://app?vid=8e034435-97e6-4f6e-b61d-930d5226d990"},"vehicle_type_id":"4","last_reported":1731517679,"current_range_meters":8400,"station_id":"ce4bhr92rcd13ifvqhsg","pricing_plan_id":"cebpf4jnsgd1na2vs0mg"},{"bike_id":"07df449b-4274-4142-8432-30fbab1e34c7","system_id":"levelo_inurba_marseille","lat":43.316925,"lon":5.423986,"is_reserved":false,"is_disabled":false,"rental_uris":{"android":"levelo://app?vid=07df449b-4274-4142-8432-30fbab1e34c7","ios":"levelo://app?vid=07df449b-4274-4142-8432-30fbab1e34c7"},"vehicle_type_id":"4","last_reported":1731517679,"current_range_meters":8800,"station_id":"ce4bhp92rcd13ifvqhbg","pricing_plan_id":"cebpf4jnsgd1na2vs0mg"},{"bike_id":"9001b19f-633a-498c-8276-a0ef6e79d254","system_id":"levelo_inurba_marseille","lat":43.29419,"lon":5.38629,"is_reserved":false,"is_disabled":false,"rental_uris":{"android":"levelo://app?vid=9001b19f-633a-498c-8276-a0ef6e79d254","ios":"levelo://app?vid=9001b19f-633a-498c-8276-a0ef6e79d254"},"vehicle_type_id":"4","last_reported":1731517679,"current_range_meters":12800,"station_id":"ce4bh2h2rcd13ifvqdh0","pricing_plan_id":"cebpf4jnsgd1na2vs0mg"},{"bike_id":"d74e25c8-29fe-40d3-8094-c748fc91be8e","system_id":"levelo_inurba_marseille","lat":43.29372,"lon":5.37846,"is_reserved":false,"is_disabled":false,"rental_uris":{"android":"levelo://app?vid=d74e25c8-29fe-40d3-8094-c748fc91be8e","ios":"levelo://app?vid=d74e25c8-29fe-40d3-8094-c748fc91be8e"},"vehicle_type_id":"4","last_reported":1731517679,"current_range_meters":38800,"station_id":"ce4bgjh2rcd13ifvqbf0","pricing_plan_id":"cebpf4jnsgd1na2vs0mg"},{"bike_id":"c922eb02-035c-4fd0-a78f-29ec8348d4e8","system_id":"levelo_inurba_marseille","lat":43.29196,"lon":5.39334,"is_reserved":false,"is_disabled":false,"rental_uris":{"android":"levelo://app?vid=c922eb02-035c-4fd0-a78f-29ec8348d4e8","ios":"levelo://app?vid=c922eb02-035c-4fd0-a78f-29ec8348d4e8"},"vehicle_type_id":"4","last_reported":1731517679,"current_range_meters":8800,"station_id":"ce4bh192rcd13ifvqdd0","pricing_plan_id":"cebpf4jnsgd1na2vs0mg"},{"bike_id":"fbd002aa-cd87-440a-a4a4-8a43b0aab218","system_id":"levelo_inurba_marseille","lat":43.32363,"lon":5.38885,"is_reserved":false,"is_disabled":false,"rental_uris":{"android":"levelo://app?vid=fbd002aa-cd87-440a-a4a4-8a43b0aab218","ios":"levelo://app?vid=fbd002aa-cd87-440a-a4a4-8a43b0aab218"},"vehicle_type_id":"4","last_reported":1731517679,"current_range_meters":30000,"station_id":"ce4bhqp2rcd13ifvqhog","pricing_plan_id":"cebpf4jnsgd1na2vs0mg"},{"bike_id":"7db349e8-ad42-4134-bddb-be5dc2fe4958","system_id":"levelo_inurba_marseille","lat":43.29957,"lon":5.41318,"is_reserved":false,"is_disabled":false,"rental_uris":{"android":"levelo://app?vid=7db349e8-ad42-4134-bddb-be5dc2fe4958","ios":"levelo://app?vid=7db349e8-ad42-4134-bddb-be5dc2fe4958"},"vehicle_type_id":"4","last_reported":1731517679,"current_range_meters":26800,"station_id":"ce4bhp12rcd13ifvqh9g","pricing_plan_id":"cebpf4jnsgd1na2vs0mg"},{"bike_id":"2b9f9448-c3e0-4611-91be-9d10b2b55437","system_id":"levelo_inurba_marseille","lat":43.28152,"lon":5.42649,"is_reserved":false,"is_disabled":false,"rental_uris":{"android":"levelo://app?vid=2b9f9448-c3e0-4611-91be-9d10b2b55437","ios":"levelo://app?vid=2b9f9448-c3e0-4611-91be-9d10b2b55437"},"vehicle_type_id":"4","last_reported":1731517679,"current_range_meters":17600,"station_id":"ce4bhnh2rcd13ifvqgug","pricing_plan_id":"cebpf4jnsgd1na2vs0mg"},{"bike_id":"8963f262-bdcb-43f5-9e37-237198779ba8","system_id":"levelo_inurba_marseille","lat":43.33773,"lon":5.37442,"is_reserved":false,"is_disabled":false,"rental_uris":{"android":"levelo://app?vid=8963f262-bdcb-43f5-9e37-237198779ba8","ios":"levelo://app?vid=8963f262-bdcb-43f5-9e37-237198779ba8"},"vehicle_type_id":"4","last_reported":1731517679,"current_range_meters":37600,"station_id":"","pricing_plan_id":"cebpf4jnsgd1na2vs0mg"},{"bike_id":"9e206ec4-3bc2-4292-bb12-90ccf987d885","system_id":"levelo_inurba_marseille","lat":43.337444,"lon":5.374475,"is_reserved":false,"is_disabled":false,"rental_uris":{"android":"levelo://app?vid=9e206ec4-3bc2-4292-bb12-90ccf987d885","ios":"levelo://app?vid=9e206ec4-3bc2-4292-bb12-90ccf987d885"},"vehicle_type_id":"4","last_reported":1731517679,"current_range_meters":36800,"station_id":"","pricing_plan_id":"cebpf4jnsgd1na2vs0mg"},{"bike_id":"398b47b3-a042-4cec-b1dd-254773a78263","system_id":"levelo_inurba_marseille","lat":43.27402,"lon":5.38951,"is_reserved":false,"is_disabled":false,"rental_uris":{"android":"levelo://app?vid=398b47b3-a042-4cec-b1dd-254773a78263","ios":"levelo://app?vid=398b47b3-a042-4cec-b1dd-254773a78263"},"vehicle_type_id":"4","last_reported":1731517679,"current_range_meters":8400,"station_id":"","pricing_plan_id":"cebpf4jnsgd1na2vs0mg"},{"bike_id":"74a4b8f7-9064-4493-aa6a-4e692dcb99ce","system_id":"levelo_inurba_marseille","lat":43.28033,"lon":5.36954,"is_reserved":false,"is_disabled":false,"rental_uris":{"android":"levelo://app?vid=74a4b8f7-9064-4493-aa6a-4e692dcb99ce","ios":"levelo://app?vid=74a4b8f7-9064-4493-aa6a-4e692dcb99ce"},"vehicle_type_id":"4","last_reported":1731517679,"current_range_meters":4800,"station_id":"ce4bha12rcd13ifvqef0","pricing_plan_id":"cebpf4jnsgd1na2vs0mg"},{"bike_id":"68340cae-1458-49c8-86c4-c4231a7535b8","system_id":"levelo_inurba_marseille","lat":43.32334,"lon":5.40626,"is_reserved":false,"is_disabled":false,"rental_uris":{"android":"levelo://app?vid=68340cae-1458-49c8-86c4-c4231a7535b8","ios":"levelo://app?vid=68340cae-1458-49c8-86c4-c4231a7535b8"},"vehicle_type_id":"4","last_reported":1731517679,"current_range_meters":5600,"station_id":"ce4bhq92rcd13ifvqhjg","pricing_plan_id":"cebpf4jnsgd1na2vs0mg"},{"bike_id":"45f574f4-3b3a-4f67-bc11-43fe8c0da209","system_id":"levelo_inurba_marseille","lat":43.32003,"lon":5.38156,"is_reserved":false,"is_disabled":false,"rental_uris":{"android":"levelo://app?vid=45f574f4-3b3a-4f67-bc11-43fe8c0da209","ios":"levelo://app?vid=45f574f4-3b3a-4f67-bc11-43fe8c0da209"},"vehicle_type_id":"4","last_reported":1731517679,"current_range_meters":20400,"station_id":"ce4bhr12rcd13ifvqhpg","pricing_plan_id":"cebpf4jnsgd1na2vs0mg"},{"bike_id":"92e3ad17-17c9-4714-a148-ef9436ad6113","system_id":"levelo_inurba_marseille","lat":43.22933,"lon":5.35383,"is_reserved":false,"is_disabled":false,"rental_uris":{"android":"levelo://app?vid=92e3ad17-17c9-4714-a148-ef9436ad6113","ios":"levelo://app?vid=92e3ad17-17c9-4714-a148-ef9436ad6113"},"vehicle_type_id":"4","last_reported":1731517679,"current_range_meters":40000,"station_id":"cpo3532slgdg3j2ikp40","pricing_plan_id":"cebpf4jnsgd1na2vs0mg"},{"bike_id":"6d3b6101-e514-4fa7-8db1-6dc1e101fc47","system_id":"levelo_inurba_marseille","lat":43.2919,"lon":5.39335,"is_reserved":false,"is_disabled":false,"rental_uris":{"android":"levelo://app?vid=6d3b6101-e514-4fa7-8db1-6dc1e101fc47","ios":"levelo://app?vid=6d3b6101-e514-4fa7-8db1-6dc1e101fc47"},"vehicle_type_id":"4","last_reported":1731517679,"current_range_meters":39200,"station_id":"ce4bh192rcd13ifvqdd0","pricing_plan_id":"cebpf4jnsgd1na2vs0mg"},{"bike_id":"37cd69ea-28ea-4899-b781-9d6267d6bc5c","system_id":"levelo_inurba_marseille","lat":43.29031,"lon":5.38652,"is_reserved":false,"is_disabled":false,"rental_uris":{"android":"levelo://app?vid=37cd69ea-28ea-4899-b781-9d6267d6bc5c","ios":"levelo://app?vid=37cd69ea-28ea-4899-b781-9d6267d6bc5c"},"vehicle_type_id":"4","last_reported":1731517679,"current_range_meters":36000,"station_id":"ce4bh4p2rcd13ifvqe0g","pricing_plan_id":"cebpf4jnsgd1na2vs0mg"},{"bike_id":"beb7b9bd-a544-4d0c-b0ee-a6204f3f5108","system_id":"levelo_inurba_marseille","lat":43.291962,"lon":5.385193,"is_reserved":false,"is_disabled":false,"rental_uris":{"android":"levelo://app?vid=beb7b9bd-a544-4d0c-b0ee-a6204f3f5108","ios":"levelo://app?vid=beb7b9bd-a544-4d0c-b0ee-a6204f3f5108"},"vehicle_type_id":"4","last_reported":1731517679,"current_range_meters":28000,"station_id":"","pricing_plan_id":"cebpf4jnsgd1na2vs0mg"},{"bike_id":"82f309e6-c4ae-421f-89cb-1d64a8e0ef10","system_id":"levelo_inurba_marseille","lat":43.337444,"lon":5.374475,"is_reserved":false,"is_disabled":false,"rental_uris":{"android":"levelo://app?vid=82f309e6-c4ae-421f-89cb-1d64a8e0ef10","ios":"levelo://app?vid=82f309e6-c4ae-421f-89cb-1d64a8e0ef10"},"vehicle_type_id":"4","last_reported":1731517679,"current_range_meters":36400,"station_id":"","pricing_plan_id":"cebpf4jnsgd1na2vs0mg"},{"bike_id":"d2423466-98bc-4d3a-a5fc-c0d33f6c410d","system_id":"levelo_inurba_marseille","lat":43.337444,"lon":5.374475,"is_reserved":false,"is_disabled":false,"rental_uris":{"android":"levelo://app?vid=d2423466-98bc-4d3a-a5fc-c0d33f6c410d","ios":"levelo://app?vid=d2423466-98bc-4d3a-a5fc-c0d33f6c410d"},"vehicle_type_id":"4","last_reported":1731517679,"current_range_meters":36400,"station_id":"","pricing_plan_id":"cebpf4jnsgd1na2vs0mg"},{"bike_id":"4dbe1733-7a77-4bb1-9a28-fca01d18c90c","system_id":"levelo_inurba_marseille","lat":43.3153,"lon":5.38043,"is_reserved":false,"is_disabled":false,"rental_uris":{"android":"levelo://app?vid=4dbe1733-7a77-4bb1-9a28-fca01d18c90c","ios":"levelo://app?vid=4dbe1733-7a77-4bb1-9a28-fca01d18c90c"},"vehicle_type_id":"4","last_reported":1731517679,"current_range_meters":4800,"station_id":"ce4bhsp2rcd13ifvqi50","pricing_plan_id":"cebpf4jnsgd1na2vs0mg"},{"bike_id":"6e4ab7d2-c1df-4ea4-bb4b-2f5c43ed5717","system_id":"levelo_inurba_marseille","lat":43.33768,"lon":5.37439,"is_reserved":false,"is_disabled":false,"rental_uris":{"android":"levelo://app?vid=6e4ab7d2-c1df-4ea4-bb4b-2f5c43ed5717","ios":"levelo://app?vid=6e4ab7d2-c1df-4ea4-bb4b-2f5c43ed5717"},"vehicle_type_id":"4","last_reported":1731517679,"current_range_meters":36400,"station_id":"","pricing_plan_id":"cebpf4jnsgd1na2vs0mg"},{"bike_id":"b1f50a4e-bf80-417b-be95-adf7b4bc4b3b","system_id":"levelo_inurba_marseille","lat":43.30389,"lon":5.37005,"is_reserved":false,"is_disabled":false,"rental_uris":{"android":"levelo://app?vid=b1f50a4e-bf80-417b-be95-adf7b4bc4b3b","ios":"levelo://app?vid=b1f50a4e-bf80-417b-be95-adf7b4bc4b3b"},"vehicle_type_id":"4","last_reported":1731517679,"current_range_meters":34000,"station_id":"","pricing_plan_id":"cebpf4jnsgd1na2vs0mg"},{"bike_id":"1190fa6e-8c52-44db-9bcf-82abfa098b53","system_id":"levelo_inurba_marseille","lat":43.29019,"lon":5.38771,"is_reserved":false,"is_disabled":false,"rental_uris":{"android":"levelo://app?vid=1190fa6e-8c52-44db-9bcf-82abfa098b53","ios":"levelo://app?vid=1190fa6e-8c52-44db-9bcf-82abfa098b53"},"vehicle_type_id":"4","last_reported":1731517679,"current_range_meters":4000,"station_id":"ce4bh4p2rcd13ifvqe0g","pricing_plan_id":"cebpf4jnsgd1na2vs0mg"},{"bike_id":"6cf803e6-308b-44ff-ade3-4e67a6f1555e","system_id":"levelo_inurba_marseille","lat":43.31223,"lon":5.3869,"is_reserved":false,"is_disabled":false,"rental_uris":{"android":"levelo://app?vid=6cf803e6-308b-44ff-ade3-4e67a6f1555e","ios":"levelo://app?vid=6cf803e6-308b-44ff-ade3-4e67a6f1555e"},"vehicle_type_id":"4","last_reported":1731517679,"current_range_meters":8400,"station_id":"","pricing_plan_id":"cebpf4jnsgd1na2vs0mg"},{"bike_id":"9722550f-1a69-4d6e-8160-2610e45f09a4","system_id":"levelo_inurba_marseille","lat":43.28031,"lon":5.36953,"is_reserved":false,"is_disabled":false,"rental_uris":{"android":"levelo://app?vid=9722550f-1a69-4d6e-8160-2610e45f09a4","ios":"levelo://app?vid=9722550f-1a69-4d6e-8160-2610e45f09a4"},"vehicle_type_id":"4","last_reported":1731517679,"current_range_meters":36800,"station_id":"ce4bha12rcd13ifvqef0","pricing_plan_id":"cebpf4jnsgd1na2vs0mg"},{"bike_id":"42744b5d-4b77-4c92-808c-ebf462138a5f","system_id":"levelo_inurba_marseille","lat":43.31511,"lon":5.38921,"is_reserved":false,"is_disabled":false,"rental_uris":{"android":"levelo://app?vid=42744b5d-4b77-4c92-808c-ebf462138a5f","ios":"levelo://app?vid=42744b5d-4b77-4c92-808c-ebf462138a5f"},"vehicle_type_id":"4","last_reported":1731517679,"current_range_meters":27200,"station_id":"","pricing_plan_id":"cebpf4jnsgd1na2vs0mg"},{"bike_id":"c9d041c0-acec-4cf4-bba2-e01a92441368","system_id":"levelo_inurba_marseille","lat":43.337444,"lon":5.374475,"is_reserved":false,"is_disabled":false,"rental_uris":{"android":"levelo://app?vid=c9d041c0-acec-4cf4-bba2-e01a92441368","ios":"levelo://app?vid=c9d041c0-acec-4cf4-bba2-e01a92441368"},"vehicle_type_id":"4","last_reported":1731517679,"current_range_meters":35200,"station_id":"","pricing_plan_id":"cebpf4jnsgd1na2vs0mg"},{"bike_id":"c42b5821-54ee-4acf-9782-2cd22e77bb91","system_id":"levelo_inurba_marseille","lat":43.30219,"lon":5.39466,"is_reserved":false,"is_disabled":false,"rental_uris":{"android":"levelo://app?vid=c42b5821-54ee-4acf-9782-2cd22e77bb91","ios":"levelo://app?vid=c42b5821-54ee-4acf-9782-2cd22e77bb91"},"vehicle_type_id":"4","last_reported":1731517679,"current_range_meters":38000,"station_id":"ce4bh0p2rcd13ifvqd70","pricing_plan_id":"cebpf4jnsgd1na2vs0mg"},{"bike_id":"6b01b654-24df-456e-b52d-6a766b7875e0","system_id":"levelo_inurba_marseille","lat":43.29856,"lon":5.39748,"is_reserved":false,"is_disabled":false,"rental_uris":{"android":"levelo://app?vid=6b01b654-24df-456e-b52d-6a766b7875e0","ios":"levelo://app?vid=6b01b654-24df-456e-b52d-6a766b7875e0"},"vehicle_type_id":"4","last_reported":1731517679,"current_range_meters":22400,"station_id":"ce4bh0h2rcd13ifvqd50","pricing_plan_id":"cebpf4jnsgd1na2vs0mg"},{"bike_id":"885b603d-c57f-4bf2-98e5-9b06c233beac","system_id":"levelo_inurba_marseille","lat":43.27906,"lon":5.38019,"is_reserved":false,"is_disabled":false,"rental_uris":{"android":"levelo://app?vid=885b603d-c57f-4bf2-98e5-9b06c233beac","ios":"levelo://app?vid=885b603d-c57f-4bf2-98e5-9b06c233beac"},"vehicle_type_id":"4","last_reported":1731517679,"current_range_meters":29600,"station_id":"ce4bhf92rcd13ifvqf50","pricing_plan_id":"cebpf4jnsgd1na2vs0mg"},{"bike_id":"6dcaa24f-9856-48ca-b7d3-91e19c632582","system_id":"levelo_inurba_marseille","lat":43.26208,"lon":5.37443,"is_reserved":false,"is_disabled":false,"rental_uris":{"android":"levelo://app?vid=6dcaa24f-9856-48ca-b7d3-91e19c632582","ios":"levelo://app?vid=6dcaa24f-9856-48ca-b7d3-91e19c632582"},"vehicle_type_id":"4","last_reported":1731517679,"current_range_meters":10000,"station_id":"ce4bhgp2rcd13ifvqfc0","pricing_plan_id":"cebpf4jnsgd1na2vs0mg"},{"bike_id":"b21e94aa-0488-4367-bdaa-58d28285537a","system_id":"levelo_inurba_marseille","lat":43.30629,"lon":5.40092,"is_reserved":false,"is_disabled":false,"rental_uris":{"android":"levelo://app?vid=b21e94aa-0488-4367-bdaa-58d28285537a","ios":"levelo://app?vid=b21e94aa-0488-4367-bdaa-58d28285537a"},"vehicle_type_id":"4","last_reported":1731517679,"current_range_meters":24800,"station_id":"ce4bh112rcd13ifvqda0","pricing_plan_id":"cebpf4jnsgd1na2vs0mg"},{"bike_id":"0f7a1583-9436-4d92-8cc8-429fdc26b4a8","system_id":"levelo_inurba_marseille","lat":43.29275,"lon":5.40903,"is_reserved":false,"is_disabled":false,"rental_uris":{"android":"levelo://app?vid=0f7a1583-9436-4d92-8cc8-429fdc26b4a8","ios":"levelo://app?vid=0f7a1583-9436-4d92-8cc8-429fdc26b4a8"},"vehicle_type_id":"4","last_reported":1731517679,"current_range_meters":9600,"station_id":"ce4bh192rcd13ifvqdc0","pricing_plan_id":"cebpf4jnsgd1na2vs0mg"},{"bike_id":"db8834ca-a33a-490f-9727-3cd20bc35907","system_id":"levelo_inurba_marseille","lat":43.30589,"lon":5.37234,"is_reserved":false,"is_disabled":false,"rental_uris":{"android":"levelo://app?vid=db8834ca-a33a-490f-9727-3cd20bc35907","ios":"levelo://app?vid=db8834ca-a33a-490f-9727-3cd20bc35907"},"vehicle_type_id":"4","last_reported":1731517679,"current_range_meters":13600,"station_id":"ce4bgqh2rcd13ifvqc4g","pricing_plan_id":"cebpf4jnsgd1na2vs0mg"},{"bike_id":"47fdd3bf-4cb5-4eed-812e-3770c79fd243","system_id":"levelo_inurba_marseille","lat":43.32103,"lon":5.36776,"is_reserved":false,"is_disabled":false,"rental_uris":{"android":"levelo://app?vid=47fdd3bf-4cb5-4eed-812e-3770c79fd243","ios":"levelo://app?vid=47fdd3bf-4cb5-4eed-812e-3770c79fd243"},"vehicle_type_id":"4","last_reported":1731517679,"current_range_meters":12400,"station_id":"ce4bhrh2rcd13ifvqhug","pricing_plan_id":"cebpf4jnsgd1na2vs0mg"},{"bike_id":"d0c27586-5416-4f80-a3c7-e13ddb8f1c50","system_id":"levelo_inurba_marseille","lat":43.28938,"lon":5.39629,"is_reserved":false,"is_disabled":false,"rental_uris":{"android":"levelo://app?vid=d0c27586-5416-4f80-a3c7-e13ddb8f1c50","ios":"levelo://app?vid=d0c27586-5416-4f80-a3c7-e13ddb8f1c50"},"vehicle_type_id":"4","last_reported":1731517679,"current_range_meters":4800,"station_id":"ce4bh3h2rcd13ifvqdn0","pricing_plan_id":"cebpf4jnsgd1na2vs0mg"},{"bike_id":"68d9f08d-4ff1-42fe-98ec-d2df28d0fbf3","system_id":"levelo_inurba_marseille","lat":43.31528,"lon":5.38038,"is_reserved":false,"is_disabled":false,"rental_uris":{"android":"levelo://app?vid=68d9f08d-4ff1-42fe-98ec-d2df28d0fbf3","ios":"levelo://app?vid=68d9f08d-4ff1-42fe-98ec-d2df28d0fbf3"},"vehicle_type_id":"4","last_reported":1731517679,"current_range_meters":32800,"station_id":"ce4bhsp2rcd13ifvqi50","pricing_plan_id":"cebpf4jnsgd1na2vs0mg"},{"bike_id":"1fa4f795-7e30-4fcb-8404-f2e4445baca6","system_id":"levelo_inurba_marseille","lat":43.2926,"lon":5.40902,"is_reserved":false,"is_disabled":false,"rental_uris":{"android":"levelo://app?vid=1fa4f795-7e30-4fcb-8404-f2e4445baca6","ios":"levelo://app?vid=1fa4f795-7e30-4fcb-8404-f2e4445baca6"},"vehicle_type_id":"4","last_reported":1731517679,"current_range_meters":14400,"station_id":"ce4bh192rcd13ifvqdc0","pricing_plan_id":"cebpf4jnsgd1na2vs0mg"},{"bike_id":"062d387b-e17a-4795-8814-aa0e6a0b907a","system_id":"levelo_inurba_marseille","lat":43.30877,"lon":5.39661,"is_reserved":false,"is_disabled":false,"rental_uris":{"android":"levelo://app?vid=062d387b-e17a-4795-8814-aa0e6a0b907a","ios":"levelo://app?vid=062d387b-e17a-4795-8814-aa0e6a0b907a"},"vehicle_type_id":"4","last_reported":1731517679,"current_range_meters":19600,"station_id":"ce4bh012rcd13ifvqcv0","pricing_plan_id":"cebpf4jnsgd1na2vs0mg"},{"bike_id":"5b41e762-1614-46f6-92e6-bba5e7d3cb79","system_id":"levelo_inurba_marseille","lat":43.28456,"lon":5.35889,"is_reserved":false,"is_disabled":false,"rental_uris":{"android":"levelo://app?vid=5b41e762-1614-46f6-92e6-bba5e7d3cb79","ios":"levelo://app?vid=5b41e762-1614-46f6-92e6-bba5e7d3cb79"},"vehicle_type_id":"4","last_reported":1731517679,"current_range_meters":12800,"station_id":"ce4bhah2rcd13ifvqei0","pricing_plan_id":"cebpf4jnsgd1na2vs0mg"},{"bike_id":"7a37437e-2b78-4696-badd-772bb173300e","system_id":"levelo_inurba_marseille","lat":43.29426,"lon":5.38692,"is_reserved":false,"is_disabled":false,"rental_uris":{"android":"levelo://app?vid=7a37437e-2b78-4696-badd-772bb173300e","ios":"levelo://app?vid=7a37437e-2b78-4696-badd-772bb173300e"},"vehicle_type_id":"4","last_reported":1731517679,"current_range_meters":36000,"station_id":"ce4bh3p2rcd13ifvqdq0","pricing_plan_id":"cebpf4jnsgd1na2vs0mg"},{"bike_id":"4d3d30d7-116a-4e20-a341-a74f3ebc635f","system_id":"levelo_inurba_marseille","lat":43.272058,"lon":5.391855,"is_reserved":false,"is_disabled":false,"rental_uris":{"android":"levelo://app?vid=4d3d30d7-116a-4e20-a341-a74f3ebc635f","ios":"levelo://app?vid=4d3d30d7-116a-4e20-a341-a74f3ebc635f"},"vehicle_type_id":"4","last_reported":1731517679,"current_range_meters":16000,"station_id":"ce4bhnp2rcd13ifvqgvg","pricing_plan_id":"cebpf4jnsgd1na2vs0mg"},{"bike_id":"969059a2-103c-4b05-b568-23e1e4745ee8","system_id":"levelo_inurba_marseille","lat":43.26213,"lon":5.37442,"is_reserved":false,"is_disabled":false,"rental_uris":{"android":"levelo://app?vid=969059a2-103c-4b05-b568-23e1e4745ee8","ios":"levelo://app?vid=969059a2-103c-4b05-b568-23e1e4745ee8"},"vehicle_type_id":"4","last_reported":1731517679,"current_range_meters":12400,"station_id":"ce4bhgp2rcd13ifvqfc0","pricing_plan_id":"cebpf4jnsgd1na2vs0mg"},{"bike_id":"0a0f301d-9c96-4376-9656-97bb9c518103","system_id":"levelo_inurba_marseille","lat":43.29188,"lon":5.39338,"is_reserved":false,"is_disabled":false,"rental_uris":{"android":"levelo://app?vid=0a0f301d-9c96-4376-9656-97bb9c518103","ios":"levelo://app?vid=0a0f301d-9c96-4376-9656-97bb9c518103"},"vehicle_type_id":"4","last_reported":1731517679,"current_range_meters":30800,"station_id":"ce4bh192rcd13ifvqdd0","pricing_plan_id":"cebpf4jnsgd1na2vs0mg"},{"bike_id":"15286c34-153c-47dd-90bb-d79e8e9676f4","system_id":"levelo_inurba_marseille","lat":43.29031,"lon":5.38643,"is_reserved":false,"is_disabled":false,"rental_uris":{"android":"levelo://app?vid=15286c34-153c-47dd-90bb-d79e8e9676f4","ios":"levelo://app?vid=15286c34-153c-47dd-90bb-d79e8e9676f4"},"vehicle_type_id":"4","last_reported":1731517679,"current_range_meters":24800,"station_id":"ce4bh4p2rcd13ifvqe0g","pricing_plan_id":"cebpf4jnsgd1na2vs0mg"},{"bike_id":"de297e43-89d8-4a1b-9606-4fbded28b887","system_id":"levelo_inurba_marseille","lat":43.271093,"lon":5.422473,"is_reserved":false,"is_disabled":false,"rental_uris":{"android":"levelo://app?vid=de297e43-89d8-4a1b-9606-4fbded28b887","ios":"levelo://app?vid=de297e43-89d8-4a1b-9606-4fbded28b887"},"vehicle_type_id":"4","last_reported":1731517679,"current_range_meters":8400,"station_id":"ce4bhk92rcd13ifvqgb0","pricing_plan_id":"cebpf4jnsgd1na2vs0mg"},{"bike_id":"7c9b8995-ac96-4708-b4eb-b4b17631b9d8","system_id":"levelo_inurba_marseille","lat":43.337444,"lon":5.374475,"is_reserved":false,"is_disabled":false,"rental_uris":{"android":"levelo://app?vid=7c9b8995-ac96-4708-b4eb-b4b17631b9d8","ios":"levelo://app?vid=7c9b8995-ac96-4708-b4eb-b4b17631b9d8"},"vehicle_type_id":"4","last_reported":1731517679,"current_range_meters":36800,"station_id":"","pricing_plan_id":"cebpf4jnsgd1na2vs0mg"},{"bike_id":"d29fff26-39eb-4d34-b9fa-e9020ab90183","system_id":"levelo_inurba_marseille","lat":43.28669,"lon":5.363504,"is_reserved":false,"is_disabled":false,"rental_uris":{"android":"levelo://app?vid=d29fff26-39eb-4d34-b9fa-e9020ab90183","ios":"levelo://app?vid=d29fff26-39eb-4d34-b9fa-e9020ab90183"},"vehicle_type_id":"4","last_reported":1731517679,"current_range_meters":28400,"station_id":"ce4bhah2rcd13ifvqej0","pricing_plan_id":"cebpf4jnsgd1na2vs0mg"},{"bike_id":"50d2f13b-ed8f-407f-9734-792b969c5045","system_id":"levelo_inurba_marseille","lat":43.288442,"lon":5.392973,"is_reserved":false,"is_disabled":false,"rental_uris":{"android":"levelo://app?vid=50d2f13b-ed8f-407f-9734-792b969c5045","ios":"levelo://app?vid=50d2f13b-ed8f-407f-9734-792b969c5045"},"vehicle_type_id":"4","last_reported":1731517679,"current_range_meters":36000,"station_id":"ce4bh2p2rcd13ifvqdi0","pricing_plan_id":"cebpf4jnsgd1na2vs0mg"},{"bike_id":"e0c4a8bc-8877-448d-8360-298f6b955edc","system_id":"levelo_inurba_marseille","lat":43.308899,"lon":5.371959,"is_reserved":false,"is_disabled":false,"rental_uris":{"android":"levelo://app?vid=e0c4a8bc-8877-448d-8360-298f6b955edc","ios":"levelo://app?vid=e0c4a8bc-8877-448d-8360-298f6b955edc"},"vehicle_type_id":"4","last_reported":1731517679,"current_range_meters":7200,"station_id":"ce4bguh2rcd13ifvqckg","pricing_plan_id":"cebpf4jnsgd1na2vs0mg"},{"bike_id":"5b2ec041-928f-4a12-b348-a445dd4cfb32","system_id":"levelo_inurba_marseille","lat":43.30794,"lon":5.3816,"is_reserved":false,"is_disabled":false,"rental_uris":{"android":"levelo://app?vid=5b2ec041-928f-4a12-b348-a445dd4cfb32","ios":"levelo://app?vid=5b2ec041-928f-4a12-b348-a445dd4cfb32"},"vehicle_type_id":"4","last_reported":1731517679,"current_range_meters":20400,"station_id":"ce4bgt12rcd13ifvqce0","pricing_plan_id":"cebpf4jnsgd1na2vs0mg"},{"bike_id":"bfb57045-05b9-439c-b723-563f416cbeaf","system_id":"levelo_inurba_marseille","lat":43.27998,"lon":5.4001,"is_reserved":false,"is_disabled":false,"rental_uris":{"android":"levelo://app?vid=bfb57045-05b9-439c-b723-563f416cbeaf","ios":"levelo://app?vid=bfb57045-05b9-439c-b723-563f416cbeaf"},"vehicle_type_id":"4","last_reported":1731517679,"current_range_meters":8800,"station_id":"ce4bho92rcd13ifvqh4g","pricing_plan_id":"cebpf4jnsgd1na2vs0mg"},{"bike_id":"789bdaa8-9232-448e-b292-e7770b3e3797","system_id":"levelo_inurba_marseille","lat":43.2707,"lon":5.42281,"is_reserved":false,"is_disabled":false,"rental_uris":{"android":"levelo://app?vid=789bdaa8-9232-448e-b292-e7770b3e3797","ios":"levelo://app?vid=789bdaa8-9232-448e-b292-e7770b3e3797"},"vehicle_type_id":"4","last_reported":1731517679,"current_range_meters":39200,"station_id":"ce4bhk92rcd13ifvqgb0","pricing_plan_id":"cebpf4jnsgd1na2vs0mg"},{"bike_id":"082599cf-dc39-4cf8-b551-26f97cfdc34a","system_id":"levelo_inurba_marseille","lat":43.27674,"lon":5.38883,"is_reserved":false,"is_disabled":false,"rental_uris":{"android":"levelo://app?vid=082599cf-dc39-4cf8-b551-26f97cfdc34a","ios":"levelo://app?vid=082599cf-dc39-4cf8-b551-26f97cfdc34a"},"vehicle_type_id":"4","last_reported":1731517679,"current_range_meters":24000,"station_id":"ce4bhi12rcd13ifvqfo0","pricing_plan_id":"cebpf4jnsgd1na2vs0mg"},{"bike_id":"23678c50-8a30-4d29-931a-e8f8637693ae","system_id":"levelo_inurba_marseille","lat":43.29856,"lon":5.39743,"is_reserved":false,"is_disabled":false,"rental_uris":{"android":"levelo://app?vid=23678c50-8a30-4d29-931a-e8f8637693ae","ios":"levelo://app?vid=23678c50-8a30-4d29-931a-e8f8637693ae"},"vehicle_type_id":"4","last_reported":1731517679,"current_range_meters":6800,"station_id":"ce4bh0h2rcd13ifvqd50","pricing_plan_id":"cebpf4jnsgd1na2vs0mg"},{"bike_id":"ba8fdd03-0ccf-4f43-84a4-b3498db1c50a","system_id":"levelo_inurba_marseille","lat":43.309298,"lon":5.401407,"is_reserved":false,"is_disabled":false,"rental_uris":{"android":"levelo://app?vid=ba8fdd03-0ccf-4f43-84a4-b3498db1c50a","ios":"levelo://app?vid=ba8fdd03-0ccf-4f43-84a4-b3498db1c50a"},"vehicle_type_id":"4","last_reported":1731517679,"current_range_meters":24400,"station_id":"ce4bgvp2rcd13ifvqct0","pricing_plan_id":"cebpf4jnsgd1na2vs0mg"},{"bike_id":"4f533a18-bdcd-499f-a392-a64fb2177ec1","system_id":"levelo_inurba_marseille","lat":43.29352,"lon":5.42841,"is_reserved":false,"is_disabled":false,"rental_uris":{"android":"levelo://app?vid=4f533a18-bdcd-499f-a392-a64fb2177ec1","ios":"levelo://app?vid=4f533a18-bdcd-499f-a392-a64fb2177ec1"},"vehicle_type_id":"4","last_reported":1731517679,"current_range_meters":7200,"station_id":"","pricing_plan_id":"cebpf4jnsgd1na2vs0mg"},{"bike_id":"127cc726-43f4-450c-840d-2e43607a6fd5","system_id":"levelo_inurba_marseille","lat":43.30293,"lon":5.36871,"is_reserved":false,"is_disabled":false,"rental_uris":{"android":"levelo://app?vid=127cc726-43f4-450c-840d-2e43607a6fd5","ios":"levelo://app?vid=127cc726-43f4-450c-840d-2e43607a6fd5"},"vehicle_type_id":"4","last_reported":1731517679,"current_range_meters":36800,"station_id":"ce4bgqh2rcd13ifvqc5g","pricing_plan_id":"cebpf4jnsgd1na2vs0mg"},{"bike_id":"cd7c1386-8aa1-4611-99b7-9de516adcd80","system_id":"levelo_inurba_marseille","lat":43.25871,"lon":5.39896,"is_reserved":false,"is_disabled":false,"rental_uris":{"android":"levelo://app?vid=cd7c1386-8aa1-4611-99b7-9de516adcd80","ios":"levelo://app?vid=cd7c1386-8aa1-4611-99b7-9de516adcd80"},"vehicle_type_id":"4","last_reported":1731517679,"current_range_meters":24000,"station_id":"ce4bhl92rcd13ifvqghg","pricing_plan_id":"cebpf4jnsgd1na2vs0mg"},{"bike_id":"427fc9b0-c2cf-48f5-8a14-e6e8f505494f","system_id":"levelo_inurba_marseille","lat":43.29261,"lon":5.4091,"is_reserved":false,"is_disabled":false,"rental_uris":{"android":"levelo://app?vid=427fc9b0-c2cf-48f5-8a14-e6e8f505494f","ios":"levelo://app?vid=427fc9b0-c2cf-48f5-8a14-e6e8f505494f"},"vehicle_type_id":"4","last_reported":1731517679,"current_range_meters":10800,"station_id":"ce4bh192rcd13ifvqdc0","pricing_plan_id":"cebpf4jnsgd1na2vs0mg"},{"bike_id":"1e36c8fd-4405-4899-a938-c8db0d55ec05","system_id":"levelo_inurba_marseille","lat":43.28702,"lon":5.37391,"is_reserved":false,"is_disabled":false,"rental_uris":{"android":"levelo://app?vid=1e36c8fd-4405-4899-a938-c8db0d55ec05","ios":"levelo://app?vid=1e36c8fd-4405-4899-a938-c8db0d55ec05"},"vehicle_type_id":"4","last_reported":1731517679,"current_range_meters":38800,"station_id":"ce4bh3p2rcd13ifvqdq0","pricing_plan_id":"cebpf4jnsgd1na2vs0mg"},{"bike_id":"7891995d-7c39-4fa5-ab0a-02ee601a522d","system_id":"levelo_inurba_marseille","lat":43.32292,"lon":5.38285,"is_reserved":false,"is_disabled":false,"rental_uris":{"android":"levelo://app?vid=7891995d-7c39-4fa5-ab0a-02ee601a522d","ios":"levelo://app?vid=7891995d-7c39-4fa5-ab0a-02ee601a522d"},"vehicle_type_id":"4","last_reported":1731517679,"current_range_meters":38400,"station_id":"ce4bhr12rcd13ifvqhqg","pricing_plan_id":"cebpf4jnsgd1na2vs0mg"},{"bike_id":"f1dc2b6b-c6a1-46fe-9b26-af1128f09357","system_id":"levelo_inurba_marseille","lat":43.31478,"lon":5.37314,"is_reserved":false,"is_disabled":false,"rental_uris":{"android":"levelo://app?vid=f1dc2b6b-c6a1-46fe-9b26-af1128f09357","ios":"levelo://app?vid=f1dc2b6b-c6a1-46fe-9b26-af1128f09357"},"vehicle_type_id":"4","last_reported":1731517679,"current_range_meters":9600,"station_id":"ce4bgt12rcd13ifvqcd0","pricing_plan_id":"cebpf4jnsgd1na2vs0mg"},{"bike_id":"2411575b-e642-4485-a265-d57f2c4d6cae","system_id":"levelo_inurba_marseille","lat":43.296255,"lon":5.377175,"is_reserved":false,"is_disabled":false,"rental_uris":{"android":"levelo://app?vid=2411575b-e642-4485-a265-d57f2c4d6cae","ios":"levelo://app?vid=2411575b-e642-4485-a265-d57f2c4d6cae"},"vehicle_type_id":"4","last_reported":1731517679,"current_range_meters":36000,"station_id":"ce4bgi92rcd13ifvqb90","pricing_plan_id":"cebpf4jnsgd1na2vs0mg"},{"bike_id":"807ba893-6e09-48cc-b5d7-d1dc464d4027","system_id":"levelo_inurba_marseille","lat":43.317569,"lon":5.390209,"is_reserved":false,"is_disabled":false,"rental_uris":{"android":"levelo://app?vid=807ba893-6e09-48cc-b5d7-d1dc464d4027","ios":"levelo://app?vid=807ba893-6e09-48cc-b5d7-d1dc464d4027"},"vehicle_type_id":"4","last_reported":1731517679,"current_range_meters":24000,"station_id":"ce4bhqp2rcd13ifvqhng","pricing_plan_id":"cebpf4jnsgd1na2vs0mg"},{"bike_id":"8db321e0-06cd-4065-ade5-1e9db548cae2","system_id":"levelo_inurba_marseille","lat":43.29924,"lon":5.36545,"is_reserved":false,"is_disabled":false,"rental_uris":{"android":"levelo://app?vid=8db321e0-06cd-4065-ade5-1e9db548cae2","ios":"levelo://app?vid=8db321e0-06cd-4065-ade5-1e9db548cae2"},"vehicle_type_id":"4","last_reported":1731517679,"current_range_meters":24800,"station_id":"ce4bgm92rcd13ifvqbr0","pricing_plan_id":"cebpf4jnsgd1na2vs0mg"},{"bike_id":"1311c692-6e9d-4afb-b7b0-20686564fe7a","system_id":"levelo_inurba_marseille","lat":43.337444,"lon":5.374475,"is_reserved":false,"is_disabled":false,"rental_uris":{"android":"levelo://app?vid=1311c692-6e9d-4afb-b7b0-20686564fe7a","ios":"levelo://app?vid=1311c692-6e9d-4afb-b7b0-20686564fe7a"},"vehicle_type_id":"4","last_reported":1731517679,"current_range_meters":36400,"station_id":"","pricing_plan_id":"cebpf4jnsgd1na2vs0mg"},{"bike_id":"9a5ff5e1-cdee-491c-91a0-0f17fefc4df4","system_id":"levelo_inurba_marseille","lat":43.30459,"lon":5.37902,"is_reserved":false,"is_disabled":false,"rental_uris":{"android":"levelo://app?vid=9a5ff5e1-cdee-491c-91a0-0f17fefc4df4","ios":"levelo://app?vid=9a5ff5e1-cdee-491c-91a0-0f17fefc4df4"},"vehicle_type_id":"4","last_reported":1731517679,"current_range_meters":39200,"station_id":"ce4bgup2rcd13ifvqcn0","pricing_plan_id":"cebpf4jnsgd1na2vs0mg"},{"bike_id":"07a4be1c-5cf0-4f3e-8c27-4c3e24078daa","system_id":"levelo_inurba_marseille","lat":43.2481,"lon":5.37464,"is_reserved":false,"is_disabled":false,"rental_uris":{"android":"levelo://app?vid=07a4be1c-5cf0-4f3e-8c27-4c3e24078daa","ios":"levelo://app?vid=07a4be1c-5cf0-4f3e-8c27-4c3e24078daa"},"vehicle_type_id":"4","last_reported":1731517679,"current_range_meters":20800,"station_id":"ce4bhgh2rcd13ifvqfb0","pricing_plan_id":"cebpf4jnsgd1na2vs0mg"},{"bike_id":"9facfa83-f61b-4612-9f08-211770340807","system_id":"levelo_inurba_marseille","lat":43.28039,"lon":5.36954,"is_reserved":false,"is_disabled":false,"rental_uris":{"android":"levelo://app?vid=9facfa83-f61b-4612-9f08-211770340807","ios":"levelo://app?vid=9facfa83-f61b-4612-9f08-211770340807"},"vehicle_type_id":"4","last_reported":1731517679,"current_range_meters":11200,"station_id":"ce4bha12rcd13ifvqef0","pricing_plan_id":"cebpf4jnsgd1na2vs0mg"},{"bike_id":"b1c27c54-c9cb-4c7c-978a-62e522584286","system_id":"levelo_inurba_marseille","lat":43.29448,"lon":5.39744,"is_reserved":false,"is_disabled":false,"rental_uris":{"android":"levelo://app?vid=b1c27c54-c9cb-4c7c-978a-62e522584286","ios":"levelo://app?vid=b1c27c54-c9cb-4c7c-978a-62e522584286"},"vehicle_type_id":"4","last_reported":1731517679,"current_range_meters":24000,"station_id":"ce4bh3h2rcd13ifvqdo0","pricing_plan_id":"cebpf4jnsgd1na2vs0mg"},{"bike_id":"75f71ef1-6e08-415a-bb8b-dfb0f44294ba","system_id":"levelo_inurba_marseille","lat":43.27989,"lon":5.41661,"is_reserved":false,"is_disabled":false,"rental_uris":{"android":"levelo://app?vid=75f71ef1-6e08-415a-bb8b-dfb0f44294ba","ios":"levelo://app?vid=75f71ef1-6e08-415a-bb8b-dfb0f44294ba"},"vehicle_type_id":"4","last_reported":1731517679,"current_range_meters":9600,"station_id":"ce4bho12rcd13ifvqh1g","pricing_plan_id":"cebpf4jnsgd1na2vs0mg"},{"bike_id":"a365b508-1ef5-4939-b750-e9d43b113938","system_id":"levelo_inurba_marseille","lat":43.31754,"lon":5.39019,"is_reserved":false,"is_disabled":false,"rental_uris":{"android":"levelo://app?vid=a365b508-1ef5-4939-b750-e9d43b113938","ios":"levelo://app?vid=a365b508-1ef5-4939-b750-e9d43b113938"},"vehicle_type_id":"4","last_reported":1731517679,"current_range_meters":38400,"station_id":"ce4bhqp2rcd13ifvqhng","pricing_plan_id":"cebpf4jnsgd1na2vs0mg"},{"bike_id":"824aa58f-57cc-49d3-b625-099c257bc04e","system_id":"levelo_inurba_marseille","lat":43.2418,"lon":5.39727,"is_reserved":false,"is_disabled":false,"rental_uris":{"android":"levelo://app?vid=824aa58f-57cc-49d3-b625-099c257bc04e","ios":"levelo://app?vid=824aa58f-57cc-49d3-b625-099c257bc04e"},"vehicle_type_id":"4","last_reported":1731517679,"current_range_meters":38400,"station_id":"ce4bhn12rcd13ifvqgpg","pricing_plan_id":"cebpf4jnsgd1na2vs0mg"},{"bike_id":"a6148b89-6191-41f7-8165-1aaf8aaf2661","system_id":"levelo_inurba_marseille","lat":43.284445,"lon":5.391945,"is_reserved":false,"is_disabled":false,"rental_uris":{"android":"levelo://app?vid=a6148b89-6191-41f7-8165-1aaf8aaf2661","ios":"levelo://app?vid=a6148b89-6191-41f7-8165-1aaf8aaf2661"},"vehicle_type_id":"4","last_reported":1731517679,"current_range_meters":31200,"station_id":"ce4bhoh2rcd13ifvqh5g","pricing_plan_id":"cebpf4jnsgd1na2vs0mg"},{"bike_id":"fb8deb2c-245d-4731-a2d7-b13a8a7fa54f","system_id":"levelo_inurba_marseille","lat":43.29787,"lon":5.38099,"is_reserved":false,"is_disabled":false,"rental_uris":{"android":"levelo://app?vid=fb8deb2c-245d-4731-a2d7-b13a8a7fa54f","ios":"levelo://app?vid=fb8deb2c-245d-4731-a2d7-b13a8a7fa54f"},"vehicle_type_id":"4","last_reported":1731517679,"current_range_meters":8400,"station_id":"ce4bgip2rcd13ifvqbb0","pricing_plan_id":"cebpf4jnsgd1na2vs0mg"},{"bike_id":"3298d759-d231-4dbb-9509-b79fa66e9838","system_id":"levelo_inurba_marseille","lat":43.30535,"lon":5.38083,"is_reserved":false,"is_disabled":false,"rental_uris":{"android":"levelo://app?vid=3298d759-d231-4dbb-9509-b79fa66e9838","ios":"levelo://app?vid=3298d759-d231-4dbb-9509-b79fa66e9838"},"vehicle_type_id":"4","last_reported":1731517679,"current_range_meters":9600,"station_id":"","pricing_plan_id":"cebpf4jnsgd1na2vs0mg"},{"bike_id":"874e4f70-ee6b-4030-8e9b-a3d12e5b3955","system_id":"levelo_inurba_marseille","lat":43.29319,"lon":5.41154,"is_reserved":false,"is_disabled":false,"rental_uris":{"android":"levelo://app?vid=874e4f70-ee6b-4030-8e9b-a3d12e5b3955","ios":"levelo://app?vid=874e4f70-ee6b-4030-8e9b-a3d12e5b3955"},"vehicle_type_id":"4","last_reported":1731517679,"current_range_meters":2800,"station_id":"","pricing_plan_id":"cebpf4jnsgd1na2vs0mg"},{"bike_id":"52885a87-a4ec-4e70-8fa0-b560a6953ae6","system_id":"levelo_inurba_marseille","lat":43.2781,"lon":5.40711,"is_reserved":false,"is_disabled":false,"rental_uris":{"android":"levelo://app?vid=52885a87-a4ec-4e70-8fa0-b560a6953ae6","ios":"levelo://app?vid=52885a87-a4ec-4e70-8fa0-b560a6953ae6"},"vehicle_type_id":"4","last_reported":1731517679,"current_range_meters":7200,"station_id":"ce4bhnh2rcd13ifvqgtg","pricing_plan_id":"cebpf4jnsgd1na2vs0mg"},{"bike_id":"c69da87c-ba64-49b1-a4d7-cdae11f4d51d","system_id":"levelo_inurba_marseille","lat":43.30422,"lon":5.38895,"is_reserved":false,"is_disabled":false,"rental_uris":{"android":"levelo://app?vid=c69da87c-ba64-49b1-a4d7-cdae11f4d51d","ios":"levelo://app?vid=c69da87c-ba64-49b1-a4d7-cdae11f4d51d"},"vehicle_type_id":"4","last_reported":1731517679,"current_range_meters":31200,"station_id":"ce4bgk12rcd13ifvqbi0","pricing_plan_id":"cebpf4jnsgd1na2vs0mg"},{"bike_id":"590df205-dbe1-4fa2-ad82-0f5c4c8346c9","system_id":"levelo_inurba_marseille","lat":43.267461,"lon":5.394076,"is_reserved":false,"is_disabled":false,"rental_uris":{"android":"levelo://app?vid=590df205-dbe1-4fa2-ad82-0f5c4c8346c9","ios":"levelo://app?vid=590df205-dbe1-4fa2-ad82-0f5c4c8346c9"},"vehicle_type_id":"4","last_reported":1731517679,"current_range_meters":24800,"station_id":"ce4bhh12rcd13ifvqfg0","pricing_plan_id":"cebpf4jnsgd1na2vs0mg"},{"bike_id":"94942765-c2e4-480c-9f8a-92a5bbd6729b","system_id":"levelo_inurba_marseille","lat":43.28669,"lon":5.38668,"is_reserved":false,"is_disabled":false,"rental_uris":{"android":"levelo://app?vid=94942765-c2e4-480c-9f8a-92a5bbd6729b","ios":"levelo://app?vid=94942765-c2e4-480c-9f8a-92a5bbd6729b"},"vehicle_type_id":"4","last_reported":1731517679,"current_range_meters":8400,"station_id":"ce4bh492rcd13ifvqdug","pricing_plan_id":"cebpf4jnsgd1na2vs0mg"},{"bike_id":"3da22c96-18a6-4d3a-a579-0c04984c3537","system_id":"levelo_inurba_marseille","lat":43.26215,"lon":5.37445,"is_reserved":false,"is_disabled":false,"rental_uris":{"android":"levelo://app?vid=3da22c96-18a6-4d3a-a579-0c04984c3537","ios":"levelo://app?vid=3da22c96-18a6-4d3a-a579-0c04984c3537"},"vehicle_type_id":"4","last_reported":1731517679,"current_range_meters":20800,"station_id":"ce4bhgp2rcd13ifvqfc0","pricing_plan_id":"cebpf4jnsgd1na2vs0mg"},{"bike_id":"b3ea8930-b854-4b60-965d-72726bf02580","system_id":"levelo_inurba_marseille","lat":43.27947,"lon":5.41046,"is_reserved":false,"is_disabled":false,"rental_uris":{"android":"levelo://app?vid=b3ea8930-b854-4b60-965d-72726bf02580","ios":"levelo://app?vid=b3ea8930-b854-4b60-965d-72726bf02580"},"vehicle_type_id":"4","last_reported":1731517679,"current_range_meters":14800,"station_id":"ce4bhnp2rcd13ifvqh0g","pricing_plan_id":"cebpf4jnsgd1na2vs0mg"},{"bike_id":"d7bfb9af-6dc7-4976-b817-3e6d2c498311","system_id":"levelo_inurba_marseille","lat":43.27227,"lon":5.41098,"is_reserved":false,"is_disabled":false,"rental_uris":{"android":"levelo://app?vid=d7bfb9af-6dc7-4976-b817-3e6d2c498311","ios":"levelo://app?vid=d7bfb9af-6dc7-4976-b817-3e6d2c498311"},"vehicle_type_id":"4","last_reported":1731517679,"current_range_meters":34800,"station_id":"ce4bho12rcd13ifvqh1g","pricing_plan_id":"cebpf4jnsgd1na2vs0mg"},{"bike_id":"76110796-169f-49ba-b1d1-fbedc3d7287f","system_id":"levelo_inurba_marseille","lat":43.29961,"lon":5.413304,"is_reserved":false,"is_disabled":false,"rental_uris":{"android":"levelo://app?vid=76110796-169f-49ba-b1d1-fbedc3d7287f","ios":"levelo://app?vid=76110796-169f-49ba-b1d1-fbedc3d7287f"},"vehicle_type_id":"4","last_reported":1731517679,"current_range_meters":30400,"station_id":"ce4bhp12rcd13ifvqh9g","pricing_plan_id":"cebpf4jnsgd1na2vs0mg"},{"bike_id":"77eeae7b-ed74-47f2-944f-eb4b80aa21b8","system_id":"levelo_inurba_marseille","lat":43.27376,"lon":5.36261,"is_reserved":false,"is_disabled":false,"rental_uris":{"android":"levelo://app?vid=77eeae7b-ed74-47f2-944f-eb4b80aa21b8","ios":"levelo://app?vid=77eeae7b-ed74-47f2-944f-eb4b80aa21b8"},"vehicle_type_id":"4","last_reported":1731517679,"current_range_meters":39200,"station_id":"ce4bhbh2rcd13ifvqeo0","pricing_plan_id":"cebpf4jnsgd1na2vs0mg"},{"bike_id":"b448c76e-6a85-4e4e-8af8-7d9249501502","system_id":"levelo_inurba_marseille","lat":43.337444,"lon":5.374475,"is_reserved":false,"is_disabled":false,"rental_uris":{"android":"levelo://app?vid=b448c76e-6a85-4e4e-8af8-7d9249501502","ios":"levelo://app?vid=b448c76e-6a85-4e4e-8af8-7d9249501502"},"vehicle_type_id":"4","last_reported":1731517679,"current_range_meters":36400,"station_id":"","pricing_plan_id":"cebpf4jnsgd1na2vs0mg"},{"bike_id":"f260a217-f001-4167-abaa-2e27e070dd14","system_id":"levelo_inurba_marseille","lat":43.30603,"lon":5.3723,"is_reserved":false,"is_disabled":false,"rental_uris":{"android":"levelo://app?vid=f260a217-f001-4167-abaa-2e27e070dd14","ios":"levelo://app?vid=f260a217-f001-4167-abaa-2e27e070dd14"},"vehicle_type_id":"4","last_reported":1731517679,"current_range_meters":4800,"station_id":"ce4bgqh2rcd13ifvqc4g","pricing_plan_id":"cebpf4jnsgd1na2vs0mg"},{"bike_id":"1d2815ed-f781-47c9-8697-a9acb412c639","system_id":"levelo_inurba_marseille","lat":43.27419,"lon":5.39414,"is_reserved":false,"is_disabled":false,"rental_uris":{"android":"levelo://app?vid=1d2815ed-f781-47c9-8697-a9acb412c639","ios":"levelo://app?vid=1d2815ed-f781-47c9-8697-a9acb412c639"},"vehicle_type_id":"4","last_reported":1731517679,"current_range_meters":33600,"station_id":"ce4bhdp2rcd13ifvqf20","pricing_plan_id":"cebpf4jnsgd1na2vs0mg"},{"bike_id":"8dd5a13f-9b54-4c7d-b86d-33dd428a7a07","system_id":"levelo_inurba_marseille","lat":43.29274,"lon":5.36846,"is_reserved":false,"is_disabled":false,"rental_uris":{"android":"levelo://app?vid=8dd5a13f-9b54-4c7d-b86d-33dd428a7a07","ios":"levelo://app?vid=8dd5a13f-9b54-4c7d-b86d-33dd428a7a07"},"vehicle_type_id":"4","last_reported":1731517679,"current_range_meters":28400,"station_id":"ce4bhbp2rcd13ifvqesg","pricing_plan_id":"cebpf4jnsgd1na2vs0mg"},{"bike_id":"433649a1-edfa-46f2-928b-0f4d042b23df","system_id":"levelo_inurba_marseille","lat":43.305237,"lon":5.369368,"is_reserved":false,"is_disabled":false,"rental_uris":{"android":"levelo://app?vid=433649a1-edfa-46f2-928b-0f4d042b23df","ios":"levelo://app?vid=433649a1-edfa-46f2-928b-0f4d042b23df"},"vehicle_type_id":"4","last_reported":1731517679,"current_range_meters":20400,"station_id":"ce4bgih2rcd13ifvqba0","pricing_plan_id":"cebpf4jnsgd1na2vs0mg"},{"bike_id":"9315f0a2-39a9-4a3c-8a22-100a6d289d38","system_id":"levelo_inurba_marseille","lat":43.31365,"lon":5.36711,"is_reserved":false,"is_disabled":false,"rental_uris":{"android":"levelo://app?vid=9315f0a2-39a9-4a3c-8a22-100a6d289d38","ios":"levelo://app?vid=9315f0a2-39a9-4a3c-8a22-100a6d289d38"},"vehicle_type_id":"4","last_reported":1731517679,"current_range_meters":20000,"station_id":"ce4bgr92rcd13ifvqc6g","pricing_plan_id":"cebpf4jnsgd1na2vs0mg"},{"bike_id":"4a460b8b-dd34-4d1b-86c5-70026cc256ea","system_id":"levelo_inurba_marseille","lat":43.25833,"lon":5.39446,"is_reserved":false,"is_disabled":false,"rental_uris":{"android":"levelo://app?vid=4a460b8b-dd34-4d1b-86c5-70026cc256ea","ios":"levelo://app?vid=4a460b8b-dd34-4d1b-86c5-70026cc256ea"},"vehicle_type_id":"4","last_reported":1731517679,"current_range_meters":39200,"station_id":"ce4bhip2rcd13ifvqft0","pricing_plan_id":"cebpf4jnsgd1na2vs0mg"},{"bike_id":"2d2fbd75-c2ec-4521-bceb-b368b1d79340","system_id":"levelo_inurba_marseille","lat":43.26199,"lon":5.3794,"is_reserved":false,"is_disabled":false,"rental_uris":{"android":"levelo://app?vid=2d2fbd75-c2ec-4521-bceb-b368b1d79340","ios":"levelo://app?vid=2d2fbd75-c2ec-4521-bceb-b368b1d79340"},"vehicle_type_id":"4","last_reported":1731517679,"current_range_meters":9200,"station_id":"ce4bhjp2rcd13ifvqg90","pricing_plan_id":"cebpf4jnsgd1na2vs0mg"},{"bike_id":"fc49a0ec-e8e5-46aa-8ebd-8568290bc67f","system_id":"levelo_inurba_marseille","lat":43.29173,"lon":5.37161,"is_reserved":false,"is_disabled":false,"rental_uris":{"android":"levelo://app?vid=fc49a0ec-e8e5-46aa-8ebd-8568290bc67f","ios":"levelo://app?vid=fc49a0ec-e8e5-46aa-8ebd-8568290bc67f"},"vehicle_type_id":"4","last_reported":1731517679,"current_range_meters":6400,"station_id":"ce4bha92rcd13ifvqeh0","pricing_plan_id":"cebpf4jnsgd1na2vs0mg"},{"bike_id":"4018447b-2886-4c23-942b-201819b3bc28","system_id":"levelo_inurba_marseille","lat":43.337444,"lon":5.374475,"is_reserved":false,"is_disabled":false,"rental_uris":{"android":"levelo://app?vid=4018447b-2886-4c23-942b-201819b3bc28","ios":"levelo://app?vid=4018447b-2886-4c23-942b-201819b3bc28"},"vehicle_type_id":"4","last_reported":1731517679,"current_range_meters":36800,"station_id":"","pricing_plan_id":"cebpf4jnsgd1na2vs0mg"},{"bike_id":"07947b43-be1e-4cf0-bc9d-d98112f40131","system_id":"levelo_inurba_marseille","lat":43.23151,"lon":5.43715,"is_reserved":false,"is_disabled":false,"rental_uris":{"android":"levelo://app?vid=07947b43-be1e-4cf0-bc9d-d98112f40131","ios":"levelo://app?vid=07947b43-be1e-4cf0-bc9d-d98112f40131"},"vehicle_type_id":"4","last_reported":1731517679,"current_range_meters":21600,"station_id":"ce4bhmp2rcd13ifvqgog","pricing_plan_id":"cebpf4jnsgd1na2vs0mg"},{"bike_id":"8363accd-fb3e-4197-b76c-de8d47411466","system_id":"levelo_inurba_marseille","lat":43.28936,"lon":5.3622,"is_reserved":false,"is_disabled":false,"rental_uris":{"android":"levelo://app?vid=8363accd-fb3e-4197-b76c-de8d47411466","ios":"levelo://app?vid=8363accd-fb3e-4197-b76c-de8d47411466"},"vehicle_type_id":"4","last_reported":1731517679,"current_range_meters":8400,"station_id":"ce4bhb12rcd13ifvqem0","pricing_plan_id":"cebpf4jnsgd1na2vs0mg"},{"bike_id":"8ff3daf9-97e9-480f-95f9-4d1d61792a54","system_id":"levelo_inurba_marseille","lat":43.33758,"lon":5.37471,"is_reserved":false,"is_disabled":false,"rental_uris":{"android":"levelo://app?vid=8ff3daf9-97e9-480f-95f9-4d1d61792a54","ios":"levelo://app?vid=8ff3daf9-97e9-480f-95f9-4d1d61792a54"},"vehicle_type_id":"4","last_reported":1731517679,"current_range_meters":34800,"station_id":"","pricing_plan_id":"cebpf4jnsgd1na2vs0mg"},{"bike_id":"2d5dfb2a-158f-4946-9842-bcc4ebebe068","system_id":"levelo_inurba_marseille","lat":43.24548,"lon":5.39526,"is_reserved":false,"is_disabled":false,"rental_uris":{"android":"levelo://app?vid=2d5dfb2a-158f-4946-9842-bcc4ebebe068","ios":"levelo://app?vid=2d5dfb2a-158f-4946-9842-bcc4ebebe068"},"vehicle_type_id":"4","last_reported":1731517679,"current_range_meters":39200,"station_id":"ce4bhlp2rcd13ifvqgjg","pricing_plan_id":"cebpf4jnsgd1na2vs0mg"},{"bike_id":"dd7d9016-feda-4fb9-833e-5c856731139b","system_id":"levelo_inurba_marseille","lat":43.27996,"lon":5.41666,"is_reserved":false,"is_disabled":false,"rental_uris":{"android":"levelo://app?vid=dd7d9016-feda-4fb9-833e-5c856731139b","ios":"levelo://app?vid=dd7d9016-feda-4fb9-833e-5c856731139b"},"vehicle_type_id":"4","last_reported":1731517679,"current_range_meters":24400,"station_id":"ce4bho12rcd13ifvqh1g","pricing_plan_id":"cebpf4jnsgd1na2vs0mg"},{"bike_id":"ad2ed63e-9146-4a9d-a1ef-3c122587a3b2","system_id":"levelo_inurba_marseille","lat":43.29024,"lon":5.38127,"is_reserved":false,"is_disabled":false,"rental_uris":{"android":"levelo://app?vid=ad2ed63e-9146-4a9d-a1ef-3c122587a3b2","ios":"levelo://app?vid=ad2ed63e-9146-4a9d-a1ef-3c122587a3b2"},"vehicle_type_id":"4","last_reported":1731517679,"current_range_meters":24400,"station_id":"ce4bh4p2rcd13ifvqe1g","pricing_plan_id":"cebpf4jnsgd1na2vs0mg"},{"bike_id":"d09a69b4-a6cd-4352-9b70-237c7ec2c287","system_id":"levelo_inurba_marseille","lat":43.29661,"lon":5.37711,"is_reserved":false,"is_disabled":false,"rental_uris":{"android":"levelo://app?vid=d09a69b4-a6cd-4352-9b70-237c7ec2c287","ios":"levelo://app?vid=d09a69b4-a6cd-4352-9b70-237c7ec2c287"},"vehicle_type_id":"4","last_reported":1731517679,"current_range_meters":25600,"station_id":"ce4bgi92rcd13ifvqb90","pricing_plan_id":"cebpf4jnsgd1na2vs0mg"},{"bike_id":"ac5c6877-f1d3-4e29-bfa2-747aaf197c68","system_id":"levelo_inurba_marseille","lat":43.26943,"lon":5.40249,"is_reserved":false,"is_disabled":false,"rental_uris":{"android":"levelo://app?vid=ac5c6877-f1d3-4e29-bfa2-747aaf197c68","ios":"levelo://app?vid=ac5c6877-f1d3-4e29-bfa2-747aaf197c68"},"vehicle_type_id":"4","last_reported":1731517679,"current_range_meters":24000,"station_id":"cjm6bp8fraef2m0cb0m0","pricing_plan_id":"cebpf4jnsgd1na2vs0mg"},{"bike_id":"ca502d75-f3ed-4841-9c03-2278864d924d","system_id":"levelo_inurba_marseille","lat":43.31757,"lon":5.39016,"is_reserved":false,"is_disabled":false,"rental_uris":{"android":"levelo://app?vid=ca502d75-f3ed-4841-9c03-2278864d924d","ios":"levelo://app?vid=ca502d75-f3ed-4841-9c03-2278864d924d"},"vehicle_type_id":"4","last_reported":1731517679,"current_range_meters":33200,"station_id":"ce4bhqp2rcd13ifvqhng","pricing_plan_id":"cebpf4jnsgd1na2vs0mg"},{"bike_id":"3deeea91-709b-4e99-bbe4-d56f149bcdc6","system_id":"levelo_inurba_marseille","lat":43.26502,"lon":5.39539,"is_reserved":false,"is_disabled":false,"rental_uris":{"android":"levelo://app?vid=3deeea91-709b-4e99-bbe4-d56f149bcdc6","ios":"levelo://app?vid=3deeea91-709b-4e99-bbe4-d56f149bcdc6"},"vehicle_type_id":"4","last_reported":1731517679,"current_range_meters":37600,"station_id":"ce4bhi12rcd13ifvqfq0","pricing_plan_id":"cebpf4jnsgd1na2vs0mg"},{"bike_id":"8ed50e94-2d20-40dd-b5ea-08b8c69265ff","system_id":"levelo_inurba_marseille","lat":43.29279,"lon":5.36851,"is_reserved":false,"is_disabled":false,"rental_uris":{"android":"levelo://app?vid=8ed50e94-2d20-40dd-b5ea-08b8c69265ff","ios":"levelo://app?vid=8ed50e94-2d20-40dd-b5ea-08b8c69265ff"},"vehicle_type_id":"4","last_reported":1731517679,"current_range_meters":36400,"station_id":"ce4bhbp2rcd13ifvqesg","pricing_plan_id":"cebpf4jnsgd1na2vs0mg"},{"bike_id":"6277ad66-fef2-4974-8d33-a9129f5c4127","system_id":"levelo_inurba_marseille","lat":43.33023,"lon":5.39046,"is_reserved":false,"is_disabled":false,"rental_uris":{"android":"levelo://app?vid=6277ad66-fef2-4974-8d33-a9129f5c4127","ios":"levelo://app?vid=6277ad66-fef2-4974-8d33-a9129f5c4127"},"vehicle_type_id":"4","last_reported":1731517679,"current_range_meters":36800,"station_id":"ce4bhr92rcd13ifvqhrg","pricing_plan_id":"cebpf4jnsgd1na2vs0mg"},{"bike_id":"e6878984-a1dd-4992-8913-0fc51d54781e","system_id":"levelo_inurba_marseille","lat":43.30552,"lon":5.37268,"is_reserved":false,"is_disabled":false,"rental_uris":{"android":"levelo://app?vid=e6878984-a1dd-4992-8913-0fc51d54781e","ios":"levelo://app?vid=e6878984-a1dd-4992-8913-0fc51d54781e"},"vehicle_type_id":"4","last_reported":1731517679,"current_range_meters":26800,"station_id":"","pricing_plan_id":"cebpf4jnsgd1na2vs0mg"},{"bike_id":"a7e9865b-c259-49f3-ad42-c770159f46ec","system_id":"levelo_inurba_marseille","lat":43.33785,"lon":5.37431,"is_reserved":false,"is_disabled":false,"rental_uris":{"android":"levelo://app?vid=a7e9865b-c259-49f3-ad42-c770159f46ec","ios":"levelo://app?vid=a7e9865b-c259-49f3-ad42-c770159f46ec"},"vehicle_type_id":"4","last_reported":1731517679,"current_range_meters":36400,"station_id":"","pricing_plan_id":"cebpf4jnsgd1na2vs0mg"},{"bike_id":"f5018645-c842-4f56-883e-fdbb4a3b6f5c","system_id":"levelo_inurba_marseille","lat":43.28151,"lon":5.42649,"is_reserved":false,"is_disabled":false,"rental_uris":{"android":"levelo://app?vid=f5018645-c842-4f56-883e-fdbb4a3b6f5c","ios":"levelo://app?vid=f5018645-c842-4f56-883e-fdbb4a3b6f5c"},"vehicle_type_id":"4","last_reported":1731517679,"current_range_meters":20000,"station_id":"ce4bhnh2rcd13ifvqgug","pricing_plan_id":"cebpf4jnsgd1na2vs0mg"},{"bike_id":"9e07f9af-e6eb-414b-9dc8-16d063e4cdaa","system_id":"levelo_inurba_marseille","lat":43.31327,"lon":5.39691,"is_reserved":false,"is_disabled":false,"rental_uris":{"android":"levelo://app?vid=9e07f9af-e6eb-414b-9dc8-16d063e4cdaa","ios":"levelo://app?vid=9e07f9af-e6eb-414b-9dc8-16d063e4cdaa"},"vehicle_type_id":"4","last_reported":1731517679,"current_range_meters":30400,"station_id":"ce4bgvp2rcd13ifvqcu0","pricing_plan_id":"cebpf4jnsgd1na2vs0mg"},{"bike_id":"47d190c8-4615-4d31-a832-94f20293f653","system_id":"levelo_inurba_marseille","lat":43.298753,"lon":5.397324,"is_reserved":false,"is_disabled":false,"rental_uris":{"android":"levelo://app?vid=47d190c8-4615-4d31-a832-94f20293f653","ios":"levelo://app?vid=47d190c8-4615-4d31-a832-94f20293f653"},"vehicle_type_id":"4","last_reported":1731517679,"current_range_meters":30800,"station_id":"ce4bh0h2rcd13ifvqd50","pricing_plan_id":"cebpf4jnsgd1na2vs0mg"},{"bike_id":"978261d5-1f68-40da-8c14-3e300ff7cc50","system_id":"levelo_inurba_marseille","lat":43.23189,"lon":5.39987,"is_reserved":false,"is_disabled":false,"rental_uris":{"android":"levelo://app?vid=978261d5-1f68-40da-8c14-3e300ff7cc50","ios":"levelo://app?vid=978261d5-1f68-40da-8c14-3e300ff7cc50"},"vehicle_type_id":"4","last_reported":1731517679,"current_range_meters":36800,"station_id":"ce4bhn12rcd13ifvqgqg","pricing_plan_id":"cebpf4jnsgd1na2vs0mg"},{"bike_id":"80be5877-0c62-4097-9cd9-b79ef6137bdf","system_id":"levelo_inurba_marseille","lat":43.30879,"lon":5.37199,"is_reserved":false,"is_disabled":false,"rental_uris":{"android":"levelo://app?vid=80be5877-0c62-4097-9cd9-b79ef6137bdf","ios":"levelo://app?vid=80be5877-0c62-4097-9cd9-b79ef6137bdf"},"vehicle_type_id":"4","last_reported":1731517679,"current_range_meters":20800,"station_id":"ce4bguh2rcd13ifvqckg","pricing_plan_id":"cebpf4jnsgd1na2vs0mg"},{"bike_id":"712adf69-0779-4570-90d8-f7723b163ce3","system_id":"levelo_inurba_marseille","lat":43.28459,"lon":5.35895,"is_reserved":false,"is_disabled":false,"rental_uris":{"android":"levelo://app?vid=712adf69-0779-4570-90d8-f7723b163ce3","ios":"levelo://app?vid=712adf69-0779-4570-90d8-f7723b163ce3"},"vehicle_type_id":"4","last_reported":1731517679,"current_range_meters":6400,"station_id":"ce4bhah2rcd13ifvqei0","pricing_plan_id":"cebpf4jnsgd1na2vs0mg"},{"bike_id":"5d471779-6a7c-4a63-8877-c93b194bb6f7","system_id":"levelo_inurba_marseille","lat":43.33021,"lon":5.39037,"is_reserved":false,"is_disabled":false,"rental_uris":{"android":"levelo://app?vid=5d471779-6a7c-4a63-8877-c93b194bb6f7","ios":"levelo://app?vid=5d471779-6a7c-4a63-8877-c93b194bb6f7"},"vehicle_type_id":"4","last_reported":1731517679,"current_range_meters":21600,"station_id":"ce4bhr92rcd13ifvqhrg","pricing_plan_id":"cebpf4jnsgd1na2vs0mg"},{"bike_id":"5330f6db-3f6a-4cea-a96b-80b79626ee20","system_id":"levelo_inurba_marseille","lat":43.31755,"lon":5.39022,"is_reserved":false,"is_disabled":false,"rental_uris":{"android":"levelo://app?vid=5330f6db-3f6a-4cea-a96b-80b79626ee20","ios":"levelo://app?vid=5330f6db-3f6a-4cea-a96b-80b79626ee20"},"vehicle_type_id":"4","last_reported":1731517679,"current_range_meters":6800,"station_id":"ce4bhqp2rcd13ifvqhng","pricing_plan_id":"cebpf4jnsgd1na2vs0mg"},{"bike_id":"e2496c14-e95d-4a2d-88ba-92659253e380","system_id":"levelo_inurba_marseille","lat":43.2903,"lon":5.38654,"is_reserved":false,"is_disabled":false,"rental_uris":{"android":"levelo://app?vid=e2496c14-e95d-4a2d-88ba-92659253e380","ios":"levelo://app?vid=e2496c14-e95d-4a2d-88ba-92659253e380"},"vehicle_type_id":"4","last_reported":1731517679,"current_range_meters":28400,"station_id":"ce4bh4p2rcd13ifvqe0g","pricing_plan_id":"cebpf4jnsgd1na2vs0mg"},{"bike_id":"11e81eb1-c937-45f7-a253-7bd53290afa7","system_id":"levelo_inurba_marseille","lat":43.31747,"lon":5.39019,"is_reserved":false,"is_disabled":false,"rental_uris":{"android":"levelo://app?vid=11e81eb1-c937-45f7-a253-7bd53290afa7","ios":"levelo://app?vid=11e81eb1-c937-45f7-a253-7bd53290afa7"},"vehicle_type_id":"4","last_reported":1731517679,"current_range_meters":8000,"station_id":"ce4bhqp2rcd13ifvqhng","pricing_plan_id":"cebpf4jnsgd1na2vs0mg"},{"bike_id":"2c497de4-cf30-4044-bf56-d462d8aaa9e8","system_id":"levelo_inurba_marseille","lat":43.2907,"lon":5.37164,"is_reserved":false,"is_disabled":false,"rental_uris":{"android":"levelo://app?vid=2c497de4-cf30-4044-bf56-d462d8aaa9e8","ios":"levelo://app?vid=2c497de4-cf30-4044-bf56-d462d8aaa9e8"},"vehicle_type_id":"4","last_reported":1731517679,"current_range_meters":39200,"station_id":"ce4bh5p2rcd13ifvqe4g","pricing_plan_id":"cebpf4jnsgd1na2vs0mg"},{"bike_id":"68f4b5fd-66ad-4436-9242-c8ad38e517cc","system_id":"levelo_inurba_marseille","lat":43.337444,"lon":5.374475,"is_reserved":false,"is_disabled":false,"rental_uris":{"android":"levelo://app?vid=68f4b5fd-66ad-4436-9242-c8ad38e517cc","ios":"levelo://app?vid=68f4b5fd-66ad-4436-9242-c8ad38e517cc"},"vehicle_type_id":"4","last_reported":1731517679,"current_range_meters":20000,"station_id":"","pricing_plan_id":"cebpf4jnsgd1na2vs0mg"},{"bike_id":"a50ae7be-1a9f-477e-9137-a5af5b7becd7","system_id":"levelo_inurba_marseille","lat":43.337444,"lon":5.374475,"is_reserved":false,"is_disabled":false,"rental_uris":{"android":"levelo://app?vid=a50ae7be-1a9f-477e-9137-a5af5b7becd7","ios":"levelo://app?vid=a50ae7be-1a9f-477e-9137-a5af5b7becd7"},"vehicle_type_id":"4","last_reported":1731517679,"current_range_meters":32000,"station_id":"","pricing_plan_id":"cebpf4jnsgd1na2vs0mg"},{"bike_id":"a1349671-c4d4-4c1d-bc96-693f400e33c2","system_id":"levelo_inurba_marseille","lat":43.27071,"lon":5.42283,"is_reserved":false,"is_disabled":false,"rental_uris":{"android":"levelo://app?vid=a1349671-c4d4-4c1d-bc96-693f400e33c2","ios":"levelo://app?vid=a1349671-c4d4-4c1d-bc96-693f400e33c2"},"vehicle_type_id":"4","last_reported":1731517679,"current_range_meters":13600,"station_id":"ce4bhk92rcd13ifvqgb0","pricing_plan_id":"cebpf4jnsgd1na2vs0mg"},{"bike_id":"63d271b8-cb8a-4f2f-b0c1-284b5386b0c8","system_id":"levelo_inurba_marseille","lat":43.28445,"lon":5.35891,"is_reserved":false,"is_disabled":false,"rental_uris":{"android":"levelo://app?vid=63d271b8-cb8a-4f2f-b0c1-284b5386b0c8","ios":"levelo://app?vid=63d271b8-cb8a-4f2f-b0c1-284b5386b0c8"},"vehicle_type_id":"4","last_reported":1731517679,"current_range_meters":32400,"station_id":"ce4bhah2rcd13ifvqei0","pricing_plan_id":"cebpf4jnsgd1na2vs0mg"},{"bike_id":"c64ae82b-9a80-4c51-a4d3-e8c84a7edb1f","system_id":"levelo_inurba_marseille","lat":43.24177,"lon":5.39737,"is_reserved":false,"is_disabled":false,"rental_uris":{"android":"levelo://app?vid=c64ae82b-9a80-4c51-a4d3-e8c84a7edb1f","ios":"levelo://app?vid=c64ae82b-9a80-4c51-a4d3-e8c84a7edb1f"},"vehicle_type_id":"4","last_reported":1731517679,"current_range_meters":34800,"station_id":"ce4bhn12rcd13ifvqgpg","pricing_plan_id":"cebpf4jnsgd1na2vs0mg"},{"bike_id":"6b695f44-c587-42f6-9053-f54fd254f937","system_id":"levelo_inurba_marseille","lat":43.26552,"lon":5.37286,"is_reserved":false,"is_disabled":false,"rental_uris":{"android":"levelo://app?vid=6b695f44-c587-42f6-9053-f54fd254f937","ios":"levelo://app?vid=6b695f44-c587-42f6-9053-f54fd254f937"},"vehicle_type_id":"4","last_reported":1731517679,"current_range_meters":37600,"station_id":"ce4bhg12rcd13ifvqf70","pricing_plan_id":"cebpf4jnsgd1na2vs0mg"},{"bike_id":"ca20f526-6f03-41bc-8371-a4d409f0dfca","system_id":"levelo_inurba_marseille","lat":43.29267,"lon":5.40908,"is_reserved":false,"is_disabled":false,"rental_uris":{"android":"levelo://app?vid=ca20f526-6f03-41bc-8371-a4d409f0dfca","ios":"levelo://app?vid=ca20f526-6f03-41bc-8371-a4d409f0dfca"},"vehicle_type_id":"4","last_reported":1731517679,"current_range_meters":12000,"station_id":"ce4bh192rcd13ifvqdc0","pricing_plan_id":"cebpf4jnsgd1na2vs0mg"},{"bike_id":"cc344d28-add3-4587-b7b5-6585fbc05003","system_id":"levelo_inurba_marseille","lat":43.30145,"lon":5.38086,"is_reserved":false,"is_disabled":false,"rental_uris":{"android":"levelo://app?vid=cc344d28-add3-4587-b7b5-6585fbc05003","ios":"levelo://app?vid=cc344d28-add3-4587-b7b5-6585fbc05003"},"vehicle_type_id":"4","last_reported":1731517679,"current_range_meters":27600,"station_id":"ce4bgjp2rcd13ifvqbh0","pricing_plan_id":"cebpf4jnsgd1na2vs0mg"},{"bike_id":"97a68d8f-5c47-48e4-b5ee-80e98f552c6b","system_id":"levelo_inurba_marseille","lat":43.26206,"lon":5.37446,"is_reserved":false,"is_disabled":false,"rental_uris":{"android":"levelo://app?vid=97a68d8f-5c47-48e4-b5ee-80e98f552c6b","ios":"levelo://app?vid=97a68d8f-5c47-48e4-b5ee-80e98f552c6b"},"vehicle_type_id":"4","last_reported":1731517679,"current_range_meters":38800,"station_id":"ce4bhgp2rcd13ifvqfc0","pricing_plan_id":"cebpf4jnsgd1na2vs0mg"},{"bike_id":"73246db3-5b3b-4410-8d61-df61e85d2747","system_id":"levelo_inurba_marseille","lat":43.293538,"lon":5.377989,"is_reserved":false,"is_disabled":false,"rental_uris":{"android":"levelo://app?vid=73246db3-5b3b-4410-8d61-df61e85d2747","ios":"levelo://app?vid=73246db3-5b3b-4410-8d61-df61e85d2747"},"vehicle_type_id":"4","last_reported":1731517679,"current_range_meters":10000,"station_id":"ce4bho12rcd13ifvqh2g","pricing_plan_id":"cebpf4jnsgd1na2vs0mg"},{"bike_id":"9610b6f1-1679-4ed8-a7d3-e8d920fd0493","system_id":"levelo_inurba_marseille","lat":43.23956,"lon":5.36633,"is_reserved":false,"is_disabled":false,"rental_uris":{"android":"levelo://app?vid=9610b6f1-1679-4ed8-a7d3-e8d920fd0493","ios":"levelo://app?vid=9610b6f1-1679-4ed8-a7d3-e8d920fd0493"},"vehicle_type_id":"4","last_reported":1731517679,"current_range_meters":35600,"station_id":"ce4bhi12rcd13ifvqfp0","pricing_plan_id":"cebpf4jnsgd1na2vs0mg"},{"bike_id":"a6f9f3bc-f0e5-4cf8-a887-05416e78ae93","system_id":"levelo_inurba_marseille","lat":43.26059,"lon":5.39401,"is_reserved":false,"is_disabled":false,"rental_uris":{"android":"levelo://app?vid=a6f9f3bc-f0e5-4cf8-a887-05416e78ae93","ios":"levelo://app?vid=a6f9f3bc-f0e5-4cf8-a887-05416e78ae93"},"vehicle_type_id":"4","last_reported":1731517679,"current_range_meters":6800,"station_id":"ce4bhh92rcd13ifvqfj0","pricing_plan_id":"cebpf4jnsgd1na2vs0mg"},{"bike_id":"c5f05f98-481e-40bb-89ff-1dc9820b5dff","system_id":"levelo_inurba_marseille","lat":43.29771,"lon":5.37111,"is_reserved":false,"is_disabled":false,"rental_uris":{"android":"levelo://app?vid=c5f05f98-481e-40bb-89ff-1dc9820b5dff","ios":"levelo://app?vid=c5f05f98-481e-40bb-89ff-1dc9820b5dff"},"vehicle_type_id":"4","last_reported":1731517679,"current_range_meters":38000,"station_id":"ce4bgop2rcd13ifvqc1g","pricing_plan_id":"cebpf4jnsgd1na2vs0mg"},{"bike_id":"9d48f0c2-f65e-448f-aad5-8a65673dbb68","system_id":"levelo_inurba_marseille","lat":43.26935,"lon":5.38916,"is_reserved":false,"is_disabled":false,"rental_uris":{"android":"levelo://app?vid=9d48f0c2-f65e-448f-aad5-8a65673dbb68","ios":"levelo://app?vid=9d48f0c2-f65e-448f-aad5-8a65673dbb68"},"vehicle_type_id":"4","last_reported":1731517679,"current_range_meters":18000,"station_id":"ce4bhhh2rcd13ifvqfl0","pricing_plan_id":"cebpf4jnsgd1na2vs0mg"},{"bike_id":"f80545a3-0319-4da4-b572-fc20738c0f28","system_id":"levelo_inurba_marseille","lat":43.29533,"lon":5.39037,"is_reserved":false,"is_disabled":false,"rental_uris":{"android":"levelo://app?vid=f80545a3-0319-4da4-b572-fc20738c0f28","ios":"levelo://app?vid=f80545a3-0319-4da4-b572-fc20738c0f28"},"vehicle_type_id":"4","last_reported":1731517679,"current_range_meters":5600,"station_id":"ce4bh3p2rcd13ifvqdp0","pricing_plan_id":"cebpf4jnsgd1na2vs0mg"},{"bike_id":"b55f878d-c285-4094-9d62-db6907787a80","system_id":"levelo_inurba_marseille","lat":43.25117,"lon":5.4032,"is_reserved":false,"is_disabled":false,"rental_uris":{"android":"levelo://app?vid=b55f878d-c285-4094-9d62-db6907787a80","ios":"levelo://app?vid=b55f878d-c285-4094-9d62-db6907787a80"},"vehicle_type_id":"4","last_reported":1731517679,"current_range_meters":36000,"station_id":"ce4bhlh2rcd13ifvqgig","pricing_plan_id":"cebpf4jnsgd1na2vs0mg"},{"bike_id":"cd9e5e78-d3bc-4ab4-86b7-0e5e71696de7","system_id":"levelo_inurba_marseille","lat":43.32659,"lon":5.40994,"is_reserved":false,"is_disabled":false,"rental_uris":{"android":"levelo://app?vid=cd9e5e78-d3bc-4ab4-86b7-0e5e71696de7","ios":"levelo://app?vid=cd9e5e78-d3bc-4ab4-86b7-0e5e71696de7"},"vehicle_type_id":"4","last_reported":1731517679,"current_range_meters":39200,"station_id":"ce4bhpp2rcd13ifvqhgg","pricing_plan_id":"cebpf4jnsgd1na2vs0mg"},{"bike_id":"ff815527-4bbc-4b5e-8930-784799960d55","system_id":"levelo_inurba_marseille","lat":43.32365,"lon":5.40579,"is_reserved":false,"is_disabled":false,"rental_uris":{"android":"levelo://app?vid=ff815527-4bbc-4b5e-8930-784799960d55","ios":"levelo://app?vid=ff815527-4bbc-4b5e-8930-784799960d55"},"vehicle_type_id":"4","last_reported":1731517679,"current_range_meters":34000,"station_id":"ce4bhq92rcd13ifvqhjg","pricing_plan_id":"cebpf4jnsgd1na2vs0mg"},{"bike_id":"4d9ff8d2-26bb-4f36-b039-ebcff92e3a03","system_id":"levelo_inurba_marseille","lat":43.29416,"lon":5.38627,"is_reserved":false,"is_disabled":false,"rental_uris":{"android":"levelo://app?vid=4d9ff8d2-26bb-4f36-b039-ebcff92e3a03","ios":"levelo://app?vid=4d9ff8d2-26bb-4f36-b039-ebcff92e3a03"},"vehicle_type_id":"4","last_reported":1731517679,"current_range_meters":38800,"station_id":"ce4bh2h2rcd13ifvqdh0","pricing_plan_id":"cebpf4jnsgd1na2vs0mg"},{"bike_id":"b8f54bf8-9a68-49bc-8ff7-07eb6cf6801b","system_id":"levelo_inurba_marseille","lat":43.24177,"lon":5.39734,"is_reserved":false,"is_disabled":false,"rental_uris":{"android":"levelo://app?vid=b8f54bf8-9a68-49bc-8ff7-07eb6cf6801b","ios":"levelo://app?vid=b8f54bf8-9a68-49bc-8ff7-07eb6cf6801b"},"vehicle_type_id":"4","last_reported":1731517679,"current_range_meters":21600,"station_id":"ce4bhn12rcd13ifvqgpg","pricing_plan_id":"cebpf4jnsgd1na2vs0mg"},{"bike_id":"d6ab22d4-bc16-42b4-b90b-8d825b9427ca","system_id":"levelo_inurba_marseille","lat":43.27957,"lon":5.38745,"is_reserved":false,"is_disabled":false,"rental_uris":{"android":"levelo://app?vid=d6ab22d4-bc16-42b4-b90b-8d825b9427ca","ios":"levelo://app?vid=d6ab22d4-bc16-42b4-b90b-8d825b9427ca"},"vehicle_type_id":"4","last_reported":1731517679,"current_range_meters":16800,"station_id":"ce4bhg12rcd13ifvqf80","pricing_plan_id":"cebpf4jnsgd1na2vs0mg"},{"bike_id":"bcf4e3e2-8123-4ba9-a5a7-d43536714f13","system_id":"levelo_inurba_marseille","lat":43.27999,"lon":5.41668,"is_reserved":false,"is_disabled":false,"rental_uris":{"android":"levelo://app?vid=bcf4e3e2-8123-4ba9-a5a7-d43536714f13","ios":"levelo://app?vid=bcf4e3e2-8123-4ba9-a5a7-d43536714f13"},"vehicle_type_id":"4","last_reported":1731517679,"current_range_meters":24800,"station_id":"ce4bho12rcd13ifvqh1g","pricing_plan_id":"cebpf4jnsgd1na2vs0mg"},{"bike_id":"ee66b781-1983-4b4f-8ca4-996fef76e18a","system_id":"levelo_inurba_marseille","lat":43.24181,"lon":5.39736,"is_reserved":false,"is_disabled":false,"rental_uris":{"android":"levelo://app?vid=ee66b781-1983-4b4f-8ca4-996fef76e18a","ios":"levelo://app?vid=ee66b781-1983-4b4f-8ca4-996fef76e18a"},"vehicle_type_id":"4","last_reported":1731517679,"current_range_meters":26800,"station_id":"ce4bhn12rcd13ifvqgpg","pricing_plan_id":"cebpf4jnsgd1na2vs0mg"},{"bike_id":"12f4ee11-691f-41d4-899b-9e16b1ed72d6","system_id":"levelo_inurba_marseille","lat":43.29184,"lon":5.39317,"is_reserved":false,"is_disabled":false,"rental_uris":{"android":"levelo://app?vid=12f4ee11-691f-41d4-899b-9e16b1ed72d6","ios":"levelo://app?vid=12f4ee11-691f-41d4-899b-9e16b1ed72d6"},"vehicle_type_id":"4","last_reported":1731517679,"current_range_meters":8800,"station_id":"ce4bh192rcd13ifvqdd0","pricing_plan_id":"cebpf4jnsgd1na2vs0mg"},{"bike_id":"97ca0fc8-d13c-4076-92bb-df266bee07c2","system_id":"levelo_inurba_marseille","lat":43.31729,"lon":5.42397,"is_reserved":false,"is_disabled":false,"rental_uris":{"android":"levelo://app?vid=97ca0fc8-d13c-4076-92bb-df266bee07c2","ios":"levelo://app?vid=97ca0fc8-d13c-4076-92bb-df266bee07c2"},"vehicle_type_id":"4","last_reported":1731517679,"current_range_meters":39200,"station_id":"ce4bhp92rcd13ifvqhbg","pricing_plan_id":"cebpf4jnsgd1na2vs0mg"},{"bike_id":"746296c1-1add-41dd-a53c-91c82c54c6cb","system_id":"levelo_inurba_marseille","lat":43.23198,"lon":5.35556,"is_reserved":false,"is_disabled":false,"rental_uris":{"android":"levelo://app?vid=746296c1-1add-41dd-a53c-91c82c54c6cb","ios":"levelo://app?vid=746296c1-1add-41dd-a53c-91c82c54c6cb"},"vehicle_type_id":"4","last_reported":1731517679,"current_range_meters":38800,"station_id":"ce4bhu92rcd13ifvqi70","pricing_plan_id":"cebpf4jnsgd1na2vs0mg"},{"bike_id":"6fbd40cb-6cae-493e-8ab5-f69f27534260","system_id":"levelo_inurba_marseille","lat":43.28472,"lon":5.35901,"is_reserved":false,"is_disabled":false,"rental_uris":{"android":"levelo://app?vid=6fbd40cb-6cae-493e-8ab5-f69f27534260","ios":"levelo://app?vid=6fbd40cb-6cae-493e-8ab5-f69f27534260"},"vehicle_type_id":"4","last_reported":1731517679,"current_range_meters":29600,"station_id":"ce4bhah2rcd13ifvqei0","pricing_plan_id":"cebpf4jnsgd1na2vs0mg"},{"bike_id":"1df360ab-7ab4-411a-90c2-939c127ebcd4","system_id":"levelo_inurba_marseille","lat":43.27998,"lon":5.40025,"is_reserved":false,"is_disabled":false,"rental_uris":{"android":"levelo://app?vid=1df360ab-7ab4-411a-90c2-939c127ebcd4","ios":"levelo://app?vid=1df360ab-7ab4-411a-90c2-939c127ebcd4"},"vehicle_type_id":"4","last_reported":1731517679,"current_range_meters":27600,"station_id":"ce4bho92rcd13ifvqh4g","pricing_plan_id":"cebpf4jnsgd1na2vs0mg"},{"bike_id":"4ddadcdc-3d85-4531-b1c3-4f5b3130c726","system_id":"levelo_inurba_marseille","lat":43.24591,"lon":5.41687,"is_reserved":false,"is_disabled":false,"rental_uris":{"android":"levelo://app?vid=4ddadcdc-3d85-4531-b1c3-4f5b3130c726","ios":"levelo://app?vid=4ddadcdc-3d85-4531-b1c3-4f5b3130c726"},"vehicle_type_id":"4","last_reported":1731517679,"current_range_meters":20400,"station_id":"","pricing_plan_id":"cebpf4jnsgd1na2vs0mg"},{"bike_id":"2463dac8-3f00-435b-91dc-50bbdddb69d2","system_id":"levelo_inurba_marseille","lat":43.26547,"lon":5.3729,"is_reserved":false,"is_disabled":false,"rental_uris":{"android":"levelo://app?vid=2463dac8-3f00-435b-91dc-50bbdddb69d2","ios":"levelo://app?vid=2463dac8-3f00-435b-91dc-50bbdddb69d2"},"vehicle_type_id":"4","last_reported":1731517679,"current_range_meters":26800,"station_id":"ce4bhg12rcd13ifvqf70","pricing_plan_id":"cebpf4jnsgd1na2vs0mg"},{"bike_id":"a3142cc4-665e-4a01-bf87-d00f06f851ef","system_id":"levelo_inurba_marseille","lat":43.30275,"lon":5.39243,"is_reserved":false,"is_disabled":false,"rental_uris":{"android":"levelo://app?vid=a3142cc4-665e-4a01-bf87-d00f06f851ef","ios":"levelo://app?vid=a3142cc4-665e-4a01-bf87-d00f06f851ef"},"vehicle_type_id":"4","last_reported":1731517679,"current_range_meters":25600,"station_id":"ce4bgkh2rcd13ifvqbk0","pricing_plan_id":"cebpf4jnsgd1na2vs0mg"},{"bike_id":"1d9043d1-43f5-4c7c-8644-29c9c6434d2c","system_id":"levelo_inurba_marseille","lat":43.33021,"lon":5.39051,"is_reserved":false,"is_disabled":false,"rental_uris":{"android":"levelo://app?vid=1d9043d1-43f5-4c7c-8644-29c9c6434d2c","ios":"levelo://app?vid=1d9043d1-43f5-4c7c-8644-29c9c6434d2c"},"vehicle_type_id":"4","last_reported":1731517679,"current_range_meters":39200,"station_id":"ce4bhr92rcd13ifvqhrg","pricing_plan_id":"cebpf4jnsgd1na2vs0mg"},{"bike_id":"76d57b49-1957-4e08-8f8d-e6eba11c4c93","system_id":"levelo_inurba_marseille","lat":43.28037,"lon":5.36961,"is_reserved":false,"is_disabled":false,"rental_uris":{"android":"levelo://app?vid=76d57b49-1957-4e08-8f8d-e6eba11c4c93","ios":"levelo://app?vid=76d57b49-1957-4e08-8f8d-e6eba11c4c93"},"vehicle_type_id":"4","last_reported":1731517679,"current_range_meters":10800,"station_id":"ce4bha12rcd13ifvqef0","pricing_plan_id":"cebpf4jnsgd1na2vs0mg"},{"bike_id":"f730717d-a8b8-471c-a83f-e85c1f9b9c79","system_id":"levelo_inurba_marseille","lat":43.31328,"lon":5.39694,"is_reserved":false,"is_disabled":false,"rental_uris":{"android":"levelo://app?vid=f730717d-a8b8-471c-a83f-e85c1f9b9c79","ios":"levelo://app?vid=f730717d-a8b8-471c-a83f-e85c1f9b9c79"},"vehicle_type_id":"4","last_reported":1731517679,"current_range_meters":9200,"station_id":"ce4bgvp2rcd13ifvqcu0","pricing_plan_id":"cebpf4jnsgd1na2vs0mg"},{"bike_id":"00bc4545-8f6c-4966-b890-b6c9062a1b39","system_id":"levelo_inurba_marseille","lat":43.337444,"lon":5.374475,"is_reserved":false,"is_disabled":false,"rental_uris":{"android":"levelo://app?vid=00bc4545-8f6c-4966-b890-b6c9062a1b39","ios":"levelo://app?vid=00bc4545-8f6c-4966-b890-b6c9062a1b39"},"vehicle_type_id":"4","last_reported":1731517679,"current_range_meters":37600,"station_id":"","pricing_plan_id":"cebpf4jnsgd1na2vs0mg"},{"bike_id":"6982925c-b102-48f8-a120-d6e37fb8c28a","system_id":"levelo_inurba_marseille","lat":43.29432,"lon":5.39757,"is_reserved":false,"is_disabled":false,"rental_uris":{"android":"levelo://app?vid=6982925c-b102-48f8-a120-d6e37fb8c28a","ios":"levelo://app?vid=6982925c-b102-48f8-a120-d6e37fb8c28a"},"vehicle_type_id":"4","last_reported":1731517679,"current_range_meters":39200,"station_id":"ce4bh3h2rcd13ifvqdo0","pricing_plan_id":"cebpf4jnsgd1na2vs0mg"},{"bike_id":"f603d694-7ef4-47b2-8896-72d0115dca3c","system_id":"levelo_inurba_marseille","lat":43.29849,"lon":5.36287,"is_reserved":false,"is_disabled":false,"rental_uris":{"android":"levelo://app?vid=f603d694-7ef4-47b2-8896-72d0115dca3c","ios":"levelo://app?vid=f603d694-7ef4-47b2-8896-72d0115dca3c"},"vehicle_type_id":"4","last_reported":1731517679,"current_range_meters":36400,"station_id":"ce4bgpp2rcd13ifvqc3g","pricing_plan_id":"cebpf4jnsgd1na2vs0mg"},{"bike_id":"972f26d5-9d7c-40bb-afc1-e189b1b40645","system_id":"levelo_inurba_marseille","lat":43.29277,"lon":5.40127,"is_reserved":false,"is_disabled":false,"rental_uris":{"android":"levelo://app?vid=972f26d5-9d7c-40bb-afc1-e189b1b40645","ios":"levelo://app?vid=972f26d5-9d7c-40bb-afc1-e189b1b40645"},"vehicle_type_id":"4","last_reported":1731517679,"current_range_meters":23200,"station_id":"ce4bh312rcd13ifvqdk0","pricing_plan_id":"cebpf4jnsgd1na2vs0mg"},{"bike_id":"0c00eb15-bb8e-4667-8d97-7d33df64a55b","system_id":"levelo_inurba_marseille","lat":43.320447,"lon":5.415363,"is_reserved":false,"is_disabled":false,"rental_uris":{"android":"levelo://app?vid=0c00eb15-bb8e-4667-8d97-7d33df64a55b","ios":"levelo://app?vid=0c00eb15-bb8e-4667-8d97-7d33df64a55b"},"vehicle_type_id":"4","last_reported":1731517679,"current_range_meters":19200,"station_id":"ce4bhq92rcd13ifvqhkg","pricing_plan_id":"cebpf4jnsgd1na2vs0mg"},{"bike_id":"9aaf0c7f-1c47-47e9-8f9c-ea9a2314ea14","system_id":"levelo_inurba_marseille","lat":43.29029,"lon":5.38634,"is_reserved":false,"is_disabled":false,"rental_uris":{"android":"levelo://app?vid=9aaf0c7f-1c47-47e9-8f9c-ea9a2314ea14","ios":"levelo://app?vid=9aaf0c7f-1c47-47e9-8f9c-ea9a2314ea14"},"vehicle_type_id":"4","last_reported":1731517679,"current_range_meters":38800,"station_id":"ce4bh4p2rcd13ifvqe0g","pricing_plan_id":"cebpf4jnsgd1na2vs0mg"},{"bike_id":"fc05900b-3584-4c83-992a-0811744eab68","system_id":"levelo_inurba_marseille","lat":43.29615,"lon":5.37741,"is_reserved":false,"is_disabled":false,"rental_uris":{"android":"levelo://app?vid=fc05900b-3584-4c83-992a-0811744eab68","ios":"levelo://app?vid=fc05900b-3584-4c83-992a-0811744eab68"},"vehicle_type_id":"4","last_reported":1731517679,"current_range_meters":5600,"station_id":"ce4bgi92rcd13ifvqb90","pricing_plan_id":"cebpf4jnsgd1na2vs0mg"},{"bike_id":"1c23f798-1895-476b-b6cb-cb05b230077e","system_id":"levelo_inurba_marseille","lat":43.28459,"lon":5.35892,"is_reserved":false,"is_disabled":false,"rental_uris":{"android":"levelo://app?vid=1c23f798-1895-476b-b6cb-cb05b230077e","ios":"levelo://app?vid=1c23f798-1895-476b-b6cb-cb05b230077e"},"vehicle_type_id":"4","last_reported":1731517679,"current_range_meters":10000,"station_id":"ce4bhah2rcd13ifvqei0","pricing_plan_id":"cebpf4jnsgd1na2vs0mg"},{"bike_id":"dce96e53-01db-44e3-992c-38cf30e477a4","system_id":"levelo_inurba_marseille","lat":43.23192,"lon":5.35548,"is_reserved":false,"is_disabled":false,"rental_uris":{"android":"levelo://app?vid=dce96e53-01db-44e3-992c-38cf30e477a4","ios":"levelo://app?vid=dce96e53-01db-44e3-992c-38cf30e477a4"},"vehicle_type_id":"4","last_reported":1731517679,"current_range_meters":25600,"station_id":"ce4bhu92rcd13ifvqi70","pricing_plan_id":"cebpf4jnsgd1na2vs0mg"},{"bike_id":"b3ed9ebd-6f0b-4a22-9403-02d806225a19","system_id":"levelo_inurba_marseille","lat":43.27049,"lon":5.40264,"is_reserved":false,"is_disabled":false,"rental_uris":{"android":"levelo://app?vid=b3ed9ebd-6f0b-4a22-9403-02d806225a19","ios":"levelo://app?vid=b3ed9ebd-6f0b-4a22-9403-02d806225a19"},"vehicle_type_id":"4","last_reported":1731517679,"current_range_meters":2000,"station_id":"ce4bhk92rcd13ifvqgc0","pricing_plan_id":"cebpf4jnsgd1na2vs0mg"},{"bike_id":"3c53c24e-a476-4cf4-8a47-52c97af29e52","system_id":"levelo_inurba_marseille","lat":43.27816,"lon":5.40718,"is_reserved":false,"is_disabled":false,"rental_uris":{"android":"levelo://app?vid=3c53c24e-a476-4cf4-8a47-52c97af29e52","ios":"levelo://app?vid=3c53c24e-a476-4cf4-8a47-52c97af29e52"},"vehicle_type_id":"4","last_reported":1731517679,"current_range_meters":37600,"station_id":"ce4bhnh2rcd13ifvqgtg","pricing_plan_id":"cebpf4jnsgd1na2vs0mg"},{"bike_id":"63d94bb1-3e21-468c-9fec-d6f4e42444be","system_id":"levelo_inurba_marseille","lat":43.285339,"lon":5.383966,"is_reserved":false,"is_disabled":false,"rental_uris":{"android":"levelo://app?vid=63d94bb1-3e21-468c-9fec-d6f4e42444be","ios":"levelo://app?vid=63d94bb1-3e21-468c-9fec-d6f4e42444be"},"vehicle_type_id":"4","last_reported":1731517679,"current_range_meters":38000,"station_id":"","pricing_plan_id":"cebpf4jnsgd1na2vs0mg"},{"bike_id":"19a1c784-712b-4dce-8fd2-233d8dd621f8","system_id":"levelo_inurba_marseille","lat":43.28037,"lon":5.3695,"is_reserved":false,"is_disabled":false,"rental_uris":{"android":"levelo://app?vid=19a1c784-712b-4dce-8fd2-233d8dd621f8","ios":"levelo://app?vid=19a1c784-712b-4dce-8fd2-233d8dd621f8"},"vehicle_type_id":"4","last_reported":1731517679,"current_range_meters":8000,"station_id":"ce4bha12rcd13ifvqef0","pricing_plan_id":"cebpf4jnsgd1na2vs0mg"},{"bike_id":"e7bfec9f-cbd6-4fcc-b68c-9906e90867aa","system_id":"levelo_inurba_marseille","lat":43.27202,"lon":5.39174,"is_reserved":false,"is_disabled":false,"rental_uris":{"android":"levelo://app?vid=e7bfec9f-cbd6-4fcc-b68c-9906e90867aa","ios":"levelo://app?vid=e7bfec9f-cbd6-4fcc-b68c-9906e90867aa"},"vehicle_type_id":"4","last_reported":1731517679,"current_range_meters":23200,"station_id":"ce4bhhp2rcd13ifvqfm0","pricing_plan_id":"cebpf4jnsgd1na2vs0mg"},{"bike_id":"aa274946-ffc6-4731-ab18-fbe0adfaf675","system_id":"levelo_inurba_marseille","lat":43.29527,"lon":5.39408,"is_reserved":false,"is_disabled":false,"rental_uris":{"android":"levelo://app?vid=aa274946-ffc6-4731-ab18-fbe0adfaf675","ios":"levelo://app?vid=aa274946-ffc6-4731-ab18-fbe0adfaf675"},"vehicle_type_id":"4","last_reported":1731517679,"current_range_meters":4800,"station_id":"ce4bh292rcd13ifvqdf0","pricing_plan_id":"cebpf4jnsgd1na2vs0mg"},{"bike_id":"f00fe64d-01ee-4b91-bb9c-6fe7662d21b9","system_id":"levelo_inurba_marseille","lat":43.23195,"lon":5.35557,"is_reserved":false,"is_disabled":false,"rental_uris":{"android":"levelo://app?vid=f00fe64d-01ee-4b91-bb9c-6fe7662d21b9","ios":"levelo://app?vid=f00fe64d-01ee-4b91-bb9c-6fe7662d21b9"},"vehicle_type_id":"4","last_reported":1731517679,"current_range_meters":8400,"station_id":"ce4bhu92rcd13ifvqi70","pricing_plan_id":"cebpf4jnsgd1na2vs0mg"},{"bike_id":"b08160fd-bbf1-4cd1-8f76-90ec0e7f65a6","system_id":"levelo_inurba_marseille","lat":43.31076,"lon":5.3836,"is_reserved":false,"is_disabled":false,"rental_uris":{"android":"levelo://app?vid=b08160fd-bbf1-4cd1-8f76-90ec0e7f65a6","ios":"levelo://app?vid=b08160fd-bbf1-4cd1-8f76-90ec0e7f65a6"},"vehicle_type_id":"4","last_reported":1731517679,"current_range_meters":28800,"station_id":"ce4bgv92rcd13ifvqcr0","pricing_plan_id":"cebpf4jnsgd1na2vs0mg"},{"bike_id":"640c7c65-7212-4f61-b737-3232d1c74251","system_id":"levelo_inurba_marseille","lat":43.24807,"lon":5.37461,"is_reserved":false,"is_disabled":false,"rental_uris":{"android":"levelo://app?vid=640c7c65-7212-4f61-b737-3232d1c74251","ios":"levelo://app?vid=640c7c65-7212-4f61-b737-3232d1c74251"},"vehicle_type_id":"4","last_reported":1731517679,"current_range_meters":27200,"station_id":"ce4bhgh2rcd13ifvqfb0","pricing_plan_id":"cebpf4jnsgd1na2vs0mg"},{"bike_id":"df274461-81f9-44ff-a5a9-664d0d4dafd6","system_id":"levelo_inurba_marseille","lat":43.284551,"lon":5.35895,"is_reserved":false,"is_disabled":false,"rental_uris":{"android":"levelo://app?vid=df274461-81f9-44ff-a5a9-664d0d4dafd6","ios":"levelo://app?vid=df274461-81f9-44ff-a5a9-664d0d4dafd6"},"vehicle_type_id":"4","last_reported":1731517679,"current_range_meters":24000,"station_id":"ce4bhah2rcd13ifvqei0","pricing_plan_id":"cebpf4jnsgd1na2vs0mg"},{"bike_id":"2a27ca0d-4f2d-49af-be94-326001f35bf5","system_id":"levelo_inurba_marseille","lat":43.29304,"lon":5.37467,"is_reserved":false,"is_disabled":false,"rental_uris":{"android":"levelo://app?vid=2a27ca0d-4f2d-49af-be94-326001f35bf5","ios":"levelo://app?vid=2a27ca0d-4f2d-49af-be94-326001f35bf5"},"vehicle_type_id":"4","last_reported":1731517679,"current_range_meters":5600,"station_id":"ce4bgi12rcd13ifvqb70","pricing_plan_id":"cebpf4jnsgd1na2vs0mg"},{"bike_id":"5a4d74a9-82d0-4321-9522-750bfbb71a0f","system_id":"levelo_inurba_marseille","lat":43.29269,"lon":5.38443,"is_reserved":false,"is_disabled":false,"rental_uris":{"android":"levelo://app?vid=5a4d74a9-82d0-4321-9522-750bfbb71a0f","ios":"levelo://app?vid=5a4d74a9-82d0-4321-9522-750bfbb71a0f"},"vehicle_type_id":"4","last_reported":1731517679,"current_range_meters":22000,"station_id":"ce4bh692rcd13ifvqea0","pricing_plan_id":"cebpf4jnsgd1na2vs0mg"},{"bike_id":"3baeaaef-f263-44d6-a5e4-3f906676969e","system_id":"levelo_inurba_marseille","lat":43.29847,"lon":5.36286,"is_reserved":false,"is_disabled":false,"rental_uris":{"android":"levelo://app?vid=3baeaaef-f263-44d6-a5e4-3f906676969e","ios":"levelo://app?vid=3baeaaef-f263-44d6-a5e4-3f906676969e"},"vehicle_type_id":"4","last_reported":1731517679,"current_range_meters":38800,"station_id":"ce4bgpp2rcd13ifvqc3g","pricing_plan_id":"cebpf4jnsgd1na2vs0mg"},{"bike_id":"cb76ef57-2b41-45fb-b1e3-ba915034f049","system_id":"levelo_inurba_marseille","lat":43.30251,"lon":5.40093,"is_reserved":false,"is_disabled":false,"rental_uris":{"android":"levelo://app?vid=cb76ef57-2b41-45fb-b1e3-ba915034f049","ios":"levelo://app?vid=cb76ef57-2b41-45fb-b1e3-ba915034f049"},"vehicle_type_id":"4","last_reported":1731517679,"current_range_meters":14400,"station_id":"ce4bgvh2rcd13ifvqcs0","pricing_plan_id":"cebpf4jnsgd1na2vs0mg"},{"bike_id":"4f38106d-ccdc-4681-90d8-3dfbd1e99d2f","system_id":"levelo_inurba_marseille","lat":43.3089,"lon":5.39643,"is_reserved":false,"is_disabled":false,"rental_uris":{"android":"levelo://app?vid=4f38106d-ccdc-4681-90d8-3dfbd1e99d2f","ios":"levelo://app?vid=4f38106d-ccdc-4681-90d8-3dfbd1e99d2f"},"vehicle_type_id":"4","last_reported":1731517679,"current_range_meters":3200,"station_id":"ce4bh012rcd13ifvqcv0","pricing_plan_id":"cebpf4jnsgd1na2vs0mg"},{"bike_id":"5a138958-44a7-40d4-9267-9800c8900e46","system_id":"levelo_inurba_marseille","lat":43.26189,"lon":5.37453,"is_reserved":false,"is_disabled":false,"rental_uris":{"android":"levelo://app?vid=5a138958-44a7-40d4-9267-9800c8900e46","ios":"levelo://app?vid=5a138958-44a7-40d4-9267-9800c8900e46"},"vehicle_type_id":"4","last_reported":1731517679,"current_range_meters":27600,"station_id":"ce4bhgp2rcd13ifvqfc0","pricing_plan_id":"cebpf4jnsgd1na2vs0mg"},{"bike_id":"83ad6051-251c-4f6b-a51b-ab37bab3f5b3","system_id":"levelo_inurba_marseille","lat":43.27607,"lon":5.38945,"is_reserved":false,"is_disabled":false,"rental_uris":{"android":"levelo://app?vid=83ad6051-251c-4f6b-a51b-ab37bab3f5b3","ios":"levelo://app?vid=83ad6051-251c-4f6b-a51b-ab37bab3f5b3"},"vehicle_type_id":"4","last_reported":1731517679,"current_range_meters":34000,"station_id":"ce4bhi12rcd13ifvqfo0","pricing_plan_id":"cebpf4jnsgd1na2vs0mg"},{"bike_id":"952014e9-f73c-46e3-861f-87ea158d0cb6","system_id":"levelo_inurba_marseille","lat":43.28561,"lon":5.39495,"is_reserved":false,"is_disabled":false,"rental_uris":{"android":"levelo://app?vid=952014e9-f73c-46e3-861f-87ea158d0cb6","ios":"levelo://app?vid=952014e9-f73c-46e3-861f-87ea158d0cb6"},"vehicle_type_id":"4","last_reported":1731517679,"current_range_meters":25600,"station_id":"ce4bh292rcd13ifvqdg0","pricing_plan_id":"cebpf4jnsgd1na2vs0mg"},{"bike_id":"249f1334-978c-43f9-8ad4-19f543ea222a","system_id":"levelo_inurba_marseille","lat":43.31081,"lon":5.42433,"is_reserved":false,"is_disabled":false,"rental_uris":{"android":"levelo://app?vid=249f1334-978c-43f9-8ad4-19f543ea222a","ios":"levelo://app?vid=249f1334-978c-43f9-8ad4-19f543ea222a"},"vehicle_type_id":"4","last_reported":1731517679,"current_range_meters":10800,"station_id":"ce4bhp92rcd13ifvqhag","pricing_plan_id":"cebpf4jnsgd1na2vs0mg"},{"bike_id":"df0173e7-62ff-4f43-ad20-f1d9fbc71982","system_id":"levelo_inurba_marseille","lat":43.27998,"lon":5.41665,"is_reserved":false,"is_disabled":false,"rental_uris":{"android":"levelo://app?vid=df0173e7-62ff-4f43-ad20-f1d9fbc71982","ios":"levelo://app?vid=df0173e7-62ff-4f43-ad20-f1d9fbc71982"},"vehicle_type_id":"4","last_reported":1731517679,"current_range_meters":11600,"station_id":"ce4bho12rcd13ifvqh1g","pricing_plan_id":"cebpf4jnsgd1na2vs0mg"},{"bike_id":"d9ccc5fe-6014-47df-8256-e43fe149b98a","system_id":"levelo_inurba_marseille","lat":43.28103,"lon":5.37839,"is_reserved":false,"is_disabled":false,"rental_uris":{"android":"levelo://app?vid=d9ccc5fe-6014-47df-8256-e43fe149b98a","ios":"levelo://app?vid=d9ccc5fe-6014-47df-8256-e43fe149b98a"},"vehicle_type_id":"4","last_reported":1731517679,"current_range_meters":4000,"station_id":"ce4bha12rcd13ifvqee0","pricing_plan_id":"cebpf4jnsgd1na2vs0mg"},{"bike_id":"6caa9661-808d-447d-9b25-7a96301302f5","system_id":"levelo_inurba_marseille","lat":43.31763,"lon":5.39006,"is_reserved":false,"is_disabled":false,"rental_uris":{"android":"levelo://app?vid=6caa9661-808d-447d-9b25-7a96301302f5","ios":"levelo://app?vid=6caa9661-808d-447d-9b25-7a96301302f5"},"vehicle_type_id":"4","last_reported":1731517679,"current_range_meters":8800,"station_id":"ce4bhqp2rcd13ifvqhng","pricing_plan_id":"cebpf4jnsgd1na2vs0mg"},{"bike_id":"820a5b6d-3454-45dd-b7be-cf081f45c8dc","system_id":"levelo_inurba_marseille","lat":43.26852,"lon":5.39377,"is_reserved":false,"is_disabled":false,"rental_uris":{"android":"levelo://app?vid=820a5b6d-3454-45dd-b7be-cf081f45c8dc","ios":"levelo://app?vid=820a5b6d-3454-45dd-b7be-cf081f45c8dc"},