{"last_updated":1691471160,"ttl":30,"version":"2.2","data":{"bikes":[{"bike_id":"82a89abb-f631-47fa-a2cf-16e7aa30f4b7","system_id":"levelo_inurba_marseille","lat":43.313391,"lon":5.36706,"is_reserved":false,"is_disabled":false,"rental_uris":{"android":"levelo://app?vid=82a89abb-f631-47fa-a2cf-16e7aa30f4b7","ios":"levelo://app?vid=82a89abb-f631-47fa-a2cf-16e7aa30f4b7"},"vehicle_type_id":"4","last_reported":1691471161,"current_range_meters":9600,"station_id":"ce4bgr92rcd13ifvqc6g","pricing_plan_id":"free"},{"bike_id":"fcb0f28f-a10d-4e9b-a6cb-e123ac69d57d","system_id":"levelo_inurba_marseille","lat":43.31341,"lon":5.367098,"is_reserved":false,"is_disabled":false,"rental_uris":{"android":"levelo://app?vid=fcb0f28f-a10d-4e9b-a6cb-e123ac69d57d","ios":"levelo://app?vid=fcb0f28f-a10d-4e9b-a6cb-e123ac69d57d"},"vehicle_type_id":"4","last_reported":1691471161,"current_range_meters":31200,"station_id":"ce4bgr92rcd13ifvqc6g","pricing_plan_id":"free"},{"bike_id":"f9966b65-7d9c-4abd-b1de-2a5b3ac206bf","system_id":"levelo_inurba_marseille","lat":43.313391,"lon":5.36706,"is_reserved":false,"is_disabled":false,"rental_uris":{"android":"levelo://app?vid=f9966b65-7d9c-4abd-b1de-2a5b3ac206bf","ios":"levelo://app?vid=f9966b65-7d9c-4abd-b1de-2a5b3ac206bf"},"vehicle_type_id":"4","last_reported":1691471161,"current_range_meters":31200,"station_id":"ce4bgr92rcd13ifvqc6g","pricing_plan_id":"free"},{"bike_id":"1b4812bb-f46a-401f-955f-e5fafa5809db","system_id":"levelo_inurba_marseille","lat":43.31232,"lon":5.36867,"is_reserved":false,"is_disabled":false,"rental_uris":{"android":"levelo://app?vid=1b4812bb-f46a-401f-955f-e5fafa5809db","ios":"levelo://app?vid=1b4812bb-f46a-401f-955f-e5fafa5809db"},"vehicle_type_id":"4","last_reported":1691471161,"current_range_meters":1600,"station_id":"ce4bgl92rcd13ifvqbq0","pricing_plan_id":"free"},{"bike_id":"0482040f-0ac7-4249-ac0c-323eb8f49704","system_id":"levelo_inurba_marseille","lat":43.31229,"lon":5.36866,"is_reserved":false,"is_disabled":false,"rental_uris":{"android":"levelo://app?vid=0482040f-0ac7-4249-ac0c-323eb8f49704","ios":"levelo://app?vid=0482040f-0ac7-4249-ac0c-323eb8f49704"},"vehicle_type_id":"4","last_reported":1691471161,"current_range_meters":2000,"station_id":"ce4bgl92rcd13ifvqbq0","pricing_plan_id":"free"},{"bike_id":"e6095666-1029-473a-8d4f-5d69d7184b5b","system_id":"levelo_inurba_marseille","lat":43.309076,"lon":5.368465,"is_reserved":false,"is_disabled":false,"rental_uris":{"android":"levelo://app?vid=e6095666-1029-473a-8d4f-5d69d7184b5b","ios":"levelo://app?vid=e6095666-1029-473a-8d4f-5d69d7184b5b"},"vehicle_type_id":"4","last_reported":1691471161,"current_range_meters":29600,"station_id":"ce4bgn92rcd13ifvqbvg","pricing_plan_id":"free"},{"bike_id":"6bbed806-b809-4745-8823-dd86b5a1933b","system_id":"levelo_inurba_marseille","lat":43.309076,"lon":5.368465,"is_reserved":false,"is_disabled":false,"rental_uris":{"android":"levelo://app?vid=6bbed806-b809-4745-8823-dd86b5a1933b","ios":"levelo://app?vid=6bbed806-b809-4745-8823-dd86b5a1933b"},"vehicle_type_id":"4","last_reported":1691471161,"current_range_meters":26400,"station_id":"ce4bgn92rcd13ifvqbvg","pricing_plan_id":"free"},{"bike_id":"80018e9f-3b6e-45c1-9cfd-1a6598f60c59","system_id":"levelo_inurba_marseille","lat":43.309076,"lon":5.368465,"is_reserved":false,"is_disabled":false,"rental_uris":{"android":"levelo://app?vid=80018e9f-3b6e-45c1-9cfd-1a6598f60c59","ios":"levelo://app?vid=80018e9f-3b6e-45c1-9cfd-1a6598f60c59"},"vehicle_type_id":"4","last_reported":1691471161,"current_range_meters":28000,"station_id":"ce4bgn92rcd13ifvqbvg","pricing_plan_id":"free"},{"bike_id":"e7dac754-1149-413b-aaf8-d704f183e68d","system_id":"levelo_inurba_marseille","lat":43.309076,"lon":5.368465,"is_reserved":false,"is_disabled":false,"rental_uris":{"android":"levelo://app?vid=e7dac754-1149-413b-aaf8-d704f183e68d","ios":"levelo://app?vid=e7dac754-1149-413b-aaf8-d704f183e68d"},"vehicle_type_id":"4","last_reported":1691471161,"current_range_meters":27600,"station_id":"ce4bgn92rcd13ifvqbvg","pricing_plan_id":"free"},{"bike_id":"0cd9a076-7855-4a4a-88eb-94b618bddd47","system_id":"levelo_inurba_marseille","lat":43.309076,"lon":5.368465,"is_reserved":false,"is_disabled":false,"rental_uris":{"android":"levelo://app?vid=0cd9a076-7855-4a4a-88eb-94b618bddd47","ios":"levelo://app?vid=0cd9a076-7855-4a4a-88eb-94b618bddd47"},"vehicle_type_id":"4","last_reported":1691471161,"current_range_meters":29600,"station_id":"ce4bgn92rcd13ifvqbvg","pricing_plan_id":"free"},{"bike_id":"cad4ef7b-dc21-48e2-9a7c-aa4d049f2be9","system_id":"levelo_inurba_marseille","lat":43.309076,"lon":5.368465,"is_reserved":false,"is_disabled":false,"rental_uris":{"android":"levelo://app?vid=cad4ef7b-dc21-48e2-9a7c-aa4d049f2be9","ios":"levelo://app?vid=cad4ef7b-dc21-48e2-9a7c-aa4d049f2be9"},"vehicle_type_id":"4","last_reported":1691471161,"current_range_meters":30400,"station_id":"ce4bgn92rcd13ifvqbvg","pricing_plan_id":"free"},{"bike_id":"97135cd1-d453-46d5-803b-850145310905","system_id":"levelo_inurba_marseille","lat":43.309076,"lon":5.368465,"is_reserved":false,"is_disabled":false,"rental_uris":{"android":"levelo://app?vid=97135cd1-d453-46d5-803b-850145310905","ios":"levelo://app?vid=97135cd1-d453-46d5-803b-850145310905"},"vehicle_type_id":"4","last_reported":1691471161,"current_range_meters":24000,"station_id":"ce4bgn92rcd13ifvqbvg","pricing_plan_id":"free"},{"bike_id":"9ddb2de0-e833-48f7-ba96-78d8897140ce","system_id":"levelo_inurba_marseille","lat":43.309076,"lon":5.368465,"is_reserved":false,"is_disabled":false,"rental_uris":{"android":"levelo://app?vid=9ddb2de0-e833-48f7-ba96-78d8897140ce","ios":"levelo://app?vid=9ddb2de0-e833-48f7-ba96-78d8897140ce"},"vehicle_type_id":"4","last_reported":1691471161,"current_range_meters":24800,"station_id":"ce4bgn92rcd13ifvqbvg","pricing_plan_id":"free"},{"bike_id":"daa01cbe-57b5-4395-8ed3-9f5dfbd14ec5","system_id":"levelo_inurba_marseille","lat":43.309076,"lon":5.368465,"is_reserved":false,"is_disabled":false,"rental_uris":{"android":"levelo://app?vid=daa01cbe-57b5-4395-8ed3-9f5dfbd14ec5","ios":"levelo://app?vid=daa01cbe-57b5-4395-8ed3-9f5dfbd14ec5"},"vehicle_type_id":"4","last_reported":1691471161,"current_range_meters":30000,"station_id":"ce4bgn92rcd13ifvqbvg","pricing_plan_id":"free"},{"bike_id":"fc5befec-5f0e-4cea-8efb-041d00ca2714","system_id":"levelo_inurba_marseille","lat":43.309076,"lon":5.368465,"is_reserved":false,"is_disabled":false,"rental_uris":{"android":"levelo://app?vid=fc5befec-5f0e-4cea-8efb-041d00ca2714","ios":"levelo://app?vid=fc5befec-5f0e-4cea-8efb-041d00ca2714"},"vehicle_type_id":"4","last_reported":1691471161,"current_range_meters":31600,"station_id":"ce4bgn92rcd13ifvqbvg","pricing_plan_id":"free"},{"bike_id":"55febea2-c6bc-45aa-b4b8-d9ae2efa39f5","system_id":"levelo_inurba_marseille","lat":43.314811,"lon":5.373103,"is_reserved":false,"is_disabled":false,"rental_uris":{"android":"levelo://app?vid=55febea2-c6bc-45aa-b4b8-d9ae2efa39f5","ios":"levelo://app?vid=55febea2-c6bc-45aa-b4b8-d9ae2efa39f5"},"vehicle_type_id":"4","last_reported":1691471161,"current_range_meters":8400,"station_id":"ce4bgt12rcd13ifvqcd0","pricing_plan_id":"free"},{"bike_id":"b2b6a2e7-e013-42ab-a24e-33316e195c94","system_id":"levelo_inurba_marseille","lat":43.314811,"lon":5.373103,"is_reserved":false,"is_disabled":false,"rental_uris":{"android":"levelo://app?vid=b2b6a2e7-e013-42ab-a24e-33316e195c94","ios":"levelo://app?vid=b2b6a2e7-e013-42ab-a24e-33316e195c94"},"vehicle_type_id":"4","last_reported":1691471161,"current_range_meters":31200,"station_id":"ce4bgt12rcd13ifvqcd0","pricing_plan_id":"free"},{"bike_id":"9fb5fb17-f26c-4edb-a0fe-47ec491d8185","system_id":"levelo_inurba_marseille","lat":43.30884,"lon":5.37184,"is_reserved":false,"is_disabled":false,"rental_uris":{"android":"levelo://app?vid=9fb5fb17-f26c-4edb-a0fe-47ec491d8185","ios":"levelo://app?vid=9fb5fb17-f26c-4edb-a0fe-47ec491d8185"},"vehicle_type_id":"4","last_reported":1691471161,"current_range_meters":6400,"station_id":"ce4bguh2rcd13ifvqckg","pricing_plan_id":"free"},{"bike_id":"005bf1cb-cee6-4fb0-af3b-a183d37513a9","system_id":"levelo_inurba_marseille","lat":43.30887,"lon":5.37196,"is_reserved":false,"is_disabled":false,"rental_uris":{"android":"levelo://app?vid=005bf1cb-cee6-4fb0-af3b-a183d37513a9","ios":"levelo://app?vid=005bf1cb-cee6-4fb0-af3b-a183d37513a9"},"vehicle_type_id":"4","last_reported":1691471161,"current_range_meters":8400,"station_id":"ce4bguh2rcd13ifvqckg","pricing_plan_id":"free"},{"bike_id":"05cc92f3-1e6f-454a-84df-a458634b9053","system_id":"levelo_inurba_marseille","lat":43.30537,"lon":5.367345,"is_reserved":false,"is_disabled":false,"rental_uris":{"android":"levelo://app?vid=05cc92f3-1e6f-454a-84df-a458634b9053","ios":"levelo://app?vid=05cc92f3-1e6f-454a-84df-a458634b9053"},"vehicle_type_id":"4","last_reported":1691471161,"current_range_meters":24400,"station_id":"ce4bgrp2rcd13ifvqc9g","pricing_plan_id":"free"},{"bike_id":"918fad7d-c5bc-400e-898d-1454a6133d85","system_id":"levelo_inurba_marseille","lat":43.30537,"lon":5.36554,"is_reserved":false,"is_disabled":false,"rental_uris":{"android":"levelo://app?vid=918fad7d-c5bc-400e-898d-1454a6133d85","ios":"levelo://app?vid=918fad7d-c5bc-400e-898d-1454a6133d85"},"vehicle_type_id":"4","last_reported":1691471161,"current_range_meters":31200,"station_id":"","pricing_plan_id":"free"},{"bike_id":"f4d70489-a22f-4cfe-8eb9-4696687dd40c","system_id":"levelo_inurba_marseille","lat":43.305706,"lon":5.365654,"is_reserved":false,"is_disabled":false,"rental_uris":{"android":"levelo://app?vid=f4d70489-a22f-4cfe-8eb9-4696687dd40c","ios":"levelo://app?vid=f4d70489-a22f-4cfe-8eb9-4696687dd40c"},"vehicle_type_id":"4","last_reported":1691471161,"current_range_meters":29200,"station_id":"ce4bgs12rcd13ifvqcag","pricing_plan_id":"free"},{"bike_id":"be7d88f3-98a5-494a-8eaf-34eedd0d2be9","system_id":"levelo_inurba_marseille","lat":43.305706,"lon":5.365654,"is_reserved":false,"is_disabled":false,"rental_uris":{"android":"levelo://app?vid=be7d88f3-98a5-494a-8eaf-34eedd0d2be9","ios":"levelo://app?vid=be7d88f3-98a5-494a-8eaf-34eedd0d2be9"},"vehicle_type_id":"4","last_reported":1691471161,"current_range_meters":22400,"station_id":"ce4bgs12rcd13ifvqcag","pricing_plan_id":"free"},{"bike_id":"d1e2fcfe-a2b2-4d98-a31a-28bd87a29589","system_id":"levelo_inurba_marseille","lat":43.305706,"lon":5.365654,"is_reserved":false,"is_disabled":false,"rental_uris":{"android":"levelo://app?vid=d1e2fcfe-a2b2-4d98-a31a-28bd87a29589","ios":"levelo://app?vid=d1e2fcfe-a2b2-4d98-a31a-28bd87a29589"},"vehicle_type_id":"4","last_reported":1691471161,"current_range_meters":32000,"station_id":"ce4bgs12rcd13ifvqcag","pricing_plan_id":"free"},{"bike_id":"58135425-37f0-4cf9-a5c6-c597fc5b7186","system_id":"levelo_inurba_marseille","lat":43.30598,"lon":5.37214,"is_reserved":false,"is_disabled":false,"rental_uris":{"android":"levelo://app?vid=58135425-37f0-4cf9-a5c6-c597fc5b7186","ios":"levelo://app?vid=58135425-37f0-4cf9-a5c6-c597fc5b7186"},"vehicle_type_id":"4","last_reported":1691471161,"current_range_meters":5600,"station_id":"ce4bgqh2rcd13ifvqc4g","pricing_plan_id":"free"},{"bike_id":"5cd6c3d5-6ff6-4fe7-8285-9ea053293793","system_id":"levelo_inurba_marseille","lat":43.306,"lon":5.37219,"is_reserved":false,"is_disabled":false,"rental_uris":{"android":"levelo://app?vid=5cd6c3d5-6ff6-4fe7-8285-9ea053293793","ios":"levelo://app?vid=5cd6c3d5-6ff6-4fe7-8285-9ea053293793"},"vehicle_type_id":"4","last_reported":1691471161,"current_range_meters":10400,"station_id":"ce4bgqh2rcd13ifvqc4g","pricing_plan_id":"free"},{"bike_id":"d82b5cf0-fc1e-45fe-8271-04915e3fcf83","system_id":"levelo_inurba_marseille","lat":43.30598,"lon":5.37215,"is_reserved":false,"is_disabled":false,"rental_uris":{"android":"levelo://app?vid=d82b5cf0-fc1e-45fe-8271-04915e3fcf83","ios":"levelo://app?vid=d82b5cf0-fc1e-45fe-8271-04915e3fcf83"},"vehicle_type_id":"4","last_reported":1691471161,"current_range_meters":0,"station_id":"ce4bgqh2rcd13ifvqc4g","pricing_plan_id":"free"},{"bike_id":"c2976b98-bcf0-4fe8-9af4-dfba827002d7","system_id":"levelo_inurba_marseille","lat":43.30592,"lon":5.37217,"is_reserved":false,"is_disabled":false,"rental_uris":{"android":"levelo://app?vid=c2976b98-bcf0-4fe8-9af4-dfba827002d7","ios":"levelo://app?vid=c2976b98-bcf0-4fe8-9af4-dfba827002d7"},"vehicle_type_id":"4","last_reported":1691471161,"current_range_meters":25200,"station_id":"ce4bgqh2rcd13ifvqc4g","pricing_plan_id":"free"},{"bike_id":"0517964c-5e3d-4846-ab47-ec08d82559be","system_id":"levelo_inurba_marseille","lat":43.30594,"lon":5.37222,"is_reserved":false,"is_disabled":false,"rental_uris":{"android":"levelo://app?vid=0517964c-5e3d-4846-ab47-ec08d82559be","ios":"levelo://app?vid=0517964c-5e3d-4846-ab47-ec08d82559be"},"vehicle_type_id":"4","last_reported":1691471161,"current_range_meters":5200,"station_id":"ce4bgqh2rcd13ifvqc4g","pricing_plan_id":"free"},{"bike_id":"9baf4104-23d3-4103-bc15-7b3744f71fc1","system_id":"levelo_inurba_marseille","lat":43.30592,"lon":5.37221,"is_reserved":false,"is_disabled":false,"rental_uris":{"android":"levelo://app?vid=9baf4104-23d3-4103-bc15-7b3744f71fc1","ios":"levelo://app?vid=9baf4104-23d3-4103-bc15-7b3744f71fc1"},"vehicle_type_id":"4","last_reported":1691471161,"current_range_meters":5600,"station_id":"ce4bgqh2rcd13ifvqc4g","pricing_plan_id":"free"},{"bike_id":"6f840fbb-1d2c-4a55-84b9-90314c2911dc","system_id":"levelo_inurba_marseille","lat":43.311131,"lon":5.377651,"is_reserved":false,"is_disabled":false,"rental_uris":{"android":"levelo://app?vid=6f840fbb-1d2c-4a55-84b9-90314c2911dc","ios":"levelo://app?vid=6f840fbb-1d2c-4a55-84b9-90314c2911dc"},"vehicle_type_id":"4","last_reported":1691471161,"current_range_meters":31200,"station_id":"ce4bgt92rcd13ifvqcg0","pricing_plan_id":"free"},{"bike_id":"ad5508e7-7983-4eb4-b450-7cb13fa428e6","system_id":"levelo_inurba_marseille","lat":43.311131,"lon":5.377651,"is_reserved":false,"is_disabled":false,"rental_uris":{"android":"levelo://app?vid=ad5508e7-7983-4eb4-b450-7cb13fa428e6","ios":"levelo://app?vid=ad5508e7-7983-4eb4-b450-7cb13fa428e6"},"vehicle_type_id":"4","last_reported":1691471161,"current_range_meters":15600,"station_id":"ce4bgt92rcd13ifvqcg0","pricing_plan_id":"free"},{"bike_id":"33600a14-11c8-4993-84ac-e8d7445aa443","system_id":"levelo_inurba_marseille","lat":43.31122,"lon":5.37776,"is_reserved":false,"is_disabled":false,"rental_uris":{"android":"levelo://app?vid=33600a14-11c8-4993-84ac-e8d7445aa443","ios":"levelo://app?vid=33600a14-11c8-4993-84ac-e8d7445aa443"},"vehicle_type_id":"4","last_reported":1691471161,"current_range_meters":30000,"station_id":"ce4bgt92rcd13ifvqcg0","pricing_plan_id":"free"},{"bike_id":"9cfc60f4-a30d-4905-9f31-f85b237772f0","system_id":"levelo_inurba_marseille","lat":43.307945,"lon":5.376487,"is_reserved":false,"is_disabled":false,"rental_uris":{"android":"levelo://app?vid=9cfc60f4-a30d-4905-9f31-f85b237772f0","ios":"levelo://app?vid=9cfc60f4-a30d-4905-9f31-f85b237772f0"},"vehicle_type_id":"4","last_reported":1691471161,"current_range_meters":2800,"station_id":"ce4bgv92rcd13ifvqcq0","pricing_plan_id":"free"},{"bike_id":"424d7967-c363-4afa-b005-a29529fa7551","system_id":"levelo_inurba_marseille","lat":43.30783,"lon":5.37651,"is_reserved":false,"is_disabled":false,"rental_uris":{"android":"levelo://app?vid=424d7967-c363-4afa-b005-a29529fa7551","ios":"levelo://app?vid=424d7967-c363-4afa-b005-a29529fa7551"},"vehicle_type_id":"4","last_reported":1691471161,"current_range_meters":2400,"station_id":"ce4bgv92rcd13ifvqcq0","pricing_plan_id":"free"},{"bike_id":"49936824-0695-435d-bb6d-43d09ec7b24a","system_id":"levelo_inurba_marseille","lat":43.30782,"lon":5.37658,"is_reserved":false,"is_disabled":false,"rental_uris":{"android":"levelo://app?vid=49936824-0695-435d-bb6d-43d09ec7b24a","ios":"levelo://app?vid=49936824-0695-435d-bb6d-43d09ec7b24a"},"vehicle_type_id":"4","last_reported":1691471161,"current_range_meters":0,"station_id":"ce4bgv92rcd13ifvqcq0","pricing_plan_id":"free"},{"bike_id":"96188133-a3b5-4085-b478-dc1d76253ccb","system_id":"levelo_inurba_marseille","lat":43.3078,"lon":5.3766,"is_reserved":false,"is_disabled":false,"rental_uris":{"android":"levelo://app?vid=96188133-a3b5-4085-b478-dc1d76253ccb","ios":"levelo://app?vid=96188133-a3b5-4085-b478-dc1d76253ccb"},"vehicle_type_id":"4","last_reported":1691471161,"current_range_meters":12800,"station_id":"ce4bgv92rcd13ifvqcq0","pricing_plan_id":"free"},{"bike_id":"503c67a7-c73c-4ec6-9b9c-2520a1105327","system_id":"levelo_inurba_marseille","lat":43.30776,"lon":5.37664,"is_reserved":false,"is_disabled":false,"rental_uris":{"android":"levelo://app?vid=503c67a7-c73c-4ec6-9b9c-2520a1105327","ios":"levelo://app?vid=503c67a7-c73c-4ec6-9b9c-2520a1105327"},"vehicle_type_id":"4","last_reported":1691471161,"current_range_meters":800,"station_id":"ce4bgv92rcd13ifvqcq0","pricing_plan_id":"free"},{"bike_id":"71ee74aa-affe-4b49-98c1-06b9c51b4e7b","system_id":"levelo_inurba_marseille","lat":43.315293,"lon":5.380349,"is_reserved":false,"is_disabled":false,"rental_uris":{"android":"levelo://app?vid=71ee74aa-affe-4b49-98c1-06b9c51b4e7b","ios":"levelo://app?vid=71ee74aa-affe-4b49-98c1-06b9c51b4e7b"},"vehicle_type_id":"4","last_reported":1691471161,"current_range_meters":18400,"station_id":"ce4bhsp2rcd13ifvqi50","pricing_plan_id":"free"},{"bike_id":"01dfe500-dd93-44de-ae5d-674bcafd13b5","system_id":"levelo_inurba_marseille","lat":43.31534,"lon":5.38029,"is_reserved":false,"is_disabled":false,"rental_uris":{"android":"levelo://app?vid=01dfe500-dd93-44de-ae5d-674bcafd13b5","ios":"levelo://app?vid=01dfe500-dd93-44de-ae5d-674bcafd13b5"},"vehicle_type_id":"4","last_reported":1691471161,"current_range_meters":1600,"station_id":"ce4bhsp2rcd13ifvqi50","pricing_plan_id":"free"},{"bike_id":"ff029ea2-410e-4b4b-854b-d9374ffc16d4","system_id":"levelo_inurba_marseille","lat":43.301939,"lon":5.366286,"is_reserved":false,"is_disabled":false,"rental_uris":{"android":"levelo://app?vid=ff029ea2-410e-4b4b-854b-d9374ffc16d4","ios":"levelo://app?vid=ff029ea2-410e-4b4b-854b-d9374ffc16d4"},"vehicle_type_id":"4","last_reported":1691471161,"current_range_meters":28800,"station_id":"ce4bgrh2rcd13ifvqc8g","pricing_plan_id":"free"},{"bike_id":"71b7bc38-0c65-449c-931a-84b7230a0671","system_id":"levelo_inurba_marseille","lat":43.301939,"lon":5.366286,"is_reserved":false,"is_disabled":false,"rental_uris":{"android":"levelo://app?vid=71b7bc38-0c65-449c-931a-84b7230a0671","ios":"levelo://app?vid=71b7bc38-0c65-449c-931a-84b7230a0671"},"vehicle_type_id":"4","last_reported":1691471161,"current_range_meters":31200,"station_id":"ce4bgrh2rcd13ifvqc8g","pricing_plan_id":"free"},{"bike_id":"39a77ffa-ffd4-401e-a3bb-3aa955c998a4","system_id":"levelo_inurba_marseille","lat":43.30182,"lon":5.36608,"is_reserved":false,"is_disabled":false,"rental_uris":{"android":"levelo://app?vid=39a77ffa-ffd4-401e-a3bb-3aa955c998a4","ios":"levelo://app?vid=39a77ffa-ffd4-401e-a3bb-3aa955c998a4"},"vehicle_type_id":"4","last_reported":1691471161,"current_range_meters":0,"station_id":"ce4bgrh2rcd13ifvqc8g","pricing_plan_id":"free"},{"bike_id":"66bc0d49-9c88-4d42-bb16-0aecf690cf17","system_id":"levelo_inurba_marseille","lat":43.301939,"lon":5.366286,"is_reserved":false,"is_disabled":false,"rental_uris":{"android":"levelo://app?vid=66bc0d49-9c88-4d42-bb16-0aecf690cf17","ios":"levelo://app?vid=66bc0d49-9c88-4d42-bb16-0aecf690cf17"},"vehicle_type_id":"4","last_reported":1691471161,"current_range_meters":27600,"station_id":"ce4bgrh2rcd13ifvqc8g","pricing_plan_id":"free"},{"bike_id":"ccd92b8b-0119-411e-944a-6d8ebfe442f9","system_id":"levelo_inurba_marseille","lat":43.304606,"lon":5.379026,"is_reserved":false,"is_disabled":false,"rental_uris":{"android":"levelo://app?vid=ccd92b8b-0119-411e-944a-6d8ebfe442f9","ios":"levelo://app?vid=ccd92b8b-0119-411e-944a-6d8ebfe442f9"},"vehicle_type_id":"4","last_reported":1691471161,"current_range_meters":23600,"station_id":"ce4bgup2rcd13ifvqcn0","pricing_plan_id":"free"},{"bike_id":"b9f7f559-2561-4c16-921f-f3a05c948753","system_id":"levelo_inurba_marseille","lat":43.304606,"lon":5.379026,"is_reserved":false,"is_disabled":false,"rental_uris":{"android":"levelo://app?vid=b9f7f559-2561-4c16-921f-f3a05c948753","ios":"levelo://app?vid=b9f7f559-2561-4c16-921f-f3a05c948753"},"vehicle_type_id":"4","last_reported":1691471161,"current_range_meters":23600,"station_id":"ce4bgup2rcd13ifvqcn0","pricing_plan_id":"free"},{"bike_id":"182d09f3-a530-400e-85f8-9715648c877f","system_id":"levelo_inurba_marseille","lat":43.304606,"lon":5.379026,"is_reserved":false,"is_disabled":false,"rental_uris":{"android":"levelo://app?vid=182d09f3-a530-400e-85f8-9715648c877f","ios":"levelo://app?vid=182d09f3-a530-400e-85f8-9715648c877f"},"vehicle_type_id":"4","last_reported":1691471161,"current_range_meters":13200,"station_id":"ce4bgup2rcd13ifvqcn0","pricing_plan_id":"free"},{"bike_id":"7b1e640b-325d-4748-94ef-3fc4596070a7","system_id":"levelo_inurba_marseille","lat":43.304606,"lon":5.379026,"is_reserved":false,"is_disabled":false,"rental_uris":{"android":"levelo://app?vid=7b1e640b-325d-4748-94ef-3fc4596070a7","ios":"levelo://app?vid=7b1e640b-325d-4748-94ef-3fc4596070a7"},"vehicle_type_id":"4","last_reported":1691471161,"current_range_meters":21200,"station_id":"ce4bgup2rcd13ifvqcn0","pricing_plan_id":"free"},{"bike_id":"ba3cc541-07c2-485d-b301-774168a47bac","system_id":"levelo_inurba_marseille","lat":43.304606,"lon":5.379026,"is_reserved":false,"is_disabled":false,"rental_uris":{"android":"levelo://app?vid=ba3cc541-07c2-485d-b301-774168a47bac","ios":"levelo://app?vid=ba3cc541-07c2-485d-b301-774168a47bac"},"vehicle_type_id":"4","last_reported":1691471161,"current_range_meters":21200,"station_id":"ce4bgup2rcd13ifvqcn0","pricing_plan_id":"free"},{"bike_id":"19ff4f92-ec2b-4a45-8f68-0c77b4cae2c5","system_id":"levelo_inurba_marseille","lat":43.304606,"lon":5.379026,"is_reserved":false,"is_disabled":false,"rental_uris":{"android":"levelo://app?vid=19ff4f92-ec2b-4a45-8f68-0c77b4cae2c5","ios":"levelo://app?vid=19ff4f92-ec2b-4a45-8f68-0c77b4cae2c5"},"vehicle_type_id":"4","last_reported":1691471161,"current_range_meters":31200,"station_id":"ce4bgup2rcd13ifvqcn0","pricing_plan_id":"free"},{"bike_id":"0cc87ac8-a990-411b-be41-7030cc355050","system_id":"levelo_inurba_marseille","lat":43.304606,"lon":5.379026,"is_reserved":false,"is_disabled":false,"rental_uris":{"android":"levelo://app?vid=0cc87ac8-a990-411b-be41-7030cc355050","ios":"levelo://app?vid=0cc87ac8-a990-411b-be41-7030cc355050"},"vehicle_type_id":"4","last_reported":1691471161,"current_range_meters":29200,"station_id":"ce4bgup2rcd13ifvqcn0","pricing_plan_id":"free"},{"bike_id":"ca1396c7-a101-440a-9037-5ed41a15c007","system_id":"levelo_inurba_marseille","lat":43.304606,"lon":5.379026,"is_reserved":false,"is_disabled":false,"rental_uris":{"android":"levelo://app?vid=ca1396c7-a101-440a-9037-5ed41a15c007","ios":"levelo://app?vid=ca1396c7-a101-440a-9037-5ed41a15c007"},"vehicle_type_id":"4","last_reported":1691471161,"current_range_meters":28000,"station_id":"ce4bgup2rcd13ifvqcn0","pricing_plan_id":"free"},{"bike_id":"00c59c8a-b93b-42ec-8dcc-2dc60960cee9","system_id":"levelo_inurba_marseille","lat":43.304606,"lon":5.379026,"is_reserved":false,"is_disabled":false,"rental_uris":{"android":"levelo://app?vid=00c59c8a-b93b-42ec-8dcc-2dc60960cee9","ios":"levelo://app?vid=00c59c8a-b93b-42ec-8dcc-2dc60960cee9"},"vehicle_type_id":"4","last_reported":1691471161,"current_range_meters":1200,"station_id":"ce4bgup2rcd13ifvqcn0","pricing_plan_id":"free"},{"bike_id":"1db0b487-7c8a-413b-882f-8e4b7c01af3e","system_id":"levelo_inurba_marseille","lat":43.304606,"lon":5.379026,"is_reserved":false,"is_disabled":false,"rental_uris":{"android":"levelo://app?vid=1db0b487-7c8a-413b-882f-8e4b7c01af3e","ios":"levelo://app?vid=1db0b487-7c8a-413b-882f-8e4b7c01af3e"},"vehicle_type_id":"4","last_reported":1691471161,"current_range_meters":18400,"station_id":"ce4bgup2rcd13ifvqcn0","pricing_plan_id":"free"},{"bike_id":"bf1f700b-24f7-42fc-96b2-e7f48b2c9fb8","system_id":"levelo_inurba_marseille","lat":43.304606,"lon":5.379026,"is_reserved":false,"is_disabled":false,"rental_uris":{"android":"levelo://app?vid=bf1f700b-24f7-42fc-96b2-e7f48b2c9fb8","ios":"levelo://app?vid=bf1f700b-24f7-42fc-96b2-e7f48b2c9fb8"},"vehicle_type_id":"4","last_reported":1691471161,"current_range_meters":4000,"station_id":"ce4bgup2rcd13ifvqcn0","pricing_plan_id":"free"},{"bike_id":"23a024ed-14f8-435f-b898-d1c4ed13d8ba","system_id":"levelo_inurba_marseille","lat":43.304606,"lon":5.379026,"is_reserved":false,"is_disabled":false,"rental_uris":{"android":"levelo://app?vid=23a024ed-14f8-435f-b898-d1c4ed13d8ba","ios":"levelo://app?vid=23a024ed-14f8-435f-b898-d1c4ed13d8ba"},"vehicle_type_id":"4","last_reported":1691471161,"current_range_meters":13600,"station_id":"ce4bgup2rcd13ifvqcn0","pricing_plan_id":"free"},{"bike_id":"f74b44fc-fe75-4983-867c-1d71db0e5e01","system_id":"levelo_inurba_marseille","lat":43.304606,"lon":5.379026,"is_reserved":false,"is_disabled":false,"rental_uris":{"android":"levelo://app?vid=f74b44fc-fe75-4983-867c-1d71db0e5e01","ios":"levelo://app?vid=f74b44fc-fe75-4983-867c-1d71db0e5e01"},"vehicle_type_id":"4","last_reported":1691471161,"current_range_meters":24400,"station_id":"ce4bgup2rcd13ifvqcn0","pricing_plan_id":"free"},{"bike_id":"1b9baac7-0ded-4657-a5bd-cf30f57b4759","system_id":"levelo_inurba_marseille","lat":43.304606,"lon":5.379026,"is_reserved":false,"is_disabled":false,"rental_uris":{"android":"levelo://app?vid=1b9baac7-0ded-4657-a5bd-cf30f57b4759","ios":"levelo://app?vid=1b9baac7-0ded-4657-a5bd-cf30f57b4759"},"vehicle_type_id":"4","last_reported":1691471161,"current_range_meters":20000,"station_id":"ce4bgup2rcd13ifvqcn0","pricing_plan_id":"free"},{"bike_id":"c954f06e-4a91-40ea-881e-966cf78a01a6","system_id":"levelo_inurba_marseille","lat":43.304606,"lon":5.379026,"is_reserved":false,"is_disabled":false,"rental_uris":{"android":"levelo://app?vid=c954f06e-4a91-40ea-881e-966cf78a01a6","ios":"levelo://app?vid=c954f06e-4a91-40ea-881e-966cf78a01a6"},"vehicle_type_id":"4","last_reported":1691471161,"current_range_meters":20000,"station_id":"ce4bgup2rcd13ifvqcn0","pricing_plan_id":"free"},{"bike_id":"51666869-0b6a-4531-a4b9-870c3d5baf0b","system_id":"levelo_inurba_marseille","lat":43.304606,"lon":5.379026,"is_reserved":false,"is_disabled":false,"rental_uris":{"android":"levelo://app?vid=51666869-0b6a-4531-a4b9-870c3d5baf0b","ios":"levelo://app?vid=51666869-0b6a-4531-a4b9-870c3d5baf0b"},"vehicle_type_id":"4","last_reported":1691471161,"current_range_meters":25200,"station_id":"ce4bgup2rcd13ifvqcn0","pricing_plan_id":"free"},{"bike_id":"328a6830-6ff5-4c44-a616-a2c3c68f18bc","system_id":"levelo_inurba_marseille","lat":43.304606,"lon":5.379026,"is_reserved":false,"is_disabled":false,"rental_uris":{"android":"levelo://app?vid=328a6830-6ff5-4c44-a616-a2c3c68f18bc","ios":"levelo://app?vid=328a6830-6ff5-4c44-a616-a2c3c68f18bc"},"vehicle_type_id":"4","last_reported":1691471161,"current_range_meters":20800,"station_id":"ce4bgup2rcd13ifvqcn0","pricing_plan_id":"free"},{"bike_id":"0b41b80d-3768-457f-a1df-7f5980a302c0","system_id":"levelo_inurba_marseille","lat":43.304606,"lon":5.379026,"is_reserved":false,"is_disabled":false,"rental_uris":{"android":"levelo://app?vid=0b41b80d-3768-457f-a1df-7f5980a302c0","ios":"levelo://app?vid=0b41b80d-3768-457f-a1df-7f5980a302c0"},"vehicle_type_id":"4","last_reported":1691471161,"current_range_meters":24800,"station_id":"ce4bgup2rcd13ifvqcn0","pricing_plan_id":"free"},{"bike_id":"d0c7bbde-c015-4866-9da9-c3f2592a5840","system_id":"levelo_inurba_marseille","lat":43.304606,"lon":5.379026,"is_reserved":false,"is_disabled":false,"rental_uris":{"android":"levelo://app?vid=d0c7bbde-c015-4866-9da9-c3f2592a5840","ios":"levelo://app?vid=d0c7bbde-c015-4866-9da9-c3f2592a5840"},"vehicle_type_id":"4","last_reported":1691471161,"current_range_meters":16800,"station_id":"ce4bgup2rcd13ifvqcn0","pricing_plan_id":"free"},{"bike_id":"9039ffd9-ee0d-4a39-b056-e82207fb047d","system_id":"levelo_inurba_marseille","lat":43.304606,"lon":5.379026,"is_reserved":false,"is_disabled":false,"rental_uris":{"android":"levelo://app?vid=9039ffd9-ee0d-4a39-b056-e82207fb047d","ios":"levelo://app?vid=9039ffd9-ee0d-4a39-b056-e82207fb047d"},"vehicle_type_id":"4","last_reported":1691471161,"current_range_meters":26000,"station_id":"ce4bgup2rcd13ifvqcn0","pricing_plan_id":"free"},{"bike_id":"7ec63923-69a8-48ff-8c88-aca70416d6e3","system_id":"levelo_inurba_marseille","lat":43.304606,"lon":5.379026,"is_reserved":false,"is_disabled":false,"rental_uris":{"android":"levelo://app?vid=7ec63923-69a8-48ff-8c88-aca70416d6e3","ios":"levelo://app?vid=7ec63923-69a8-48ff-8c88-aca70416d6e3"},"vehicle_type_id":"4","last_reported":1691471161,"current_range_meters":14400,"station_id":"ce4bgup2rcd13ifvqcn0","pricing_plan_id":"free"},{"bike_id":"05114b4d-21e0-4819-9961-93535e926e38","system_id":"levelo_inurba_marseille","lat":43.30283,"lon":5.37691,"is_reserved":false,"is_disabled":false,"rental_uris":{"android":"levelo://app?vid=05114b4d-21e0-4819-9961-93535e926e38","ios":"levelo://app?vid=05114b4d-21e0-4819-9961-93535e926e38"},"vehicle_type_id":"4","last_reported":1691471161,"current_range_meters":12400,"station_id":"ce4bguh2rcd13ifvqcj0","pricing_plan_id":"free"},{"bike_id":"3bd9c0c2-63af-4949-9484-af572b280102","system_id":"levelo_inurba_marseille","lat":43.302784,"lon":5.377158,"is_reserved":false,"is_disabled":false,"rental_uris":{"android":"levelo://app?vid=3bd9c0c2-63af-4949-9484-af572b280102","ios":"levelo://app?vid=3bd9c0c2-63af-4949-9484-af572b280102"},"vehicle_type_id":"4","last_reported":1691471161,"current_range_meters":28000,"station_id":"ce4bguh2rcd13ifvqcj0","pricing_plan_id":"free"},{"bike_id":"3244b9cb-daa0-4771-8d5a-f6866e4486f0","system_id":"levelo_inurba_marseille","lat":43.302784,"lon":5.377158,"is_reserved":false,"is_disabled":false,"rental_uris":{"android":"levelo://app?vid=3244b9cb-daa0-4771-8d5a-f6866e4486f0","ios":"levelo://app?vid=3244b9cb-daa0-4771-8d5a-f6866e4486f0"},"vehicle_type_id":"4","last_reported":1691471161,"current_range_meters":25600,"station_id":"ce4bguh2rcd13ifvqcj0","pricing_plan_id":"free"},{"bike_id":"24b96de5-3ddd-495c-a0ba-1b212a8fdf9c","system_id":"levelo_inurba_marseille","lat":43.30131,"lon":5.37423,"is_reserved":false,"is_disabled":false,"rental_uris":{"android":"levelo://app?vid=24b96de5-3ddd-495c-a0ba-1b212a8fdf9c","ios":"levelo://app?vid=24b96de5-3ddd-495c-a0ba-1b212a8fdf9c"},"vehicle_type_id":"4","last_reported":1691471161,"current_range_meters":23200,"station_id":"ce4bgs92rcd13ifvqcc0","pricing_plan_id":"free"},{"bike_id":"2038dadd-ce93-4789-8ec3-f62d84ebced9","system_id":"levelo_inurba_marseille","lat":43.319935,"lon":5.381699,"is_reserved":false,"is_disabled":false,"rental_uris":{"android":"levelo://app?vid=2038dadd-ce93-4789-8ec3-f62d84ebced9","ios":"levelo://app?vid=2038dadd-ce93-4789-8ec3-f62d84ebced9"},"vehicle_type_id":"4","last_reported":1691471161,"current_range_meters":7200,"station_id":"ce4bhr12rcd13ifvqhpg","pricing_plan_id":"free"},{"bike_id":"c0e67c77-b3d3-4778-a608-d5fd89fbbe6f","system_id":"levelo_inurba_marseille","lat":43.313571,"lon":5.384829,"is_reserved":false,"is_disabled":false,"rental_uris":{"android":"levelo://app?vid=c0e67c77-b3d3-4778-a608-d5fd89fbbe6f","ios":"levelo://app?vid=c0e67c77-b3d3-4778-a608-d5fd89fbbe6f"},"vehicle_type_id":"4","last_reported":1691471161,"current_range_meters":31200,"station_id":"ce4bgt92rcd13ifvqcf0","pricing_plan_id":"free"},{"bike_id":"fe667517-03c2-4e14-a00c-b9c4a232d221","system_id":"levelo_inurba_marseille","lat":43.313571,"lon":5.384829,"is_reserved":false,"is_disabled":false,"rental_uris":{"android":"levelo://app?vid=fe667517-03c2-4e14-a00c-b9c4a232d221","ios":"levelo://app?vid=fe667517-03c2-4e14-a00c-b9c4a232d221"},"vehicle_type_id":"4","last_reported":1691471161,"current_range_meters":31200,"station_id":"ce4bgt92rcd13ifvqcf0","pricing_plan_id":"free"},{"bike_id":"9c64988c-47fd-4907-b212-72f0f2fe5034","system_id":"levelo_inurba_marseille","lat":43.313571,"lon":5.384829,"is_reserved":false,"is_disabled":false,"rental_uris":{"android":"levelo://app?vid=9c64988c-47fd-4907-b212-72f0f2fe5034","ios":"levelo://app?vid=9c64988c-47fd-4907-b212-72f0f2fe5034"},"vehicle_type_id":"4","last_reported":1691471161,"current_range_meters":31200,"station_id":"ce4bgt92rcd13ifvqcf0","pricing_plan_id":"free"},{"bike_id":"772939a4-1739-4d88-a328-fcaf949d3da2","system_id":"levelo_inurba_marseille","lat":43.313571,"lon":5.384829,"is_reserved":false,"is_disabled":false,"rental_uris":{"android":"levelo://app?vid=772939a4-1739-4d88-a328-fcaf949d3da2","ios":"levelo://app?vid=772939a4-1739-4d88-a328-fcaf949d3da2"},"vehicle_type_id":"4","last_reported":1691471161,"current_range_meters":31200,"station_id":"ce4bgt92rcd13ifvqcf0","pricing_plan_id":"free"},{"bike_id":"3beb4902-24ed-408b-b09e-cfef65e034bd","system_id":"levelo_inurba_marseille","lat":43.29971,"lon":5.37178,"is_reserved":false,"is_disabled":false,"rental_uris":{"android":"levelo://app?vid=3beb4902-24ed-408b-b09e-cfef65e034bd","ios":"levelo://app?vid=3beb4902-24ed-408b-b09e-cfef65e034bd"},"vehicle_type_id":"4","last_reported":1691471161,"current_range_meters":0,"station_id":"ce4bgr92rcd13ifvqc7g","pricing_plan_id":"free"},{"bike_id":"29382f89-f7ab-45bf-ae07-fad2ebf0f35c","system_id":"levelo_inurba_marseille","lat":43.299724,"lon":5.371829,"is_reserved":false,"is_disabled":false,"rental_uris":{"android":"levelo://app?vid=29382f89-f7ab-45bf-ae07-fad2ebf0f35c","ios":"levelo://app?vid=29382f89-f7ab-45bf-ae07-fad2ebf0f35c"},"vehicle_type_id":"4","last_reported":1691471161,"current_range_meters":2400,"station_id":"ce4bgr92rcd13ifvqc7g","pricing_plan_id":"free"},{"bike_id":"43672351-f9a6-4f84-bf83-b8fe48192fef","system_id":"levelo_inurba_marseille","lat":43.299724,"lon":5.371829,"is_reserved":false,"is_disabled":false,"rental_uris":{"android":"levelo://app?vid=43672351-f9a6-4f84-bf83-b8fe48192fef","ios":"levelo://app?vid=43672351-f9a6-4f84-bf83-b8fe48192fef"},"vehicle_type_id":"4","last_reported":1691471161,"current_range_meters":28000,"station_id":"ce4bgr92rcd13ifvqc7g","pricing_plan_id":"free"},{"bike_id":"30537d43-af02-4a10-b928-7b9b8cf633d2","system_id":"levelo_inurba_marseille","lat":43.305265,"lon":5.384239,"is_reserved":false,"is_disabled":false,"rental_uris":{"android":"levelo://app?vid=30537d43-af02-4a10-b928-7b9b8cf633d2","ios":"levelo://app?vid=30537d43-af02-4a10-b928-7b9b8cf633d2"},"vehicle_type_id":"4","last_reported":1691471161,"current_range_meters":25200,"station_id":"ce4bgg92rcd13ifvqb30","pricing_plan_id":"free"},{"bike_id":"138ac23c-5535-4332-9444-e1c888feb4a1","system_id":"levelo_inurba_marseille","lat":43.31173,"lon":5.38712,"is_reserved":false,"is_disabled":false,"rental_uris":{"android":"levelo://app?vid=138ac23c-5535-4332-9444-e1c888feb4a1","ios":"levelo://app?vid=138ac23c-5535-4332-9444-e1c888feb4a1"},"vehicle_type_id":"4","last_reported":1691471161,"current_range_meters":31200,"station_id":"ce4bgv12rcd13ifvqcp0","pricing_plan_id":"free"},{"bike_id":"ebe59431-f91f-4f60-850d-5b79b579a85c","system_id":"levelo_inurba_marseille","lat":43.311722,"lon":5.387247,"is_reserved":false,"is_disabled":false,"rental_uris":{"android":"levelo://app?vid=ebe59431-f91f-4f60-850d-5b79b579a85c","ios":"levelo://app?vid=ebe59431-f91f-4f60-850d-5b79b579a85c"},"vehicle_type_id":"4","last_reported":1691471161,"current_range_meters":30400,"station_id":"ce4bgv12rcd13ifvqcp0","pricing_plan_id":"free"},{"bike_id":"15b2f289-e8da-4c30-a721-2cf15799ace1","system_id":"levelo_inurba_marseille","lat":43.32291,"lon":5.38271,"is_reserved":false,"is_disabled":false,"rental_uris":{"android":"levelo://app?vid=15b2f289-e8da-4c30-a721-2cf15799ace1","ios":"levelo://app?vid=15b2f289-e8da-4c30-a721-2cf15799ace1"},"vehicle_type_id":"4","last_reported":1691471161,"current_range_meters":11600,"station_id":"ce4bhr12rcd13ifvqhqg","pricing_plan_id":"free"},{"bike_id":"6f6eeb13-8534-45e9-90bb-5ce321a043c4","system_id":"levelo_inurba_marseille","lat":43.328371,"lon":5.366909,"is_reserved":false,"is_disabled":false,"rental_uris":{"android":"levelo://app?vid=6f6eeb13-8534-45e9-90bb-5ce321a043c4","ios":"levelo://app?vid=6f6eeb13-8534-45e9-90bb-5ce321a043c4"},"vehicle_type_id":"4","last_reported":1691471161,"current_range_meters":9200,"station_id":"ce4bhs92rcd13ifvqi0g","pricing_plan_id":"free"},{"bike_id":"bf4a0016-24b8-4a88-b88f-1624c511c71a","system_id":"levelo_inurba_marseille","lat":43.328371,"lon":5.366909,"is_reserved":false,"is_disabled":false,"rental_uris":{"android":"levelo://app?vid=bf4a0016-24b8-4a88-b88f-1624c511c71a","ios":"levelo://app?vid=bf4a0016-24b8-4a88-b88f-1624c511c71a"},"vehicle_type_id":"4","last_reported":1691471161,"current_range_meters":27200,"station_id":"ce4bhs92rcd13ifvqi0g","pricing_plan_id":"free"},{"bike_id":"f04c4f0a-f960-4c59-a786-6e03a3316db7","system_id":"levelo_inurba_marseille","lat":43.328371,"lon":5.366909,"is_reserved":false,"is_disabled":false,"rental_uris":{"android":"levelo://app?vid=f04c4f0a-f960-4c59-a786-6e03a3316db7","ios":"levelo://app?vid=f04c4f0a-f960-4c59-a786-6e03a3316db7"},"vehicle_type_id":"4","last_reported":1691471161,"current_range_meters":24000,"station_id":"ce4bhs92rcd13ifvqi0g","pricing_plan_id":"free"},{"bike_id":"97afdb01-5eea-4486-8c30-3859e0392bf5","system_id":"levelo_inurba_marseille","lat":43.32826,"lon":5.36686,"is_reserved":false,"is_disabled":false,"rental_uris":{"android":"levelo://app?vid=97afdb01-5eea-4486-8c30-3859e0392bf5","ios":"levelo://app?vid=97afdb01-5eea-4486-8c30-3859e0392bf5"},"vehicle_type_id":"4","last_reported":1691471161,"current_range_meters":0,"station_id":"ce4bhs92rcd13ifvqi0g","pricing_plan_id":"free"},{"bike_id":"f627d313-f7ed-4071-9c12-a160af375039","system_id":"levelo_inurba_marseille","lat":43.32826,"lon":5.36674,"is_reserved":false,"is_disabled":false,"rental_uris":{"android":"levelo://app?vid=f627d313-f7ed-4071-9c12-a160af375039","ios":"levelo://app?vid=f627d313-f7ed-4071-9c12-a160af375039"},"vehicle_type_id":"4","last_reported":1691471161,"current_range_meters":9200,"station_id":"ce4bhs92rcd13ifvqi0g","pricing_plan_id":"free"},{"bike_id":"cd0c2cfa-6552-40fd-b545-a8ec53e46241","system_id":"levelo_inurba_marseille","lat":43.32826,"lon":5.3667,"is_reserved":false,"is_disabled":false,"rental_uris":{"android":"levelo://app?vid=cd0c2cfa-6552-40fd-b545-a8ec53e46241","ios":"levelo://app?vid=cd0c2cfa-6552-40fd-b545-a8ec53e46241"},"vehicle_type_id":"4","last_reported":1691471161,"current_range_meters":18400,"station_id":"ce4bhs92rcd13ifvqi0g","pricing_plan_id":"free"},{"bike_id":"ee5f4357-685f-4c54-ae04-c1d2a6bf5a32","system_id":"levelo_inurba_marseille","lat":43.32827,"lon":5.36691,"is_reserved":false,"is_disabled":false,"rental_uris":{"android":"levelo://app?vid=ee5f4357-685f-4c54-ae04-c1d2a6bf5a32","ios":"levelo://app?vid=ee5f4357-685f-4c54-ae04-c1d2a6bf5a32"},"vehicle_type_id":"4","last_reported":1691471161,"current_range_meters":18000,"station_id":"ce4bhs92rcd13ifvqi0g","pricing_plan_id":"free"},{"bike_id":"df7ea8b1-dc30-4732-8b2c-f92935a4bc82","system_id":"levelo_inurba_marseille","lat":43.328371,"lon":5.366909,"is_reserved":false,"is_disabled":false,"rental_uris":{"android":"levelo://app?vid=df7ea8b1-dc30-4732-8b2c-f92935a4bc82","ios":"levelo://app?vid=df7ea8b1-dc30-4732-8b2c-f92935a4bc82"},"vehicle_type_id":"4","last_reported":1691471161,"current_range_meters":0,"station_id":"ce4bhs92rcd13ifvqi0g","pricing_plan_id":"free"},{"bike_id":"9fd7bfd1-6f30-484a-93d7-e323269d32c7","system_id":"levelo_inurba_marseille","lat":43.32828,"lon":5.36677,"is_reserved":false,"is_disabled":false,"rental_uris":{"android":"levelo://app?vid=9fd7bfd1-6f30-484a-93d7-e323269d32c7","ios":"levelo://app?vid=9fd7bfd1-6f30-484a-93d7-e323269d32c7"},"vehicle_type_id":"4","last_reported":1691471161,"current_range_meters":21600,"station_id":"ce4bhs92rcd13ifvqi0g","pricing_plan_id":"free"},{"bike_id":"d09a06cb-e739-4cc2-b782-172e42b04f04","system_id":"levelo_inurba_marseille","lat":43.32831,"lon":5.36673,"is_reserved":false,"is_disabled":false,"rental_uris":{"android":"levelo://app?vid=d09a06cb-e739-4cc2-b782-172e42b04f04","ios":"levelo://app?vid=d09a06cb-e739-4cc2-b782-172e42b04f04"},"vehicle_type_id":"4","last_reported":1691471161,"current_range_meters":400,"station_id":"ce4bhs92rcd13ifvqi0g","pricing_plan_id":"free"},{"bike_id":"d10c5593-70d9-4742-a544-7812c2e7a79b","system_id":"levelo_inurba_marseille","lat":43.32831,"lon":5.36669,"is_reserved":false,"is_disabled":false,"rental_uris":{"android":"levelo://app?vid=d10c5593-70d9-4742-a544-7812c2e7a79b","ios":"levelo://app?vid=d10c5593-70d9-4742-a544-7812c2e7a79b"},"vehicle_type_id":"4","last_reported":1691471161,"current_range_meters":4000,"station_id":"ce4bhs92rcd13ifvqi0g","pricing_plan_id":"free"},{"bike_id":"6ed9b7f8-fa99-4d9a-a866-36e06b8743d2","system_id":"levelo_inurba_marseille","lat":43.328371,"lon":5.366909,"is_reserved":false,"is_disabled":false,"rental_uris":{"android":"levelo://app?vid=6ed9b7f8-fa99-4d9a-a866-36e06b8743d2","ios":"levelo://app?vid=6ed9b7f8-fa99-4d9a-a866-36e06b8743d2"},"vehicle_type_id":"4","last_reported":1691471161,"current_range_meters":4400,"station_id":"ce4bhs92rcd13ifvqi0g","pricing_plan_id":"free"},{"bike_id":"5836a1e4-4588-49af-9855-adde616cd7f7","system_id":"levelo_inurba_marseille","lat":43.328371,"lon":5.366909,"is_reserved":false,"is_disabled":false,"rental_uris":{"android":"levelo://app?vid=5836a1e4-4588-49af-9855-adde616cd7f7","ios":"levelo://app?vid=5836a1e4-4588-49af-9855-adde616cd7f7"},"vehicle_type_id":"4","last_reported":1691471161,"current_range_meters":11600,"station_id":"ce4bhs92rcd13ifvqi0g","pricing_plan_id":"free"},{"bike_id":"dd789220-e7b5-42c1-b9dc-dc4243148021","system_id":"levelo_inurba_marseille","lat":43.29705,"lon":5.36619,"is_reserved":false,"is_disabled":false,"rental_uris":{"android":"levelo://app?vid=dd789220-e7b5-42c1-b9dc-dc4243148021","ios":"levelo://app?vid=dd789220-e7b5-42c1-b9dc-dc4243148021"},"vehicle_type_id":"4","last_reported":1691471161,"current_range_meters":31200,"station_id":"ce4bgn12rcd13ifvqbt0","pricing_plan_id":"free"},{"bike_id":"d6e359c9-0ddd-4be6-bed9-bc8b22ae33f8","system_id":"levelo_inurba_marseille","lat":43.296129,"lon":5.370777,"is_reserved":false,"is_disabled":false,"rental_uris":{"android":"levelo://app?vid=d6e359c9-0ddd-4be6-bed9-bc8b22ae33f8","ios":"levelo://app?vid=d6e359c9-0ddd-4be6-bed9-bc8b22ae33f8"},"vehicle_type_id":"4","last_reported":1691471161,"current_range_meters":31200,"station_id":"ce4bgnh2rcd13ifvqc0g","pricing_plan_id":"free"},{"bike_id":"f73245fe-e2c5-4d98-96a4-1f0c710525e7","system_id":"levelo_inurba_marseille","lat":43.299028,"lon":5.381509,"is_reserved":false,"is_disabled":false,"rental_uris":{"android":"levelo://app?vid=f73245fe-e2c5-4d98-96a4-1f0c710525e7","ios":"levelo://app?vid=f73245fe-e2c5-4d98-96a4-1f0c710525e7"},"vehicle_type_id":"4","last_reported":1691471161,"current_range_meters":30000,"station_id":"ce4bgj12rcd13ifvqbc0","pricing_plan_id":"free"},{"bike_id":"c770514e-44dc-4a16-ac0f-a80a8e88ed21","system_id":"levelo_inurba_marseille","lat":43.296935,"lon":5.376544,"is_reserved":false,"is_disabled":false,"rental_uris":{"android":"levelo://app?vid=c770514e-44dc-4a16-ac0f-a80a8e88ed21","ios":"levelo://app?vid=c770514e-44dc-4a16-ac0f-a80a8e88ed21"},"vehicle_type_id":"4","last_reported":1691471161,"current_range_meters":30400,"station_id":"ce4bgkh2rcd13ifvqbl0","pricing_plan_id":"free"},{"bike_id":"072f3e70-727c-41ef-a567-ad590e3eebcd","system_id":"levelo_inurba_marseille","lat":43.296921,"lon":5.376579,"is_reserved":false,"is_disabled":false,"rental_uris":{"android":"levelo://app?vid=072f3e70-727c-41ef-a567-ad590e3eebcd","ios":"levelo://app?vid=072f3e70-727c-41ef-a567-ad590e3eebcd"},"vehicle_type_id":"4","last_reported":1691471161,"current_range_meters":800,"station_id":"ce4bgkh2rcd13ifvqbl0","pricing_plan_id":"free"},{"bike_id":"d284bbe0-a55a-42e0-a11f-51c2a8c625cf","system_id":"levelo_inurba_marseille","lat":43.30955,"lon":5.39047,"is_reserved":false,"is_disabled":false,"rental_uris":{"android":"levelo://app?vid=d284bbe0-a55a-42e0-a11f-51c2a8c625cf","ios":"levelo://app?vid=d284bbe0-a55a-42e0-a11f-51c2a8c625cf"},"vehicle_type_id":"4","last_reported":1691471161,"current_range_meters":22000,"station_id":"ce4bgup2rcd13ifvqco0","pricing_plan_id":"free"},{"bike_id":"fa4fcdb6-e5b3-42d2-885b-9b93ab23a47b","system_id":"levelo_inurba_marseille","lat":43.31756,"lon":5.39012,"is_reserved":false,"is_disabled":false,"rental_uris":{"android":"levelo://app?vid=fa4fcdb6-e5b3-42d2-885b-9b93ab23a47b","ios":"levelo://app?vid=fa4fcdb6-e5b3-42d2-885b-9b93ab23a47b"},"vehicle_type_id":"4","last_reported":1691471161,"current_range_meters":27600,"station_id":"ce4bhqp2rcd13ifvqhng","pricing_plan_id":"free"},{"bike_id":"a76e823f-9024-4be6-835c-30a284d10f19","system_id":"levelo_inurba_marseille","lat":43.317557,"lon":5.390173,"is_reserved":false,"is_disabled":false,"rental_uris":{"android":"levelo://app?vid=a76e823f-9024-4be6-835c-30a284d10f19","ios":"levelo://app?vid=a76e823f-9024-4be6-835c-30a284d10f19"},"vehicle_type_id":"4","last_reported":1691471161,"current_range_meters":31200,"station_id":"ce4bhqp2rcd13ifvqhng","pricing_plan_id":"free"},{"bike_id":"d957e26d-a7ce-442a-94bb-89325590266c","system_id":"levelo_inurba_marseille","lat":43.317557,"lon":5.390173,"is_reserved":false,"is_disabled":false,"rental_uris":{"android":"levelo://app?vid=d957e26d-a7ce-442a-94bb-89325590266c","ios":"levelo://app?vid=d957e26d-a7ce-442a-94bb-89325590266c"},"vehicle_type_id":"4","last_reported":1691471161,"current_range_meters":28000,"station_id":"ce4bhqp2rcd13ifvqhng","pricing_plan_id":"free"},{"bike_id":"e9d9276a-4e3f-41aa-b7ac-463df08781c1","system_id":"levelo_inurba_marseille","lat":43.295748,"lon":5.37522,"is_reserved":false,"is_disabled":false,"rental_uris":{"android":"levelo://app?vid=e9d9276a-4e3f-41aa-b7ac-463df08781c1","ios":"levelo://app?vid=e9d9276a-4e3f-41aa-b7ac-463df08781c1"},"vehicle_type_id":"4","last_reported":1691471161,"current_range_meters":30000,"station_id":"ce4bgh92rcd13ifvqb50","pricing_plan_id":"free"},{"bike_id":"c737e6fb-70a7-4021-9842-dfd2f2dad37c","system_id":"levelo_inurba_marseille","lat":43.296263,"lon":5.377094,"is_reserved":false,"is_disabled":false,"rental_uris":{"android":"levelo://app?vid=c737e6fb-70a7-4021-9842-dfd2f2dad37c","ios":"levelo://app?vid=c737e6fb-70a7-4021-9842-dfd2f2dad37c"},"vehicle_type_id":"4","last_reported":1691471161,"current_range_meters":28800,"station_id":"ce4bgi92rcd13ifvqb90","pricing_plan_id":"free"},{"bike_id":"1e305d11-6244-46f5-94eb-4258b2fb308b","system_id":"levelo_inurba_marseille","lat":43.30432,"lon":5.38889,"is_reserved":false,"is_disabled":false,"rental_uris":{"android":"levelo://app?vid=1e305d11-6244-46f5-94eb-4258b2fb308b","ios":"levelo://app?vid=1e305d11-6244-46f5-94eb-4258b2fb308b"},"vehicle_type_id":"4","last_reported":1691471161,"current_range_meters":3600,"station_id":"ce4bgk12rcd13ifvqbi0","pricing_plan_id":"free"},{"bike_id":"f7f9b580-1b14-460d-acfe-3693e6567265","system_id":"levelo_inurba_marseille","lat":43.304274,"lon":5.388873,"is_reserved":false,"is_disabled":false,"rental_uris":{"android":"levelo://app?vid=f7f9b580-1b14-460d-acfe-3693e6567265","ios":"levelo://app?vid=f7f9b580-1b14-460d-acfe-3693e6567265"},"vehicle_type_id":"4","last_reported":1691471161,"current_range_meters":24400,"station_id":"ce4bgk12rcd13ifvqbi0","pricing_plan_id":"free"},{"bike_id":"a4df99ce-0488-49dd-a888-94686f562e88","system_id":"levelo_inurba_marseille","lat":43.295748,"lon":5.37522,"is_reserved":false,"is_disabled":false,"rental_uris":{"android":"levelo://app?vid=a4df99ce-0488-49dd-a888-94686f562e88","ios":"levelo://app?vid=a4df99ce-0488-49dd-a888-94686f562e88"},"vehicle_type_id":"4","last_reported":1691471161,"current_range_meters":30400,"station_id":"ce4bgh92rcd13ifvqb50","pricing_plan_id":"free"},{"bike_id":"06fd2a6c-bd64-4794-af74-8db28f0f9678","system_id":"levelo_inurba_marseille","lat":43.295748,"lon":5.37522,"is_reserved":false,"is_disabled":false,"rental_uris":{"android":"levelo://app?vid=06fd2a6c-bd64-4794-af74-8db28f0f9678","ios":"levelo://app?vid=06fd2a6c-bd64-4794-af74-8db28f0f9678"},"vehicle_type_id":"4","last_reported":1691471161,"current_range_meters":18000,"station_id":"ce4bgh92rcd13ifvqb50","pricing_plan_id":"free"},{"bike_id":"d9cf3322-d081-4589-86f0-b4f382e6d9f9","system_id":"levelo_inurba_marseille","lat":43.295748,"lon":5.37522,"is_reserved":false,"is_disabled":false,"rental_uris":{"android":"levelo://app?vid=d9cf3322-d081-4589-86f0-b4f382e6d9f9","ios":"levelo://app?vid=d9cf3322-d081-4589-86f0-b4f382e6d9f9"},"vehicle_type_id":"4","last_reported":1691471161,"current_range_meters":10000,"station_id":"ce4bgh92rcd13ifvqb50","pricing_plan_id":"free"},{"bike_id":"a311fd58-c968-49af-8c68-c51994dbedaf","system_id":"levelo_inurba_marseille","lat":43.295279,"lon":5.375048,"is_reserved":false,"is_disabled":false,"rental_uris":{"android":"levelo://app?vid=a311fd58-c968-49af-8c68-c51994dbedaf","ios":"levelo://app?vid=a311fd58-c968-49af-8c68-c51994dbedaf"},"vehicle_type_id":"4","last_reported":1691471161,"current_range_meters":28400,"station_id":"ce4bgkp2rcd13ifvqbmg","pricing_plan_id":"free"},{"bike_id":"63f939b8-a7d8-4ba9-81cd-d217fd478133","system_id":"levelo_inurba_marseille","lat":43.296277,"lon":5.377108,"is_reserved":false,"is_disabled":false,"rental_uris":{"android":"levelo://app?vid=63f939b8-a7d8-4ba9-81cd-d217fd478133","ios":"levelo://app?vid=63f939b8-a7d8-4ba9-81cd-d217fd478133"},"vehicle_type_id":"4","last_reported":1691471161,"current_range_meters":29200,"station_id":"ce4bgi92rcd13ifvqb90","pricing_plan_id":"free"},{"bike_id":"a291543f-61b8-4db2-849f-1afdb7963228","system_id":"levelo_inurba_marseille","lat":43.296277,"lon":5.377108,"is_reserved":false,"is_disabled":false,"rental_uris":{"android":"levelo://app?vid=a291543f-61b8-4db2-849f-1afdb7963228","ios":"levelo://app?vid=a291543f-61b8-4db2-849f-1afdb7963228"},"vehicle_type_id":"4","last_reported":1691471161,"current_range_meters":14400,"station_id":"ce4bgi92rcd13ifvqb90","pricing_plan_id":"free"},{"bike_id":"c37ecc13-7e89-486b-8155-cad1b35e812c","system_id":"levelo_inurba_marseille","lat":43.29975,"lon":5.38494,"is_reserved":false,"is_disabled":false,"rental_uris":{"android":"levelo://app?vid=c37ecc13-7e89-486b-8155-cad1b35e812c","ios":"levelo://app?vid=c37ecc13-7e89-486b-8155-cad1b35e812c"},"vehicle_type_id":"4","last_reported":1691471161,"current_range_meters":0,"station_id":"ce4bgj92rcd13ifvqbd0","pricing_plan_id":"free"},{"bike_id":"74598c16-b5bc-40ca-a49f-10ed89e2d441","system_id":"levelo_inurba_marseille","lat":43.29537,"lon":5.3757,"is_reserved":false,"is_disabled":false,"rental_uris":{"android":"levelo://app?vid=74598c16-b5bc-40ca-a49f-10ed89e2d441","ios":"levelo://app?vid=74598c16-b5bc-40ca-a49f-10ed89e2d441"},"vehicle_type_id":"4","last_reported":1691471161,"current_range_meters":800,"station_id":"","pricing_plan_id":"free"},{"bike_id":"fa766ae7-1810-4c65-a8cd-496e8ca15f25","system_id":"levelo_inurba_marseille","lat":43.295279,"lon":5.375048,"is_reserved":false,"is_disabled":false,"rental_uris":{"android":"levelo://app?vid=fa766ae7-1810-4c65-a8cd-496e8ca15f25","ios":"levelo://app?vid=fa766ae7-1810-4c65-a8cd-496e8ca15f25"},"vehicle_type_id":"4","last_reported":1691471161,"current_range_meters":31200,"station_id":"ce4bgkp2rcd13ifvqbmg","pricing_plan_id":"free"},{"bike_id":"bade7fa5-bdc1-40b4-8fbb-f26a936073f4","system_id":"levelo_inurba_marseille","lat":43.3236,"lon":5.3888,"is_reserved":false,"is_disabled":false,"rental_uris":{"android":"levelo://app?vid=bade7fa5-bdc1-40b4-8fbb-f26a936073f4","ios":"levelo://app?vid=bade7fa5-bdc1-40b4-8fbb-f26a936073f4"},"vehicle_type_id":"4","last_reported":1691471161,"current_range_meters":30800,"station_id":"ce4bhqp2rcd13ifvqhog","pricing_plan_id":"free"},{"bike_id":"d6278f0e-2251-4333-8223-849478fbabdc","system_id":"levelo_inurba_marseille","lat":43.32359,"lon":5.38883,"is_reserved":false,"is_disabled":false,"rental_uris":{"android":"levelo://app?vid=d6278f0e-2251-4333-8223-849478fbabdc","ios":"levelo://app?vid=d6278f0e-2251-4333-8223-849478fbabdc"},"vehicle_type_id":"4","last_reported":1691471161,"current_range_meters":14000,"station_id":"ce4bhqp2rcd13ifvqhog","pricing_plan_id":"free"},{"bike_id":"fb2f99da-6a0f-4a13-8a6e-b45d8292be21","system_id":"levelo_inurba_marseille","lat":43.32367,"lon":5.388836,"is_reserved":false,"is_disabled":false,"rental_uris":{"android":"levelo://app?vid=fb2f99da-6a0f-4a13-8a6e-b45d8292be21","ios":"levelo://app?vid=fb2f99da-6a0f-4a13-8a6e-b45d8292be21"},"vehicle_type_id":"4","last_reported":1691471161,"current_range_meters":30000,"station_id":"ce4bhqp2rcd13ifvqhog","pricing_plan_id":"free"},{"bike_id":"1d587673-114b-4879-ac22-244c9400d6c5","system_id":"levelo_inurba_marseille","lat":43.32364,"lon":5.38882,"is_reserved":false,"is_disabled":false,"rental_uris":{"android":"levelo://app?vid=1d587673-114b-4879-ac22-244c9400d6c5","ios":"levelo://app?vid=1d587673-114b-4879-ac22-244c9400d6c5"},"vehicle_type_id":"4","last_reported":1691471161,"current_range_meters":20800,"station_id":"ce4bhqp2rcd13ifvqhog","pricing_plan_id":"free"},{"bike_id":"6ff09929-0008-4ced-b3a0-1f34d091ae86","system_id":"levelo_inurba_marseille","lat":43.32367,"lon":5.388836,"is_reserved":false,"is_disabled":false,"rental_uris":{"android":"levelo://app?vid=6ff09929-0008-4ced-b3a0-1f34d091ae86","ios":"levelo://app?vid=6ff09929-0008-4ced-b3a0-1f34d091ae86"},"vehicle_type_id":"4","last_reported":1691471161,"current_range_meters":18800,"station_id":"ce4bhqp2rcd13ifvqhog","pricing_plan_id":"free"},{"bike_id":"e59fb1df-a177-43b6-b472-deb102c063e1","system_id":"levelo_inurba_marseille","lat":43.293,"lon":5.3717,"is_reserved":false,"is_disabled":false,"rental_uris":{"android":"levelo://app?vid=e59fb1df-a177-43b6-b472-deb102c063e1","ios":"levelo://app?vid=e59fb1df-a177-43b6-b472-deb102c063e1"},"vehicle_type_id":"4","last_reported":1691471161,"current_range_meters":2800,"station_id":"ce4bgh92rcd13ifvqb40","pricing_plan_id":"free"},{"bike_id":"dbe406a0-e31d-4174-932b-0d8d584d17c2","system_id":"levelo_inurba_marseille","lat":43.29269,"lon":5.36853,"is_reserved":false,"is_disabled":false,"rental_uris":{"android":"levelo://app?vid=dbe406a0-e31d-4174-932b-0d8d584d17c2","ios":"levelo://app?vid=dbe406a0-e31d-4174-932b-0d8d584d17c2"},"vehicle_type_id":"4","last_reported":1691471161,"current_range_meters":31200,"station_id":"ce4bhbp2rcd13ifvqesg","pricing_plan_id":"free"},{"bike_id":"21765f49-a541-4676-8608-6fe7a2b2005e","system_id":"levelo_inurba_marseille","lat":43.292749,"lon":5.368398,"is_reserved":false,"is_disabled":false,"rental_uris":{"android":"levelo://app?vid=21765f49-a541-4676-8608-6fe7a2b2005e","ios":"levelo://app?vid=21765f49-a541-4676-8608-6fe7a2b2005e"},"vehicle_type_id":"4","last_reported":1691471161,"current_range_meters":30400,"station_id":"ce4bhbp2rcd13ifvqesg","pricing_plan_id":"free"},{"bike_id":"512b03a8-4c08-4b85-bac5-6bc8e7f846c6","system_id":"levelo_inurba_marseille","lat":43.305994,"lon":5.393687,"is_reserved":false,"is_disabled":false,"rental_uris":{"android":"levelo://app?vid=512b03a8-4c08-4b85-bac5-6bc8e7f846c6","ios":"levelo://app?vid=512b03a8-4c08-4b85-bac5-6bc8e7f846c6"},"vehicle_type_id":"4","last_reported":1691471161,"current_range_meters":31200,"station_id":"ce4bh0p2rcd13ifvqd80","pricing_plan_id":"free"},{"bike_id":"1d949df9-a16e-4878-a23e-fa5c6e5b10af","system_id":"levelo_inurba_marseille","lat":43.293009,"lon":5.374584,"is_reserved":false,"is_disabled":false,"rental_uris":{"android":"levelo://app?vid=1d949df9-a16e-4878-a23e-fa5c6e5b10af","ios":"levelo://app?vid=1d949df9-a16e-4878-a23e-fa5c6e5b10af"},"vehicle_type_id":"4","last_reported":1691471161,"current_range_meters":800,"station_id":"ce4bgi12rcd13ifvqb70","pricing_plan_id":"free"},{"bike_id":"305417de-15a5-4247-8b59-48abef3e2a4b","system_id":"levelo_inurba_marseille","lat":43.30597,"lon":5.39354,"is_reserved":false,"is_disabled":false,"rental_uris":{"android":"levelo://app?vid=305417de-15a5-4247-8b59-48abef3e2a4b","ios":"levelo://app?vid=305417de-15a5-4247-8b59-48abef3e2a4b"},"vehicle_type_id":"4","last_reported":1691471161,"current_range_meters":28800,"station_id":"ce4bh0p2rcd13ifvqd80","pricing_plan_id":"free"},{"bike_id":"91fd0a19-9b22-454f-b96b-688ed9621f64","system_id":"levelo_inurba_marseille","lat":43.3059,"lon":5.3936,"is_reserved":false,"is_disabled":false,"rental_uris":{"android":"levelo://app?vid=91fd0a19-9b22-454f-b96b-688ed9621f64","ios":"levelo://app?vid=91fd0a19-9b22-454f-b96b-688ed9621f64"},"vehicle_type_id":"4","last_reported":1691471161,"current_range_meters":27200,"station_id":"ce4bh0p2rcd13ifvqd80","pricing_plan_id":"free"},{"bike_id":"476250d3-46dd-467a-add3-47ba59a4d582","system_id":"levelo_inurba_marseille","lat":43.2936,"lon":5.37835,"is_reserved":false,"is_disabled":false,"rental_uris":{"android":"levelo://app?vid=476250d3-46dd-467a-add3-47ba59a4d582","ios":"levelo://app?vid=476250d3-46dd-467a-add3-47ba59a4d582"},"vehicle_type_id":"4","last_reported":1691471161,"current_range_meters":30400,"station_id":"ce4bgjh2rcd13ifvqbf0","pricing_plan_id":"free"},{"bike_id":"61096289-22e2-4e91-af9e-4c5ab0d44869","system_id":"levelo_inurba_marseille","lat":43.302992,"lon":5.392136,"is_reserved":false,"is_disabled":false,"rental_uris":{"android":"levelo://app?vid=61096289-22e2-4e91-af9e-4c5ab0d44869","ios":"levelo://app?vid=61096289-22e2-4e91-af9e-4c5ab0d44869"},"vehicle_type_id":"4","last_reported":1691471161,"current_range_meters":15600,"station_id":"ce4bgkh2rcd13ifvqbk0","pricing_plan_id":"free"},{"bike_id":"5dccac17-d6fe-460e-8903-a02dd46f7730","system_id":"levelo_inurba_marseille","lat":43.300852,"lon":5.390859,"is_reserved":false,"is_disabled":false,"rental_uris":{"android":"levelo://app?vid=5dccac17-d6fe-460e-8903-a02dd46f7730","ios":"levelo://app?vid=5dccac17-d6fe-460e-8903-a02dd46f7730"},"vehicle_type_id":"4","last_reported":1691471161,"current_range_meters":19200,"station_id":"ce4bh192rcd13ifvqdb0","pricing_plan_id":"free"},{"bike_id":"d989e18c-96f3-4329-a4d1-c335db3daefd","system_id":"levelo_inurba_marseille","lat":43.302992,"lon":5.392136,"is_reserved":false,"is_disabled":false,"rental_uris":{"android":"levelo://app?vid=d989e18c-96f3-4329-a4d1-c335db3daefd","ios":"levelo://app?vid=d989e18c-96f3-4329-a4d1-c335db3daefd"},"vehicle_type_id":"4","last_reported":1691471161,"current_range_meters":31200,"station_id":"ce4bgkh2rcd13ifvqbk0","pricing_plan_id":"free"},{"bike_id":"168a9116-1622-4ad6-a765-30bb381a567a","system_id":"levelo_inurba_marseille","lat":43.302992,"lon":5.392136,"is_reserved":false,"is_disabled":false,"rental_uris":{"android":"levelo://app?vid=168a9116-1622-4ad6-a765-30bb381a567a","ios":"levelo://app?vid=168a9116-1622-4ad6-a765-30bb381a567a"},"vehicle_type_id":"4","last_reported":1691471161,"current_range_meters":18800,"station_id":"ce4bgkh2rcd13ifvqbk0","pricing_plan_id":"free"},{"bike_id":"e570cc87-1482-4aa2-acbb-46c3fbafb918","system_id":"levelo_inurba_marseille","lat":43.303,"lon":5.39219,"is_reserved":false,"is_disabled":false,"rental_uris":{"android":"levelo://app?vid=e570cc87-1482-4aa2-acbb-46c3fbafb918","ios":"levelo://app?vid=e570cc87-1482-4aa2-acbb-46c3fbafb918"},"vehicle_type_id":"4","last_reported":1691471161,"current_range_meters":23200,"station_id":"ce4bgkh2rcd13ifvqbk0","pricing_plan_id":"free"},{"bike_id":"aca7dbb3-1003-4ba8-9383-4d2459c5524d","system_id":"levelo_inurba_marseille","lat":43.302992,"lon":5.392136,"is_reserved":false,"is_disabled":false,"rental_uris":{"android":"levelo://app?vid=aca7dbb3-1003-4ba8-9383-4d2459c5524d","ios":"levelo://app?vid=aca7dbb3-1003-4ba8-9383-4d2459c5524d"},"vehicle_type_id":"4","last_reported":1691471161,"current_range_meters":17600,"station_id":"ce4bgkh2rcd13ifvqbk0","pricing_plan_id":"free"},{"bike_id":"6e346a8b-486c-48a5-8180-d9c996c2497f","system_id":"levelo_inurba_marseille","lat":43.300852,"lon":5.390859,"is_reserved":false,"is_disabled":false,"rental_uris":{"android":"levelo://app?vid=6e346a8b-486c-48a5-8180-d9c996c2497f","ios":"levelo://app?vid=6e346a8b-486c-48a5-8180-d9c996c2497f"},"vehicle_type_id":"4","last_reported":1691471161,"current_range_meters":2000,"station_id":"ce4bh192rcd13ifvqdb0","pricing_plan_id":"free"},{"bike_id":"d5485c32-38c0-47bb-b907-95266e3c2876","system_id":"levelo_inurba_marseille","lat":43.300852,"lon":5.390859,"is_reserved":false,"is_disabled":false,"rental_uris":{"android":"levelo://app?vid=d5485c32-38c0-47bb-b907-95266e3c2876","ios":"levelo://app?vid=d5485c32-38c0-47bb-b907-95266e3c2876"},"vehicle_type_id":"4","last_reported":1691471161,"current_range_meters":31200,"station_id":"ce4bh192rcd13ifvqdb0","pricing_plan_id":"free"},{"bike_id":"3c69c10d-3e78-4250-9600-9fecd89dff56","system_id":"levelo_inurba_marseille","lat":43.300852,"lon":5.390859,"is_reserved":false,"is_disabled":false,"rental_uris":{"android":"levelo://app?vid=3c69c10d-3e78-4250-9600-9fecd89dff56","ios":"levelo://app?vid=3c69c10d-3e78-4250-9600-9fecd89dff56"},"vehicle_type_id":"4","last_reported":1691471161,"current_range_meters":0,"station_id":"ce4bh192rcd13ifvqdb0","pricing_plan_id":"free"},{"bike_id":"e89c3ea9-6b3c-4b72-a2ba-93153e46acf5","system_id":"levelo_inurba_marseille","lat":43.313291,"lon":5.396838,"is_reserved":false,"is_disabled":false,"rental_uris":{"android":"levelo://app?vid=e89c3ea9-6b3c-4b72-a2ba-93153e46acf5","ios":"levelo://app?vid=e89c3ea9-6b3c-4b72-a2ba-93153e46acf5"},"vehicle_type_id":"4","last_reported":1691471161,"current_range_meters":5200,"station_id":"ce4bgvp2rcd13ifvqcu0","pricing_plan_id":"free"},{"bike_id":"110762a8-af3d-4b3f-a47b-882b2dbbe7ec","system_id":"levelo_inurba_marseille","lat":43.30878,"lon":5.39644,"is_reserved":false,"is_disabled":false,"rental_uris":{"android":"levelo://app?vid=110762a8-af3d-4b3f-a47b-882b2dbbe7ec","ios":"levelo://app?vid=110762a8-af3d-4b3f-a47b-882b2dbbe7ec"},"vehicle_type_id":"4","last_reported":1691471161,"current_range_meters":0,"station_id":"ce4bh012rcd13ifvqcv0","pricing_plan_id":"free"},{"bike_id":"498a10e9-3fd7-415b-8876-0085a1a2c13b","system_id":"levelo_inurba_marseille","lat":43.313291,"lon":5.396838,"is_reserved":false,"is_disabled":false,"rental_uris":{"android":"levelo://app?vid=498a10e9-3fd7-415b-8876-0085a1a2c13b","ios":"levelo://app?vid=498a10e9-3fd7-415b-8876-0085a1a2c13b"},"vehicle_type_id":"4","last_reported":1691471161,"current_range_meters":17200,"station_id":"ce4bgvp2rcd13ifvqcu0","pricing_plan_id":"free"},{"bike_id":"8ac6ebac-bf56-42ba-8f51-48d69d6b6dfc","system_id":"levelo_inurba_marseille","lat":43.30879,"lon":5.39648,"is_reserved":false,"is_disabled":false,"rental_uris":{"android":"levelo://app?vid=8ac6ebac-bf56-42ba-8f51-48d69d6b6dfc","ios":"levelo://app?vid=8ac6ebac-bf56-42ba-8f51-48d69d6b6dfc"},"vehicle_type_id":"4","last_reported":1691471161,"current_range_meters":0,"station_id":"ce4bh012rcd13ifvqcv0","pricing_plan_id":"free"},{"bike_id":"fe62e2cb-6d4c-47c6-9a98-06cede7ec21b","system_id":"levelo_inurba_marseille","lat":43.302008,"lon":5.394694,"is_reserved":false,"is_disabled":false,"rental_uris":{"android":"levelo://app?vid=fe62e2cb-6d4c-47c6-9a98-06cede7ec21b","ios":"levelo://app?vid=fe62e2cb-6d4c-47c6-9a98-06cede7ec21b"},"vehicle_type_id":"4","last_reported":1691471161,"current_range_meters":30400,"station_id":"ce4bh0p2rcd13ifvqd70","pricing_plan_id":"free"},{"bike_id":"89578405-71ce-4dab-a71d-3af91704c269","system_id":"levelo_inurba_marseille","lat":43.302008,"lon":5.394694,"is_reserved":false,"is_disabled":false,"rental_uris":{"android":"levelo://app?vid=89578405-71ce-4dab-a71d-3af91704c269","ios":"levelo://app?vid=89578405-71ce-4dab-a71d-3af91704c269"},"vehicle_type_id":"4","last_reported":1691471161,"current_range_meters":29200,"station_id":"ce4bh0p2rcd13ifvqd70","pricing_plan_id":"free"},{"bike_id":"8711dbda-0fc9-4026-9437-a6149ea1fae6","system_id":"levelo_inurba_marseille","lat":43.302008,"lon":5.394694,"is_reserved":false,"is_disabled":false,"rental_uris":{"android":"levelo://app?vid=8711dbda-0fc9-4026-9437-a6149ea1fae6","ios":"levelo://app?vid=8711dbda-0fc9-4026-9437-a6149ea1fae6"},"vehicle_type_id":"4","last_reported":1691471161,"current_range_meters":26400,"station_id":"ce4bh0p2rcd13ifvqd70","pricing_plan_id":"free"},{"bike_id":"d08d4474-2eb7-456f-9a8e-d5370eb53696","system_id":"levelo_inurba_marseille","lat":43.289468,"lon":5.363719,"is_reserved":false,"is_disabled":false,"rental_uris":{"android":"levelo://app?vid=d08d4474-2eb7-456f-9a8e-d5370eb53696","ios":"levelo://app?vid=d08d4474-2eb7-456f-9a8e-d5370eb53696"},"vehicle_type_id":"4","last_reported":1691471161,"current_range_meters":4000,"station_id":"ce4bhc92rcd13ifvqetg","pricing_plan_id":"free"},{"bike_id":"eb6fd139-3a2b-4e18-9be9-d7036a2e660f","system_id":"levelo_inurba_marseille","lat":43.290327,"lon":5.375711,"is_reserved":false,"is_disabled":false,"rental_uris":{"android":"levelo://app?vid=eb6fd139-3a2b-4e18-9be9-d7036a2e660f","ios":"levelo://app?vid=eb6fd139-3a2b-4e18-9be9-d7036a2e660f"},"vehicle_type_id":"4","last_reported":1691471161,"current_range_meters":27600,"station_id":"ce4bh692rcd13ifvqe90","pricing_plan_id":"free"},{"bike_id":"c4992261-094b-42e6-afeb-086ddb699558","system_id":"levelo_inurba_marseille","lat":43.289184,"lon":5.366408,"is_reserved":false,"is_disabled":false,"rental_uris":{"android":"levelo://app?vid=c4992261-094b-42e6-afeb-086ddb699558","ios":"levelo://app?vid=c4992261-094b-42e6-afeb-086ddb699558"},"vehicle_type_id":"4","last_reported":1691471161,"current_range_meters":31200,"station_id":"ce4bhap2rcd13ifvqek0","pricing_plan_id":"free"},{"bike_id":"3d516623-fc55-47db-9e96-5d65676ccc8b","system_id":"levelo_inurba_marseille","lat":43.289184,"lon":5.366408,"is_reserved":false,"is_disabled":false,"rental_uris":{"android":"levelo://app?vid=3d516623-fc55-47db-9e96-5d65676ccc8b","ios":"levelo://app?vid=3d516623-fc55-47db-9e96-5d65676ccc8b"},"vehicle_type_id":"4","last_reported":1691471161,"current_range_meters":30000,"station_id":"ce4bhap2rcd13ifvqek0","pricing_plan_id":"free"},{"bike_id":"d996d613-b360-4d97-aa2b-b26115b860a5","system_id":"levelo_inurba_marseille","lat":43.290327,"lon":5.375711,"is_reserved":false,"is_disabled":false,"rental_uris":{"android":"levelo://app?vid=d996d613-b360-4d97-aa2b-b26115b860a5","ios":"levelo://app?vid=d996d613-b360-4d97-aa2b-b26115b860a5"},"vehicle_type_id":"4","last_reported":1691471161,"current_range_meters":30400,"station_id":"ce4bh692rcd13ifvqe90","pricing_plan_id":"free"},{"bike_id":"19ae06e4-d6ce-4104-a8e9-95cab6a1b0d0","system_id":"levelo_inurba_marseille","lat":43.292644,"lon":5.384257,"is_reserved":false,"is_disabled":false,"rental_uris":{"android":"levelo://app?vid=19ae06e4-d6ce-4104-a8e9-95cab6a1b0d0","ios":"levelo://app?vid=19ae06e4-d6ce-4104-a8e9-95cab6a1b0d0"},"vehicle_type_id":"4","last_reported":1691471161,"current_range_meters":15600,"station_id":"ce4bh692rcd13ifvqea0","pricing_plan_id":"free"},{"bike_id":"4df3821e-ca56-4f4a-be53-1f4ed8b4196f","system_id":"levelo_inurba_marseille","lat":43.304274,"lon":5.397513,"is_reserved":false,"is_disabled":false,"rental_uris":{"android":"levelo://app?vid=4df3821e-ca56-4f4a-be53-1f4ed8b4196f","ios":"levelo://app?vid=4df3821e-ca56-4f4a-be53-1f4ed8b4196f"},"vehicle_type_id":"4","last_reported":1691471161,"current_range_meters":31200,"station_id":"ce4bh092rcd13ifvqd20","pricing_plan_id":"free"},{"bike_id":"6b495e6c-401f-46ba-9267-f835af2e86b0","system_id":"levelo_inurba_marseille","lat":43.304274,"lon":5.397513,"is_reserved":false,"is_disabled":false,"rental_uris":{"android":"levelo://app?vid=6b495e6c-401f-46ba-9267-f835af2e86b0","ios":"levelo://app?vid=6b495e6c-401f-46ba-9267-f835af2e86b0"},"vehicle_type_id":"4","last_reported":1691471161,"current_range_meters":27600,"station_id":"ce4bh092rcd13ifvqd20","pricing_plan_id":"free"},{"bike_id":"eeb3ab9c-79f3-450c-84a8-971c3df1d190","system_id":"levelo_inurba_marseille","lat":43.304274,"lon":5.397513,"is_reserved":false,"is_disabled":false,"rental_uris":{"android":"levelo://app?vid=eeb3ab9c-79f3-450c-84a8-971c3df1d190","ios":"levelo://app?vid=eeb3ab9c-79f3-450c-84a8-971c3df1d190"},"vehicle_type_id":"4","last_reported":1691471161,"current_range_meters":30400,"station_id":"ce4bh092rcd13ifvqd20","pricing_plan_id":"free"},{"bike_id":"37055ea7-2e9b-4ef4-aef8-95fcc3b21c41","system_id":"levelo_inurba_marseille","lat":43.33041,"lon":5.38919,"is_reserved":false,"is_disabled":false,"rental_uris":{"android":"levelo://app?vid=37055ea7-2e9b-4ef4-aef8-95fcc3b21c41","ios":"levelo://app?vid=37055ea7-2e9b-4ef4-aef8-95fcc3b21c41"},"vehicle_type_id":"4","last_reported":1691471161,"current_range_meters":20400,"station_id":"ce4bhr92rcd13ifvqhrg","pricing_plan_id":"free"},{"bike_id":"ff2b266a-2927-44fb-9edb-5d3ee430c0ca","system_id":"levelo_inurba_marseille","lat":43.33047,"lon":5.38913,"is_reserved":false,"is_disabled":false,"rental_uris":{"android":"levelo://app?vid=ff2b266a-2927-44fb-9edb-5d3ee430c0ca","ios":"levelo://app?vid=ff2b266a-2927-44fb-9edb-5d3ee430c0ca"},"vehicle_type_id":"4","last_reported":1691471161,"current_range_meters":14400,"station_id":"ce4bhr92rcd13ifvqhrg","pricing_plan_id":"free"},{"bike_id":"ee6df116-a5cb-48f8-961c-117d4f0e375e","system_id":"levelo_inurba_marseille","lat":43.290104,"lon":5.356111,"is_reserved":false,"is_disabled":false,"rental_uris":{"android":"levelo://app?vid=ee6df116-a5cb-48f8-961c-117d4f0e375e","ios":"levelo://app?vid=ee6df116-a5cb-48f8-961c-117d4f0e375e"},"vehicle_type_id":"4","last_reported":1691471161,"current_range_meters":18400,"station_id":"ce4bhb92rcd13ifvqen0","pricing_plan_id":"free"},{"bike_id":"d43934e6-da4f-4560-b0dc-e7e58231810a","system_id":"levelo_inurba_marseille","lat":43.33046,"lon":5.38915,"is_reserved":false,"is_disabled":false,"rental_uris":{"android":"levelo://app?vid=d43934e6-da4f-4560-b0dc-e7e58231810a","ios":"levelo://app?vid=d43934e6-da4f-4560-b0dc-e7e58231810a"},"vehicle_type_id":"4","last_reported":1691471161,"current_range_meters":22800,"station_id":"ce4bhr92rcd13ifvqhrg","pricing_plan_id":"free"},{"bike_id":"c8a65f85-8e7d-4d37-ae6c-42965d3e32a9","system_id":"levelo_inurba_marseille","lat":43.330442,"lon":5.389148,"is_reserved":false,"is_disabled":false,"rental_uris":{"android":"levelo://app?vid=c8a65f85-8e7d-4d37-ae6c-42965d3e32a9","ios":"levelo://app?vid=c8a65f85-8e7d-4d37-ae6c-42965d3e32a9"},"vehicle_type_id":"4","last_reported":1691471161,"current_range_meters":17200,"station_id":"ce4bhr92rcd13ifvqhrg","pricing_plan_id":"free"},{"bike_id":"22d59fb6-746b-439e-9f38-7566db695d0e","system_id":"levelo_inurba_marseille","lat":43.330442,"lon":5.389148,"is_reserved":false,"is_disabled":false,"rental_uris":{"android":"levelo://app?vid=22d59fb6-746b-439e-9f38-7566db695d0e","ios":"levelo://app?vid=22d59fb6-746b-439e-9f38-7566db695d0e"},"vehicle_type_id":"4","last_reported":1691471161,"current_range_meters":11200,"station_id":"ce4bhr92rcd13ifvqhrg","pricing_plan_id":"free"},{"bike_id":"d92191b5-3897-428d-989c-4b986c7a7e64","system_id":"levelo_inurba_marseille","lat":43.29008,"lon":5.35607,"is_reserved":false,"is_disabled":false,"rental_uris":{"android":"levelo://app?vid=d92191b5-3897-428d-989c-4b986c7a7e64","ios":"levelo://app?vid=d92191b5-3897-428d-989c-4b986c7a7e64"},"vehicle_type_id":"4","last_reported":1691471161,"current_range_meters":11600,"station_id":"ce4bhb92rcd13ifvqen0","pricing_plan_id":"free"},{"bike_id":"0537e478-57cd-48b9-aa68-a83218d24328","system_id":"levelo_inurba_marseille","lat":43.3305,"lon":5.38912,"is_reserved":false,"is_disabled":false,"rental_uris":{"android":"levelo://app?vid=0537e478-57cd-48b9-aa68-a83218d24328","ios":"levelo://app?vid=0537e478-57cd-48b9-aa68-a83218d24328"},"vehicle_type_id":"4","last_reported":1691471161,"current_range_meters":10000,"station_id":"ce4bhr92rcd13ifvqhrg","pricing_plan_id":"free"},{"bike_id":"762b8dc1-4927-44cd-9d94-b275b7256f10","system_id":"levelo_inurba_marseille","lat":43.29794,"lon":5.39335,"is_reserved":false,"is_disabled":false,"rental_uris":{"android":"levelo://app?vid=762b8dc1-4927-44cd-9d94-b275b7256f10","ios":"levelo://app?vid=762b8dc1-4927-44cd-9d94-b275b7256f10"},"vehicle_type_id":"4","last_reported":1691471161,"current_range_meters":22400,"station_id":"chh1huq6cuj3fo74tm60","pricing_plan_id":"free"},{"bike_id":"78a1a5bb-1590-410b-a41c-786e430d786c","system_id":"levelo_inurba_marseille","lat":43.29791,"lon":5.39339,"is_reserved":false,"is_disabled":false,"rental_uris":{"android":"levelo://app?vid=78a1a5bb-1590-410b-a41c-786e430d786c","ios":"levelo://app?vid=78a1a5bb-1590-410b-a41c-786e430d786c"},"vehicle_type_id":"4","last_reported":1691471161,"current_range_meters":30800,"station_id":"chh1huq6cuj3fo74tm60","pricing_plan_id":"free"},{"bike_id":"083394da-6936-4dff-9114-b62f223c92af","system_id":"levelo_inurba_marseille","lat":43.29786,"lon":5.39337,"is_reserved":false,"is_disabled":false,"rental_uris":{"android":"levelo://app?vid=083394da-6936-4dff-9114-b62f223c92af","ios":"levelo://app?vid=083394da-6936-4dff-9114-b62f223c92af"},"vehicle_type_id":"4","last_reported":1691471161,"current_range_meters":28000,"station_id":"chh1huq6cuj3fo74tm60","pricing_plan_id":"free"},{"bike_id":"020ea560-4745-4514-8758-b4860f47a10c","system_id":"levelo_inurba_marseille","lat":43.29786,"lon":5.39346,"is_reserved":false,"is_disabled":false,"rental_uris":{"android":"levelo://app?vid=020ea560-4745-4514-8758-b4860f47a10c","ios":"levelo://app?vid=020ea560-4745-4514-8758-b4860f47a10c"},"vehicle_type_id":"4","last_reported":1691471161,"current_range_meters":31200,"station_id":"chh1huq6cuj3fo74tm60","pricing_plan_id":"free"},{"bike_id":"c80f2512-5060-48ce-ad8f-4256e4edf4b1","system_id":"levelo_inurba_marseille","lat":43.289741,"lon":5.378306,"is_reserved":false,"is_disabled":false,"rental_uris":{"android":"levelo://app?vid=c80f2512-5060-48ce-ad8f-4256e4edf4b1","ios":"levelo://app?vid=c80f2512-5060-48ce-ad8f-4256e4edf4b1"},"vehicle_type_id":"4","last_reported":1691471161,"current_range_meters":9600,"station_id":"ce4bh9p2rcd13ifvqed0","pricing_plan_id":"free"},{"bike_id":"4630261c-e7a1-4fc2-9799-752735ac5ab2","system_id":"levelo_inurba_marseille","lat":43.2901,"lon":5.381269,"is_reserved":false,"is_disabled":false,"rental_uris":{"android":"levelo://app?vid=4630261c-e7a1-4fc2-9799-752735ac5ab2","ios":"levelo://app?vid=4630261c-e7a1-4fc2-9799-752735ac5ab2"},"vehicle_type_id":"4","last_reported":1691471161,"current_range_meters":8400,"station_id":"ce4bh4p2rcd13ifvqe1g","pricing_plan_id":"free"},{"bike_id":"8e864654-df79-4db8-911e-7891dee47bb7","system_id":"levelo_inurba_marseille","lat":43.28857,"lon":5.35824,"is_reserved":false,"is_disabled":false,"rental_uris":{"android":"levelo://app?vid=8e864654-df79-4db8-911e-7891dee47bb7","ios":"levelo://app?vid=8e864654-df79-4db8-911e-7891dee47bb7"},"vehicle_type_id":"4","last_reported":1691471161,"current_range_meters":0,"station_id":"ce4bhb12rcd13ifvqem0","pricing_plan_id":"free"},{"bike_id":"5a04bd67-f217-4b92-aa4d-47ccf6340df4","system_id":"levelo_inurba_marseille","lat":43.31275,"lon":5.40158,"is_reserved":false,"is_disabled":false,"rental_uris":{"android":"levelo://app?vid=5a04bd67-f217-4b92-aa4d-47ccf6340df4","ios":"levelo://app?vid=5a04bd67-f217-4b92-aa4d-47ccf6340df4"},"vehicle_type_id":"4","last_reported":1691471161,"current_range_meters":20000,"station_id":"ce4bh092rcd13ifvqd30","pricing_plan_id":"free"},{"bike_id":"6e227cb6-fa8a-49cf-af87-f8536bfd0556","system_id":"levelo_inurba_marseille","lat":43.312609,"lon":5.401662,"is_reserved":false,"is_disabled":false,"rental_uris":{"android":"levelo://app?vid=6e227cb6-fa8a-49cf-af87-f8536bfd0556","ios":"levelo://app?vid=6e227cb6-fa8a-49cf-af87-f8536bfd0556"},"vehicle_type_id":"4","last_reported":1691471161,"current_range_meters":12000,"station_id":"ce4bh092rcd13ifvqd30","pricing_plan_id":"free"},{"bike_id":"bceb8590-c213-4b42-85cc-a62b98f28deb","system_id":"levelo_inurba_marseille","lat":43.31276,"lon":5.40162,"is_reserved":false,"is_disabled":false,"rental_uris":{"android":"levelo://app?vid=bceb8590-c213-4b42-85cc-a62b98f28deb","ios":"levelo://app?vid=bceb8590-c213-4b42-85cc-a62b98f28deb"},"vehicle_type_id":"4","last_reported":1691471161,"current_range_meters":30800,"station_id":"ce4bh092rcd13ifvqd30","pricing_plan_id":"free"},{"bike_id":"1b996320-e44f-44b1-8f55-e6e547f991d4","system_id":"levelo_inurba_marseille","lat":43.312609,"lon":5.401662,"is_reserved":false,"is_disabled":false,"rental_uris":{"android":"levelo://app?vid=1b996320-e44f-44b1-8f55-e6e547f991d4","ios":"levelo://app?vid=1b996320-e44f-44b1-8f55-e6e547f991d4"},"vehicle_type_id":"4","last_reported":1691471161,"current_range_meters":4800,"station_id":"ce4bh092rcd13ifvqd30","pricing_plan_id":"free"},{"bike_id":"ac040827-4325-46aa-9b23-42ca73857c27","system_id":"levelo_inurba_marseille","lat":43.31274,"lon":5.40168,"is_reserved":false,"is_disabled":false,"rental_uris":{"android":"levelo://app?vid=ac040827-4325-46aa-9b23-42ca73857c27","ios":"levelo://app?vid=ac040827-4325-46aa-9b23-42ca73857c27"},"vehicle_type_id":"4","last_reported":1691471161,"current_range_meters":25200,"station_id":"ce4bh092rcd13ifvqd30","pricing_plan_id":"free"},{"bike_id":"36167670-868a-4873-b305-274a778e059a","system_id":"levelo_inurba_marseille","lat":43.312609,"lon":5.401662,"is_reserved":false,"is_disabled":false,"rental_uris":{"android":"levelo://app?vid=36167670-868a-4873-b305-274a778e059a","ios":"levelo://app?vid=36167670-868a-4873-b305-274a778e059a"},"vehicle_type_id":"4","last_reported":1691471161,"current_range_meters":12000,"station_id":"ce4bh092rcd13ifvqd30","pricing_plan_id":"free"},{"bike_id":"b3b1ea82-3c7a-4a4c-b4e0-0675913de7ca","system_id":"levelo_inurba_marseille","lat":43.309369,"lon":5.401423,"is_reserved":false,"is_disabled":false,"rental_uris":{"android":"levelo://app?vid=b3b1ea82-3c7a-4a4c-b4e0-0675913de7ca","ios":"levelo://app?vid=b3b1ea82-3c7a-4a4c-b4e0-0675913de7ca"},"vehicle_type_id":"4","last_reported":1691471161,"current_range_meters":6000,"station_id":"ce4bgvp2rcd13ifvqct0","pricing_plan_id":"free"},{"bike_id":"3e0b20f4-7d34-4852-8207-5d34e024c474","system_id":"levelo_inurba_marseille","lat":43.309371,"lon":5.401449,"is_reserved":false,"is_disabled":false,"rental_uris":{"android":"levelo://app?vid=3e0b20f4-7d34-4852-8207-5d34e024c474","ios":"levelo://app?vid=3e0b20f4-7d34-4852-8207-5d34e024c474"},"vehicle_type_id":"4","last_reported":1691471161,"current_range_meters":3200,"station_id":"ce4bgvp2rcd13ifvqct0","pricing_plan_id":"free"},{"bike_id":"1e6a4349-91f9-468d-8618-a50a523320de","system_id":"levelo_inurba_marseille","lat":43.33745,"lon":5.37502,"is_reserved":false,"is_disabled":false,"rental_uris":{"android":"levelo://app?vid=1e6a4349-91f9-468d-8618-a50a523320de","ios":"levelo://app?vid=1e6a4349-91f9-468d-8618-a50a523320de"},"vehicle_type_id":"4","last_reported":1691471161,"current_range_meters":23600,"station_id":"","pricing_plan_id":"free"},{"bike_id":"789fadd6-9bc1-4141-b50d-3e9c349bffff","system_id":"levelo_inurba_marseille","lat":43.30642,"lon":5.40078,"is_reserved":false,"is_disabled":false,"rental_uris":{"android":"levelo://app?vid=789fadd6-9bc1-4141-b50d-3e9c349bffff","ios":"levelo://app?vid=789fadd6-9bc1-4141-b50d-3e9c349bffff"},"vehicle_type_id":"4","last_reported":1691471161,"current_range_meters":22800,"station_id":"ce4bh112rcd13ifvqda0","pricing_plan_id":"free"},{"bike_id":"bdf42952-d6a0-4845-b768-25423fdac941","system_id":"levelo_inurba_marseille","lat":43.33756,"lon":5.37469,"is_reserved":false,"is_disabled":false,"rental_uris":{"android":"levelo://app?vid=bdf42952-d6a0-4845-b768-25423fdac941","ios":"levelo://app?vid=bdf42952-d6a0-4845-b768-25423fdac941"},"vehicle_type_id":"4","last_reported":1691471161,"current_range_meters":16400,"station_id":"","pricing_plan_id":"free"},{"bike_id":"c34f477e-01af-489f-994f-7908ab30a712","system_id":"levelo_inurba_marseille","lat":43.301117,"lon":5.398795,"is_reserved":false,"is_disabled":false,"rental_uris":{"android":"levelo://app?vid=c34f477e-01af-489f-994f-7908ab30a712","ios":"levelo://app?vid=c34f477e-01af-489f-994f-7908ab30a712"},"vehicle_type_id":"4","last_reported":1691471161,"current_range_meters":28800,"station_id":"ce4bh0h2rcd13ifvqd40","pricing_plan_id":"free"},{"bike_id":"722d6a99-be3f-4234-b008-2b4757ae6856","system_id":"levelo_inurba_marseille","lat":43.298681,"lon":5.397225,"is_reserved":false,"is_disabled":false,"rental_uris":{"android":"levelo://app?vid=722d6a99-be3f-4234-b008-2b4757ae6856","ios":"levelo://app?vid=722d6a99-be3f-4234-b008-2b4757ae6856"},"vehicle_type_id":"4","last_reported":1691471161,"current_range_meters":31200,"station_id":"ce4bh0h2rcd13ifvqd50","pricing_plan_id":"free"},{"bike_id":"78308bbb-ca20-4a2f-8ebc-d04bbf6f7402","system_id":"levelo_inurba_marseille","lat":43.298681,"lon":5.397225,"is_reserved":false,"is_disabled":false,"rental_uris":{"android":"levelo://app?vid=78308bbb-ca20-4a2f-8ebc-d04bbf6f7402","ios":"levelo://app?vid=78308bbb-ca20-4a2f-8ebc-d04bbf6f7402"},"vehicle_type_id":"4","last_reported":1691471161,"current_range_meters":28800,"station_id":"ce4bh0h2rcd13ifvqd50","pricing_plan_id":"free"},{"bike_id":"eca1c1ab-9094-4f29-89fb-16916ccea673","system_id":"levelo_inurba_marseille","lat":43.298681,"lon":5.397225,"is_reserved":false,"is_disabled":false,"rental_uris":{"android":"levelo://app?vid=eca1c1ab-9094-4f29-89fb-16916ccea673","ios":"levelo://app?vid=eca1c1ab-9094-4f29-89fb-16916ccea673"},"vehicle_type_id":"4","last_reported":1691471161,"current_range_meters":31200,"station_id":"ce4bh0h2rcd13ifvqd50","pricing_plan_id":"free"},{"bike_id":"54d2e3d6-0285-44f0-a66d-856168f1c67d","system_id":"levelo_inurba_marseille","lat":43.298681,"lon":5.397225,"is_reserved":false,"is_disabled":false,"rental_uris":{"android":"levelo://app?vid=54d2e3d6-0285-44f0-a66d-856168f1c67d","ios":"levelo://app?vid=54d2e3d6-0285-44f0-a66d-856168f1c67d"},"vehicle_type_id":"4","last_reported":1691471161,"current_range_meters":31200,"station_id":"ce4bh0h2rcd13ifvqd50","pricing_plan_id":"free"},{"bike_id":"855cdbb1-0cc9-4576-8821-3235e6f00987","system_id":"levelo_inurba_marseille","lat":43.298681,"lon":5.397225,"is_reserved":false,"is_disabled":false,"rental_uris":{"android":"levelo://app?vid=855cdbb1-0cc9-4576-8821-3235e6f00987","ios":"levelo://app?vid=855cdbb1-0cc9-4576-8821-3235e6f00987"},"vehicle_type_id":"4","last_reported":1691471161,"current_range_meters":26000,"station_id":"ce4bh0h2rcd13ifvqd50","pricing_plan_id":"free"},{"bike_id":"262f910d-2e24-4458-86a7-7e1361b36a00","system_id":"levelo_inurba_marseille","lat":43.286591,"lon":5.363346,"is_reserved":false,"is_disabled":false,"rental_uris":{"android":"levelo://app?vid=262f910d-2e24-4458-86a7-7e1361b36a00","ios":"levelo://app?vid=262f910d-2e24-4458-86a7-7e1361b36a00"},"vehicle_type_id":"4","last_reported":1691471161,"current_range_meters":31200,"station_id":"ce4bhah2rcd13ifvqej0","pricing_plan_id":"free"},{"bike_id":"75199276-b705-4ad7-b6a9-49aeaa84628a","system_id":"levelo_inurba_marseille","lat":43.286591,"lon":5.363346,"is_reserved":false,"is_disabled":false,"rental_uris":{"android":"levelo://app?vid=75199276-b705-4ad7-b6a9-49aeaa84628a","ios":"levelo://app?vid=75199276-b705-4ad7-b6a9-49aeaa84628a"},"vehicle_type_id":"4","last_reported":1691471161,"current_range_meters":31200,"station_id":"ce4bhah2rcd13ifvqej0","pricing_plan_id":"free"},{"bike_id":"15e7c9f2-ea82-4656-b15e-1ca53f739e2c","system_id":"levelo_inurba_marseille","lat":43.286591,"lon":5.363346,"is_reserved":false,"is_disabled":false,"rental_uris":{"android":"levelo://app?vid=15e7c9f2-ea82-4656-b15e-1ca53f739e2c","ios":"levelo://app?vid=15e7c9f2-ea82-4656-b15e-1ca53f739e2c"},"vehicle_type_id":"4","last_reported":1691471161,"current_range_meters":30400,"station_id":"ce4bhah2rcd13ifvqej0","pricing_plan_id":"free"},{"bike_id":"983da741-7dbf-43c6-95de-20e8c382f381","system_id":"levelo_inurba_marseille","lat":43.286591,"lon":5.363346,"is_reserved":false,"is_disabled":false,"rental_uris":{"android":"levelo://app?vid=983da741-7dbf-43c6-95de-20e8c382f381","ios":"levelo://app?vid=983da741-7dbf-43c6-95de-20e8c382f381"},"vehicle_type_id":"4","last_reported":1691471161,"current_range_meters":31200,"station_id":"ce4bhah2rcd13ifvqej0","pricing_plan_id":"free"},{"bike_id":"6f5a45b8-88bd-4df2-979c-f8ce7f70972b","system_id":"levelo_inurba_marseille","lat":43.298681,"lon":5.397225,"is_reserved":false,"is_disabled":false,"rental_uris":{"android":"levelo://app?vid=6f5a45b8-88bd-4df2-979c-f8ce7f70972b","ios":"levelo://app?vid=6f5a45b8-88bd-4df2-979c-f8ce7f70972b"},"vehicle_type_id":"4","last_reported":1691471161,"current_range_meters":31200,"station_id":"ce4bh0h2rcd13ifvqd50","pricing_plan_id":"free"},{"bike_id":"793dbfd0-d083-4a18-a42f-b066422b228e","system_id":"levelo_inurba_marseille","lat":43.286591,"lon":5.363346,"is_reserved":false,"is_disabled":false,"rental_uris":{"android":"levelo://app?vid=793dbfd0-d083-4a18-a42f-b066422b228e","ios":"levelo://app?vid=793dbfd0-d083-4a18-a42f-b066422b228e"},"vehicle_type_id":"4","last_reported":1691471161,"current_range_meters":31200,"station_id":"ce4bhah2rcd13ifvqej0","pricing_plan_id":"free"},{"bike_id":"cf1e29c8-5c68-4f4f-afb9-72fbf0b5448d","system_id":"levelo_inurba_marseille","lat":43.286591,"lon":5.363346,"is_reserved":false,"is_disabled":false,"rental_uris":{"android":"levelo://app?vid=cf1e29c8-5c68-4f4f-afb9-72fbf0b5448d","ios":"levelo://app?vid=cf1e29c8-5c68-4f4f-afb9-72fbf0b5448d"},"vehicle_type_id":"4","last_reported":1691471161,"current_range_meters":31200,"station_id":"ce4bhah2rcd13ifvqej0","pricing_plan_id":"free"},{"bike_id":"53481784-4ac4-4eb4-a025-c0e3d0f70bbd","system_id":"levelo_inurba_marseille","lat":43.286591,"lon":5.363346,"is_reserved":false,"is_disabled":false,"rental_uris":{"android":"levelo://app?vid=53481784-4ac4-4eb4-a025-c0e3d0f70bbd","ios":"levelo://app?vid=53481784-4ac4-4eb4-a025-c0e3d0f70bbd"},"vehicle_type_id":"4","last_reported":1691471161,"current_range_meters":29600,"station_id":"ce4bhah2rcd13ifvqej0","pricing_plan_id":"free"},{"bike_id":"e26f9b0d-5c7a-466c-9280-f28649937c12","system_id":"levelo_inurba_marseille","lat":43.298681,"lon":5.397225,"is_reserved":false,"is_disabled":false,"rental_uris":{"android":"levelo://app?vid=e26f9b0d-5c7a-466c-9280-f28649937c12","ios":"levelo://app?vid=e26f9b0d-5c7a-466c-9280-f28649937c12"},"vehicle_type_id":"4","last_reported":1691471161,"current_range_meters":31200,"station_id":"ce4bh0h2rcd13ifvqd50","pricing_plan_id":"free"},{"bike_id":"f459640e-b0ad-416d-a9d6-e7130579323a","system_id":"levelo_inurba_marseille","lat":43.298681,"lon":5.397225,"is_reserved":false,"is_disabled":false,"rental_uris":{"android":"levelo://app?vid=f459640e-b0ad-416d-a9d6-e7130579323a","ios":"levelo://app?vid=f459640e-b0ad-416d-a9d6-e7130579323a"},"vehicle_type_id":"4","last_reported":1691471161,"current_range_meters":24800,"station_id":"ce4bh0h2rcd13ifvqd50","pricing_plan_id":"free"},{"bike_id":"b733750b-0989-4f2f-8b24-651df7bfecd2","system_id":"levelo_inurba_marseille","lat":43.298681,"lon":5.397225,"is_reserved":false,"is_disabled":false,"rental_uris":{"android":"levelo://app?vid=b733750b-0989-4f2f-8b24-651df7bfecd2","ios":"levelo://app?vid=b733750b-0989-4f2f-8b24-651df7bfecd2"},"vehicle_type_id":"4","last_reported":1691471161,"current_range_meters":30000,"station_id":"ce4bh0h2rcd13ifvqd50","pricing_plan_id":"free"},{"bike_id":"aaab2ccc-c6b1-43d6-831a-fb29eb309093","system_id":"levelo_inurba_marseille","lat":43.298681,"lon":5.397225,"is_reserved":false,"is_disabled":false,"rental_uris":{"android":"levelo://app?vid=aaab2ccc-c6b1-43d6-831a-fb29eb309093","ios":"levelo://app?vid=aaab2ccc-c6b1-43d6-831a-fb29eb309093"},"vehicle_type_id":"4","last_reported":1691471161,"current_range_meters":15200,"station_id":"ce4bh0h2rcd13ifvqd50","pricing_plan_id":"free"},{"bike_id":"cac8c011-6721-4915-9b46-bd4cb99b3efc","system_id":"levelo_inurba_marseille","lat":43.286591,"lon":5.363346,"is_reserved":false,"is_disabled":false,"rental_uris":{"android":"levelo://app?vid=cac8c011-6721-4915-9b46-bd4cb99b3efc","ios":"levelo://app?vid=cac8c011-6721-4915-9b46-bd4cb99b3efc"},"vehicle_type_id":"4","last_reported":1691471161,"current_range_meters":29200,"station_id":"ce4bhah2rcd13ifvqej0","pricing_plan_id":"free"},{"bike_id":"2ef0ff1e-736b-4def-978c-365f33b19fd0","system_id":"levelo_inurba_marseille","lat":43.298681,"lon":5.397225,"is_reserved":false,"is_disabled":false,"rental_uris":{"android":"levelo://app?vid=2ef0ff1e-736b-4def-978c-365f33b19fd0","ios":"levelo://app?vid=2ef0ff1e-736b-4def-978c-365f33b19fd0"},"vehicle_type_id":"4","last_reported":1691471161,"current_range_meters":31200,"station_id":"ce4bh0h2rcd13ifvqd50","pricing_plan_id":"free"},{"bike_id":"45b3ac23-a497-4649-b717-335ff8970dcd","system_id":"levelo_inurba_marseille","lat":43.302759,"lon":5.400793,"is_reserved":false,"is_disabled":false,"rental_uris":{"android":"levelo://app?vid=45b3ac23-a497-4649-b717-335ff8970dcd","ios":"levelo://app?vid=45b3ac23-a497-4649-b717-335ff8970dcd"},"vehicle_type_id":"4","last_reported":1691471161,"current_range_meters":23600,"station_id":"ce4bgvh2rcd13ifvqcs0","pricing_plan_id":"free"},{"bike_id":"9cff1197-5a1e-4f19-abf4-ccf24ded6ab7","system_id":"levelo_inurba_marseille","lat":43.302759,"lon":5.400793,"is_reserved":false,"is_disabled":false,"rental_uris":{"android":"levelo://app?vid=9cff1197-5a1e-4f19-abf4-ccf24ded6ab7","ios":"levelo://app?vid=9cff1197-5a1e-4f19-abf4-ccf24ded6ab7"},"vehicle_type_id":"4","last_reported":1691471161,"current_range_meters":12000,"station_id":"ce4bgvh2rcd13ifvqcs0","pricing_plan_id":"free"},{"bike_id":"7b9e2d57-7c2f-4652-8ec0-ee4d147afe24","system_id":"levelo_inurba_marseille","lat":43.302548,"lon":5.400568,"is_reserved":false,"is_disabled":false,"rental_uris":{"android":"levelo://app?vid=7b9e2d57-7c2f-4652-8ec0-ee4d147afe24","ios":"levelo://app?vid=7b9e2d57-7c2f-4652-8ec0-ee4d147afe24"},"vehicle_type_id":"4","last_reported":1691471161,"current_range_meters":800,"station_id":"","pricing_plan_id":"free"},{"bike_id":"97c9f87d-5816-4404-9347-a351abc8932e","system_id":"levelo_inurba_marseille","lat":43.302759,"lon":5.400793,"is_reserved":false,"is_disabled":false,"rental_uris":{"android":"levelo://app?vid=97c9f87d-5816-4404-9347-a351abc8932e","ios":"levelo://app?vid=97c9f87d-5816-4404-9347-a351abc8932e"},"vehicle_type_id":"4","last_reported":1691471161,"current_range_meters":18800,"station_id":"ce4bgvh2rcd13ifvqcs0","pricing_plan_id":"free"},{"bike_id":"162a7602-e4e5-4a92-8787-290d2272adbe","system_id":"levelo_inurba_marseille","lat":43.302759,"lon":5.400793,"is_reserved":false,"is_disabled":false,"rental_uris":{"android":"levelo://app?vid=162a7602-e4e5-4a92-8787-290d2272adbe","ios":"levelo://app?vid=162a7602-e4e5-4a92-8787-290d2272adbe"},"vehicle_type_id":"4","last_reported":1691471161,"current_range_meters":4000,"station_id":"ce4bgvh2rcd13ifvqcs0","pricing_plan_id":"free"},{"bike_id":"3f90f0a1-19e9-4e5b-9b6b-ad728a182a25","system_id":"levelo_inurba_marseille","lat":43.28607,"lon":5.37065,"is_reserved":false,"is_disabled":false,"rental_uris":{"android":"levelo://app?vid=3f90f0a1-19e9-4e5b-9b6b-ad728a182a25","ios":"levelo://app?vid=3f90f0a1-19e9-4e5b-9b6b-ad728a182a25"},"vehicle_type_id":"4","last_reported":1691471161,"current_range_meters":15600,"station_id":"ce4bht12rcd13ifvqi60","pricing_plan_id":"free"},{"bike_id":"b35bf5ee-0aa5-421f-9d44-1f3249d8b3f5","system_id":"levelo_inurba_marseille","lat":43.287184,"lon":5.37937,"is_reserved":false,"is_disabled":false,"rental_uris":{"android":"levelo://app?vid=b35bf5ee-0aa5-421f-9d44-1f3249d8b3f5","ios":"levelo://app?vid=b35bf5ee-0aa5-421f-9d44-1f3249d8b3f5"},"vehicle_type_id":"4","last_reported":1691471161,"current_range_meters":30000,"station_id":"ce4bh9p2rcd13ifvqec0","pricing_plan_id":"free"},{"bike_id":"bb4c48ed-dbb6-4760-aadf-aef8b99c662d","system_id":"levelo_inurba_marseille","lat":43.287184,"lon":5.37937,"is_reserved":false,"is_disabled":false,"rental_uris":{"android":"levelo://app?vid=bb4c48ed-dbb6-4760-aadf-aef8b99c662d","ios":"levelo://app?vid=bb4c48ed-dbb6-4760-aadf-aef8b99c662d"},"vehicle_type_id":"4","last_reported":1691471161,"current_range_meters":30400,"station_id":"ce4bh9p2rcd13ifvqec0","pricing_plan_id":"free"},{"bike_id":"e1523678-e0d6-48e5-b6d4-d7783f5bfe44","system_id":"levelo_inurba_marseille","lat":43.287184,"lon":5.37937,"is_reserved":false,"is_disabled":false,"rental_uris":{"android":"levelo://app?vid=e1523678-e0d6-48e5-b6d4-d7783f5bfe44","ios":"levelo://app?vid=e1523678-e0d6-48e5-b6d4-d7783f5bfe44"},"vehicle_type_id":"4","last_reported":1691471161,"current_range_meters":31200,"station_id":"ce4bh9p2rcd13ifvqec0","pricing_plan_id":"free"},{"bike_id":"f2ab053b-d97c-4f16-9901-eba1e6a195f8","system_id":"levelo_inurba_marseille","lat":43.287185,"lon":5.379373,"is_reserved":false,"is_disabled":false,"rental_uris":{"android":"levelo://app?vid=f2ab053b-d97c-4f16-9901-eba1e6a195f8","ios":"levelo://app?vid=f2ab053b-d97c-4f16-9901-eba1e6a195f8"},"vehicle_type_id":"4","last_reported":1691471161,"current_range_meters":31200,"station_id":"ce4bh9p2rcd13ifvqec0","pricing_plan_id":"free"},{"bike_id":"38666b26-03a9-464b-bb10-789e12d6e8ce","system_id":"levelo_inurba_marseille","lat":43.287184,"lon":5.37937,"is_reserved":false,"is_disabled":false,"rental_uris":{"android":"levelo://app?vid=38666b26-03a9-464b-bb10-789e12d6e8ce","ios":"levelo://app?vid=38666b26-03a9-464b-bb10-789e12d6e8ce"},"vehicle_type_id":"4","last_reported":1691471161,"current_range_meters":31200,"station_id":"ce4bh9p2rcd13ifvqec0","pricing_plan_id":"free"},{"bike_id":"1e448e26-eaf1-4855-a18e-9745d41a2975","system_id":"levelo_inurba_marseille","lat":43.287185,"lon":5.379373,"is_reserved":false,"is_disabled":false,"rental_uris":{"android":"levelo://app?vid=1e448e26-eaf1-4855-a18e-9745d41a2975","ios":"levelo://app?vid=1e448e26-eaf1-4855-a18e-9745d41a2975"},"vehicle_type_id":"4","last_reported":1691471161,"current_range_meters":29200,"station_id":"ce4bh9p2rcd13ifvqec0","pricing_plan_id":"free"},{"bike_id":"7cb10e19-1cf6-4da7-bff5-392dbb163a0f","system_id":"levelo_inurba_marseille","lat":43.3165,"lon":5.40434,"is_reserved":false,"is_disabled":false,"rental_uris":{"android":"levelo://app?vid=7cb10e19-1cf6-4da7-bff5-392dbb163a0f","ios":"levelo://app?vid=7cb10e19-1cf6-4da7-bff5-392dbb163a0f"},"vehicle_type_id":"4","last_reported":1691471161,"current_range_meters":0,"station_id":"ce4bh012rcd13ifvqd00","pricing_plan_id":"free"},{"bike_id":"c7e983fb-690a-471b-b033-292c7e7289c8","system_id":"levelo_inurba_marseille","lat":43.316517,"lon":5.404375,"is_reserved":false,"is_disabled":false,"rental_uris":{"android":"levelo://app?vid=c7e983fb-690a-471b-b033-292c7e7289c8","ios":"levelo://app?vid=c7e983fb-690a-471b-b033-292c7e7289c8"},"vehicle_type_id":"4","last_reported":1691471161,"current_range_meters":16400,"station_id":"ce4bh012rcd13ifvqd00","pricing_plan_id":"free"},{"bike_id":"0238288f-0a11-4978-83ca-aa8bcde3e3f6","system_id":"levelo_inurba_marseille","lat":43.31638,"lon":5.40439,"is_reserved":false,"is_disabled":false,"rental_uris":{"android":"levelo://app?vid=0238288f-0a11-4978-83ca-aa8bcde3e3f6","ios":"levelo://app?vid=0238288f-0a11-4978-83ca-aa8bcde3e3f6"},"vehicle_type_id":"4","last_reported":1691471161,"current_range_meters":24800,"station_id":"ce4bh012rcd13ifvqd00","pricing_plan_id":"free"},{"bike_id":"93c542a7-0a44-4c60-9997-7ce8c089f8cd","system_id":"levelo_inurba_marseille","lat":43.31646,"lon":5.40438,"is_reserved":false,"is_disabled":false,"rental_uris":{"android":"levelo://app?vid=93c542a7-0a44-4c60-9997-7ce8c089f8cd","ios":"levelo://app?vid=93c542a7-0a44-4c60-9997-7ce8c089f8cd"},"vehicle_type_id":"4","last_reported":1691471161,"current_range_meters":22400,"station_id":"ce4bh012rcd13ifvqd00","pricing_plan_id":"free"},{"bike_id":"11327d1c-8937-422b-b963-0f9ddf721f1b","system_id":"levelo_inurba_marseille","lat":43.31641,"lon":5.40439,"is_reserved":false,"is_disabled":false,"rental_uris":{"android":"levelo://app?vid=11327d1c-8937-422b-b963-0f9ddf721f1b","ios":"levelo://app?vid=11327d1c-8937-422b-b963-0f9ddf721f1b"},"vehicle_type_id":"4","last_reported":1691471161,"current_range_meters":26800,"station_id":"ce4bh012rcd13ifvqd00","pricing_plan_id":"free"},{"bike_id":"e4d5e0f4-8b43-4dbb-9e45-199013ab1f56","system_id":"levelo_inurba_marseille","lat":43.31647,"lon":5.40439,"is_reserved":false,"is_disabled":false,"rental_uris":{"android":"levelo://app?vid=e4d5e0f4-8b43-4dbb-9e45-199013ab1f56","ios":"levelo://app?vid=e4d5e0f4-8b43-4dbb-9e45-199013ab1f56"},"vehicle_type_id":"4","last_reported":1691471161,"current_range_meters":1200,"station_id":"ce4bh012rcd13ifvqd00","pricing_plan_id":"free"},{"bike_id":"12a26d8e-285f-4a3b-b447-3229cf77c984","system_id":"levelo_inurba_marseille","lat":43.316517,"lon":5.404375,"is_reserved":false,"is_disabled":false,"rental_uris":{"android":"levelo://app?vid=12a26d8e-285f-4a3b-b447-3229cf77c984","ios":"levelo://app?vid=12a26d8e-285f-4a3b-b447-3229cf77c984"},"vehicle_type_id":"4","last_reported":1691471161,"current_range_meters":24800,"station_id":"ce4bh012rcd13ifvqd00","pricing_plan_id":"free"},{"bike_id":"9cb0404a-8c92-4c1c-93bf-5a34de694ef7","system_id":"levelo_inurba_marseille","lat":43.31647,"lon":5.4044,"is_reserved":false,"is_disabled":false,"rental_uris":{"android":"levelo://app?vid=9cb0404a-8c92-4c1c-93bf-5a34de694ef7","ios":"levelo://app?vid=9cb0404a-8c92-4c1c-93bf-5a34de694ef7"},"vehicle_type_id":"4","last_reported":1691471161,"current_range_meters":24000,"station_id":"ce4bh012rcd13ifvqd00","pricing_plan_id":"free"},{"bike_id":"31682d5c-fb13-465b-9f7f-1afd8203d238","system_id":"levelo_inurba_marseille","lat":43.31643,"lon":5.40441,"is_reserved":false,"is_disabled":false,"rental_uris":{"android":"levelo://app?vid=31682d5c-fb13-465b-9f7f-1afd8203d238","ios":"levelo://app?vid=31682d5c-fb13-465b-9f7f-1afd8203d238"},"vehicle_type_id":"4","last_reported":1691471161,"current_range_meters":29200,"station_id":"ce4bh012rcd13ifvqd00","pricing_plan_id":"free"},{"bike_id":"a2c32661-2c8b-4ac3-9625-e2734fe83214","system_id":"levelo_inurba_marseille","lat":43.316517,"lon":5.404375,"is_reserved":false,"is_disabled":false,"rental_uris":{"android":"levelo://app?vid=a2c32661-2c8b-4ac3-9625-e2734fe83214","ios":"levelo://app?vid=a2c32661-2c8b-4ac3-9625-e2734fe83214"},"vehicle_type_id":"4","last_reported":1691471161,"current_range_meters":27200,"station_id":"ce4bh012rcd13ifvqd00","pricing_plan_id":"free"},{"bike_id":"1c9629da-9ccf-4837-a3ca-23f730e9f6e8","system_id":"levelo_inurba_marseille","lat":43.291994,"lon":5.392907,"is_reserved":false,"is_disabled":false,"rental_uris":{"android":"levelo://app?vid=1c9629da-9ccf-4837-a3ca-23f730e9f6e8","ios":"levelo://app?vid=1c9629da-9ccf-4837-a3ca-23f730e9f6e8"},"vehicle_type_id":"4","last_reported":1691471161,"current_range_meters":25200,"station_id":"ce4bh192rcd13ifvqdd0","pricing_plan_id":"free"},{"bike_id":"c68fb962-9e33-4ee6-bed6-9e2d393740a5","system_id":"levelo_inurba_marseille","lat":43.284538,"lon":5.358657,"is_reserved":false,"is_disabled":false,"rental_uris":{"android":"levelo://app?vid=c68fb962-9e33-4ee6-bed6-9e2d393740a5","ios":"levelo://app?vid=c68fb962-9e33-4ee6-bed6-9e2d393740a5"},"vehicle_type_id":"4","last_reported":1691471161,"current_range_meters":21600,"station_id":"ce4bhah2rcd13ifvqei0","pricing_plan_id":"free"},{"bike_id":"6ec99c91-c6b4-4f00-9a14-9f96d26092fc","system_id":"levelo_inurba_marseille","lat":43.284538,"lon":5.358657,"is_reserved":false,"is_disabled":false,"rental_uris":{"android":"levelo://app?vid=6ec99c91-c6b4-4f00-9a14-9f96d26092fc","ios":"levelo://app?vid=6ec99c91-c6b4-4f00-9a14-9f96d26092fc"},"vehicle_type_id":"4","last_reported":1691471161,"current_range_meters":18400,"station_id":"ce4bhah2rcd13ifvqei0","pricing_plan_id":"free"},{"bike_id":"c4c0446e-3358-4757-b437-4bbf89b034e3","system_id":"levelo_inurba_marseille","lat":43.284534,"lon":5.358662,"is_reserved":false,"is_disabled":false,"rental_uris":{"android":"levelo://app?vid=c4c0446e-3358-4757-b437-4bbf89b034e3","ios":"levelo://app?vid=c4c0446e-3358-4757-b437-4bbf89b034e3"},"vehicle_type_id":"4","last_reported":1691471161,"current_range_meters":30400,"station_id":"ce4bhah2rcd13ifvqei0","pricing_plan_id":"free"},