{"last_updated":1751476219,"ttl":60,"version":"2.2","data":{"bikes":[{"bike_id":"3da29fb8-fc97-44c6-b9ac-31dd456b2fd4","system_id":"levelo_inurba_marseille","lat":43.33771,"lon":5.37424,"is_reserved":false,"is_disabled":true,"rental_uris":{"android":"levelo://app?vid=3da29fb8-fc97-44c6-b9ac-31dd456b2fd4","ios":"levelo://app?vid=3da29fb8-fc97-44c6-b9ac-31dd456b2fd4"},"vehicle_type_id":"4","last_reported":1751476219,"current_range_meters":0,"station_id":"","pricing_plan_id":"cebpf4jnsgd1na2vs0mg"},{"bike_id":"01861ad8-a8d7-4be6-816e-651927c87584","system_id":"levelo_inurba_marseille","lat":43.33751,"lon":5.37456,"is_reserved":false,"is_disabled":true,"rental_uris":{"android":"levelo://app?vid=01861ad8-a8d7-4be6-816e-651927c87584","ios":"levelo://app?vid=01861ad8-a8d7-4be6-816e-651927c87584"},"vehicle_type_id":"4","last_reported":1751476219,"current_range_meters":0,"station_id":"","pricing_plan_id":"cebpf4jnsgd1na2vs0mg"},{"bike_id":"88ba2eb8-6abc-42f0-a2b7-fafab863863b","system_id":"levelo_inurba_marseille","lat":43.26068,"lon":5.37365,"is_reserved":false,"is_disabled":true,"rental_uris":{"android":"levelo://app?vid=88ba2eb8-6abc-42f0-a2b7-fafab863863b","ios":"levelo://app?vid=88ba2eb8-6abc-42f0-a2b7-fafab863863b"},"vehicle_type_id":"4","last_reported":1751476219,"current_range_meters":0,"station_id":"","pricing_plan_id":"cebpf4jnsgd1na2vs0mg"},{"bike_id":"bdc85976-2539-4026-bf66-6688f252cd81","system_id":"levelo_inurba_marseille","lat":43.31327,"lon":5.39692,"is_reserved":false,"is_disabled":true,"rental_uris":{"android":"levelo://app?vid=bdc85976-2539-4026-bf66-6688f252cd81","ios":"levelo://app?vid=bdc85976-2539-4026-bf66-6688f252cd81"},"vehicle_type_id":"4","last_reported":1751476219,"current_range_meters":0,"station_id":"ce4bgvp2rcd13ifvqcu0","pricing_plan_id":"cebpf4jnsgd1na2vs0mg"},{"bike_id":"3d578716-3c17-4a6e-8231-a20bb4c7a8e6","system_id":"levelo_inurba_marseille","lat":43.29104,"lon":5.38118,"is_reserved":false,"is_disabled":true,"rental_uris":{"android":"levelo://app?vid=3d578716-3c17-4a6e-8231-a20bb4c7a8e6","ios":"levelo://app?vid=3d578716-3c17-4a6e-8231-a20bb4c7a8e6"},"vehicle_type_id":"4","last_reported":1751476219,"current_range_meters":0,"station_id":"ce4bh512rcd13ifvqe2g","pricing_plan_id":"cebpf4jnsgd1na2vs0mg"},{"bike_id":"e2be6f64-4193-44d9-af8c-3ca2b9597cf6","system_id":"levelo_inurba_marseille","lat":43.26217,"lon":5.37444,"is_reserved":false,"is_disabled":true,"rental_uris":{"android":"levelo://app?vid=e2be6f64-4193-44d9-af8c-3ca2b9597cf6","ios":"levelo://app?vid=e2be6f64-4193-44d9-af8c-3ca2b9597cf6"},"vehicle_type_id":"4","last_reported":1751476219,"current_range_meters":0,"station_id":"ce4bhgp2rcd13ifvqfc0","pricing_plan_id":"cebpf4jnsgd1na2vs0mg"},{"bike_id":"197f4b54-c200-4473-a653-f007d8c10c3f","system_id":"levelo_inurba_marseille","lat":43.25497,"lon":5.37662,"is_reserved":false,"is_disabled":true,"rental_uris":{"android":"levelo://app?vid=197f4b54-c200-4473-a653-f007d8c10c3f","ios":"levelo://app?vid=197f4b54-c200-4473-a653-f007d8c10c3f"},"vehicle_type_id":"4","last_reported":1751476219,"current_range_meters":0,"station_id":"ce4bhh12rcd13ifvqff0","pricing_plan_id":"cebpf4jnsgd1na2vs0mg"},{"bike_id":"5600eaac-0272-4cb8-bed8-6ff327ed7bed","system_id":"levelo_inurba_marseille","lat":43.243635,"lon":5.370237,"is_reserved":false,"is_disabled":true,"rental_uris":{"android":"levelo://app?vid=5600eaac-0272-4cb8-bed8-6ff327ed7bed","ios":"levelo://app?vid=5600eaac-0272-4cb8-bed8-6ff327ed7bed"},"vehicle_type_id":"4","last_reported":1751476219,"current_range_meters":0,"station_id":"ce4bhh12rcd13ifvqff0","pricing_plan_id":"cebpf4jnsgd1na2vs0mg"},{"bike_id":"5ccbfb32-9c60-42aa-bc7c-eb264075388b","system_id":"levelo_inurba_marseille","lat":43.26956,"lon":5.38638,"is_reserved":false,"is_disabled":true,"rental_uris":{"android":"levelo://app?vid=5ccbfb32-9c60-42aa-bc7c-eb264075388b","ios":"levelo://app?vid=5ccbfb32-9c60-42aa-bc7c-eb264075388b"},"vehicle_type_id":"4","last_reported":1751476219,"current_range_meters":0,"station_id":"ce4bhh92rcd13ifvqfh0","pricing_plan_id":"cebpf4jnsgd1na2vs0mg"},{"bike_id":"a6cc733e-d92a-48d8-b906-3ea68be4ec55","system_id":"levelo_inurba_marseille","lat":43.2439,"lon":5.37064,"is_reserved":false,"is_disabled":true,"rental_uris":{"android":"levelo://app?vid=a6cc733e-d92a-48d8-b906-3ea68be4ec55","ios":"levelo://app?vid=a6cc733e-d92a-48d8-b906-3ea68be4ec55"},"vehicle_type_id":"4","last_reported":1751476219,"current_range_meters":0,"station_id":"ce4bhhh2rcd13ifvqfk0","pricing_plan_id":"cebpf4jnsgd1na2vs0mg"},{"bike_id":"94e1c86a-8784-40e2-a9cd-6ff15882ff44","system_id":"levelo_inurba_marseille","lat":43.24664,"lon":5.3816,"is_reserved":false,"is_disabled":true,"rental_uris":{"android":"levelo://app?vid=94e1c86a-8784-40e2-a9cd-6ff15882ff44","ios":"levelo://app?vid=94e1c86a-8784-40e2-a9cd-6ff15882ff44"},"vehicle_type_id":"4","last_reported":1751476219,"current_range_meters":0,"station_id":"ce4bhih2rcd13ifvqfr0","pricing_plan_id":"cebpf4jnsgd1na2vs0mg"},{"bike_id":"9d10add3-09ca-4558-8d50-39a1e2293cba","system_id":"levelo_inurba_marseille","lat":43.278103,"lon":5.407114,"is_reserved":false,"is_disabled":true,"rental_uris":{"android":"levelo://app?vid=9d10add3-09ca-4558-8d50-39a1e2293cba","ios":"levelo://app?vid=9d10add3-09ca-4558-8d50-39a1e2293cba"},"vehicle_type_id":"4","last_reported":1751476219,"current_range_meters":0,"station_id":"ce4bhnh2rcd13ifvqgtg","pricing_plan_id":"cebpf4jnsgd1na2vs0mg"},{"bike_id":"be4771a0-f822-40f0-a95c-2aaca1d3fb3c","system_id":"levelo_inurba_marseille","lat":43.21751,"lon":5.34598,"is_reserved":false,"is_disabled":true,"rental_uris":{"android":"levelo://app?vid=be4771a0-f822-40f0-a95c-2aaca1d3fb3c","ios":"levelo://app?vid=be4771a0-f822-40f0-a95c-2aaca1d3fb3c"},"vehicle_type_id":"4","last_reported":1751476219,"current_range_meters":0,"station_id":"st_cvj6r9ubvosntc0bgbag","pricing_plan_id":"cebpf4jnsgd1na2vs0mg"},{"bike_id":"e80afa4e-166a-4e06-93e4-e4b8e3bcd0b4","system_id":"levelo_inurba_marseille","lat":43.29522,"lon":5.37511,"is_reserved":false,"is_disabled":true,"rental_uris":{"android":"levelo://app?vid=e80afa4e-166a-4e06-93e4-e4b8e3bcd0b4","ios":"levelo://app?vid=e80afa4e-166a-4e06-93e4-e4b8e3bcd0b4"},"vehicle_type_id":"4","last_reported":1751476219,"current_range_meters":400,"station_id":"ce4bgkp2rcd13ifvqbmg","pricing_plan_id":"cebpf4jnsgd1na2vs0mg"},{"bike_id":"8e0e0594-90ae-4a0e-994d-de08264820fc","system_id":"levelo_inurba_marseille","lat":43.29536,"lon":5.38546,"is_reserved":false,"is_disabled":true,"rental_uris":{"android":"levelo://app?vid=8e0e0594-90ae-4a0e-994d-de08264820fc","ios":"levelo://app?vid=8e0e0594-90ae-4a0e-994d-de08264820fc"},"vehicle_type_id":"4","last_reported":1751476219,"current_range_meters":800,"station_id":"ce4bgih2rcd13ifvqba0","pricing_plan_id":"cebpf4jnsgd1na2vs0mg"},{"bike_id":"42a61ef9-a211-43d1-9502-b35d23d4b956","system_id":"levelo_inurba_marseille","lat":43.30432,"lon":5.38884,"is_reserved":false,"is_disabled":true,"rental_uris":{"android":"levelo://app?vid=42a61ef9-a211-43d1-9502-b35d23d4b956","ios":"levelo://app?vid=42a61ef9-a211-43d1-9502-b35d23d4b956"},"vehicle_type_id":"4","last_reported":1751476219,"current_range_meters":800,"station_id":"ce4bgk12rcd13ifvqbi0","pricing_plan_id":"cebpf4jnsgd1na2vs0mg"},{"bike_id":"2686bc05-c252-4f5c-97ce-74354fbc2ed5","system_id":"levelo_inurba_marseille","lat":43.30303,"lon":5.39202,"is_reserved":false,"is_disabled":false,"rental_uris":{"android":"levelo://app?vid=2686bc05-c252-4f5c-97ce-74354fbc2ed5","ios":"levelo://app?vid=2686bc05-c252-4f5c-97ce-74354fbc2ed5"},"vehicle_type_id":"4","last_reported":1751476219,"current_range_meters":800,"station_id":"ce4bgkh2rcd13ifvqbk0","pricing_plan_id":"cebpf4jnsgd1na2vs0mg"},{"bike_id":"d6896d33-feae-45d1-9ecb-7f00cb286b5b","system_id":"levelo_inurba_marseille","lat":43.292487,"lon":5.40898,"is_reserved":false,"is_disabled":true,"rental_uris":{"android":"levelo://app?vid=d6896d33-feae-45d1-9ecb-7f00cb286b5b","ios":"levelo://app?vid=d6896d33-feae-45d1-9ecb-7f00cb286b5b"},"vehicle_type_id":"4","last_reported":1751476219,"current_range_meters":800,"station_id":"ce4bh192rcd13ifvqdc0","pricing_plan_id":"cebpf4jnsgd1na2vs0mg"},{"bike_id":"f2c3f3c0-fdb8-4452-8502-65e4855f0cc7","system_id":"levelo_inurba_marseille","lat":43.29197,"lon":5.35802,"is_reserved":false,"is_disabled":true,"rental_uris":{"android":"levelo://app?vid=f2c3f3c0-fdb8-4452-8502-65e4855f0cc7","ios":"levelo://app?vid=f2c3f3c0-fdb8-4452-8502-65e4855f0cc7"},"vehicle_type_id":"4","last_reported":1751476219,"current_range_meters":800,"station_id":"ce4bhb12rcd13ifvqel0","pricing_plan_id":"cebpf4jnsgd1na2vs0mg"},{"bike_id":"2669bc96-ad96-4ca1-88ce-b8dba4f032bc","system_id":"levelo_inurba_marseille","lat":43.29973,"lon":5.3718,"is_reserved":false,"is_disabled":true,"rental_uris":{"android":"levelo://app?vid=2669bc96-ad96-4ca1-88ce-b8dba4f032bc","ios":"levelo://app?vid=2669bc96-ad96-4ca1-88ce-b8dba4f032bc"},"vehicle_type_id":"4","last_reported":1751476219,"current_range_meters":1200,"station_id":"ce4bgr92rcd13ifvqc7g","pricing_plan_id":"cebpf4jnsgd1na2vs0mg"},{"bike_id":"903f9470-ab34-4334-a763-be4df836a2fb","system_id":"levelo_inurba_marseille","lat":43.31688,"lon":5.40472,"is_reserved":false,"is_disabled":true,"rental_uris":{"android":"levelo://app?vid=903f9470-ab34-4334-a763-be4df836a2fb","ios":"levelo://app?vid=903f9470-ab34-4334-a763-be4df836a2fb"},"vehicle_type_id":"4","last_reported":1751476219,"current_range_meters":1200,"station_id":"ce4bh012rcd13ifvqd00","pricing_plan_id":"cebpf4jnsgd1na2vs0mg"},{"bike_id":"96079538-1c21-43af-abe5-097ade7d18c9","system_id":"levelo_inurba_marseille","lat":43.2417,"lon":5.36395,"is_reserved":false,"is_disabled":true,"rental_uris":{"android":"levelo://app?vid=96079538-1c21-43af-abe5-097ade7d18c9","ios":"levelo://app?vid=96079538-1c21-43af-abe5-097ade7d18c9"},"vehicle_type_id":"4","last_reported":1751476219,"current_range_meters":1200,"station_id":"cpo36qri1sfpv3e86is0","pricing_plan_id":"cebpf4jnsgd1na2vs0mg"},{"bike_id":"4d6ef46a-e7f5-422e-950e-ca2f20c05ef9","system_id":"levelo_inurba_marseille","lat":43.3122,"lon":5.36846,"is_reserved":false,"is_disabled":true,"rental_uris":{"android":"levelo://app?vid=4d6ef46a-e7f5-422e-950e-ca2f20c05ef9","ios":"levelo://app?vid=4d6ef46a-e7f5-422e-950e-ca2f20c05ef9"},"vehicle_type_id":"4","last_reported":1751476219,"current_range_meters":1600,"station_id":"ce4bgl92rcd13ifvqbq0","pricing_plan_id":"cebpf4jnsgd1na2vs0mg"},{"bike_id":"1d14f4cd-08b1-492d-b9ec-2138f62ef8b0","system_id":"levelo_inurba_marseille","lat":43.298985,"lon":5.436502,"is_reserved":false,"is_disabled":true,"rental_uris":{"android":"levelo://app?vid=1d14f4cd-08b1-492d-b9ec-2138f62ef8b0","ios":"levelo://app?vid=1d14f4cd-08b1-492d-b9ec-2138f62ef8b0"},"vehicle_type_id":"4","last_reported":1751476219,"current_range_meters":1600,"station_id":"ce4bhpp2rcd13ifvqhfg","pricing_plan_id":"cebpf4jnsgd1na2vs0mg"},{"bike_id":"bccc1c69-2740-45d0-9f10-bbe2dfbd7a00","system_id":"levelo_inurba_marseille","lat":43.27618,"lon":5.36097,"is_reserved":false,"is_disabled":true,"rental_uris":{"android":"levelo://app?vid=bccc1c69-2740-45d0-9f10-bbe2dfbd7a00","ios":"levelo://app?vid=bccc1c69-2740-45d0-9f10-bbe2dfbd7a00"},"vehicle_type_id":"4","last_reported":1751476219,"current_range_meters":2000,"station_id":"ce4bgj92rcd13ifvqbe0","pricing_plan_id":"cebpf4jnsgd1na2vs0mg"},{"bike_id":"29c732a9-973d-412b-9873-e7bcdc373b45","system_id":"levelo_inurba_marseille","lat":43.29326,"lon":5.38573,"is_reserved":false,"is_disabled":true,"rental_uris":{"android":"levelo://app?vid=29c732a9-973d-412b-9873-e7bcdc373b45","ios":"levelo://app?vid=29c732a9-973d-412b-9873-e7bcdc373b45"},"vehicle_type_id":"4","last_reported":1751476219,"current_range_meters":2000,"station_id":"ce4bh692rcd13ifvqea0","pricing_plan_id":"cebpf4jnsgd1na2vs0mg"},{"bike_id":"61f7dba4-50a8-404e-ac60-05ab37771968","system_id":"levelo_inurba_marseille","lat":43.24173,"lon":5.39726,"is_reserved":false,"is_disabled":true,"rental_uris":{"android":"levelo://app?vid=61f7dba4-50a8-404e-ac60-05ab37771968","ios":"levelo://app?vid=61f7dba4-50a8-404e-ac60-05ab37771968"},"vehicle_type_id":"4","last_reported":1751476219,"current_range_meters":2000,"station_id":"ce4bhn12rcd13ifvqgpg","pricing_plan_id":"cebpf4jnsgd1na2vs0mg"},{"bike_id":"4ede4f0e-6bf9-484f-94f6-60d48dd41b70","system_id":"levelo_inurba_marseille","lat":43.28938,"lon":5.38386,"is_reserved":false,"is_disabled":false,"rental_uris":{"android":"levelo://app?vid=4ede4f0e-6bf9-484f-94f6-60d48dd41b70","ios":"levelo://app?vid=4ede4f0e-6bf9-484f-94f6-60d48dd41b70"},"vehicle_type_id":"4","last_reported":1751476219,"current_range_meters":2800,"station_id":"ce4bh612rcd13ifvqe6g","pricing_plan_id":"cebpf4jnsgd1na2vs0mg"},{"bike_id":"8f2c714e-b9eb-42c1-a006-d201af33b95d","system_id":"levelo_inurba_marseille","lat":43.30423,"lon":5.41284,"is_reserved":false,"is_disabled":false,"rental_uris":{"android":"levelo://app?vid=8f2c714e-b9eb-42c1-a006-d201af33b95d","ios":"levelo://app?vid=8f2c714e-b9eb-42c1-a006-d201af33b95d"},"vehicle_type_id":"4","last_reported":1751476219,"current_range_meters":2800,"station_id":"ce4bhop2rcd13ifvqh8g","pricing_plan_id":"cebpf4jnsgd1na2vs0mg"},{"bike_id":"1bf6f0fc-44a0-452f-aa52-1865ef6f528c","system_id":"levelo_inurba_marseille","lat":43.23197,"lon":5.35563,"is_reserved":false,"is_disabled":false,"rental_uris":{"android":"levelo://app?vid=1bf6f0fc-44a0-452f-aa52-1865ef6f528c","ios":"levelo://app?vid=1bf6f0fc-44a0-452f-aa52-1865ef6f528c"},"vehicle_type_id":"4","last_reported":1751476219,"current_range_meters":2800,"station_id":"ce4bhu92rcd13ifvqi70","pricing_plan_id":"cebpf4jnsgd1na2vs0mg"},{"bike_id":"b61b3731-f27d-44bb-9523-99cf42afd8a2","system_id":"levelo_inurba_marseille","lat":43.24162,"lon":5.36407,"is_reserved":false,"is_disabled":false,"rental_uris":{"android":"levelo://app?vid=b61b3731-f27d-44bb-9523-99cf42afd8a2","ios":"levelo://app?vid=b61b3731-f27d-44bb-9523-99cf42afd8a2"},"vehicle_type_id":"4","last_reported":1751476219,"current_range_meters":2800,"station_id":"cpo36qri1sfpv3e86is0","pricing_plan_id":"cebpf4jnsgd1na2vs0mg"},{"bike_id":"9ec257b3-2024-4322-b5e3-f614e1476eec","system_id":"levelo_inurba_marseille","lat":43.31711,"lon":5.37739,"is_reserved":false,"is_disabled":false,"rental_uris":{"android":"levelo://app?vid=9ec257b3-2024-4322-b5e3-f614e1476eec","ios":"levelo://app?vid=9ec257b3-2024-4322-b5e3-f614e1476eec"},"vehicle_type_id":"4","last_reported":1751476219,"current_range_meters":3200,"station_id":"ce4bgth2rcd13ifvqch0","pricing_plan_id":"cebpf4jnsgd1na2vs0mg"},{"bike_id":"be01b5f3-cff6-41c5-8547-f44aa651bbf5","system_id":"levelo_inurba_marseille","lat":43.30214,"lon":5.39464,"is_reserved":false,"is_disabled":false,"rental_uris":{"android":"levelo://app?vid=be01b5f3-cff6-41c5-8547-f44aa651bbf5","ios":"levelo://app?vid=be01b5f3-cff6-41c5-8547-f44aa651bbf5"},"vehicle_type_id":"4","last_reported":1751476219,"current_range_meters":3200,"station_id":"ce4bh0p2rcd13ifvqd70","pricing_plan_id":"cebpf4jnsgd1na2vs0mg"},{"bike_id":"1d4f0916-f80f-4a13-9ea3-fdbc12ac8d04","system_id":"levelo_inurba_marseille","lat":43.29833,"lon":5.38317,"is_reserved":false,"is_disabled":false,"rental_uris":{"android":"levelo://app?vid=1d4f0916-f80f-4a13-9ea3-fdbc12ac8d04","ios":"levelo://app?vid=1d4f0916-f80f-4a13-9ea3-fdbc12ac8d04"},"vehicle_type_id":"4","last_reported":1751476219,"current_range_meters":3600,"station_id":"","pricing_plan_id":"cebpf4jnsgd1na2vs0mg"},{"bike_id":"7ba85485-d37c-4b28-afde-496d8e7587e4","system_id":"levelo_inurba_marseille","lat":43.30132,"lon":5.39854,"is_reserved":false,"is_disabled":false,"rental_uris":{"android":"levelo://app?vid=7ba85485-d37c-4b28-afde-496d8e7587e4","ios":"levelo://app?vid=7ba85485-d37c-4b28-afde-496d8e7587e4"},"vehicle_type_id":"4","last_reported":1751476219,"current_range_meters":3600,"station_id":"ce4bh0h2rcd13ifvqd40","pricing_plan_id":"cebpf4jnsgd1na2vs0mg"},{"bike_id":"ecd405bf-baad-4ba5-8b77-41ea9a284ca1","system_id":"levelo_inurba_marseille","lat":43.2808,"lon":5.39664,"is_reserved":false,"is_disabled":false,"rental_uris":{"android":"levelo://app?vid=ecd405bf-baad-4ba5-8b77-41ea9a284ca1","ios":"levelo://app?vid=ecd405bf-baad-4ba5-8b77-41ea9a284ca1"},"vehicle_type_id":"4","last_reported":1751476219,"current_range_meters":3600,"station_id":"ce4bho12rcd13ifvqh2g","pricing_plan_id":"cebpf4jnsgd1na2vs0mg"},{"bike_id":"35716d42-1909-4848-80ca-c8c09b16db6f","system_id":"levelo_inurba_marseille","lat":43.30737,"lon":5.42451,"is_reserved":false,"is_disabled":false,"rental_uris":{"android":"levelo://app?vid=35716d42-1909-4848-80ca-c8c09b16db6f","ios":"levelo://app?vid=35716d42-1909-4848-80ca-c8c09b16db6f"},"vehicle_type_id":"4","last_reported":1751476219,"current_range_meters":3600,"station_id":"st_cvj6ca6bvosntc0bfgr0","pricing_plan_id":"cebpf4jnsgd1na2vs0mg"},{"bike_id":"8252b44a-d048-4379-9209-2efa2e627825","system_id":"levelo_inurba_marseille","lat":43.2924,"lon":5.40574,"is_reserved":false,"is_disabled":false,"rental_uris":{"android":"levelo://app?vid=8252b44a-d048-4379-9209-2efa2e627825","ios":"levelo://app?vid=8252b44a-d048-4379-9209-2efa2e627825"},"vehicle_type_id":"4","last_reported":1751476219,"current_range_meters":4000,"station_id":"","pricing_plan_id":"cebpf4jnsgd1na2vs0mg"},{"bike_id":"8e365e3c-559a-4ba6-a6c5-4c159e2434fc","system_id":"levelo_inurba_marseille","lat":43.21737,"lon":5.34605,"is_reserved":false,"is_disabled":false,"rental_uris":{"android":"levelo://app?vid=8e365e3c-559a-4ba6-a6c5-4c159e2434fc","ios":"levelo://app?vid=8e365e3c-559a-4ba6-a6c5-4c159e2434fc"},"vehicle_type_id":"4","last_reported":1751476219,"current_range_meters":4000,"station_id":"","pricing_plan_id":"cebpf4jnsgd1na2vs0mg"},{"bike_id":"52614c62-5a34-40bb-886c-684d5f87eef5","system_id":"levelo_inurba_marseille","lat":43.31221,"lon":5.36858,"is_reserved":false,"is_disabled":false,"rental_uris":{"android":"levelo://app?vid=52614c62-5a34-40bb-886c-684d5f87eef5","ios":"levelo://app?vid=52614c62-5a34-40bb-886c-684d5f87eef5"},"vehicle_type_id":"4","last_reported":1751476219,"current_range_meters":4000,"station_id":"ce4bgl92rcd13ifvqbq0","pricing_plan_id":"cebpf4jnsgd1na2vs0mg"},{"bike_id":"a3529966-7571-4967-89b5-b27a186b29f9","system_id":"levelo_inurba_marseille","lat":43.2984,"lon":5.36264,"is_reserved":false,"is_disabled":false,"rental_uris":{"android":"levelo://app?vid=a3529966-7571-4967-89b5-b27a186b29f9","ios":"levelo://app?vid=a3529966-7571-4967-89b5-b27a186b29f9"},"vehicle_type_id":"4","last_reported":1751476219,"current_range_meters":4400,"station_id":"ce4bgpp2rcd13ifvqc3g","pricing_plan_id":"cebpf4jnsgd1na2vs0mg"},{"bike_id":"77bda539-6f94-4f68-988a-bbee5eb48030","system_id":"levelo_inurba_marseille","lat":43.28855,"lon":5.35839,"is_reserved":false,"is_disabled":false,"rental_uris":{"android":"levelo://app?vid=77bda539-6f94-4f68-988a-bbee5eb48030","ios":"levelo://app?vid=77bda539-6f94-4f68-988a-bbee5eb48030"},"vehicle_type_id":"4","last_reported":1751476219,"current_range_meters":4400,"station_id":"ce4bhb12rcd13ifvqem0","pricing_plan_id":"cebpf4jnsgd1na2vs0mg"},{"bike_id":"930c9ee1-7d30-491b-9e28-be66d74acf70","system_id":"levelo_inurba_marseille","lat":43.28287,"lon":5.35064,"is_reserved":false,"is_disabled":false,"rental_uris":{"android":"levelo://app?vid=930c9ee1-7d30-491b-9e28-be66d74acf70","ios":"levelo://app?vid=930c9ee1-7d30-491b-9e28-be66d74acf70"},"vehicle_type_id":"4","last_reported":1751476219,"current_range_meters":5600,"station_id":"ce4bhbp2rcd13ifvqerg","pricing_plan_id":"cebpf4jnsgd1na2vs0mg"},{"bike_id":"48e5e880-f96a-4939-bcfd-ecb988200148","system_id":"levelo_inurba_marseille","lat":43.28443,"lon":5.39206,"is_reserved":false,"is_disabled":false,"rental_uris":{"android":"levelo://app?vid=48e5e880-f96a-4939-bcfd-ecb988200148","ios":"levelo://app?vid=48e5e880-f96a-4939-bcfd-ecb988200148"},"vehicle_type_id":"4","last_reported":1751476219,"current_range_meters":5600,"station_id":"ce4bhoh2rcd13ifvqh5g","pricing_plan_id":"cebpf4jnsgd1na2vs0mg"},{"bike_id":"6e5b5a4d-1ee5-4068-9613-fb44ab4d8a9a","system_id":"levelo_inurba_marseille","lat":43.35025,"lon":5.35053,"is_reserved":false,"is_disabled":false,"rental_uris":{"android":"levelo://app?vid=6e5b5a4d-1ee5-4068-9613-fb44ab4d8a9a","ios":"levelo://app?vid=6e5b5a4d-1ee5-4068-9613-fb44ab4d8a9a"},"vehicle_type_id":"4","last_reported":1751476219,"current_range_meters":6000,"station_id":"","pricing_plan_id":"cebpf4jnsgd1na2vs0mg"},{"bike_id":"e18a9d0e-f885-43f5-890f-9e8f6851e143","system_id":"levelo_inurba_marseille","lat":43.29185,"lon":5.35796,"is_reserved":false,"is_disabled":false,"rental_uris":{"android":"levelo://app?vid=e18a9d0e-f885-43f5-890f-9e8f6851e143","ios":"levelo://app?vid=e18a9d0e-f885-43f5-890f-9e8f6851e143"},"vehicle_type_id":"4","last_reported":1751476219,"current_range_meters":6000,"station_id":"ce4bhb12rcd13ifvqel0","pricing_plan_id":"cebpf4jnsgd1na2vs0mg"},{"bike_id":"7de7c2c8-df6b-43fa-b263-6c016dae4134","system_id":"levelo_inurba_marseille","lat":43.278108,"lon":5.414435,"is_reserved":false,"is_disabled":false,"rental_uris":{"android":"levelo://app?vid=7de7c2c8-df6b-43fa-b263-6c016dae4134","ios":"levelo://app?vid=7de7c2c8-df6b-43fa-b263-6c016dae4134"},"vehicle_type_id":"4","last_reported":1751476219,"current_range_meters":6400,"station_id":"","pricing_plan_id":"cebpf4jnsgd1na2vs0mg"},{"bike_id":"2c1afb66-391a-4ee7-bac6-78dede0080c1","system_id":"levelo_inurba_marseille","lat":43.29932,"lon":5.36545,"is_reserved":false,"is_disabled":false,"rental_uris":{"android":"levelo://app?vid=2c1afb66-391a-4ee7-bac6-78dede0080c1","ios":"levelo://app?vid=2c1afb66-391a-4ee7-bac6-78dede0080c1"},"vehicle_type_id":"4","last_reported":1751476219,"current_range_meters":6400,"station_id":"ce4bgm92rcd13ifvqbr0","pricing_plan_id":"cebpf4jnsgd1na2vs0mg"},{"bike_id":"4d838b54-e4e2-4720-9b7f-adf81298c822","system_id":"levelo_inurba_marseille","lat":43.290966,"lon":5.381325,"is_reserved":false,"is_disabled":false,"rental_uris":{"android":"levelo://app?vid=4d838b54-e4e2-4720-9b7f-adf81298c822","ios":"levelo://app?vid=4d838b54-e4e2-4720-9b7f-adf81298c822"},"vehicle_type_id":"4","last_reported":1751476219,"current_range_meters":6400,"station_id":"ce4bh0h2rcd13ifvqd40","pricing_plan_id":"cebpf4jnsgd1na2vs0mg"},{"bike_id":"c82368b8-b454-4508-b735-418d44ca2749","system_id":"levelo_inurba_marseille","lat":43.24809,"lon":5.3746,"is_reserved":false,"is_disabled":false,"rental_uris":{"android":"levelo://app?vid=c82368b8-b454-4508-b735-418d44ca2749","ios":"levelo://app?vid=c82368b8-b454-4508-b735-418d44ca2749"},"vehicle_type_id":"4","last_reported":1751476219,"current_range_meters":6400,"station_id":"ce4bhgh2rcd13ifvqfb0","pricing_plan_id":"cebpf4jnsgd1na2vs0mg"},{"bike_id":"8c02a8f8-f796-44d4-ace6-1f787d02cf02","system_id":"levelo_inurba_marseille","lat":43.29311,"lon":5.37179,"is_reserved":false,"is_disabled":false,"rental_uris":{"android":"levelo://app?vid=8c02a8f8-f796-44d4-ace6-1f787d02cf02","ios":"levelo://app?vid=8c02a8f8-f796-44d4-ace6-1f787d02cf02"},"vehicle_type_id":"4","last_reported":1751476219,"current_range_meters":7200,"station_id":"ce4bgh92rcd13ifvqb40","pricing_plan_id":"cebpf4jnsgd1na2vs0mg"},{"bike_id":"02d6a4b5-2ef7-4f5d-bee2-57c3d1d0055b","system_id":"levelo_inurba_marseille","lat":43.29002,"lon":5.35608,"is_reserved":false,"is_disabled":false,"rental_uris":{"android":"levelo://app?vid=02d6a4b5-2ef7-4f5d-bee2-57c3d1d0055b","ios":"levelo://app?vid=02d6a4b5-2ef7-4f5d-bee2-57c3d1d0055b"},"vehicle_type_id":"4","last_reported":1751476219,"current_range_meters":7200,"station_id":"ce4bhb92rcd13ifvqen0","pricing_plan_id":"cebpf4jnsgd1na2vs0mg"},{"bike_id":"c2b72fe0-bae6-4c7b-ad48-9e771b203dc8","system_id":"levelo_inurba_marseille","lat":43.313518,"lon":5.384719,"is_reserved":false,"is_disabled":false,"rental_uris":{"android":"levelo://app?vid=c2b72fe0-bae6-4c7b-ad48-9e771b203dc8","ios":"levelo://app?vid=c2b72fe0-bae6-4c7b-ad48-9e771b203dc8"},"vehicle_type_id":"4","last_reported":1751476219,"current_range_meters":8000,"station_id":"ce4bgt92rcd13ifvqcf0","pricing_plan_id":"cebpf4jnsgd1na2vs0mg"},{"bike_id":"885c44ef-d6e3-469b-b6f6-d3a4970863d3","system_id":"levelo_inurba_marseille","lat":43.289048,"lon":5.361867,"is_reserved":false,"is_disabled":false,"rental_uris":{"android":"levelo://app?vid=885c44ef-d6e3-469b-b6f6-d3a4970863d3","ios":"levelo://app?vid=885c44ef-d6e3-469b-b6f6-d3a4970863d3"},"vehicle_type_id":"4","last_reported":1751476219,"current_range_meters":8400,"station_id":"ce4bhb92rcd13ifvqen0","pricing_plan_id":"cebpf4jnsgd1na2vs0mg"},{"bike_id":"cb7bdf61-a690-473c-939e-8b1fb2bc0e03","system_id":"levelo_inurba_marseille","lat":43.24171,"lon":5.36398,"is_reserved":false,"is_disabled":false,"rental_uris":{"android":"levelo://app?vid=cb7bdf61-a690-473c-939e-8b1fb2bc0e03","ios":"levelo://app?vid=cb7bdf61-a690-473c-939e-8b1fb2bc0e03"},"vehicle_type_id":"4","last_reported":1751476219,"current_range_meters":8400,"station_id":"cpo36qri1sfpv3e86is0","pricing_plan_id":"cebpf4jnsgd1na2vs0mg"},{"bike_id":"9610e57b-e24c-4c16-838c-092b893b30dc","system_id":"levelo_inurba_marseille","lat":43.217527,"lon":5.345955,"is_reserved":false,"is_disabled":false,"rental_uris":{"android":"levelo://app?vid=9610e57b-e24c-4c16-838c-092b893b30dc","ios":"levelo://app?vid=9610e57b-e24c-4c16-838c-092b893b30dc"},"vehicle_type_id":"4","last_reported":1751476219,"current_range_meters":8400,"station_id":"st_cvj6r9ubvosntc0bgbag","pricing_plan_id":"cebpf4jnsgd1na2vs0mg"},{"bike_id":"882d61d0-48d1-4ff4-9aff-3992f661b3a5","system_id":"levelo_inurba_marseille","lat":43.2846,"lon":5.35895,"is_reserved":false,"is_disabled":false,"rental_uris":{"android":"levelo://app?vid=882d61d0-48d1-4ff4-9aff-3992f661b3a5","ios":"levelo://app?vid=882d61d0-48d1-4ff4-9aff-3992f661b3a5"},"vehicle_type_id":"4","last_reported":1751476219,"current_range_meters":8800,"station_id":"ce4bhah2rcd13ifvqei0","pricing_plan_id":"cebpf4jnsgd1na2vs0mg"},{"bike_id":"2e8ec81c-177e-40de-82b2-974196d6c500","system_id":"levelo_inurba_marseille","lat":43.278661,"lon":5.380529,"is_reserved":false,"is_disabled":false,"rental_uris":{"android":"levelo://app?vid=2e8ec81c-177e-40de-82b2-974196d6c500","ios":"levelo://app?vid=2e8ec81c-177e-40de-82b2-974196d6c500"},"vehicle_type_id":"4","last_reported":1751476219,"current_range_meters":9200,"station_id":"","pricing_plan_id":"cebpf4jnsgd1na2vs0mg"},{"bike_id":"f2b14e7f-c371-4821-a5f1-fc093de5f86d","system_id":"levelo_inurba_marseille","lat":43.28859,"lon":5.35852,"is_reserved":false,"is_disabled":false,"rental_uris":{"android":"levelo://app?vid=f2b14e7f-c371-4821-a5f1-fc093de5f86d","ios":"levelo://app?vid=f2b14e7f-c371-4821-a5f1-fc093de5f86d"},"vehicle_type_id":"4","last_reported":1751476219,"current_range_meters":9200,"station_id":"ce4bhb12rcd13ifvqem0","pricing_plan_id":"cebpf4jnsgd1na2vs0mg"},{"bike_id":"ede12c1a-31f9-4bf6-abc2-172926b8839d","system_id":"levelo_inurba_marseille","lat":43.32483,"lon":5.36566,"is_reserved":false,"is_disabled":false,"rental_uris":{"android":"levelo://app?vid=ede12c1a-31f9-4bf6-abc2-172926b8839d","ios":"levelo://app?vid=ede12c1a-31f9-4bf6-abc2-172926b8839d"},"vehicle_type_id":"4","last_reported":1751476219,"current_range_meters":9200,"station_id":"ce4bhs12rcd13ifvqhvg","pricing_plan_id":"cebpf4jnsgd1na2vs0mg"},{"bike_id":"70f856ab-2c64-4f89-8162-9096b8316b9f","system_id":"levelo_inurba_marseille","lat":43.24168,"lon":5.36393,"is_reserved":false,"is_disabled":false,"rental_uris":{"android":"levelo://app?vid=70f856ab-2c64-4f89-8162-9096b8316b9f","ios":"levelo://app?vid=70f856ab-2c64-4f89-8162-9096b8316b9f"},"vehicle_type_id":"4","last_reported":1751476219,"current_range_meters":9200,"station_id":"cpo36qri1sfpv3e86is0","pricing_plan_id":"cebpf4jnsgd1na2vs0mg"},{"bike_id":"c61036a9-1a66-4480-8bd4-cd2fb585b287","system_id":"levelo_inurba_marseille","lat":43.26965,"lon":5.40518,"is_reserved":false,"is_disabled":false,"rental_uris":{"android":"levelo://app?vid=c61036a9-1a66-4480-8bd4-cd2fb585b287","ios":"levelo://app?vid=c61036a9-1a66-4480-8bd4-cd2fb585b287"},"vehicle_type_id":"4","last_reported":1751476219,"current_range_meters":9600,"station_id":"","pricing_plan_id":"cebpf4jnsgd1na2vs0mg"},{"bike_id":"9286205c-dad7-460d-b3c3-1eb7587d336b","system_id":"levelo_inurba_marseille","lat":43.281541,"lon":5.426489,"is_reserved":false,"is_disabled":false,"rental_uris":{"android":"levelo://app?vid=9286205c-dad7-460d-b3c3-1eb7587d336b","ios":"levelo://app?vid=9286205c-dad7-460d-b3c3-1eb7587d336b"},"vehicle_type_id":"4","last_reported":1751476219,"current_range_meters":9600,"station_id":"ce4bhnh2rcd13ifvqgug","pricing_plan_id":"cebpf4jnsgd1na2vs0mg"},{"bike_id":"d3dc61b0-5ab6-4b3c-ab05-1da98c8dba8e","system_id":"levelo_inurba_marseille","lat":43.32368,"lon":5.38886,"is_reserved":false,"is_disabled":false,"rental_uris":{"android":"levelo://app?vid=d3dc61b0-5ab6-4b3c-ab05-1da98c8dba8e","ios":"levelo://app?vid=d3dc61b0-5ab6-4b3c-ab05-1da98c8dba8e"},"vehicle_type_id":"4","last_reported":1751476219,"current_range_meters":9600,"station_id":"ce4bhqp2rcd13ifvqhog","pricing_plan_id":"cebpf4jnsgd1na2vs0mg"},{"bike_id":"8d949c06-5c93-46cb-aa0d-445b8d88b4fe","system_id":"levelo_inurba_marseille","lat":43.28619,"lon":5.35097,"is_reserved":false,"is_disabled":false,"rental_uris":{"android":"levelo://app?vid=8d949c06-5c93-46cb-aa0d-445b8d88b4fe","ios":"levelo://app?vid=8d949c06-5c93-46cb-aa0d-445b8d88b4fe"},"vehicle_type_id":"4","last_reported":1751476219,"current_range_meters":10000,"station_id":"ce4bhch2rcd13ifvqeug","pricing_plan_id":"cebpf4jnsgd1na2vs0mg"},{"bike_id":"30c31524-444b-458a-84ff-c5b9901caab7","system_id":"levelo_inurba_marseille","lat":43.281553,"lon":5.426414,"is_reserved":false,"is_disabled":false,"rental_uris":{"android":"levelo://app?vid=30c31524-444b-458a-84ff-c5b9901caab7","ios":"levelo://app?vid=30c31524-444b-458a-84ff-c5b9901caab7"},"vehicle_type_id":"4","last_reported":1751476219,"current_range_meters":10000,"station_id":"ce4bhnh2rcd13ifvqgug","pricing_plan_id":"cebpf4jnsgd1na2vs0mg"},{"bike_id":"866060ef-85cb-4809-9ff5-4426ac515ff0","system_id":"levelo_inurba_marseille","lat":43.28417,"lon":5.34992,"is_reserved":false,"is_disabled":false,"rental_uris":{"android":"levelo://app?vid=866060ef-85cb-4809-9ff5-4426ac515ff0","ios":"levelo://app?vid=866060ef-85cb-4809-9ff5-4426ac515ff0"},"vehicle_type_id":"4","last_reported":1751476219,"current_range_meters":10800,"station_id":"ce4bhbh2rcd13ifvqepg","pricing_plan_id":"cebpf4jnsgd1na2vs0mg"},{"bike_id":"4de3b141-f25a-4791-aba0-270719322fac","system_id":"levelo_inurba_marseille","lat":43.28261,"lon":5.35076,"is_reserved":false,"is_disabled":false,"rental_uris":{"android":"levelo://app?vid=4de3b141-f25a-4791-aba0-270719322fac","ios":"levelo://app?vid=4de3b141-f25a-4791-aba0-270719322fac"},"vehicle_type_id":"4","last_reported":1751476219,"current_range_meters":10800,"station_id":"ce4bhbp2rcd13ifvqerg","pricing_plan_id":"cebpf4jnsgd1na2vs0mg"},{"bike_id":"e935e5f2-d9df-497e-b324-b19353133324","system_id":"levelo_inurba_marseille","lat":43.28267,"lon":5.35073,"is_reserved":false,"is_disabled":false,"rental_uris":{"android":"levelo://app?vid=e935e5f2-d9df-497e-b324-b19353133324","ios":"levelo://app?vid=e935e5f2-d9df-497e-b324-b19353133324"},"vehicle_type_id":"4","last_reported":1751476219,"current_range_meters":10800,"station_id":"ce4bhbp2rcd13ifvqerg","pricing_plan_id":"cebpf4jnsgd1na2vs0mg"},{"bike_id":"7afe630d-27f6-445c-a6b1-286e15fa96a2","system_id":"levelo_inurba_marseille","lat":43.28616,"lon":5.35114,"is_reserved":false,"is_disabled":false,"rental_uris":{"android":"levelo://app?vid=7afe630d-27f6-445c-a6b1-286e15fa96a2","ios":"levelo://app?vid=7afe630d-27f6-445c-a6b1-286e15fa96a2"},"vehicle_type_id":"4","last_reported":1751476219,"current_range_meters":10800,"station_id":"ce4bhch2rcd13ifvqeug","pricing_plan_id":"cebpf4jnsgd1na2vs0mg"},{"bike_id":"1fd3faf6-8341-44a1-8cb8-f0e84fd6b27d","system_id":"levelo_inurba_marseille","lat":43.24816,"lon":5.37461,"is_reserved":false,"is_disabled":false,"rental_uris":{"android":"levelo://app?vid=1fd3faf6-8341-44a1-8cb8-f0e84fd6b27d","ios":"levelo://app?vid=1fd3faf6-8341-44a1-8cb8-f0e84fd6b27d"},"vehicle_type_id":"4","last_reported":1751476219,"current_range_meters":10800,"station_id":"ce4bhgh2rcd13ifvqfb0","pricing_plan_id":"cebpf4jnsgd1na2vs0mg"},{"bike_id":"248ded86-b9d5-4fdc-ba75-93f45623e36e","system_id":"levelo_inurba_marseille","lat":43.24177,"lon":5.3639,"is_reserved":false,"is_disabled":false,"rental_uris":{"android":"levelo://app?vid=248ded86-b9d5-4fdc-ba75-93f45623e36e","ios":"levelo://app?vid=248ded86-b9d5-4fdc-ba75-93f45623e36e"},"vehicle_type_id":"4","last_reported":1751476219,"current_range_meters":10800,"station_id":"cpo36qri1sfpv3e86is0","pricing_plan_id":"cebpf4jnsgd1na2vs0mg"},{"bike_id":"8ad00ccc-3ccb-493b-a2b4-49cd4dd94c33","system_id":"levelo_inurba_marseille","lat":43.21759,"lon":5.34603,"is_reserved":false,"is_disabled":false,"rental_uris":{"android":"levelo://app?vid=8ad00ccc-3ccb-493b-a2b4-49cd4dd94c33","ios":"levelo://app?vid=8ad00ccc-3ccb-493b-a2b4-49cd4dd94c33"},"vehicle_type_id":"4","last_reported":1751476219,"current_range_meters":10800,"station_id":"st_cvj6r9ubvosntc0bgbag","pricing_plan_id":"cebpf4jnsgd1na2vs0mg"},{"bike_id":"b8047834-9fd8-4e9d-b2bb-88fd0781cd8f","system_id":"levelo_inurba_marseille","lat":43.27785,"lon":5.37953,"is_reserved":false,"is_disabled":false,"rental_uris":{"android":"levelo://app?vid=b8047834-9fd8-4e9d-b2bb-88fd0781cd8f","ios":"levelo://app?vid=b8047834-9fd8-4e9d-b2bb-88fd0781cd8f"},"vehicle_type_id":"4","last_reported":1751476219,"current_range_meters":11200,"station_id":"","pricing_plan_id":"cebpf4jnsgd1na2vs0mg"},{"bike_id":"7a0c31f9-ab7b-410d-b6f9-b7cccf9b4668","system_id":"levelo_inurba_marseille","lat":43.27374,"lon":5.36253,"is_reserved":false,"is_disabled":false,"rental_uris":{"android":"levelo://app?vid=7a0c31f9-ab7b-410d-b6f9-b7cccf9b4668","ios":"levelo://app?vid=7a0c31f9-ab7b-410d-b6f9-b7cccf9b4668"},"vehicle_type_id":"4","last_reported":1751476219,"current_range_meters":11200,"station_id":"ce4bhbh2rcd13ifvqeo0","pricing_plan_id":"cebpf4jnsgd1na2vs0mg"},{"bike_id":"7162ef69-1564-49b0-bd4d-645d806c80fc","system_id":"levelo_inurba_marseille","lat":43.28614,"lon":5.35099,"is_reserved":false,"is_disabled":false,"rental_uris":{"android":"levelo://app?vid=7162ef69-1564-49b0-bd4d-645d806c80fc","ios":"levelo://app?vid=7162ef69-1564-49b0-bd4d-645d806c80fc"},"vehicle_type_id":"4","last_reported":1751476219,"current_range_meters":11200,"station_id":"ce4bhch2rcd13ifvqeug","pricing_plan_id":"cebpf4jnsgd1na2vs0mg"},{"bike_id":"62a31f2b-1e01-41da-811c-ae9fa741eaae","system_id":"levelo_inurba_marseille","lat":43.26026,"lon":5.37556,"is_reserved":false,"is_disabled":false,"rental_uris":{"android":"levelo://app?vid=62a31f2b-1e01-41da-811c-ae9fa741eaae","ios":"levelo://app?vid=62a31f2b-1e01-41da-811c-ae9fa741eaae"},"vehicle_type_id":"4","last_reported":1751476219,"current_range_meters":11200,"station_id":"ce4bhgh2rcd13ifvqfa0","pricing_plan_id":"cebpf4jnsgd1na2vs0mg"},{"bike_id":"0ddc2571-8b5f-456d-9234-f3dafdaac393","system_id":"levelo_inurba_marseille","lat":43.284099,"lon":5.349836,"is_reserved":false,"is_disabled":false,"rental_uris":{"android":"levelo://app?vid=0ddc2571-8b5f-456d-9234-f3dafdaac393","ios":"levelo://app?vid=0ddc2571-8b5f-456d-9234-f3dafdaac393"},"vehicle_type_id":"4","last_reported":1751476219,"current_range_meters":11600,"station_id":"ce4bhbh2rcd13ifvqepg","pricing_plan_id":"cebpf4jnsgd1na2vs0mg"},{"bike_id":"97d2cf8f-786d-48f4-af3b-a37781a7be77","system_id":"levelo_inurba_marseille","lat":43.28614,"lon":5.3512,"is_reserved":false,"is_disabled":false,"rental_uris":{"android":"levelo://app?vid=97d2cf8f-786d-48f4-af3b-a37781a7be77","ios":"levelo://app?vid=97d2cf8f-786d-48f4-af3b-a37781a7be77"},"vehicle_type_id":"4","last_reported":1751476219,"current_range_meters":11600,"station_id":"ce4bhch2rcd13ifvqeug","pricing_plan_id":"cebpf4jnsgd1na2vs0mg"},{"bike_id":"0cb6a455-c59a-4c42-b8ba-94bcc383a1d9","system_id":"levelo_inurba_marseille","lat":43.272182,"lon":5.391846,"is_reserved":false,"is_disabled":false,"rental_uris":{"android":"levelo://app?vid=0cb6a455-c59a-4c42-b8ba-94bcc383a1d9","ios":"levelo://app?vid=0cb6a455-c59a-4c42-b8ba-94bcc383a1d9"},"vehicle_type_id":"4","last_reported":1751476219,"current_range_meters":11600,"station_id":"ce4bhhp2rcd13ifvqfm0","pricing_plan_id":"cebpf4jnsgd1na2vs0mg"},{"bike_id":"ff5d153f-eb7c-4b24-8415-3f8813aa8920","system_id":"levelo_inurba_marseille","lat":43.2842,"lon":5.34982,"is_reserved":false,"is_disabled":false,"rental_uris":{"android":"levelo://app?vid=ff5d153f-eb7c-4b24-8415-3f8813aa8920","ios":"levelo://app?vid=ff5d153f-eb7c-4b24-8415-3f8813aa8920"},"vehicle_type_id":"4","last_reported":1751476219,"current_range_meters":12000,"station_id":"ce4bhbh2rcd13ifvqepg","pricing_plan_id":"cebpf4jnsgd1na2vs0mg"},{"bike_id":"4e10570e-e278-43eb-acf0-f81d0d1d021b","system_id":"levelo_inurba_marseille","lat":43.26573,"lon":5.37274,"is_reserved":false,"is_disabled":false,"rental_uris":{"android":"levelo://app?vid=4e10570e-e278-43eb-acf0-f81d0d1d021b","ios":"levelo://app?vid=4e10570e-e278-43eb-acf0-f81d0d1d021b"},"vehicle_type_id":"4","last_reported":1751476219,"current_range_meters":12000,"station_id":"ce4bhg12rcd13ifvqf70","pricing_plan_id":"cebpf4jnsgd1na2vs0mg"},{"bike_id":"cd2de8ed-171f-47e7-add5-b41f1eb85d03","system_id":"levelo_inurba_marseille","lat":43.27978,"lon":5.38738,"is_reserved":false,"is_disabled":false,"rental_uris":{"android":"levelo://app?vid=cd2de8ed-171f-47e7-add5-b41f1eb85d03","ios":"levelo://app?vid=cd2de8ed-171f-47e7-add5-b41f1eb85d03"},"vehicle_type_id":"4","last_reported":1751476219,"current_range_meters":12000,"station_id":"ce4bhg12rcd13ifvqf80","pricing_plan_id":"cebpf4jnsgd1na2vs0mg"},{"bike_id":"1532c549-d80f-4f3b-849b-6cee3e4c2087","system_id":"levelo_inurba_marseille","lat":43.30354,"lon":5.41885,"is_reserved":false,"is_disabled":false,"rental_uris":{"android":"levelo://app?vid=1532c549-d80f-4f3b-849b-6cee3e4c2087","ios":"levelo://app?vid=1532c549-d80f-4f3b-849b-6cee3e4c2087"},"vehicle_type_id":"4","last_reported":1751476219,"current_range_meters":12000,"station_id":"ce4bhop2rcd13ifvqh7g","pricing_plan_id":"cebpf4jnsgd1na2vs0mg"},{"bike_id":"88f0d88a-1dec-4977-a19a-71293da7fba4","system_id":"levelo_inurba_marseille","lat":43.32376,"lon":5.36782,"is_reserved":false,"is_disabled":false,"rental_uris":{"android":"levelo://app?vid=88f0d88a-1dec-4977-a19a-71293da7fba4","ios":"levelo://app?vid=88f0d88a-1dec-4977-a19a-71293da7fba4"},"vehicle_type_id":"4","last_reported":1751476219,"current_range_meters":12000,"station_id":"ce4bhsh2rcd13ifvqi2g","pricing_plan_id":"cebpf4jnsgd1na2vs0mg"},{"bike_id":"27067321-28f8-41cd-b5ee-d1b06c146bef","system_id":"levelo_inurba_marseille","lat":43.29743,"lon":5.37717,"is_reserved":false,"is_disabled":false,"rental_uris":{"android":"levelo://app?vid=27067321-28f8-41cd-b5ee-d1b06c146bef","ios":"levelo://app?vid=27067321-28f8-41cd-b5ee-d1b06c146bef"},"vehicle_type_id":"4","last_reported":1751476219,"current_range_meters":12400,"station_id":"","pricing_plan_id":"cebpf4jnsgd1na2vs0mg"},{"bike_id":"b28aa0a0-791c-4a08-9a16-c7bf6ea0ed5a","system_id":"levelo_inurba_marseille","lat":43.22532,"lon":5.34783,"is_reserved":false,"is_disabled":false,"rental_uris":{"android":"levelo://app?vid=b28aa0a0-791c-4a08-9a16-c7bf6ea0ed5a","ios":"levelo://app?vid=b28aa0a0-791c-4a08-9a16-c7bf6ea0ed5a"},"vehicle_type_id":"4","last_reported":1751476219,"current_range_meters":12400,"station_id":"","pricing_plan_id":"cebpf4jnsgd1na2vs0mg"},{"bike_id":"ff2c068f-569e-4332-9ae3-3654bad9c0b4","system_id":"levelo_inurba_marseille","lat":43.2962,"lon":5.37164,"is_reserved":false,"is_disabled":false,"rental_uris":{"android":"levelo://app?vid=ff2c068f-569e-4332-9ae3-3654bad9c0b4","ios":"levelo://app?vid=ff2c068f-569e-4332-9ae3-3654bad9c0b4"},"vehicle_type_id":"4","last_reported":1751476219,"current_range_meters":12400,"station_id":"ce4bgnh2rcd13ifvqc0g","pricing_plan_id":"cebpf4jnsgd1na2vs0mg"},{"bike_id":"735b0fd2-1d3a-40d0-ab27-f3384c488e5d","system_id":"levelo_inurba_marseille","lat":43.29195,"lon":5.35798,"is_reserved":false,"is_disabled":false,"rental_uris":{"android":"levelo://app?vid=735b0fd2-1d3a-40d0-ab27-f3384c488e5d","ios":"levelo://app?vid=735b0fd2-1d3a-40d0-ab27-f3384c488e5d"},"vehicle_type_id":"4","last_reported":1751476219,"current_range_meters":12400,"station_id":"ce4bhb12rcd13ifvqel0","pricing_plan_id":"cebpf4jnsgd1na2vs0mg"},{"bike_id":"c1b44335-2c20-4553-bd77-28e1455d1cb8","system_id":"levelo_inurba_marseille","lat":43.28611,"lon":5.35103,"is_reserved":false,"is_disabled":false,"rental_uris":{"android":"levelo://app?vid=c1b44335-2c20-4553-bd77-28e1455d1cb8","ios":"levelo://app?vid=c1b44335-2c20-4553-bd77-28e1455d1cb8"},"vehicle_type_id":"4","last_reported":1751476219,"current_range_meters":12400,"station_id":"ce4bhch2rcd13ifvqeug","pricing_plan_id":"cebpf4jnsgd1na2vs0mg"},{"bike_id":"c2cc3873-3136-4ba7-984d-6514f2a6bcc2","system_id":"levelo_inurba_marseille","lat":43.26692,"lon":5.3827,"is_reserved":false,"is_disabled":false,"rental_uris":{"android":"levelo://app?vid=c2cc3873-3136-4ba7-984d-6514f2a6bcc2","ios":"levelo://app?vid=c2cc3873-3136-4ba7-984d-6514f2a6bcc2"},"vehicle_type_id":"4","last_reported":1751476219,"current_range_meters":12400,"station_id":"ce4bhg92rcd13ifvqf90","pricing_plan_id":"cebpf4jnsgd1na2vs0mg"},{"bike_id":"d16b9dec-c438-4000-91c8-6cda5b0545dc","system_id":"levelo_inurba_marseille","lat":43.24898,"lon":5.37503,"is_reserved":false,"is_disabled":false,"rental_uris":{"android":"levelo://app?vid=d16b9dec-c438-4000-91c8-6cda5b0545dc","ios":"levelo://app?vid=d16b9dec-c438-4000-91c8-6cda5b0545dc"},"vehicle_type_id":"4","last_reported":1751476219,"current_range_meters":12800,"station_id":"","pricing_plan_id":"cebpf4jnsgd1na2vs0mg"},{"bike_id":"f00e3044-9bd1-48b5-b342-151af21b34fa","system_id":"levelo_inurba_marseille","lat":43.29992,"lon":5.37415,"is_reserved":false,"is_disabled":false,"rental_uris":{"android":"levelo://app?vid=f00e3044-9bd1-48b5-b342-151af21b34fa","ios":"levelo://app?vid=f00e3044-9bd1-48b5-b342-151af21b34fa"},"vehicle_type_id":"4","last_reported":1751476219,"current_range_meters":12800,"station_id":"","pricing_plan_id":"cebpf4jnsgd1na2vs0mg"},{"bike_id":"c299668c-707f-458a-af89-dd211b5a960a","system_id":"levelo_inurba_marseille","lat":43.27375,"lon":5.36257,"is_reserved":false,"is_disabled":false,"rental_uris":{"android":"levelo://app?vid=c299668c-707f-458a-af89-dd211b5a960a","ios":"levelo://app?vid=c299668c-707f-458a-af89-dd211b5a960a"},"vehicle_type_id":"4","last_reported":1751476219,"current_range_meters":12800,"station_id":"ce4bhbh2rcd13ifvqeo0","pricing_plan_id":"cebpf4jnsgd1na2vs0mg"},{"bike_id":"06bb1293-77e2-44a3-9e10-1607407328dc","system_id":"levelo_inurba_marseille","lat":43.28413,"lon":5.3499,"is_reserved":false,"is_disabled":false,"rental_uris":{"android":"levelo://app?vid=06bb1293-77e2-44a3-9e10-1607407328dc","ios":"levelo://app?vid=06bb1293-77e2-44a3-9e10-1607407328dc"},"vehicle_type_id":"4","last_reported":1751476219,"current_range_meters":12800,"station_id":"ce4bhbh2rcd13ifvqepg","pricing_plan_id":"cebpf4jnsgd1na2vs0mg"},{"bike_id":"9a434003-bd2b-4efe-8530-44a631b3282c","system_id":"levelo_inurba_marseille","lat":43.27176,"lon":5.40997,"is_reserved":false,"is_disabled":false,"rental_uris":{"android":"levelo://app?vid=9a434003-bd2b-4efe-8530-44a631b3282c","ios":"levelo://app?vid=9a434003-bd2b-4efe-8530-44a631b3282c"},"vehicle_type_id":"4","last_reported":1751476219,"current_range_meters":12800,"station_id":"ce4bhl12rcd13ifvqgf0","pricing_plan_id":"cebpf4jnsgd1na2vs0mg"},{"bike_id":"424f9ea7-0f33-49eb-9d06-4b16d45fb885","system_id":"levelo_inurba_marseille","lat":43.32045,"lon":5.41534,"is_reserved":false,"is_disabled":false,"rental_uris":{"android":"levelo://app?vid=424f9ea7-0f33-49eb-9d06-4b16d45fb885","ios":"levelo://app?vid=424f9ea7-0f33-49eb-9d06-4b16d45fb885"},"vehicle_type_id":"4","last_reported":1751476219,"current_range_meters":12800,"station_id":"ce4bhq92rcd13ifvqhkg","pricing_plan_id":"cebpf4jnsgd1na2vs0mg"},{"bike_id":"471769d9-3f22-4fd4-ad6c-a8e34f11dc0c","system_id":"levelo_inurba_marseille","lat":43.27373,"lon":5.36263,"is_reserved":false,"is_disabled":false,"rental_uris":{"android":"levelo://app?vid=471769d9-3f22-4fd4-ad6c-a8e34f11dc0c","ios":"levelo://app?vid=471769d9-3f22-4fd4-ad6c-a8e34f11dc0c"},"vehicle_type_id":"4","last_reported":1751476219,"current_range_meters":13600,"station_id":"ce4bhbh2rcd13ifvqeo0","pricing_plan_id":"cebpf4jnsgd1na2vs0mg"},{"bike_id":"cf11fe81-1d96-4f7f-a0fa-cad6a486d01d","system_id":"levelo_inurba_marseille","lat":43.28158,"lon":5.42649,"is_reserved":false,"is_disabled":false,"rental_uris":{"android":"levelo://app?vid=cf11fe81-1d96-4f7f-a0fa-cad6a486d01d","ios":"levelo://app?vid=cf11fe81-1d96-4f7f-a0fa-cad6a486d01d"},"vehicle_type_id":"4","last_reported":1751476219,"current_range_meters":13600,"station_id":"ce4bhnh2rcd13ifvqgug","pricing_plan_id":"cebpf4jnsgd1na2vs0mg"},{"bike_id":"7d1bbfbb-c70e-48d3-8f4b-baf5b1ca8b77","system_id":"levelo_inurba_marseille","lat":43.28415,"lon":5.3498,"is_reserved":false,"is_disabled":false,"rental_uris":{"android":"levelo://app?vid=7d1bbfbb-c70e-48d3-8f4b-baf5b1ca8b77","ios":"levelo://app?vid=7d1bbfbb-c70e-48d3-8f4b-baf5b1ca8b77"},"vehicle_type_id":"4","last_reported":1751476219,"current_range_meters":14000,"station_id":"ce4bhbh2rcd13ifvqepg","pricing_plan_id":"cebpf4jnsgd1na2vs0mg"},{"bike_id":"fedb7387-9ef5-4796-97a5-d3cdc7b72957","system_id":"levelo_inurba_marseille","lat":43.28626,"lon":5.35105,"is_reserved":false,"is_disabled":false,"rental_uris":{"android":"levelo://app?vid=fedb7387-9ef5-4796-97a5-d3cdc7b72957","ios":"levelo://app?vid=fedb7387-9ef5-4796-97a5-d3cdc7b72957"},"vehicle_type_id":"4","last_reported":1751476219,"current_range_meters":14000,"station_id":"ce4bhch2rcd13ifvqeug","pricing_plan_id":"cebpf4jnsgd1na2vs0mg"},{"bike_id":"f65bf15d-c036-42cb-8d71-137cf5f63dc1","system_id":"levelo_inurba_marseille","lat":43.2862,"lon":5.35109,"is_reserved":false,"is_disabled":false,"rental_uris":{"android":"levelo://app?vid=f65bf15d-c036-42cb-8d71-137cf5f63dc1","ios":"levelo://app?vid=f65bf15d-c036-42cb-8d71-137cf5f63dc1"},"vehicle_type_id":"4","last_reported":1751476219,"current_range_meters":14000,"station_id":"ce4bhch2rcd13ifvqeug","pricing_plan_id":"cebpf4jnsgd1na2vs0mg"},{"bike_id":"7e62b058-a7ed-4634-80f1-04d3de596de7","system_id":"levelo_inurba_marseille","lat":43.29871,"lon":5.36854,"is_reserved":false,"is_disabled":false,"rental_uris":{"android":"levelo://app?vid=7e62b058-a7ed-4634-80f1-04d3de596de7","ios":"levelo://app?vid=7e62b058-a7ed-4634-80f1-04d3de596de7"},"vehicle_type_id":"4","last_reported":1751476219,"current_range_meters":14400,"station_id":"","pricing_plan_id":"cebpf4jnsgd1na2vs0mg"},{"bike_id":"115e6c67-6838-4c42-9ea4-8082deffd16f","system_id":"levelo_inurba_marseille","lat":43.28619,"lon":5.35105,"is_reserved":false,"is_disabled":false,"rental_uris":{"android":"levelo://app?vid=115e6c67-6838-4c42-9ea4-8082deffd16f","ios":"levelo://app?vid=115e6c67-6838-4c42-9ea4-8082deffd16f"},"vehicle_type_id":"4","last_reported":1751476219,"current_range_meters":14400,"station_id":"ce4bhch2rcd13ifvqeug","pricing_plan_id":"cebpf4jnsgd1na2vs0mg"},{"bike_id":"91745883-db59-47c5-acc7-f039a84201aa","system_id":"levelo_inurba_marseille","lat":43.32365,"lon":5.38888,"is_reserved":false,"is_disabled":false,"rental_uris":{"android":"levelo://app?vid=91745883-db59-47c5-acc7-f039a84201aa","ios":"levelo://app?vid=91745883-db59-47c5-acc7-f039a84201aa"},"vehicle_type_id":"4","last_reported":1751476219,"current_range_meters":14400,"station_id":"ce4bhqp2rcd13ifvqhog","pricing_plan_id":"cebpf4jnsgd1na2vs0mg"},{"bike_id":"b50da02d-1fb5-4383-a93d-332785610080","system_id":"levelo_inurba_marseille","lat":43.21836,"lon":5.34768,"is_reserved":false,"is_disabled":false,"rental_uris":{"android":"levelo://app?vid=b50da02d-1fb5-4383-a93d-332785610080","ios":"levelo://app?vid=b50da02d-1fb5-4383-a93d-332785610080"},"vehicle_type_id":"4","last_reported":1751476219,"current_range_meters":14800,"station_id":"","pricing_plan_id":"cebpf4jnsgd1na2vs0mg"},{"bike_id":"2c0652ec-9049-40ed-8894-968059e6fcc2","system_id":"levelo_inurba_marseille","lat":43.31177,"lon":5.3871,"is_reserved":false,"is_disabled":false,"rental_uris":{"android":"levelo://app?vid=2c0652ec-9049-40ed-8894-968059e6fcc2","ios":"levelo://app?vid=2c0652ec-9049-40ed-8894-968059e6fcc2"},"vehicle_type_id":"4","last_reported":1751476219,"current_range_meters":14800,"station_id":"ce4bgv12rcd13ifvqcp0","pricing_plan_id":"cebpf4jnsgd1na2vs0mg"},{"bike_id":"58a14bfa-0463-4feb-90e7-c7d9d3db30c9","system_id":"levelo_inurba_marseille","lat":43.28423,"lon":5.34977,"is_reserved":false,"is_disabled":false,"rental_uris":{"android":"levelo://app?vid=58a14bfa-0463-4feb-90e7-c7d9d3db30c9","ios":"levelo://app?vid=58a14bfa-0463-4feb-90e7-c7d9d3db30c9"},"vehicle_type_id":"4","last_reported":1751476219,"current_range_meters":14800,"station_id":"ce4bhbh2rcd13ifvqepg","pricing_plan_id":"cebpf4jnsgd1na2vs0mg"},{"bike_id":"17ad145c-f881-4017-969d-c8638a36a818","system_id":"levelo_inurba_marseille","lat":43.2655,"lon":5.38999,"is_reserved":false,"is_disabled":false,"rental_uris":{"android":"levelo://app?vid=17ad145c-f881-4017-969d-c8638a36a818","ios":"levelo://app?vid=17ad145c-f881-4017-969d-c8638a36a818"},"vehicle_type_id":"4","last_reported":1751476219,"current_range_meters":14800,"station_id":"ce4bhe12rcd13ifvqf30","pricing_plan_id":"cebpf4jnsgd1na2vs0mg"},{"bike_id":"56eb3fdf-ea87-4fcf-85df-3680fa66363e","system_id":"levelo_inurba_marseille","lat":43.22526,"lon":5.34776,"is_reserved":false,"is_disabled":false,"rental_uris":{"android":"levelo://app?vid=56eb3fdf-ea87-4fcf-85df-3680fa66363e","ios":"levelo://app?vid=56eb3fdf-ea87-4fcf-85df-3680fa66363e"},"vehicle_type_id":"4","last_reported":1751476219,"current_range_meters":14800,"station_id":"st_cvj5dfep6f1abm77gieg","pricing_plan_id":"cebpf4jnsgd1na2vs0mg"},{"bike_id":"bcfd0eda-b9ab-4bec-9ca3-3f2b86617415","system_id":"levelo_inurba_marseille","lat":43.21189,"lon":5.3507,"is_reserved":false,"is_disabled":false,"rental_uris":{"android":"levelo://app?vid=bcfd0eda-b9ab-4bec-9ca3-3f2b86617415","ios":"levelo://app?vid=bcfd0eda-b9ab-4bec-9ca3-3f2b86617415"},"vehicle_type_id":"4","last_reported":1751476219,"current_range_meters":14800,"station_id":"st_cvj6sg6p6f1abm77japg","pricing_plan_id":"cebpf4jnsgd1na2vs0mg"},{"bike_id":"16a8afe6-e43e-4d1b-a7bd-ed83d113735a","system_id":"levelo_inurba_marseille","lat":43.32436,"lon":5.41185,"is_reserved":false,"is_disabled":false,"rental_uris":{"android":"levelo://app?vid=16a8afe6-e43e-4d1b-a7bd-ed83d113735a","ios":"levelo://app?vid=16a8afe6-e43e-4d1b-a7bd-ed83d113735a"},"vehicle_type_id":"4","last_reported":1751476219,"current_range_meters":15200,"station_id":"","pricing_plan_id":"cebpf4jnsgd1na2vs0mg"},{"bike_id":"ee13322a-d12e-446c-9b18-1958b654f285","system_id":"levelo_inurba_marseille","lat":43.30912,"lon":5.36845,"is_reserved":false,"is_disabled":false,"rental_uris":{"android":"levelo://app?vid=ee13322a-d12e-446c-9b18-1958b654f285","ios":"levelo://app?vid=ee13322a-d12e-446c-9b18-1958b654f285"},"vehicle_type_id":"4","last_reported":1751476219,"current_range_meters":15200,"station_id":"ce4bgn92rcd13ifvqbvg","pricing_plan_id":"cebpf4jnsgd1na2vs0mg"},{"bike_id":"66c0ab6c-a77c-4406-98da-eb1e105d5014","system_id":"levelo_inurba_marseille","lat":43.28412,"lon":5.34981,"is_reserved":false,"is_disabled":false,"rental_uris":{"android":"levelo://app?vid=66c0ab6c-a77c-4406-98da-eb1e105d5014","ios":"levelo://app?vid=66c0ab6c-a77c-4406-98da-eb1e105d5014"},"vehicle_type_id":"4","last_reported":1751476219,"current_range_meters":15200,"station_id":"ce4bhbh2rcd13ifvqepg","pricing_plan_id":"cebpf4jnsgd1na2vs0mg"},{"bike_id":"331745a6-416e-4697-a3b9-8b6ec98fb01a","system_id":"levelo_inurba_marseille","lat":43.28417,"lon":5.34997,"is_reserved":false,"is_disabled":false,"rental_uris":{"android":"levelo://app?vid=331745a6-416e-4697-a3b9-8b6ec98fb01a","ios":"levelo://app?vid=331745a6-416e-4697-a3b9-8b6ec98fb01a"},"vehicle_type_id":"4","last_reported":1751476219,"current_range_meters":15200,"station_id":"ce4bhbh2rcd13ifvqepg","pricing_plan_id":"cebpf4jnsgd1na2vs0mg"},{"bike_id":"3bac4b2c-7470-4424-bc3f-533b0f83c590","system_id":"levelo_inurba_marseille","lat":43.28401,"lon":5.34993,"is_reserved":false,"is_disabled":false,"rental_uris":{"android":"levelo://app?vid=3bac4b2c-7470-4424-bc3f-533b0f83c590","ios":"levelo://app?vid=3bac4b2c-7470-4424-bc3f-533b0f83c590"},"vehicle_type_id":"4","last_reported":1751476219,"current_range_meters":15200,"station_id":"ce4bhbh2rcd13ifvqepg","pricing_plan_id":"cebpf4jnsgd1na2vs0mg"},{"bike_id":"473d1ca9-1a51-4ba5-bd78-fb30f467aab7","system_id":"levelo_inurba_marseille","lat":43.28414,"lon":5.34983,"is_reserved":false,"is_disabled":false,"rental_uris":{"android":"levelo://app?vid=473d1ca9-1a51-4ba5-bd78-fb30f467aab7","ios":"levelo://app?vid=473d1ca9-1a51-4ba5-bd78-fb30f467aab7"},"vehicle_type_id":"4","last_reported":1751476219,"current_range_meters":15200,"station_id":"ce4bhbh2rcd13ifvqepg","pricing_plan_id":"cebpf4jnsgd1na2vs0mg"},{"bike_id":"6682098f-4b2d-42d5-be92-55d74c09ff33","system_id":"levelo_inurba_marseille","lat":43.28272,"lon":5.35067,"is_reserved":false,"is_disabled":false,"rental_uris":{"android":"levelo://app?vid=6682098f-4b2d-42d5-be92-55d74c09ff33","ios":"levelo://app?vid=6682098f-4b2d-42d5-be92-55d74c09ff33"},"vehicle_type_id":"4","last_reported":1751476219,"current_range_meters":15200,"station_id":"ce4bhbp2rcd13ifvqerg","pricing_plan_id":"cebpf4jnsgd1na2vs0mg"},{"bike_id":"f43ecb26-2a68-4f02-bf25-7adcb09bbec7","system_id":"levelo_inurba_marseille","lat":43.27678,"lon":5.38887,"is_reserved":false,"is_disabled":false,"rental_uris":{"android":"levelo://app?vid=f43ecb26-2a68-4f02-bf25-7adcb09bbec7","ios":"levelo://app?vid=f43ecb26-2a68-4f02-bf25-7adcb09bbec7"},"vehicle_type_id":"4","last_reported":1751476219,"current_range_meters":15200,"station_id":"ce4bhi12rcd13ifvqfo0","pricing_plan_id":"cebpf4jnsgd1na2vs0mg"},{"bike_id":"752a7229-d138-4522-8787-0bb67b470949","system_id":"levelo_inurba_marseille","lat":43.31871,"lon":5.37641,"is_reserved":false,"is_disabled":false,"rental_uris":{"android":"levelo://app?vid=752a7229-d138-4522-8787-0bb67b470949","ios":"levelo://app?vid=752a7229-d138-4522-8787-0bb67b470949"},"vehicle_type_id":"4","last_reported":1751476219,"current_range_meters":16000,"station_id":"","pricing_plan_id":"cebpf4jnsgd1na2vs0mg"},{"bike_id":"a0cef316-ad95-4855-8f78-a31341a2b90e","system_id":"levelo_inurba_marseille","lat":43.31274,"lon":5.37751,"is_reserved":false,"is_disabled":false,"rental_uris":{"android":"levelo://app?vid=a0cef316-ad95-4855-8f78-a31341a2b90e","ios":"levelo://app?vid=a0cef316-ad95-4855-8f78-a31341a2b90e"},"vehicle_type_id":"4","last_reported":1751476219,"current_range_meters":16000,"station_id":"","pricing_plan_id":"cebpf4jnsgd1na2vs0mg"},{"bike_id":"d0662380-6c57-48cb-bca9-0e06c31eaa27","system_id":"levelo_inurba_marseille","lat":43.27381,"lon":5.36258,"is_reserved":false,"is_disabled":false,"rental_uris":{"android":"levelo://app?vid=d0662380-6c57-48cb-bca9-0e06c31eaa27","ios":"levelo://app?vid=d0662380-6c57-48cb-bca9-0e06c31eaa27"},"vehicle_type_id":"4","last_reported":1751476219,"current_range_meters":16000,"station_id":"ce4bhbh2rcd13ifvqeo0","pricing_plan_id":"cebpf4jnsgd1na2vs0mg"},{"bike_id":"c5e094ee-7885-42b9-806d-7288db0f9ebc","system_id":"levelo_inurba_marseille","lat":43.27366,"lon":5.36253,"is_reserved":false,"is_disabled":false,"rental_uris":{"android":"levelo://app?vid=c5e094ee-7885-42b9-806d-7288db0f9ebc","ios":"levelo://app?vid=c5e094ee-7885-42b9-806d-7288db0f9ebc"},"vehicle_type_id":"4","last_reported":1751476219,"current_range_meters":16000,"station_id":"ce4bhbh2rcd13ifvqeo0","pricing_plan_id":"cebpf4jnsgd1na2vs0mg"},{"bike_id":"a4fa0864-a85b-4e58-80fb-f707fbcf1f52","system_id":"levelo_inurba_marseille","lat":43.284145,"lon":5.35003,"is_reserved":false,"is_disabled":false,"rental_uris":{"android":"levelo://app?vid=a4fa0864-a85b-4e58-80fb-f707fbcf1f52","ios":"levelo://app?vid=a4fa0864-a85b-4e58-80fb-f707fbcf1f52"},"vehicle_type_id":"4","last_reported":1751476219,"current_range_meters":16000,"station_id":"ce4bhbh2rcd13ifvqepg","pricing_plan_id":"cebpf4jnsgd1na2vs0mg"},{"bike_id":"d9c7d075-4d2f-47ad-ab59-c8d0f7c36398","system_id":"levelo_inurba_marseille","lat":43.28426,"lon":5.34993,"is_reserved":false,"is_disabled":false,"rental_uris":{"android":"levelo://app?vid=d9c7d075-4d2f-47ad-ab59-c8d0f7c36398","ios":"levelo://app?vid=d9c7d075-4d2f-47ad-ab59-c8d0f7c36398"},"vehicle_type_id":"4","last_reported":1751476219,"current_range_meters":16000,"station_id":"ce4bhbh2rcd13ifvqepg","pricing_plan_id":"cebpf4jnsgd1na2vs0mg"},{"bike_id":"29273d9f-e864-4b78-882a-1670632a65bd","system_id":"levelo_inurba_marseille","lat":43.28278,"lon":5.3506,"is_reserved":false,"is_disabled":false,"rental_uris":{"android":"levelo://app?vid=29273d9f-e864-4b78-882a-1670632a65bd","ios":"levelo://app?vid=29273d9f-e864-4b78-882a-1670632a65bd"},"vehicle_type_id":"4","last_reported":1751476219,"current_range_meters":16000,"station_id":"ce4bhbp2rcd13ifvqerg","pricing_plan_id":"cebpf4jnsgd1na2vs0mg"},{"bike_id":"1d8cb5d2-fd68-4db7-91c1-f78af30ea520","system_id":"levelo_inurba_marseille","lat":43.282593,"lon":5.350578,"is_reserved":false,"is_disabled":false,"rental_uris":{"android":"levelo://app?vid=1d8cb5d2-fd68-4db7-91c1-f78af30ea520","ios":"levelo://app?vid=1d8cb5d2-fd68-4db7-91c1-f78af30ea520"},"vehicle_type_id":"4","last_reported":1751476219,"current_range_meters":16000,"station_id":"ce4bhbp2rcd13ifvqerg","pricing_plan_id":"cebpf4jnsgd1na2vs0mg"},{"bike_id":"9797efcd-0e50-4f44-8127-158d6b38bd94","system_id":"levelo_inurba_marseille","lat":43.262162,"lon":5.374416,"is_reserved":false,"is_disabled":false,"rental_uris":{"android":"levelo://app?vid=9797efcd-0e50-4f44-8127-158d6b38bd94","ios":"levelo://app?vid=9797efcd-0e50-4f44-8127-158d6b38bd94"},"vehicle_type_id":"4","last_reported":1751476219,"current_range_meters":16000,"station_id":"ce4bhgp2rcd13ifvqfc0","pricing_plan_id":"cebpf4jnsgd1na2vs0mg"},{"bike_id":"110be0f7-19b6-4419-935c-8afdb1f29359","system_id":"levelo_inurba_marseille","lat":43.21216,"lon":5.35093,"is_reserved":false,"is_disabled":false,"rental_uris":{"android":"levelo://app?vid=110be0f7-19b6-4419-935c-8afdb1f29359","ios":"levelo://app?vid=110be0f7-19b6-4419-935c-8afdb1f29359"},"vehicle_type_id":"4","last_reported":1751476219,"current_range_meters":16000,"station_id":"st_cvj6sg6p6f1abm77japg","pricing_plan_id":"cebpf4jnsgd1na2vs0mg"},{"bike_id":"959e6f20-8ed0-4d36-bc1d-3efb82d6190b","system_id":"levelo_inurba_marseille","lat":43.21203,"lon":5.35084,"is_reserved":false,"is_disabled":false,"rental_uris":{"android":"levelo://app?vid=959e6f20-8ed0-4d36-bc1d-3efb82d6190b","ios":"levelo://app?vid=959e6f20-8ed0-4d36-bc1d-3efb82d6190b"},"vehicle_type_id":"4","last_reported":1751476219,"current_range_meters":16000,"station_id":"st_cvj6sg6p6f1abm77japg","pricing_plan_id":"cebpf4jnsgd1na2vs0mg"},{"bike_id":"0e030323-4386-4e72-9a0d-0f6a2ff539de","system_id":"levelo_inurba_marseille","lat":43.29613,"lon":5.40577,"is_reserved":false,"is_disabled":false,"rental_uris":{"android":"levelo://app?vid=0e030323-4386-4e72-9a0d-0f6a2ff539de","ios":"levelo://app?vid=0e030323-4386-4e72-9a0d-0f6a2ff539de"},"vehicle_type_id":"4","last_reported":1751476219,"current_range_meters":16400,"station_id":"ce4bh0h2rcd13ifvqd60","pricing_plan_id":"cebpf4jnsgd1na2vs0mg"},{"bike_id":"933e1773-9878-4944-8da5-80e38dbf2852","system_id":"levelo_inurba_marseille","lat":43.28275,"lon":5.35074,"is_reserved":false,"is_disabled":false,"rental_uris":{"android":"levelo://app?vid=933e1773-9878-4944-8da5-80e38dbf2852","ios":"levelo://app?vid=933e1773-9878-4944-8da5-80e38dbf2852"},"vehicle_type_id":"4","last_reported":1751476219,"current_range_meters":16400,"station_id":"ce4bhbp2rcd13ifvqerg","pricing_plan_id":"cebpf4jnsgd1na2vs0mg"},{"bike_id":"c0250866-11d0-420e-b0f3-1bce39b8d140","system_id":"levelo_inurba_marseille","lat":43.28593,"lon":5.35118,"is_reserved":false,"is_disabled":false,"rental_uris":{"android":"levelo://app?vid=c0250866-11d0-420e-b0f3-1bce39b8d140","ios":"levelo://app?vid=c0250866-11d0-420e-b0f3-1bce39b8d140"},"vehicle_type_id":"4","last_reported":1751476219,"current_range_meters":16400,"station_id":"ce4bhch2rcd13ifvqeug","pricing_plan_id":"cebpf4jnsgd1na2vs0mg"},{"bike_id":"202800e0-6e51-420b-a14b-85f9c891cf6a","system_id":"levelo_inurba_marseille","lat":43.23973,"lon":5.36618,"is_reserved":false,"is_disabled":false,"rental_uris":{"android":"levelo://app?vid=202800e0-6e51-420b-a14b-85f9c891cf6a","ios":"levelo://app?vid=202800e0-6e51-420b-a14b-85f9c891cf6a"},"vehicle_type_id":"4","last_reported":1751476219,"current_range_meters":16400,"station_id":"ce4bhi12rcd13ifvqfp0","pricing_plan_id":"cebpf4jnsgd1na2vs0mg"},{"bike_id":"e6e764c1-9cfa-4c9e-add4-caa49ac295e8","system_id":"levelo_inurba_marseille","lat":43.2318,"lon":5.39989,"is_reserved":false,"is_disabled":false,"rental_uris":{"android":"levelo://app?vid=e6e764c1-9cfa-4c9e-add4-caa49ac295e8","ios":"levelo://app?vid=e6e764c1-9cfa-4c9e-add4-caa49ac295e8"},"vehicle_type_id":"4","last_reported":1751476219,"current_range_meters":16400,"station_id":"ce4bhn12rcd13ifvqgqg","pricing_plan_id":"cebpf4jnsgd1na2vs0mg"},{"bike_id":"20675e30-3951-4de3-b1d8-ddb7ba276bdb","system_id":"levelo_inurba_marseille","lat":43.31085,"lon":5.42431,"is_reserved":false,"is_disabled":false,"rental_uris":{"android":"levelo://app?vid=20675e30-3951-4de3-b1d8-ddb7ba276bdb","ios":"levelo://app?vid=20675e30-3951-4de3-b1d8-ddb7ba276bdb"},"vehicle_type_id":"4","last_reported":1751476219,"current_range_meters":16400,"station_id":"ce4bhp92rcd13ifvqhag","pricing_plan_id":"cebpf4jnsgd1na2vs0mg"},{"bike_id":"09a94feb-8911-4d3d-9f22-a7f611710ea1","system_id":"levelo_inurba_marseille","lat":43.21201,"lon":5.35077,"is_reserved":false,"is_disabled":false,"rental_uris":{"android":"levelo://app?vid=09a94feb-8911-4d3d-9f22-a7f611710ea1","ios":"levelo://app?vid=09a94feb-8911-4d3d-9f22-a7f611710ea1"},"vehicle_type_id":"4","last_reported":1751476219,"current_range_meters":16400,"station_id":"st_cvj6sg6p6f1abm77japg","pricing_plan_id":"cebpf4jnsgd1na2vs0mg"},{"bike_id":"63072e0c-9f69-4913-be48-96789ec98037","system_id":"levelo_inurba_marseille","lat":43.334353,"lon":5.400417,"is_reserved":false,"is_disabled":false,"rental_uris":{"android":"levelo://app?vid=63072e0c-9f69-4913-be48-96789ec98037","ios":"levelo://app?vid=63072e0c-9f69-4913-be48-96789ec98037"},"vehicle_type_id":"4","last_reported":1751476219,"current_range_meters":16800,"station_id":"","pricing_plan_id":"cebpf4jnsgd1na2vs0mg"},{"bike_id":"d358a86f-d335-4702-8382-b7fa29ada399","system_id":"levelo_inurba_marseille","lat":43.286093,"lon":5.351043,"is_reserved":false,"is_disabled":false,"rental_uris":{"android":"levelo://app?vid=d358a86f-d335-4702-8382-b7fa29ada399","ios":"levelo://app?vid=d358a86f-d335-4702-8382-b7fa29ada399"},"vehicle_type_id":"4","last_reported":1751476219,"current_range_meters":16800,"station_id":"ce4bhch2rcd13ifvqeug","pricing_plan_id":"cebpf4jnsgd1na2vs0mg"},{"bike_id":"fde3f0a3-ae15-4a47-9ea4-fd4260b41bff","system_id":"levelo_inurba_marseille","lat":43.2623,"lon":5.40452,"is_reserved":false,"is_disabled":false,"rental_uris":{"android":"levelo://app?vid=fde3f0a3-ae15-4a47-9ea4-fd4260b41bff","ios":"levelo://app?vid=fde3f0a3-ae15-4a47-9ea4-fd4260b41bff"},"vehicle_type_id":"4","last_reported":1751476219,"current_range_meters":16800,"station_id":"ce4bhmh2rcd13ifvqgmg","pricing_plan_id":"cebpf4jnsgd1na2vs0mg"},{"bike_id":"f4d29537-f6ca-4d09-b749-036d7617eb51","system_id":"levelo_inurba_marseille","lat":43.2417,"lon":5.36391,"is_reserved":false,"is_disabled":false,"rental_uris":{"android":"levelo://app?vid=f4d29537-f6ca-4d09-b749-036d7617eb51","ios":"levelo://app?vid=f4d29537-f6ca-4d09-b749-036d7617eb51"},"vehicle_type_id":"4","last_reported":1751476219,"current_range_meters":16800,"station_id":"cpo36qri1sfpv3e86is0","pricing_plan_id":"cebpf4jnsgd1na2vs0mg"},{"bike_id":"8bf0d992-d2a0-428e-940a-091ee9b7c2a4","system_id":"levelo_inurba_marseille","lat":43.21195,"lon":5.35069,"is_reserved":false,"is_disabled":false,"rental_uris":{"android":"levelo://app?vid=8bf0d992-d2a0-428e-940a-091ee9b7c2a4","ios":"levelo://app?vid=8bf0d992-d2a0-428e-940a-091ee9b7c2a4"},"vehicle_type_id":"4","last_reported":1751476219,"current_range_meters":16800,"station_id":"st_cvj6sg6p6f1abm77japg","pricing_plan_id":"cebpf4jnsgd1na2vs0mg"},{"bike_id":"6d2da863-a742-45db-855b-55a94467cfa4","system_id":"levelo_inurba_marseille","lat":43.32605,"lon":5.42713,"is_reserved":false,"is_disabled":false,"rental_uris":{"android":"levelo://app?vid=6d2da863-a742-45db-855b-55a94467cfa4","ios":"levelo://app?vid=6d2da863-a742-45db-855b-55a94467cfa4"},"vehicle_type_id":"4","last_reported":1751476219,"current_range_meters":17200,"station_id":"","pricing_plan_id":"cebpf4jnsgd1na2vs0mg"},{"bike_id":"83c45ffb-41ef-4367-b61e-9936878a36b8","system_id":"levelo_inurba_marseille","lat":43.27381,"lon":5.36259,"is_reserved":false,"is_disabled":false,"rental_uris":{"android":"levelo://app?vid=83c45ffb-41ef-4367-b61e-9936878a36b8","ios":"levelo://app?vid=83c45ffb-41ef-4367-b61e-9936878a36b8"},"vehicle_type_id":"4","last_reported":1751476219,"current_range_meters":17200,"station_id":"ce4bhbh2rcd13ifvqeo0","pricing_plan_id":"cebpf4jnsgd1na2vs0mg"},{"bike_id":"8e4670c8-8f49-48c8-b2ad-5ef70df6da75","system_id":"levelo_inurba_marseille","lat":43.2693,"lon":5.38913,"is_reserved":false,"is_disabled":false,"rental_uris":{"android":"levelo://app?vid=8e4670c8-8f49-48c8-b2ad-5ef70df6da75","ios":"levelo://app?vid=8e4670c8-8f49-48c8-b2ad-5ef70df6da75"},"vehicle_type_id":"4","last_reported":1751476219,"current_range_meters":17200,"station_id":"ce4bhhh2rcd13ifvqfl0","pricing_plan_id":"cebpf4jnsgd1na2vs0mg"},{"bike_id":"c10a4283-320d-4e64-8d75-ff83e94026ba","system_id":"levelo_inurba_marseille","lat":43.211912,"lon":5.350739,"is_reserved":false,"is_disabled":false,"rental_uris":{"android":"levelo://app?vid=c10a4283-320d-4e64-8d75-ff83e94026ba","ios":"levelo://app?vid=c10a4283-320d-4e64-8d75-ff83e94026ba"},"vehicle_type_id":"4","last_reported":1751476219,"current_range_meters":17200,"station_id":"st_cvj6sg6p6f1abm77japg","pricing_plan_id":"cebpf4jnsgd1na2vs0mg"},{"bike_id":"8a74f5cd-9efa-4362-bea7-a32db4dcc85c","system_id":"levelo_inurba_marseille","lat":43.21194,"lon":5.35076,"is_reserved":false,"is_disabled":false,"rental_uris":{"android":"levelo://app?vid=8a74f5cd-9efa-4362-bea7-a32db4dcc85c","ios":"levelo://app?vid=8a74f5cd-9efa-4362-bea7-a32db4dcc85c"},"vehicle_type_id":"4","last_reported":1751476219,"current_range_meters":17200,"station_id":"st_cvj6sg6p6f1abm77japg","pricing_plan_id":"cebpf4jnsgd1na2vs0mg"},{"bike_id":"d393009a-4549-46b8-9394-75871ff606d4","system_id":"levelo_inurba_marseille","lat":43.32366,"lon":5.36779,"is_reserved":false,"is_disabled":false,"rental_uris":{"android":"levelo://app?vid=d393009a-4549-46b8-9394-75871ff606d4","ios":"levelo://app?vid=d393009a-4549-46b8-9394-75871ff606d4"},"vehicle_type_id":"4","last_reported":1751476219,"current_range_meters":17600,"station_id":"ce4bhsh2rcd13ifvqi2g","pricing_plan_id":"cebpf4jnsgd1na2vs0mg"},{"bike_id":"669ab8bb-42e6-4751-a9c1-3f175c329d4e","system_id":"levelo_inurba_marseille","lat":43.29964,"lon":5.38505,"is_reserved":false,"is_disabled":false,"rental_uris":{"android":"levelo://app?vid=669ab8bb-42e6-4751-a9c1-3f175c329d4e","ios":"levelo://app?vid=669ab8bb-42e6-4751-a9c1-3f175c329d4e"},"vehicle_type_id":"4","last_reported":1751476219,"current_range_meters":18000,"station_id":"ce4bgj92rcd13ifvqbd0","pricing_plan_id":"cebpf4jnsgd1na2vs0mg"},{"bike_id":"756d70f9-325b-4453-8d80-2de2871c3217","system_id":"levelo_inurba_marseille","lat":43.28407,"lon":5.34985,"is_reserved":false,"is_disabled":false,"rental_uris":{"android":"levelo://app?vid=756d70f9-325b-4453-8d80-2de2871c3217","ios":"levelo://app?vid=756d70f9-325b-4453-8d80-2de2871c3217"},"vehicle_type_id":"4","last_reported":1751476219,"current_range_meters":18000,"station_id":"ce4bhbh2rcd13ifvqepg","pricing_plan_id":"cebpf4jnsgd1na2vs0mg"},{"bike_id":"ff2eed52-76b4-4357-b31a-0d511595ff47","system_id":"levelo_inurba_marseille","lat":43.28421,"lon":5.3499,"is_reserved":false,"is_disabled":false,"rental_uris":{"android":"levelo://app?vid=ff2eed52-76b4-4357-b31a-0d511595ff47","ios":"levelo://app?vid=ff2eed52-76b4-4357-b31a-0d511595ff47"},"vehicle_type_id":"4","last_reported":1751476219,"current_range_meters":18000,"station_id":"ce4bhbh2rcd13ifvqepg","pricing_plan_id":"cebpf4jnsgd1na2vs0mg"},{"bike_id":"40917fd7-54cf-4c27-b2d3-4836e7fa9e9d","system_id":"levelo_inurba_marseille","lat":43.28618,"lon":5.35111,"is_reserved":false,"is_disabled":false,"rental_uris":{"android":"levelo://app?vid=40917fd7-54cf-4c27-b2d3-4836e7fa9e9d","ios":"levelo://app?vid=40917fd7-54cf-4c27-b2d3-4836e7fa9e9d"},"vehicle_type_id":"4","last_reported":1751476219,"current_range_meters":18000,"station_id":"ce4bhch2rcd13ifvqeug","pricing_plan_id":"cebpf4jnsgd1na2vs0mg"},{"bike_id":"691c9dbb-3837-455f-ba1c-9999310d840a","system_id":"levelo_inurba_marseille","lat":43.24813,"lon":5.37446,"is_reserved":false,"is_disabled":false,"rental_uris":{"android":"levelo://app?vid=691c9dbb-3837-455f-ba1c-9999310d840a","ios":"levelo://app?vid=691c9dbb-3837-455f-ba1c-9999310d840a"},"vehicle_type_id":"4","last_reported":1751476219,"current_range_meters":18000,"station_id":"ce4bhgh2rcd13ifvqfb0","pricing_plan_id":"cebpf4jnsgd1na2vs0mg"},{"bike_id":"68e309f4-b1e4-4f3a-b754-9a7df441dc33","system_id":"levelo_inurba_marseille","lat":43.28158,"lon":5.42636,"is_reserved":false,"is_disabled":false,"rental_uris":{"android":"levelo://app?vid=68e309f4-b1e4-4f3a-b754-9a7df441dc33","ios":"levelo://app?vid=68e309f4-b1e4-4f3a-b754-9a7df441dc33"},"vehicle_type_id":"4","last_reported":1751476219,"current_range_meters":18000,"station_id":"ce4bhnh2rcd13ifvqgug","pricing_plan_id":"cebpf4jnsgd1na2vs0mg"},{"bike_id":"10b0b860-bb51-4240-bd79-57112e19f6af","system_id":"levelo_inurba_marseille","lat":43.2176,"lon":5.34605,"is_reserved":false,"is_disabled":false,"rental_uris":{"android":"levelo://app?vid=10b0b860-bb51-4240-bd79-57112e19f6af","ios":"levelo://app?vid=10b0b860-bb51-4240-bd79-57112e19f6af"},"vehicle_type_id":"4","last_reported":1751476219,"current_range_meters":18000,"station_id":"st_cvj6r9ubvosntc0bgbag","pricing_plan_id":"cebpf4jnsgd1na2vs0mg"},{"bike_id":"0f590c2a-c81e-469d-a7d1-2741de3642a2","system_id":"levelo_inurba_marseille","lat":43.211934,"lon":5.350747,"is_reserved":false,"is_disabled":false,"rental_uris":{"android":"levelo://app?vid=0f590c2a-c81e-469d-a7d1-2741de3642a2","ios":"levelo://app?vid=0f590c2a-c81e-469d-a7d1-2741de3642a2"},"vehicle_type_id":"4","last_reported":1751476219,"current_range_meters":18000,"station_id":"st_cvj6sg6p6f1abm77japg","pricing_plan_id":"cebpf4jnsgd1na2vs0mg"},{"bike_id":"ba154a12-11bd-42a5-958a-5992f5d043d1","system_id":"levelo_inurba_marseille","lat":43.304864,"lon":5.370602,"is_reserved":false,"is_disabled":false,"rental_uris":{"android":"levelo://app?vid=ba154a12-11bd-42a5-958a-5992f5d043d1","ios":"levelo://app?vid=ba154a12-11bd-42a5-958a-5992f5d043d1"},"vehicle_type_id":"4","last_reported":1751476219,"current_range_meters":18800,"station_id":"","pricing_plan_id":"cebpf4jnsgd1na2vs0mg"},{"bike_id":"70459f13-eaa4-4b9f-9cf9-679988a35052","system_id":"levelo_inurba_marseille","lat":43.28268,"lon":5.35075,"is_reserved":false,"is_disabled":false,"rental_uris":{"android":"levelo://app?vid=70459f13-eaa4-4b9f-9cf9-679988a35052","ios":"levelo://app?vid=70459f13-eaa4-4b9f-9cf9-679988a35052"},"vehicle_type_id":"4","last_reported":1751476219,"current_range_meters":18800,"station_id":"ce4bhbp2rcd13ifvqerg","pricing_plan_id":"cebpf4jnsgd1na2vs0mg"},{"bike_id":"2ea773ef-38dc-4d08-98e1-94889e1bf05e","system_id":"levelo_inurba_marseille","lat":43.28618,"lon":5.35103,"is_reserved":false,"is_disabled":false,"rental_uris":{"android":"levelo://app?vid=2ea773ef-38dc-4d08-98e1-94889e1bf05e","ios":"levelo://app?vid=2ea773ef-38dc-4d08-98e1-94889e1bf05e"},"vehicle_type_id":"4","last_reported":1751476219,"current_range_meters":18800,"station_id":"ce4bhch2rcd13ifvqeug","pricing_plan_id":"cebpf4jnsgd1na2vs0mg"},{"bike_id":"c51c136e-5ab2-4ab2-b6ca-ae033344303c","system_id":"levelo_inurba_marseille","lat":43.24807,"lon":5.37457,"is_reserved":false,"is_disabled":false,"rental_uris":{"android":"levelo://app?vid=c51c136e-5ab2-4ab2-b6ca-ae033344303c","ios":"levelo://app?vid=c51c136e-5ab2-4ab2-b6ca-ae033344303c"},"vehicle_type_id":"4","last_reported":1751476219,"current_range_meters":18800,"station_id":"ce4bhgh2rcd13ifvqfb0","pricing_plan_id":"cebpf4jnsgd1na2vs0mg"},{"bike_id":"b2325bea-9a74-459a-a713-509c2ba84f3e","system_id":"levelo_inurba_marseille","lat":43.28322,"lon":5.41291,"is_reserved":false,"is_disabled":false,"rental_uris":{"android":"levelo://app?vid=b2325bea-9a74-459a-a713-509c2ba84f3e","ios":"levelo://app?vid=b2325bea-9a74-459a-a713-509c2ba84f3e"},"vehicle_type_id":"4","last_reported":1751476219,"current_range_meters":19200,"station_id":"","pricing_plan_id":"cebpf4jnsgd1na2vs0mg"},{"bike_id":"e2ba2731-7eca-4d37-af62-92b6f81cf5dc","system_id":"levelo_inurba_marseille","lat":43.29005,"lon":5.35606,"is_reserved":false,"is_disabled":false,"rental_uris":{"android":"levelo://app?vid=e2ba2731-7eca-4d37-af62-92b6f81cf5dc","ios":"levelo://app?vid=e2ba2731-7eca-4d37-af62-92b6f81cf5dc"},"vehicle_type_id":"4","last_reported":1751476219,"current_range_meters":19200,"station_id":"ce4bhb92rcd13ifvqen0","pricing_plan_id":"cebpf4jnsgd1na2vs0mg"},{"bike_id":"88da0a8a-c235-4518-8971-4d82c75fdca3","system_id":"levelo_inurba_marseille","lat":43.28421,"lon":5.35001,"is_reserved":false,"is_disabled":false,"rental_uris":{"android":"levelo://app?vid=88da0a8a-c235-4518-8971-4d82c75fdca3","ios":"levelo://app?vid=88da0a8a-c235-4518-8971-4d82c75fdca3"},"vehicle_type_id":"4","last_reported":1751476219,"current_range_meters":19200,"station_id":"ce4bhbh2rcd13ifvqepg","pricing_plan_id":"cebpf4jnsgd1na2vs0mg"},{"bike_id":"3d7f8e9b-4213-40e4-a3e7-78d54f706b9f","system_id":"levelo_inurba_marseille","lat":43.28426,"lon":5.34991,"is_reserved":false,"is_disabled":false,"rental_uris":{"android":"levelo://app?vid=3d7f8e9b-4213-40e4-a3e7-78d54f706b9f","ios":"levelo://app?vid=3d7f8e9b-4213-40e4-a3e7-78d54f706b9f"},"vehicle_type_id":"4","last_reported":1751476219,"current_range_meters":19200,"station_id":"ce4bhbh2rcd13ifvqepg","pricing_plan_id":"cebpf4jnsgd1na2vs0mg"},{"bike_id":"5eff832e-c78a-448d-99c0-d4ac89c64acc","system_id":"levelo_inurba_marseille","lat":43.28621,"lon":5.35087,"is_reserved":false,"is_disabled":false,"rental_uris":{"android":"levelo://app?vid=5eff832e-c78a-448d-99c0-d4ac89c64acc","ios":"levelo://app?vid=5eff832e-c78a-448d-99c0-d4ac89c64acc"},"vehicle_type_id":"4","last_reported":1751476219,"current_range_meters":19200,"station_id":"ce4bhch2rcd13ifvqeug","pricing_plan_id":"cebpf4jnsgd1na2vs0mg"},{"bike_id":"d7eb42dd-1291-458b-978f-486fe89680a6","system_id":"levelo_inurba_marseille","lat":43.24813,"lon":5.37459,"is_reserved":false,"is_disabled":false,"rental_uris":{"android":"levelo://app?vid=d7eb42dd-1291-458b-978f-486fe89680a6","ios":"levelo://app?vid=d7eb42dd-1291-458b-978f-486fe89680a6"},"vehicle_type_id":"4","last_reported":1751476219,"current_range_meters":19200,"station_id":"ce4bhgh2rcd13ifvqfb0","pricing_plan_id":"cebpf4jnsgd1na2vs0mg"},{"bike_id":"b445243d-d68b-483b-9ee8-a8a7ff25f0e0","system_id":"levelo_inurba_marseille","lat":43.29558,"lon":5.42281,"is_reserved":false,"is_disabled":false,"rental_uris":{"android":"levelo://app?vid=b445243d-d68b-483b-9ee8-a8a7ff25f0e0","ios":"levelo://app?vid=b445243d-d68b-483b-9ee8-a8a7ff25f0e0"},"vehicle_type_id":"4","last_reported":1751476219,"current_range_meters":19200,"station_id":"ce4bhph2rcd13ifvqhdg","pricing_plan_id":"cebpf4jnsgd1na2vs0mg"},{"bike_id":"48a8b866-9a64-4b58-8b3a-d988de0d4af0","system_id":"levelo_inurba_marseille","lat":43.24167,"lon":5.36431,"is_reserved":false,"is_disabled":false,"rental_uris":{"android":"levelo://app?vid=48a8b866-9a64-4b58-8b3a-d988de0d4af0","ios":"levelo://app?vid=48a8b866-9a64-4b58-8b3a-d988de0d4af0"},"vehicle_type_id":"4","last_reported":1751476219,"current_range_meters":19200,"station_id":"cpo36qri1sfpv3e86is0","pricing_plan_id":"cebpf4jnsgd1na2vs0mg"},{"bike_id":"37b84a38-055a-4a6e-a56a-8ff3d0c1b2ec","system_id":"levelo_inurba_marseille","lat":43.21219,"lon":5.3511,"is_reserved":false,"is_disabled":false,"rental_uris":{"android":"levelo://app?vid=37b84a38-055a-4a6e-a56a-8ff3d0c1b2ec","ios":"levelo://app?vid=37b84a38-055a-4a6e-a56a-8ff3d0c1b2ec"},"vehicle_type_id":"4","last_reported":1751476219,"current_range_meters":19200,"station_id":"st_cvj6sg6p6f1abm77japg","pricing_plan_id":"cebpf4jnsgd1na2vs0mg"},{"bike_id":"83097cd5-2f78-42e4-9a71-6b8644283f1a","system_id":"levelo_inurba_marseille","lat":43.30289,"lon":5.40077,"is_reserved":false,"is_disabled":false,"rental_uris":{"android":"levelo://app?vid=83097cd5-2f78-42e4-9a71-6b8644283f1a","ios":"levelo://app?vid=83097cd5-2f78-42e4-9a71-6b8644283f1a"},"vehicle_type_id":"4","last_reported":1751476219,"current_range_meters":19600,"station_id":"","pricing_plan_id":"cebpf4jnsgd1na2vs0mg"},{"bike_id":"957f9f90-ce4d-4d67-8550-f8e9dc318aef","system_id":"levelo_inurba_marseille","lat":43.29205,"lon":5.35792,"is_reserved":false,"is_disabled":false,"rental_uris":{"android":"levelo://app?vid=957f9f90-ce4d-4d67-8550-f8e9dc318aef","ios":"levelo://app?vid=957f9f90-ce4d-4d67-8550-f8e9dc318aef"},"vehicle_type_id":"4","last_reported":1751476219,"current_range_meters":19600,"station_id":"ce4bhb12rcd13ifvqel0","pricing_plan_id":"cebpf4jnsgd1na2vs0mg"},{"bike_id":"db714f02-8001-440b-a547-d12772041185","system_id":"levelo_inurba_marseille","lat":43.29218,"lon":5.36047,"is_reserved":false,"is_disabled":false,"rental_uris":{"android":"levelo://app?vid=db714f02-8001-440b-a547-d12772041185","ios":"levelo://app?vid=db714f02-8001-440b-a547-d12772041185"},"vehicle_type_id":"4","last_reported":1751476219,"current_range_meters":19600,"station_id":"ce4bhbh2rcd13ifvqeqg","pricing_plan_id":"cebpf4jnsgd1na2vs0mg"},{"bike_id":"f5e58e05-94ef-43c0-ae1b-f713901c3bed","system_id":"levelo_inurba_marseille","lat":43.28629,"lon":5.35118,"is_reserved":false,"is_disabled":false,"rental_uris":{"android":"levelo://app?vid=f5e58e05-94ef-43c0-ae1b-f713901c3bed","ios":"levelo://app?vid=f5e58e05-94ef-43c0-ae1b-f713901c3bed"},"vehicle_type_id":"4","last_reported":1751476219,"current_range_meters":19600,"station_id":"ce4bhch2rcd13ifvqeug","pricing_plan_id":"cebpf4jnsgd1na2vs0mg"},{"bike_id":"267bd5ad-8c4d-472d-ac27-3f85c09d1739","system_id":"levelo_inurba_marseille","lat":43.25724,"lon":5.41088,"is_reserved":false,"is_disabled":false,"rental_uris":{"android":"levelo://app?vid=267bd5ad-8c4d-472d-ac27-3f85c09d1739","ios":"levelo://app?vid=267bd5ad-8c4d-472d-ac27-3f85c09d1739"},"vehicle_type_id":"4","last_reported":1751476219,"current_range_meters":19600,"station_id":"ce4bhkp2rcd13ifvqgd0","pricing_plan_id":"cebpf4jnsgd1na2vs0mg"},{"bike_id":"21e2c51d-4563-4efd-afbf-0ddeff93c862","system_id":"levelo_inurba_marseille","lat":43.21756,"lon":5.34595,"is_reserved":false,"is_disabled":false,"rental_uris":{"android":"levelo://app?vid=21e2c51d-4563-4efd-afbf-0ddeff93c862","ios":"levelo://app?vid=21e2c51d-4563-4efd-afbf-0ddeff93c862"},"vehicle_type_id":"4","last_reported":1751476219,"current_range_meters":19600,"station_id":"st_cvj6r9ubvosntc0bgbag","pricing_plan_id":"cebpf4jnsgd1na2vs0mg"},{"bike_id":"92ce571e-8bb4-4eab-9f9e-809fb7433bc6","system_id":"levelo_inurba_marseille","lat":43.27374,"lon":5.36253,"is_reserved":false,"is_disabled":false,"rental_uris":{"android":"levelo://app?vid=92ce571e-8bb4-4eab-9f9e-809fb7433bc6","ios":"levelo://app?vid=92ce571e-8bb4-4eab-9f9e-809fb7433bc6"},"vehicle_type_id":"4","last_reported":1751476219,"current_range_meters":20000,"station_id":"ce4bhbh2rcd13ifvqeo0","pricing_plan_id":"cebpf4jnsgd1na2vs0mg"},{"bike_id":"8f868f42-19df-4e4d-b3e0-a0a82996908a","system_id":"levelo_inurba_marseille","lat":43.2841,"lon":5.34988,"is_reserved":false,"is_disabled":false,"rental_uris":{"android":"levelo://app?vid=8f868f42-19df-4e4d-b3e0-a0a82996908a","ios":"levelo://app?vid=8f868f42-19df-4e4d-b3e0-a0a82996908a"},"vehicle_type_id":"4","last_reported":1751476219,"current_range_meters":20000,"station_id":"ce4bhbh2rcd13ifvqepg","pricing_plan_id":"cebpf4jnsgd1na2vs0mg"},{"bike_id":"b9c3f51c-db67-4584-89db-27f664640024","system_id":"levelo_inurba_marseille","lat":43.28284,"lon":5.35076,"is_reserved":false,"is_disabled":false,"rental_uris":{"android":"levelo://app?vid=b9c3f51c-db67-4584-89db-27f664640024","ios":"levelo://app?vid=b9c3f51c-db67-4584-89db-27f664640024"},"vehicle_type_id":"4","last_reported":1751476219,"current_range_meters":20000,"station_id":"ce4bhbp2rcd13ifvqerg","pricing_plan_id":"cebpf4jnsgd1na2vs0mg"},{"bike_id":"f2444b85-9156-423d-9bd7-9f663f4f21b5","system_id":"levelo_inurba_marseille","lat":43.28617,"lon":5.35096,"is_reserved":false,"is_disabled":false,"rental_uris":{"android":"levelo://app?vid=f2444b85-9156-423d-9bd7-9f663f4f21b5","ios":"levelo://app?vid=f2444b85-9156-423d-9bd7-9f663f4f21b5"},"vehicle_type_id":"4","last_reported":1751476219,"current_range_meters":20000,"station_id":"ce4bhch2rcd13ifvqeug","pricing_plan_id":"cebpf4jnsgd1na2vs0mg"},{"bike_id":"9c4f9a2d-b455-431d-a8b6-b8f482f5e447","system_id":"levelo_inurba_marseille","lat":43.25486,"lon":5.37636,"is_reserved":false,"is_disabled":false,"rental_uris":{"android":"levelo://app?vid=9c4f9a2d-b455-431d-a8b6-b8f482f5e447","ios":"levelo://app?vid=9c4f9a2d-b455-431d-a8b6-b8f482f5e447"},"vehicle_type_id":"4","last_reported":1751476219,"current_range_meters":20000,"station_id":"ce4bhh12rcd13ifvqff0","pricing_plan_id":"cebpf4jnsgd1na2vs0mg"},{"bike_id":"7e21e8f2-09c8-4cc5-8113-278ebd23888d","system_id":"levelo_inurba_marseille","lat":43.21192,"lon":5.35119,"is_reserved":false,"is_disabled":false,"rental_uris":{"android":"levelo://app?vid=7e21e8f2-09c8-4cc5-8113-278ebd23888d","ios":"levelo://app?vid=7e21e8f2-09c8-4cc5-8113-278ebd23888d"},"vehicle_type_id":"4","last_reported":1751476219,"current_range_meters":20000,"station_id":"st_cvj6sg6p6f1abm77japg","pricing_plan_id":"cebpf4jnsgd1na2vs0mg"},{"bike_id":"4d4995e7-0bba-4ac2-a238-afd84a5e99b5","system_id":"levelo_inurba_marseille","lat":43.304848,"lon":5.398345,"is_reserved":false,"is_disabled":false,"rental_uris":{"android":"levelo://app?vid=4d4995e7-0bba-4ac2-a238-afd84a5e99b5","ios":"levelo://app?vid=4d4995e7-0bba-4ac2-a238-afd84a5e99b5"},"vehicle_type_id":"4","last_reported":1751476219,"current_range_meters":20400,"station_id":"","pricing_plan_id":"cebpf4jnsgd1na2vs0mg"},{"bike_id":"50bb0fdb-2cc1-4d8d-af26-b7febba54985","system_id":"levelo_inurba_marseille","lat":43.274139,"lon":5.39007,"is_reserved":false,"is_disabled":false,"rental_uris":{"android":"levelo://app?vid=50bb0fdb-2cc1-4d8d-af26-b7febba54985","ios":"levelo://app?vid=50bb0fdb-2cc1-4d8d-af26-b7febba54985"},"vehicle_type_id":"4","last_reported":1751476219,"current_range_meters":20400,"station_id":"","pricing_plan_id":"cebpf4jnsgd1na2vs0mg"},{"bike_id":"ab4d35a8-7c05-46a5-b1ed-9ec8f81331d5","system_id":"levelo_inurba_marseille","lat":43.28285,"lon":5.35073,"is_reserved":false,"is_disabled":false,"rental_uris":{"android":"levelo://app?vid=ab4d35a8-7c05-46a5-b1ed-9ec8f81331d5","ios":"levelo://app?vid=ab4d35a8-7c05-46a5-b1ed-9ec8f81331d5"},"vehicle_type_id":"4","last_reported":1751476219,"current_range_meters":20400,"station_id":"ce4bhbp2rcd13ifvqerg","pricing_plan_id":"cebpf4jnsgd1na2vs0mg"},{"bike_id":"0fe755ed-390c-4e0a-b281-2728111f44cc","system_id":"levelo_inurba_marseille","lat":43.28256,"lon":5.35072,"is_reserved":false,"is_disabled":false,"rental_uris":{"android":"levelo://app?vid=0fe755ed-390c-4e0a-b281-2728111f44cc","ios":"levelo://app?vid=0fe755ed-390c-4e0a-b281-2728111f44cc"},"vehicle_type_id":"4","last_reported":1751476219,"current_range_meters":20400,"station_id":"ce4bhbp2rcd13ifvqerg","pricing_plan_id":"cebpf4jnsgd1na2vs0mg"},{"bike_id":"e3245555-833a-4cfb-951a-00167a955457","system_id":"levelo_inurba_marseille","lat":43.27983,"lon":5.38744,"is_reserved":false,"is_disabled":false,"rental_uris":{"android":"levelo://app?vid=e3245555-833a-4cfb-951a-00167a955457","ios":"levelo://app?vid=e3245555-833a-4cfb-951a-00167a955457"},"vehicle_type_id":"4","last_reported":1751476219,"current_range_meters":20400,"station_id":"ce4bhg12rcd13ifvqf80","pricing_plan_id":"cebpf4jnsgd1na2vs0mg"},{"bike_id":"3dc356e6-98e7-4332-9d76-7fb5ca548e76","system_id":"levelo_inurba_marseille","lat":43.24168,"lon":5.36402,"is_reserved":false,"is_disabled":false,"rental_uris":{"android":"levelo://app?vid=3dc356e6-98e7-4332-9d76-7fb5ca548e76","ios":"levelo://app?vid=3dc356e6-98e7-4332-9d76-7fb5ca548e76"},"vehicle_type_id":"4","last_reported":1751476219,"current_range_meters":20400,"station_id":"cpo36qri1sfpv3e86is0","pricing_plan_id":"cebpf4jnsgd1na2vs0mg"},{"bike_id":"a6715104-7492-4ec6-a996-23050baf8551","system_id":"levelo_inurba_marseille","lat":43.22503,"lon":5.34783,"is_reserved":false,"is_disabled":false,"rental_uris":{"android":"levelo://app?vid=a6715104-7492-4ec6-a996-23050baf8551","ios":"levelo://app?vid=a6715104-7492-4ec6-a996-23050baf8551"},"vehicle_type_id":"4","last_reported":1751476219,"current_range_meters":20400,"station_id":"st_cvj5dfep6f1abm77gieg","pricing_plan_id":"cebpf4jnsgd1na2vs0mg"},{"bike_id":"e5ad9d6a-5b72-4877-975f-71b0c91a3c6b","system_id":"levelo_inurba_marseille","lat":43.28421,"lon":5.34981,"is_reserved":false,"is_disabled":false,"rental_uris":{"android":"levelo://app?vid=e5ad9d6a-5b72-4877-975f-71b0c91a3c6b","ios":"levelo://app?vid=e5ad9d6a-5b72-4877-975f-71b0c91a3c6b"},"vehicle_type_id":"4","last_reported":1751476219,"current_range_meters":21600,"station_id":"ce4bhbh2rcd13ifvqepg","pricing_plan_id":"cebpf4jnsgd1na2vs0mg"},{"bike_id":"4133a128-498f-4833-be65-a8cfce0b7ca0","system_id":"levelo_inurba_marseille","lat":43.28427,"lon":5.34985,"is_reserved":false,"is_disabled":false,"rental_uris":{"android":"levelo://app?vid=4133a128-498f-4833-be65-a8cfce0b7ca0","ios":"levelo://app?vid=4133a128-498f-4833-be65-a8cfce0b7ca0"},"vehicle_type_id":"4","last_reported":1751476219,"current_range_meters":21600,"station_id":"ce4bhbh2rcd13ifvqepg","pricing_plan_id":"cebpf4jnsgd1na2vs0mg"},{"bike_id":"8420c001-9fa4-44a2-8d2b-4b8e2a962b1b","system_id":"levelo_inurba_marseille","lat":43.28277,"lon":5.35069,"is_reserved":false,"is_disabled":false,"rental_uris":{"android":"levelo://app?vid=8420c001-9fa4-44a2-8d2b-4b8e2a962b1b","ios":"levelo://app?vid=8420c001-9fa4-44a2-8d2b-4b8e2a962b1b"},"vehicle_type_id":"4","last_reported":1751476219,"current_range_meters":21600,"station_id":"ce4bhbp2rcd13ifvqerg","pricing_plan_id":"cebpf4jnsgd1na2vs0mg"},{"bike_id":"f1d60942-f1e1-4d98-9fd4-53066a986a39","system_id":"levelo_inurba_marseille","lat":43.28643,"lon":5.35078,"is_reserved":false,"is_disabled":false,"rental_uris":{"android":"levelo://app?vid=f1d60942-f1e1-4d98-9fd4-53066a986a39","ios":"levelo://app?vid=f1d60942-f1e1-4d98-9fd4-53066a986a39"},"vehicle_type_id":"4","last_reported":1751476219,"current_range_meters":21600,"station_id":"ce4bhch2rcd13ifvqeug","pricing_plan_id":"cebpf4jnsgd1na2vs0mg"},{"bike_id":"598d38b3-55b2-4926-9fd9-07dda3da31f6","system_id":"levelo_inurba_marseille","lat":43.27067,"lon":5.42275,"is_reserved":false,"is_disabled":false,"rental_uris":{"android":"levelo://app?vid=598d38b3-55b2-4926-9fd9-07dda3da31f6","ios":"levelo://app?vid=598d38b3-55b2-4926-9fd9-07dda3da31f6"},"vehicle_type_id":"4","last_reported":1751476219,"current_range_meters":21600,"station_id":"ce4bhk92rcd13ifvqgb0","pricing_plan_id":"cebpf4jnsgd1na2vs0mg"},{"bike_id":"cc04118e-9312-4bf8-9106-d64e829afbaa","system_id":"levelo_inurba_marseille","lat":43.21197,"lon":5.35079,"is_reserved":false,"is_disabled":false,"rental_uris":{"android":"levelo://app?vid=cc04118e-9312-4bf8-9106-d64e829afbaa","ios":"levelo://app?vid=cc04118e-9312-4bf8-9106-d64e829afbaa"},"vehicle_type_id":"4","last_reported":1751476219,"current_range_meters":21600,"station_id":"st_cvj6sg6p6f1abm77japg","pricing_plan_id":"cebpf4jnsgd1na2vs0mg"},{"bike_id":"b2ce53ca-166b-417e-9d70-9bee393f75bb","system_id":"levelo_inurba_marseille","lat":43.211927,"lon":5.350704,"is_reserved":false,"is_disabled":false,"rental_uris":{"android":"levelo://app?vid=b2ce53ca-166b-417e-9d70-9bee393f75bb","ios":"levelo://app?vid=b2ce53ca-166b-417e-9d70-9bee393f75bb"},"vehicle_type_id":"4","last_reported":1751476219,"current_range_meters":21600,"station_id":"st_cvj6sg6p6f1abm77japg","pricing_plan_id":"cebpf4jnsgd1na2vs0mg"},{"bike_id":"b58f764f-b2cf-4ba7-a00a-9a95b13f6b89","system_id":"levelo_inurba_marseille","lat":43.28612,"lon":5.35114,"is_reserved":false,"is_disabled":false,"rental_uris":{"android":"levelo://app?vid=b58f764f-b2cf-4ba7-a00a-9a95b13f6b89","ios":"levelo://app?vid=b58f764f-b2cf-4ba7-a00a-9a95b13f6b89"},"vehicle_type_id":"4","last_reported":1751476219,"current_range_meters":22000,"station_id":"ce4bhch2rcd13ifvqeug","pricing_plan_id":"cebpf4jnsgd1na2vs0mg"},{"bike_id":"1c8ab180-05fd-405f-9922-b2b2c2d5142f","system_id":"levelo_inurba_marseille","lat":43.33796,"lon":5.38101,"is_reserved":false,"is_disabled":false,"rental_uris":{"android":"levelo://app?vid=1c8ab180-05fd-405f-9922-b2b2c2d5142f","ios":"levelo://app?vid=1c8ab180-05fd-405f-9922-b2b2c2d5142f"},"vehicle_type_id":"4","last_reported":1751476219,"current_range_meters":22400,"station_id":"","pricing_plan_id":"cebpf4jnsgd1na2vs0mg"},{"bike_id":"73933184-db2b-4e91-87b6-307fd09b3b62","system_id":"levelo_inurba_marseille","lat":43.29206,"lon":5.35797,"is_reserved":false,"is_disabled":false,"rental_uris":{"android":"levelo://app?vid=73933184-db2b-4e91-87b6-307fd09b3b62","ios":"levelo://app?vid=73933184-db2b-4e91-87b6-307fd09b3b62"},"vehicle_type_id":"4","last_reported":1751476219,"current_range_meters":22400,"station_id":"ce4bhb12rcd13ifvqel0","pricing_plan_id":"cebpf4jnsgd1na2vs0mg"},{"bike_id":"34b20eac-7d5d-4be6-a625-9da3dba56cec","system_id":"levelo_inurba_marseille","lat":43.28282,"lon":5.35075,"is_reserved":false,"is_disabled":false,"rental_uris":{"android":"levelo://app?vid=34b20eac-7d5d-4be6-a625-9da3dba56cec","ios":"levelo://app?vid=34b20eac-7d5d-4be6-a625-9da3dba56cec"},"vehicle_type_id":"4","last_reported":1751476219,"current_range_meters":22400,"station_id":"ce4bhbp2rcd13ifvqerg","pricing_plan_id":"cebpf4jnsgd1na2vs0mg"},{"bike_id":"d6fd3c8f-a28e-4b5f-b6a4-80e810aef6d5","system_id":"levelo_inurba_marseille","lat":43.28413,"lon":5.34993,"is_reserved":false,"is_disabled":false,"rental_uris":{"android":"levelo://app?vid=d6fd3c8f-a28e-4b5f-b6a4-80e810aef6d5","ios":"levelo://app?vid=d6fd3c8f-a28e-4b5f-b6a4-80e810aef6d5"},"vehicle_type_id":"4","last_reported":1751476219,"current_range_meters":22800,"station_id":"ce4bhbh2rcd13ifvqepg","pricing_plan_id":"cebpf4jnsgd1na2vs0mg"},{"bike_id":"6b065a67-9e97-4111-89db-6f7cdefebeae","system_id":"levelo_inurba_marseille","lat":43.32659,"lon":5.40997,"is_reserved":false,"is_disabled":false,"rental_uris":{"android":"levelo://app?vid=6b065a67-9e97-4111-89db-6f7cdefebeae","ios":"levelo://app?vid=6b065a67-9e97-4111-89db-6f7cdefebeae"},"vehicle_type_id":"4","last_reported":1751476219,"current_range_meters":22800,"station_id":"ce4bhpp2rcd13ifvqhgg","pricing_plan_id":"cebpf4jnsgd1na2vs0mg"},{"bike_id":"0dbbfd7c-5e93-4301-aea8-6d89ce7ed33b","system_id":"levelo_inurba_marseille","lat":43.21755,"lon":5.346,"is_reserved":false,"is_disabled":false,"rental_uris":{"android":"levelo://app?vid=0dbbfd7c-5e93-4301-aea8-6d89ce7ed33b","ios":"levelo://app?vid=0dbbfd7c-5e93-4301-aea8-6d89ce7ed33b"},"vehicle_type_id":"4","last_reported":1751476219,"current_range_meters":22800,"station_id":"st_cvj6r9ubvosntc0bgbag","pricing_plan_id":"cebpf4jnsgd1na2vs0mg"},{"bike_id":"5f1e5526-9ff8-4075-8194-48a897f058b4","system_id":"levelo_inurba_marseille","lat":43.211904,"lon":5.350712,"is_reserved":false,"is_disabled":false,"rental_uris":{"android":"levelo://app?vid=5f1e5526-9ff8-4075-8194-48a897f058b4","ios":"levelo://app?vid=5f1e5526-9ff8-4075-8194-48a897f058b4"},"vehicle_type_id":"4","last_reported":1751476219,"current_range_meters":22800,"station_id":"st_cvj6sg6p6f1abm77japg","pricing_plan_id":"cebpf4jnsgd1na2vs0mg"},{"bike_id":"7de77c9b-759d-4479-9dab-5d4a98405617","system_id":"levelo_inurba_marseille","lat":43.29191,"lon":5.35798,"is_reserved":false,"is_disabled":false,"rental_uris":{"android":"levelo://app?vid=7de77c9b-759d-4479-9dab-5d4a98405617","ios":"levelo://app?vid=7de77c9b-759d-4479-9dab-5d4a98405617"},"vehicle_type_id":"4","last_reported":1751476219,"current_range_meters":23200,"station_id":"ce4bhb12rcd13ifvqel0","pricing_plan_id":"cebpf4jnsgd1na2vs0mg"},{"bike_id":"9cb49ca2-286a-4f68-b79d-2d311bf76359","system_id":"levelo_inurba_marseille","lat":43.28429,"lon":5.34994,"is_reserved":false,"is_disabled":false,"rental_uris":{"android":"levelo://app?vid=9cb49ca2-286a-4f68-b79d-2d311bf76359","ios":"levelo://app?vid=9cb49ca2-286a-4f68-b79d-2d311bf76359"},"vehicle_type_id":"4","last_reported":1751476219,"current_range_meters":23200,"station_id":"ce4bhbh2rcd13ifvqepg","pricing_plan_id":"cebpf4jnsgd1na2vs0mg"},{"bike_id":"bf563b61-1290-47ba-9ac7-7634a25e5b3e","system_id":"levelo_inurba_marseille","lat":43.28418,"lon":5.3499,"is_reserved":false,"is_disabled":false,"rental_uris":{"android":"levelo://app?vid=bf563b61-1290-47ba-9ac7-7634a25e5b3e","ios":"levelo://app?vid=bf563b61-1290-47ba-9ac7-7634a25e5b3e"},"vehicle_type_id":"4","last_reported":1751476219,"current_range_meters":23200,"station_id":"ce4bhbh2rcd13ifvqepg","pricing_plan_id":"cebpf4jnsgd1na2vs0mg"},{"bike_id":"311ab6dc-8044-450b-b6ce-8a4f94b968f6","system_id":"levelo_inurba_marseille","lat":43.2828,"lon":5.35089,"is_reserved":false,"is_disabled":false,"rental_uris":{"android":"levelo://app?vid=311ab6dc-8044-450b-b6ce-8a4f94b968f6","ios":"levelo://app?vid=311ab6dc-8044-450b-b6ce-8a4f94b968f6"},"vehicle_type_id":"4","last_reported":1751476219,"current_range_meters":23200,"station_id":"ce4bhbp2rcd13ifvqerg","pricing_plan_id":"cebpf4jnsgd1na2vs0mg"},{"bike_id":"32c0fc37-6823-41d0-9497-8d1eea24742c","system_id":"levelo_inurba_marseille","lat":43.24157,"lon":5.36422,"is_reserved":false,"is_disabled":false,"rental_uris":{"android":"levelo://app?vid=32c0fc37-6823-41d0-9497-8d1eea24742c","ios":"levelo://app?vid=32c0fc37-6823-41d0-9497-8d1eea24742c"},"vehicle_type_id":"4","last_reported":1751476219,"current_range_meters":23200,"station_id":"cpo36qri1sfpv3e86is0","pricing_plan_id":"cebpf4jnsgd1na2vs0mg"},{"bike_id":"3eabe1e2-f9f5-41cb-a4ed-73ca7f909c5c","system_id":"levelo_inurba_marseille","lat":43.2119,"lon":5.35067,"is_reserved":false,"is_disabled":false,"rental_uris":{"android":"levelo://app?vid=3eabe1e2-f9f5-41cb-a4ed-73ca7f909c5c","ios":"levelo://app?vid=3eabe1e2-f9f5-41cb-a4ed-73ca7f909c5c"},"vehicle_type_id":"4","last_reported":1751476219,"current_range_meters":23200,"station_id":"st_cvj6sg6p6f1abm77japg","pricing_plan_id":"cebpf4jnsgd1na2vs0mg"},{"bike_id":"bcdb1cc2-4215-4c6a-840b-fbc66ed28f30","system_id":"levelo_inurba_marseille","lat":43.284148,"lon":5.349796,"is_reserved":false,"is_disabled":false,"rental_uris":{"android":"levelo://app?vid=bcdb1cc2-4215-4c6a-840b-fbc66ed28f30","ios":"levelo://app?vid=bcdb1cc2-4215-4c6a-840b-fbc66ed28f30"},"vehicle_type_id":"4","last_reported":1751476219,"current_range_meters":24000,"station_id":"ce4bhbh2rcd13ifvqepg","pricing_plan_id":"cebpf4jnsgd1na2vs0mg"},{"bike_id":"16adc075-02a0-45bf-a4e0-511ee37b3e6f","system_id":"levelo_inurba_marseille","lat":43.284071,"lon":5.349816,"is_reserved":false,"is_disabled":false,"rental_uris":{"android":"levelo://app?vid=16adc075-02a0-45bf-a4e0-511ee37b3e6f","ios":"levelo://app?vid=16adc075-02a0-45bf-a4e0-511ee37b3e6f"},"vehicle_type_id":"4","last_reported":1751476219,"current_range_meters":24000,"station_id":"ce4bhbh2rcd13ifvqepg","pricing_plan_id":"cebpf4jnsgd1na2vs0mg"},{"bike_id":"cfe40386-a627-48f7-a6fc-f975d6ce12ab","system_id":"levelo_inurba_marseille","lat":43.25501,"lon":5.3765,"is_reserved":false,"is_disabled":false,"rental_uris":{"android":"levelo://app?vid=cfe40386-a627-48f7-a6fc-f975d6ce12ab","ios":"levelo://app?vid=cfe40386-a627-48f7-a6fc-f975d6ce12ab"},"vehicle_type_id":"4","last_reported":1751476219,"current_range_meters":24000,"station_id":"ce4bhh12rcd13ifvqff0","pricing_plan_id":"cebpf4jnsgd1na2vs0mg"},{"bike_id":"ba926bfc-9632-4680-b0ed-32a040d6fb83","system_id":"levelo_inurba_marseille","lat":43.21216,"lon":5.35082,"is_reserved":false,"is_disabled":false,"rental_uris":{"android":"levelo://app?vid=ba926bfc-9632-4680-b0ed-32a040d6fb83","ios":"levelo://app?vid=ba926bfc-9632-4680-b0ed-32a040d6fb83"},"vehicle_type_id":"4","last_reported":1751476219,"current_range_meters":24000,"station_id":"st_cvj6sg6p6f1abm77japg","pricing_plan_id":"cebpf4jnsgd1na2vs0mg"},{"bike_id":"b13877a6-4825-4d82-b46b-67fa8ad66c5d","system_id":"levelo_inurba_marseille","lat":43.21193,"lon":5.35067,"is_reserved":false,"is_disabled":false,"rental_uris":{"android":"levelo://app?vid=b13877a6-4825-4d82-b46b-67fa8ad66c5d","ios":"levelo://app?vid=b13877a6-4825-4d82-b46b-67fa8ad66c5d"},"vehicle_type_id":"4","last_reported":1751476219,"current_range_meters":24000,"station_id":"st_cvj6sg6p6f1abm77japg","pricing_plan_id":"cebpf4jnsgd1na2vs0mg"},{"bike_id":"7712491c-e18b-4b09-bb79-30880b357c07","system_id":"levelo_inurba_marseille","lat":43.21196,"lon":5.35078,"is_reserved":false,"is_disabled":false,"rental_uris":{"android":"levelo://app?vid=7712491c-e18b-4b09-bb79-30880b357c07","ios":"levelo://app?vid=7712491c-e18b-4b09-bb79-30880b357c07"},"vehicle_type_id":"4","last_reported":1751476219,"current_range_meters":24000,"station_id":"st_cvj6sg6p6f1abm77japg","pricing_plan_id":"cebpf4jnsgd1na2vs0mg"},{"bike_id":"89fda842-2852-4cf3-b81c-f3a1694a6397","system_id":"levelo_inurba_marseille","lat":43.217453,"lon":5.346026,"is_reserved":false,"is_disabled":false,"rental_uris":{"android":"levelo://app?vid=89fda842-2852-4cf3-b81c-f3a1694a6397","ios":"levelo://app?vid=89fda842-2852-4cf3-b81c-f3a1694a6397"},"vehicle_type_id":"4","last_reported":1751476219,"current_range_meters":24400,"station_id":"","pricing_plan_id":"cebpf4jnsgd1na2vs0mg"},{"bike_id":"b1071bbd-3b13-40e2-bce1-136f763303ed","system_id":"levelo_inurba_marseille","lat":43.29721,"lon":5.36631,"is_reserved":false,"is_disabled":false,"rental_uris":{"android":"levelo://app?vid=b1071bbd-3b13-40e2-bce1-136f763303ed","ios":"levelo://app?vid=b1071bbd-3b13-40e2-bce1-136f763303ed"},"vehicle_type_id":"4","last_reported":1751476219,"current_range_meters":24400,"station_id":"ce4bgn12rcd13ifvqbt0","pricing_plan_id":"cebpf4jnsgd1na2vs0mg"},{"bike_id":"5c646a29-10e3-4b9b-ae32-c776055b51f7","system_id":"levelo_inurba_marseille","lat":43.31691,"lon":5.37746,"is_reserved":false,"is_disabled":false,"rental_uris":{"android":"levelo://app?vid=5c646a29-10e3-4b9b-ae32-c776055b51f7","ios":"levelo://app?vid=5c646a29-10e3-4b9b-ae32-c776055b51f7"},"vehicle_type_id":"4","last_reported":1751476219,"current_range_meters":24400,"station_id":"ce4bgth2rcd13ifvqch0","pricing_plan_id":"cebpf4jnsgd1na2vs0mg"},{"bike_id":"e67011e2-4393-4576-981f-1f7df5338a7c","system_id":"levelo_inurba_marseille","lat":43.28574,"lon":5.39501,"is_reserved":false,"is_disabled":false,"rental_uris":{"android":"levelo://app?vid=e67011e2-4393-4576-981f-1f7df5338a7c","ios":"levelo://app?vid=e67011e2-4393-4576-981f-1f7df5338a7c"},"vehicle_type_id":"4","last_reported":1751476219,"current_range_meters":24400,"station_id":"ce4bh292rcd13ifvqdg0","pricing_plan_id":"cebpf4jnsgd1na2vs0mg"},{"bike_id":"ccc8a3f5-827e-4e40-8b65-54fd7b3dd369","system_id":"levelo_inurba_marseille","lat":43.288558,"lon":5.35865,"is_reserved":false,"is_disabled":false,"rental_uris":{"android":"levelo://app?vid=ccc8a3f5-827e-4e40-8b65-54fd7b3dd369","ios":"levelo://app?vid=ccc8a3f5-827e-4e40-8b65-54fd7b3dd369"},"vehicle_type_id":"4","last_reported":1751476219,"current_range_meters":24400,"station_id":"ce4bhb12rcd13ifvqem0","pricing_plan_id":"cebpf4jnsgd1na2vs0mg"},