{"last_updated":1704846975,"ttl":30,"version":"2.2","data":{"bikes":[{"bike_id":"1eaa779c-1e57-4608-996e-614e7746bd34","system_id":"levelo_inurba_marseille","lat":43.313391,"lon":5.36706,"is_reserved":false,"is_disabled":false,"rental_uris":{"android":"levelo://app?vid=1eaa779c-1e57-4608-996e-614e7746bd34","ios":"levelo://app?vid=1eaa779c-1e57-4608-996e-614e7746bd34"},"vehicle_type_id":"4","last_reported":1704846975,"current_range_meters":28400,"station_id":"ce4bgr92rcd13ifvqc6g","pricing_plan_id":"free"},{"bike_id":"0755139a-b0e8-4b8b-b009-b365349f28cb","system_id":"levelo_inurba_marseille","lat":43.312239,"lon":5.368562,"is_reserved":false,"is_disabled":false,"rental_uris":{"android":"levelo://app?vid=0755139a-b0e8-4b8b-b009-b365349f28cb","ios":"levelo://app?vid=0755139a-b0e8-4b8b-b009-b365349f28cb"},"vehicle_type_id":"4","last_reported":1704846975,"current_range_meters":11600,"station_id":"ce4bgl92rcd13ifvqbq0","pricing_plan_id":"free"},{"bike_id":"ad2c6043-690a-4a14-908f-ea4c9d64a388","system_id":"levelo_inurba_marseille","lat":43.312239,"lon":5.368562,"is_reserved":false,"is_disabled":false,"rental_uris":{"android":"levelo://app?vid=ad2c6043-690a-4a14-908f-ea4c9d64a388","ios":"levelo://app?vid=ad2c6043-690a-4a14-908f-ea4c9d64a388"},"vehicle_type_id":"4","last_reported":1704846975,"current_range_meters":5600,"station_id":"ce4bgl92rcd13ifvqbq0","pricing_plan_id":"free"},{"bike_id":"a18c9f18-dd23-4fa3-ae4c-750a813ec2dd","system_id":"levelo_inurba_marseille","lat":43.313607,"lon":5.373464,"is_reserved":false,"is_disabled":false,"rental_uris":{"android":"levelo://app?vid=a18c9f18-dd23-4fa3-ae4c-750a813ec2dd","ios":"levelo://app?vid=a18c9f18-dd23-4fa3-ae4c-750a813ec2dd"},"vehicle_type_id":"4","last_reported":1704846975,"current_range_meters":4000,"station_id":"","pricing_plan_id":"free"},{"bike_id":"af6f47ef-40df-4e4e-ac93-350709f0ddb1","system_id":"levelo_inurba_marseille","lat":43.314811,"lon":5.373103,"is_reserved":false,"is_disabled":false,"rental_uris":{"android":"levelo://app?vid=af6f47ef-40df-4e4e-ac93-350709f0ddb1","ios":"levelo://app?vid=af6f47ef-40df-4e4e-ac93-350709f0ddb1"},"vehicle_type_id":"4","last_reported":1704846975,"current_range_meters":25200,"station_id":"ce4bgt12rcd13ifvqcd0","pricing_plan_id":"free"},{"bike_id":"7ea78f98-f736-46aa-b8e0-7b70196c1152","system_id":"levelo_inurba_marseille","lat":43.314811,"lon":5.373103,"is_reserved":false,"is_disabled":false,"rental_uris":{"android":"levelo://app?vid=7ea78f98-f736-46aa-b8e0-7b70196c1152","ios":"levelo://app?vid=7ea78f98-f736-46aa-b8e0-7b70196c1152"},"vehicle_type_id":"4","last_reported":1704846975,"current_range_meters":2800,"station_id":"ce4bgt12rcd13ifvqcd0","pricing_plan_id":"free"},{"bike_id":"7cb381dc-8e31-4248-8c5a-279ba0a2e737","system_id":"levelo_inurba_marseille","lat":43.314811,"lon":5.373104,"is_reserved":false,"is_disabled":false,"rental_uris":{"android":"levelo://app?vid=7cb381dc-8e31-4248-8c5a-279ba0a2e737","ios":"levelo://app?vid=7cb381dc-8e31-4248-8c5a-279ba0a2e737"},"vehicle_type_id":"4","last_reported":1704846975,"current_range_meters":28800,"station_id":"ce4bgt12rcd13ifvqcd0","pricing_plan_id":"free"},{"bike_id":"7b3b699f-3f99-4e35-89af-d56ef1f73cc7","system_id":"levelo_inurba_marseille","lat":43.31531,"lon":5.37284,"is_reserved":false,"is_disabled":false,"rental_uris":{"android":"levelo://app?vid=7b3b699f-3f99-4e35-89af-d56ef1f73cc7","ios":"levelo://app?vid=7b3b699f-3f99-4e35-89af-d56ef1f73cc7"},"vehicle_type_id":"4","last_reported":1704846975,"current_range_meters":20000,"station_id":"","pricing_plan_id":"free"},{"bike_id":"e8e0b467-b5f3-40dd-9df9-0109755cbd51","system_id":"levelo_inurba_marseille","lat":43.309039,"lon":5.371797,"is_reserved":false,"is_disabled":false,"rental_uris":{"android":"levelo://app?vid=e8e0b467-b5f3-40dd-9df9-0109755cbd51","ios":"levelo://app?vid=e8e0b467-b5f3-40dd-9df9-0109755cbd51"},"vehicle_type_id":"4","last_reported":1704846975,"current_range_meters":21200,"station_id":"ce4bguh2rcd13ifvqckg","pricing_plan_id":"free"},{"bike_id":"2980a71a-723a-4d76-9c58-e80ae11bdcf8","system_id":"levelo_inurba_marseille","lat":43.309039,"lon":5.371797,"is_reserved":false,"is_disabled":false,"rental_uris":{"android":"levelo://app?vid=2980a71a-723a-4d76-9c58-e80ae11bdcf8","ios":"levelo://app?vid=2980a71a-723a-4d76-9c58-e80ae11bdcf8"},"vehicle_type_id":"4","last_reported":1704846975,"current_range_meters":9200,"station_id":"ce4bguh2rcd13ifvqckg","pricing_plan_id":"free"},{"bike_id":"5ab70589-32b5-4290-91a4-e3c5db683f19","system_id":"levelo_inurba_marseille","lat":43.309039,"lon":5.371797,"is_reserved":false,"is_disabled":false,"rental_uris":{"android":"levelo://app?vid=5ab70589-32b5-4290-91a4-e3c5db683f19","ios":"levelo://app?vid=5ab70589-32b5-4290-91a4-e3c5db683f19"},"vehicle_type_id":"4","last_reported":1704846975,"current_range_meters":20000,"station_id":"ce4bguh2rcd13ifvqckg","pricing_plan_id":"free"},{"bike_id":"dccb29e9-017f-4a8e-a5e4-3466ddfabbe7","system_id":"levelo_inurba_marseille","lat":43.309039,"lon":5.371797,"is_reserved":false,"is_disabled":false,"rental_uris":{"android":"levelo://app?vid=dccb29e9-017f-4a8e-a5e4-3466ddfabbe7","ios":"levelo://app?vid=dccb29e9-017f-4a8e-a5e4-3466ddfabbe7"},"vehicle_type_id":"4","last_reported":1704846975,"current_range_meters":31200,"station_id":"ce4bguh2rcd13ifvqckg","pricing_plan_id":"free"},{"bike_id":"8acc3b37-c5e6-44fa-acdd-cb9adc25ca15","system_id":"levelo_inurba_marseille","lat":43.309039,"lon":5.371797,"is_reserved":false,"is_disabled":false,"rental_uris":{"android":"levelo://app?vid=8acc3b37-c5e6-44fa-acdd-cb9adc25ca15","ios":"levelo://app?vid=8acc3b37-c5e6-44fa-acdd-cb9adc25ca15"},"vehicle_type_id":"4","last_reported":1704846975,"current_range_meters":24800,"station_id":"ce4bguh2rcd13ifvqckg","pricing_plan_id":"free"},{"bike_id":"37a94385-b298-4917-8794-01d859f2e555","system_id":"levelo_inurba_marseille","lat":43.309039,"lon":5.371797,"is_reserved":false,"is_disabled":false,"rental_uris":{"android":"levelo://app?vid=37a94385-b298-4917-8794-01d859f2e555","ios":"levelo://app?vid=37a94385-b298-4917-8794-01d859f2e555"},"vehicle_type_id":"4","last_reported":1704846975,"current_range_meters":14400,"station_id":"ce4bguh2rcd13ifvqckg","pricing_plan_id":"free"},{"bike_id":"d428103c-c5eb-4c2a-8016-898e01cdf60f","system_id":"levelo_inurba_marseille","lat":43.305989,"lon":5.37225,"is_reserved":false,"is_disabled":false,"rental_uris":{"android":"levelo://app?vid=d428103c-c5eb-4c2a-8016-898e01cdf60f","ios":"levelo://app?vid=d428103c-c5eb-4c2a-8016-898e01cdf60f"},"vehicle_type_id":"4","last_reported":1704846975,"current_range_meters":800,"station_id":"ce4bgqh2rcd13ifvqc4g","pricing_plan_id":"free"},{"bike_id":"961b53d2-a391-4807-8d36-b5457a96a289","system_id":"levelo_inurba_marseille","lat":43.305989,"lon":5.37225,"is_reserved":false,"is_disabled":false,"rental_uris":{"android":"levelo://app?vid=961b53d2-a391-4807-8d36-b5457a96a289","ios":"levelo://app?vid=961b53d2-a391-4807-8d36-b5457a96a289"},"vehicle_type_id":"4","last_reported":1704846975,"current_range_meters":31600,"station_id":"ce4bgqh2rcd13ifvqc4g","pricing_plan_id":"free"},{"bike_id":"66cb6309-9162-4eb9-86fe-07c4974f436d","system_id":"levelo_inurba_marseille","lat":43.305989,"lon":5.37225,"is_reserved":false,"is_disabled":false,"rental_uris":{"android":"levelo://app?vid=66cb6309-9162-4eb9-86fe-07c4974f436d","ios":"levelo://app?vid=66cb6309-9162-4eb9-86fe-07c4974f436d"},"vehicle_type_id":"4","last_reported":1704846975,"current_range_meters":25200,"station_id":"ce4bgqh2rcd13ifvqc4g","pricing_plan_id":"free"},{"bike_id":"7677becd-06fe-4fc6-98d7-83ae5b8b6bae","system_id":"levelo_inurba_marseille","lat":43.305989,"lon":5.37225,"is_reserved":false,"is_disabled":false,"rental_uris":{"android":"levelo://app?vid=7677becd-06fe-4fc6-98d7-83ae5b8b6bae","ios":"levelo://app?vid=7677becd-06fe-4fc6-98d7-83ae5b8b6bae"},"vehicle_type_id":"4","last_reported":1704846975,"current_range_meters":26000,"station_id":"ce4bgqh2rcd13ifvqc4g","pricing_plan_id":"free"},{"bike_id":"dbfd96a6-4f0c-4c05-b05c-d7a02237e190","system_id":"levelo_inurba_marseille","lat":43.311257,"lon":5.377572,"is_reserved":false,"is_disabled":false,"rental_uris":{"android":"levelo://app?vid=dbfd96a6-4f0c-4c05-b05c-d7a02237e190","ios":"levelo://app?vid=dbfd96a6-4f0c-4c05-b05c-d7a02237e190"},"vehicle_type_id":"4","last_reported":1704846975,"current_range_meters":13600,"station_id":"ce4bgt92rcd13ifvqcg0","pricing_plan_id":"free"},{"bike_id":"83e2e606-05b5-4405-aeff-599755888f2b","system_id":"levelo_inurba_marseille","lat":43.311131,"lon":5.377651,"is_reserved":false,"is_disabled":false,"rental_uris":{"android":"levelo://app?vid=83e2e606-05b5-4405-aeff-599755888f2b","ios":"levelo://app?vid=83e2e606-05b5-4405-aeff-599755888f2b"},"vehicle_type_id":"4","last_reported":1704846975,"current_range_meters":20800,"station_id":"ce4bgt92rcd13ifvqcg0","pricing_plan_id":"free"},{"bike_id":"4c6476cd-1cd9-4353-b887-2a848b6c58a9","system_id":"levelo_inurba_marseille","lat":43.311131,"lon":5.377651,"is_reserved":false,"is_disabled":false,"rental_uris":{"android":"levelo://app?vid=4c6476cd-1cd9-4353-b887-2a848b6c58a9","ios":"levelo://app?vid=4c6476cd-1cd9-4353-b887-2a848b6c58a9"},"vehicle_type_id":"4","last_reported":1704846975,"current_range_meters":3200,"station_id":"ce4bgt92rcd13ifvqcg0","pricing_plan_id":"free"},{"bike_id":"67acf06d-20ca-4472-ba26-2bd85c48e4a9","system_id":"levelo_inurba_marseille","lat":43.311131,"lon":5.377651,"is_reserved":false,"is_disabled":false,"rental_uris":{"android":"levelo://app?vid=67acf06d-20ca-4472-ba26-2bd85c48e4a9","ios":"levelo://app?vid=67acf06d-20ca-4472-ba26-2bd85c48e4a9"},"vehicle_type_id":"4","last_reported":1704846975,"current_range_meters":15600,"station_id":"ce4bgt92rcd13ifvqcg0","pricing_plan_id":"free"},{"bike_id":"41b2ac81-f0c8-4243-b91c-3bdf1ec6d854","system_id":"levelo_inurba_marseille","lat":43.311131,"lon":5.377651,"is_reserved":false,"is_disabled":false,"rental_uris":{"android":"levelo://app?vid=41b2ac81-f0c8-4243-b91c-3bdf1ec6d854","ios":"levelo://app?vid=41b2ac81-f0c8-4243-b91c-3bdf1ec6d854"},"vehicle_type_id":"4","last_reported":1704846975,"current_range_meters":6000,"station_id":"ce4bgt92rcd13ifvqcg0","pricing_plan_id":"free"},{"bike_id":"6fe813f0-46f4-47e4-9cac-cf6330105969","system_id":"levelo_inurba_marseille","lat":43.311131,"lon":5.377651,"is_reserved":false,"is_disabled":false,"rental_uris":{"android":"levelo://app?vid=6fe813f0-46f4-47e4-9cac-cf6330105969","ios":"levelo://app?vid=6fe813f0-46f4-47e4-9cac-cf6330105969"},"vehicle_type_id":"4","last_reported":1704846975,"current_range_meters":13200,"station_id":"ce4bgt92rcd13ifvqcg0","pricing_plan_id":"free"},{"bike_id":"ab8286ac-c517-4741-8341-0ca3cd19bb64","system_id":"levelo_inurba_marseille","lat":43.311131,"lon":5.377651,"is_reserved":false,"is_disabled":false,"rental_uris":{"android":"levelo://app?vid=ab8286ac-c517-4741-8341-0ca3cd19bb64","ios":"levelo://app?vid=ab8286ac-c517-4741-8341-0ca3cd19bb64"},"vehicle_type_id":"4","last_reported":1704846975,"current_range_meters":13600,"station_id":"ce4bgt92rcd13ifvqcg0","pricing_plan_id":"free"},{"bike_id":"3d66605d-fb4a-4da7-99c3-3ddda8caae0a","system_id":"levelo_inurba_marseille","lat":43.307945,"lon":5.376487,"is_reserved":false,"is_disabled":false,"rental_uris":{"android":"levelo://app?vid=3d66605d-fb4a-4da7-99c3-3ddda8caae0a","ios":"levelo://app?vid=3d66605d-fb4a-4da7-99c3-3ddda8caae0a"},"vehicle_type_id":"4","last_reported":1704846975,"current_range_meters":17200,"station_id":"ce4bgv92rcd13ifvqcq0","pricing_plan_id":"free"},{"bike_id":"73c8cee9-38b9-4b86-8fc1-d058a40e0b55","system_id":"levelo_inurba_marseille","lat":43.307945,"lon":5.376487,"is_reserved":false,"is_disabled":false,"rental_uris":{"android":"levelo://app?vid=73c8cee9-38b9-4b86-8fc1-d058a40e0b55","ios":"levelo://app?vid=73c8cee9-38b9-4b86-8fc1-d058a40e0b55"},"vehicle_type_id":"4","last_reported":1704846975,"current_range_meters":400,"station_id":"ce4bgv92rcd13ifvqcq0","pricing_plan_id":"free"},{"bike_id":"72624e98-9bf2-4424-a11a-6b808216d842","system_id":"levelo_inurba_marseille","lat":43.307945,"lon":5.376487,"is_reserved":false,"is_disabled":false,"rental_uris":{"android":"levelo://app?vid=72624e98-9bf2-4424-a11a-6b808216d842","ios":"levelo://app?vid=72624e98-9bf2-4424-a11a-6b808216d842"},"vehicle_type_id":"4","last_reported":1704846975,"current_range_meters":21600,"station_id":"ce4bgv92rcd13ifvqcq0","pricing_plan_id":"free"},{"bike_id":"4447423b-6286-466e-82ce-67c05372ca55","system_id":"levelo_inurba_marseille","lat":43.307945,"lon":5.376487,"is_reserved":false,"is_disabled":false,"rental_uris":{"android":"levelo://app?vid=4447423b-6286-466e-82ce-67c05372ca55","ios":"levelo://app?vid=4447423b-6286-466e-82ce-67c05372ca55"},"vehicle_type_id":"4","last_reported":1704846975,"current_range_meters":7600,"station_id":"ce4bgv92rcd13ifvqcq0","pricing_plan_id":"free"},{"bike_id":"fdb4ae59-2392-4bba-803c-c737db437126","system_id":"levelo_inurba_marseille","lat":43.307945,"lon":5.376487,"is_reserved":false,"is_disabled":false,"rental_uris":{"android":"levelo://app?vid=fdb4ae59-2392-4bba-803c-c737db437126","ios":"levelo://app?vid=fdb4ae59-2392-4bba-803c-c737db437126"},"vehicle_type_id":"4","last_reported":1704846975,"current_range_meters":12000,"station_id":"ce4bgv92rcd13ifvqcq0","pricing_plan_id":"free"},{"bike_id":"b27493f3-9e77-459c-a1a7-9680231d4332","system_id":"levelo_inurba_marseille","lat":43.307945,"lon":5.376487,"is_reserved":false,"is_disabled":false,"rental_uris":{"android":"levelo://app?vid=b27493f3-9e77-459c-a1a7-9680231d4332","ios":"levelo://app?vid=b27493f3-9e77-459c-a1a7-9680231d4332"},"vehicle_type_id":"4","last_reported":1704846975,"current_range_meters":30800,"station_id":"ce4bgv92rcd13ifvqcq0","pricing_plan_id":"free"},{"bike_id":"fd5afc91-6135-4c0d-9b97-8844d2e58b55","system_id":"levelo_inurba_marseille","lat":43.307945,"lon":5.376487,"is_reserved":false,"is_disabled":false,"rental_uris":{"android":"levelo://app?vid=fd5afc91-6135-4c0d-9b97-8844d2e58b55","ios":"levelo://app?vid=fd5afc91-6135-4c0d-9b97-8844d2e58b55"},"vehicle_type_id":"4","last_reported":1704846975,"current_range_meters":31200,"station_id":"ce4bgv92rcd13ifvqcq0","pricing_plan_id":"free"},{"bike_id":"464cf71c-30dd-44a3-b3b2-b6879ae12feb","system_id":"levelo_inurba_marseille","lat":43.307945,"lon":5.376487,"is_reserved":false,"is_disabled":false,"rental_uris":{"android":"levelo://app?vid=464cf71c-30dd-44a3-b3b2-b6879ae12feb","ios":"levelo://app?vid=464cf71c-30dd-44a3-b3b2-b6879ae12feb"},"vehicle_type_id":"4","last_reported":1704846975,"current_range_meters":23200,"station_id":"ce4bgv92rcd13ifvqcq0","pricing_plan_id":"free"},{"bike_id":"68a2e4d5-df94-4531-8df4-dd89633f0d44","system_id":"levelo_inurba_marseille","lat":43.307945,"lon":5.376487,"is_reserved":false,"is_disabled":false,"rental_uris":{"android":"levelo://app?vid=68a2e4d5-df94-4531-8df4-dd89633f0d44","ios":"levelo://app?vid=68a2e4d5-df94-4531-8df4-dd89633f0d44"},"vehicle_type_id":"4","last_reported":1704846975,"current_range_meters":23200,"station_id":"ce4bgv92rcd13ifvqcq0","pricing_plan_id":"free"},{"bike_id":"d1c71a6d-c3e7-4f8a-a612-065af51348d2","system_id":"levelo_inurba_marseille","lat":43.317075,"lon":5.377367,"is_reserved":false,"is_disabled":false,"rental_uris":{"android":"levelo://app?vid=d1c71a6d-c3e7-4f8a-a612-065af51348d2","ios":"levelo://app?vid=d1c71a6d-c3e7-4f8a-a612-065af51348d2"},"vehicle_type_id":"4","last_reported":1704846975,"current_range_meters":19200,"station_id":"ce4bgth2rcd13ifvqch0","pricing_plan_id":"free"},{"bike_id":"dd5387d2-458c-4283-9f14-5702c861ee74","system_id":"levelo_inurba_marseille","lat":43.317075,"lon":5.377367,"is_reserved":false,"is_disabled":false,"rental_uris":{"android":"levelo://app?vid=dd5387d2-458c-4283-9f14-5702c861ee74","ios":"levelo://app?vid=dd5387d2-458c-4283-9f14-5702c861ee74"},"vehicle_type_id":"4","last_reported":1704846975,"current_range_meters":31200,"station_id":"ce4bgth2rcd13ifvqch0","pricing_plan_id":"free"},{"bike_id":"074e5b25-430d-4001-b15d-1d8552c25c04","system_id":"levelo_inurba_marseille","lat":43.303046,"lon":5.368981,"is_reserved":false,"is_disabled":false,"rental_uris":{"android":"levelo://app?vid=074e5b25-430d-4001-b15d-1d8552c25c04","ios":"levelo://app?vid=074e5b25-430d-4001-b15d-1d8552c25c04"},"vehicle_type_id":"4","last_reported":1704846975,"current_range_meters":31600,"station_id":"ce4bgqh2rcd13ifvqc5g","pricing_plan_id":"free"},{"bike_id":"fc3d79c8-701b-4989-8198-9e34c5285afc","system_id":"levelo_inurba_marseille","lat":43.303046,"lon":5.368981,"is_reserved":false,"is_disabled":false,"rental_uris":{"android":"levelo://app?vid=fc3d79c8-701b-4989-8198-9e34c5285afc","ios":"levelo://app?vid=fc3d79c8-701b-4989-8198-9e34c5285afc"},"vehicle_type_id":"4","last_reported":1704846975,"current_range_meters":24800,"station_id":"ce4bgqh2rcd13ifvqc5g","pricing_plan_id":"free"},{"bike_id":"e4790442-4212-4bcd-957d-4c6cd301bd42","system_id":"levelo_inurba_marseille","lat":43.30304,"lon":5.368987,"is_reserved":false,"is_disabled":false,"rental_uris":{"android":"levelo://app?vid=e4790442-4212-4bcd-957d-4c6cd301bd42","ios":"levelo://app?vid=e4790442-4212-4bcd-957d-4c6cd301bd42"},"vehicle_type_id":"4","last_reported":1704846975,"current_range_meters":20000,"station_id":"ce4bgqh2rcd13ifvqc5g","pricing_plan_id":"free"},{"bike_id":"9ab73fcb-f3fb-4603-a337-54776f7c6aa8","system_id":"levelo_inurba_marseille","lat":43.303046,"lon":5.368981,"is_reserved":false,"is_disabled":false,"rental_uris":{"android":"levelo://app?vid=9ab73fcb-f3fb-4603-a337-54776f7c6aa8","ios":"levelo://app?vid=9ab73fcb-f3fb-4603-a337-54776f7c6aa8"},"vehicle_type_id":"4","last_reported":1704846975,"current_range_meters":29600,"station_id":"ce4bgqh2rcd13ifvqc5g","pricing_plan_id":"free"},{"bike_id":"3a00716f-d013-4723-971b-a74c0751b1db","system_id":"levelo_inurba_marseille","lat":43.31528,"lon":5.38032,"is_reserved":false,"is_disabled":false,"rental_uris":{"android":"levelo://app?vid=3a00716f-d013-4723-971b-a74c0751b1db","ios":"levelo://app?vid=3a00716f-d013-4723-971b-a74c0751b1db"},"vehicle_type_id":"4","last_reported":1704846975,"current_range_meters":30400,"station_id":"ce4bhsp2rcd13ifvqi50","pricing_plan_id":"free"},{"bike_id":"78e7e72b-de28-4a5a-86c2-d78e031ad675","system_id":"levelo_inurba_marseille","lat":43.315319,"lon":5.380362,"is_reserved":false,"is_disabled":false,"rental_uris":{"android":"levelo://app?vid=78e7e72b-de28-4a5a-86c2-d78e031ad675","ios":"levelo://app?vid=78e7e72b-de28-4a5a-86c2-d78e031ad675"},"vehicle_type_id":"4","last_reported":1704846975,"current_range_meters":20800,"station_id":"ce4bhsp2rcd13ifvqi50","pricing_plan_id":"free"},{"bike_id":"a310dc4c-2aff-4a84-8344-3440a16b0e69","system_id":"levelo_inurba_marseille","lat":43.301939,"lon":5.366286,"is_reserved":false,"is_disabled":false,"rental_uris":{"android":"levelo://app?vid=a310dc4c-2aff-4a84-8344-3440a16b0e69","ios":"levelo://app?vid=a310dc4c-2aff-4a84-8344-3440a16b0e69"},"vehicle_type_id":"4","last_reported":1704846975,"current_range_meters":3600,"station_id":"ce4bgrh2rcd13ifvqc8g","pricing_plan_id":"free"},{"bike_id":"d4a537bd-48a3-41bf-9a3b-9b8aec8c0dc3","system_id":"levelo_inurba_marseille","lat":43.308012,"lon":5.381511,"is_reserved":false,"is_disabled":false,"rental_uris":{"android":"levelo://app?vid=d4a537bd-48a3-41bf-9a3b-9b8aec8c0dc3","ios":"levelo://app?vid=d4a537bd-48a3-41bf-9a3b-9b8aec8c0dc3"},"vehicle_type_id":"4","last_reported":1704846975,"current_range_meters":22000,"station_id":"ce4bgt12rcd13ifvqce0","pricing_plan_id":"free"},{"bike_id":"68f50423-f887-49e8-90b0-eb86589b8ffd","system_id":"levelo_inurba_marseille","lat":43.308012,"lon":5.381511,"is_reserved":false,"is_disabled":false,"rental_uris":{"android":"levelo://app?vid=68f50423-f887-49e8-90b0-eb86589b8ffd","ios":"levelo://app?vid=68f50423-f887-49e8-90b0-eb86589b8ffd"},"vehicle_type_id":"4","last_reported":1704846975,"current_range_meters":28000,"station_id":"ce4bgt12rcd13ifvqce0","pricing_plan_id":"free"},{"bike_id":"c29a4f58-b04a-47d0-9ebe-b3d10a644a00","system_id":"levelo_inurba_marseille","lat":43.308012,"lon":5.381511,"is_reserved":false,"is_disabled":false,"rental_uris":{"android":"levelo://app?vid=c29a4f58-b04a-47d0-9ebe-b3d10a644a00","ios":"levelo://app?vid=c29a4f58-b04a-47d0-9ebe-b3d10a644a00"},"vehicle_type_id":"4","last_reported":1704846975,"current_range_meters":21200,"station_id":"ce4bgt12rcd13ifvqce0","pricing_plan_id":"free"},{"bike_id":"23ac4d1c-5f1f-4405-a326-f52e64b31b7e","system_id":"levelo_inurba_marseille","lat":43.308012,"lon":5.381511,"is_reserved":false,"is_disabled":false,"rental_uris":{"android":"levelo://app?vid=23ac4d1c-5f1f-4405-a326-f52e64b31b7e","ios":"levelo://app?vid=23ac4d1c-5f1f-4405-a326-f52e64b31b7e"},"vehicle_type_id":"4","last_reported":1704846975,"current_range_meters":22800,"station_id":"ce4bgt12rcd13ifvqce0","pricing_plan_id":"free"},{"bike_id":"f3024a02-cad0-4e53-8fac-c01eac4054bd","system_id":"levelo_inurba_marseille","lat":43.300827,"lon":5.365856,"is_reserved":false,"is_disabled":false,"rental_uris":{"android":"levelo://app?vid=f3024a02-cad0-4e53-8fac-c01eac4054bd","ios":"levelo://app?vid=f3024a02-cad0-4e53-8fac-c01eac4054bd"},"vehicle_type_id":"4","last_reported":1704846975,"current_range_meters":14800,"station_id":"","pricing_plan_id":"free"},{"bike_id":"592186ea-9749-4077-a128-39abeba103d1","system_id":"levelo_inurba_marseille","lat":43.324758,"lon":5.365573,"is_reserved":false,"is_disabled":false,"rental_uris":{"android":"levelo://app?vid=592186ea-9749-4077-a128-39abeba103d1","ios":"levelo://app?vid=592186ea-9749-4077-a128-39abeba103d1"},"vehicle_type_id":"4","last_reported":1704846975,"current_range_meters":10000,"station_id":"ce4bhs12rcd13ifvqhvg","pricing_plan_id":"free"},{"bike_id":"2aa100e7-2671-4c1b-a1f0-ab7832afcbad","system_id":"levelo_inurba_marseille","lat":43.324771,"lon":5.36557,"is_reserved":false,"is_disabled":false,"rental_uris":{"android":"levelo://app?vid=2aa100e7-2671-4c1b-a1f0-ab7832afcbad","ios":"levelo://app?vid=2aa100e7-2671-4c1b-a1f0-ab7832afcbad"},"vehicle_type_id":"4","last_reported":1704846975,"current_range_meters":14800,"station_id":"ce4bhs12rcd13ifvqhvg","pricing_plan_id":"free"},{"bike_id":"ee926864-2611-4e6a-bfd8-5fc91eba9acd","system_id":"levelo_inurba_marseille","lat":43.324771,"lon":5.36557,"is_reserved":false,"is_disabled":false,"rental_uris":{"android":"levelo://app?vid=ee926864-2611-4e6a-bfd8-5fc91eba9acd","ios":"levelo://app?vid=ee926864-2611-4e6a-bfd8-5fc91eba9acd"},"vehicle_type_id":"4","last_reported":1704846975,"current_range_meters":20800,"station_id":"ce4bhs12rcd13ifvqhvg","pricing_plan_id":"free"},{"bike_id":"9a5d20fc-5739-4188-aece-a966211e1333","system_id":"levelo_inurba_marseille","lat":43.324771,"lon":5.36557,"is_reserved":false,"is_disabled":false,"rental_uris":{"android":"levelo://app?vid=9a5d20fc-5739-4188-aece-a966211e1333","ios":"levelo://app?vid=9a5d20fc-5739-4188-aece-a966211e1333"},"vehicle_type_id":"4","last_reported":1704846975,"current_range_meters":3600,"station_id":"ce4bhs12rcd13ifvqhvg","pricing_plan_id":"free"},{"bike_id":"ff7d6d39-92d2-4309-910f-696520f9158d","system_id":"levelo_inurba_marseille","lat":43.324771,"lon":5.36557,"is_reserved":false,"is_disabled":false,"rental_uris":{"android":"levelo://app?vid=ff7d6d39-92d2-4309-910f-696520f9158d","ios":"levelo://app?vid=ff7d6d39-92d2-4309-910f-696520f9158d"},"vehicle_type_id":"4","last_reported":1704846975,"current_range_meters":14800,"station_id":"ce4bhs12rcd13ifvqhvg","pricing_plan_id":"free"},{"bike_id":"bb02e8fc-1b1a-442d-be08-908b3392a957","system_id":"levelo_inurba_marseille","lat":43.324771,"lon":5.36557,"is_reserved":false,"is_disabled":false,"rental_uris":{"android":"levelo://app?vid=bb02e8fc-1b1a-442d-be08-908b3392a957","ios":"levelo://app?vid=bb02e8fc-1b1a-442d-be08-908b3392a957"},"vehicle_type_id":"4","last_reported":1704846975,"current_range_meters":14800,"station_id":"ce4bhs12rcd13ifvqhvg","pricing_plan_id":"free"},{"bike_id":"52f54fe1-209b-48d5-a9e5-77969beb0120","system_id":"levelo_inurba_marseille","lat":43.324771,"lon":5.36557,"is_reserved":false,"is_disabled":false,"rental_uris":{"android":"levelo://app?vid=52f54fe1-209b-48d5-a9e5-77969beb0120","ios":"levelo://app?vid=52f54fe1-209b-48d5-a9e5-77969beb0120"},"vehicle_type_id":"4","last_reported":1704846975,"current_range_meters":23200,"station_id":"ce4bhs12rcd13ifvqhvg","pricing_plan_id":"free"},{"bike_id":"b9470094-4555-4f89-9bb3-8b648ab442a3","system_id":"levelo_inurba_marseille","lat":43.301465,"lon":5.374256,"is_reserved":false,"is_disabled":false,"rental_uris":{"android":"levelo://app?vid=b9470094-4555-4f89-9bb3-8b648ab442a3","ios":"levelo://app?vid=b9470094-4555-4f89-9bb3-8b648ab442a3"},"vehicle_type_id":"4","last_reported":1704846975,"current_range_meters":16000,"station_id":"","pricing_plan_id":"free"},{"bike_id":"037668ba-21f9-4167-a270-94ef781aaebc","system_id":"levelo_inurba_marseille","lat":43.30143,"lon":5.37413,"is_reserved":false,"is_disabled":false,"rental_uris":{"android":"levelo://app?vid=037668ba-21f9-4167-a270-94ef781aaebc","ios":"levelo://app?vid=037668ba-21f9-4167-a270-94ef781aaebc"},"vehicle_type_id":"4","last_reported":1704846975,"current_range_meters":26000,"station_id":"ce4bgs92rcd13ifvqcc0","pricing_plan_id":"free"},{"bike_id":"90c7e69f-3898-41b0-addb-5f44a927f3d7","system_id":"levelo_inurba_marseille","lat":43.319935,"lon":5.381699,"is_reserved":false,"is_disabled":false,"rental_uris":{"android":"levelo://app?vid=90c7e69f-3898-41b0-addb-5f44a927f3d7","ios":"levelo://app?vid=90c7e69f-3898-41b0-addb-5f44a927f3d7"},"vehicle_type_id":"4","last_reported":1704846975,"current_range_meters":28800,"station_id":"ce4bhr12rcd13ifvqhpg","pricing_plan_id":"free"},{"bike_id":"6088c916-f4e5-4543-91f4-522af5528794","system_id":"levelo_inurba_marseille","lat":43.319935,"lon":5.381699,"is_reserved":false,"is_disabled":false,"rental_uris":{"android":"levelo://app?vid=6088c916-f4e5-4543-91f4-522af5528794","ios":"levelo://app?vid=6088c916-f4e5-4543-91f4-522af5528794"},"vehicle_type_id":"4","last_reported":1704846975,"current_range_meters":25200,"station_id":"ce4bhr12rcd13ifvqhpg","pricing_plan_id":"free"},{"bike_id":"bd90d70e-761b-4e9d-afb4-8cc89c14186c","system_id":"levelo_inurba_marseille","lat":43.319935,"lon":5.381699,"is_reserved":false,"is_disabled":false,"rental_uris":{"android":"levelo://app?vid=bd90d70e-761b-4e9d-afb4-8cc89c14186c","ios":"levelo://app?vid=bd90d70e-761b-4e9d-afb4-8cc89c14186c"},"vehicle_type_id":"4","last_reported":1704846975,"current_range_meters":4800,"station_id":"ce4bhr12rcd13ifvqhpg","pricing_plan_id":"free"},{"bike_id":"2216c2a6-8b16-40dc-abb8-c7288b63cc3c","system_id":"levelo_inurba_marseille","lat":43.313571,"lon":5.384829,"is_reserved":false,"is_disabled":false,"rental_uris":{"android":"levelo://app?vid=2216c2a6-8b16-40dc-abb8-c7288b63cc3c","ios":"levelo://app?vid=2216c2a6-8b16-40dc-abb8-c7288b63cc3c"},"vehicle_type_id":"4","last_reported":1704846975,"current_range_meters":31200,"station_id":"ce4bgt92rcd13ifvqcf0","pricing_plan_id":"free"},{"bike_id":"d9350f27-4d33-4cc1-b416-6cff7436aa03","system_id":"levelo_inurba_marseille","lat":43.313571,"lon":5.384829,"is_reserved":false,"is_disabled":false,"rental_uris":{"android":"levelo://app?vid=d9350f27-4d33-4cc1-b416-6cff7436aa03","ios":"levelo://app?vid=d9350f27-4d33-4cc1-b416-6cff7436aa03"},"vehicle_type_id":"4","last_reported":1704846975,"current_range_meters":25600,"station_id":"ce4bgt92rcd13ifvqcf0","pricing_plan_id":"free"},{"bike_id":"101e8ec4-e6d2-4c94-bd4b-ea144e307b0b","system_id":"levelo_inurba_marseille","lat":43.299222,"lon":5.365554,"is_reserved":false,"is_disabled":false,"rental_uris":{"android":"levelo://app?vid=101e8ec4-e6d2-4c94-bd4b-ea144e307b0b","ios":"levelo://app?vid=101e8ec4-e6d2-4c94-bd4b-ea144e307b0b"},"vehicle_type_id":"4","last_reported":1704846975,"current_range_meters":0,"station_id":"ce4bgm92rcd13ifvqbr0","pricing_plan_id":"free"},{"bike_id":"24489819-669f-4f9f-bc4d-45944cf13037","system_id":"levelo_inurba_marseille","lat":43.299209,"lon":5.365547,"is_reserved":false,"is_disabled":false,"rental_uris":{"android":"levelo://app?vid=24489819-669f-4f9f-bc4d-45944cf13037","ios":"levelo://app?vid=24489819-669f-4f9f-bc4d-45944cf13037"},"vehicle_type_id":"4","last_reported":1704846975,"current_range_meters":19600,"station_id":"ce4bgm92rcd13ifvqbr0","pricing_plan_id":"free"},{"bike_id":"5e3ae350-92fc-4f1a-91e5-fca6c6157e9c","system_id":"levelo_inurba_marseille","lat":43.314305,"lon":5.385497,"is_reserved":false,"is_disabled":false,"rental_uris":{"android":"levelo://app?vid=5e3ae350-92fc-4f1a-91e5-fca6c6157e9c","ios":"levelo://app?vid=5e3ae350-92fc-4f1a-91e5-fca6c6157e9c"},"vehicle_type_id":"4","last_reported":1704846975,"current_range_meters":10400,"station_id":"","pricing_plan_id":"free"},{"bike_id":"ad04f150-3b57-4377-89fe-6dff57a8cbce","system_id":"levelo_inurba_marseille","lat":43.299209,"lon":5.365547,"is_reserved":false,"is_disabled":false,"rental_uris":{"android":"levelo://app?vid=ad04f150-3b57-4377-89fe-6dff57a8cbce","ios":"levelo://app?vid=ad04f150-3b57-4377-89fe-6dff57a8cbce"},"vehicle_type_id":"4","last_reported":1704846975,"current_range_meters":22800,"station_id":"ce4bgm92rcd13ifvqbr0","pricing_plan_id":"free"},{"bike_id":"b22604ec-0c4b-41b4-a20e-38add68f7682","system_id":"levelo_inurba_marseille","lat":43.325409,"lon":5.374836,"is_reserved":false,"is_disabled":false,"rental_uris":{"android":"levelo://app?vid=b22604ec-0c4b-41b4-a20e-38add68f7682","ios":"levelo://app?vid=b22604ec-0c4b-41b4-a20e-38add68f7682"},"vehicle_type_id":"4","last_reported":1704846975,"current_range_meters":0,"station_id":"","pricing_plan_id":"free"},{"bike_id":"e3eafc4f-329b-4e2c-9993-b4db35dc9db5","system_id":"levelo_inurba_marseille","lat":43.325668,"lon":5.374564,"is_reserved":false,"is_disabled":false,"rental_uris":{"android":"levelo://app?vid=e3eafc4f-329b-4e2c-9993-b4db35dc9db5","ios":"levelo://app?vid=e3eafc4f-329b-4e2c-9993-b4db35dc9db5"},"vehicle_type_id":"4","last_reported":1704846975,"current_range_meters":18000,"station_id":"","pricing_plan_id":"free"},{"bike_id":"6f821f2c-8bdd-456c-ba1e-bb9574cd75f6","system_id":"levelo_inurba_marseille","lat":43.305364,"lon":5.384119,"is_reserved":false,"is_disabled":false,"rental_uris":{"android":"levelo://app?vid=6f821f2c-8bdd-456c-ba1e-bb9574cd75f6","ios":"levelo://app?vid=6f821f2c-8bdd-456c-ba1e-bb9574cd75f6"},"vehicle_type_id":"4","last_reported":1704846975,"current_range_meters":13200,"station_id":"ce4bgg92rcd13ifvqb30","pricing_plan_id":"free"},{"bike_id":"c79e6924-bce6-40fe-922a-e6be6251d88c","system_id":"levelo_inurba_marseille","lat":43.305364,"lon":5.384119,"is_reserved":false,"is_disabled":false,"rental_uris":{"android":"levelo://app?vid=c79e6924-bce6-40fe-922a-e6be6251d88c","ios":"levelo://app?vid=c79e6924-bce6-40fe-922a-e6be6251d88c"},"vehicle_type_id":"4","last_reported":1704846975,"current_range_meters":28000,"station_id":"ce4bgg92rcd13ifvqb30","pricing_plan_id":"free"},{"bike_id":"4970d51d-81f8-46ca-9b61-d3cb9b18d51a","system_id":"levelo_inurba_marseille","lat":43.311722,"lon":5.387247,"is_reserved":false,"is_disabled":false,"rental_uris":{"android":"levelo://app?vid=4970d51d-81f8-46ca-9b61-d3cb9b18d51a","ios":"levelo://app?vid=4970d51d-81f8-46ca-9b61-d3cb9b18d51a"},"vehicle_type_id":"4","last_reported":1704846975,"current_range_meters":21600,"station_id":"ce4bgv12rcd13ifvqcp0","pricing_plan_id":"free"},{"bike_id":"77932a8b-3738-487e-9eb4-ab36eb4cf9d8","system_id":"levelo_inurba_marseille","lat":43.311722,"lon":5.387247,"is_reserved":false,"is_disabled":false,"rental_uris":{"android":"levelo://app?vid=77932a8b-3738-487e-9eb4-ab36eb4cf9d8","ios":"levelo://app?vid=77932a8b-3738-487e-9eb4-ab36eb4cf9d8"},"vehicle_type_id":"4","last_reported":1704846975,"current_range_meters":18800,"station_id":"ce4bgv12rcd13ifvqcp0","pricing_plan_id":"free"},{"bike_id":"11001729-62f8-4685-a6d6-08aab21d9463","system_id":"levelo_inurba_marseille","lat":43.311722,"lon":5.387247,"is_reserved":false,"is_disabled":false,"rental_uris":{"android":"levelo://app?vid=11001729-62f8-4685-a6d6-08aab21d9463","ios":"levelo://app?vid=11001729-62f8-4685-a6d6-08aab21d9463"},"vehicle_type_id":"4","last_reported":1704846975,"current_range_meters":15200,"station_id":"ce4bgv12rcd13ifvqcp0","pricing_plan_id":"free"},{"bike_id":"e4be501f-f6d8-429a-959e-6b411ad5476c","system_id":"levelo_inurba_marseille","lat":43.311722,"lon":5.387247,"is_reserved":false,"is_disabled":false,"rental_uris":{"android":"levelo://app?vid=e4be501f-f6d8-429a-959e-6b411ad5476c","ios":"levelo://app?vid=e4be501f-f6d8-429a-959e-6b411ad5476c"},"vehicle_type_id":"4","last_reported":1704846975,"current_range_meters":27200,"station_id":"ce4bgv12rcd13ifvqcp0","pricing_plan_id":"free"},{"bike_id":"c89a17a0-41d3-43ec-8d45-d4aea4fe2d1b","system_id":"levelo_inurba_marseille","lat":43.311722,"lon":5.387247,"is_reserved":false,"is_disabled":false,"rental_uris":{"android":"levelo://app?vid=c89a17a0-41d3-43ec-8d45-d4aea4fe2d1b","ios":"levelo://app?vid=c89a17a0-41d3-43ec-8d45-d4aea4fe2d1b"},"vehicle_type_id":"4","last_reported":1704846975,"current_range_meters":5200,"station_id":"ce4bgv12rcd13ifvqcp0","pricing_plan_id":"free"},{"bike_id":"edb9ae2d-6754-4db6-98d7-7e5ce4840454","system_id":"levelo_inurba_marseille","lat":43.311722,"lon":5.387247,"is_reserved":false,"is_disabled":false,"rental_uris":{"android":"levelo://app?vid=edb9ae2d-6754-4db6-98d7-7e5ce4840454","ios":"levelo://app?vid=edb9ae2d-6754-4db6-98d7-7e5ce4840454"},"vehicle_type_id":"4","last_reported":1704846975,"current_range_meters":24800,"station_id":"ce4bgv12rcd13ifvqcp0","pricing_plan_id":"free"},{"bike_id":"e1d45971-d7e0-4000-94a4-ff4be29d46f5","system_id":"levelo_inurba_marseille","lat":43.311722,"lon":5.387247,"is_reserved":false,"is_disabled":false,"rental_uris":{"android":"levelo://app?vid=e1d45971-d7e0-4000-94a4-ff4be29d46f5","ios":"levelo://app?vid=e1d45971-d7e0-4000-94a4-ff4be29d46f5"},"vehicle_type_id":"4","last_reported":1704846975,"current_range_meters":14400,"station_id":"ce4bgv12rcd13ifvqcp0","pricing_plan_id":"free"},{"bike_id":"61430ce9-1b32-4b54-84f7-cebe3fce465d","system_id":"levelo_inurba_marseille","lat":43.311722,"lon":5.387247,"is_reserved":false,"is_disabled":false,"rental_uris":{"android":"levelo://app?vid=61430ce9-1b32-4b54-84f7-cebe3fce465d","ios":"levelo://app?vid=61430ce9-1b32-4b54-84f7-cebe3fce465d"},"vehicle_type_id":"4","last_reported":1704846975,"current_range_meters":14800,"station_id":"ce4bgv12rcd13ifvqcp0","pricing_plan_id":"free"},{"bike_id":"a4b69b8b-9efd-4666-ae1f-f23920d7ce64","system_id":"levelo_inurba_marseille","lat":43.311722,"lon":5.387247,"is_reserved":false,"is_disabled":false,"rental_uris":{"android":"levelo://app?vid=a4b69b8b-9efd-4666-ae1f-f23920d7ce64","ios":"levelo://app?vid=a4b69b8b-9efd-4666-ae1f-f23920d7ce64"},"vehicle_type_id":"4","last_reported":1704846975,"current_range_meters":24000,"station_id":"ce4bgv12rcd13ifvqcp0","pricing_plan_id":"free"},{"bike_id":"5dc78555-3731-47fb-81b3-66a4d4a711f9","system_id":"levelo_inurba_marseille","lat":43.311722,"lon":5.387247,"is_reserved":false,"is_disabled":false,"rental_uris":{"android":"levelo://app?vid=5dc78555-3731-47fb-81b3-66a4d4a711f9","ios":"levelo://app?vid=5dc78555-3731-47fb-81b3-66a4d4a711f9"},"vehicle_type_id":"4","last_reported":1704846975,"current_range_meters":31200,"station_id":"ce4bgv12rcd13ifvqcp0","pricing_plan_id":"free"},{"bike_id":"cc7fe815-f50e-4dd0-af15-91a6ff3331fa","system_id":"levelo_inurba_marseille","lat":43.311722,"lon":5.387247,"is_reserved":false,"is_disabled":false,"rental_uris":{"android":"levelo://app?vid=cc7fe815-f50e-4dd0-af15-91a6ff3331fa","ios":"levelo://app?vid=cc7fe815-f50e-4dd0-af15-91a6ff3331fa"},"vehicle_type_id":"4","last_reported":1704846975,"current_range_meters":29200,"station_id":"ce4bgv12rcd13ifvqcp0","pricing_plan_id":"free"},{"bike_id":"4dad64d5-44b1-46cb-8816-5a448d58c483","system_id":"levelo_inurba_marseille","lat":43.311722,"lon":5.387247,"is_reserved":false,"is_disabled":false,"rental_uris":{"android":"levelo://app?vid=4dad64d5-44b1-46cb-8816-5a448d58c483","ios":"levelo://app?vid=4dad64d5-44b1-46cb-8816-5a448d58c483"},"vehicle_type_id":"4","last_reported":1704846975,"current_range_meters":14000,"station_id":"ce4bgv12rcd13ifvqcp0","pricing_plan_id":"free"},{"bike_id":"4d565630-df2e-44c0-a7e5-545e34411f88","system_id":"levelo_inurba_marseille","lat":43.297794,"lon":5.370888,"is_reserved":false,"is_disabled":false,"rental_uris":{"android":"levelo://app?vid=4d565630-df2e-44c0-a7e5-545e34411f88","ios":"levelo://app?vid=4d565630-df2e-44c0-a7e5-545e34411f88"},"vehicle_type_id":"4","last_reported":1704846975,"current_range_meters":24000,"station_id":"ce4bgop2rcd13ifvqc1g","pricing_plan_id":"free"},{"bike_id":"01a76a40-89b1-49f0-917c-d8107f95a77f","system_id":"levelo_inurba_marseille","lat":43.322871,"lon":5.382673,"is_reserved":false,"is_disabled":false,"rental_uris":{"android":"levelo://app?vid=01a76a40-89b1-49f0-917c-d8107f95a77f","ios":"levelo://app?vid=01a76a40-89b1-49f0-917c-d8107f95a77f"},"vehicle_type_id":"4","last_reported":1704846975,"current_range_meters":6000,"station_id":"ce4bhr12rcd13ifvqhqg","pricing_plan_id":"free"},{"bike_id":"9dddb55b-ab2a-4362-984d-08fd7ede665f","system_id":"levelo_inurba_marseille","lat":43.32294,"lon":5.382595,"is_reserved":false,"is_disabled":false,"rental_uris":{"android":"levelo://app?vid=9dddb55b-ab2a-4362-984d-08fd7ede665f","ios":"levelo://app?vid=9dddb55b-ab2a-4362-984d-08fd7ede665f"},"vehicle_type_id":"4","last_reported":1704846975,"current_range_meters":20000,"station_id":"ce4bhr12rcd13ifvqhqg","pricing_plan_id":"free"},{"bike_id":"f6070138-b435-45cd-afe5-5fa586feac4e","system_id":"levelo_inurba_marseille","lat":43.322872,"lon":5.382756,"is_reserved":false,"is_disabled":false,"rental_uris":{"android":"levelo://app?vid=f6070138-b435-45cd-afe5-5fa586feac4e","ios":"levelo://app?vid=f6070138-b435-45cd-afe5-5fa586feac4e"},"vehicle_type_id":"4","last_reported":1704846975,"current_range_meters":23200,"station_id":"ce4bhr12rcd13ifvqhqg","pricing_plan_id":"free"},{"bike_id":"965e06bb-d727-441b-b835-de8a0777d9ea","system_id":"levelo_inurba_marseille","lat":43.32291,"lon":5.38267,"is_reserved":false,"is_disabled":false,"rental_uris":{"android":"levelo://app?vid=965e06bb-d727-441b-b835-de8a0777d9ea","ios":"levelo://app?vid=965e06bb-d727-441b-b835-de8a0777d9ea"},"vehicle_type_id":"4","last_reported":1704846975,"current_range_meters":1200,"station_id":"ce4bhr12rcd13ifvqhqg","pricing_plan_id":"free"},{"bike_id":"f4a772fa-5e25-4411-a2f1-6273bbd7c8b0","system_id":"levelo_inurba_marseille","lat":43.32285,"lon":5.38275,"is_reserved":false,"is_disabled":false,"rental_uris":{"android":"levelo://app?vid=f4a772fa-5e25-4411-a2f1-6273bbd7c8b0","ios":"levelo://app?vid=f4a772fa-5e25-4411-a2f1-6273bbd7c8b0"},"vehicle_type_id":"4","last_reported":1704846975,"current_range_meters":20000,"station_id":"ce4bhr12rcd13ifvqhqg","pricing_plan_id":"free"},{"bike_id":"e5f64b36-ecfd-4fac-a3a5-5904b691c001","system_id":"levelo_inurba_marseille","lat":43.322872,"lon":5.382756,"is_reserved":false,"is_disabled":false,"rental_uris":{"android":"levelo://app?vid=e5f64b36-ecfd-4fac-a3a5-5904b691c001","ios":"levelo://app?vid=e5f64b36-ecfd-4fac-a3a5-5904b691c001"},"vehicle_type_id":"4","last_reported":1704846975,"current_range_meters":30000,"station_id":"ce4bhr12rcd13ifvqhqg","pricing_plan_id":"free"},{"bike_id":"d68ce626-ef98-4d52-b3b3-f34d703a806b","system_id":"levelo_inurba_marseille","lat":43.328202,"lon":5.366749,"is_reserved":false,"is_disabled":false,"rental_uris":{"android":"levelo://app?vid=d68ce626-ef98-4d52-b3b3-f34d703a806b","ios":"levelo://app?vid=d68ce626-ef98-4d52-b3b3-f34d703a806b"},"vehicle_type_id":"4","last_reported":1704846975,"current_range_meters":24000,"station_id":"ce4bhs92rcd13ifvqi0g","pricing_plan_id":"free"},{"bike_id":"387c1dff-fb7e-4547-838e-1af3f69c4219","system_id":"levelo_inurba_marseille","lat":43.328227,"lon":5.36676,"is_reserved":false,"is_disabled":false,"rental_uris":{"android":"levelo://app?vid=387c1dff-fb7e-4547-838e-1af3f69c4219","ios":"levelo://app?vid=387c1dff-fb7e-4547-838e-1af3f69c4219"},"vehicle_type_id":"4","last_reported":1704846975,"current_range_meters":11600,"station_id":"ce4bhs92rcd13ifvqi0g","pricing_plan_id":"free"},{"bike_id":"66addf4b-70b7-4ac4-8e17-37956e9ecfbb","system_id":"levelo_inurba_marseille","lat":43.32824,"lon":5.36683,"is_reserved":false,"is_disabled":false,"rental_uris":{"android":"levelo://app?vid=66addf4b-70b7-4ac4-8e17-37956e9ecfbb","ios":"levelo://app?vid=66addf4b-70b7-4ac4-8e17-37956e9ecfbb"},"vehicle_type_id":"4","last_reported":1704846975,"current_range_meters":8400,"station_id":"ce4bhs92rcd13ifvqi0g","pricing_plan_id":"free"},{"bike_id":"331410e4-8362-40e5-8b58-6a53f46a25bd","system_id":"levelo_inurba_marseille","lat":43.32825,"lon":5.36675,"is_reserved":false,"is_disabled":false,"rental_uris":{"android":"levelo://app?vid=331410e4-8362-40e5-8b58-6a53f46a25bd","ios":"levelo://app?vid=331410e4-8362-40e5-8b58-6a53f46a25bd"},"vehicle_type_id":"4","last_reported":1704846975,"current_range_meters":14000,"station_id":"ce4bhs92rcd13ifvqi0g","pricing_plan_id":"free"},{"bike_id":"a70069dc-f773-452d-9d3a-320d0014d11e","system_id":"levelo_inurba_marseille","lat":43.32827,"lon":5.366792,"is_reserved":false,"is_disabled":false,"rental_uris":{"android":"levelo://app?vid=a70069dc-f773-452d-9d3a-320d0014d11e","ios":"levelo://app?vid=a70069dc-f773-452d-9d3a-320d0014d11e"},"vehicle_type_id":"4","last_reported":1704846975,"current_range_meters":20800,"station_id":"ce4bhs92rcd13ifvqi0g","pricing_plan_id":"free"},{"bike_id":"72905f78-9c33-4138-8385-d331d9223abd","system_id":"levelo_inurba_marseille","lat":43.328277,"lon":5.366905,"is_reserved":false,"is_disabled":false,"rental_uris":{"android":"levelo://app?vid=72905f78-9c33-4138-8385-d331d9223abd","ios":"levelo://app?vid=72905f78-9c33-4138-8385-d331d9223abd"},"vehicle_type_id":"4","last_reported":1704846975,"current_range_meters":3600,"station_id":"ce4bhs92rcd13ifvqi0g","pricing_plan_id":"free"},{"bike_id":"b417e045-2acd-45ab-8543-5d87cc32d878","system_id":"levelo_inurba_marseille","lat":43.328279,"lon":5.366697,"is_reserved":false,"is_disabled":false,"rental_uris":{"android":"levelo://app?vid=b417e045-2acd-45ab-8543-5d87cc32d878","ios":"levelo://app?vid=b417e045-2acd-45ab-8543-5d87cc32d878"},"vehicle_type_id":"4","last_reported":1704846975,"current_range_meters":11600,"station_id":"ce4bhs92rcd13ifvqi0g","pricing_plan_id":"free"},{"bike_id":"fb45f142-a2e6-4b54-b6fd-5660ca2c1fe5","system_id":"levelo_inurba_marseille","lat":43.328371,"lon":5.366912,"is_reserved":false,"is_disabled":false,"rental_uris":{"android":"levelo://app?vid=fb45f142-a2e6-4b54-b6fd-5660ca2c1fe5","ios":"levelo://app?vid=fb45f142-a2e6-4b54-b6fd-5660ca2c1fe5"},"vehicle_type_id":"4","last_reported":1704846975,"current_range_meters":24800,"station_id":"ce4bhs92rcd13ifvqi0g","pricing_plan_id":"free"},{"bike_id":"1f1a5220-6426-49f4-89de-c9c79ed6428d","system_id":"levelo_inurba_marseille","lat":43.328371,"lon":5.366909,"is_reserved":false,"is_disabled":false,"rental_uris":{"android":"levelo://app?vid=1f1a5220-6426-49f4-89de-c9c79ed6428d","ios":"levelo://app?vid=1f1a5220-6426-49f4-89de-c9c79ed6428d"},"vehicle_type_id":"4","last_reported":1704846975,"current_range_meters":12400,"station_id":"ce4bhs92rcd13ifvqi0g","pricing_plan_id":"free"},{"bike_id":"19b82118-3cb0-4d56-95e3-8797931ab853","system_id":"levelo_inurba_marseille","lat":43.297163,"lon":5.365866,"is_reserved":false,"is_disabled":false,"rental_uris":{"android":"levelo://app?vid=19b82118-3cb0-4d56-95e3-8797931ab853","ios":"levelo://app?vid=19b82118-3cb0-4d56-95e3-8797931ab853"},"vehicle_type_id":"4","last_reported":1704846975,"current_range_meters":16800,"station_id":"ce4bgn12rcd13ifvqbt0","pricing_plan_id":"free"},{"bike_id":"5d17fcc1-ee1a-4e36-8844-4f9946d324b0","system_id":"levelo_inurba_marseille","lat":43.297004,"lon":5.365984,"is_reserved":false,"is_disabled":false,"rental_uris":{"android":"levelo://app?vid=5d17fcc1-ee1a-4e36-8844-4f9946d324b0","ios":"levelo://app?vid=5d17fcc1-ee1a-4e36-8844-4f9946d324b0"},"vehicle_type_id":"4","last_reported":1704846975,"current_range_meters":16000,"station_id":"ce4bgn12rcd13ifvqbt0","pricing_plan_id":"free"},{"bike_id":"0e21c0e1-cd91-41f5-a668-23429ce9066e","system_id":"levelo_inurba_marseille","lat":43.296801,"lon":5.372822,"is_reserved":false,"is_disabled":false,"rental_uris":{"android":"levelo://app?vid=0e21c0e1-cd91-41f5-a668-23429ce9066e","ios":"levelo://app?vid=0e21c0e1-cd91-41f5-a668-23429ce9066e"},"vehicle_type_id":"4","last_reported":1704846975,"current_range_meters":13600,"station_id":"","pricing_plan_id":"free"},{"bike_id":"b9c92749-97de-48f3-b0e2-448158fe0b32","system_id":"levelo_inurba_marseille","lat":43.296733,"lon":5.372922,"is_reserved":false,"is_disabled":false,"rental_uris":{"android":"levelo://app?vid=b9c92749-97de-48f3-b0e2-448158fe0b32","ios":"levelo://app?vid=b9c92749-97de-48f3-b0e2-448158fe0b32"},"vehicle_type_id":"4","last_reported":1704846975,"current_range_meters":1600,"station_id":"ce4bgk12rcd13ifvqbj0","pricing_plan_id":"free"},{"bike_id":"1ceda21f-8588-4f86-9793-a32ca2c773d2","system_id":"levelo_inurba_marseille","lat":43.295912,"lon":5.367978,"is_reserved":false,"is_disabled":false,"rental_uris":{"android":"levelo://app?vid=1ceda21f-8588-4f86-9793-a32ca2c773d2","ios":"levelo://app?vid=1ceda21f-8588-4f86-9793-a32ca2c773d2"},"vehicle_type_id":"4","last_reported":1704846975,"current_range_meters":15200,"station_id":"ce4bgph2rcd13ifvqc2g","pricing_plan_id":"free"},{"bike_id":"9911e3a4-c69e-4e07-8397-0050554fc56e","system_id":"levelo_inurba_marseille","lat":43.296211,"lon":5.371499,"is_reserved":false,"is_disabled":false,"rental_uris":{"android":"levelo://app?vid=9911e3a4-c69e-4e07-8397-0050554fc56e","ios":"levelo://app?vid=9911e3a4-c69e-4e07-8397-0050554fc56e"},"vehicle_type_id":"4","last_reported":1704846975,"current_range_meters":24400,"station_id":"ce4bgnh2rcd13ifvqc0g","pricing_plan_id":"free"},{"bike_id":"a0d86292-a63e-4df4-a4ec-2cae0257265a","system_id":"levelo_inurba_marseille","lat":43.29573,"lon":5.367355,"is_reserved":false,"is_disabled":false,"rental_uris":{"android":"levelo://app?vid=a0d86292-a63e-4df4-a4ec-2cae0257265a","ios":"levelo://app?vid=a0d86292-a63e-4df4-a4ec-2cae0257265a"},"vehicle_type_id":"4","last_reported":1704846975,"current_range_meters":27600,"station_id":"ce4bgph2rcd13ifvqc2g","pricing_plan_id":"free"},{"bike_id":"0fb55a18-9f65-4fad-be21-6f17906e958d","system_id":"levelo_inurba_marseille","lat":43.297207,"lon":5.376897,"is_reserved":false,"is_disabled":false,"rental_uris":{"android":"levelo://app?vid=0fb55a18-9f65-4fad-be21-6f17906e958d","ios":"levelo://app?vid=0fb55a18-9f65-4fad-be21-6f17906e958d"},"vehicle_type_id":"4","last_reported":1704846975,"current_range_meters":16000,"station_id":"ce4bgkh2rcd13ifvqbl0","pricing_plan_id":"free"},{"bike_id":"f2032b0b-f145-46da-bffd-4037d601b82b","system_id":"levelo_inurba_marseille","lat":43.296935,"lon":5.376544,"is_reserved":false,"is_disabled":false,"rental_uris":{"android":"levelo://app?vid=f2032b0b-f145-46da-bffd-4037d601b82b","ios":"levelo://app?vid=f2032b0b-f145-46da-bffd-4037d601b82b"},"vehicle_type_id":"4","last_reported":1704846975,"current_range_meters":21200,"station_id":"ce4bgkh2rcd13ifvqbl0","pricing_plan_id":"free"},{"bike_id":"92dd8b7f-c2d8-49f7-88d6-04d0e4df5a7b","system_id":"levelo_inurba_marseille","lat":43.309589,"lon":5.390258,"is_reserved":false,"is_disabled":false,"rental_uris":{"android":"levelo://app?vid=92dd8b7f-c2d8-49f7-88d6-04d0e4df5a7b","ios":"levelo://app?vid=92dd8b7f-c2d8-49f7-88d6-04d0e4df5a7b"},"vehicle_type_id":"4","last_reported":1704846975,"current_range_meters":30400,"station_id":"ce4bgup2rcd13ifvqco0","pricing_plan_id":"free"},{"bike_id":"5b159e97-00e1-4124-93b7-e42c8ba76a66","system_id":"levelo_inurba_marseille","lat":43.309659,"lon":5.390584,"is_reserved":false,"is_disabled":false,"rental_uris":{"android":"levelo://app?vid=5b159e97-00e1-4124-93b7-e42c8ba76a66","ios":"levelo://app?vid=5b159e97-00e1-4124-93b7-e42c8ba76a66"},"vehicle_type_id":"4","last_reported":1704846975,"current_range_meters":5600,"station_id":"ce4bgup2rcd13ifvqco0","pricing_plan_id":"free"},{"bike_id":"f3d68c79-4c41-4794-8c44-abc1870d8d42","system_id":"levelo_inurba_marseille","lat":43.317557,"lon":5.390173,"is_reserved":false,"is_disabled":false,"rental_uris":{"android":"levelo://app?vid=f3d68c79-4c41-4794-8c44-abc1870d8d42","ios":"levelo://app?vid=f3d68c79-4c41-4794-8c44-abc1870d8d42"},"vehicle_type_id":"4","last_reported":1704846975,"current_range_meters":27200,"station_id":"ce4bhqp2rcd13ifvqhng","pricing_plan_id":"free"},{"bike_id":"a4a8fe16-b861-482d-8919-e7240e077d1f","system_id":"levelo_inurba_marseille","lat":43.31758,"lon":5.390181,"is_reserved":false,"is_disabled":false,"rental_uris":{"android":"levelo://app?vid=a4a8fe16-b861-482d-8919-e7240e077d1f","ios":"levelo://app?vid=a4a8fe16-b861-482d-8919-e7240e077d1f"},"vehicle_type_id":"4","last_reported":1704846975,"current_range_meters":20000,"station_id":"ce4bhqp2rcd13ifvqhng","pricing_plan_id":"free"},{"bike_id":"941bebe7-4299-47bb-a31b-7a53cebaf4fe","system_id":"levelo_inurba_marseille","lat":43.304278,"lon":5.388868,"is_reserved":false,"is_disabled":false,"rental_uris":{"android":"levelo://app?vid=941bebe7-4299-47bb-a31b-7a53cebaf4fe","ios":"levelo://app?vid=941bebe7-4299-47bb-a31b-7a53cebaf4fe"},"vehicle_type_id":"4","last_reported":1704846975,"current_range_meters":26000,"station_id":"ce4bgk12rcd13ifvqbi0","pricing_plan_id":"free"},{"bike_id":"cb8de5ca-b405-499d-8876-4ad46ee6225f","system_id":"levelo_inurba_marseille","lat":43.30443,"lon":5.38887,"is_reserved":false,"is_disabled":false,"rental_uris":{"android":"levelo://app?vid=cb8de5ca-b405-499d-8876-4ad46ee6225f","ios":"levelo://app?vid=cb8de5ca-b405-499d-8876-4ad46ee6225f"},"vehicle_type_id":"4","last_reported":1704846975,"current_range_meters":9600,"station_id":"ce4bgk12rcd13ifvqbi0","pricing_plan_id":"free"},{"bike_id":"76b10a0b-c0e9-4395-aacb-e9e3e812e4bf","system_id":"levelo_inurba_marseille","lat":43.304389,"lon":5.38888,"is_reserved":false,"is_disabled":false,"rental_uris":{"android":"levelo://app?vid=76b10a0b-c0e9-4395-aacb-e9e3e812e4bf","ios":"levelo://app?vid=76b10a0b-c0e9-4395-aacb-e9e3e812e4bf"},"vehicle_type_id":"4","last_reported":1704846975,"current_range_meters":20800,"station_id":"ce4bgk12rcd13ifvqbi0","pricing_plan_id":"free"},{"bike_id":"04db71a1-2121-4901-baf4-c5c4b317d5a3","system_id":"levelo_inurba_marseille","lat":43.299717,"lon":5.384845,"is_reserved":false,"is_disabled":false,"rental_uris":{"android":"levelo://app?vid=04db71a1-2121-4901-baf4-c5c4b317d5a3","ios":"levelo://app?vid=04db71a1-2121-4901-baf4-c5c4b317d5a3"},"vehicle_type_id":"4","last_reported":1704846975,"current_range_meters":26800,"station_id":"ce4bgj92rcd13ifvqbd0","pricing_plan_id":"free"},{"bike_id":"f68e951f-caf3-4c45-90fc-f7e14195457b","system_id":"levelo_inurba_marseille","lat":43.299707,"lon":5.384859,"is_reserved":false,"is_disabled":false,"rental_uris":{"android":"levelo://app?vid=f68e951f-caf3-4c45-90fc-f7e14195457b","ios":"levelo://app?vid=f68e951f-caf3-4c45-90fc-f7e14195457b"},"vehicle_type_id":"4","last_reported":1704846975,"current_range_meters":18400,"station_id":"ce4bgj92rcd13ifvqbd0","pricing_plan_id":"free"},{"bike_id":"06fa4d53-9c93-40de-b5e8-94c64e3db28a","system_id":"levelo_inurba_marseille","lat":43.299717,"lon":5.384845,"is_reserved":false,"is_disabled":false,"rental_uris":{"android":"levelo://app?vid=06fa4d53-9c93-40de-b5e8-94c64e3db28a","ios":"levelo://app?vid=06fa4d53-9c93-40de-b5e8-94c64e3db28a"},"vehicle_type_id":"4","last_reported":1704846975,"current_range_meters":5200,"station_id":"ce4bgj92rcd13ifvqbd0","pricing_plan_id":"free"},{"bike_id":"81e921ca-b50d-451e-a2aa-0de67930d968","system_id":"levelo_inurba_marseille","lat":43.3236,"lon":5.38876,"is_reserved":false,"is_disabled":false,"rental_uris":{"android":"levelo://app?vid=81e921ca-b50d-451e-a2aa-0de67930d968","ios":"levelo://app?vid=81e921ca-b50d-451e-a2aa-0de67930d968"},"vehicle_type_id":"4","last_reported":1704846975,"current_range_meters":18800,"station_id":"ce4bhqp2rcd13ifvqhog","pricing_plan_id":"free"},{"bike_id":"c52cac78-36c5-4b60-a30f-f38d903841b2","system_id":"levelo_inurba_marseille","lat":43.32364,"lon":5.38883,"is_reserved":false,"is_disabled":false,"rental_uris":{"android":"levelo://app?vid=c52cac78-36c5-4b60-a30f-f38d903841b2","ios":"levelo://app?vid=c52cac78-36c5-4b60-a30f-f38d903841b2"},"vehicle_type_id":"4","last_reported":1704846975,"current_range_meters":24000,"station_id":"ce4bhqp2rcd13ifvqhog","pricing_plan_id":"free"},{"bike_id":"ace4fcd8-92a9-476f-8e1f-9a25c6789554","system_id":"levelo_inurba_marseille","lat":43.32367,"lon":5.388836,"is_reserved":false,"is_disabled":false,"rental_uris":{"android":"levelo://app?vid=ace4fcd8-92a9-476f-8e1f-9a25c6789554","ios":"levelo://app?vid=ace4fcd8-92a9-476f-8e1f-9a25c6789554"},"vehicle_type_id":"4","last_reported":1704846975,"current_range_meters":25600,"station_id":"ce4bhqp2rcd13ifvqhog","pricing_plan_id":"free"},{"bike_id":"75205096-6852-4545-82d0-2fc78b418465","system_id":"levelo_inurba_marseille","lat":43.323681,"lon":5.388809,"is_reserved":false,"is_disabled":false,"rental_uris":{"android":"levelo://app?vid=75205096-6852-4545-82d0-2fc78b418465","ios":"levelo://app?vid=75205096-6852-4545-82d0-2fc78b418465"},"vehicle_type_id":"4","last_reported":1704846975,"current_range_meters":21600,"station_id":"ce4bhqp2rcd13ifvqhog","pricing_plan_id":"free"},{"bike_id":"f98c8e4e-5262-4c11-b747-3fdaba5152b8","system_id":"levelo_inurba_marseille","lat":43.3237,"lon":5.3888,"is_reserved":false,"is_disabled":false,"rental_uris":{"android":"levelo://app?vid=f98c8e4e-5262-4c11-b747-3fdaba5152b8","ios":"levelo://app?vid=f98c8e4e-5262-4c11-b747-3fdaba5152b8"},"vehicle_type_id":"4","last_reported":1704846975,"current_range_meters":0,"station_id":"ce4bhqp2rcd13ifvqhog","pricing_plan_id":"free"},{"bike_id":"7cf362c3-c501-429a-89d8-68ec044fa5dc","system_id":"levelo_inurba_marseille","lat":43.32367,"lon":5.388836,"is_reserved":false,"is_disabled":false,"rental_uris":{"android":"levelo://app?vid=7cf362c3-c501-429a-89d8-68ec044fa5dc","ios":"levelo://app?vid=7cf362c3-c501-429a-89d8-68ec044fa5dc"},"vehicle_type_id":"4","last_reported":1704846975,"current_range_meters":26000,"station_id":"ce4bhqp2rcd13ifvqhog","pricing_plan_id":"free"},{"bike_id":"ea1b3b59-376b-41ec-ab9b-0e979094ae7e","system_id":"levelo_inurba_marseille","lat":43.323114,"lon":5.38936,"is_reserved":false,"is_disabled":false,"rental_uris":{"android":"levelo://app?vid=ea1b3b59-376b-41ec-ab9b-0e979094ae7e","ios":"levelo://app?vid=ea1b3b59-376b-41ec-ab9b-0e979094ae7e"},"vehicle_type_id":"4","last_reported":1704846975,"current_range_meters":10400,"station_id":"","pricing_plan_id":"free"},{"bike_id":"3aec9c1d-520e-4782-ac04-2e6dacdd9e36","system_id":"levelo_inurba_marseille","lat":43.29589,"lon":5.380838,"is_reserved":false,"is_disabled":false,"rental_uris":{"android":"levelo://app?vid=3aec9c1d-520e-4782-ac04-2e6dacdd9e36","ios":"levelo://app?vid=3aec9c1d-520e-4782-ac04-2e6dacdd9e36"},"vehicle_type_id":"4","last_reported":1704846975,"current_range_meters":30000,"station_id":"ce4bgl12rcd13ifvqbo0","pricing_plan_id":"free"},{"bike_id":"8df03d5f-92d5-457c-a626-769683dfdf34","system_id":"levelo_inurba_marseille","lat":43.2927,"lon":5.36836,"is_reserved":false,"is_disabled":false,"rental_uris":{"android":"levelo://app?vid=8df03d5f-92d5-457c-a626-769683dfdf34","ios":"levelo://app?vid=8df03d5f-92d5-457c-a626-769683dfdf34"},"vehicle_type_id":"4","last_reported":1704846975,"current_range_meters":30800,"station_id":"ce4bhbp2rcd13ifvqesg","pricing_plan_id":"free"},{"bike_id":"bf7ab20d-f661-4d45-854e-47f07d5b9ce7","system_id":"levelo_inurba_marseille","lat":43.292749,"lon":5.368402,"is_reserved":false,"is_disabled":false,"rental_uris":{"android":"levelo://app?vid=bf7ab20d-f661-4d45-854e-47f07d5b9ce7","ios":"levelo://app?vid=bf7ab20d-f661-4d45-854e-47f07d5b9ce7"},"vehicle_type_id":"4","last_reported":1704846975,"current_range_meters":27200,"station_id":"ce4bhbp2rcd13ifvqesg","pricing_plan_id":"free"},{"bike_id":"98742438-1fad-4b2a-97ed-25d526e11612","system_id":"levelo_inurba_marseille","lat":43.303002,"lon":5.392142,"is_reserved":false,"is_disabled":false,"rental_uris":{"android":"levelo://app?vid=98742438-1fad-4b2a-97ed-25d526e11612","ios":"levelo://app?vid=98742438-1fad-4b2a-97ed-25d526e11612"},"vehicle_type_id":"4","last_reported":1704846975,"current_range_meters":10800,"station_id":"ce4bgkh2rcd13ifvqbk0","pricing_plan_id":"free"},{"bike_id":"5d7155d6-2996-4f7a-b183-11c4214c863b","system_id":"levelo_inurba_marseille","lat":43.303002,"lon":5.392142,"is_reserved":false,"is_disabled":false,"rental_uris":{"android":"levelo://app?vid=5d7155d6-2996-4f7a-b183-11c4214c863b","ios":"levelo://app?vid=5d7155d6-2996-4f7a-b183-11c4214c863b"},"vehicle_type_id":"4","last_reported":1704846975,"current_range_meters":14800,"station_id":"ce4bgkh2rcd13ifvqbk0","pricing_plan_id":"free"},{"bike_id":"5d65906e-d05b-45ff-911f-91965f7f09eb","system_id":"levelo_inurba_marseille","lat":43.303002,"lon":5.392142,"is_reserved":false,"is_disabled":false,"rental_uris":{"android":"levelo://app?vid=5d65906e-d05b-45ff-911f-91965f7f09eb","ios":"levelo://app?vid=5d65906e-d05b-45ff-911f-91965f7f09eb"},"vehicle_type_id":"4","last_reported":1704846975,"current_range_meters":0,"station_id":"ce4bgkh2rcd13ifvqbk0","pricing_plan_id":"free"},{"bike_id":"f6dad20e-5ac0-447f-bf81-5ceb6e0a26c8","system_id":"levelo_inurba_marseille","lat":43.303002,"lon":5.392142,"is_reserved":false,"is_disabled":false,"rental_uris":{"android":"levelo://app?vid=f6dad20e-5ac0-447f-bf81-5ceb6e0a26c8","ios":"levelo://app?vid=f6dad20e-5ac0-447f-bf81-5ceb6e0a26c8"},"vehicle_type_id":"4","last_reported":1704846975,"current_range_meters":25200,"station_id":"ce4bgkh2rcd13ifvqbk0","pricing_plan_id":"free"},{"bike_id":"e01f940a-29d6-4797-a975-6b3e4097a5be","system_id":"levelo_inurba_marseille","lat":43.303034,"lon":5.392146,"is_reserved":false,"is_disabled":false,"rental_uris":{"android":"levelo://app?vid=e01f940a-29d6-4797-a975-6b3e4097a5be","ios":"levelo://app?vid=e01f940a-29d6-4797-a975-6b3e4097a5be"},"vehicle_type_id":"4","last_reported":1704846975,"current_range_meters":11200,"station_id":"ce4bgkh2rcd13ifvqbk0","pricing_plan_id":"free"},{"bike_id":"2a5b51f9-3087-4f57-81a4-3889418679b5","system_id":"levelo_inurba_marseille","lat":43.292311,"lon":5.360731,"is_reserved":false,"is_disabled":false,"rental_uris":{"android":"levelo://app?vid=2a5b51f9-3087-4f57-81a4-3889418679b5","ios":"levelo://app?vid=2a5b51f9-3087-4f57-81a4-3889418679b5"},"vehicle_type_id":"4","last_reported":1704846975,"current_range_meters":31200,"station_id":"ce4bhbh2rcd13ifvqeqg","pricing_plan_id":"free"},{"bike_id":"4899f726-ef10-447b-a918-d84e0769d148","system_id":"levelo_inurba_marseille","lat":43.292183,"lon":5.360512,"is_reserved":false,"is_disabled":false,"rental_uris":{"android":"levelo://app?vid=4899f726-ef10-447b-a918-d84e0769d148","ios":"levelo://app?vid=4899f726-ef10-447b-a918-d84e0769d148"},"vehicle_type_id":"4","last_reported":1704846975,"current_range_meters":21200,"station_id":"ce4bhbh2rcd13ifvqeqg","pricing_plan_id":"free"},{"bike_id":"7d4eab22-70d0-4a5f-a051-7437c00de57f","system_id":"levelo_inurba_marseille","lat":43.298707,"lon":5.389006,"is_reserved":false,"is_disabled":false,"rental_uris":{"android":"levelo://app?vid=7d4eab22-70d0-4a5f-a051-7437c00de57f","ios":"levelo://app?vid=7d4eab22-70d0-4a5f-a051-7437c00de57f"},"vehicle_type_id":"4","last_reported":1704846975,"current_range_meters":15200,"station_id":"","pricing_plan_id":"free"},{"bike_id":"078ab494-784c-48dc-9d57-b696f448f56a","system_id":"levelo_inurba_marseille","lat":43.308903,"lon":5.396224,"is_reserved":false,"is_disabled":false,"rental_uris":{"android":"levelo://app?vid=078ab494-784c-48dc-9d57-b696f448f56a","ios":"levelo://app?vid=078ab494-784c-48dc-9d57-b696f448f56a"},"vehicle_type_id":"4","last_reported":1704846975,"current_range_meters":7200,"station_id":"ce4bh012rcd13ifvqcv0","pricing_plan_id":"free"},{"bike_id":"dacc7546-ee44-4b99-ab2a-4e1325d9999a","system_id":"levelo_inurba_marseille","lat":43.291994,"lon":5.357886,"is_reserved":false,"is_disabled":false,"rental_uris":{"android":"levelo://app?vid=dacc7546-ee44-4b99-ab2a-4e1325d9999a","ios":"levelo://app?vid=dacc7546-ee44-4b99-ab2a-4e1325d9999a"},"vehicle_type_id":"4","last_reported":1704846975,"current_range_meters":9600,"station_id":"ce4bhb12rcd13ifvqel0","pricing_plan_id":"free"},{"bike_id":"1526e94b-0e94-4ead-b4bd-5579a1a3f305","system_id":"levelo_inurba_marseille","lat":43.308876,"lon":5.396328,"is_reserved":false,"is_disabled":false,"rental_uris":{"android":"levelo://app?vid=1526e94b-0e94-4ead-b4bd-5579a1a3f305","ios":"levelo://app?vid=1526e94b-0e94-4ead-b4bd-5579a1a3f305"},"vehicle_type_id":"4","last_reported":1704846975,"current_range_meters":26800,"station_id":"ce4bh012rcd13ifvqcv0","pricing_plan_id":"free"},{"bike_id":"f8c55a9a-ba6d-41bf-9c3e-8bbe7ee4df15","system_id":"levelo_inurba_marseille","lat":43.291994,"lon":5.357886,"is_reserved":false,"is_disabled":false,"rental_uris":{"android":"levelo://app?vid=f8c55a9a-ba6d-41bf-9c3e-8bbe7ee4df15","ios":"levelo://app?vid=f8c55a9a-ba6d-41bf-9c3e-8bbe7ee4df15"},"vehicle_type_id":"4","last_reported":1704846975,"current_range_meters":30400,"station_id":"ce4bhb12rcd13ifvqel0","pricing_plan_id":"free"},{"bike_id":"2f646cb3-6855-4d41-91b7-3f404f5f7634","system_id":"levelo_inurba_marseille","lat":43.308837,"lon":5.39632,"is_reserved":false,"is_disabled":false,"rental_uris":{"android":"levelo://app?vid=2f646cb3-6855-4d41-91b7-3f404f5f7634","ios":"levelo://app?vid=2f646cb3-6855-4d41-91b7-3f404f5f7634"},"vehicle_type_id":"4","last_reported":1704846975,"current_range_meters":9600,"station_id":"ce4bh012rcd13ifvqcv0","pricing_plan_id":"free"},{"bike_id":"7c5a19e6-61e5-4ff9-b344-b29dad202a1a","system_id":"levelo_inurba_marseille","lat":43.309047,"lon":5.396551,"is_reserved":false,"is_disabled":false,"rental_uris":{"android":"levelo://app?vid=7c5a19e6-61e5-4ff9-b344-b29dad202a1a","ios":"levelo://app?vid=7c5a19e6-61e5-4ff9-b344-b29dad202a1a"},"vehicle_type_id":"4","last_reported":1704846975,"current_range_meters":18800,"station_id":"ce4bh012rcd13ifvqcv0","pricing_plan_id":"free"},{"bike_id":"b2dc01c8-3b06-4f45-9298-57ebf05a7e98","system_id":"levelo_inurba_marseille","lat":43.308832,"lon":5.39634,"is_reserved":false,"is_disabled":false,"rental_uris":{"android":"levelo://app?vid=b2dc01c8-3b06-4f45-9298-57ebf05a7e98","ios":"levelo://app?vid=b2dc01c8-3b06-4f45-9298-57ebf05a7e98"},"vehicle_type_id":"4","last_reported":1704846975,"current_range_meters":4800,"station_id":"ce4bh012rcd13ifvqcv0","pricing_plan_id":"free"},{"bike_id":"ce227334-7b48-47fe-8664-cbb2fc01cb37","system_id":"levelo_inurba_marseille","lat":43.309047,"lon":5.396551,"is_reserved":false,"is_disabled":false,"rental_uris":{"android":"levelo://app?vid=ce227334-7b48-47fe-8664-cbb2fc01cb37","ios":"levelo://app?vid=ce227334-7b48-47fe-8664-cbb2fc01cb37"},"vehicle_type_id":"4","last_reported":1704846975,"current_range_meters":29200,"station_id":"ce4bh012rcd13ifvqcv0","pricing_plan_id":"free"},{"bike_id":"7c3adde4-6944-473e-b25d-cadf1ac15996","system_id":"levelo_inurba_marseille","lat":43.291994,"lon":5.357886,"is_reserved":false,"is_disabled":false,"rental_uris":{"android":"levelo://app?vid=7c3adde4-6944-473e-b25d-cadf1ac15996","ios":"levelo://app?vid=7c3adde4-6944-473e-b25d-cadf1ac15996"},"vehicle_type_id":"4","last_reported":1704846975,"current_range_meters":3200,"station_id":"ce4bhb12rcd13ifvqel0","pricing_plan_id":"free"},{"bike_id":"9137838d-d0c1-45ae-83fb-ba815c8e0097","system_id":"levelo_inurba_marseille","lat":43.30883,"lon":5.39639,"is_reserved":false,"is_disabled":false,"rental_uris":{"android":"levelo://app?vid=9137838d-d0c1-45ae-83fb-ba815c8e0097","ios":"levelo://app?vid=9137838d-d0c1-45ae-83fb-ba815c8e0097"},"vehicle_type_id":"4","last_reported":1704846975,"current_range_meters":2000,"station_id":"ce4bh012rcd13ifvqcv0","pricing_plan_id":"free"},{"bike_id":"32883a14-611d-4088-a4fd-ad7f6816bdac","system_id":"levelo_inurba_marseille","lat":43.308824,"lon":5.396391,"is_reserved":false,"is_disabled":false,"rental_uris":{"android":"levelo://app?vid=32883a14-611d-4088-a4fd-ad7f6816bdac","ios":"levelo://app?vid=32883a14-611d-4088-a4fd-ad7f6816bdac"},"vehicle_type_id":"4","last_reported":1704846975,"current_range_meters":30000,"station_id":"ce4bh012rcd13ifvqcv0","pricing_plan_id":"free"},{"bike_id":"248c6735-6a24-4deb-8598-8470ec2c1aee","system_id":"levelo_inurba_marseille","lat":43.308797,"lon":5.396385,"is_reserved":false,"is_disabled":false,"rental_uris":{"android":"levelo://app?vid=248c6735-6a24-4deb-8598-8470ec2c1aee","ios":"levelo://app?vid=248c6735-6a24-4deb-8598-8470ec2c1aee"},"vehicle_type_id":"4","last_reported":1704846975,"current_range_meters":16400,"station_id":"ce4bh012rcd13ifvqcv0","pricing_plan_id":"free"},{"bike_id":"3257972e-86a2-4400-b310-a776994a037a","system_id":"levelo_inurba_marseille","lat":43.308782,"lon":5.396384,"is_reserved":false,"is_disabled":false,"rental_uris":{"android":"levelo://app?vid=3257972e-86a2-4400-b310-a776994a037a","ios":"levelo://app?vid=3257972e-86a2-4400-b310-a776994a037a"},"vehicle_type_id":"4","last_reported":1704846975,"current_range_meters":8400,"station_id":"ce4bh012rcd13ifvqcv0","pricing_plan_id":"free"},{"bike_id":"03dfc576-955f-4483-ae7b-8bfd08cf549d","system_id":"levelo_inurba_marseille","lat":43.313291,"lon":5.396838,"is_reserved":false,"is_disabled":false,"rental_uris":{"android":"levelo://app?vid=03dfc576-955f-4483-ae7b-8bfd08cf549d","ios":"levelo://app?vid=03dfc576-955f-4483-ae7b-8bfd08cf549d"},"vehicle_type_id":"4","last_reported":1704846975,"current_range_meters":31200,"station_id":"ce4bgvp2rcd13ifvqcu0","pricing_plan_id":"free"},{"bike_id":"4911b64b-af13-42c0-b1d0-c564065844ef","system_id":"levelo_inurba_marseille","lat":43.308895,"lon":5.396425,"is_reserved":false,"is_disabled":false,"rental_uris":{"android":"levelo://app?vid=4911b64b-af13-42c0-b1d0-c564065844ef","ios":"levelo://app?vid=4911b64b-af13-42c0-b1d0-c564065844ef"},"vehicle_type_id":"4","last_reported":1704846975,"current_range_meters":2400,"station_id":"ce4bh012rcd13ifvqcv0","pricing_plan_id":"free"},{"bike_id":"3a7d504c-9707-42ee-b6a5-5a26ad66a0d3","system_id":"levelo_inurba_marseille","lat":43.30887,"lon":5.39643,"is_reserved":false,"is_disabled":false,"rental_uris":{"android":"levelo://app?vid=3a7d504c-9707-42ee-b6a5-5a26ad66a0d3","ios":"levelo://app?vid=3a7d504c-9707-42ee-b6a5-5a26ad66a0d3"},"vehicle_type_id":"4","last_reported":1704846975,"current_range_meters":10000,"station_id":"ce4bh012rcd13ifvqcv0","pricing_plan_id":"free"},{"bike_id":"8e68dfc7-d7ab-460d-a91c-36c617ade0b7","system_id":"levelo_inurba_marseille","lat":43.313291,"lon":5.396838,"is_reserved":false,"is_disabled":false,"rental_uris":{"android":"levelo://app?vid=8e68dfc7-d7ab-460d-a91c-36c617ade0b7","ios":"levelo://app?vid=8e68dfc7-d7ab-460d-a91c-36c617ade0b7"},"vehicle_type_id":"4","last_reported":1704846975,"current_range_meters":4800,"station_id":"ce4bgvp2rcd13ifvqcu0","pricing_plan_id":"free"},{"bike_id":"5da25857-f0ea-4b8c-9451-3633e9dcf7f8","system_id":"levelo_inurba_marseille","lat":43.30886,"lon":5.396438,"is_reserved":false,"is_disabled":false,"rental_uris":{"android":"levelo://app?vid=5da25857-f0ea-4b8c-9451-3633e9dcf7f8","ios":"levelo://app?vid=5da25857-f0ea-4b8c-9451-3633e9dcf7f8"},"vehicle_type_id":"4","last_reported":1704846975,"current_range_meters":24800,"station_id":"ce4bh012rcd13ifvqcv0","pricing_plan_id":"free"},{"bike_id":"2e3a7afb-d8c7-4884-acc8-550933aad787","system_id":"levelo_inurba_marseille","lat":43.31333,"lon":5.39693,"is_reserved":false,"is_disabled":false,"rental_uris":{"android":"levelo://app?vid=2e3a7afb-d8c7-4884-acc8-550933aad787","ios":"levelo://app?vid=2e3a7afb-d8c7-4884-acc8-550933aad787"},"vehicle_type_id":"4","last_reported":1704846975,"current_range_meters":22000,"station_id":"ce4bgvp2rcd13ifvqcu0","pricing_plan_id":"free"},{"bike_id":"95d306a8-d7fd-45a2-895b-3f64883288e7","system_id":"levelo_inurba_marseille","lat":43.308813,"lon":5.39646,"is_reserved":false,"is_disabled":false,"rental_uris":{"android":"levelo://app?vid=95d306a8-d7fd-45a2-895b-3f64883288e7","ios":"levelo://app?vid=95d306a8-d7fd-45a2-895b-3f64883288e7"},"vehicle_type_id":"4","last_reported":1704846975,"current_range_meters":21600,"station_id":"ce4bh012rcd13ifvqcv0","pricing_plan_id":"free"},{"bike_id":"460038ff-124c-4609-8c97-f1c1d78c42e9","system_id":"levelo_inurba_marseille","lat":43.313291,"lon":5.396838,"is_reserved":false,"is_disabled":false,"rental_uris":{"android":"levelo://app?vid=460038ff-124c-4609-8c97-f1c1d78c42e9","ios":"levelo://app?vid=460038ff-124c-4609-8c97-f1c1d78c42e9"},"vehicle_type_id":"4","last_reported":1704846975,"current_range_meters":26400,"station_id":"ce4bgvp2rcd13ifvqcu0","pricing_plan_id":"free"},{"bike_id":"5347f055-d351-4f82-9a49-430941ec256b","system_id":"levelo_inurba_marseille","lat":43.308888,"lon":5.396485,"is_reserved":false,"is_disabled":false,"rental_uris":{"android":"levelo://app?vid=5347f055-d351-4f82-9a49-430941ec256b","ios":"levelo://app?vid=5347f055-d351-4f82-9a49-430941ec256b"},"vehicle_type_id":"4","last_reported":1704846975,"current_range_meters":14400,"station_id":"ce4bh012rcd13ifvqcv0","pricing_plan_id":"free"},{"bike_id":"7b36211d-f979-4204-ae1c-1091b8280214","system_id":"levelo_inurba_marseille","lat":43.313291,"lon":5.396838,"is_reserved":false,"is_disabled":false,"rental_uris":{"android":"levelo://app?vid=7b36211d-f979-4204-ae1c-1091b8280214","ios":"levelo://app?vid=7b36211d-f979-4204-ae1c-1091b8280214"},"vehicle_type_id":"4","last_reported":1704846975,"current_range_meters":8400,"station_id":"ce4bgvp2rcd13ifvqcu0","pricing_plan_id":"free"},{"bike_id":"8ad73542-fa8e-4882-a475-b74467082e41","system_id":"levelo_inurba_marseille","lat":43.291994,"lon":5.357886,"is_reserved":false,"is_disabled":false,"rental_uris":{"android":"levelo://app?vid=8ad73542-fa8e-4882-a475-b74467082e41","ios":"levelo://app?vid=8ad73542-fa8e-4882-a475-b74467082e41"},"vehicle_type_id":"4","last_reported":1704846975,"current_range_meters":23600,"station_id":"ce4bhb12rcd13ifvqel0","pricing_plan_id":"free"},{"bike_id":"9613a6ca-4f7c-4032-be8c-94815fb8c28b","system_id":"levelo_inurba_marseille","lat":43.308842,"lon":5.396508,"is_reserved":false,"is_disabled":false,"rental_uris":{"android":"levelo://app?vid=9613a6ca-4f7c-4032-be8c-94815fb8c28b","ios":"levelo://app?vid=9613a6ca-4f7c-4032-be8c-94815fb8c28b"},"vehicle_type_id":"4","last_reported":1704846975,"current_range_meters":15200,"station_id":"ce4bh012rcd13ifvqcv0","pricing_plan_id":"free"},{"bike_id":"c700ba83-9ebd-46f0-9a4b-9dc41b58c0d4","system_id":"levelo_inurba_marseille","lat":43.308853,"lon":5.39654,"is_reserved":false,"is_disabled":false,"rental_uris":{"android":"levelo://app?vid=c700ba83-9ebd-46f0-9a4b-9dc41b58c0d4","ios":"levelo://app?vid=c700ba83-9ebd-46f0-9a4b-9dc41b58c0d4"},"vehicle_type_id":"4","last_reported":1704846975,"current_range_meters":3600,"station_id":"ce4bh012rcd13ifvqcv0","pricing_plan_id":"free"},{"bike_id":"e5e25f09-3077-40d0-b4d2-e3f6f6f9e00f","system_id":"levelo_inurba_marseille","lat":43.313291,"lon":5.396838,"is_reserved":false,"is_disabled":false,"rental_uris":{"android":"levelo://app?vid=e5e25f09-3077-40d0-b4d2-e3f6f6f9e00f","ios":"levelo://app?vid=e5e25f09-3077-40d0-b4d2-e3f6f6f9e00f"},"vehicle_type_id":"4","last_reported":1704846975,"current_range_meters":5600,"station_id":"ce4bgvp2rcd13ifvqcu0","pricing_plan_id":"free"},{"bike_id":"0494dfed-d160-439a-9daa-9d5a5c1dd464","system_id":"levelo_inurba_marseille","lat":43.313476,"lon":5.397887,"is_reserved":false,"is_disabled":false,"rental_uris":{"android":"levelo://app?vid=0494dfed-d160-439a-9daa-9d5a5c1dd464","ios":"levelo://app?vid=0494dfed-d160-439a-9daa-9d5a5c1dd464"},"vehicle_type_id":"4","last_reported":1704846975,"current_range_meters":9600,"station_id":"","pricing_plan_id":"free"},{"bike_id":"e301beb3-ba96-46f3-bdce-842b4e07402b","system_id":"levelo_inurba_marseille","lat":43.290624,"lon":5.359245,"is_reserved":false,"is_disabled":false,"rental_uris":{"android":"levelo://app?vid=e301beb3-ba96-46f3-bdce-842b4e07402b","ios":"levelo://app?vid=e301beb3-ba96-46f3-bdce-842b4e07402b"},"vehicle_type_id":"4","last_reported":1704846975,"current_range_meters":31200,"station_id":"ce4bha92rcd13ifvqeg0","pricing_plan_id":"free"},{"bike_id":"6a00b293-4f12-4ce8-9e93-b6bde95ae43b","system_id":"levelo_inurba_marseille","lat":43.2916,"lon":5.37911,"is_reserved":false,"is_disabled":false,"rental_uris":{"android":"levelo://app?vid=6a00b293-4f12-4ce8-9e93-b6bde95ae43b","ios":"levelo://app?vid=6a00b293-4f12-4ce8-9e93-b6bde95ae43b"},"vehicle_type_id":"4","last_reported":1704846975,"current_range_meters":3600,"station_id":"","pricing_plan_id":"free"},{"bike_id":"2bb1bcb6-54ce-4036-b5a0-a166a40d09f1","system_id":"levelo_inurba_marseille","lat":43.290624,"lon":5.359245,"is_reserved":false,"is_disabled":false,"rental_uris":{"android":"levelo://app?vid=2bb1bcb6-54ce-4036-b5a0-a166a40d09f1","ios":"levelo://app?vid=2bb1bcb6-54ce-4036-b5a0-a166a40d09f1"},"vehicle_type_id":"4","last_reported":1704846975,"current_range_meters":13200,"station_id":"ce4bha92rcd13ifvqeg0","pricing_plan_id":"free"},{"bike_id":"eee345ac-3d4a-4b0e-821e-264d685f9d35","system_id":"levelo_inurba_marseille","lat":43.290624,"lon":5.359245,"is_reserved":false,"is_disabled":false,"rental_uris":{"android":"levelo://app?vid=eee345ac-3d4a-4b0e-821e-264d685f9d35","ios":"levelo://app?vid=eee345ac-3d4a-4b0e-821e-264d685f9d35"},"vehicle_type_id":"4","last_reported":1704846975,"current_range_meters":4800,"station_id":"ce4bha92rcd13ifvqeg0","pricing_plan_id":"free"},{"bike_id":"84dc494f-4202-4393-a66f-5fdbccac152c","system_id":"levelo_inurba_marseille","lat":43.290631,"lon":5.359244,"is_reserved":false,"is_disabled":false,"rental_uris":{"android":"levelo://app?vid=84dc494f-4202-4393-a66f-5fdbccac152c","ios":"levelo://app?vid=84dc494f-4202-4393-a66f-5fdbccac152c"},"vehicle_type_id":"4","last_reported":1704846975,"current_range_meters":27200,"station_id":"ce4bha92rcd13ifvqeg0","pricing_plan_id":"free"},{"bike_id":"9d28d435-82f3-40b6-854a-edc113e39133","system_id":"levelo_inurba_marseille","lat":43.28946,"lon":5.3663,"is_reserved":false,"is_disabled":false,"rental_uris":{"android":"levelo://app?vid=9d28d435-82f3-40b6-854a-edc113e39133","ios":"levelo://app?vid=9d28d435-82f3-40b6-854a-edc113e39133"},"vehicle_type_id":"4","last_reported":1704846975,"current_range_meters":17200,"station_id":"ce4bhap2rcd13ifvqek0","pricing_plan_id":"free"},{"bike_id":"8cb05e9a-5232-4826-9c38-1a315c035847","system_id":"levelo_inurba_marseille","lat":43.28945,"lon":5.36626,"is_reserved":false,"is_disabled":false,"rental_uris":{"android":"levelo://app?vid=8cb05e9a-5232-4826-9c38-1a315c035847","ios":"levelo://app?vid=8cb05e9a-5232-4826-9c38-1a315c035847"},"vehicle_type_id":"4","last_reported":1704846975,"current_range_meters":30000,"station_id":"ce4bhap2rcd13ifvqek0","pricing_plan_id":"free"},{"bike_id":"c887701c-1802-462b-b758-0e11714def7f","system_id":"levelo_inurba_marseille","lat":43.290327,"lon":5.375711,"is_reserved":false,"is_disabled":false,"rental_uris":{"android":"levelo://app?vid=c887701c-1802-462b-b758-0e11714def7f","ios":"levelo://app?vid=c887701c-1802-462b-b758-0e11714def7f"},"vehicle_type_id":"4","last_reported":1704846975,"current_range_meters":4800,"station_id":"ce4bh692rcd13ifvqe90","pricing_plan_id":"free"},{"bike_id":"f9e985c6-d21c-4b3b-8e54-7dcb0e8eeea0","system_id":"levelo_inurba_marseille","lat":43.290104,"lon":5.356111,"is_reserved":false,"is_disabled":false,"rental_uris":{"android":"levelo://app?vid=f9e985c6-d21c-4b3b-8e54-7dcb0e8eeea0","ios":"levelo://app?vid=f9e985c6-d21c-4b3b-8e54-7dcb0e8eeea0"},"vehicle_type_id":"4","last_reported":1704846975,"current_range_meters":26000,"station_id":"ce4bhb92rcd13ifvqen0","pricing_plan_id":"free"},{"bike_id":"e7a98db6-ebe9-4358-a0a0-3e1184a55df8","system_id":"levelo_inurba_marseille","lat":43.30458,"lon":5.39794,"is_reserved":false,"is_disabled":false,"rental_uris":{"android":"levelo://app?vid=e7a98db6-ebe9-4358-a0a0-3e1184a55df8","ios":"levelo://app?vid=e7a98db6-ebe9-4358-a0a0-3e1184a55df8"},"vehicle_type_id":"4","last_reported":1704846975,"current_range_meters":6000,"station_id":"ce4bh092rcd13ifvqd20","pricing_plan_id":"free"},{"bike_id":"85bdde40-e1b0-43a9-b74c-79d909ced39b","system_id":"levelo_inurba_marseille","lat":43.290104,"lon":5.356111,"is_reserved":false,"is_disabled":false,"rental_uris":{"android":"levelo://app?vid=85bdde40-e1b0-43a9-b74c-79d909ced39b","ios":"levelo://app?vid=85bdde40-e1b0-43a9-b74c-79d909ced39b"},"vehicle_type_id":"4","last_reported":1704846975,"current_range_meters":3600,"station_id":"ce4bhb92rcd13ifvqen0","pricing_plan_id":"free"},{"bike_id":"00ceb65b-d038-4bb1-b17d-d4d95e332dcc","system_id":"levelo_inurba_marseille","lat":43.297944,"lon":5.393379,"is_reserved":false,"is_disabled":false,"rental_uris":{"android":"levelo://app?vid=00ceb65b-d038-4bb1-b17d-d4d95e332dcc","ios":"levelo://app?vid=00ceb65b-d038-4bb1-b17d-d4d95e332dcc"},"vehicle_type_id":"4","last_reported":1704846975,"current_range_meters":12000,"station_id":"chh1huq6cuj3fo74tm60","pricing_plan_id":"free"},{"bike_id":"bf3351c0-e431-452b-aa72-2e1748ef5d9d","system_id":"levelo_inurba_marseille","lat":43.297949,"lon":5.393401,"is_reserved":false,"is_disabled":false,"rental_uris":{"android":"levelo://app?vid=bf3351c0-e431-452b-aa72-2e1748ef5d9d","ios":"levelo://app?vid=bf3351c0-e431-452b-aa72-2e1748ef5d9d"},"vehicle_type_id":"4","last_reported":1704846975,"current_range_meters":0,"station_id":"chh1huq6cuj3fo74tm60","pricing_plan_id":"free"},{"bike_id":"3ebd609a-be06-428f-b8af-b7e9f0ea0f75","system_id":"levelo_inurba_marseille","lat":43.297879,"lon":5.393375,"is_reserved":false,"is_disabled":false,"rental_uris":{"android":"levelo://app?vid=3ebd609a-be06-428f-b8af-b7e9f0ea0f75","ios":"levelo://app?vid=3ebd609a-be06-428f-b8af-b7e9f0ea0f75"},"vehicle_type_id":"4","last_reported":1704846975,"current_range_meters":30800,"station_id":"chh1huq6cuj3fo74tm60","pricing_plan_id":"free"},{"bike_id":"6c22ca93-438d-4520-a18d-90f0f7023b05","system_id":"levelo_inurba_marseille","lat":43.297815,"lon":5.393548,"is_reserved":false,"is_disabled":false,"rental_uris":{"android":"levelo://app?vid=6c22ca93-438d-4520-a18d-90f0f7023b05","ios":"levelo://app?vid=6c22ca93-438d-4520-a18d-90f0f7023b05"},"vehicle_type_id":"4","last_reported":1704846975,"current_range_meters":14800,"station_id":"chh1huq6cuj3fo74tm60","pricing_plan_id":"free"},{"bike_id":"526b314e-028c-4425-b1a8-95d84c236cbd","system_id":"levelo_inurba_marseille","lat":43.297815,"lon":5.393548,"is_reserved":false,"is_disabled":false,"rental_uris":{"android":"levelo://app?vid=526b314e-028c-4425-b1a8-95d84c236cbd","ios":"levelo://app?vid=526b314e-028c-4425-b1a8-95d84c236cbd"},"vehicle_type_id":"4","last_reported":1704846975,"current_range_meters":7200,"station_id":"chh1huq6cuj3fo74tm60","pricing_plan_id":"free"},{"bike_id":"c3dfb93f-d372-4180-b843-730823442439","system_id":"levelo_inurba_marseille","lat":43.297815,"lon":5.393548,"is_reserved":false,"is_disabled":false,"rental_uris":{"android":"levelo://app?vid=c3dfb93f-d372-4180-b843-730823442439","ios":"levelo://app?vid=c3dfb93f-d372-4180-b843-730823442439"},"vehicle_type_id":"4","last_reported":1704846975,"current_range_meters":0,"station_id":"chh1huq6cuj3fo74tm60","pricing_plan_id":"free"},{"bike_id":"604d70e1-4bfc-4c1a-ad50-5c45b428d61e","system_id":"levelo_inurba_marseille","lat":43.33018,"lon":5.39044,"is_reserved":false,"is_disabled":false,"rental_uris":{"android":"levelo://app?vid=604d70e1-4bfc-4c1a-ad50-5c45b428d61e","ios":"levelo://app?vid=604d70e1-4bfc-4c1a-ad50-5c45b428d61e"},"vehicle_type_id":"4","last_reported":1704846975,"current_range_meters":30800,"station_id":"ce4bhr92rcd13ifvqhrg","pricing_plan_id":"free"},{"bike_id":"29877edf-f914-4818-a395-be7aee9e9d72","system_id":"levelo_inurba_marseille","lat":43.33022,"lon":5.390384,"is_reserved":false,"is_disabled":false,"rental_uris":{"android":"levelo://app?vid=29877edf-f914-4818-a395-be7aee9e9d72","ios":"levelo://app?vid=29877edf-f914-4818-a395-be7aee9e9d72"},"vehicle_type_id":"4","last_reported":1704846975,"current_range_meters":27600,"station_id":"","pricing_plan_id":"free"},{"bike_id":"b4b1d330-9cae-432f-bbe4-7ca5957c66dd","system_id":"levelo_inurba_marseille","lat":43.33026,"lon":5.39036,"is_reserved":false,"is_disabled":false,"rental_uris":{"android":"levelo://app?vid=b4b1d330-9cae-432f-bbe4-7ca5957c66dd","ios":"levelo://app?vid=b4b1d330-9cae-432f-bbe4-7ca5957c66dd"},"vehicle_type_id":"4","last_reported":1704846975,"current_range_meters":21200,"station_id":"","pricing_plan_id":"free"},{"bike_id":"87efb1e3-3a04-4a04-8a2c-7950735911ef","system_id":"levelo_inurba_marseille","lat":43.33023,"lon":5.390411,"is_reserved":false,"is_disabled":false,"rental_uris":{"android":"levelo://app?vid=87efb1e3-3a04-4a04-8a2c-7950735911ef","ios":"levelo://app?vid=87efb1e3-3a04-4a04-8a2c-7950735911ef"},"vehicle_type_id":"4","last_reported":1704846975,"current_range_meters":18400,"station_id":"","pricing_plan_id":"free"},{"bike_id":"8ab38903-5638-4d21-837d-1b1a2fa4f728","system_id":"levelo_inurba_marseille","lat":43.290094,"lon":5.381264,"is_reserved":false,"is_disabled":false,"rental_uris":{"android":"levelo://app?vid=8ab38903-5638-4d21-837d-1b1a2fa4f728","ios":"levelo://app?vid=8ab38903-5638-4d21-837d-1b1a2fa4f728"},"vehicle_type_id":"4","last_reported":1704846975,"current_range_meters":27200,"station_id":"ce4bh4p2rcd13ifvqe1g","pricing_plan_id":"free"},{"bike_id":"3dac567c-d722-4e94-aa38-8a3688c276ae","system_id":"levelo_inurba_marseille","lat":43.310328,"lon":5.400942,"is_reserved":false,"is_disabled":false,"rental_uris":{"android":"levelo://app?vid=3dac567c-d722-4e94-aa38-8a3688c276ae","ios":"levelo://app?vid=3dac567c-d722-4e94-aa38-8a3688c276ae"},"vehicle_type_id":"4","last_reported":1704846975,"current_range_meters":23200,"station_id":"","pricing_plan_id":"free"},{"bike_id":"32fbbf8e-7130-4cbc-8d2d-7a585b0bb565","system_id":"levelo_inurba_marseille","lat":43.28856,"lon":5.358371,"is_reserved":false,"is_disabled":false,"rental_uris":{"android":"levelo://app?vid=32fbbf8e-7130-4cbc-8d2d-7a585b0bb565","ios":"levelo://app?vid=32fbbf8e-7130-4cbc-8d2d-7a585b0bb565"},"vehicle_type_id":"4","last_reported":1704846975,"current_range_meters":29200,"station_id":"ce4bhb12rcd13ifvqem0","pricing_plan_id":"free"},{"bike_id":"ebba3bf4-ee88-4b97-9599-40a9dad17987","system_id":"levelo_inurba_marseille","lat":43.28856,"lon":5.358371,"is_reserved":false,"is_disabled":false,"rental_uris":{"android":"levelo://app?vid=ebba3bf4-ee88-4b97-9599-40a9dad17987","ios":"levelo://app?vid=ebba3bf4-ee88-4b97-9599-40a9dad17987"},"vehicle_type_id":"4","last_reported":1704846975,"current_range_meters":21200,"station_id":"ce4bhb12rcd13ifvqem0","pricing_plan_id":"free"},{"bike_id":"d6156160-372d-4a02-bb44-9a4806b19bb6","system_id":"levelo_inurba_marseille","lat":43.28856,"lon":5.358371,"is_reserved":false,"is_disabled":false,"rental_uris":{"android":"levelo://app?vid=d6156160-372d-4a02-bb44-9a4806b19bb6","ios":"levelo://app?vid=d6156160-372d-4a02-bb44-9a4806b19bb6"},"vehicle_type_id":"4","last_reported":1704846975,"current_range_meters":21200,"station_id":"ce4bhb12rcd13ifvqem0","pricing_plan_id":"free"},{"bike_id":"5c6686f1-bda4-4c89-8578-aa1229416db0","system_id":"levelo_inurba_marseille","lat":43.312593,"lon":5.40155,"is_reserved":false,"is_disabled":false,"rental_uris":{"android":"levelo://app?vid=5c6686f1-bda4-4c89-8578-aa1229416db0","ios":"levelo://app?vid=5c6686f1-bda4-4c89-8578-aa1229416db0"},"vehicle_type_id":"4","last_reported":1704846975,"current_range_meters":3200,"station_id":"","pricing_plan_id":"free"},{"bike_id":"cf73facc-2fa3-4e06-b8d6-de2b8c1ab653","system_id":"levelo_inurba_marseille","lat":43.312681,"lon":5.401642,"is_reserved":false,"is_disabled":false,"rental_uris":{"android":"levelo://app?vid=cf73facc-2fa3-4e06-b8d6-de2b8c1ab653","ios":"levelo://app?vid=cf73facc-2fa3-4e06-b8d6-de2b8c1ab653"},"vehicle_type_id":"4","last_reported":1704846975,"current_range_meters":28400,"station_id":"ce4bh092rcd13ifvqd30","pricing_plan_id":"free"},{"bike_id":"7a3880c8-df66-4db0-97af-99785855549f","system_id":"levelo_inurba_marseille","lat":43.31273,"lon":5.401693,"is_reserved":false,"is_disabled":false,"rental_uris":{"android":"levelo://app?vid=7a3880c8-df66-4db0-97af-99785855549f","ios":"levelo://app?vid=7a3880c8-df66-4db0-97af-99785855549f"},"vehicle_type_id":"4","last_reported":1704846975,"current_range_meters":26400,"station_id":"ce4bh092rcd13ifvqd30","pricing_plan_id":"free"},{"bike_id":"f675d45c-d18c-4b87-baf5-d032c6b9539b","system_id":"levelo_inurba_marseille","lat":43.309371,"lon":5.401449,"is_reserved":false,"is_disabled":false,"rental_uris":{"android":"levelo://app?vid=f675d45c-d18c-4b87-baf5-d032c6b9539b","ios":"levelo://app?vid=f675d45c-d18c-4b87-baf5-d032c6b9539b"},"vehicle_type_id":"4","last_reported":1704846975,"current_range_meters":24400,"station_id":"ce4bgvp2rcd13ifvqct0","pricing_plan_id":"free"},{"bike_id":"9e10338d-81c7-4acd-be50-8ef52b837a7e","system_id":"levelo_inurba_marseille","lat":43.30923,"lon":5.4014,"is_reserved":false,"is_disabled":false,"rental_uris":{"android":"levelo://app?vid=9e10338d-81c7-4acd-be50-8ef52b837a7e","ios":"levelo://app?vid=9e10338d-81c7-4acd-be50-8ef52b837a7e"},"vehicle_type_id":"4","last_reported":1704846975,"current_range_meters":20800,"station_id":"ce4bgvp2rcd13ifvqct0","pricing_plan_id":"free"},{"bike_id":"6ded6c57-50d6-461c-a554-1e6a58cf74aa","system_id":"levelo_inurba_marseille","lat":43.312609,"lon":5.401662,"is_reserved":false,"is_disabled":false,"rental_uris":{"android":"levelo://app?vid=6ded6c57-50d6-461c-a554-1e6a58cf74aa","ios":"levelo://app?vid=6ded6c57-50d6-461c-a554-1e6a58cf74aa"},"vehicle_type_id":"4","last_reported":1704846975,"current_range_meters":15200,"station_id":"ce4bh092rcd13ifvqd30","pricing_plan_id":"free"},{"bike_id":"1a46d2d0-85d6-40a9-a7c8-890671b584e0","system_id":"levelo_inurba_marseille","lat":43.309255,"lon":5.401429,"is_reserved":false,"is_disabled":false,"rental_uris":{"android":"levelo://app?vid=1a46d2d0-85d6-40a9-a7c8-890671b584e0","ios":"levelo://app?vid=1a46d2d0-85d6-40a9-a7c8-890671b584e0"},"vehicle_type_id":"4","last_reported":1704846975,"current_range_meters":30800,"station_id":"ce4bgvp2rcd13ifvqct0","pricing_plan_id":"free"},{"bike_id":"586a4923-5ca8-4beb-9801-0c1e243c90f4","system_id":"levelo_inurba_marseille","lat":43.309371,"lon":5.401449,"is_reserved":false,"is_disabled":false,"rental_uris":{"android":"levelo://app?vid=586a4923-5ca8-4beb-9801-0c1e243c90f4","ios":"levelo://app?vid=586a4923-5ca8-4beb-9801-0c1e243c90f4"},"vehicle_type_id":"4","last_reported":1704846975,"current_range_meters":15600,"station_id":"ce4bgvp2rcd13ifvqct0","pricing_plan_id":"free"},{"bike_id":"0e4eb699-3e63-4482-b8bf-2e98b163cc62","system_id":"levelo_inurba_marseille","lat":43.309371,"lon":5.401449,"is_reserved":false,"is_disabled":false,"rental_uris":{"android":"levelo://app?vid=0e4eb699-3e63-4482-b8bf-2e98b163cc62","ios":"levelo://app?vid=0e4eb699-3e63-4482-b8bf-2e98b163cc62"},"vehicle_type_id":"4","last_reported":1704846975,"current_range_meters":4000,"station_id":"ce4bgvp2rcd13ifvqct0","pricing_plan_id":"free"},{"bike_id":"286d0c61-c0c4-45e1-8c5d-9f8dc2d215f1","system_id":"levelo_inurba_marseille","lat":43.306412,"lon":5.401035,"is_reserved":false,"is_disabled":false,"rental_uris":{"android":"levelo://app?vid=286d0c61-c0c4-45e1-8c5d-9f8dc2d215f1","ios":"levelo://app?vid=286d0c61-c0c4-45e1-8c5d-9f8dc2d215f1"},"vehicle_type_id":"4","last_reported":1704846975,"current_range_meters":31200,"station_id":"ce4bh112rcd13ifvqda0","pricing_plan_id":"free"},{"bike_id":"6d0a125e-4420-4867-b83b-5d481be74bca","system_id":"levelo_inurba_marseille","lat":43.309284,"lon":5.401471,"is_reserved":false,"is_disabled":false,"rental_uris":{"android":"levelo://app?vid=6d0a125e-4420-4867-b83b-5d481be74bca","ios":"levelo://app?vid=6d0a125e-4420-4867-b83b-5d481be74bca"},"vehicle_type_id":"4","last_reported":1704846975,"current_range_meters":18000,"station_id":"ce4bgvp2rcd13ifvqct0","pricing_plan_id":"free"},{"bike_id":"8ba44336-282f-4cda-90bb-b7fe4482f748","system_id":"levelo_inurba_marseille","lat":43.309283,"lon":5.401478,"is_reserved":false,"is_disabled":false,"rental_uris":{"android":"levelo://app?vid=8ba44336-282f-4cda-90bb-b7fe4482f748","ios":"levelo://app?vid=8ba44336-282f-4cda-90bb-b7fe4482f748"},"vehicle_type_id":"4","last_reported":1704846975,"current_range_meters":23200,"station_id":"ce4bgvp2rcd13ifvqct0","pricing_plan_id":"free"},{"bike_id":"5a7c5cf9-a373-45bd-a5eb-6034dff09cad","system_id":"levelo_inurba_marseille","lat":43.309371,"lon":5.401449,"is_reserved":false,"is_disabled":false,"rental_uris":{"android":"levelo://app?vid=5a7c5cf9-a373-45bd-a5eb-6034dff09cad","ios":"levelo://app?vid=5a7c5cf9-a373-45bd-a5eb-6034dff09cad"},"vehicle_type_id":"4","last_reported":1704846975,"current_range_meters":11600,"station_id":"ce4bgvp2rcd13ifvqct0","pricing_plan_id":"free"},{"bike_id":"e12d72da-85a2-4583-b875-7ac80017c6e4","system_id":"levelo_inurba_marseille","lat":43.309371,"lon":5.401449,"is_reserved":false,"is_disabled":false,"rental_uris":{"android":"levelo://app?vid=e12d72da-85a2-4583-b875-7ac80017c6e4","ios":"levelo://app?vid=e12d72da-85a2-4583-b875-7ac80017c6e4"},"vehicle_type_id":"4","last_reported":1704846975,"current_range_meters":27200,"station_id":"ce4bgvp2rcd13ifvqct0","pricing_plan_id":"free"},{"bike_id":"6761c0e5-7433-4ffe-a750-58a367224fca","system_id":"levelo_inurba_marseille","lat":43.309371,"lon":5.401449,"is_reserved":false,"is_disabled":false,"rental_uris":{"android":"levelo://app?vid=6761c0e5-7433-4ffe-a750-58a367224fca","ios":"levelo://app?vid=6761c0e5-7433-4ffe-a750-58a367224fca"},"vehicle_type_id":"4","last_reported":1704846975,"current_range_meters":28000,"station_id":"ce4bgvp2rcd13ifvqct0","pricing_plan_id":"free"},{"bike_id":"aa453ee9-c8e9-488c-9529-f4414d221a22","system_id":"levelo_inurba_marseille","lat":43.309371,"lon":5.401449,"is_reserved":false,"is_disabled":false,"rental_uris":{"android":"levelo://app?vid=aa453ee9-c8e9-488c-9529-f4414d221a22","ios":"levelo://app?vid=aa453ee9-c8e9-488c-9529-f4414d221a22"},"vehicle_type_id":"4","last_reported":1704846975,"current_range_meters":5200,"station_id":"ce4bgvp2rcd13ifvqct0","pricing_plan_id":"free"},{"bike_id":"760fa959-c34e-4c31-9322-3d1f920ccfc4","system_id":"levelo_inurba_marseille","lat":43.3093,"lon":5.40157,"is_reserved":false,"is_disabled":false,"rental_uris":{"android":"levelo://app?vid=760fa959-c34e-4c31-9322-3d1f920ccfc4","ios":"levelo://app?vid=760fa959-c34e-4c31-9322-3d1f920ccfc4"},"vehicle_type_id":"4","last_reported":1704846975,"current_range_meters":25600,"station_id":"ce4bgvp2rcd13ifvqct0","pricing_plan_id":"free"},{"bike_id":"5d31afcf-5c23-436f-8e77-178bece7f37d","system_id":"levelo_inurba_marseille","lat":43.306412,"lon":5.401035,"is_reserved":false,"is_disabled":false,"rental_uris":{"android":"levelo://app?vid=5d31afcf-5c23-436f-8e77-178bece7f37d","ios":"levelo://app?vid=5d31afcf-5c23-436f-8e77-178bece7f37d"},"vehicle_type_id":"4","last_reported":1704846975,"current_range_meters":5200,"station_id":"ce4bh112rcd13ifvqda0","pricing_plan_id":"free"},{"bike_id":"10069284-f091-42c5-87e6-3c850f29b5bf","system_id":"levelo_inurba_marseille","lat":43.30926,"lon":5.4016,"is_reserved":false,"is_disabled":false,"rental_uris":{"android":"levelo://app?vid=10069284-f091-42c5-87e6-3c850f29b5bf","ios":"levelo://app?vid=10069284-f091-42c5-87e6-3c850f29b5bf"},"vehicle_type_id":"4","last_reported":1704846975,"current_range_meters":5600,"station_id":"ce4bgvp2rcd13ifvqct0","pricing_plan_id":"free"},{"bike_id":"c1c0f418-8120-4ac4-9bff-565beba4a8bc","system_id":"levelo_inurba_marseille","lat":43.306316,"lon":5.400816,"is_reserved":false,"is_disabled":false,"rental_uris":{"android":"levelo://app?vid=c1c0f418-8120-4ac4-9bff-565beba4a8bc","ios":"levelo://app?vid=c1c0f418-8120-4ac4-9bff-565beba4a8bc"},"vehicle_type_id":"4","last_reported":1704846975,"current_range_meters":0,"station_id":"ce4bh112rcd13ifvqda0","pricing_plan_id":"free"},{"bike_id":"183c8441-338e-422b-8bf0-f2bde2c56328","system_id":"levelo_inurba_marseille","lat":43.306412,"lon":5.401035,"is_reserved":false,"is_disabled":false,"rental_uris":{"android":"levelo://app?vid=183c8441-338e-422b-8bf0-f2bde2c56328","ios":"levelo://app?vid=183c8441-338e-422b-8bf0-f2bde2c56328"},"vehicle_type_id":"4","last_reported":1704846975,"current_range_meters":23200,"station_id":"ce4bh112rcd13ifvqda0","pricing_plan_id":"free"},{"bike_id":"54ffbc00-7f11-46eb-8ba8-f883f08a6329","system_id":"levelo_inurba_marseille","lat":43.306412,"lon":5.401035,"is_reserved":false,"is_disabled":false,"rental_uris":{"android":"levelo://app?vid=54ffbc00-7f11-46eb-8ba8-f883f08a6329","ios":"levelo://app?vid=54ffbc00-7f11-46eb-8ba8-f883f08a6329"},"vehicle_type_id":"4","last_reported":1704846975,"current_range_meters":2000,"station_id":"ce4bh112rcd13ifvqda0","pricing_plan_id":"free"},{"bike_id":"ff121632-ee77-4d08-b6bc-6e0b45921cc3","system_id":"levelo_inurba_marseille","lat":43.306412,"lon":5.401035,"is_reserved":false,"is_disabled":false,"rental_uris":{"android":"levelo://app?vid=ff121632-ee77-4d08-b6bc-6e0b45921cc3","ios":"levelo://app?vid=ff121632-ee77-4d08-b6bc-6e0b45921cc3"},"vehicle_type_id":"4","last_reported":1704846975,"current_range_meters":26800,"station_id":"ce4bh112rcd13ifvqda0","pricing_plan_id":"free"},{"bike_id":"b56832cc-b306-44c8-8861-e4f81260d007","system_id":"levelo_inurba_marseille","lat":43.28735,"lon":5.36079,"is_reserved":false,"is_disabled":false,"rental_uris":{"android":"levelo://app?vid=b56832cc-b306-44c8-8861-e4f81260d007","ios":"levelo://app?vid=b56832cc-b306-44c8-8861-e4f81260d007"},"vehicle_type_id":"4","last_reported":1704846975,"current_range_meters":17200,"station_id":"cki0cbj6b192h4jlfktg","pricing_plan_id":"free"},{"bike_id":"85ad7107-a89b-41f1-a22f-89e98ef06030","system_id":"levelo_inurba_marseille","lat":43.28727,"lon":5.36078,"is_reserved":false,"is_disabled":false,"rental_uris":{"android":"levelo://app?vid=85ad7107-a89b-41f1-a22f-89e98ef06030","ios":"levelo://app?vid=85ad7107-a89b-41f1-a22f-89e98ef06030"},"vehicle_type_id":"4","last_reported":1704846975,"current_range_meters":29200,"station_id":"cki0cbj6b192h4jlfktg","pricing_plan_id":"free"},{"bike_id":"1fea92ae-83a3-481e-a710-11fbf933fcef","system_id":"levelo_inurba_marseille","lat":43.28727,"lon":5.36078,"is_reserved":false,"is_disabled":false,"rental_uris":{"android":"levelo://app?vid=1fea92ae-83a3-481e-a710-11fbf933fcef","ios":"levelo://app?vid=1fea92ae-83a3-481e-a710-11fbf933fcef"},"vehicle_type_id":"4","last_reported":1704846975,"current_range_meters":27200,"station_id":"cki0cbj6b192h4jlfktg","pricing_plan_id":"free"},{"bike_id":"288e8ddb-5a29-4084-a908-36c65db13c53","system_id":"levelo_inurba_marseille","lat":43.287275,"lon":5.36079,"is_reserved":false,"is_disabled":false,"rental_uris":{"android":"levelo://app?vid=288e8ddb-5a29-4084-a908-36c65db13c53","ios":"levelo://app?vid=288e8ddb-5a29-4084-a908-36c65db13c53"},"vehicle_type_id":"4","last_reported":1704846975,"current_range_meters":6000,"station_id":"cki0cbj6b192h4jlfktg","pricing_plan_id":"free"},{"bike_id":"cf52cb8c-5efa-4674-9fa7-90b0bc1fe152","system_id":"levelo_inurba_marseille","lat":43.28727,"lon":5.36078,"is_reserved":false,"is_disabled":false,"rental_uris":{"android":"levelo://app?vid=cf52cb8c-5efa-4674-9fa7-90b0bc1fe152","ios":"levelo://app?vid=cf52cb8c-5efa-4674-9fa7-90b0bc1fe152"},"vehicle_type_id":"4","last_reported":1704846975,"current_range_meters":24800,"station_id":"cki0cbj6b192h4jlfktg","pricing_plan_id":"free"},{"bike_id":"31c4c7c0-8772-47f5-9f61-bb6c510e537f","system_id":"levelo_inurba_marseille","lat":43.28724,"lon":5.36097,"is_reserved":false,"is_disabled":false,"rental_uris":{"android":"levelo://app?vid=31c4c7c0-8772-47f5-9f61-bb6c510e537f","ios":"levelo://app?vid=31c4c7c0-8772-47f5-9f61-bb6c510e537f"},"vehicle_type_id":"4","last_reported":1704846975,"current_range_meters":26000,"station_id":"cki0cbj6b192h4jlfktg","pricing_plan_id":"free"},{"bike_id":"5e57c29e-7ebe-4d24-9aa6-b33de229845d","system_id":"levelo_inurba_marseille","lat":43.287265,"lon":5.360767,"is_reserved":false,"is_disabled":false,"rental_uris":{"android":"levelo://app?vid=5e57c29e-7ebe-4d24-9aa6-b33de229845d","ios":"levelo://app?vid=5e57c29e-7ebe-4d24-9aa6-b33de229845d"},"vehicle_type_id":"4","last_reported":1704846975,"current_range_meters":27600,"station_id":"cki0cbj6b192h4jlfktg","pricing_plan_id":"free"},{"bike_id":"00462145-042f-41d8-a85f-a0f9cd03fe33","system_id":"levelo_inurba_marseille","lat":43.30462,"lon":5.40068,"is_reserved":false,"is_disabled":false,"rental_uris":{"android":"levelo://app?vid=00462145-042f-41d8-a85f-a0f9cd03fe33","ios":"levelo://app?vid=00462145-042f-41d8-a85f-a0f9cd03fe33"},"vehicle_type_id":"4","last_reported":1704846975,"current_range_meters":19600,"station_id":"","pricing_plan_id":"free"},{"bike_id":"588cb8cb-a70c-423f-8ed3-554e643e04dc","system_id":"levelo_inurba_marseille","lat":43.28724,"lon":5.36094,"is_reserved":false,"is_disabled":false,"rental_uris":{"android":"levelo://app?vid=588cb8cb-a70c-423f-8ed3-554e643e04dc","ios":"levelo://app?vid=588cb8cb-a70c-423f-8ed3-554e643e04dc"},"vehicle_type_id":"4","last_reported":1704846975,"current_range_meters":18800,"station_id":"cki0cbj6b192h4jlfktg","pricing_plan_id":"free"},{"bike_id":"7371e3c6-7cf7-47d9-b679-4fbd75fc1ec2","system_id":"levelo_inurba_marseille","lat":43.287238,"lon":5.360792,"is_reserved":false,"is_disabled":false,"rental_uris":{"android":"levelo://app?vid=7371e3c6-7cf7-47d9-b679-4fbd75fc1ec2","ios":"levelo://app?vid=7371e3c6-7cf7-47d9-b679-4fbd75fc1ec2"},"vehicle_type_id":"4","last_reported":1704846975,"current_range_meters":31200,"station_id":"cki0cbj6b192h4jlfktg","pricing_plan_id":"free"},{"bike_id":"ee834d9a-073e-4df6-8983-9d3030ffca45","system_id":"levelo_inurba_marseille","lat":43.28727,"lon":5.36078,"is_reserved":false,"is_disabled":false,"rental_uris":{"android":"levelo://app?vid=ee834d9a-073e-4df6-8983-9d3030ffca45","ios":"levelo://app?vid=ee834d9a-073e-4df6-8983-9d3030ffca45"},"vehicle_type_id":"4","last_reported":1704846975,"current_range_meters":31600,"station_id":"cki0cbj6b192h4jlfktg","pricing_plan_id":"free"},{"bike_id":"aeac922f-4f8b-4171-a79f-7c138b5a12da","system_id":"levelo_inurba_marseille","lat":43.28727,"lon":5.36078,"is_reserved":false,"is_disabled":false,"rental_uris":{"android":"levelo://app?vid=aeac922f-4f8b-4171-a79f-7c138b5a12da","ios":"levelo://app?vid=aeac922f-4f8b-4171-a79f-7c138b5a12da"},"vehicle_type_id":"4","last_reported":1704846975,"current_range_meters":27600,"station_id":"cki0cbj6b192h4jlfktg","pricing_plan_id":"free"},{"bike_id":"d060059c-5d4f-42b3-b73b-9fed54479958","system_id":"levelo_inurba_marseille","lat":43.28727,"lon":5.36078,"is_reserved":false,"is_disabled":false,"rental_uris":{"android":"levelo://app?vid=d060059c-5d4f-42b3-b73b-9fed54479958","ios":"levelo://app?vid=d060059c-5d4f-42b3-b73b-9fed54479958"},"vehicle_type_id":"4","last_reported":1704846975,"current_range_meters":25200,"station_id":"cki0cbj6b192h4jlfktg","pricing_plan_id":"free"},{"bike_id":"b3c9aac4-255d-4c3a-af37-897ac7f4b378","system_id":"levelo_inurba_marseille","lat":43.286591,"lon":5.363346,"is_reserved":false,"is_disabled":false,"rental_uris":{"android":"levelo://app?vid=b3c9aac4-255d-4c3a-af37-897ac7f4b378","ios":"levelo://app?vid=b3c9aac4-255d-4c3a-af37-897ac7f4b378"},"vehicle_type_id":"4","last_reported":1704846975,"current_range_meters":26400,"station_id":"ce4bhah2rcd13ifvqej0","pricing_plan_id":"free"},{"bike_id":"4de6d7c9-bc20-4d22-8ec5-b637f0ef6e32","system_id":"levelo_inurba_marseille","lat":43.28671,"lon":5.363464,"is_reserved":false,"is_disabled":false,"rental_uris":{"android":"levelo://app?vid=4de6d7c9-bc20-4d22-8ec5-b637f0ef6e32","ios":"levelo://app?vid=4de6d7c9-bc20-4d22-8ec5-b637f0ef6e32"},