{"last_updated":1745251934,"ttl":60,"version":"2.2","data":{"bikes":[{"bike_id":"ac6f1ae4-6036-4aa2-8811-bc1d01bbbd56","system_id":"levelo_inurba_marseille","lat":43.25395,"lon":5.41853,"is_reserved":false,"is_disabled":false,"rental_uris":{"android":"levelo://app?vid=ac6f1ae4-6036-4aa2-8811-bc1d01bbbd56","ios":"levelo://app?vid=ac6f1ae4-6036-4aa2-8811-bc1d01bbbd56"},"vehicle_type_id":"4","last_reported":1745251934,"current_range_meters":2800,"station_id":"","pricing_plan_id":"cebpf4jnsgd1na2vs0mg"},{"bike_id":"0710d628-74a0-42ac-baa0-e792d40bcdd3","system_id":"levelo_inurba_marseille","lat":43.28608,"lon":5.35111,"is_reserved":false,"is_disabled":false,"rental_uris":{"android":"levelo://app?vid=0710d628-74a0-42ac-baa0-e792d40bcdd3","ios":"levelo://app?vid=0710d628-74a0-42ac-baa0-e792d40bcdd3"},"vehicle_type_id":"4","last_reported":1745251934,"current_range_meters":2000,"station_id":"ce4bhch2rcd13ifvqeug","pricing_plan_id":"cebpf4jnsgd1na2vs0mg"},{"bike_id":"1b9e8730-a04a-4609-b88b-2adb7586e008","system_id":"levelo_inurba_marseille","lat":43.29268,"lon":5.38432,"is_reserved":false,"is_disabled":false,"rental_uris":{"android":"levelo://app?vid=1b9e8730-a04a-4609-b88b-2adb7586e008","ios":"levelo://app?vid=1b9e8730-a04a-4609-b88b-2adb7586e008"},"vehicle_type_id":"4","last_reported":1745251934,"current_range_meters":2000,"station_id":"ce4bh692rcd13ifvqea0","pricing_plan_id":"cebpf4jnsgd1na2vs0mg"},{"bike_id":"4da56156-39d7-4007-9859-0f8e82dbe585","system_id":"levelo_inurba_marseille","lat":43.2925,"lon":5.40909,"is_reserved":false,"is_disabled":false,"rental_uris":{"android":"levelo://app?vid=4da56156-39d7-4007-9859-0f8e82dbe585","ios":"levelo://app?vid=4da56156-39d7-4007-9859-0f8e82dbe585"},"vehicle_type_id":"4","last_reported":1745251934,"current_range_meters":3200,"station_id":"ce4bh192rcd13ifvqdc0","pricing_plan_id":"cebpf4jnsgd1na2vs0mg"},{"bike_id":"01b09349-1f5e-4aa6-9070-7e7366a47c5f","system_id":"levelo_inurba_marseille","lat":43.25115,"lon":5.40313,"is_reserved":false,"is_disabled":false,"rental_uris":{"android":"levelo://app?vid=01b09349-1f5e-4aa6-9070-7e7366a47c5f","ios":"levelo://app?vid=01b09349-1f5e-4aa6-9070-7e7366a47c5f"},"vehicle_type_id":"4","last_reported":1745251934,"current_range_meters":3200,"station_id":"ce4bhlh2rcd13ifvqgig","pricing_plan_id":"cebpf4jnsgd1na2vs0mg"},{"bike_id":"4260950e-fb09-4018-86de-ed1fb5a7403a","system_id":"levelo_inurba_marseille","lat":43.26205,"lon":5.37928,"is_reserved":false,"is_disabled":false,"rental_uris":{"android":"levelo://app?vid=4260950e-fb09-4018-86de-ed1fb5a7403a","ios":"levelo://app?vid=4260950e-fb09-4018-86de-ed1fb5a7403a"},"vehicle_type_id":"4","last_reported":1745251934,"current_range_meters":6800,"station_id":"ce4bhjp2rcd13ifvqg90","pricing_plan_id":"cebpf4jnsgd1na2vs0mg"},{"bike_id":"71d5bbc7-34f1-40af-b7cc-e18dc531d892","system_id":"levelo_inurba_marseille","lat":43.33028,"lon":5.39039,"is_reserved":false,"is_disabled":false,"rental_uris":{"android":"levelo://app?vid=71d5bbc7-34f1-40af-b7cc-e18dc531d892","ios":"levelo://app?vid=71d5bbc7-34f1-40af-b7cc-e18dc531d892"},"vehicle_type_id":"4","last_reported":1745251934,"current_range_meters":3200,"station_id":"ce4bhr92rcd13ifvqhrg","pricing_plan_id":"cebpf4jnsgd1na2vs0mg"},{"bike_id":"ac2669a9-1ff9-4a25-a2d3-56ac2cfb824b","system_id":"levelo_inurba_marseille","lat":43.27455,"lon":5.39047,"is_reserved":false,"is_disabled":false,"rental_uris":{"android":"levelo://app?vid=ac2669a9-1ff9-4a25-a2d3-56ac2cfb824b","ios":"levelo://app?vid=ac2669a9-1ff9-4a25-a2d3-56ac2cfb824b"},"vehicle_type_id":"4","last_reported":1745251934,"current_range_meters":3600,"station_id":"ce4bh2h2rcd13ifvqdh0","pricing_plan_id":"cebpf4jnsgd1na2vs0mg"},{"bike_id":"5ed27f9d-7ace-4772-b3eb-e10847cdcf16","system_id":"levelo_inurba_marseille","lat":43.28359,"lon":5.38113,"is_reserved":false,"is_disabled":false,"rental_uris":{"android":"levelo://app?vid=5ed27f9d-7ace-4772-b3eb-e10847cdcf16","ios":"levelo://app?vid=5ed27f9d-7ace-4772-b3eb-e10847cdcf16"},"vehicle_type_id":"4","last_reported":1745251934,"current_range_meters":3600,"station_id":"ce4bh412rcd13ifvqdr0","pricing_plan_id":"cebpf4jnsgd1na2vs0mg"},{"bike_id":"f1e5cefe-12d5-437c-9c5b-37a6ffcae90c","system_id":"levelo_inurba_marseille","lat":43.29573,"lon":5.37496,"is_reserved":false,"is_disabled":false,"rental_uris":{"android":"levelo://app?vid=f1e5cefe-12d5-437c-9c5b-37a6ffcae90c","ios":"levelo://app?vid=f1e5cefe-12d5-437c-9c5b-37a6ffcae90c"},"vehicle_type_id":"4","last_reported":1745251934,"current_range_meters":3600,"station_id":"ce4bgh92rcd13ifvqb50","pricing_plan_id":"cebpf4jnsgd1na2vs0mg"},{"bike_id":"3af77425-de1a-4d28-be2c-87073723dc4b","system_id":"levelo_inurba_marseille","lat":43.22923,"lon":5.35372,"is_reserved":false,"is_disabled":true,"rental_uris":{"android":"levelo://app?vid=3af77425-de1a-4d28-be2c-87073723dc4b","ios":"levelo://app?vid=3af77425-de1a-4d28-be2c-87073723dc4b"},"vehicle_type_id":"4","last_reported":1745251934,"current_range_meters":3600,"station_id":"cpo3532slgdg3j2ikp40","pricing_plan_id":"cebpf4jnsgd1na2vs0mg"},{"bike_id":"5ff044c8-8648-4b13-88eb-b3b8c8810723","system_id":"levelo_inurba_marseille","lat":43.2804,"lon":5.36951,"is_reserved":false,"is_disabled":false,"rental_uris":{"android":"levelo://app?vid=5ff044c8-8648-4b13-88eb-b3b8c8810723","ios":"levelo://app?vid=5ff044c8-8648-4b13-88eb-b3b8c8810723"},"vehicle_type_id":"4","last_reported":1745251934,"current_range_meters":3600,"station_id":"ce4bha12rcd13ifvqef0","pricing_plan_id":"cebpf4jnsgd1na2vs0mg"},{"bike_id":"db63ef2b-f795-4461-841e-4a88a18bc5c9","system_id":"levelo_inurba_marseille","lat":43.2944,"lon":5.39761,"is_reserved":false,"is_disabled":true,"rental_uris":{"android":"levelo://app?vid=db63ef2b-f795-4461-841e-4a88a18bc5c9","ios":"levelo://app?vid=db63ef2b-f795-4461-841e-4a88a18bc5c9"},"vehicle_type_id":"4","last_reported":1745251934,"current_range_meters":4000,"station_id":"ce4bh3h2rcd13ifvqdo0","pricing_plan_id":"cebpf4jnsgd1na2vs0mg"},{"bike_id":"dea4c88b-2c2f-43a7-bd81-9c9b914276fd","system_id":"levelo_inurba_marseille","lat":43.23192,"lon":5.35561,"is_reserved":false,"is_disabled":true,"rental_uris":{"android":"levelo://app?vid=dea4c88b-2c2f-43a7-bd81-9c9b914276fd","ios":"levelo://app?vid=dea4c88b-2c2f-43a7-bd81-9c9b914276fd"},"vehicle_type_id":"4","last_reported":1745251934,"current_range_meters":4000,"station_id":"ce4bhu92rcd13ifvqi70","pricing_plan_id":"cebpf4jnsgd1na2vs0mg"},{"bike_id":"65182002-e554-48b3-92b1-a7ac72d1a154","system_id":"levelo_inurba_marseille","lat":43.24807,"lon":5.37455,"is_reserved":false,"is_disabled":false,"rental_uris":{"android":"levelo://app?vid=65182002-e554-48b3-92b1-a7ac72d1a154","ios":"levelo://app?vid=65182002-e554-48b3-92b1-a7ac72d1a154"},"vehicle_type_id":"4","last_reported":1745251934,"current_range_meters":4400,"station_id":"ce4bhgh2rcd13ifvqfb0","pricing_plan_id":"cebpf4jnsgd1na2vs0mg"},{"bike_id":"195484ef-2d5e-42f8-a62c-e16be74213f7","system_id":"levelo_inurba_marseille","lat":43.23204,"lon":5.39984,"is_reserved":false,"is_disabled":false,"rental_uris":{"android":"levelo://app?vid=195484ef-2d5e-42f8-a62c-e16be74213f7","ios":"levelo://app?vid=195484ef-2d5e-42f8-a62c-e16be74213f7"},"vehicle_type_id":"4","last_reported":1745251934,"current_range_meters":4400,"station_id":"ce4bhn12rcd13ifvqgqg","pricing_plan_id":"cebpf4jnsgd1na2vs0mg"},{"bike_id":"c82056fa-be43-4e8c-bee3-9e92f3a8ce5a","system_id":"levelo_inurba_marseille","lat":43.24078,"lon":5.37755,"is_reserved":false,"is_disabled":false,"rental_uris":{"android":"levelo://app?vid=c82056fa-be43-4e8c-bee3-9e92f3a8ce5a","ios":"levelo://app?vid=c82056fa-be43-4e8c-bee3-9e92f3a8ce5a"},"vehicle_type_id":"4","last_reported":1745251934,"current_range_meters":4400,"station_id":"ce4bhnp2rcd13ifvqgvg","pricing_plan_id":"cebpf4jnsgd1na2vs0mg"},{"bike_id":"c6023d7b-0c8f-4a5e-8eb4-dd919f7bc1c0","system_id":"levelo_inurba_marseille","lat":43.27372,"lon":5.36243,"is_reserved":false,"is_disabled":true,"rental_uris":{"android":"levelo://app?vid=c6023d7b-0c8f-4a5e-8eb4-dd919f7bc1c0","ios":"levelo://app?vid=c6023d7b-0c8f-4a5e-8eb4-dd919f7bc1c0"},"vehicle_type_id":"4","last_reported":1745251934,"current_range_meters":4400,"station_id":"ce4bhbh2rcd13ifvqeo0","pricing_plan_id":"cebpf4jnsgd1na2vs0mg"},{"bike_id":"5286935d-7cca-45c3-94d8-f5367541f791","system_id":"levelo_inurba_marseille","lat":43.30917,"lon":5.36845,"is_reserved":false,"is_disabled":false,"rental_uris":{"android":"levelo://app?vid=5286935d-7cca-45c3-94d8-f5367541f791","ios":"levelo://app?vid=5286935d-7cca-45c3-94d8-f5367541f791"},"vehicle_type_id":"4","last_reported":1745251934,"current_range_meters":4400,"station_id":"ce4bgn92rcd13ifvqbvg","pricing_plan_id":"cebpf4jnsgd1na2vs0mg"},{"bike_id":"c661b3ea-3511-4537-9efb-0a555380d6f7","system_id":"levelo_inurba_marseille","lat":43.30137,"lon":5.3987,"is_reserved":false,"is_disabled":false,"rental_uris":{"android":"levelo://app?vid=c661b3ea-3511-4537-9efb-0a555380d6f7","ios":"levelo://app?vid=c661b3ea-3511-4537-9efb-0a555380d6f7"},"vehicle_type_id":"4","last_reported":1745251934,"current_range_meters":1600,"station_id":"ce4bh0h2rcd13ifvqd40","pricing_plan_id":"cebpf4jnsgd1na2vs0mg"},{"bike_id":"fc3312cf-0fd5-4970-b770-7d8b0ddcaf00","system_id":"levelo_inurba_marseille","lat":43.2846,"lon":5.35899,"is_reserved":false,"is_disabled":false,"rental_uris":{"android":"levelo://app?vid=fc3312cf-0fd5-4970-b770-7d8b0ddcaf00","ios":"levelo://app?vid=fc3312cf-0fd5-4970-b770-7d8b0ddcaf00"},"vehicle_type_id":"4","last_reported":1745251934,"current_range_meters":4400,"station_id":"ce4bhah2rcd13ifvqei0","pricing_plan_id":"cebpf4jnsgd1na2vs0mg"},{"bike_id":"ebc8dcc6-8e50-4c98-a275-174725f0b761","system_id":"levelo_inurba_marseille","lat":43.28486,"lon":5.38543,"is_reserved":false,"is_disabled":false,"rental_uris":{"android":"levelo://app?vid=ebc8dcc6-8e50-4c98-a275-174725f0b761","ios":"levelo://app?vid=ebc8dcc6-8e50-4c98-a275-174725f0b761"},"vehicle_type_id":"4","last_reported":1745251934,"current_range_meters":4400,"station_id":"ce4bh8p2rcd13ifvqeb0","pricing_plan_id":"cebpf4jnsgd1na2vs0mg"},{"bike_id":"36d4dcea-efbb-42ad-80f3-a7c627f236dd","system_id":"levelo_inurba_marseille","lat":43.26955,"lon":5.38631,"is_reserved":false,"is_disabled":false,"rental_uris":{"android":"levelo://app?vid=36d4dcea-efbb-42ad-80f3-a7c627f236dd","ios":"levelo://app?vid=36d4dcea-efbb-42ad-80f3-a7c627f236dd"},"vehicle_type_id":"4","last_reported":1745251934,"current_range_meters":4400,"station_id":"ce4bhh92rcd13ifvqfh0","pricing_plan_id":"cebpf4jnsgd1na2vs0mg"},{"bike_id":"924b396b-8296-4d3e-be1c-a118484d4b87","system_id":"levelo_inurba_marseille","lat":43.29918,"lon":5.37485,"is_reserved":false,"is_disabled":false,"rental_uris":{"android":"levelo://app?vid=924b396b-8296-4d3e-be1c-a118484d4b87","ios":"levelo://app?vid=924b396b-8296-4d3e-be1c-a118484d4b87"},"vehicle_type_id":"4","last_reported":1745251934,"current_range_meters":4000,"station_id":"ce4bgjh2rcd13ifvqbg0","pricing_plan_id":"cebpf4jnsgd1na2vs0mg"},{"bike_id":"213fb158-06bd-4e42-8510-0aa3f7eaae67","system_id":"levelo_inurba_marseille","lat":43.23197,"lon":5.355486,"is_reserved":false,"is_disabled":true,"rental_uris":{"android":"levelo://app?vid=213fb158-06bd-4e42-8510-0aa3f7eaae67","ios":"levelo://app?vid=213fb158-06bd-4e42-8510-0aa3f7eaae67"},"vehicle_type_id":"4","last_reported":1745251934,"current_range_meters":4800,"station_id":"ce4bhu92rcd13ifvqi70","pricing_plan_id":"cebpf4jnsgd1na2vs0mg"},{"bike_id":"bef309b6-dfa3-4ef2-a111-1314d40930cd","system_id":"levelo_inurba_marseille","lat":43.28933,"lon":5.36637,"is_reserved":false,"is_disabled":false,"rental_uris":{"android":"levelo://app?vid=bef309b6-dfa3-4ef2-a111-1314d40930cd","ios":"levelo://app?vid=bef309b6-dfa3-4ef2-a111-1314d40930cd"},"vehicle_type_id":"4","last_reported":1745251934,"current_range_meters":4800,"station_id":"ce4bhap2rcd13ifvqek0","pricing_plan_id":"cebpf4jnsgd1na2vs0mg"},{"bike_id":"8963d7e6-bca2-45c1-8400-1c533c244da4","system_id":"levelo_inurba_marseille","lat":43.24991,"lon":5.38926,"is_reserved":false,"is_disabled":false,"rental_uris":{"android":"levelo://app?vid=8963d7e6-bca2-45c1-8400-1c533c244da4","ios":"levelo://app?vid=8963d7e6-bca2-45c1-8400-1c533c244da4"},"vehicle_type_id":"4","last_reported":1745251934,"current_range_meters":4800,"station_id":"ce4bhgp2rcd13ifvqfd0","pricing_plan_id":"cebpf4jnsgd1na2vs0mg"},{"bike_id":"8d5a94c1-b833-47c7-9b0a-13d730ea3f63","system_id":"levelo_inurba_marseille","lat":43.23202,"lon":5.39972,"is_reserved":false,"is_disabled":false,"rental_uris":{"android":"levelo://app?vid=8d5a94c1-b833-47c7-9b0a-13d730ea3f63","ios":"levelo://app?vid=8d5a94c1-b833-47c7-9b0a-13d730ea3f63"},"vehicle_type_id":"4","last_reported":1745251934,"current_range_meters":4800,"station_id":"ce4bhn12rcd13ifvqgqg","pricing_plan_id":"cebpf4jnsgd1na2vs0mg"},{"bike_id":"e2130d6b-52b6-4883-903d-c1659f0ea64d","system_id":"levelo_inurba_marseille","lat":43.23191,"lon":5.39991,"is_reserved":false,"is_disabled":false,"rental_uris":{"android":"levelo://app?vid=e2130d6b-52b6-4883-903d-c1659f0ea64d","ios":"levelo://app?vid=e2130d6b-52b6-4883-903d-c1659f0ea64d"},"vehicle_type_id":"4","last_reported":1745251934,"current_range_meters":5600,"station_id":"ce4bhn12rcd13ifvqgqg","pricing_plan_id":"cebpf4jnsgd1na2vs0mg"},{"bike_id":"6c19113e-1829-4e81-9440-9fb77d29427f","system_id":"levelo_inurba_marseille","lat":43.284193,"lon":5.349729,"is_reserved":false,"is_disabled":false,"rental_uris":{"android":"levelo://app?vid=6c19113e-1829-4e81-9440-9fb77d29427f","ios":"levelo://app?vid=6c19113e-1829-4e81-9440-9fb77d29427f"},"vehicle_type_id":"4","last_reported":1745251934,"current_range_meters":4800,"station_id":"ce4bh092rcd13ifvqd20","pricing_plan_id":"cebpf4jnsgd1na2vs0mg"},{"bike_id":"6469a7e1-808f-4c61-8e95-84d12371d79b","system_id":"levelo_inurba_marseille","lat":43.28353,"lon":5.38098,"is_reserved":false,"is_disabled":false,"rental_uris":{"android":"levelo://app?vid=6469a7e1-808f-4c61-8e95-84d12371d79b","ios":"levelo://app?vid=6469a7e1-808f-4c61-8e95-84d12371d79b"},"vehicle_type_id":"4","last_reported":1745251934,"current_range_meters":5600,"station_id":"ce4bh412rcd13ifvqdr0","pricing_plan_id":"cebpf4jnsgd1na2vs0mg"},{"bike_id":"e42fa0d0-9ce3-4b57-bd42-24be40835d8a","system_id":"levelo_inurba_marseille","lat":43.28941,"lon":5.39621,"is_reserved":false,"is_disabled":false,"rental_uris":{"android":"levelo://app?vid=e42fa0d0-9ce3-4b57-bd42-24be40835d8a","ios":"levelo://app?vid=e42fa0d0-9ce3-4b57-bd42-24be40835d8a"},"vehicle_type_id":"4","last_reported":1745251934,"current_range_meters":5600,"station_id":"ce4bh3h2rcd13ifvqdn0","pricing_plan_id":"cebpf4jnsgd1na2vs0mg"},{"bike_id":"c739a49e-b81f-469a-beea-a7e0c88c3015","system_id":"levelo_inurba_marseille","lat":43.23196,"lon":5.35553,"is_reserved":false,"is_disabled":false,"rental_uris":{"android":"levelo://app?vid=c739a49e-b81f-469a-beea-a7e0c88c3015","ios":"levelo://app?vid=c739a49e-b81f-469a-beea-a7e0c88c3015"},"vehicle_type_id":"4","last_reported":1745251934,"current_range_meters":5600,"station_id":"ce4bhu92rcd13ifvqi70","pricing_plan_id":"cebpf4jnsgd1na2vs0mg"},{"bike_id":"9940702b-813b-472c-8628-077edcbf955a","system_id":"levelo_inurba_marseille","lat":43.26786,"lon":5.3942,"is_reserved":false,"is_disabled":false,"rental_uris":{"android":"levelo://app?vid=9940702b-813b-472c-8628-077edcbf955a","ios":"levelo://app?vid=9940702b-813b-472c-8628-077edcbf955a"},"vehicle_type_id":"4","last_reported":1745251934,"current_range_meters":4800,"station_id":"ce4bhh12rcd13ifvqfg0","pricing_plan_id":"cebpf4jnsgd1na2vs0mg"},{"bike_id":"900f4b11-d96d-444e-ae5a-81b839029132","system_id":"levelo_inurba_marseille","lat":43.28942,"lon":5.39617,"is_reserved":false,"is_disabled":false,"rental_uris":{"android":"levelo://app?vid=900f4b11-d96d-444e-ae5a-81b839029132","ios":"levelo://app?vid=900f4b11-d96d-444e-ae5a-81b839029132"},"vehicle_type_id":"4","last_reported":1745251934,"current_range_meters":5600,"station_id":"ce4bh3h2rcd13ifvqdn0","pricing_plan_id":"cebpf4jnsgd1na2vs0mg"},{"bike_id":"fb60509f-46e9-46b2-8399-80f7046970a0","system_id":"levelo_inurba_marseille","lat":43.311249,"lon":5.377798,"is_reserved":false,"is_disabled":false,"rental_uris":{"android":"levelo://app?vid=fb60509f-46e9-46b2-8399-80f7046970a0","ios":"levelo://app?vid=fb60509f-46e9-46b2-8399-80f7046970a0"},"vehicle_type_id":"4","last_reported":1745251934,"current_range_meters":5600,"station_id":"ce4bgt92rcd13ifvqcg0","pricing_plan_id":"cebpf4jnsgd1na2vs0mg"},{"bike_id":"949a3b98-b3d0-4b58-9e5c-50967c540964","system_id":"levelo_inurba_marseille","lat":43.29722,"lon":5.40055,"is_reserved":false,"is_disabled":false,"rental_uris":{"android":"levelo://app?vid=949a3b98-b3d0-4b58-9e5c-50967c540964","ios":"levelo://app?vid=949a3b98-b3d0-4b58-9e5c-50967c540964"},"vehicle_type_id":"4","last_reported":1745251934,"current_range_meters":5600,"station_id":"","pricing_plan_id":"cebpf4jnsgd1na2vs0mg"},{"bike_id":"24d80b1c-8543-41c3-9ace-3f8c9178f55b","system_id":"levelo_inurba_marseille","lat":43.29037,"lon":5.39979,"is_reserved":false,"is_disabled":false,"rental_uris":{"android":"levelo://app?vid=24d80b1c-8543-41c3-9ace-3f8c9178f55b","ios":"levelo://app?vid=24d80b1c-8543-41c3-9ace-3f8c9178f55b"},"vehicle_type_id":"4","last_reported":1745251934,"current_range_meters":5600,"station_id":"ce4bh392rcd13ifvqdm0","pricing_plan_id":"cebpf4jnsgd1na2vs0mg"},{"bike_id":"1453f2d3-018c-4c0d-8394-64c8c3b53479","system_id":"levelo_inurba_marseille","lat":43.30327,"lon":5.40439,"is_reserved":false,"is_disabled":false,"rental_uris":{"android":"levelo://app?vid=1453f2d3-018c-4c0d-8394-64c8c3b53479","ios":"levelo://app?vid=1453f2d3-018c-4c0d-8394-64c8c3b53479"},"vehicle_type_id":"4","last_reported":1745251934,"current_range_meters":6000,"station_id":"ce4bh012rcd13ifvqd10","pricing_plan_id":"cebpf4jnsgd1na2vs0mg"},{"bike_id":"13dcc10c-4cac-4cf2-9318-07e242720dc9","system_id":"levelo_inurba_marseille","lat":43.312,"lon":5.37715,"is_reserved":false,"is_disabled":false,"rental_uris":{"android":"levelo://app?vid=13dcc10c-4cac-4cf2-9318-07e242720dc9","ios":"levelo://app?vid=13dcc10c-4cac-4cf2-9318-07e242720dc9"},"vehicle_type_id":"4","last_reported":1745251934,"current_range_meters":6000,"station_id":"","pricing_plan_id":"cebpf4jnsgd1na2vs0mg"},{"bike_id":"710504c8-be1d-4a7b-9340-79620abc0cbb","system_id":"levelo_inurba_marseille","lat":43.28462,"lon":5.35892,"is_reserved":false,"is_disabled":false,"rental_uris":{"android":"levelo://app?vid=710504c8-be1d-4a7b-9340-79620abc0cbb","ios":"levelo://app?vid=710504c8-be1d-4a7b-9340-79620abc0cbb"},"vehicle_type_id":"4","last_reported":1745251934,"current_range_meters":6000,"station_id":"ce4bhah2rcd13ifvqei0","pricing_plan_id":"cebpf4jnsgd1na2vs0mg"},{"bike_id":"58887013-ca2a-4ebe-a619-39d104735b6f","system_id":"levelo_inurba_marseille","lat":43.23177,"lon":5.35579,"is_reserved":false,"is_disabled":false,"rental_uris":{"android":"levelo://app?vid=58887013-ca2a-4ebe-a619-39d104735b6f","ios":"levelo://app?vid=58887013-ca2a-4ebe-a619-39d104735b6f"},"vehicle_type_id":"4","last_reported":1745251934,"current_range_meters":6000,"station_id":"ce4bhu92rcd13ifvqi70","pricing_plan_id":"cebpf4jnsgd1na2vs0mg"},{"bike_id":"f4bcacd3-3fca-4113-9fde-bd95c93dbf69","system_id":"levelo_inurba_marseille","lat":43.30125,"lon":5.39823,"is_reserved":false,"is_disabled":false,"rental_uris":{"android":"levelo://app?vid=f4bcacd3-3fca-4113-9fde-bd95c93dbf69","ios":"levelo://app?vid=f4bcacd3-3fca-4113-9fde-bd95c93dbf69"},"vehicle_type_id":"4","last_reported":1745251934,"current_range_meters":6000,"station_id":"ce4bh0h2rcd13ifvqd40","pricing_plan_id":"cebpf4jnsgd1na2vs0mg"},{"bike_id":"4f0b25c3-2f51-4c00-9f56-69333455e756","system_id":"levelo_inurba_marseille","lat":43.27868,"lon":5.39287,"is_reserved":false,"is_disabled":false,"rental_uris":{"android":"levelo://app?vid=4f0b25c3-2f51-4c00-9f56-69333455e756","ios":"levelo://app?vid=4f0b25c3-2f51-4c00-9f56-69333455e756"},"vehicle_type_id":"4","last_reported":1745251934,"current_range_meters":6000,"station_id":"","pricing_plan_id":"cebpf4jnsgd1na2vs0mg"},{"bike_id":"49225d49-9260-47b2-a782-7d3d21b08c48","system_id":"levelo_inurba_marseille","lat":43.295342,"lon":5.378851,"is_reserved":false,"is_disabled":false,"rental_uris":{"android":"levelo://app?vid=49225d49-9260-47b2-a782-7d3d21b08c48","ios":"levelo://app?vid=49225d49-9260-47b2-a782-7d3d21b08c48"},"vehicle_type_id":"4","last_reported":1745251934,"current_range_meters":6400,"station_id":"","pricing_plan_id":"cebpf4jnsgd1na2vs0mg"},{"bike_id":"d4972f23-d3c2-4ce9-80f0-651f0789de43","system_id":"levelo_inurba_marseille","lat":43.29905,"lon":5.38141,"is_reserved":false,"is_disabled":false,"rental_uris":{"android":"levelo://app?vid=d4972f23-d3c2-4ce9-80f0-651f0789de43","ios":"levelo://app?vid=d4972f23-d3c2-4ce9-80f0-651f0789de43"},"vehicle_type_id":"4","last_reported":1745251934,"current_range_meters":6400,"station_id":"ce4bgj12rcd13ifvqbc0","pricing_plan_id":"cebpf4jnsgd1na2vs0mg"},{"bike_id":"c9e99fda-014f-4def-b440-f973e4d167dc","system_id":"levelo_inurba_marseille","lat":43.23183,"lon":5.35574,"is_reserved":false,"is_disabled":false,"rental_uris":{"android":"levelo://app?vid=c9e99fda-014f-4def-b440-f973e4d167dc","ios":"levelo://app?vid=c9e99fda-014f-4def-b440-f973e4d167dc"},"vehicle_type_id":"4","last_reported":1745251934,"current_range_meters":6400,"station_id":"ce4bhu92rcd13ifvqi70","pricing_plan_id":"cebpf4jnsgd1na2vs0mg"},{"bike_id":"4a2645b1-caf8-4a4e-a63a-ee5db1debb49","system_id":"levelo_inurba_marseille","lat":43.29266,"lon":5.3843,"is_reserved":false,"is_disabled":false,"rental_uris":{"android":"levelo://app?vid=4a2645b1-caf8-4a4e-a63a-ee5db1debb49","ios":"levelo://app?vid=4a2645b1-caf8-4a4e-a63a-ee5db1debb49"},"vehicle_type_id":"4","last_reported":1745251934,"current_range_meters":6800,"station_id":"ce4bh692rcd13ifvqea0","pricing_plan_id":"cebpf4jnsgd1na2vs0mg"},{"bike_id":"fb3b52fd-d217-4614-a6b4-7092e13a8233","system_id":"levelo_inurba_marseille","lat":43.29615,"lon":5.38102,"is_reserved":false,"is_disabled":false,"rental_uris":{"android":"levelo://app?vid=fb3b52fd-d217-4614-a6b4-7092e13a8233","ios":"levelo://app?vid=fb3b52fd-d217-4614-a6b4-7092e13a8233"},"vehicle_type_id":"4","last_reported":1745251934,"current_range_meters":6800,"station_id":"ce4bgl12rcd13ifvqbo0","pricing_plan_id":"cebpf4jnsgd1na2vs0mg"},{"bike_id":"bd5a01ac-3ff9-45d2-a2a1-7ccdef3bdd02","system_id":"levelo_inurba_marseille","lat":43.30442,"lon":5.38886,"is_reserved":false,"is_disabled":false,"rental_uris":{"android":"levelo://app?vid=bd5a01ac-3ff9-45d2-a2a1-7ccdef3bdd02","ios":"levelo://app?vid=bd5a01ac-3ff9-45d2-a2a1-7ccdef3bdd02"},"vehicle_type_id":"4","last_reported":1745251934,"current_range_meters":6800,"station_id":"ce4bgk12rcd13ifvqbi0","pricing_plan_id":"cebpf4jnsgd1na2vs0mg"},{"bike_id":"e88aaae5-13cf-4be2-a02c-abdbd139597e","system_id":"levelo_inurba_marseille","lat":43.2942,"lon":5.38618,"is_reserved":false,"is_disabled":false,"rental_uris":{"android":"levelo://app?vid=e88aaae5-13cf-4be2-a02c-abdbd139597e","ios":"levelo://app?vid=e88aaae5-13cf-4be2-a02c-abdbd139597e"},"vehicle_type_id":"4","last_reported":1745251934,"current_range_meters":6000,"station_id":"ce4bh2h2rcd13ifvqdh0","pricing_plan_id":"cebpf4jnsgd1na2vs0mg"},{"bike_id":"c58ccf53-8cb9-494d-85e0-d498b6b39bfb","system_id":"levelo_inurba_marseille","lat":43.28002,"lon":5.41665,"is_reserved":false,"is_disabled":false,"rental_uris":{"android":"levelo://app?vid=c58ccf53-8cb9-494d-85e0-d498b6b39bfb","ios":"levelo://app?vid=c58ccf53-8cb9-494d-85e0-d498b6b39bfb"},"vehicle_type_id":"4","last_reported":1745251934,"current_range_meters":6400,"station_id":"ce4bho12rcd13ifvqh1g","pricing_plan_id":"cebpf4jnsgd1na2vs0mg"},{"bike_id":"a25dc213-a537-441e-9b2d-85cd32f10ea3","system_id":"levelo_inurba_marseille","lat":43.29019,"lon":5.38138,"is_reserved":false,"is_disabled":false,"rental_uris":{"android":"levelo://app?vid=a25dc213-a537-441e-9b2d-85cd32f10ea3","ios":"levelo://app?vid=a25dc213-a537-441e-9b2d-85cd32f10ea3"},"vehicle_type_id":"4","last_reported":1745251934,"current_range_meters":6400,"station_id":"ce4bh4p2rcd13ifvqe1g","pricing_plan_id":"cebpf4jnsgd1na2vs0mg"},{"bike_id":"9eb906b7-9b7e-4c67-b9a1-d3137f2781ca","system_id":"levelo_inurba_marseille","lat":43.30126,"lon":5.39845,"is_reserved":false,"is_disabled":false,"rental_uris":{"android":"levelo://app?vid=9eb906b7-9b7e-4c67-b9a1-d3137f2781ca","ios":"levelo://app?vid=9eb906b7-9b7e-4c67-b9a1-d3137f2781ca"},"vehicle_type_id":"4","last_reported":1745251934,"current_range_meters":7200,"station_id":"ce4bh0h2rcd13ifvqd40","pricing_plan_id":"cebpf4jnsgd1na2vs0mg"},{"bike_id":"3a6d009e-2e7e-4c02-9f51-08d9aaf56ce6","system_id":"levelo_inurba_marseille","lat":43.30297,"lon":5.39216,"is_reserved":false,"is_disabled":true,"rental_uris":{"android":"levelo://app?vid=3a6d009e-2e7e-4c02-9f51-08d9aaf56ce6","ios":"levelo://app?vid=3a6d009e-2e7e-4c02-9f51-08d9aaf56ce6"},"vehicle_type_id":"4","last_reported":1745251934,"current_range_meters":7200,"station_id":"ce4bgkh2rcd13ifvqbk0","pricing_plan_id":"cebpf4jnsgd1na2vs0mg"},{"bike_id":"6e7d2935-fa60-4396-8fd6-4589e4ac4634","system_id":"levelo_inurba_marseille","lat":43.23188,"lon":5.35556,"is_reserved":false,"is_disabled":false,"rental_uris":{"android":"levelo://app?vid=6e7d2935-fa60-4396-8fd6-4589e4ac4634","ios":"levelo://app?vid=6e7d2935-fa60-4396-8fd6-4589e4ac4634"},"vehicle_type_id":"4","last_reported":1745251934,"current_range_meters":7200,"station_id":"ce4bhu92rcd13ifvqi70","pricing_plan_id":"cebpf4jnsgd1na2vs0mg"},{"bike_id":"6d0b1e09-0778-4875-a9ec-ebd4ab3c5c71","system_id":"levelo_inurba_marseille","lat":43.21202,"lon":5.35051,"is_reserved":false,"is_disabled":true,"rental_uris":{"android":"levelo://app?vid=6d0b1e09-0778-4875-a9ec-ebd4ab3c5c71","ios":"levelo://app?vid=6d0b1e09-0778-4875-a9ec-ebd4ab3c5c71"},"vehicle_type_id":"4","last_reported":1745251934,"current_range_meters":7200,"station_id":"st_cvj6sg6p6f1abm77japg","pricing_plan_id":"cebpf4jnsgd1na2vs0mg"},{"bike_id":"6ef8f19c-aee6-4fd4-8d5e-8909a779505a","system_id":"levelo_inurba_marseille","lat":43.28446,"lon":5.39204,"is_reserved":false,"is_disabled":false,"rental_uris":{"android":"levelo://app?vid=6ef8f19c-aee6-4fd4-8d5e-8909a779505a","ios":"levelo://app?vid=6ef8f19c-aee6-4fd4-8d5e-8909a779505a"},"vehicle_type_id":"4","last_reported":1745251934,"current_range_meters":7200,"station_id":"ce4bhoh2rcd13ifvqh5g","pricing_plan_id":"cebpf4jnsgd1na2vs0mg"},{"bike_id":"924eb23b-3c5f-4fba-af24-ae7a6103e5c1","system_id":"levelo_inurba_marseille","lat":43.29955,"lon":5.36528,"is_reserved":false,"is_disabled":false,"rental_uris":{"android":"levelo://app?vid=924eb23b-3c5f-4fba-af24-ae7a6103e5c1","ios":"levelo://app?vid=924eb23b-3c5f-4fba-af24-ae7a6103e5c1"},"vehicle_type_id":"4","last_reported":1745251934,"current_range_meters":7200,"station_id":"ce4bgm92rcd13ifvqbr0","pricing_plan_id":"cebpf4jnsgd1na2vs0mg"},{"bike_id":"a690620e-886f-4a7e-b000-db663d32c7b3","system_id":"levelo_inurba_marseille","lat":43.29887,"lon":5.43674,"is_reserved":false,"is_disabled":false,"rental_uris":{"android":"levelo://app?vid=a690620e-886f-4a7e-b000-db663d32c7b3","ios":"levelo://app?vid=a690620e-886f-4a7e-b000-db663d32c7b3"},"vehicle_type_id":"4","last_reported":1745251934,"current_range_meters":8000,"station_id":"ce4bhpp2rcd13ifvqhfg","pricing_plan_id":"cebpf4jnsgd1na2vs0mg"},{"bike_id":"ba1e2be4-e982-434d-ad42-5f3c0cd515c3","system_id":"levelo_inurba_marseille","lat":43.24164,"lon":5.36397,"is_reserved":false,"is_disabled":false,"rental_uris":{"android":"levelo://app?vid=ba1e2be4-e982-434d-ad42-5f3c0cd515c3","ios":"levelo://app?vid=ba1e2be4-e982-434d-ad42-5f3c0cd515c3"},"vehicle_type_id":"4","last_reported":1745251934,"current_range_meters":8000,"station_id":"cpo36qri1sfpv3e86is0","pricing_plan_id":"cebpf4jnsgd1na2vs0mg"},{"bike_id":"e9b40b8c-aa8b-493b-9704-ac204b4fdb74","system_id":"levelo_inurba_marseille","lat":43.225039,"lon":5.347841,"is_reserved":false,"is_disabled":true,"rental_uris":{"android":"levelo://app?vid=e9b40b8c-aa8b-493b-9704-ac204b4fdb74","ios":"levelo://app?vid=e9b40b8c-aa8b-493b-9704-ac204b4fdb74"},"vehicle_type_id":"4","last_reported":1745251934,"current_range_meters":8000,"station_id":"","pricing_plan_id":"cebpf4jnsgd1na2vs0mg"},{"bike_id":"42e527dc-8f75-449d-9115-23ff8f0cccb0","system_id":"levelo_inurba_marseille","lat":43.276703,"lon":5.388752,"is_reserved":false,"is_disabled":false,"rental_uris":{"android":"levelo://app?vid=42e527dc-8f75-449d-9115-23ff8f0cccb0","ios":"levelo://app?vid=42e527dc-8f75-449d-9115-23ff8f0cccb0"},"vehicle_type_id":"4","last_reported":1745251934,"current_range_meters":7200,"station_id":"ce4bhi12rcd13ifvqfo0","pricing_plan_id":"cebpf4jnsgd1na2vs0mg"},{"bike_id":"35e3c3da-0299-4f0c-b2cb-808b8776e3a7","system_id":"levelo_inurba_marseille","lat":43.30302,"lon":5.36907,"is_reserved":false,"is_disabled":false,"rental_uris":{"android":"levelo://app?vid=35e3c3da-0299-4f0c-b2cb-808b8776e3a7","ios":"levelo://app?vid=35e3c3da-0299-4f0c-b2cb-808b8776e3a7"},"vehicle_type_id":"4","last_reported":1745251934,"current_range_meters":7200,"station_id":"ce4bgqh2rcd13ifvqc5g","pricing_plan_id":"cebpf4jnsgd1na2vs0mg"},{"bike_id":"b3e69777-a7f5-4c07-a901-339788871f72","system_id":"levelo_inurba_marseille","lat":43.30442,"lon":5.38893,"is_reserved":false,"is_disabled":false,"rental_uris":{"android":"levelo://app?vid=b3e69777-a7f5-4c07-a901-339788871f72","ios":"levelo://app?vid=b3e69777-a7f5-4c07-a901-339788871f72"},"vehicle_type_id":"4","last_reported":1745251934,"current_range_meters":8000,"station_id":"ce4bgk12rcd13ifvqbi0","pricing_plan_id":"cebpf4jnsgd1na2vs0mg"},{"bike_id":"c76d03f4-6c3b-4355-b185-c07025d90dee","system_id":"levelo_inurba_marseille","lat":43.21196,"lon":5.35059,"is_reserved":false,"is_disabled":false,"rental_uris":{"android":"levelo://app?vid=c76d03f4-6c3b-4355-b185-c07025d90dee","ios":"levelo://app?vid=c76d03f4-6c3b-4355-b185-c07025d90dee"},"vehicle_type_id":"4","last_reported":1745251934,"current_range_meters":8000,"station_id":"st_cvj6sg6p6f1abm77japg","pricing_plan_id":"cebpf4jnsgd1na2vs0mg"},{"bike_id":"55f0e2db-1cbb-40cc-8f57-854bf5c7b75e","system_id":"levelo_inurba_marseille","lat":43.2957,"lon":5.37532,"is_reserved":false,"is_disabled":false,"rental_uris":{"android":"levelo://app?vid=55f0e2db-1cbb-40cc-8f57-854bf5c7b75e","ios":"levelo://app?vid=55f0e2db-1cbb-40cc-8f57-854bf5c7b75e"},"vehicle_type_id":"4","last_reported":1745251934,"current_range_meters":8400,"station_id":"ce4bgh92rcd13ifvqb50","pricing_plan_id":"cebpf4jnsgd1na2vs0mg"},{"bike_id":"7b51e9a7-a324-4b4f-a7a8-30c2f242d031","system_id":"levelo_inurba_marseille","lat":43.29099,"lon":5.3811,"is_reserved":false,"is_disabled":false,"rental_uris":{"android":"levelo://app?vid=7b51e9a7-a324-4b4f-a7a8-30c2f242d031","ios":"levelo://app?vid=7b51e9a7-a324-4b4f-a7a8-30c2f242d031"},"vehicle_type_id":"4","last_reported":1745251934,"current_range_meters":8400,"station_id":"ce4bh512rcd13ifvqe2g","pricing_plan_id":"cebpf4jnsgd1na2vs0mg"},{"bike_id":"b74d2149-b261-409b-ada5-70cce9fad823","system_id":"levelo_inurba_marseille","lat":43.2909,"lon":5.38129,"is_reserved":false,"is_disabled":false,"rental_uris":{"android":"levelo://app?vid=b74d2149-b261-409b-ada5-70cce9fad823","ios":"levelo://app?vid=b74d2149-b261-409b-ada5-70cce9fad823"},"vehicle_type_id":"4","last_reported":1745251934,"current_range_meters":8400,"station_id":"ce4bh512rcd13ifvqe2g","pricing_plan_id":"cebpf4jnsgd1na2vs0mg"},{"bike_id":"e9440e5f-1e46-4aeb-b70f-ce73df63b32e","system_id":"levelo_inurba_marseille","lat":43.29426,"lon":5.38613,"is_reserved":false,"is_disabled":false,"rental_uris":{"android":"levelo://app?vid=e9440e5f-1e46-4aeb-b70f-ce73df63b32e","ios":"levelo://app?vid=e9440e5f-1e46-4aeb-b70f-ce73df63b32e"},"vehicle_type_id":"4","last_reported":1745251934,"current_range_meters":8400,"station_id":"ce4bh2h2rcd13ifvqdh0","pricing_plan_id":"cebpf4jnsgd1na2vs0mg"},{"bike_id":"af2736c5-535f-4deb-a37d-01a00012a7b0","system_id":"levelo_inurba_marseille","lat":43.25721,"lon":5.41108,"is_reserved":false,"is_disabled":false,"rental_uris":{"android":"levelo://app?vid=af2736c5-535f-4deb-a37d-01a00012a7b0","ios":"levelo://app?vid=af2736c5-535f-4deb-a37d-01a00012a7b0"},"vehicle_type_id":"4","last_reported":1745251934,"current_range_meters":8400,"station_id":"ce4bhkp2rcd13ifvqgd0","pricing_plan_id":"cebpf4jnsgd1na2vs0mg"},{"bike_id":"0403c2b9-9e4f-4c39-a8a2-ae2a90731da6","system_id":"levelo_inurba_marseille","lat":43.2849,"lon":5.38549,"is_reserved":false,"is_disabled":false,"rental_uris":{"android":"levelo://app?vid=0403c2b9-9e4f-4c39-a8a2-ae2a90731da6","ios":"levelo://app?vid=0403c2b9-9e4f-4c39-a8a2-ae2a90731da6"},"vehicle_type_id":"4","last_reported":1745251934,"current_range_meters":8000,"station_id":"ce4bh8p2rcd13ifvqeb0","pricing_plan_id":"cebpf4jnsgd1na2vs0mg"},{"bike_id":"3260f0bc-6bb7-453f-9ae1-254968b3cdb3","system_id":"levelo_inurba_marseille","lat":43.29097,"lon":5.38172,"is_reserved":false,"is_disabled":false,"rental_uris":{"android":"levelo://app?vid=3260f0bc-6bb7-453f-9ae1-254968b3cdb3","ios":"levelo://app?vid=3260f0bc-6bb7-453f-9ae1-254968b3cdb3"},"vehicle_type_id":"4","last_reported":1745251934,"current_range_meters":8800,"station_id":"ce4bh512rcd13ifvqe2g","pricing_plan_id":"cebpf4jnsgd1na2vs0mg"},{"bike_id":"7b539c16-e4fd-4b7d-a9a5-412ee2c7c7a0","system_id":"levelo_inurba_marseille","lat":43.24807,"lon":5.374635,"is_reserved":false,"is_disabled":false,"rental_uris":{"android":"levelo://app?vid=7b539c16-e4fd-4b7d-a9a5-412ee2c7c7a0","ios":"levelo://app?vid=7b539c16-e4fd-4b7d-a9a5-412ee2c7c7a0"},"vehicle_type_id":"4","last_reported":1745251934,"current_range_meters":8800,"station_id":"ce4bhgh2rcd13ifvqfb0","pricing_plan_id":"cebpf4jnsgd1na2vs0mg"},{"bike_id":"ba0b2a3a-4629-4b64-9ab3-aeb1b5f4669c","system_id":"levelo_inurba_marseille","lat":43.28342,"lon":5.38094,"is_reserved":false,"is_disabled":false,"rental_uris":{"android":"levelo://app?vid=ba0b2a3a-4629-4b64-9ab3-aeb1b5f4669c","ios":"levelo://app?vid=ba0b2a3a-4629-4b64-9ab3-aeb1b5f4669c"},"vehicle_type_id":"4","last_reported":1745251934,"current_range_meters":8800,"station_id":"ce4bh412rcd13ifvqdr0","pricing_plan_id":"cebpf4jnsgd1na2vs0mg"},{"bike_id":"001f3b80-2ade-4258-8e51-886014b5cc1f","system_id":"levelo_inurba_marseille","lat":43.23189,"lon":5.40006,"is_reserved":false,"is_disabled":false,"rental_uris":{"android":"levelo://app?vid=001f3b80-2ade-4258-8e51-886014b5cc1f","ios":"levelo://app?vid=001f3b80-2ade-4258-8e51-886014b5cc1f"},"vehicle_type_id":"4","last_reported":1745251934,"current_range_meters":8800,"station_id":"ce4bhn12rcd13ifvqgqg","pricing_plan_id":"cebpf4jnsgd1na2vs0mg"},{"bike_id":"9cbb6696-a0b6-4b22-a0d1-a8f18a8381a4","system_id":"levelo_inurba_marseille","lat":43.28664,"lon":5.36363,"is_reserved":false,"is_disabled":false,"rental_uris":{"android":"levelo://app?vid=9cbb6696-a0b6-4b22-a0d1-a8f18a8381a4","ios":"levelo://app?vid=9cbb6696-a0b6-4b22-a0d1-a8f18a8381a4"},"vehicle_type_id":"4","last_reported":1745251934,"current_range_meters":8800,"station_id":"ce4bhah2rcd13ifvqej0","pricing_plan_id":"cebpf4jnsgd1na2vs0mg"},{"bike_id":"e2a01261-3559-422d-bfb5-ee155185e55a","system_id":"levelo_inurba_marseille","lat":43.27851,"lon":5.39199,"is_reserved":false,"is_disabled":false,"rental_uris":{"android":"levelo://app?vid=e2a01261-3559-422d-bfb5-ee155185e55a","ios":"levelo://app?vid=e2a01261-3559-422d-bfb5-ee155185e55a"},"vehicle_type_id":"4","last_reported":1745251934,"current_range_meters":8400,"station_id":"ce4bhjp2rcd13ifvqga0","pricing_plan_id":"cebpf4jnsgd1na2vs0mg"},{"bike_id":"ba01c468-f18c-4520-8c7d-9a0e432e91d4","system_id":"levelo_inurba_marseille","lat":43.23191,"lon":5.35537,"is_reserved":false,"is_disabled":false,"rental_uris":{"android":"levelo://app?vid=ba01c468-f18c-4520-8c7d-9a0e432e91d4","ios":"levelo://app?vid=ba01c468-f18c-4520-8c7d-9a0e432e91d4"},"vehicle_type_id":"4","last_reported":1745251934,"current_range_meters":8800,"station_id":"ce4bhu92rcd13ifvqi70","pricing_plan_id":"cebpf4jnsgd1na2vs0mg"},{"bike_id":"916b480d-34f4-4d24-b95f-924b122e58af","system_id":"levelo_inurba_marseille","lat":43.28353,"lon":5.38094,"is_reserved":false,"is_disabled":false,"rental_uris":{"android":"levelo://app?vid=916b480d-34f4-4d24-b95f-924b122e58af","ios":"levelo://app?vid=916b480d-34f4-4d24-b95f-924b122e58af"},"vehicle_type_id":"4","last_reported":1745251934,"current_range_meters":8400,"station_id":"ce4bh412rcd13ifvqdr0","pricing_plan_id":"cebpf4jnsgd1na2vs0mg"},{"bike_id":"1be10bdb-5305-4240-8242-8e85afe118d8","system_id":"levelo_inurba_marseille","lat":43.282683,"lon":5.350596,"is_reserved":false,"is_disabled":false,"rental_uris":{"android":"levelo://app?vid=1be10bdb-5305-4240-8242-8e85afe118d8","ios":"levelo://app?vid=1be10bdb-5305-4240-8242-8e85afe118d8"},"vehicle_type_id":"4","last_reported":1745251934,"current_range_meters":8800,"station_id":"ce4bgk12rcd13ifvqbi0","pricing_plan_id":"cebpf4jnsgd1na2vs0mg"},{"bike_id":"7eecc95a-1a05-44e3-8b98-d1441dd8f820","system_id":"levelo_inurba_marseille","lat":43.289566,"lon":5.397408,"is_reserved":false,"is_disabled":false,"rental_uris":{"android":"levelo://app?vid=7eecc95a-1a05-44e3-8b98-d1441dd8f820","ios":"levelo://app?vid=7eecc95a-1a05-44e3-8b98-d1441dd8f820"},"vehicle_type_id":"4","last_reported":1745251934,"current_range_meters":9200,"station_id":"ce4bh2p2rcd13ifvqdi0","pricing_plan_id":"cebpf4jnsgd1na2vs0mg"},{"bike_id":"e06bd2ef-5111-45bf-acf1-cf26a9f92360","system_id":"levelo_inurba_marseille","lat":43.24658,"lon":5.38164,"is_reserved":false,"is_disabled":false,"rental_uris":{"android":"levelo://app?vid=e06bd2ef-5111-45bf-acf1-cf26a9f92360","ios":"levelo://app?vid=e06bd2ef-5111-45bf-acf1-cf26a9f92360"},"vehicle_type_id":"4","last_reported":1745251934,"current_range_meters":9200,"station_id":"ce4bhih2rcd13ifvqfr0","pricing_plan_id":"cebpf4jnsgd1na2vs0mg"},{"bike_id":"6e3daac8-71d7-4190-9ce6-93984212c044","system_id":"levelo_inurba_marseille","lat":43.3376,"lon":5.39186,"is_reserved":false,"is_disabled":false,"rental_uris":{"android":"levelo://app?vid=6e3daac8-71d7-4190-9ce6-93984212c044","ios":"levelo://app?vid=6e3daac8-71d7-4190-9ce6-93984212c044"},"vehicle_type_id":"4","last_reported":1745251934,"current_range_meters":9200,"station_id":"ce4bhr92rcd13ifvqhsg","pricing_plan_id":"cebpf4jnsgd1na2vs0mg"},{"bike_id":"abce5058-31cb-4972-86b6-2c1fa1115030","system_id":"levelo_inurba_marseille","lat":43.3135,"lon":5.36716,"is_reserved":false,"is_disabled":false,"rental_uris":{"android":"levelo://app?vid=abce5058-31cb-4972-86b6-2c1fa1115030","ios":"levelo://app?vid=abce5058-31cb-4972-86b6-2c1fa1115030"},"vehicle_type_id":"4","last_reported":1745251934,"current_range_meters":9200,"station_id":"ce4bgr92rcd13ifvqc6g","pricing_plan_id":"cebpf4jnsgd1na2vs0mg"},{"bike_id":"1f84f51f-d2f4-4d4c-982d-d184ffe24a02","system_id":"levelo_inurba_marseille","lat":43.32369,"lon":5.38892,"is_reserved":false,"is_disabled":true,"rental_uris":{"android":"levelo://app?vid=1f84f51f-d2f4-4d4c-982d-d184ffe24a02","ios":"levelo://app?vid=1f84f51f-d2f4-4d4c-982d-d184ffe24a02"},"vehicle_type_id":"4","last_reported":1745251934,"current_range_meters":9200,"station_id":"ce4bhqp2rcd13ifvqhog","pricing_plan_id":"cebpf4jnsgd1na2vs0mg"},{"bike_id":"543790c0-5481-4f05-b56f-5e89ea044913","system_id":"levelo_inurba_marseille","lat":43.27377,"lon":5.3626,"is_reserved":false,"is_disabled":false,"rental_uris":{"android":"levelo://app?vid=543790c0-5481-4f05-b56f-5e89ea044913","ios":"levelo://app?vid=543790c0-5481-4f05-b56f-5e89ea044913"},"vehicle_type_id":"4","last_reported":1745251934,"current_range_meters":9600,"station_id":"ce4bhbh2rcd13ifvqeo0","pricing_plan_id":"cebpf4jnsgd1na2vs0mg"},{"bike_id":"ca22777a-0e62-468f-ba81-887347ce2f6e","system_id":"levelo_inurba_marseille","lat":43.29268,"lon":5.36828,"is_reserved":false,"is_disabled":true,"rental_uris":{"android":"levelo://app?vid=ca22777a-0e62-468f-ba81-887347ce2f6e","ios":"levelo://app?vid=ca22777a-0e62-468f-ba81-887347ce2f6e"},"vehicle_type_id":"4","last_reported":1745251934,"current_range_meters":9600,"station_id":"ce4bhbp2rcd13ifvqesg","pricing_plan_id":"cebpf4jnsgd1na2vs0mg"},{"bike_id":"e0bfbe4b-4f01-43b4-9264-8ad2cc2910d1","system_id":"levelo_inurba_marseille","lat":43.27841,"lon":5.3921,"is_reserved":false,"is_disabled":false,"rental_uris":{"android":"levelo://app?vid=e0bfbe4b-4f01-43b4-9264-8ad2cc2910d1","ios":"levelo://app?vid=e0bfbe4b-4f01-43b4-9264-8ad2cc2910d1"},"vehicle_type_id":"4","last_reported":1745251934,"current_range_meters":9200,"station_id":"ce4bhjp2rcd13ifvqga0","pricing_plan_id":"cebpf4jnsgd1na2vs0mg"},{"bike_id":"08adba7b-eac3-4cfc-9923-2ccf0cc4ffef","system_id":"levelo_inurba_marseille","lat":43.24525,"lon":5.41317,"is_reserved":false,"is_disabled":false,"rental_uris":{"android":"levelo://app?vid=08adba7b-eac3-4cfc-9923-2ccf0cc4ffef","ios":"levelo://app?vid=08adba7b-eac3-4cfc-9923-2ccf0cc4ffef"},"vehicle_type_id":"4","last_reported":1745251934,"current_range_meters":9600,"station_id":"","pricing_plan_id":"cebpf4jnsgd1na2vs0mg"},{"bike_id":"c3c56564-9b8c-4d3f-8848-6577b8d49a05","system_id":"levelo_inurba_marseille","lat":43.28701,"lon":5.37384,"is_reserved":false,"is_disabled":false,"rental_uris":{"android":"levelo://app?vid=c3c56564-9b8c-4d3f-8848-6577b8d49a05","ios":"levelo://app?vid=c3c56564-9b8c-4d3f-8848-6577b8d49a05"},"vehicle_type_id":"4","last_reported":1745251934,"current_range_meters":9600,"station_id":"ce4bh3p2rcd13ifvqdq0","pricing_plan_id":"cebpf4jnsgd1na2vs0mg"},{"bike_id":"c2c45ce7-fc4c-4e29-ae1d-34230aed4b4a","system_id":"levelo_inurba_marseille","lat":43.231506,"lon":5.437171,"is_reserved":false,"is_disabled":false,"rental_uris":{"android":"levelo://app?vid=c2c45ce7-fc4c-4e29-ae1d-34230aed4b4a","ios":"levelo://app?vid=c2c45ce7-fc4c-4e29-ae1d-34230aed4b4a"},"vehicle_type_id":"4","last_reported":1745251934,"current_range_meters":9600,"station_id":"ce4bhmp2rcd13ifvqgog","pricing_plan_id":"cebpf4jnsgd1na2vs0mg"},{"bike_id":"f2461c16-54b7-4fb4-9be8-5ce09ffd4b20","system_id":"levelo_inurba_marseille","lat":43.29175,"lon":5.37158,"is_reserved":false,"is_disabled":false,"rental_uris":{"android":"levelo://app?vid=f2461c16-54b7-4fb4-9be8-5ce09ffd4b20","ios":"levelo://app?vid=f2461c16-54b7-4fb4-9be8-5ce09ffd4b20"},"vehicle_type_id":"4","last_reported":1745251934,"current_range_meters":9600,"station_id":"ce4bha92rcd13ifvqeh0","pricing_plan_id":"cebpf4jnsgd1na2vs0mg"},{"bike_id":"a1c2cadf-3fd0-4e6d-a235-c8b365033bb9","system_id":"levelo_inurba_marseille","lat":43.28621,"lon":5.35099,"is_reserved":false,"is_disabled":false,"rental_uris":{"android":"levelo://app?vid=a1c2cadf-3fd0-4e6d-a235-c8b365033bb9","ios":"levelo://app?vid=a1c2cadf-3fd0-4e6d-a235-c8b365033bb9"},"vehicle_type_id":"4","last_reported":1745251934,"current_range_meters":9600,"station_id":"ce4bhch2rcd13ifvqeug","pricing_plan_id":"cebpf4jnsgd1na2vs0mg"},{"bike_id":"31a6f8a0-66b5-4b22-9267-a9ef183409f9","system_id":"levelo_inurba_marseille","lat":43.28108,"lon":5.37829,"is_reserved":false,"is_disabled":false,"rental_uris":{"android":"levelo://app?vid=31a6f8a0-66b5-4b22-9267-a9ef183409f9","ios":"levelo://app?vid=31a6f8a0-66b5-4b22-9267-a9ef183409f9"},"vehicle_type_id":"4","last_reported":1745251934,"current_range_meters":9200,"station_id":"ce4bha12rcd13ifvqee0","pricing_plan_id":"cebpf4jnsgd1na2vs0mg"},{"bike_id":"9b54feae-f005-4394-a492-64ca9b46820c","system_id":"levelo_inurba_marseille","lat":43.29535,"lon":5.38541,"is_reserved":false,"is_disabled":false,"rental_uris":{"android":"levelo://app?vid=9b54feae-f005-4394-a492-64ca9b46820c","ios":"levelo://app?vid=9b54feae-f005-4394-a492-64ca9b46820c"},"vehicle_type_id":"4","last_reported":1745251934,"current_range_meters":10000,"station_id":"ce4bgih2rcd13ifvqba0","pricing_plan_id":"cebpf4jnsgd1na2vs0mg"},{"bike_id":"04a9155c-42c8-4e5f-830d-81538b2c499a","system_id":"levelo_inurba_marseille","lat":43.26942,"lon":5.40249,"is_reserved":false,"is_disabled":false,"rental_uris":{"android":"levelo://app?vid=04a9155c-42c8-4e5f-830d-81538b2c499a","ios":"levelo://app?vid=04a9155c-42c8-4e5f-830d-81538b2c499a"},"vehicle_type_id":"4","last_reported":1745251934,"current_range_meters":10000,"station_id":"cjm6bp8fraef2m0cb0m0","pricing_plan_id":"cebpf4jnsgd1na2vs0mg"},{"bike_id":"34166cb2-24d1-48d4-88e5-65264e3a037d","system_id":"levelo_inurba_marseille","lat":43.31057,"lon":5.37115,"is_reserved":false,"is_disabled":false,"rental_uris":{"android":"levelo://app?vid=34166cb2-24d1-48d4-88e5-65264e3a037d","ios":"levelo://app?vid=34166cb2-24d1-48d4-88e5-65264e3a037d"},"vehicle_type_id":"4","last_reported":1745251934,"current_range_meters":10000,"station_id":"","pricing_plan_id":"cebpf4jnsgd1na2vs0mg"},{"bike_id":"fab57bca-096a-4818-823a-2769e055b59c","system_id":"levelo_inurba_marseille","lat":43.30165,"lon":5.38074,"is_reserved":false,"is_disabled":true,"rental_uris":{"android":"levelo://app?vid=fab57bca-096a-4818-823a-2769e055b59c","ios":"levelo://app?vid=fab57bca-096a-4818-823a-2769e055b59c"},"vehicle_type_id":"4","last_reported":1745251934,"current_range_meters":10000,"station_id":"ce4bgjp2rcd13ifvqbh0","pricing_plan_id":"cebpf4jnsgd1na2vs0mg"},{"bike_id":"d5661217-107c-4041-9798-4aa110e813d8","system_id":"levelo_inurba_marseille","lat":43.26938,"lon":5.40234,"is_reserved":false,"is_disabled":false,"rental_uris":{"android":"levelo://app?vid=d5661217-107c-4041-9798-4aa110e813d8","ios":"levelo://app?vid=d5661217-107c-4041-9798-4aa110e813d8"},"vehicle_type_id":"4","last_reported":1745251934,"current_range_meters":10000,"station_id":"cjm6bp8fraef2m0cb0m0","pricing_plan_id":"cebpf4jnsgd1na2vs0mg"},{"bike_id":"d5c60a38-710d-4fff-99cb-9cfbd1eb644a","system_id":"levelo_inurba_marseille","lat":43.27948,"lon":5.41049,"is_reserved":false,"is_disabled":false,"rental_uris":{"android":"levelo://app?vid=d5c60a38-710d-4fff-99cb-9cfbd1eb644a","ios":"levelo://app?vid=d5c60a38-710d-4fff-99cb-9cfbd1eb644a"},"vehicle_type_id":"4","last_reported":1745251934,"current_range_meters":10800,"station_id":"ce4bhnp2rcd13ifvqh0g","pricing_plan_id":"cebpf4jnsgd1na2vs0mg"},{"bike_id":"f2a7d426-36fd-4d77-bbab-8262f68774a1","system_id":"levelo_inurba_marseille","lat":43.30155,"lon":5.39862,"is_reserved":false,"is_disabled":false,"rental_uris":{"android":"levelo://app?vid=f2a7d426-36fd-4d77-bbab-8262f68774a1","ios":"levelo://app?vid=f2a7d426-36fd-4d77-bbab-8262f68774a1"},"vehicle_type_id":"4","last_reported":1745251934,"current_range_meters":10000,"station_id":"ce4bh0h2rcd13ifvqd40","pricing_plan_id":"cebpf4jnsgd1na2vs0mg"},{"bike_id":"6536bd66-2e09-46e5-addd-394095cde884","system_id":"levelo_inurba_marseille","lat":43.29376,"lon":5.37835,"is_reserved":false,"is_disabled":false,"rental_uris":{"android":"levelo://app?vid=6536bd66-2e09-46e5-addd-394095cde884","ios":"levelo://app?vid=6536bd66-2e09-46e5-addd-394095cde884"},"vehicle_type_id":"4","last_reported":1745251934,"current_range_meters":10000,"station_id":"ce4bgjh2rcd13ifvqbf0","pricing_plan_id":"cebpf4jnsgd1na2vs0mg"},{"bike_id":"3e9c1db8-7dce-4e99-bd9f-96cfdfd7dfc6","system_id":"levelo_inurba_marseille","lat":43.28351,"lon":5.38101,"is_reserved":false,"is_disabled":false,"rental_uris":{"android":"levelo://app?vid=3e9c1db8-7dce-4e99-bd9f-96cfdfd7dfc6","ios":"levelo://app?vid=3e9c1db8-7dce-4e99-bd9f-96cfdfd7dfc6"},"vehicle_type_id":"4","last_reported":1745251934,"current_range_meters":10800,"station_id":"ce4bh412rcd13ifvqdr0","pricing_plan_id":"cebpf4jnsgd1na2vs0mg"},{"bike_id":"ad632c28-7d84-41d4-9b4e-ede9e5a1a5e6","system_id":"levelo_inurba_marseille","lat":43.29541,"lon":5.3854,"is_reserved":false,"is_disabled":false,"rental_uris":{"android":"levelo://app?vid=ad632c28-7d84-41d4-9b4e-ede9e5a1a5e6","ios":"levelo://app?vid=ad632c28-7d84-41d4-9b4e-ede9e5a1a5e6"},"vehicle_type_id":"4","last_reported":1745251934,"current_range_meters":10800,"station_id":"ce4bgih2rcd13ifvqba0","pricing_plan_id":"cebpf4jnsgd1na2vs0mg"},{"bike_id":"dd4d9f2d-90bd-4d5c-a383-ee755090e3ca","system_id":"levelo_inurba_marseille","lat":43.23963,"lon":5.36641,"is_reserved":false,"is_disabled":false,"rental_uris":{"android":"levelo://app?vid=dd4d9f2d-90bd-4d5c-a383-ee755090e3ca","ios":"levelo://app?vid=dd4d9f2d-90bd-4d5c-a383-ee755090e3ca"},"vehicle_type_id":"4","last_reported":1745251934,"current_range_meters":10800,"station_id":"ce4bhi12rcd13ifvqfp0","pricing_plan_id":"cebpf4jnsgd1na2vs0mg"},{"bike_id":"844e7456-605b-4ed0-8ebc-825b064a0fc6","system_id":"levelo_inurba_marseille","lat":43.24179,"lon":5.39715,"is_reserved":false,"is_disabled":false,"rental_uris":{"android":"levelo://app?vid=844e7456-605b-4ed0-8ebc-825b064a0fc6","ios":"levelo://app?vid=844e7456-605b-4ed0-8ebc-825b064a0fc6"},"vehicle_type_id":"4","last_reported":1745251934,"current_range_meters":10800,"station_id":"ce4bhn12rcd13ifvqgpg","pricing_plan_id":"cebpf4jnsgd1na2vs0mg"},{"bike_id":"59d828c0-aa93-479d-8b6b-37c2c2fdf562","system_id":"levelo_inurba_marseille","lat":43.28669,"lon":5.36343,"is_reserved":false,"is_disabled":false,"rental_uris":{"android":"levelo://app?vid=59d828c0-aa93-479d-8b6b-37c2c2fdf562","ios":"levelo://app?vid=59d828c0-aa93-479d-8b6b-37c2c2fdf562"},"vehicle_type_id":"4","last_reported":1745251934,"current_range_meters":11200,"station_id":"ce4bhah2rcd13ifvqej0","pricing_plan_id":"cebpf4jnsgd1na2vs0mg"},{"bike_id":"c633ffb6-a2e4-43ee-bc04-55b3730fd199","system_id":"levelo_inurba_marseille","lat":43.29411,"lon":5.38623,"is_reserved":false,"is_disabled":true,"rental_uris":{"android":"levelo://app?vid=c633ffb6-a2e4-43ee-bc04-55b3730fd199","ios":"levelo://app?vid=c633ffb6-a2e4-43ee-bc04-55b3730fd199"},"vehicle_type_id":"4","last_reported":1745251934,"current_range_meters":11200,"station_id":"ce4bh2h2rcd13ifvqdh0","pricing_plan_id":"cebpf4jnsgd1na2vs0mg"},{"bike_id":"d389e544-55d2-4979-8932-f530d9006611","system_id":"levelo_inurba_marseille","lat":43.26808,"lon":5.40272,"is_reserved":false,"is_disabled":false,"rental_uris":{"android":"levelo://app?vid=d389e544-55d2-4979-8932-f530d9006611","ios":"levelo://app?vid=d389e544-55d2-4979-8932-f530d9006611"},"vehicle_type_id":"4","last_reported":1745251934,"current_range_meters":11200,"station_id":"ce501612rcd8frsf0b60","pricing_plan_id":"cebpf4jnsgd1na2vs0mg"},{"bike_id":"7d75436c-9a85-4540-b5c0-77fa37c395d7","system_id":"levelo_inurba_marseille","lat":43.28707,"lon":5.37434,"is_reserved":false,"is_disabled":false,"rental_uris":{"android":"levelo://app?vid=7d75436c-9a85-4540-b5c0-77fa37c395d7","ios":"levelo://app?vid=7d75436c-9a85-4540-b5c0-77fa37c395d7"},"vehicle_type_id":"4","last_reported":1745251934,"current_range_meters":11200,"station_id":"ce4bh3p2rcd13ifvqdq0","pricing_plan_id":"cebpf4jnsgd1na2vs0mg"},{"bike_id":"4fd5653f-144a-4fd3-9af0-e79791817fa9","system_id":"levelo_inurba_marseille","lat":43.28723,"lon":5.37933,"is_reserved":false,"is_disabled":false,"rental_uris":{"android":"levelo://app?vid=4fd5653f-144a-4fd3-9af0-e79791817fa9","ios":"levelo://app?vid=4fd5653f-144a-4fd3-9af0-e79791817fa9"},"vehicle_type_id":"4","last_reported":1745251934,"current_range_meters":10800,"station_id":"ce4bh9p2rcd13ifvqec0","pricing_plan_id":"cebpf4jnsgd1na2vs0mg"},{"bike_id":"343c0082-14e8-4b09-905f-dae6f70148b0","system_id":"levelo_inurba_marseille","lat":43.299392,"lon":5.37181,"is_reserved":false,"is_disabled":false,"rental_uris":{"android":"levelo://app?vid=343c0082-14e8-4b09-905f-dae6f70148b0","ios":"levelo://app?vid=343c0082-14e8-4b09-905f-dae6f70148b0"},"vehicle_type_id":"4","last_reported":1745251934,"current_range_meters":11200,"station_id":"ce4bgrp2rcd13ifvqc9g","pricing_plan_id":"cebpf4jnsgd1na2vs0mg"},{"bike_id":"2198566f-ce33-49b5-88fe-899185d2b670","system_id":"levelo_inurba_marseille","lat":43.23191,"lon":5.35569,"is_reserved":false,"is_disabled":false,"rental_uris":{"android":"levelo://app?vid=2198566f-ce33-49b5-88fe-899185d2b670","ios":"levelo://app?vid=2198566f-ce33-49b5-88fe-899185d2b670"},"vehicle_type_id":"4","last_reported":1745251934,"current_range_meters":11600,"station_id":"ce4bhu92rcd13ifvqi70","pricing_plan_id":"cebpf4jnsgd1na2vs0mg"},{"bike_id":"1c755526-7610-4241-9257-348acde561d3","system_id":"levelo_inurba_marseille","lat":43.24861,"lon":5.38196,"is_reserved":false,"is_disabled":false,"rental_uris":{"android":"levelo://app?vid=1c755526-7610-4241-9257-348acde561d3","ios":"levelo://app?vid=1c755526-7610-4241-9257-348acde561d3"},"vehicle_type_id":"4","last_reported":1745251934,"current_range_meters":11600,"station_id":"","pricing_plan_id":"cebpf4jnsgd1na2vs0mg"},{"bike_id":"a1f8c113-84c5-4d55-9628-cbf8c37a0c3b","system_id":"levelo_inurba_marseille","lat":43.23196,"lon":5.35557,"is_reserved":false,"is_disabled":false,"rental_uris":{"android":"levelo://app?vid=a1f8c113-84c5-4d55-9628-cbf8c37a0c3b","ios":"levelo://app?vid=a1f8c113-84c5-4d55-9628-cbf8c37a0c3b"},"vehicle_type_id":"4","last_reported":1745251934,"current_range_meters":11600,"station_id":"ce4bhu92rcd13ifvqi70","pricing_plan_id":"cebpf4jnsgd1na2vs0mg"},{"bike_id":"bce426bd-864b-447e-93f5-ac3e47f204d2","system_id":"levelo_inurba_marseille","lat":43.30203,"lon":5.400441,"is_reserved":false,"is_disabled":false,"rental_uris":{"android":"levelo://app?vid=bce426bd-864b-447e-93f5-ac3e47f204d2","ios":"levelo://app?vid=bce426bd-864b-447e-93f5-ac3e47f204d2"},"vehicle_type_id":"4","last_reported":1745251934,"current_range_meters":12000,"station_id":"ce4bgvh2rcd13ifvqcs0","pricing_plan_id":"cebpf4jnsgd1na2vs0mg"},{"bike_id":"4872138b-d4cf-4146-bf09-e21a33a6a251","system_id":"levelo_inurba_marseille","lat":43.28369,"lon":5.38628,"is_reserved":false,"is_disabled":false,"rental_uris":{"android":"levelo://app?vid=4872138b-d4cf-4146-bf09-e21a33a6a251","ios":"levelo://app?vid=4872138b-d4cf-4146-bf09-e21a33a6a251"},"vehicle_type_id":"4","last_reported":1745251934,"current_range_meters":12000,"station_id":"ce4bh492rcd13ifvqdvg","pricing_plan_id":"cebpf4jnsgd1na2vs0mg"},{"bike_id":"37c50408-6f57-4765-996b-bc1f3a694297","system_id":"levelo_inurba_marseille","lat":43.275154,"lon":5.360136,"is_reserved":false,"is_disabled":false,"rental_uris":{"android":"levelo://app?vid=37c50408-6f57-4765-996b-bc1f3a694297","ios":"levelo://app?vid=37c50408-6f57-4765-996b-bc1f3a694297"},"vehicle_type_id":"4","last_reported":1745251934,"current_range_meters":12400,"station_id":"ce4bgj92rcd13ifvqbe0","pricing_plan_id":"cebpf4jnsgd1na2vs0mg"},{"bike_id":"f81bd9ef-6eb2-45f3-b73c-5d224306019e","system_id":"levelo_inurba_marseille","lat":43.287015,"lon":5.373767,"is_reserved":false,"is_disabled":false,"rental_uris":{"android":"levelo://app?vid=f81bd9ef-6eb2-45f3-b73c-5d224306019e","ios":"levelo://app?vid=f81bd9ef-6eb2-45f3-b73c-5d224306019e"},"vehicle_type_id":"4","last_reported":1745251934,"current_range_meters":12400,"station_id":"ce4bh3p2rcd13ifvqdq0","pricing_plan_id":"cebpf4jnsgd1na2vs0mg"},{"bike_id":"6ff41629-37fe-4b76-a72c-8c570dc1d96d","system_id":"levelo_inurba_marseille","lat":43.33742,"lon":5.39187,"is_reserved":false,"is_disabled":false,"rental_uris":{"android":"levelo://app?vid=6ff41629-37fe-4b76-a72c-8c570dc1d96d","ios":"levelo://app?vid=6ff41629-37fe-4b76-a72c-8c570dc1d96d"},"vehicle_type_id":"4","last_reported":1745251934,"current_range_meters":12800,"station_id":"ce4bhr92rcd13ifvqhsg","pricing_plan_id":"cebpf4jnsgd1na2vs0mg"},{"bike_id":"b52b9383-70a6-4483-8ef1-20533ea5a1d0","system_id":"levelo_inurba_marseille","lat":43.27371,"lon":5.36255,"is_reserved":false,"is_disabled":false,"rental_uris":{"android":"levelo://app?vid=b52b9383-70a6-4483-8ef1-20533ea5a1d0","ios":"levelo://app?vid=b52b9383-70a6-4483-8ef1-20533ea5a1d0"},"vehicle_type_id":"4","last_reported":1745251934,"current_range_meters":12800,"station_id":"ce4bhbh2rcd13ifvqeo0","pricing_plan_id":"cebpf4jnsgd1na2vs0mg"},{"bike_id":"fc20faae-a48d-4a0f-a831-6c20fdfbb8c6","system_id":"levelo_inurba_marseille","lat":43.30653,"lon":5.40108,"is_reserved":false,"is_disabled":false,"rental_uris":{"android":"levelo://app?vid=fc20faae-a48d-4a0f-a831-6c20fdfbb8c6","ios":"levelo://app?vid=fc20faae-a48d-4a0f-a831-6c20fdfbb8c6"},"vehicle_type_id":"4","last_reported":1745251934,"current_range_meters":13600,"station_id":"ce4bh112rcd13ifvqda0","pricing_plan_id":"cebpf4jnsgd1na2vs0mg"},{"bike_id":"868ab911-24f7-48a8-a47c-0184fab8ec3c","system_id":"levelo_inurba_marseille","lat":43.231934,"lon":5.355521,"is_reserved":false,"is_disabled":false,"rental_uris":{"android":"levelo://app?vid=868ab911-24f7-48a8-a47c-0184fab8ec3c","ios":"levelo://app?vid=868ab911-24f7-48a8-a47c-0184fab8ec3c"},"vehicle_type_id":"4","last_reported":1745251934,"current_range_meters":13600,"station_id":"ce4bhu92rcd13ifvqi70","pricing_plan_id":"cebpf4jnsgd1na2vs0mg"},{"bike_id":"653ab908-1999-4c30-ab36-9ad3a8e20169","system_id":"levelo_inurba_marseille","lat":43.24164,"lon":5.36396,"is_reserved":false,"is_disabled":false,"rental_uris":{"android":"levelo://app?vid=653ab908-1999-4c30-ab36-9ad3a8e20169","ios":"levelo://app?vid=653ab908-1999-4c30-ab36-9ad3a8e20169"},"vehicle_type_id":"4","last_reported":1745251934,"current_range_meters":13600,"station_id":"cpo36qri1sfpv3e86is0","pricing_plan_id":"cebpf4jnsgd1na2vs0mg"},{"bike_id":"21f15cfd-e112-4414-aa38-3f376b764dcc","system_id":"levelo_inurba_marseille","lat":43.28349,"lon":5.38103,"is_reserved":false,"is_disabled":false,"rental_uris":{"android":"levelo://app?vid=21f15cfd-e112-4414-aa38-3f376b764dcc","ios":"levelo://app?vid=21f15cfd-e112-4414-aa38-3f376b764dcc"},"vehicle_type_id":"4","last_reported":1745251934,"current_range_meters":13600,"station_id":"ce4bh412rcd13ifvqdr0","pricing_plan_id":"cebpf4jnsgd1na2vs0mg"},{"bike_id":"4869ca0d-f942-4acf-9186-7654a05ff538","system_id":"levelo_inurba_marseille","lat":43.29618,"lon":5.3731,"is_reserved":false,"is_disabled":false,"rental_uris":{"android":"levelo://app?vid=4869ca0d-f942-4acf-9186-7654a05ff538","ios":"levelo://app?vid=4869ca0d-f942-4acf-9186-7654a05ff538"},"vehicle_type_id":"4","last_reported":1745251934,"current_range_meters":14000,"station_id":"","pricing_plan_id":"cebpf4jnsgd1na2vs0mg"},{"bike_id":"2905c797-3438-4f0b-b19d-36bc737f779f","system_id":"levelo_inurba_marseille","lat":43.23195,"lon":5.3555,"is_reserved":false,"is_disabled":false,"rental_uris":{"android":"levelo://app?vid=2905c797-3438-4f0b-b19d-36bc737f779f","ios":"levelo://app?vid=2905c797-3438-4f0b-b19d-36bc737f779f"},"vehicle_type_id":"4","last_reported":1745251934,"current_range_meters":14000,"station_id":"ce4bhu92rcd13ifvqi70","pricing_plan_id":"cebpf4jnsgd1na2vs0mg"},{"bike_id":"9d38dc42-8b74-42d5-9914-13e4ab75b344","system_id":"levelo_inurba_marseille","lat":43.292664,"lon":5.384439,"is_reserved":false,"is_disabled":false,"rental_uris":{"android":"levelo://app?vid=9d38dc42-8b74-42d5-9914-13e4ab75b344","ios":"levelo://app?vid=9d38dc42-8b74-42d5-9914-13e4ab75b344"},"vehicle_type_id":"4","last_reported":1745251934,"current_range_meters":14000,"station_id":"ce4bh692rcd13ifvqea0","pricing_plan_id":"cebpf4jnsgd1na2vs0mg"},{"bike_id":"96c11cbc-40c8-4f48-a070-25fb8aa7f8eb","system_id":"levelo_inurba_marseille","lat":43.29534,"lon":5.38543,"is_reserved":false,"is_disabled":false,"rental_uris":{"android":"levelo://app?vid=96c11cbc-40c8-4f48-a070-25fb8aa7f8eb","ios":"levelo://app?vid=96c11cbc-40c8-4f48-a070-25fb8aa7f8eb"},"vehicle_type_id":"4","last_reported":1745251934,"current_range_meters":14000,"station_id":"ce4bgih2rcd13ifvqba0","pricing_plan_id":"cebpf4jnsgd1na2vs0mg"},{"bike_id":"18f246bc-0417-41f0-ae49-19a1efd398e6","system_id":"levelo_inurba_marseille","lat":43.341268,"lon":5.41016,"is_reserved":false,"is_disabled":false,"rental_uris":{"android":"levelo://app?vid=18f246bc-0417-41f0-ae49-19a1efd398e6","ios":"levelo://app?vid=18f246bc-0417-41f0-ae49-19a1efd398e6"},"vehicle_type_id":"4","last_reported":1745251934,"current_range_meters":14000,"station_id":"ce4bhqh2rcd13ifvqhlg","pricing_plan_id":"cebpf4jnsgd1na2vs0mg"},{"bike_id":"f07f1ccd-f018-4a38-b9e9-45127c13ec6a","system_id":"levelo_inurba_marseille","lat":43.2926,"lon":5.40915,"is_reserved":false,"is_disabled":false,"rental_uris":{"android":"levelo://app?vid=f07f1ccd-f018-4a38-b9e9-45127c13ec6a","ios":"levelo://app?vid=f07f1ccd-f018-4a38-b9e9-45127c13ec6a"},"vehicle_type_id":"4","last_reported":1745251934,"current_range_meters":14400,"station_id":"ce4bh192rcd13ifvqdc0","pricing_plan_id":"cebpf4jnsgd1na2vs0mg"},{"bike_id":"2dc4e79a-33a8-48b0-bf03-f6328f1dc1f6","system_id":"levelo_inurba_marseille","lat":43.32367,"lon":5.38893,"is_reserved":false,"is_disabled":true,"rental_uris":{"android":"levelo://app?vid=2dc4e79a-33a8-48b0-bf03-f6328f1dc1f6","ios":"levelo://app?vid=2dc4e79a-33a8-48b0-bf03-f6328f1dc1f6"},"vehicle_type_id":"4","last_reported":1745251934,"current_range_meters":14400,"station_id":"ce4bhqp2rcd13ifvqhog","pricing_plan_id":"cebpf4jnsgd1na2vs0mg"},{"bike_id":"99611980-7ab4-42e3-aa87-34549f7c9b24","system_id":"levelo_inurba_marseille","lat":43.246687,"lon":5.381667,"is_reserved":false,"is_disabled":false,"rental_uris":{"android":"levelo://app?vid=99611980-7ab4-42e3-aa87-34549f7c9b24","ios":"levelo://app?vid=99611980-7ab4-42e3-aa87-34549f7c9b24"},"vehicle_type_id":"4","last_reported":1745251934,"current_range_meters":14400,"station_id":"ce4bhih2rcd13ifvqfr0","pricing_plan_id":"cebpf4jnsgd1na2vs0mg"},{"bike_id":"6b2a43d1-dc0b-4407-ad9b-aedb90805600","system_id":"levelo_inurba_marseille","lat":43.27999,"lon":5.41664,"is_reserved":false,"is_disabled":false,"rental_uris":{"android":"levelo://app?vid=6b2a43d1-dc0b-4407-ad9b-aedb90805600","ios":"levelo://app?vid=6b2a43d1-dc0b-4407-ad9b-aedb90805600"},"vehicle_type_id":"4","last_reported":1745251934,"current_range_meters":14000,"station_id":"ce4bho12rcd13ifvqh1g","pricing_plan_id":"cebpf4jnsgd1na2vs0mg"},{"bike_id":"70cbf5df-50d2-43b3-b7fc-bd7f4e381436","system_id":"levelo_inurba_marseille","lat":43.28611,"lon":5.37066,"is_reserved":false,"is_disabled":false,"rental_uris":{"android":"levelo://app?vid=70cbf5df-50d2-43b3-b7fc-bd7f4e381436","ios":"levelo://app?vid=70cbf5df-50d2-43b3-b7fc-bd7f4e381436"},"vehicle_type_id":"4","last_reported":1745251934,"current_range_meters":14800,"station_id":"ce4bht12rcd13ifvqi60","pricing_plan_id":"cebpf4jnsgd1na2vs0mg"},{"bike_id":"344d5cd9-5711-4928-9eed-3187c590e627","system_id":"levelo_inurba_marseille","lat":43.26948,"lon":5.38653,"is_reserved":false,"is_disabled":false,"rental_uris":{"android":"levelo://app?vid=344d5cd9-5711-4928-9eed-3187c590e627","ios":"levelo://app?vid=344d5cd9-5711-4928-9eed-3187c590e627"},"vehicle_type_id":"4","last_reported":1745251934,"current_range_meters":14800,"station_id":"ce4bhh92rcd13ifvqfh0","pricing_plan_id":"cebpf4jnsgd1na2vs0mg"},{"bike_id":"6df0d9aa-51b1-48b2-a802-ee70b6117c2b","system_id":"levelo_inurba_marseille","lat":43.2407,"lon":5.37763,"is_reserved":false,"is_disabled":false,"rental_uris":{"android":"levelo://app?vid=6df0d9aa-51b1-48b2-a802-ee70b6117c2b","ios":"levelo://app?vid=6df0d9aa-51b1-48b2-a802-ee70b6117c2b"},"vehicle_type_id":"4","last_reported":1745251934,"current_range_meters":14800,"station_id":"ce4bhnp2rcd13ifvqgvg","pricing_plan_id":"cebpf4jnsgd1na2vs0mg"},{"bike_id":"fd867fcf-3185-48a3-98de-01103a7d1de6","system_id":"levelo_inurba_marseille","lat":43.33024,"lon":5.39051,"is_reserved":false,"is_disabled":false,"rental_uris":{"android":"levelo://app?vid=fd867fcf-3185-48a3-98de-01103a7d1de6","ios":"levelo://app?vid=fd867fcf-3185-48a3-98de-01103a7d1de6"},"vehicle_type_id":"4","last_reported":1745251934,"current_range_meters":14800,"station_id":"ce4bhr92rcd13ifvqhrg","pricing_plan_id":"cebpf4jnsgd1na2vs0mg"},{"bike_id":"2d73ec6c-209c-4aaa-8d1f-62414fefe66c","system_id":"levelo_inurba_marseille","lat":43.301219,"lon":5.387978,"is_reserved":false,"is_disabled":false,"rental_uris":{"android":"levelo://app?vid=2d73ec6c-209c-4aaa-8d1f-62414fefe66c","ios":"levelo://app?vid=2d73ec6c-209c-4aaa-8d1f-62414fefe66c"},"vehicle_type_id":"4","last_reported":1745251934,"current_range_meters":15200,"station_id":"ce4bghh2rcd13ifvqb60","pricing_plan_id":"cebpf4jnsgd1na2vs0mg"},{"bike_id":"605ee6cb-a6ca-4430-8d79-324cf01703d5","system_id":"levelo_inurba_marseille","lat":43.33026,"lon":5.39041,"is_reserved":false,"is_disabled":false,"rental_uris":{"android":"levelo://app?vid=605ee6cb-a6ca-4430-8d79-324cf01703d5","ios":"levelo://app?vid=605ee6cb-a6ca-4430-8d79-324cf01703d5"},"vehicle_type_id":"4","last_reported":1745251934,"current_range_meters":15200,"station_id":"ce4bhr92rcd13ifvqhrg","pricing_plan_id":"cebpf4jnsgd1na2vs0mg"},{"bike_id":"4032f117-3871-440d-a041-2d606036424c","system_id":"levelo_inurba_marseille","lat":43.24166,"lon":5.36389,"is_reserved":false,"is_disabled":false,"rental_uris":{"android":"levelo://app?vid=4032f117-3871-440d-a041-2d606036424c","ios":"levelo://app?vid=4032f117-3871-440d-a041-2d606036424c"},"vehicle_type_id":"4","last_reported":1745251934,"current_range_meters":16000,"station_id":"cpo36qri1sfpv3e86is0","pricing_plan_id":"cebpf4jnsgd1na2vs0mg"},{"bike_id":"5151fa4d-cd7f-42d0-9fa2-4b32526bb904","system_id":"levelo_inurba_marseille","lat":43.24183,"lon":5.39717,"is_reserved":false,"is_disabled":true,"rental_uris":{"android":"levelo://app?vid=5151fa4d-cd7f-42d0-9fa2-4b32526bb904","ios":"levelo://app?vid=5151fa4d-cd7f-42d0-9fa2-4b32526bb904"},"vehicle_type_id":"4","last_reported":1745251934,"current_range_meters":16000,"station_id":"ce4bhn12rcd13ifvqgpg","pricing_plan_id":"cebpf4jnsgd1na2vs0mg"},{"bike_id":"afca05cb-9dea-4e13-bae3-b0bd83251e29","system_id":"levelo_inurba_marseille","lat":43.21536,"lon":5.3477,"is_reserved":false,"is_disabled":false,"rental_uris":{"android":"levelo://app?vid=afca05cb-9dea-4e13-bae3-b0bd83251e29","ios":"levelo://app?vid=afca05cb-9dea-4e13-bae3-b0bd83251e29"},"vehicle_type_id":"4","last_reported":1745251934,"current_range_meters":16400,"station_id":"","pricing_plan_id":"cebpf4jnsgd1na2vs0mg"},{"bike_id":"f3bbad32-26cf-4121-a8fd-42c8e0cfb6aa","system_id":"levelo_inurba_marseille","lat":43.23184,"lon":5.35576,"is_reserved":false,"is_disabled":false,"rental_uris":{"android":"levelo://app?vid=f3bbad32-26cf-4121-a8fd-42c8e0cfb6aa","ios":"levelo://app?vid=f3bbad32-26cf-4121-a8fd-42c8e0cfb6aa"},"vehicle_type_id":"4","last_reported":1745251934,"current_range_meters":16400,"station_id":"ce4bhu92rcd13ifvqi70","pricing_plan_id":"cebpf4jnsgd1na2vs0mg"},{"bike_id":"1a20eb16-3988-428a-8183-add0250c2e3c","system_id":"levelo_inurba_marseille","lat":43.29715,"lon":5.36613,"is_reserved":false,"is_disabled":false,"rental_uris":{"android":"levelo://app?vid=1a20eb16-3988-428a-8183-add0250c2e3c","ios":"levelo://app?vid=1a20eb16-3988-428a-8183-add0250c2e3c"},"vehicle_type_id":"4","last_reported":1745251934,"current_range_meters":16000,"station_id":"ce4bgn12rcd13ifvqbt0","pricing_plan_id":"cebpf4jnsgd1na2vs0mg"},{"bike_id":"05474ace-20a4-4a2f-97bd-ad29c1b4f34e","system_id":"levelo_inurba_marseille","lat":43.29271,"lon":5.38433,"is_reserved":false,"is_disabled":false,"rental_uris":{"android":"levelo://app?vid=05474ace-20a4-4a2f-97bd-ad29c1b4f34e","ios":"levelo://app?vid=05474ace-20a4-4a2f-97bd-ad29c1b4f34e"},"vehicle_type_id":"4","last_reported":1745251934,"current_range_meters":16800,"station_id":"ce4bh692rcd13ifvqea0","pricing_plan_id":"cebpf4jnsgd1na2vs0mg"},{"bike_id":"0ffe5f77-3986-4a84-903c-e6bd5e590e9f","system_id":"levelo_inurba_marseille","lat":43.27911,"lon":5.38023,"is_reserved":false,"is_disabled":false,"rental_uris":{"android":"levelo://app?vid=0ffe5f77-3986-4a84-903c-e6bd5e590e9f","ios":"levelo://app?vid=0ffe5f77-3986-4a84-903c-e6bd5e590e9f"},"vehicle_type_id":"4","last_reported":1745251934,"current_range_meters":16400,"station_id":"ce4bhf92rcd13ifvqf50","pricing_plan_id":"cebpf4jnsgd1na2vs0mg"},{"bike_id":"217bc09c-9054-444f-b0a6-1a91698bbf60","system_id":"levelo_inurba_marseille","lat":43.26202,"lon":5.37426,"is_reserved":false,"is_disabled":true,"rental_uris":{"android":"levelo://app?vid=217bc09c-9054-444f-b0a6-1a91698bbf60","ios":"levelo://app?vid=217bc09c-9054-444f-b0a6-1a91698bbf60"},"vehicle_type_id":"4","last_reported":1745251934,"current_range_meters":16800,"station_id":"ce4bhgp2rcd13ifvqfc0","pricing_plan_id":"cebpf4jnsgd1na2vs0mg"},{"bike_id":"0494a63c-1c06-49f9-bfcf-1c95489e8088","system_id":"levelo_inurba_marseille","lat":43.29096,"lon":5.38146,"is_reserved":false,"is_disabled":false,"rental_uris":{"android":"levelo://app?vid=0494a63c-1c06-49f9-bfcf-1c95489e8088","ios":"levelo://app?vid=0494a63c-1c06-49f9-bfcf-1c95489e8088"},"vehicle_type_id":"4","last_reported":1745251934,"current_range_meters":16400,"station_id":"ce4bh512rcd13ifvqe2g","pricing_plan_id":"cebpf4jnsgd1na2vs0mg"},{"bike_id":"24755e52-8b08-4496-b318-3a48707dc7df","system_id":"levelo_inurba_marseille","lat":43.30141,"lon":5.38781,"is_reserved":false,"is_disabled":false,"rental_uris":{"android":"levelo://app?vid=24755e52-8b08-4496-b318-3a48707dc7df","ios":"levelo://app?vid=24755e52-8b08-4496-b318-3a48707dc7df"},"vehicle_type_id":"4","last_reported":1745251934,"current_range_meters":16800,"station_id":"ce4bghh2rcd13ifvqb60","pricing_plan_id":"cebpf4jnsgd1na2vs0mg"},{"bike_id":"b8b1352e-7f7f-4aaf-ab25-db211e7aa0eb","system_id":"levelo_inurba_marseille","lat":43.23966,"lon":5.36625,"is_reserved":false,"is_disabled":false,"rental_uris":{"android":"levelo://app?vid=b8b1352e-7f7f-4aaf-ab25-db211e7aa0eb","ios":"levelo://app?vid=b8b1352e-7f7f-4aaf-ab25-db211e7aa0eb"},"vehicle_type_id":"4","last_reported":1745251934,"current_range_meters":17200,"station_id":"ce4bhi12rcd13ifvqfp0","pricing_plan_id":"cebpf4jnsgd1na2vs0mg"},{"bike_id":"6b4282bc-9432-4c95-847b-7452cf13e716","system_id":"levelo_inurba_marseille","lat":43.28608,"lon":5.3704,"is_reserved":false,"is_disabled":true,"rental_uris":{"android":"levelo://app?vid=6b4282bc-9432-4c95-847b-7452cf13e716","ios":"levelo://app?vid=6b4282bc-9432-4c95-847b-7452cf13e716"},"vehicle_type_id":"4","last_reported":1745251934,"current_range_meters":17200,"station_id":"ce4bht12rcd13ifvqi60","pricing_plan_id":"cebpf4jnsgd1na2vs0mg"},{"bike_id":"2a35ab10-f416-439f-a4fa-784873cd587f","system_id":"levelo_inurba_marseille","lat":43.269513,"lon":5.386337,"is_reserved":false,"is_disabled":true,"rental_uris":{"android":"levelo://app?vid=2a35ab10-f416-439f-a4fa-784873cd587f","ios":"levelo://app?vid=2a35ab10-f416-439f-a4fa-784873cd587f"},"vehicle_type_id":"4","last_reported":1745251934,"current_range_meters":17200,"station_id":"ce4bhh92rcd13ifvqfh0","pricing_plan_id":"cebpf4jnsgd1na2vs0mg"},{"bike_id":"eef7f915-805a-4f8c-b33b-9abd138edce3","system_id":"levelo_inurba_marseille","lat":43.28444,"lon":5.39208,"is_reserved":false,"is_disabled":false,"rental_uris":{"android":"levelo://app?vid=eef7f915-805a-4f8c-b33b-9abd138edce3","ios":"levelo://app?vid=eef7f915-805a-4f8c-b33b-9abd138edce3"},"vehicle_type_id":"4","last_reported":1745251934,"current_range_meters":17200,"station_id":"ce4bhoh2rcd13ifvqh5g","pricing_plan_id":"cebpf4jnsgd1na2vs0mg"},{"bike_id":"b15d1584-8f27-4236-bfc2-8a8eab17cd0b","system_id":"levelo_inurba_marseille","lat":43.292374,"lon":5.380139,"is_reserved":false,"is_disabled":false,"rental_uris":{"android":"levelo://app?vid=b15d1584-8f27-4236-bfc2-8a8eab17cd0b","ios":"levelo://app?vid=b15d1584-8f27-4236-bfc2-8a8eab17cd0b"},"vehicle_type_id":"4","last_reported":1745251934,"current_range_meters":16800,"station_id":"ce4bh4p2rcd13ifvqe1g","pricing_plan_id":"cebpf4jnsgd1na2vs0mg"},{"bike_id":"c6b3c05b-0e38-4dbf-971b-f9ed1c355efb","system_id":"levelo_inurba_marseille","lat":43.23969,"lon":5.36627,"is_reserved":false,"is_disabled":false,"rental_uris":{"android":"levelo://app?vid=c6b3c05b-0e38-4dbf-971b-f9ed1c355efb","ios":"levelo://app?vid=c6b3c05b-0e38-4dbf-971b-f9ed1c355efb"},"vehicle_type_id":"4","last_reported":1745251934,"current_range_meters":17200,"station_id":"ce4bhi12rcd13ifvqfp0","pricing_plan_id":"cebpf4jnsgd1na2vs0mg"},{"bike_id":"137d6f7b-447f-4e55-b338-752dd215843c","system_id":"levelo_inurba_marseille","lat":43.27056,"lon":5.40362,"is_reserved":false,"is_disabled":false,"rental_uris":{"android":"levelo://app?vid=137d6f7b-447f-4e55-b338-752dd215843c","ios":"levelo://app?vid=137d6f7b-447f-4e55-b338-752dd215843c"},"vehicle_type_id":"4","last_reported":1745251934,"current_range_meters":17200,"station_id":"","pricing_plan_id":"cebpf4jnsgd1na2vs0mg"},{"bike_id":"563782a7-74ff-4de1-97df-3d9e75bd17fe","system_id":"levelo_inurba_marseille","lat":43.3014,"lon":5.39865,"is_reserved":false,"is_disabled":false,"rental_uris":{"android":"levelo://app?vid=563782a7-74ff-4de1-97df-3d9e75bd17fe","ios":"levelo://app?vid=563782a7-74ff-4de1-97df-3d9e75bd17fe"},"vehicle_type_id":"4","last_reported":1745251934,"current_range_meters":17600,"station_id":"ce4bh0h2rcd13ifvqd40","pricing_plan_id":"cebpf4jnsgd1na2vs0mg"},{"bike_id":"bf4e794e-0c4b-4fad-8aa3-5564eae09e6a","system_id":"levelo_inurba_marseille","lat":43.30737,"lon":5.42445,"is_reserved":false,"is_disabled":false,"rental_uris":{"android":"levelo://app?vid=bf4e794e-0c4b-4fad-8aa3-5564eae09e6a","ios":"levelo://app?vid=bf4e794e-0c4b-4fad-8aa3-5564eae09e6a"},"vehicle_type_id":"4","last_reported":1745251934,"current_range_meters":17600,"station_id":"st_cvj6ca6bvosntc0bfgr0","pricing_plan_id":"cebpf4jnsgd1na2vs0mg"},{"bike_id":"95afd635-6827-4b96-96e2-f038ee903fe3","system_id":"levelo_inurba_marseille","lat":43.26559,"lon":5.37286,"is_reserved":false,"is_disabled":true,"rental_uris":{"android":"levelo://app?vid=95afd635-6827-4b96-96e2-f038ee903fe3","ios":"levelo://app?vid=95afd635-6827-4b96-96e2-f038ee903fe3"},"vehicle_type_id":"4","last_reported":1745251934,"current_range_meters":18000,"station_id":"ce4bhg12rcd13ifvqf70","pricing_plan_id":"cebpf4jnsgd1na2vs0mg"},{"bike_id":"013b0bba-3a8e-4176-aec5-9b030be1a006","system_id":"levelo_inurba_marseille","lat":43.31731,"lon":5.37776,"is_reserved":false,"is_disabled":false,"rental_uris":{"android":"levelo://app?vid=013b0bba-3a8e-4176-aec5-9b030be1a006","ios":"levelo://app?vid=013b0bba-3a8e-4176-aec5-9b030be1a006"},"vehicle_type_id":"4","last_reported":1745251934,"current_range_meters":18000,"station_id":"ce4bgth2rcd13ifvqch0","pricing_plan_id":"cebpf4jnsgd1na2vs0mg"},{"bike_id":"7b2dc864-a4e9-468c-9cee-f3075a20977d","system_id":"levelo_inurba_marseille","lat":43.31212,"lon":5.3765,"is_reserved":false,"is_disabled":false,"rental_uris":{"android":"levelo://app?vid=7b2dc864-a4e9-468c-9cee-f3075a20977d","ios":"levelo://app?vid=7b2dc864-a4e9-468c-9cee-f3075a20977d"},"vehicle_type_id":"4","last_reported":1745251934,"current_range_meters":18000,"station_id":"","pricing_plan_id":"cebpf4jnsgd1na2vs0mg"},{"bike_id":"b8f79d4f-cf16-4d98-8d62-59d440af629f","system_id":"levelo_inurba_marseille","lat":43.21205,"lon":5.35054,"is_reserved":false,"is_disabled":false,"rental_uris":{"android":"levelo://app?vid=b8f79d4f-cf16-4d98-8d62-59d440af629f","ios":"levelo://app?vid=b8f79d4f-cf16-4d98-8d62-59d440af629f"},"vehicle_type_id":"4","last_reported":1745251934,"current_range_meters":18000,"station_id":"st_cvj6sg6p6f1abm77japg","pricing_plan_id":"cebpf4jnsgd1na2vs0mg"},{"bike_id":"676fadf4-e51f-41f6-8412-4ab1d020f569","system_id":"levelo_inurba_marseille","lat":43.3108,"lon":5.42428,"is_reserved":false,"is_disabled":false,"rental_uris":{"android":"levelo://app?vid=676fadf4-e51f-41f6-8412-4ab1d020f569","ios":"levelo://app?vid=676fadf4-e51f-41f6-8412-4ab1d020f569"},"vehicle_type_id":"4","last_reported":1745251934,"current_range_meters":18000,"station_id":"ce4bhp92rcd13ifvqhag","pricing_plan_id":"cebpf4jnsgd1na2vs0mg"},{"bike_id":"5783eed3-b201-4a2f-a4e2-2fbc9ac760ca","system_id":"levelo_inurba_marseille","lat":43.26934,"lon":5.38928,"is_reserved":false,"is_disabled":false,"rental_uris":{"android":"levelo://app?vid=5783eed3-b201-4a2f-a4e2-2fbc9ac760ca","ios":"levelo://app?vid=5783eed3-b201-4a2f-a4e2-2fbc9ac760ca"},"vehicle_type_id":"4","last_reported":1745251934,"current_range_meters":18000,"station_id":"ce4bhhh2rcd13ifvqfl0","pricing_plan_id":"cebpf4jnsgd1na2vs0mg"},{"bike_id":"e94e3d19-d8ed-4017-a26f-669cbe5090dc","system_id":"levelo_inurba_marseille","lat":43.28079,"lon":5.39656,"is_reserved":false,"is_disabled":false,"rental_uris":{"android":"levelo://app?vid=e94e3d19-d8ed-4017-a26f-669cbe5090dc","ios":"levelo://app?vid=e94e3d19-d8ed-4017-a26f-669cbe5090dc"},"vehicle_type_id":"4","last_reported":1745251934,"current_range_meters":17600,"station_id":"ce4bho12rcd13ifvqh2g","pricing_plan_id":"cebpf4jnsgd1na2vs0mg"},{"bike_id":"3b9280f2-077d-4826-ba75-044e5a32d719","system_id":"levelo_inurba_marseille","lat":43.24067,"lon":5.37764,"is_reserved":false,"is_disabled":false,"rental_uris":{"android":"levelo://app?vid=3b9280f2-077d-4826-ba75-044e5a32d719","ios":"levelo://app?vid=3b9280f2-077d-4826-ba75-044e5a32d719"},"vehicle_type_id":"4","last_reported":1745251934,"current_range_meters":18000,"station_id":"ce4bhnp2rcd13ifvqgvg","pricing_plan_id":"cebpf4jnsgd1na2vs0mg"},{"bike_id":"322cb3bd-1b2c-4ec8-9cd5-563729b64d42","system_id":"levelo_inurba_marseille","lat":43.24076,"lon":5.37755,"is_reserved":false,"is_disabled":false,"rental_uris":{"android":"levelo://app?vid=322cb3bd-1b2c-4ec8-9cd5-563729b64d42","ios":"levelo://app?vid=322cb3bd-1b2c-4ec8-9cd5-563729b64d42"},"vehicle_type_id":"4","last_reported":1745251934,"current_range_meters":18800,"station_id":"ce4bhnp2rcd13ifvqgvg","pricing_plan_id":"cebpf4jnsgd1na2vs0mg"},{"bike_id":"3c9b5a77-3b4d-4072-b2b5-c8860e6f4326","system_id":"levelo_inurba_marseille","lat":43.289276,"lon":5.357691,"is_reserved":false,"is_disabled":false,"rental_uris":{"android":"levelo://app?vid=3c9b5a77-3b4d-4072-b2b5-c8860e6f4326","ios":"levelo://app?vid=3c9b5a77-3b4d-4072-b2b5-c8860e6f4326"},"vehicle_type_id":"4","last_reported":1745251934,"current_range_meters":18800,"station_id":"ce4bhb92rcd13ifvqen0","pricing_plan_id":"cebpf4jnsgd1na2vs0mg"},{"bike_id":"b3028731-5f26-4acd-887d-1f2b7ee06257","system_id":"levelo_inurba_marseille","lat":43.29714,"lon":5.36604,"is_reserved":false,"is_disabled":false,"rental_uris":{"android":"levelo://app?vid=b3028731-5f26-4acd-887d-1f2b7ee06257","ios":"levelo://app?vid=b3028731-5f26-4acd-887d-1f2b7ee06257"},"vehicle_type_id":"4","last_reported":1745251934,"current_range_meters":18800,"station_id":"ce4bgn12rcd13ifvqbt0","pricing_plan_id":"cebpf4jnsgd1na2vs0mg"},{"bike_id":"f84d4bee-360a-492e-80c1-289ced59b8c7","system_id":"levelo_inurba_marseille","lat":43.28653,"lon":5.36377,"is_reserved":false,"is_disabled":false,"rental_uris":{"android":"levelo://app?vid=f84d4bee-360a-492e-80c1-289ced59b8c7","ios":"levelo://app?vid=f84d4bee-360a-492e-80c1-289ced59b8c7"},"vehicle_type_id":"4","last_reported":1745251934,"current_range_meters":18800,"station_id":"ce4bhah2rcd13ifvqej0","pricing_plan_id":"cebpf4jnsgd1na2vs0mg"},{"bike_id":"de9704f9-bc65-4f5a-9c6b-e4c83851fc93","system_id":"levelo_inurba_marseille","lat":43.21755,"lon":5.34595,"is_reserved":false,"is_disabled":true,"rental_uris":{"android":"levelo://app?vid=de9704f9-bc65-4f5a-9c6b-e4c83851fc93","ios":"levelo://app?vid=de9704f9-bc65-4f5a-9c6b-e4c83851fc93"},"vehicle_type_id":"4","last_reported":1745251934,"current_range_meters":18800,"station_id":"","pricing_plan_id":"cebpf4jnsgd1na2vs0mg"},{"bike_id":"3235063b-10c4-4027-9b3d-95282e0612bf","system_id":"levelo_inurba_marseille","lat":43.29097,"lon":5.38146,"is_reserved":false,"is_disabled":false,"rental_uris":{"android":"levelo://app?vid=3235063b-10c4-4027-9b3d-95282e0612bf","ios":"levelo://app?vid=3235063b-10c4-4027-9b3d-95282e0612bf"},"vehicle_type_id":"4","last_reported":1745251934,"current_range_meters":18800,"station_id":"ce4bh512rcd13ifvqe2g","pricing_plan_id":"cebpf4jnsgd1na2vs0mg"},{"bike_id":"1f1f9885-6e62-4243-a5b0-45be9ddf4073","system_id":"levelo_inurba_marseille","lat":43.23961,"lon":5.36624,"is_reserved":false,"is_disabled":true,"rental_uris":{"android":"levelo://app?vid=1f1f9885-6e62-4243-a5b0-45be9ddf4073","ios":"levelo://app?vid=1f1f9885-6e62-4243-a5b0-45be9ddf4073"},"vehicle_type_id":"4","last_reported":1745251934,"current_range_meters":18800,"station_id":"ce4bhi12rcd13ifvqfp0","pricing_plan_id":"cebpf4jnsgd1na2vs0mg"},{"bike_id":"d48519bf-3ddb-4321-a35b-109f5d263172","system_id":"levelo_inurba_marseille","lat":43.28711,"lon":5.3793,"is_reserved":false,"is_disabled":false,"rental_uris":{"android":"levelo://app?vid=d48519bf-3ddb-4321-a35b-109f5d263172","ios":"levelo://app?vid=d48519bf-3ddb-4321-a35b-109f5d263172"},"vehicle_type_id":"4","last_reported":1745251934,"current_range_meters":18000,"station_id":"ce4bh9p2rcd13ifvqec0","pricing_plan_id":"cebpf4jnsgd1na2vs0mg"},{"bike_id":"e342358f-1e11-482d-ba1d-d6ec289be346","system_id":"levelo_inurba_marseille","lat":43.27072,"lon":5.42276,"is_reserved":false,"is_disabled":false,"rental_uris":{"android":"levelo://app?vid=e342358f-1e11-482d-ba1d-d6ec289be346","ios":"levelo://app?vid=e342358f-1e11-482d-ba1d-d6ec289be346"},"vehicle_type_id":"4","last_reported":1745251934,"current_range_meters":18800,"station_id":"ce4bhk92rcd13ifvqgb0","pricing_plan_id":"cebpf4jnsgd1na2vs0mg"},{"bike_id":"70d52410-058c-4e0d-83d9-ea6109b97ca7","system_id":"levelo_inurba_marseille","lat":43.28493,"lon":5.38559,"is_reserved":false,"is_disabled":false,"rental_uris":{"android":"levelo://app?vid=70d52410-058c-4e0d-83d9-ea6109b97ca7","ios":"levelo://app?vid=70d52410-058c-4e0d-83d9-ea6109b97ca7"},"vehicle_type_id":"4","last_reported":1745251934,"current_range_meters":19200,"station_id":"ce4bh8p2rcd13ifvqeb0","pricing_plan_id":"cebpf4jnsgd1na2vs0mg"},{"bike_id":"d072aa87-2e92-4b2c-9849-3a044b3110a4","system_id":"levelo_inurba_marseille","lat":43.30428,"lon":5.38891,"is_reserved":false,"is_disabled":false,"rental_uris":{"android":"levelo://app?vid=d072aa87-2e92-4b2c-9849-3a044b3110a4","ios":"levelo://app?vid=d072aa87-2e92-4b2c-9849-3a044b3110a4"},"vehicle_type_id":"4","last_reported":1745251934,"current_range_meters":19200,"station_id":"ce4bgk12rcd13ifvqbi0","pricing_plan_id":"cebpf4jnsgd1na2vs0mg"},{"bike_id":"a0810590-6b60-4e1a-8bb9-1c5b3e4d3960","system_id":"levelo_inurba_marseille","lat":43.24164,"lon":5.36397,"is_reserved":false,"is_disabled":false,"rental_uris":{"android":"levelo://app?vid=a0810590-6b60-4e1a-8bb9-1c5b3e4d3960","ios":"levelo://app?vid=a0810590-6b60-4e1a-8bb9-1c5b3e4d3960"},"vehicle_type_id":"4","last_reported":1745251934,"current_range_meters":19200,"station_id":"cpo36qri1sfpv3e86is0","pricing_plan_id":"cebpf4jnsgd1na2vs0mg"},{"bike_id":"c7ff5824-f2a5-465b-826a-33272c34f052","system_id":"levelo_inurba_marseille","lat":43.28953,"lon":5.36406,"is_reserved":false,"is_disabled":false,"rental_uris":{"android":"levelo://app?vid=c7ff5824-f2a5-465b-826a-33272c34f052","ios":"levelo://app?vid=c7ff5824-f2a5-465b-826a-33272c34f052"},"vehicle_type_id":"4","last_reported":1745251934,"current_range_meters":19600,"station_id":"ce4bhc92rcd13ifvqetg","pricing_plan_id":"cebpf4jnsgd1na2vs0mg"},{"bike_id":"ee4069b8-2a8d-4828-86ca-fe5807129a5c","system_id":"levelo_inurba_marseille","lat":43.2657,"lon":5.39001,"is_reserved":false,"is_disabled":false,"rental_uris":{"android":"levelo://app?vid=ee4069b8-2a8d-4828-86ca-fe5807129a5c","ios":"levelo://app?vid=ee4069b8-2a8d-4828-86ca-fe5807129a5c"},"vehicle_type_id":"4","last_reported":1745251934,"current_range_meters":19600,"station_id":"ce4bhe12rcd13ifvqf30","pricing_plan_id":"cebpf4jnsgd1na2vs0mg"},{"bike_id":"50459500-45eb-4220-a1ac-a13eb14a447f","system_id":"levelo_inurba_marseille","lat":43.26956,"lon":5.38642,"is_reserved":false,"is_disabled":false,"rental_uris":{"android":"levelo://app?vid=50459500-45eb-4220-a1ac-a13eb14a447f","ios":"levelo://app?vid=50459500-45eb-4220-a1ac-a13eb14a447f"},"vehicle_type_id":"4","last_reported":1745251934,"current_range_meters":19200,"station_id":"ce4bhh92rcd13ifvqfh0","pricing_plan_id":"cebpf4jnsgd1na2vs0mg"},{"bike_id":"92c093ab-47d0-4aa5-af16-f51ae4cb5187","system_id":"levelo_inurba_marseille","lat":43.3095,"lon":5.39033,"is_reserved":false,"is_disabled":false,"rental_uris":{"android":"levelo://app?vid=92c093ab-47d0-4aa5-af16-f51ae4cb5187","ios":"levelo://app?vid=92c093ab-47d0-4aa5-af16-f51ae4cb5187"},"vehicle_type_id":"4","last_reported":1745251934,"current_range_meters":19200,"station_id":"ce4bgup2rcd13ifvqco0","pricing_plan_id":"cebpf4jnsgd1na2vs0mg"},{"bike_id":"9a079318-83d3-462a-a96c-777fcd93d64e","system_id":"levelo_inurba_marseille","lat":43.27571,"lon":5.38417,"is_reserved":false,"is_disabled":false,"rental_uris":{"android":"levelo://app?vid=9a079318-83d3-462a-a96c-777fcd93d64e","ios":"levelo://app?vid=9a079318-83d3-462a-a96c-777fcd93d64e"},"vehicle_type_id":"4","last_reported":1745251934,"current_range_meters":20000,"station_id":"ce4bhh92rcd13ifvqfi0","pricing_plan_id":"cebpf4jnsgd1na2vs0mg"},{"bike_id":"764c074c-8896-449d-9a2c-fbe2d65a4f96","system_id":"levelo_inurba_marseille","lat":43.28968,"lon":5.37843,"is_reserved":false,"is_disabled":false,"rental_uris":{"android":"levelo://app?vid=764c074c-8896-449d-9a2c-fbe2d65a4f96","ios":"levelo://app?vid=764c074c-8896-449d-9a2c-fbe2d65a4f96"},"vehicle_type_id":"4","last_reported":1745251934,"current_range_meters":19600,"station_id":"ce4bh9p2rcd13ifvqed0","pricing_plan_id":"cebpf4jnsgd1na2vs0mg"},{"bike_id":"d834402e-31c7-4911-91d9-f360e6ab1cd2","system_id":"levelo_inurba_marseille","lat":43.30549,"lon":5.36564,"is_reserved":false,"is_disabled":false,"rental_uris":{"android":"levelo://app?vid=d834402e-31c7-4911-91d9-f360e6ab1cd2","ios":"levelo://app?vid=d834402e-31c7-4911-91d9-f360e6ab1cd2"},"vehicle_type_id":"4","last_reported":1745251934,"current_range_meters":20000,"station_id":"ce4bgs12rcd13ifvqcag","pricing_plan_id":"cebpf4jnsgd1na2vs0mg"},{"bike_id":"6617f0c4-fe11-4cf0-9920-87e6ae9fd754","system_id":"levelo_inurba_marseille","lat":43.23958,"lon":5.36663,"is_reserved":false,"is_disabled":false,"rental_uris":{"android":"levelo://app?vid=6617f0c4-fe11-4cf0-9920-87e6ae9fd754","ios":"levelo://app?vid=6617f0c4-fe11-4cf0-9920-87e6ae9fd754"},"vehicle_type_id":"4","last_reported":1745251934,"current_range_meters":20000,"station_id":"ce4bhi12rcd13ifvqfp0","pricing_plan_id":"cebpf4jnsgd1na2vs0mg"},{"bike_id":"5e0a80cf-eda4-42f4-bc95-d96aa406491a","system_id":"levelo_inurba_marseille","lat":43.28477,"lon":5.38411,"is_reserved":false,"is_disabled":false,"rental_uris":{"android":"levelo://app?vid=5e0a80cf-eda4-42f4-bc95-d96aa406491a","ios":"levelo://app?vid=5e0a80cf-eda4-42f4-bc95-d96aa406491a"},"vehicle_type_id":"4","last_reported":1745251934,"current_range_meters":20400,"station_id":"ce4bh512rcd13ifvqe3g","pricing_plan_id":"cebpf4jnsgd1na2vs0mg"},{"bike_id":"b2ba4c86-b9df-4347-bc29-ed77d770aaed","system_id":"levelo_inurba_marseille","lat":43.302079,"lon":5.39467,"is_reserved":false,"is_disabled":false,"rental_uris":{"android":"levelo://app?vid=b2ba4c86-b9df-4347-bc29-ed77d770aaed","ios":"levelo://app?vid=b2ba4c86-b9df-4347-bc29-ed77d770aaed"},"vehicle_type_id":"4","last_reported":1745251934,"current_range_meters":20400,"station_id":"ce4bh0p2rcd13ifvqd70","pricing_plan_id":"cebpf4jnsgd1na2vs0mg"},{"bike_id":"7b027666-154c-41bf-99ae-5a960512567e","system_id":"levelo_inurba_marseille","lat":43.28452,"lon":5.39199,"is_reserved":false,"is_disabled":false,"rental_uris":{"android":"levelo://app?vid=7b027666-154c-41bf-99ae-5a960512567e","ios":"levelo://app?vid=7b027666-154c-41bf-99ae-5a960512567e"},"vehicle_type_id":"4","last_reported":1745251934,"current_range_meters":20000,"station_id":"ce4bhoh2rcd13ifvqh5g","pricing_plan_id":"cebpf4jnsgd1na2vs0mg"},{"bike_id":"a924e715-dd61-4579-855b-16a7417f2413","system_id":"levelo_inurba_marseille","lat":43.29842,"lon":5.362732,"is_reserved":false,"is_disabled":false,"rental_uris":{"android":"levelo://app?vid=a924e715-dd61-4579-855b-16a7417f2413","ios":"levelo://app?vid=a924e715-dd61-4579-855b-16a7417f2413"},"vehicle_type_id":"4","last_reported":1745251934,"current_range_meters":20000,"station_id":"ce4bgpp2rcd13ifvqc3g","pricing_plan_id":"cebpf4jnsgd1na2vs0mg"},{"bike_id":"25f1d7d3-0f5f-4f78-9927-948d7e2cc40a","system_id":"levelo_inurba_marseille","lat":43.231562,"lon":5.437038,"is_reserved":false,"is_disabled":false,"rental_uris":{"android":"levelo://app?vid=25f1d7d3-0f5f-4f78-9927-948d7e2cc40a","ios":"levelo://app?vid=25f1d7d3-0f5f-4f78-9927-948d7e2cc40a"},"vehicle_type_id":"4","last_reported":1745251934,"current_range_meters":20400,"station_id":"ce4bhmp2rcd13ifvqgog","pricing_plan_id":"cebpf4jnsgd1na2vs0mg"},{"bike_id":"f510c476-1091-4524-9675-012f8ecf0439","system_id":"levelo_inurba_marseille","lat":43.28449,"lon":5.39168,"is_reserved":false,"is_disabled":false,"rental_uris":{"android":"levelo://app?vid=f510c476-1091-4524-9675-012f8ecf0439","ios":"levelo://app?vid=f510c476-1091-4524-9675-012f8ecf0439"},"vehicle_type_id":"4","last_reported":1745251934,"current_range_meters":20400,"station_id":"ce4bhoh2rcd13ifvqh5g","pricing_plan_id":"cebpf4jnsgd1na2vs0mg"},{"bike_id":"ba6be233-dee9-4826-9d5e-83dbb8ea701f","system_id":"levelo_inurba_marseille","lat":43.25948,"lon":5.40916,"is_reserved":false,"is_disabled":false,"rental_uris":{"android":"levelo://app?vid=ba6be233-dee9-4826-9d5e-83dbb8ea701f","ios":"levelo://app?vid=ba6be233-dee9-4826-9d5e-83dbb8ea701f"},"vehicle_type_id":"4","last_reported":1745251934,"current_range_meters":20400,"station_id":"ce4bhm92rcd13ifvqglg","pricing_plan_id":"cebpf4jnsgd1na2vs0mg"},{"bike_id":"126d8d26-a702-4118-9fca-91b2420852f2","system_id":"levelo_inurba_marseille","lat":43.28458,"lon":5.35903,"is_reserved":false,"is_disabled":false,"rental_uris":{"android":"levelo://app?vid=126d8d26-a702-4118-9fca-91b2420852f2","ios":"levelo://app?vid=126d8d26-a702-4118-9fca-91b2420852f2"},"vehicle_type_id":"4","last_reported":1745251934,"current_range_meters":20400,"station_id":"ce4bhah2rcd13ifvqei0","pricing_plan_id":"cebpf4jnsgd1na2vs0mg"},{"bike_id":"53f09305-07f8-48a1-8ce1-f5f9da43ac0b","system_id":"levelo_inurba_marseille","lat":43.29419,"lon":5.38629,"is_reserved":false,"is_disabled":false,"rental_uris":{"android":"levelo://app?vid=53f09305-07f8-48a1-8ce1-f5f9da43ac0b","ios":"levelo://app?vid=53f09305-07f8-48a1-8ce1-f5f9da43ac0b"},"vehicle_type_id":"4","last_reported":1745251934,"current_range_meters":20000,"station_id":"ce4bh2h2rcd13ifvqdh0","pricing_plan_id":"cebpf4jnsgd1na2vs0mg"},{"bike_id":"4e2e8443-ecd0-4cbc-8679-487d1b84e1eb","system_id":"levelo_inurba_marseille","lat":43.281922,"lon":5.386031,"is_reserved":false,"is_disabled":false,"rental_uris":{"android":"levelo://app?vid=4e2e8443-ecd0-4cbc-8679-487d1b84e1eb","ios":"levelo://app?vid=4e2e8443-ecd0-4cbc-8679-487d1b84e1eb"},"vehicle_type_id":"4","last_reported":1745251934,"current_range_meters":20800,"station_id":"ce4bh512rcd13ifvqe3g","pricing_plan_id":"cebpf4jnsgd1na2vs0mg"},{"bike_id":"5a15610c-5d2f-4ffa-a56e-0360a80dc105","system_id":"levelo_inurba_marseille","lat":43.295385,"lon":5.38546,"is_reserved":false,"is_disabled":false,"rental_uris":{"android":"levelo://app?vid=5a15610c-5d2f-4ffa-a56e-0360a80dc105","ios":"levelo://app?vid=5a15610c-5d2f-4ffa-a56e-0360a80dc105"},"vehicle_type_id":"4","last_reported":1745251934,"current_range_meters":21600,"station_id":"ce4bgih2rcd13ifvqba0","pricing_plan_id":"cebpf4jnsgd1na2vs0mg"},{"bike_id":"9b43a457-68f6-4f94-9e95-a54b54b653d0","system_id":"levelo_inurba_marseille","lat":43.337444,"lon":5.374475,"is_reserved":false,"is_disabled":false,"rental_uris":{"android":"levelo://app?vid=9b43a457-68f6-4f94-9e95-a54b54b653d0","ios":"levelo://app?vid=9b43a457-68f6-4f94-9e95-a54b54b653d0"},"vehicle_type_id":"4","last_reported":1745251934,"current_range_meters":21600,"station_id":"","pricing_plan_id":"cebpf4jnsgd1na2vs0mg"},{"bike_id":"e2fe22f3-7eba-4aad-8524-cee8123cedfe","system_id":"levelo_inurba_marseille","lat":43.23194,"lon":5.35554,"is_reserved":false,"is_disabled":false,"rental_uris":{"android":"levelo://app?vid=e2fe22f3-7eba-4aad-8524-cee8123cedfe","ios":"levelo://app?vid=e2fe22f3-7eba-4aad-8524-cee8123cedfe"},"vehicle_type_id":"4","last_reported":1745251934,"current_range_meters":22000,"station_id":"","pricing_plan_id":"cebpf4jnsgd1na2vs0mg"},{"bike_id":"e4183012-f0e9-4e1e-a1db-b30b52695c84","system_id":"levelo_inurba_marseille","lat":43.33612,"lon":5.41031,"is_reserved":false,"is_disabled":false,"rental_uris":{"android":"levelo://app?vid=e4183012-f0e9-4e1e-a1db-b30b52695c84","ios":"levelo://app?vid=e4183012-f0e9-4e1e-a1db-b30b52695c84"},"vehicle_type_id":"4","last_reported":1745251934,"current_range_meters":21600,"station_id":"ce4bhqh2rcd13ifvqhmg","pricing_plan_id":"cebpf4jnsgd1na2vs0mg"},{"bike_id":"1a5d0e66-0b35-4d4d-840a-8075fa774d76","system_id":"levelo_inurba_marseille","lat":43.29896,"lon":5.43666,"is_reserved":false,"is_disabled":false,"rental_uris":{"android":"levelo://app?vid=1a5d0e66-0b35-4d4d-840a-8075fa774d76","ios":"levelo://app?vid=1a5d0e66-0b35-4d4d-840a-8075fa774d76"},"vehicle_type_id":"4","last_reported":1745251934,"current_range_meters":21600,"station_id":"ce4bhpp2rcd13ifvqhfg","pricing_plan_id":"cebpf4jnsgd1na2vs0mg"},{"bike_id":"584387b4-187d-4f80-b338-fcdc107989ef","system_id":"levelo_inurba_marseille","lat":43.24738,"lon":5.41171,"is_reserved":false,"is_disabled":false,"rental_uris":{"android":"levelo://app?vid=584387b4-187d-4f80-b338-fcdc107989ef","ios":"levelo://app?vid=584387b4-187d-4f80-b338-fcdc107989ef"},"vehicle_type_id":"4","last_reported":1745251934,"current_range_meters":22000,"station_id":"","pricing_plan_id":"cebpf4jnsgd1na2vs0mg"},{"bike_id":"dda40660-0ab5-4418-b648-5e028c0db35e","system_id":"levelo_inurba_marseille","lat":43.286865,"lon":5.373977,"is_reserved":false,"is_disabled":false,"rental_uris":{"android":"levelo://app?vid=dda40660-0ab5-4418-b648-5e028c0db35e","ios":"levelo://app?vid=dda40660-0ab5-4418-b648-5e028c0db35e"},"vehicle_type_id":"4","last_reported":1745251934,"current_range_meters":22400,"station_id":"ce4bh3p2rcd13ifvqdq0","pricing_plan_id":"cebpf4jnsgd1na2vs0mg"},{"bike_id":"84bd0c16-9a8b-4c5d-8606-394353a15062","system_id":"levelo_inurba_marseille","lat":43.24169,"lon":5.36395,"is_reserved":false,"is_disabled":false,"rental_uris":{"android":"levelo://app?vid=84bd0c16-9a8b-4c5d-8606-394353a15062","ios":"levelo://app?vid=84bd0c16-9a8b-4c5d-8606-394353a15062"},"vehicle_type_id":"4","last_reported":1745251934,"current_range_meters":22400,"station_id":"cpo36qri1sfpv3e86is0","pricing_plan_id":"cebpf4jnsgd1na2vs0mg"},{"bike_id":"40300d27-a339-48c1-91c6-68c01d733ec4","system_id":"levelo_inurba_marseille","lat":43.28353,"lon":5.38108,"is_reserved":false,"is_disabled":false,"rental_uris":{"android":"levelo://app?vid=40300d27-a339-48c1-91c6-68c01d733ec4","ios":"levelo://app?vid=40300d27-a339-48c1-91c6-68c01d733ec4"},"vehicle_type_id":"4","last_reported":1745251934,"current_range_meters":22400,"station_id":"ce4bh412rcd13ifvqdr0","pricing_plan_id":"cebpf4jnsgd1na2vs0mg"},{"bike_id":"d2892246-5e91-4489-ba70-410adc2d1873","system_id":"levelo_inurba_marseille","lat":43.330228,"lon":5.390136,"is_reserved":false,"is_disabled":false,"rental_uris":{"android":"levelo://app?vid=d2892246-5e91-4489-ba70-410adc2d1873","ios":"levelo://app?vid=d2892246-5e91-4489-ba70-410adc2d1873"},"vehicle_type_id":"4","last_reported":1745251934,"current_range_meters":22000,"station_id":"ce4bhr92rcd13ifvqhrg","pricing_plan_id":"cebpf4jnsgd1na2vs0mg"},{"bike_id":"1b903b38-38de-4714-9a2c-59836acfa168","system_id":"levelo_inurba_marseille","lat":43.31724,"lon":5.43689,"is_reserved":false,"is_disabled":true,"rental_uris":{"android":"levelo://app?vid=1b903b38-38de-4714-9a2c-59836acfa168","ios":"levelo://app?vid=1b903b38-38de-4714-9a2c-59836acfa168"},"vehicle_type_id":"4","last_reported":1745251934,"current_range_meters":22400,"station_id":"ce4bhp92rcd13ifvqhcg","pricing_plan_id":"cebpf4jnsgd1na2vs0mg"},{"bike_id":"943219a1-25b8-477e-bc8f-fd9a0c56e2f0","system_id":"levelo_inurba_marseille","lat":43.30212,"lon":5.39471,"is_reserved":false,"is_disabled":false,"rental_uris":{"android":"levelo://app?vid=943219a1-25b8-477e-bc8f-fd9a0c56e2f0","ios":"levelo://app?vid=943219a1-25b8-477e-bc8f-fd9a0c56e2f0"},"vehicle_type_id":"4","last_reported":1745251934,"current_range_meters":22400,"station_id":"ce4bh0p2rcd13ifvqd70","pricing_plan_id":"cebpf4jnsgd1na2vs0mg"},{"bike_id":"37d4f7bd-8f4e-4340-b5ba-bb29537f8f89","system_id":"levelo_inurba_marseille","lat":43.29263,"lon":5.40911,"is_reserved":false,"is_disabled":false,"rental_uris":{"android":"levelo://app?vid=37d4f7bd-8f4e-4340-b5ba-bb29537f8f89","ios":"levelo://app?vid=37d4f7bd-8f4e-4340-b5ba-bb29537f8f89"},"vehicle_type_id":"4","last_reported":1745251934,"current_range_meters":22800,"station_id":"ce4bh192rcd13ifvqdc0","pricing_plan_id":"cebpf4jnsgd1na2vs0mg"},{"bike_id":"4ed7f25c-6929-4a4a-b8c8-314ad673312b","system_id":"levelo_inurba_marseille","lat":43.2861,"lon":5.37061,"is_reserved":false,"is_disabled":false,"rental_uris":{"android":"levelo://app?vid=4ed7f25c-6929-4a4a-b8c8-314ad673312b","ios":"levelo://app?vid=4ed7f25c-6929-4a4a-b8c8-314ad673312b"},"vehicle_type_id":"4","last_reported":1745251934,"current_range_meters":22800,"station_id":"ce4bht12rcd13ifvqi60","pricing_plan_id":"cebpf4jnsgd1na2vs0mg"},{"bike_id":"40436ae7-57f2-44f9-b7c9-74f121560bba","system_id":"levelo_inurba_marseille","lat":43.30118,"lon":5.39874,"is_reserved":false,"is_disabled":false,"rental_uris":{"android":"levelo://app?vid=40436ae7-57f2-44f9-b7c9-74f121560bba","ios":"levelo://app?vid=40436ae7-57f2-44f9-b7c9-74f121560bba"},"vehicle_type_id":"4","last_reported":1745251934,"current_range_meters":22400,"station_id":"ce4bh0h2rcd13ifvqd40","pricing_plan_id":"cebpf4jnsgd1na2vs0mg"},{"bike_id":"6db667fb-cd0f-4be3-adc6-2e292cfb4417","system_id":"levelo_inurba_marseille","lat":43.27845,"lon":5.39199,"is_reserved":false,"is_disabled":false,"rental_uris":{"android":"levelo://app?vid=6db667fb-cd0f-4be3-adc6-2e292cfb4417","ios":"levelo://app?vid=6db667fb-cd0f-4be3-adc6-2e292cfb4417"},"vehicle_type_id":"4","last_reported":1745251934,"current_range_meters":22800,"station_id":"ce4bhjp2rcd13ifvqga0","pricing_plan_id":"cebpf4jnsgd1na2vs0mg"},{"bike_id":"28f798a3-56f2-4fbf-b12d-c540c66dbab9","system_id":"levelo_inurba_marseille","lat":43.254923,"lon":5.37641,"is_reserved":false,"is_disabled":false,"rental_uris":{"android":"levelo://app?vid=28f798a3-56f2-4fbf-b12d-c540c66dbab9","ios":"levelo://app?vid=28f798a3-56f2-4fbf-b12d-c540c66dbab9"},"vehicle_type_id":"4","last_reported":1745251934,"current_range_meters":22800,"station_id":"ce4bhh12rcd13ifvqff0","pricing_plan_id":"cebpf4jnsgd1na2vs0mg"},{"bike_id":"22674799-dbca-4ecb-befe-ebe8fc938b22","system_id":"levelo_inurba_marseille","lat":43.29582,"lon":5.36733,"is_reserved":false,"is_disabled":false,"rental_uris":{"android":"levelo://app?vid=22674799-dbca-4ecb-befe-ebe8fc938b22","ios":"levelo://app?vid=22674799-dbca-4ecb-befe-ebe8fc938b22"},"vehicle_type_id":"4","last_reported":1745251934,"current_range_meters":22800,"station_id":"ce4bgph2rcd13ifvqc2g","pricing_plan_id":"cebpf4jnsgd1na2vs0mg"},{"bike_id":"3a0f0681-6139-4387-b4fc-e224451379d0","system_id":"levelo_inurba_marseille","lat":43.28967,"lon":5.37838,"is_reserved":false,"is_disabled":false,"rental_uris":{"android":"levelo://app?vid=3a0f0681-6139-4387-b4fc-e224451379d0","ios":"levelo://app?vid=3a0f0681-6139-4387-b4fc-e224451379d0"},"vehicle_type_id":"4","last_reported":1745251934,"current_range_meters":22800,"station_id":"ce4bh9p2rcd13ifvqed0","pricing_plan_id":"cebpf4jnsgd1na2vs0mg"},{"bike_id":"3d26cb04-8ca5-447c-8a5e-a635fb5c958e","system_id":"levelo_inurba_marseille","lat":43.29419,"lon":5.38614,"is_reserved":false,"is_disabled":false,"rental_uris":{"android":"levelo://app?vid=3d26cb04-8ca5-447c-8a5e-a635fb5c958e","ios":"levelo://app?vid=3d26cb04-8ca5-447c-8a5e-a635fb5c958e"},"vehicle_type_id":"4","last_reported":1745251934,"current_range_meters":22800,"station_id":"ce4bh2h2rcd13ifvqdh0","pricing_plan_id":"cebpf4jnsgd1na2vs0mg"},{"bike_id":"7a983da2-5776-4e19-bedc-e32cbd9304b5","system_id":"levelo_inurba_marseille","lat":43.33726,"lon":5.39179,"is_reserved":false,"is_disabled":false,"rental_uris":{"android":"levelo://app?vid=7a983da2-5776-4e19-bedc-e32cbd9304b5","ios":"levelo://app?vid=7a983da2-5776-4e19-bedc-e32cbd9304b5"},"vehicle_type_id":"4","last_reported":1745251934,"current_range_meters":22800,"station_id":"ce4bhr92rcd13ifvqhsg","pricing_plan_id":"cebpf4jnsgd1na2vs0mg"},