{"last_updated":1736252286,"ttl":60,"version":"2.2","data":{"bikes":[{"bike_id":"093f69f9-727d-48b5-968f-404ba57b766a","system_id":"levelo_inurba_marseille","lat":43.26049,"lon":5.39417,"is_reserved":false,"is_disabled":false,"rental_uris":{"android":"levelo://app?vid=093f69f9-727d-48b5-968f-404ba57b766a","ios":"levelo://app?vid=093f69f9-727d-48b5-968f-404ba57b766a"},"vehicle_type_id":"4","last_reported":1736252286,"current_range_meters":38400,"station_id":"ce4bhh92rcd13ifvqfj0","pricing_plan_id":"cebpf4jnsgd1na2vs0mg"},{"bike_id":"2caa5eda-a0f4-469f-83a1-d19a865bce28","system_id":"levelo_inurba_marseille","lat":43.27807,"lon":5.40715,"is_reserved":false,"is_disabled":false,"rental_uris":{"android":"levelo://app?vid=2caa5eda-a0f4-469f-83a1-d19a865bce28","ios":"levelo://app?vid=2caa5eda-a0f4-469f-83a1-d19a865bce28"},"vehicle_type_id":"4","last_reported":1736252286,"current_range_meters":30000,"station_id":"ce4bhnh2rcd13ifvqgtg","pricing_plan_id":"cebpf4jnsgd1na2vs0mg"},{"bike_id":"7ba4c884-2121-4f31-bb7f-f9907eecd701","system_id":"levelo_inurba_marseille","lat":43.28037,"lon":5.36947,"is_reserved":false,"is_disabled":false,"rental_uris":{"android":"levelo://app?vid=7ba4c884-2121-4f31-bb7f-f9907eecd701","ios":"levelo://app?vid=7ba4c884-2121-4f31-bb7f-f9907eecd701"},"vehicle_type_id":"4","last_reported":1736252286,"current_range_meters":8800,"station_id":"ce4bha12rcd13ifvqef0","pricing_plan_id":"cebpf4jnsgd1na2vs0mg"},{"bike_id":"18a467af-649d-4788-b780-328e067fd38d","system_id":"levelo_inurba_marseille","lat":43.28273,"lon":5.3506,"is_reserved":false,"is_disabled":false,"rental_uris":{"android":"levelo://app?vid=18a467af-649d-4788-b780-328e067fd38d","ios":"levelo://app?vid=18a467af-649d-4788-b780-328e067fd38d"},"vehicle_type_id":"4","last_reported":1736252286,"current_range_meters":9200,"station_id":"ce4bhbp2rcd13ifvqerg","pricing_plan_id":"cebpf4jnsgd1na2vs0mg"},{"bike_id":"73541401-7f9e-4fe7-b449-40fe85ed6b74","system_id":"levelo_inurba_marseille","lat":43.29282,"lon":5.40122,"is_reserved":false,"is_disabled":false,"rental_uris":{"android":"levelo://app?vid=73541401-7f9e-4fe7-b449-40fe85ed6b74","ios":"levelo://app?vid=73541401-7f9e-4fe7-b449-40fe85ed6b74"},"vehicle_type_id":"4","last_reported":1736252286,"current_range_meters":33200,"station_id":"ce4bh312rcd13ifvqdk0","pricing_plan_id":"cebpf4jnsgd1na2vs0mg"},{"bike_id":"15fcc4e0-abd3-4a41-8bd7-3bff13614a5f","system_id":"levelo_inurba_marseille","lat":43.26801,"lon":5.40268,"is_reserved":false,"is_disabled":false,"rental_uris":{"android":"levelo://app?vid=15fcc4e0-abd3-4a41-8bd7-3bff13614a5f","ios":"levelo://app?vid=15fcc4e0-abd3-4a41-8bd7-3bff13614a5f"},"vehicle_type_id":"4","last_reported":1736252286,"current_range_meters":36000,"station_id":"ce501612rcd8frsf0b60","pricing_plan_id":"cebpf4jnsgd1na2vs0mg"},{"bike_id":"1c2c3464-8b3a-4eab-9fdd-fd6c6e2d5657","system_id":"levelo_inurba_marseille","lat":43.28625,"lon":5.38684,"is_reserved":false,"is_disabled":true,"rental_uris":{"android":"levelo://app?vid=1c2c3464-8b3a-4eab-9fdd-fd6c6e2d5657","ios":"levelo://app?vid=1c2c3464-8b3a-4eab-9fdd-fd6c6e2d5657"},"vehicle_type_id":"4","last_reported":1736252286,"current_range_meters":400,"station_id":"ce4bh492rcd13ifvqdug","pricing_plan_id":"cebpf4jnsgd1na2vs0mg"},{"bike_id":"5b501ad2-8648-447f-bb00-a66b67c05e8a","system_id":"levelo_inurba_marseille","lat":43.30597,"lon":5.39358,"is_reserved":false,"is_disabled":false,"rental_uris":{"android":"levelo://app?vid=5b501ad2-8648-447f-bb00-a66b67c05e8a","ios":"levelo://app?vid=5b501ad2-8648-447f-bb00-a66b67c05e8a"},"vehicle_type_id":"4","last_reported":1736252286,"current_range_meters":30800,"station_id":"ce4bh0p2rcd13ifvqd80","pricing_plan_id":"cebpf4jnsgd1na2vs0mg"},{"bike_id":"2d6928f8-4b5e-4102-9da8-4203b801ad10","system_id":"levelo_inurba_marseille","lat":43.30173,"lon":5.38108,"is_reserved":false,"is_disabled":false,"rental_uris":{"android":"levelo://app?vid=2d6928f8-4b5e-4102-9da8-4203b801ad10","ios":"levelo://app?vid=2d6928f8-4b5e-4102-9da8-4203b801ad10"},"vehicle_type_id":"4","last_reported":1736252286,"current_range_meters":38800,"station_id":"ce4bgjp2rcd13ifvqbh0","pricing_plan_id":"cebpf4jnsgd1na2vs0mg"},{"bike_id":"e8f7458c-cf19-43d7-a972-43547ad9fe30","system_id":"levelo_inurba_marseille","lat":43.27181,"lon":5.40987,"is_reserved":false,"is_disabled":false,"rental_uris":{"android":"levelo://app?vid=e8f7458c-cf19-43d7-a972-43547ad9fe30","ios":"levelo://app?vid=e8f7458c-cf19-43d7-a972-43547ad9fe30"},"vehicle_type_id":"4","last_reported":1736252286,"current_range_meters":3600,"station_id":"ce4bhl12rcd13ifvqgf0","pricing_plan_id":"cebpf4jnsgd1na2vs0mg"},{"bike_id":"05a2c15a-fb68-455c-8082-fdf747a62fe7","system_id":"levelo_inurba_marseille","lat":43.27818,"lon":5.40725,"is_reserved":false,"is_disabled":true,"rental_uris":{"android":"levelo://app?vid=05a2c15a-fb68-455c-8082-fdf747a62fe7","ios":"levelo://app?vid=05a2c15a-fb68-455c-8082-fdf747a62fe7"},"vehicle_type_id":"4","last_reported":1736252286,"current_range_meters":0,"station_id":"ce4bhnh2rcd13ifvqgtg","pricing_plan_id":"cebpf4jnsgd1na2vs0mg"},{"bike_id":"b8f3b487-6fa0-4da5-b2e4-d2799cc37cea","system_id":"levelo_inurba_marseille","lat":43.29598,"lon":5.38097,"is_reserved":false,"is_disabled":false,"rental_uris":{"android":"levelo://app?vid=b8f3b487-6fa0-4da5-b2e4-d2799cc37cea","ios":"levelo://app?vid=b8f3b487-6fa0-4da5-b2e4-d2799cc37cea"},"vehicle_type_id":"4","last_reported":1736252286,"current_range_meters":20000,"station_id":"ce4bgl12rcd13ifvqbo0","pricing_plan_id":"cebpf4jnsgd1na2vs0mg"},{"bike_id":"68ed12ce-19b0-4151-b855-11515b9fdf32","system_id":"levelo_inurba_marseille","lat":43.29308,"lon":5.37167,"is_reserved":false,"is_disabled":false,"rental_uris":{"android":"levelo://app?vid=68ed12ce-19b0-4151-b855-11515b9fdf32","ios":"levelo://app?vid=68ed12ce-19b0-4151-b855-11515b9fdf32"},"vehicle_type_id":"4","last_reported":1736252286,"current_range_meters":38800,"station_id":"ce4bgh92rcd13ifvqb40","pricing_plan_id":"cebpf4jnsgd1na2vs0mg"},{"bike_id":"2e3020fc-739e-484f-aff1-968aa18f2ac1","system_id":"levelo_inurba_marseille","lat":43.27999,"lon":5.41622,"is_reserved":false,"is_disabled":true,"rental_uris":{"android":"levelo://app?vid=2e3020fc-739e-484f-aff1-968aa18f2ac1","ios":"levelo://app?vid=2e3020fc-739e-484f-aff1-968aa18f2ac1"},"vehicle_type_id":"4","last_reported":1736252286,"current_range_meters":36400,"station_id":"ce4bho12rcd13ifvqh1g","pricing_plan_id":"cebpf4jnsgd1na2vs0mg"},{"bike_id":"694dac46-2d97-4d35-9768-9af12cbe2645","system_id":"levelo_inurba_marseille","lat":43.30423,"lon":5.38892,"is_reserved":false,"is_disabled":false,"rental_uris":{"android":"levelo://app?vid=694dac46-2d97-4d35-9768-9af12cbe2645","ios":"levelo://app?vid=694dac46-2d97-4d35-9768-9af12cbe2645"},"vehicle_type_id":"4","last_reported":1736252286,"current_range_meters":38800,"station_id":"ce4bgk12rcd13ifvqbi0","pricing_plan_id":"cebpf4jnsgd1na2vs0mg"},{"bike_id":"25eada10-1de1-4fd2-9f49-86dd4ee2d477","system_id":"levelo_inurba_marseille","lat":43.26687,"lon":5.38301,"is_reserved":false,"is_disabled":false,"rental_uris":{"android":"levelo://app?vid=25eada10-1de1-4fd2-9f49-86dd4ee2d477","ios":"levelo://app?vid=25eada10-1de1-4fd2-9f49-86dd4ee2d477"},"vehicle_type_id":"4","last_reported":1736252286,"current_range_meters":38800,"station_id":"ce4bhg92rcd13ifvqf90","pricing_plan_id":"cebpf4jnsgd1na2vs0mg"},{"bike_id":"9bc564bb-6773-485d-ac7c-33edf80314fe","system_id":"levelo_inurba_marseille","lat":43.25043,"lon":5.38929,"is_reserved":false,"is_disabled":false,"rental_uris":{"android":"levelo://app?vid=9bc564bb-6773-485d-ac7c-33edf80314fe","ios":"levelo://app?vid=9bc564bb-6773-485d-ac7c-33edf80314fe"},"vehicle_type_id":"4","last_reported":1736252286,"current_range_meters":38800,"station_id":"ce4bhgp2rcd13ifvqfd0","pricing_plan_id":"cebpf4jnsgd1na2vs0mg"},{"bike_id":"dbde5b63-823f-4216-aaa9-6f26c2fd55ec","system_id":"levelo_inurba_marseille","lat":43.28265,"lon":5.35073,"is_reserved":false,"is_disabled":false,"rental_uris":{"android":"levelo://app?vid=dbde5b63-823f-4216-aaa9-6f26c2fd55ec","ios":"levelo://app?vid=dbde5b63-823f-4216-aaa9-6f26c2fd55ec"},"vehicle_type_id":"4","last_reported":1736252286,"current_range_meters":26800,"station_id":"ce4bhbp2rcd13ifvqerg","pricing_plan_id":"cebpf4jnsgd1na2vs0mg"},{"bike_id":"5f21cdc1-e56d-4c94-b8ac-7c72599c490f","system_id":"levelo_inurba_marseille","lat":43.30543,"lon":5.36536,"is_reserved":false,"is_disabled":false,"rental_uris":{"android":"levelo://app?vid=5f21cdc1-e56d-4c94-b8ac-7c72599c490f","ios":"levelo://app?vid=5f21cdc1-e56d-4c94-b8ac-7c72599c490f"},"vehicle_type_id":"4","last_reported":1736252286,"current_range_meters":38800,"station_id":"ce4bgs12rcd13ifvqcag","pricing_plan_id":"cebpf4jnsgd1na2vs0mg"},{"bike_id":"1398354a-3a7e-4bbe-9188-de6181eec8d2","system_id":"levelo_inurba_marseille","lat":43.300935,"lon":5.390817,"is_reserved":false,"is_disabled":false,"rental_uris":{"android":"levelo://app?vid=1398354a-3a7e-4bbe-9188-de6181eec8d2","ios":"levelo://app?vid=1398354a-3a7e-4bbe-9188-de6181eec8d2"},"vehicle_type_id":"4","last_reported":1736252286,"current_range_meters":6800,"station_id":"ce4bh192rcd13ifvqdb0","pricing_plan_id":"cebpf4jnsgd1na2vs0mg"},{"bike_id":"4eeaeffa-480f-4a94-8286-42f1bcb601fc","system_id":"levelo_inurba_marseille","lat":43.2925,"lon":5.40164,"is_reserved":false,"is_disabled":true,"rental_uris":{"android":"levelo://app?vid=4eeaeffa-480f-4a94-8286-42f1bcb601fc","ios":"levelo://app?vid=4eeaeffa-480f-4a94-8286-42f1bcb601fc"},"vehicle_type_id":"4","last_reported":1736252286,"current_range_meters":17600,"station_id":"ce4bh312rcd13ifvqdk0","pricing_plan_id":"cebpf4jnsgd1na2vs0mg"},{"bike_id":"3dcc1c8e-6db9-4000-a7ee-f1b5b658ee7a","system_id":"levelo_inurba_marseille","lat":43.2717,"lon":5.41003,"is_reserved":false,"is_disabled":false,"rental_uris":{"android":"levelo://app?vid=3dcc1c8e-6db9-4000-a7ee-f1b5b658ee7a","ios":"levelo://app?vid=3dcc1c8e-6db9-4000-a7ee-f1b5b658ee7a"},"vehicle_type_id":"4","last_reported":1736252286,"current_range_meters":38800,"station_id":"ce4bhl12rcd13ifvqgf0","pricing_plan_id":"cebpf4jnsgd1na2vs0mg"},{"bike_id":"9c546351-1a34-4e0c-b043-749e3ab6f40e","system_id":"levelo_inurba_marseille","lat":43.25108,"lon":5.39512,"is_reserved":false,"is_disabled":false,"rental_uris":{"android":"levelo://app?vid=9c546351-1a34-4e0c-b043-749e3ab6f40e","ios":"levelo://app?vid=9c546351-1a34-4e0c-b043-749e3ab6f40e"},"vehicle_type_id":"4","last_reported":1736252286,"current_range_meters":30800,"station_id":"ce4bhm12rcd13ifvqgkg","pricing_plan_id":"cebpf4jnsgd1na2vs0mg"},{"bike_id":"6a128d93-9d39-4543-9b3f-5b0e24939d38","system_id":"levelo_inurba_marseille","lat":43.30536,"lon":5.36554,"is_reserved":false,"is_disabled":false,"rental_uris":{"android":"levelo://app?vid=6a128d93-9d39-4543-9b3f-5b0e24939d38","ios":"levelo://app?vid=6a128d93-9d39-4543-9b3f-5b0e24939d38"},"vehicle_type_id":"4","last_reported":1736252286,"current_range_meters":8400,"station_id":"ce4bgs12rcd13ifvqcag","pricing_plan_id":"cebpf4jnsgd1na2vs0mg"},{"bike_id":"791627df-7292-49e5-a18d-ea9baf1b04d0","system_id":"levelo_inurba_marseille","lat":43.23154,"lon":5.43748,"is_reserved":false,"is_disabled":false,"rental_uris":{"android":"levelo://app?vid=791627df-7292-49e5-a18d-ea9baf1b04d0","ios":"levelo://app?vid=791627df-7292-49e5-a18d-ea9baf1b04d0"},"vehicle_type_id":"4","last_reported":1736252286,"current_range_meters":8400,"station_id":"ce4bhmp2rcd13ifvqgog","pricing_plan_id":"cebpf4jnsgd1na2vs0mg"},{"bike_id":"4b45c53c-039c-4b29-9450-a363598cb011","system_id":"levelo_inurba_marseille","lat":43.28701,"lon":5.39995,"is_reserved":false,"is_disabled":false,"rental_uris":{"android":"levelo://app?vid=4b45c53c-039c-4b29-9450-a363598cb011","ios":"levelo://app?vid=4b45c53c-039c-4b29-9450-a363598cb011"},"vehicle_type_id":"4","last_reported":1736252286,"current_range_meters":6000,"station_id":"ce4bho92rcd13ifvqh3g","pricing_plan_id":"cebpf4jnsgd1na2vs0mg"},{"bike_id":"587e7191-297f-49f4-b375-f896c98d8010","system_id":"levelo_inurba_marseille","lat":43.29269,"lon":5.36853,"is_reserved":false,"is_disabled":false,"rental_uris":{"android":"levelo://app?vid=587e7191-297f-49f4-b375-f896c98d8010","ios":"levelo://app?vid=587e7191-297f-49f4-b375-f896c98d8010"},"vehicle_type_id":"4","last_reported":1736252286,"current_range_meters":32400,"station_id":"ce4bhbp2rcd13ifvqesg","pricing_plan_id":"cebpf4jnsgd1na2vs0mg"},{"bike_id":"fbe46b24-788f-4906-9cbf-af9f6e8e027c","system_id":"levelo_inurba_marseille","lat":43.3093,"lon":5.36839,"is_reserved":false,"is_disabled":false,"rental_uris":{"android":"levelo://app?vid=fbe46b24-788f-4906-9cbf-af9f6e8e027c","ios":"levelo://app?vid=fbe46b24-788f-4906-9cbf-af9f6e8e027c"},"vehicle_type_id":"4","last_reported":1736252286,"current_range_meters":36400,"station_id":"ce4bgn92rcd13ifvqbvg","pricing_plan_id":"cebpf4jnsgd1na2vs0mg"},{"bike_id":"7ed01b9d-e17d-44b7-923c-501cf964c57e","system_id":"levelo_inurba_marseille","lat":43.23186,"lon":5.39983,"is_reserved":false,"is_disabled":false,"rental_uris":{"android":"levelo://app?vid=7ed01b9d-e17d-44b7-923c-501cf964c57e","ios":"levelo://app?vid=7ed01b9d-e17d-44b7-923c-501cf964c57e"},"vehicle_type_id":"4","last_reported":1736252286,"current_range_meters":38800,"station_id":"ce4bhn12rcd13ifvqgqg","pricing_plan_id":"cebpf4jnsgd1na2vs0mg"},{"bike_id":"c023aed8-c4af-47de-bf55-7ec6cfb1c879","system_id":"levelo_inurba_marseille","lat":43.2619,"lon":5.37478,"is_reserved":false,"is_disabled":true,"rental_uris":{"android":"levelo://app?vid=c023aed8-c4af-47de-bf55-7ec6cfb1c879","ios":"levelo://app?vid=c023aed8-c4af-47de-bf55-7ec6cfb1c879"},"vehicle_type_id":"4","last_reported":1736252286,"current_range_meters":27600,"station_id":"ce4bhgp2rcd13ifvqfc0","pricing_plan_id":"cebpf4jnsgd1na2vs0mg"},{"bike_id":"f19daaa6-2eda-42e2-984c-661452eb3acb","system_id":"levelo_inurba_marseille","lat":43.28631,"lon":5.38239,"is_reserved":false,"is_disabled":false,"rental_uris":{"android":"levelo://app?vid=f19daaa6-2eda-42e2-984c-661452eb3acb","ios":"levelo://app?vid=f19daaa6-2eda-42e2-984c-661452eb3acb"},"vehicle_type_id":"4","last_reported":1736252286,"current_range_meters":28800,"station_id":"","pricing_plan_id":"cebpf4jnsgd1na2vs0mg"},{"bike_id":"f5477bd9-ae2b-4f4a-90d2-43e1d2905a20","system_id":"levelo_inurba_marseille","lat":43.28419,"lon":5.34977,"is_reserved":false,"is_disabled":false,"rental_uris":{"android":"levelo://app?vid=f5477bd9-ae2b-4f4a-90d2-43e1d2905a20","ios":"levelo://app?vid=f5477bd9-ae2b-4f4a-90d2-43e1d2905a20"},"vehicle_type_id":"4","last_reported":1736252286,"current_range_meters":18800,"station_id":"ce4bhbh2rcd13ifvqepg","pricing_plan_id":"cebpf4jnsgd1na2vs0mg"},{"bike_id":"ad036647-e9f4-4246-953d-37ee6601db50","system_id":"levelo_inurba_marseille","lat":43.2467,"lon":5.38179,"is_reserved":false,"is_disabled":false,"rental_uris":{"android":"levelo://app?vid=ad036647-e9f4-4246-953d-37ee6601db50","ios":"levelo://app?vid=ad036647-e9f4-4246-953d-37ee6601db50"},"vehicle_type_id":"4","last_reported":1736252286,"current_range_meters":16800,"station_id":"ce4bhih2rcd13ifvqfr0","pricing_plan_id":"cebpf4jnsgd1na2vs0mg"},{"bike_id":"149e3021-1368-416e-9e1b-afdb4ad781f2","system_id":"levelo_inurba_marseille","lat":43.24168,"lon":5.36404,"is_reserved":false,"is_disabled":false,"rental_uris":{"android":"levelo://app?vid=149e3021-1368-416e-9e1b-afdb4ad781f2","ios":"levelo://app?vid=149e3021-1368-416e-9e1b-afdb4ad781f2"},"vehicle_type_id":"4","last_reported":1736252286,"current_range_meters":31200,"station_id":"cpo36qri1sfpv3e86is0","pricing_plan_id":"cebpf4jnsgd1na2vs0mg"},{"bike_id":"ee7f5816-483f-4372-8ce1-bc546e1bdb5f","system_id":"levelo_inurba_marseille","lat":43.24994,"lon":5.38933,"is_reserved":false,"is_disabled":false,"rental_uris":{"android":"levelo://app?vid=ee7f5816-483f-4372-8ce1-bc546e1bdb5f","ios":"levelo://app?vid=ee7f5816-483f-4372-8ce1-bc546e1bdb5f"},"vehicle_type_id":"4","last_reported":1736252286,"current_range_meters":24000,"station_id":"ce4bhgp2rcd13ifvqfd0","pricing_plan_id":"cebpf4jnsgd1na2vs0mg"},{"bike_id":"5daf80c0-426f-4d7b-a866-384f04ac0b0c","system_id":"levelo_inurba_marseille","lat":43.33464,"lon":5.35702,"is_reserved":false,"is_disabled":false,"rental_uris":{"android":"levelo://app?vid=5daf80c0-426f-4d7b-a866-384f04ac0b0c","ios":"levelo://app?vid=5daf80c0-426f-4d7b-a866-384f04ac0b0c"},"vehicle_type_id":"4","last_reported":1736252286,"current_range_meters":24800,"station_id":"","pricing_plan_id":"cebpf4jnsgd1na2vs0mg"},{"bike_id":"5a5a1e18-3664-4181-8d9e-fd5b26d19996","system_id":"levelo_inurba_marseille","lat":43.2804,"lon":5.36941,"is_reserved":false,"is_disabled":false,"rental_uris":{"android":"levelo://app?vid=5a5a1e18-3664-4181-8d9e-fd5b26d19996","ios":"levelo://app?vid=5a5a1e18-3664-4181-8d9e-fd5b26d19996"},"vehicle_type_id":"4","last_reported":1736252286,"current_range_meters":16400,"station_id":"ce4bha12rcd13ifvqef0","pricing_plan_id":"cebpf4jnsgd1na2vs0mg"},{"bike_id":"ec73e695-e5fb-4525-87fb-fe2caaa24126","system_id":"levelo_inurba_marseille","lat":43.26816,"lon":5.39433,"is_reserved":false,"is_disabled":false,"rental_uris":{"android":"levelo://app?vid=ec73e695-e5fb-4525-87fb-fe2caaa24126","ios":"levelo://app?vid=ec73e695-e5fb-4525-87fb-fe2caaa24126"},"vehicle_type_id":"4","last_reported":1736252286,"current_range_meters":20800,"station_id":"ce4bhh12rcd13ifvqfg0","pricing_plan_id":"cebpf4jnsgd1na2vs0mg"},{"bike_id":"90cc549c-0caa-4120-a382-164d27980f0d","system_id":"levelo_inurba_marseille","lat":43.25945,"lon":5.40904,"is_reserved":false,"is_disabled":false,"rental_uris":{"android":"levelo://app?vid=90cc549c-0caa-4120-a382-164d27980f0d","ios":"levelo://app?vid=90cc549c-0caa-4120-a382-164d27980f0d"},"vehicle_type_id":"4","last_reported":1736252286,"current_range_meters":26800,"station_id":"ce4bhm92rcd13ifvqglg","pricing_plan_id":"cebpf4jnsgd1na2vs0mg"},{"bike_id":"0d869571-702b-474e-9734-e51fa36b8db2","system_id":"levelo_inurba_marseille","lat":43.29194,"lon":5.39312,"is_reserved":false,"is_disabled":true,"rental_uris":{"android":"levelo://app?vid=0d869571-702b-474e-9734-e51fa36b8db2","ios":"levelo://app?vid=0d869571-702b-474e-9734-e51fa36b8db2"},"vehicle_type_id":"4","last_reported":1736252286,"current_range_meters":8000,"station_id":"ce4bh192rcd13ifvqdd0","pricing_plan_id":"cebpf4jnsgd1na2vs0mg"},{"bike_id":"d529a0f8-b6c1-44cc-8f2f-bc8da6e8ca6f","system_id":"levelo_inurba_marseille","lat":43.28269,"lon":5.35072,"is_reserved":false,"is_disabled":false,"rental_uris":{"android":"levelo://app?vid=d529a0f8-b6c1-44cc-8f2f-bc8da6e8ca6f","ios":"levelo://app?vid=d529a0f8-b6c1-44cc-8f2f-bc8da6e8ca6f"},"vehicle_type_id":"4","last_reported":1736252286,"current_range_meters":32000,"station_id":"ce4bhbp2rcd13ifvqerg","pricing_plan_id":"cebpf4jnsgd1na2vs0mg"},{"bike_id":"6df17fb0-2ddd-4e94-9f55-4c7ec4dae7de","system_id":"levelo_inurba_marseille","lat":43.28979,"lon":5.37834,"is_reserved":false,"is_disabled":false,"rental_uris":{"android":"levelo://app?vid=6df17fb0-2ddd-4e94-9f55-4c7ec4dae7de","ios":"levelo://app?vid=6df17fb0-2ddd-4e94-9f55-4c7ec4dae7de"},"vehicle_type_id":"4","last_reported":1736252286,"current_range_meters":38800,"station_id":"ce4bh9p2rcd13ifvqed0","pricing_plan_id":"cebpf4jnsgd1na2vs0mg"},{"bike_id":"634f6533-1a25-40ca-9a18-12a912b70bc8","system_id":"levelo_inurba_marseille","lat":43.25938,"lon":5.40918,"is_reserved":false,"is_disabled":false,"rental_uris":{"android":"levelo://app?vid=634f6533-1a25-40ca-9a18-12a912b70bc8","ios":"levelo://app?vid=634f6533-1a25-40ca-9a18-12a912b70bc8"},"vehicle_type_id":"4","last_reported":1736252286,"current_range_meters":30000,"station_id":"ce4bhm92rcd13ifvqglg","pricing_plan_id":"cebpf4jnsgd1na2vs0mg"},{"bike_id":"848409fd-e15c-4368-86fe-d09929dd4460","system_id":"levelo_inurba_marseille","lat":43.29437,"lon":5.39761,"is_reserved":false,"is_disabled":false,"rental_uris":{"android":"levelo://app?vid=848409fd-e15c-4368-86fe-d09929dd4460","ios":"levelo://app?vid=848409fd-e15c-4368-86fe-d09929dd4460"},"vehicle_type_id":"4","last_reported":1736252286,"current_range_meters":37600,"station_id":"ce4bh3h2rcd13ifvqdo0","pricing_plan_id":"cebpf4jnsgd1na2vs0mg"},{"bike_id":"84da895f-8644-471d-8d78-3799d533c31e","system_id":"levelo_inurba_marseille","lat":43.26058,"lon":5.39397,"is_reserved":false,"is_disabled":false,"rental_uris":{"android":"levelo://app?vid=84da895f-8644-471d-8d78-3799d533c31e","ios":"levelo://app?vid=84da895f-8644-471d-8d78-3799d533c31e"},"vehicle_type_id":"4","last_reported":1736252286,"current_range_meters":10800,"station_id":"ce4bhh92rcd13ifvqfj0","pricing_plan_id":"cebpf4jnsgd1na2vs0mg"},{"bike_id":"da19e859-6e7d-4e28-bc7f-faab7b0d4274","system_id":"levelo_inurba_marseille","lat":43.32657,"lon":5.40998,"is_reserved":false,"is_disabled":false,"rental_uris":{"android":"levelo://app?vid=da19e859-6e7d-4e28-bc7f-faab7b0d4274","ios":"levelo://app?vid=da19e859-6e7d-4e28-bc7f-faab7b0d4274"},"vehicle_type_id":"4","last_reported":1736252286,"current_range_meters":24800,"station_id":"ce4bhpp2rcd13ifvqhgg","pricing_plan_id":"cebpf4jnsgd1na2vs0mg"},{"bike_id":"3c734b14-0d1c-4c7a-ad42-5a89ff7fd6b5","system_id":"levelo_inurba_marseille","lat":43.2455,"lon":5.39523,"is_reserved":false,"is_disabled":false,"rental_uris":{"android":"levelo://app?vid=3c734b14-0d1c-4c7a-ad42-5a89ff7fd6b5","ios":"levelo://app?vid=3c734b14-0d1c-4c7a-ad42-5a89ff7fd6b5"},"vehicle_type_id":"4","last_reported":1736252286,"current_range_meters":33600,"station_id":"ce4bhlp2rcd13ifvqgjg","pricing_plan_id":"cebpf4jnsgd1na2vs0mg"},{"bike_id":"027661aa-25a3-4953-94d4-14c0b5b57498","system_id":"levelo_inurba_marseille","lat":43.30597,"lon":5.39359,"is_reserved":false,"is_disabled":false,"rental_uris":{"android":"levelo://app?vid=027661aa-25a3-4953-94d4-14c0b5b57498","ios":"levelo://app?vid=027661aa-25a3-4953-94d4-14c0b5b57498"},"vehicle_type_id":"4","last_reported":1736252286,"current_range_meters":38800,"station_id":"ce4bh0p2rcd13ifvqd80","pricing_plan_id":"cebpf4jnsgd1na2vs0mg"},{"bike_id":"a23e7dd5-84cc-4eca-9236-90b42c7ed41b","system_id":"levelo_inurba_marseille","lat":43.32335,"lon":5.40665,"is_reserved":false,"is_disabled":true,"rental_uris":{"android":"levelo://app?vid=a23e7dd5-84cc-4eca-9236-90b42c7ed41b","ios":"levelo://app?vid=a23e7dd5-84cc-4eca-9236-90b42c7ed41b"},"vehicle_type_id":"4","last_reported":1736252286,"current_range_meters":12800,"station_id":"ce4bhq92rcd13ifvqhjg","pricing_plan_id":"cebpf4jnsgd1na2vs0mg"},{"bike_id":"20df3d09-3113-4dae-9abb-0f60fc024037","system_id":"levelo_inurba_marseille","lat":43.29292,"lon":5.37446,"is_reserved":false,"is_disabled":false,"rental_uris":{"android":"levelo://app?vid=20df3d09-3113-4dae-9abb-0f60fc024037","ios":"levelo://app?vid=20df3d09-3113-4dae-9abb-0f60fc024037"},"vehicle_type_id":"4","last_reported":1736252286,"current_range_meters":26000,"station_id":"ce4bgi12rcd13ifvqb70","pricing_plan_id":"cebpf4jnsgd1na2vs0mg"},{"bike_id":"bcfcdd76-be36-45b6-88f2-c3189a920404","system_id":"levelo_inurba_marseille","lat":43.3031,"lon":5.37739,"is_reserved":false,"is_disabled":false,"rental_uris":{"android":"levelo://app?vid=bcfcdd76-be36-45b6-88f2-c3189a920404","ios":"levelo://app?vid=bcfcdd76-be36-45b6-88f2-c3189a920404"},"vehicle_type_id":"4","last_reported":1736252286,"current_range_meters":38800,"station_id":"ce4bguh2rcd13ifvqcj0","pricing_plan_id":"cebpf4jnsgd1na2vs0mg"},{"bike_id":"f11f56c5-47e5-43f6-bbfb-e36c082db081","system_id":"levelo_inurba_marseille","lat":43.31345,"lon":5.36719,"is_reserved":false,"is_disabled":false,"rental_uris":{"android":"levelo://app?vid=f11f56c5-47e5-43f6-bbfb-e36c082db081","ios":"levelo://app?vid=f11f56c5-47e5-43f6-bbfb-e36c082db081"},"vehicle_type_id":"4","last_reported":1736252286,"current_range_meters":38400,"station_id":"ce4bgr92rcd13ifvqc6g","pricing_plan_id":"cebpf4jnsgd1na2vs0mg"},{"bike_id":"a21dca4d-bb7a-4cf5-8ef4-7d3b79a2af90","system_id":"levelo_inurba_marseille","lat":43.30234,"lon":5.40045,"is_reserved":false,"is_disabled":false,"rental_uris":{"android":"levelo://app?vid=a21dca4d-bb7a-4cf5-8ef4-7d3b79a2af90","ios":"levelo://app?vid=a21dca4d-bb7a-4cf5-8ef4-7d3b79a2af90"},"vehicle_type_id":"4","last_reported":1736252286,"current_range_meters":26800,"station_id":"ce4bgvh2rcd13ifvqcs0","pricing_plan_id":"cebpf4jnsgd1na2vs0mg"},{"bike_id":"db973fb0-a7a7-419f-905d-9711a91dd280","system_id":"levelo_inurba_marseille","lat":43.25733,"lon":5.41108,"is_reserved":false,"is_disabled":true,"rental_uris":{"android":"levelo://app?vid=db973fb0-a7a7-419f-905d-9711a91dd280","ios":"levelo://app?vid=db973fb0-a7a7-419f-905d-9711a91dd280"},"vehicle_type_id":"4","last_reported":1736252286,"current_range_meters":36000,"station_id":"ce4bhkp2rcd13ifvqgd0","pricing_plan_id":"cebpf4jnsgd1na2vs0mg"},{"bike_id":"a0b57a50-67bc-4d12-bffe-4176748f2bc4","system_id":"levelo_inurba_marseille","lat":43.30312,"lon":5.3691,"is_reserved":false,"is_disabled":false,"rental_uris":{"android":"levelo://app?vid=a0b57a50-67bc-4d12-bffe-4176748f2bc4","ios":"levelo://app?vid=a0b57a50-67bc-4d12-bffe-4176748f2bc4"},"vehicle_type_id":"4","last_reported":1736252286,"current_range_meters":16000,"station_id":"ce4bgqh2rcd13ifvqc5g","pricing_plan_id":"cebpf4jnsgd1na2vs0mg"},{"bike_id":"92468610-4619-4028-811e-242ed2a589b0","system_id":"levelo_inurba_marseille","lat":43.23185,"lon":5.39987,"is_reserved":false,"is_disabled":false,"rental_uris":{"android":"levelo://app?vid=92468610-4619-4028-811e-242ed2a589b0","ios":"levelo://app?vid=92468610-4619-4028-811e-242ed2a589b0"},"vehicle_type_id":"4","last_reported":1736252286,"current_range_meters":13600,"station_id":"ce4bhn12rcd13ifvqgqg","pricing_plan_id":"cebpf4jnsgd1na2vs0mg"},{"bike_id":"fe09f8ca-f67b-4f31-8eb2-63074d94e886","system_id":"levelo_inurba_marseille","lat":43.25114,"lon":5.40346,"is_reserved":false,"is_disabled":false,"rental_uris":{"android":"levelo://app?vid=fe09f8ca-f67b-4f31-8eb2-63074d94e886","ios":"levelo://app?vid=fe09f8ca-f67b-4f31-8eb2-63074d94e886"},"vehicle_type_id":"4","last_reported":1736252286,"current_range_meters":38800,"station_id":"ce4bhlh2rcd13ifvqgig","pricing_plan_id":"cebpf4jnsgd1na2vs0mg"},{"bike_id":"ad92df60-f3d5-495a-8326-c79bafcf1594","system_id":"levelo_inurba_marseille","lat":43.3229,"lon":5.38242,"is_reserved":false,"is_disabled":false,"rental_uris":{"android":"levelo://app?vid=ad92df60-f3d5-495a-8326-c79bafcf1594","ios":"levelo://app?vid=ad92df60-f3d5-495a-8326-c79bafcf1594"},"vehicle_type_id":"4","last_reported":1736252286,"current_range_meters":38800,"station_id":"ce4bhr12rcd13ifvqhqg","pricing_plan_id":"cebpf4jnsgd1na2vs0mg"},{"bike_id":"c0582d81-71b0-4eea-ba50-4da054cc145f","system_id":"levelo_inurba_marseille","lat":43.28161,"lon":5.42636,"is_reserved":false,"is_disabled":false,"rental_uris":{"android":"levelo://app?vid=c0582d81-71b0-4eea-ba50-4da054cc145f","ios":"levelo://app?vid=c0582d81-71b0-4eea-ba50-4da054cc145f"},"vehicle_type_id":"4","last_reported":1736252286,"current_range_meters":6000,"station_id":"ce4bhnh2rcd13ifvqgug","pricing_plan_id":"cebpf4jnsgd1na2vs0mg"},{"bike_id":"0aa10dfe-cc5f-4fc7-90b8-fc6a5ef6e9bf","system_id":"levelo_inurba_marseille","lat":43.25552,"lon":5.38234,"is_reserved":false,"is_disabled":false,"rental_uris":{"android":"levelo://app?vid=0aa10dfe-cc5f-4fc7-90b8-fc6a5ef6e9bf","ios":"levelo://app?vid=0aa10dfe-cc5f-4fc7-90b8-fc6a5ef6e9bf"},"vehicle_type_id":"4","last_reported":1736252286,"current_range_meters":16800,"station_id":"ce4bhih2rcd13ifvqfs0","pricing_plan_id":"cebpf4jnsgd1na2vs0mg"},{"bike_id":"bc9bb4d7-2fdc-4d34-b0a0-ed77a3035abd","system_id":"levelo_inurba_marseille","lat":43.31734,"lon":5.37803,"is_reserved":false,"is_disabled":false,"rental_uris":{"android":"levelo://app?vid=bc9bb4d7-2fdc-4d34-b0a0-ed77a3035abd","ios":"levelo://app?vid=bc9bb4d7-2fdc-4d34-b0a0-ed77a3035abd"},"vehicle_type_id":"4","last_reported":1736252286,"current_range_meters":26800,"station_id":"","pricing_plan_id":"cebpf4jnsgd1na2vs0mg"},{"bike_id":"462a08ce-9749-4eb8-a4cb-91181ba24c43","system_id":"levelo_inurba_marseille","lat":43.27944,"lon":5.41046,"is_reserved":false,"is_disabled":false,"rental_uris":{"android":"levelo://app?vid=462a08ce-9749-4eb8-a4cb-91181ba24c43","ios":"levelo://app?vid=462a08ce-9749-4eb8-a4cb-91181ba24c43"},"vehicle_type_id":"4","last_reported":1736252286,"current_range_meters":22800,"station_id":"ce4bhnp2rcd13ifvqh0g","pricing_plan_id":"cebpf4jnsgd1na2vs0mg"},{"bike_id":"49cc2a76-479d-444c-bd5a-568e445cdfb6","system_id":"levelo_inurba_marseille","lat":43.30366,"lon":5.39325,"is_reserved":false,"is_disabled":false,"rental_uris":{"android":"levelo://app?vid=49cc2a76-479d-444c-bd5a-568e445cdfb6","ios":"levelo://app?vid=49cc2a76-479d-444c-bd5a-568e445cdfb6"},"vehicle_type_id":"4","last_reported":1736252286,"current_range_meters":32400,"station_id":"","pricing_plan_id":"cebpf4jnsgd1na2vs0mg"},{"bike_id":"7b78d5e2-5142-402d-a4f8-0f3037a6c533","system_id":"levelo_inurba_marseille","lat":43.2698,"lon":5.38596,"is_reserved":false,"is_disabled":true,"rental_uris":{"android":"levelo://app?vid=7b78d5e2-5142-402d-a4f8-0f3037a6c533","ios":"levelo://app?vid=7b78d5e2-5142-402d-a4f8-0f3037a6c533"},"vehicle_type_id":"4","last_reported":1736252286,"current_range_meters":33600,"station_id":"","pricing_plan_id":"cebpf4jnsgd1na2vs0mg"},{"bike_id":"9ddb05c1-b66e-4800-9c6c-e40178061a64","system_id":"levelo_inurba_marseille","lat":43.25109,"lon":5.4032,"is_reserved":false,"is_disabled":false,"rental_uris":{"android":"levelo://app?vid=9ddb05c1-b66e-4800-9c6c-e40178061a64","ios":"levelo://app?vid=9ddb05c1-b66e-4800-9c6c-e40178061a64"},"vehicle_type_id":"4","last_reported":1736252286,"current_range_meters":31200,"station_id":"ce4bhlh2rcd13ifvqgig","pricing_plan_id":"cebpf4jnsgd1na2vs0mg"},{"bike_id":"57940789-524a-4c49-8824-fcb1509da1dc","system_id":"levelo_inurba_marseille","lat":43.26933,"lon":5.40265,"is_reserved":false,"is_disabled":false,"rental_uris":{"android":"levelo://app?vid=57940789-524a-4c49-8824-fcb1509da1dc","ios":"levelo://app?vid=57940789-524a-4c49-8824-fcb1509da1dc"},"vehicle_type_id":"4","last_reported":1736252286,"current_range_meters":38800,"station_id":"cjm6bp8fraef2m0cb0m0","pricing_plan_id":"cebpf4jnsgd1na2vs0mg"},{"bike_id":"ccefbdf4-df27-4947-9b01-eba3707af800","system_id":"levelo_inurba_marseille","lat":43.29541,"lon":5.38558,"is_reserved":false,"is_disabled":true,"rental_uris":{"android":"levelo://app?vid=ccefbdf4-df27-4947-9b01-eba3707af800","ios":"levelo://app?vid=ccefbdf4-df27-4947-9b01-eba3707af800"},"vehicle_type_id":"4","last_reported":1736252286,"current_range_meters":20800,"station_id":"ce4bgih2rcd13ifvqba0","pricing_plan_id":"cebpf4jnsgd1na2vs0mg"},{"bike_id":"05efc8db-a5eb-4569-9898-5a3e81ef0286","system_id":"levelo_inurba_marseille","lat":43.26554,"lon":5.39016,"is_reserved":false,"is_disabled":false,"rental_uris":{"android":"levelo://app?vid=05efc8db-a5eb-4569-9898-5a3e81ef0286","ios":"levelo://app?vid=05efc8db-a5eb-4569-9898-5a3e81ef0286"},"vehicle_type_id":"4","last_reported":1736252286,"current_range_meters":33200,"station_id":"ce4bhe12rcd13ifvqf30","pricing_plan_id":"cebpf4jnsgd1na2vs0mg"},{"bike_id":"15c6a4a4-22a2-45b6-a26f-20172a12246a","system_id":"levelo_inurba_marseille","lat":43.25089,"lon":5.39505,"is_reserved":false,"is_disabled":false,"rental_uris":{"android":"levelo://app?vid=15c6a4a4-22a2-45b6-a26f-20172a12246a","ios":"levelo://app?vid=15c6a4a4-22a2-45b6-a26f-20172a12246a"},"vehicle_type_id":"4","last_reported":1736252286,"current_range_meters":36800,"station_id":"ce4bhm12rcd13ifvqgkg","pricing_plan_id":"cebpf4jnsgd1na2vs0mg"},{"bike_id":"1df82232-a0be-459c-bcf6-1054c5b1bfef","system_id":"levelo_inurba_marseille","lat":43.30474,"lon":5.37912,"is_reserved":false,"is_disabled":false,"rental_uris":{"android":"levelo://app?vid=1df82232-a0be-459c-bcf6-1054c5b1bfef","ios":"levelo://app?vid=1df82232-a0be-459c-bcf6-1054c5b1bfef"},"vehicle_type_id":"4","last_reported":1736252286,"current_range_meters":39200,"station_id":"ce4bgup2rcd13ifvqcn0","pricing_plan_id":"cebpf4jnsgd1na2vs0mg"},{"bike_id":"76cd352e-a8d9-42f0-bb47-cbf0cb3d076a","system_id":"levelo_inurba_marseille","lat":43.2668,"lon":5.38255,"is_reserved":false,"is_disabled":false,"rental_uris":{"android":"levelo://app?vid=76cd352e-a8d9-42f0-bb47-cbf0cb3d076a","ios":"levelo://app?vid=76cd352e-a8d9-42f0-bb47-cbf0cb3d076a"},"vehicle_type_id":"4","last_reported":1736252286,"current_range_meters":32400,"station_id":"ce4bhg92rcd13ifvqf90","pricing_plan_id":"cebpf4jnsgd1na2vs0mg"},{"bike_id":"b33c1a93-9428-4827-bbb0-98b2168d8984","system_id":"levelo_inurba_marseille","lat":43.287,"lon":5.39998,"is_reserved":false,"is_disabled":false,"rental_uris":{"android":"levelo://app?vid=b33c1a93-9428-4827-bbb0-98b2168d8984","ios":"levelo://app?vid=b33c1a93-9428-4827-bbb0-98b2168d8984"},"vehicle_type_id":"4","last_reported":1736252286,"current_range_meters":36000,"station_id":"ce4bho92rcd13ifvqh3g","pricing_plan_id":"cebpf4jnsgd1na2vs0mg"},{"bike_id":"3a3e4ac1-b48f-48a6-b198-f246510da693","system_id":"levelo_inurba_marseille","lat":43.31269,"lon":5.40162,"is_reserved":false,"is_disabled":false,"rental_uris":{"android":"levelo://app?vid=3a3e4ac1-b48f-48a6-b198-f246510da693","ios":"levelo://app?vid=3a3e4ac1-b48f-48a6-b198-f246510da693"},"vehicle_type_id":"4","last_reported":1736252286,"current_range_meters":38000,"station_id":"ce4bh092rcd13ifvqd30","pricing_plan_id":"cebpf4jnsgd1na2vs0mg"},{"bike_id":"24b5122d-d1fa-485d-8bde-070b2afdf29f","system_id":"levelo_inurba_marseille","lat":43.28106,"lon":5.3784,"is_reserved":false,"is_disabled":false,"rental_uris":{"android":"levelo://app?vid=24b5122d-d1fa-485d-8bde-070b2afdf29f","ios":"levelo://app?vid=24b5122d-d1fa-485d-8bde-070b2afdf29f"},"vehicle_type_id":"4","last_reported":1736252286,"current_range_meters":28800,"station_id":"ce4bha12rcd13ifvqee0","pricing_plan_id":"cebpf4jnsgd1na2vs0mg"},{"bike_id":"35a29260-c090-40e6-a566-3b37eb48c708","system_id":"levelo_inurba_marseille","lat":43.30288,"lon":5.39218,"is_reserved":false,"is_disabled":false,"rental_uris":{"android":"levelo://app?vid=35a29260-c090-40e6-a566-3b37eb48c708","ios":"levelo://app?vid=35a29260-c090-40e6-a566-3b37eb48c708"},"vehicle_type_id":"4","last_reported":1736252286,"current_range_meters":6800,"station_id":"ce4bgkh2rcd13ifvqbk0","pricing_plan_id":"cebpf4jnsgd1na2vs0mg"},{"bike_id":"f8ae6fa2-9568-4f23-bda7-a92dbb665e84","system_id":"levelo_inurba_marseille","lat":43.26688,"lon":5.38274,"is_reserved":false,"is_disabled":false,"rental_uris":{"android":"levelo://app?vid=f8ae6fa2-9568-4f23-bda7-a92dbb665e84","ios":"levelo://app?vid=f8ae6fa2-9568-4f23-bda7-a92dbb665e84"},"vehicle_type_id":"4","last_reported":1736252286,"current_range_meters":27200,"station_id":"ce4bhg92rcd13ifvqf90","pricing_plan_id":"cebpf4jnsgd1na2vs0mg"},{"bike_id":"637c9e25-6ec5-4d5c-9ec9-ed6c73dcb821","system_id":"levelo_inurba_marseille","lat":43.31698,"lon":5.37802,"is_reserved":false,"is_disabled":false,"rental_uris":{"android":"levelo://app?vid=637c9e25-6ec5-4d5c-9ec9-ed6c73dcb821","ios":"levelo://app?vid=637c9e25-6ec5-4d5c-9ec9-ed6c73dcb821"},"vehicle_type_id":"4","last_reported":1736252286,"current_range_meters":36000,"station_id":"","pricing_plan_id":"cebpf4jnsgd1na2vs0mg"},{"bike_id":"c4203568-2920-4a3a-9254-b7dbce893e33","system_id":"levelo_inurba_marseille","lat":43.30132,"lon":5.38783,"is_reserved":false,"is_disabled":false,"rental_uris":{"android":"levelo://app?vid=c4203568-2920-4a3a-9254-b7dbce893e33","ios":"levelo://app?vid=c4203568-2920-4a3a-9254-b7dbce893e33"},"vehicle_type_id":"4","last_reported":1736252286,"current_range_meters":38800,"station_id":"ce4bhoh2rcd13ifvqh6g","pricing_plan_id":"cebpf4jnsgd1na2vs0mg"},{"bike_id":"f4d89a0a-2551-4f65-a39a-2779380e4d0d","system_id":"levelo_inurba_marseille","lat":43.29213,"lon":5.36065,"is_reserved":false,"is_disabled":false,"rental_uris":{"android":"levelo://app?vid=f4d89a0a-2551-4f65-a39a-2779380e4d0d","ios":"levelo://app?vid=f4d89a0a-2551-4f65-a39a-2779380e4d0d"},"vehicle_type_id":"4","last_reported":1736252286,"current_range_meters":22400,"station_id":"ce4bhbh2rcd13ifvqeqg","pricing_plan_id":"cebpf4jnsgd1na2vs0mg"},{"bike_id":"5671a7cc-1094-4b46-906d-b97f733ad9e2","system_id":"levelo_inurba_marseille","lat":43.30318,"lon":5.40447,"is_reserved":false,"is_disabled":true,"rental_uris":{"android":"levelo://app?vid=5671a7cc-1094-4b46-906d-b97f733ad9e2","ios":"levelo://app?vid=5671a7cc-1094-4b46-906d-b97f733ad9e2"},"vehicle_type_id":"4","last_reported":1736252286,"current_range_meters":37600,"station_id":"ce4bh012rcd13ifvqd10","pricing_plan_id":"cebpf4jnsgd1na2vs0mg"},{"bike_id":"87214e56-26a8-4924-b39b-0d8eef493d3c","system_id":"levelo_inurba_marseille","lat":43.28035,"lon":5.36954,"is_reserved":false,"is_disabled":true,"rental_uris":{"android":"levelo://app?vid=87214e56-26a8-4924-b39b-0d8eef493d3c","ios":"levelo://app?vid=87214e56-26a8-4924-b39b-0d8eef493d3c"},"vehicle_type_id":"4","last_reported":1736252286,"current_range_meters":400,"station_id":"ce4bha12rcd13ifvqef0","pricing_plan_id":"cebpf4jnsgd1na2vs0mg"},{"bike_id":"002cce3f-9cee-431a-a280-2bf32cc03b16","system_id":"levelo_inurba_marseille","lat":43.30909,"lon":5.37184,"is_reserved":false,"is_disabled":false,"rental_uris":{"android":"levelo://app?vid=002cce3f-9cee-431a-a280-2bf32cc03b16","ios":"levelo://app?vid=002cce3f-9cee-431a-a280-2bf32cc03b16"},"vehicle_type_id":"4","last_reported":1736252286,"current_range_meters":36800,"station_id":"ce4bguh2rcd13ifvqckg","pricing_plan_id":"cebpf4jnsgd1na2vs0mg"},{"bike_id":"005c2044-0c78-410b-b1cd-e1e9feaa0e05","system_id":"levelo_inurba_marseille","lat":43.239614,"lon":5.366351,"is_reserved":false,"is_disabled":false,"rental_uris":{"android":"levelo://app?vid=005c2044-0c78-410b-b1cd-e1e9feaa0e05","ios":"levelo://app?vid=005c2044-0c78-410b-b1cd-e1e9feaa0e05"},"vehicle_type_id":"4","last_reported":1736252286,"current_range_meters":18800,"station_id":"ce4bhi12rcd13ifvqfp0","pricing_plan_id":"cebpf4jnsgd1na2vs0mg"},{"bike_id":"aeb0d51e-c880-4a72-880d-69368e7d2228","system_id":"levelo_inurba_marseille","lat":43.24072,"lon":5.37738,"is_reserved":false,"is_disabled":false,"rental_uris":{"android":"levelo://app?vid=aeb0d51e-c880-4a72-880d-69368e7d2228","ios":"levelo://app?vid=aeb0d51e-c880-4a72-880d-69368e7d2228"},"vehicle_type_id":"4","last_reported":1736252286,"current_range_meters":33600,"station_id":"ce4bhnp2rcd13ifvqgvg","pricing_plan_id":"cebpf4jnsgd1na2vs0mg"},{"bike_id":"70976f0e-6277-4525-98da-1268151ed7d4","system_id":"levelo_inurba_marseille","lat":43.29215,"lon":5.3606,"is_reserved":false,"is_disabled":false,"rental_uris":{"android":"levelo://app?vid=70976f0e-6277-4525-98da-1268151ed7d4","ios":"levelo://app?vid=70976f0e-6277-4525-98da-1268151ed7d4"},"vehicle_type_id":"4","last_reported":1736252286,"current_range_meters":28000,"station_id":"ce4bhbh2rcd13ifvqeqg","pricing_plan_id":"cebpf4jnsgd1na2vs0mg"},{"bike_id":"95e5cb8a-94c1-4734-b68c-d5e982be7034","system_id":"levelo_inurba_marseille","lat":43.25826,"lon":5.39416,"is_reserved":false,"is_disabled":true,"rental_uris":{"android":"levelo://app?vid=95e5cb8a-94c1-4734-b68c-d5e982be7034","ios":"levelo://app?vid=95e5cb8a-94c1-4734-b68c-d5e982be7034"},"vehicle_type_id":"4","last_reported":1736252286,"current_range_meters":35200,"station_id":"ce4bhip2rcd13ifvqft0","pricing_plan_id":"cebpf4jnsgd1na2vs0mg"},{"bike_id":"94ae9d8d-339e-41f5-bf14-1e9df4322647","system_id":"levelo_inurba_marseille","lat":43.27488,"lon":5.4247,"is_reserved":false,"is_disabled":true,"rental_uris":{"android":"levelo://app?vid=94ae9d8d-339e-41f5-bf14-1e9df4322647","ios":"levelo://app?vid=94ae9d8d-339e-41f5-bf14-1e9df4322647"},"vehicle_type_id":"4","last_reported":1736252286,"current_range_meters":36800,"station_id":"ce4bhn92rcd13ifvqgrg","pricing_plan_id":"cebpf4jnsgd1na2vs0mg"},{"bike_id":"6a595de3-0911-46a9-bdbf-4cca5437105e","system_id":"levelo_inurba_marseille","lat":43.23198,"lon":5.35551,"is_reserved":false,"is_disabled":false,"rental_uris":{"android":"levelo://app?vid=6a595de3-0911-46a9-bdbf-4cca5437105e","ios":"levelo://app?vid=6a595de3-0911-46a9-bdbf-4cca5437105e"},"vehicle_type_id":"4","last_reported":1736252286,"current_range_meters":16400,"station_id":"ce4bhu92rcd13ifvqi70","pricing_plan_id":"cebpf4jnsgd1na2vs0mg"},{"bike_id":"641d8acc-50b2-4173-ab23-c70f2a11d28e","system_id":"levelo_inurba_marseille","lat":43.281514,"lon":5.426385,"is_reserved":false,"is_disabled":true,"rental_uris":{"android":"levelo://app?vid=641d8acc-50b2-4173-ab23-c70f2a11d28e","ios":"levelo://app?vid=641d8acc-50b2-4173-ab23-c70f2a11d28e"},"vehicle_type_id":"4","last_reported":1736252286,"current_range_meters":24000,"station_id":"ce4bhnh2rcd13ifvqgug","pricing_plan_id":"cebpf4jnsgd1na2vs0mg"},{"bike_id":"15e503f5-1d52-42d6-a98f-33a61fd8b554","system_id":"levelo_inurba_marseille","lat":43.28444,"lon":5.35912,"is_reserved":false,"is_disabled":true,"rental_uris":{"android":"levelo://app?vid=15e503f5-1d52-42d6-a98f-33a61fd8b554","ios":"levelo://app?vid=15e503f5-1d52-42d6-a98f-33a61fd8b554"},"vehicle_type_id":"4","last_reported":1736252286,"current_range_meters":16400,"station_id":"ce4bhah2rcd13ifvqei0","pricing_plan_id":"cebpf4jnsgd1na2vs0mg"},{"bike_id":"fc4f4fbe-0b2c-431b-a14f-b432ec7eed3b","system_id":"levelo_inurba_marseille","lat":43.30956,"lon":5.39044,"is_reserved":false,"is_disabled":false,"rental_uris":{"android":"levelo://app?vid=fc4f4fbe-0b2c-431b-a14f-b432ec7eed3b","ios":"levelo://app?vid=fc4f4fbe-0b2c-431b-a14f-b432ec7eed3b"},"vehicle_type_id":"4","last_reported":1736252286,"current_range_meters":6400,"station_id":"ce4bgup2rcd13ifvqco0","pricing_plan_id":"cebpf4jnsgd1na2vs0mg"},{"bike_id":"b431fb1b-91ef-49ea-bfde-e98d930522d6","system_id":"levelo_inurba_marseille","lat":43.24999,"lon":5.38947,"is_reserved":false,"is_disabled":false,"rental_uris":{"android":"levelo://app?vid=b431fb1b-91ef-49ea-bfde-e98d930522d6","ios":"levelo://app?vid=b431fb1b-91ef-49ea-bfde-e98d930522d6"},"vehicle_type_id":"4","last_reported":1736252286,"current_range_meters":38400,"station_id":"ce4bhgp2rcd13ifvqfd0","pricing_plan_id":"cebpf4jnsgd1na2vs0mg"},{"bike_id":"efc1f82b-7c45-485b-88c1-5e129790dd0a","system_id":"levelo_inurba_marseille","lat":43.28935,"lon":5.3638,"is_reserved":false,"is_disabled":false,"rental_uris":{"android":"levelo://app?vid=efc1f82b-7c45-485b-88c1-5e129790dd0a","ios":"levelo://app?vid=efc1f82b-7c45-485b-88c1-5e129790dd0a"},"vehicle_type_id":"4","last_reported":1736252286,"current_range_meters":24800,"station_id":"ce4bhc92rcd13ifvqetg","pricing_plan_id":"cebpf4jnsgd1na2vs0mg"},{"bike_id":"a215b402-9203-4bb7-8fd3-b78a9c7a4a30","system_id":"levelo_inurba_marseille","lat":43.291198,"lon":5.385346,"is_reserved":false,"is_disabled":false,"rental_uris":{"android":"levelo://app?vid=a215b402-9203-4bb7-8fd3-b78a9c7a4a30","ios":"levelo://app?vid=a215b402-9203-4bb7-8fd3-b78a9c7a4a30"},"vehicle_type_id":"4","last_reported":1736252286,"current_range_meters":38800,"station_id":"ce4bh4p2rcd13ifvqe0g","pricing_plan_id":"cebpf4jnsgd1na2vs0mg"},{"bike_id":"97db5fba-863c-4fa0-a4ed-153fce28887a","system_id":"levelo_inurba_marseille","lat":43.29066,"lon":5.37147,"is_reserved":false,"is_disabled":false,"rental_uris":{"android":"levelo://app?vid=97db5fba-863c-4fa0-a4ed-153fce28887a","ios":"levelo://app?vid=97db5fba-863c-4fa0-a4ed-153fce28887a"},"vehicle_type_id":"4","last_reported":1736252286,"current_range_meters":35200,"station_id":"ce4bh5p2rcd13ifvqe4g","pricing_plan_id":"cebpf4jnsgd1na2vs0mg"},{"bike_id":"6d88bbf0-f428-4bd4-ab8a-2ee8d5e7c74e","system_id":"levelo_inurba_marseille","lat":43.23066,"lon":5.35504,"is_reserved":false,"is_disabled":false,"rental_uris":{"android":"levelo://app?vid=6d88bbf0-f428-4bd4-ab8a-2ee8d5e7c74e","ios":"levelo://app?vid=6d88bbf0-f428-4bd4-ab8a-2ee8d5e7c74e"},"vehicle_type_id":"4","last_reported":1736252286,"current_range_meters":38000,"station_id":"cpo3342slgdg3j2ifvpg","pricing_plan_id":"cebpf4jnsgd1na2vs0mg"},{"bike_id":"1ea7e8cb-f7a9-466a-8528-41a05f115667","system_id":"levelo_inurba_marseille","lat":43.3043,"lon":5.39747,"is_reserved":false,"is_disabled":false,"rental_uris":{"android":"levelo://app?vid=1ea7e8cb-f7a9-466a-8528-41a05f115667","ios":"levelo://app?vid=1ea7e8cb-f7a9-466a-8528-41a05f115667"},"vehicle_type_id":"4","last_reported":1736252286,"current_range_meters":27600,"station_id":"ce4bh092rcd13ifvqd20","pricing_plan_id":"cebpf4jnsgd1na2vs0mg"},{"bike_id":"fc28be46-23fe-4f09-821c-8a3bd21ca77c","system_id":"levelo_inurba_marseille","lat":43.25583,"lon":5.38241,"is_reserved":false,"is_disabled":true,"rental_uris":{"android":"levelo://app?vid=fc28be46-23fe-4f09-821c-8a3bd21ca77c","ios":"levelo://app?vid=fc28be46-23fe-4f09-821c-8a3bd21ca77c"},"vehicle_type_id":"4","last_reported":1736252286,"current_range_meters":1200,"station_id":"ce4bhih2rcd13ifvqfs0","pricing_plan_id":"cebpf4jnsgd1na2vs0mg"},{"bike_id":"97198f3e-fcb9-40de-ae26-e22e21936593","system_id":"levelo_inurba_marseille","lat":43.25823,"lon":5.39441,"is_reserved":false,"is_disabled":false,"rental_uris":{"android":"levelo://app?vid=97198f3e-fcb9-40de-ae26-e22e21936593","ios":"levelo://app?vid=97198f3e-fcb9-40de-ae26-e22e21936593"},"vehicle_type_id":"4","last_reported":1736252286,"current_range_meters":36400,"station_id":"ce4bhip2rcd13ifvqft0","pricing_plan_id":"cebpf4jnsgd1na2vs0mg"},{"bike_id":"05bd0f7d-2e1d-4674-8e4e-7a85c8b489af","system_id":"levelo_inurba_marseille","lat":43.27055,"lon":5.40267,"is_reserved":false,"is_disabled":false,"rental_uris":{"android":"levelo://app?vid=05bd0f7d-2e1d-4674-8e4e-7a85c8b489af","ios":"levelo://app?vid=05bd0f7d-2e1d-4674-8e4e-7a85c8b489af"},"vehicle_type_id":"4","last_reported":1736252286,"current_range_meters":19600,"station_id":"ce4bhk92rcd13ifvqgc0","pricing_plan_id":"cebpf4jnsgd1na2vs0mg"},{"bike_id":"86cfe359-1d07-4226-a8aa-b9731bd056a4","system_id":"levelo_inurba_marseille","lat":43.30153,"lon":5.37388,"is_reserved":false,"is_disabled":false,"rental_uris":{"android":"levelo://app?vid=86cfe359-1d07-4226-a8aa-b9731bd056a4","ios":"levelo://app?vid=86cfe359-1d07-4226-a8aa-b9731bd056a4"},"vehicle_type_id":"4","last_reported":1736252286,"current_range_meters":38800,"station_id":"ce4bgs92rcd13ifvqcc0","pricing_plan_id":"cebpf4jnsgd1na2vs0mg"},{"bike_id":"e0666f4c-dba6-4762-b951-342d9dc779cb","system_id":"levelo_inurba_marseille","lat":43.26676,"lon":5.38279,"is_reserved":false,"is_disabled":false,"rental_uris":{"android":"levelo://app?vid=e0666f4c-dba6-4762-b951-342d9dc779cb","ios":"levelo://app?vid=e0666f4c-dba6-4762-b951-342d9dc779cb"},"vehicle_type_id":"4","last_reported":1736252286,"current_range_meters":36800,"station_id":"ce4bhg92rcd13ifvqf90","pricing_plan_id":"cebpf4jnsgd1na2vs0mg"},{"bike_id":"52e74274-9992-45ef-9ae7-22eff92ca4cd","system_id":"levelo_inurba_marseille","lat":43.29481,"lon":5.37525,"is_reserved":false,"is_disabled":false,"rental_uris":{"android":"levelo://app?vid=52e74274-9992-45ef-9ae7-22eff92ca4cd","ios":"levelo://app?vid=52e74274-9992-45ef-9ae7-22eff92ca4cd"},"vehicle_type_id":"4","last_reported":1736252286,"current_range_meters":34000,"station_id":"","pricing_plan_id":"cebpf4jnsgd1na2vs0mg"},{"bike_id":"94b94df2-7302-46ff-a283-edcc723a0120","system_id":"levelo_inurba_marseille","lat":43.3052,"lon":5.36554,"is_reserved":false,"is_disabled":false,"rental_uris":{"android":"levelo://app?vid=94b94df2-7302-46ff-a283-edcc723a0120","ios":"levelo://app?vid=94b94df2-7302-46ff-a283-edcc723a0120"},"vehicle_type_id":"4","last_reported":1736252286,"current_range_meters":28000,"station_id":"ce4bgs12rcd13ifvqcag","pricing_plan_id":"cebpf4jnsgd1na2vs0mg"},{"bike_id":"a6b1fa15-0d95-44cb-8be4-c3e55514c811","system_id":"levelo_inurba_marseille","lat":43.27319,"lon":5.39101,"is_reserved":false,"is_disabled":false,"rental_uris":{"android":"levelo://app?vid=a6b1fa15-0d95-44cb-8be4-c3e55514c811","ios":"levelo://app?vid=a6b1fa15-0d95-44cb-8be4-c3e55514c811"},"vehicle_type_id":"4","last_reported":1736252286,"current_range_meters":8000,"station_id":"ce4bhgp2rcd13ifvqfe0","pricing_plan_id":"cebpf4jnsgd1na2vs0mg"},{"bike_id":"29be7462-9155-450d-bff5-c22297d36807","system_id":"levelo_inurba_marseille","lat":43.2935,"lon":5.37858,"is_reserved":false,"is_disabled":false,"rental_uris":{"android":"levelo://app?vid=29be7462-9155-450d-bff5-c22297d36807","ios":"levelo://app?vid=29be7462-9155-450d-bff5-c22297d36807"},"vehicle_type_id":"4","last_reported":1736252286,"current_range_meters":39200,"station_id":"ce4bgjh2rcd13ifvqbf0","pricing_plan_id":"cebpf4jnsgd1na2vs0mg"},{"bike_id":"b6414433-b905-4dc3-8388-83b79fbc566d","system_id":"levelo_inurba_marseille","lat":43.28612,"lon":5.35105,"is_reserved":false,"is_disabled":false,"rental_uris":{"android":"levelo://app?vid=b6414433-b905-4dc3-8388-83b79fbc566d","ios":"levelo://app?vid=b6414433-b905-4dc3-8388-83b79fbc566d"},"vehicle_type_id":"4","last_reported":1736252286,"current_range_meters":30400,"station_id":"ce4bhch2rcd13ifvqeug","pricing_plan_id":"cebpf4jnsgd1na2vs0mg"},{"bike_id":"73f16b5d-7aaf-4142-881f-0c71d79f7813","system_id":"levelo_inurba_marseille","lat":43.28277,"lon":5.35059,"is_reserved":false,"is_disabled":false,"rental_uris":{"android":"levelo://app?vid=73f16b5d-7aaf-4142-881f-0c71d79f7813","ios":"levelo://app?vid=73f16b5d-7aaf-4142-881f-0c71d79f7813"},"vehicle_type_id":"4","last_reported":1736252286,"current_range_meters":32800,"station_id":"ce4bhbp2rcd13ifvqerg","pricing_plan_id":"cebpf4jnsgd1na2vs0mg"},{"bike_id":"cca2f7c7-45e7-4f8a-80d9-cffca2b70c93","system_id":"levelo_inurba_marseille","lat":43.26689,"lon":5.38274,"is_reserved":false,"is_disabled":true,"rental_uris":{"android":"levelo://app?vid=cca2f7c7-45e7-4f8a-80d9-cffca2b70c93","ios":"levelo://app?vid=cca2f7c7-45e7-4f8a-80d9-cffca2b70c93"},"vehicle_type_id":"4","last_reported":1736252286,"current_range_meters":32400,"station_id":"ce4bhg92rcd13ifvqf90","pricing_plan_id":"cebpf4jnsgd1na2vs0mg"},{"bike_id":"2a234fe7-39c7-4ec8-95ed-da57a7809c5b","system_id":"levelo_inurba_marseille","lat":43.28687,"lon":5.38656,"is_reserved":false,"is_disabled":false,"rental_uris":{"android":"levelo://app?vid=2a234fe7-39c7-4ec8-95ed-da57a7809c5b","ios":"levelo://app?vid=2a234fe7-39c7-4ec8-95ed-da57a7809c5b"},"vehicle_type_id":"4","last_reported":1736252286,"current_range_meters":27200,"station_id":"ce4bh492rcd13ifvqdug","pricing_plan_id":"cebpf4jnsgd1na2vs0mg"},{"bike_id":"edf135d7-fe46-453d-a20f-2c11dcbf0da8","system_id":"levelo_inurba_marseille","lat":43.2695,"lon":5.38632,"is_reserved":false,"is_disabled":false,"rental_uris":{"android":"levelo://app?vid=edf135d7-fe46-453d-a20f-2c11dcbf0da8","ios":"levelo://app?vid=edf135d7-fe46-453d-a20f-2c11dcbf0da8"},"vehicle_type_id":"4","last_reported":1736252286,"current_range_meters":28400,"station_id":"ce4bhh92rcd13ifvqfh0","pricing_plan_id":"cebpf4jnsgd1na2vs0mg"},{"bike_id":"0a967f6d-fd0e-4773-80c2-1aa9d073824b","system_id":"levelo_inurba_marseille","lat":43.25074,"lon":5.39508,"is_reserved":false,"is_disabled":false,"rental_uris":{"android":"levelo://app?vid=0a967f6d-fd0e-4773-80c2-1aa9d073824b","ios":"levelo://app?vid=0a967f6d-fd0e-4773-80c2-1aa9d073824b"},"vehicle_type_id":"4","last_reported":1736252286,"current_range_meters":28800,"station_id":"ce4bhm12rcd13ifvqgkg","pricing_plan_id":"cebpf4jnsgd1na2vs0mg"},{"bike_id":"e8fcdecf-26a9-40b3-82d9-1e06a6d4a009","system_id":"levelo_inurba_marseille","lat":43.29217,"lon":5.36068,"is_reserved":false,"is_disabled":false,"rental_uris":{"android":"levelo://app?vid=e8fcdecf-26a9-40b3-82d9-1e06a6d4a009","ios":"levelo://app?vid=e8fcdecf-26a9-40b3-82d9-1e06a6d4a009"},"vehicle_type_id":"4","last_reported":1736252286,"current_range_meters":30400,"station_id":"ce4bhbh2rcd13ifvqeqg","pricing_plan_id":"cebpf4jnsgd1na2vs0mg"},{"bike_id":"a7b6a724-b627-427f-a203-c936f30961bc","system_id":"levelo_inurba_marseille","lat":43.29328,"lon":5.3715,"is_reserved":false,"is_disabled":false,"rental_uris":{"android":"levelo://app?vid=a7b6a724-b627-427f-a203-c936f30961bc","ios":"levelo://app?vid=a7b6a724-b627-427f-a203-c936f30961bc"},"vehicle_type_id":"4","last_reported":1736252286,"current_range_meters":27600,"station_id":"ce4bgh92rcd13ifvqb40","pricing_plan_id":"cebpf4jnsgd1na2vs0mg"},{"bike_id":"867f6560-18b8-48f4-a602-11a4b1cfee43","system_id":"levelo_inurba_marseille","lat":43.30919,"lon":5.36856,"is_reserved":false,"is_disabled":false,"rental_uris":{"android":"levelo://app?vid=867f6560-18b8-48f4-a602-11a4b1cfee43","ios":"levelo://app?vid=867f6560-18b8-48f4-a602-11a4b1cfee43"},"vehicle_type_id":"4","last_reported":1736252286,"current_range_meters":14800,"station_id":"ce4bgn92rcd13ifvqbvg","pricing_plan_id":"cebpf4jnsgd1na2vs0mg"},{"bike_id":"cddd307b-6b52-4063-bd34-66e2679f48ac","system_id":"levelo_inurba_marseille","lat":43.29376,"lon":5.37848,"is_reserved":false,"is_disabled":false,"rental_uris":{"android":"levelo://app?vid=cddd307b-6b52-4063-bd34-66e2679f48ac","ios":"levelo://app?vid=cddd307b-6b52-4063-bd34-66e2679f48ac"},"vehicle_type_id":"4","last_reported":1736252286,"current_range_meters":33200,"station_id":"ce4bgjh2rcd13ifvqbf0","pricing_plan_id":"cebpf4jnsgd1na2vs0mg"},{"bike_id":"11b6bfca-a07d-48d2-9614-67e10e31f64f","system_id":"levelo_inurba_marseille","lat":43.32662,"lon":5.40991,"is_reserved":false,"is_disabled":false,"rental_uris":{"android":"levelo://app?vid=11b6bfca-a07d-48d2-9614-67e10e31f64f","ios":"levelo://app?vid=11b6bfca-a07d-48d2-9614-67e10e31f64f"},"vehicle_type_id":"4","last_reported":1736252286,"current_range_meters":11200,"station_id":"ce4bhpp2rcd13ifvqhgg","pricing_plan_id":"cebpf4jnsgd1na2vs0mg"},{"bike_id":"0ed9821e-3c57-4dcf-9274-906710607d1f","system_id":"levelo_inurba_marseille","lat":43.24385,"lon":5.37062,"is_reserved":false,"is_disabled":false,"rental_uris":{"android":"levelo://app?vid=0ed9821e-3c57-4dcf-9274-906710607d1f","ios":"levelo://app?vid=0ed9821e-3c57-4dcf-9274-906710607d1f"},"vehicle_type_id":"4","last_reported":1736252286,"current_range_meters":8400,"station_id":"ce4bhhh2rcd13ifvqfk0","pricing_plan_id":"cebpf4jnsgd1na2vs0mg"},{"bike_id":"a654bcd9-87ff-4423-9dec-90165872ac51","system_id":"levelo_inurba_marseille","lat":43.2546,"lon":5.37681,"is_reserved":false,"is_disabled":false,"rental_uris":{"android":"levelo://app?vid=a654bcd9-87ff-4423-9dec-90165872ac51","ios":"levelo://app?vid=a654bcd9-87ff-4423-9dec-90165872ac51"},"vehicle_type_id":"4","last_reported":1736252286,"current_range_meters":38000,"station_id":"ce4bhh12rcd13ifvqff0","pricing_plan_id":"cebpf4jnsgd1na2vs0mg"},{"bike_id":"cbc8ef3d-db5b-4e2d-8062-ee6eeb43702e","system_id":"levelo_inurba_marseille","lat":43.30919,"lon":5.3684,"is_reserved":false,"is_disabled":false,"rental_uris":{"android":"levelo://app?vid=cbc8ef3d-db5b-4e2d-8062-ee6eeb43702e","ios":"levelo://app?vid=cbc8ef3d-db5b-4e2d-8062-ee6eeb43702e"},"vehicle_type_id":"4","last_reported":1736252286,"current_range_meters":36400,"station_id":"ce4bgn92rcd13ifvqbvg","pricing_plan_id":"cebpf4jnsgd1na2vs0mg"},{"bike_id":"c1b804e7-595b-45d6-97d4-9f4af513dff3","system_id":"levelo_inurba_marseille","lat":43.3047,"lon":5.379105,"is_reserved":false,"is_disabled":false,"rental_uris":{"android":"levelo://app?vid=c1b804e7-595b-45d6-97d4-9f4af513dff3","ios":"levelo://app?vid=c1b804e7-595b-45d6-97d4-9f4af513dff3"},"vehicle_type_id":"4","last_reported":1736252286,"current_range_meters":38800,"station_id":"ce4bgup2rcd13ifvqcn0","pricing_plan_id":"cebpf4jnsgd1na2vs0mg"},{"bike_id":"254782f5-0eed-4557-bbf0-54e14bb47662","system_id":"levelo_inurba_marseille","lat":43.2454,"lon":5.39514,"is_reserved":false,"is_disabled":false,"rental_uris":{"android":"levelo://app?vid=254782f5-0eed-4557-bbf0-54e14bb47662","ios":"levelo://app?vid=254782f5-0eed-4557-bbf0-54e14bb47662"},"vehicle_type_id":"4","last_reported":1736252286,"current_range_meters":17200,"station_id":"ce4bhlp2rcd13ifvqgjg","pricing_plan_id":"cebpf4jnsgd1na2vs0mg"},{"bike_id":"1c91e94a-d32d-4506-b8b8-b791431e401e","system_id":"levelo_inurba_marseille","lat":43.2891,"lon":5.38413,"is_reserved":false,"is_disabled":true,"rental_uris":{"android":"levelo://app?vid=1c91e94a-d32d-4506-b8b8-b791431e401e","ios":"levelo://app?vid=1c91e94a-d32d-4506-b8b8-b791431e401e"},"vehicle_type_id":"4","last_reported":1736252286,"current_range_meters":30800,"station_id":"ce4bh612rcd13ifvqe6g","pricing_plan_id":"cebpf4jnsgd1na2vs0mg"},{"bike_id":"7082a147-72ba-427b-b7d0-01f4c79523c2","system_id":"levelo_inurba_marseille","lat":43.33251,"lon":5.35874,"is_reserved":false,"is_disabled":false,"rental_uris":{"android":"levelo://app?vid=7082a147-72ba-427b-b7d0-01f4c79523c2","ios":"levelo://app?vid=7082a147-72ba-427b-b7d0-01f4c79523c2"},"vehicle_type_id":"4","last_reported":1736252286,"current_range_meters":16400,"station_id":"","pricing_plan_id":"cebpf4jnsgd1na2vs0mg"},{"bike_id":"b354de21-01c7-4a47-964b-4c267c08f725","system_id":"levelo_inurba_marseille","lat":43.30909,"lon":5.36867,"is_reserved":false,"is_disabled":false,"rental_uris":{"android":"levelo://app?vid=b354de21-01c7-4a47-964b-4c267c08f725","ios":"levelo://app?vid=b354de21-01c7-4a47-964b-4c267c08f725"},"vehicle_type_id":"4","last_reported":1736252286,"current_range_meters":22000,"station_id":"ce4bgn92rcd13ifvqbvg","pricing_plan_id":"cebpf4jnsgd1na2vs0mg"},{"bike_id":"7ac0b8f4-b144-4a52-bf8d-93e2ea2b1290","system_id":"levelo_inurba_marseille","lat":43.29378,"lon":5.37854,"is_reserved":false,"is_disabled":false,"rental_uris":{"android":"levelo://app?vid=7ac0b8f4-b144-4a52-bf8d-93e2ea2b1290","ios":"levelo://app?vid=7ac0b8f4-b144-4a52-bf8d-93e2ea2b1290"},"vehicle_type_id":"4","last_reported":1736252286,"current_range_meters":38800,"station_id":"ce4bgjh2rcd13ifvqbf0","pricing_plan_id":"cebpf4jnsgd1na2vs0mg"},{"bike_id":"0ddd0107-d5ae-4d6b-92ac-fa78bb1103ae","system_id":"levelo_inurba_marseille","lat":43.29059,"lon":5.38628,"is_reserved":false,"is_disabled":false,"rental_uris":{"android":"levelo://app?vid=0ddd0107-d5ae-4d6b-92ac-fa78bb1103ae","ios":"levelo://app?vid=0ddd0107-d5ae-4d6b-92ac-fa78bb1103ae"},"vehicle_type_id":"4","last_reported":1736252286,"current_range_meters":29600,"station_id":"ce4bh4p2rcd13ifvqe0g","pricing_plan_id":"cebpf4jnsgd1na2vs0mg"},{"bike_id":"4eb2bcd1-04ef-4fe8-9445-eabe84443517","system_id":"levelo_inurba_marseille","lat":43.27174,"lon":5.40997,"is_reserved":false,"is_disabled":false,"rental_uris":{"android":"levelo://app?vid=4eb2bcd1-04ef-4fe8-9445-eabe84443517","ios":"levelo://app?vid=4eb2bcd1-04ef-4fe8-9445-eabe84443517"},"vehicle_type_id":"4","last_reported":1736252286,"current_range_meters":24400,"station_id":"ce4bhl12rcd13ifvqgf0","pricing_plan_id":"cebpf4jnsgd1na2vs0mg"},{"bike_id":"d45d0089-5e8c-41ac-a04c-9866c8dc94cc","system_id":"levelo_inurba_marseille","lat":43.23176,"lon":5.35515,"is_reserved":false,"is_disabled":false,"rental_uris":{"android":"levelo://app?vid=d45d0089-5e8c-41ac-a04c-9866c8dc94cc","ios":"levelo://app?vid=d45d0089-5e8c-41ac-a04c-9866c8dc94cc"},"vehicle_type_id":"4","last_reported":1736252286,"current_range_meters":4400,"station_id":"ce4bhu92rcd13ifvqi70","pricing_plan_id":"cebpf4jnsgd1na2vs0mg"},{"bike_id":"53b195c2-4c89-4217-b484-89378e656dfb","system_id":"levelo_inurba_marseille","lat":43.29923,"lon":5.36546,"is_reserved":false,"is_disabled":false,"rental_uris":{"android":"levelo://app?vid=53b195c2-4c89-4217-b484-89378e656dfb","ios":"levelo://app?vid=53b195c2-4c89-4217-b484-89378e656dfb"},"vehicle_type_id":"4","last_reported":1736252286,"current_range_meters":24400,"station_id":"ce4bgm92rcd13ifvqbr0","pricing_plan_id":"cebpf4jnsgd1na2vs0mg"},{"bike_id":"e83a8c35-01f3-4930-9f78-ab4bd641c56f","system_id":"levelo_inurba_marseille","lat":43.28935,"lon":5.36377,"is_reserved":false,"is_disabled":true,"rental_uris":{"android":"levelo://app?vid=e83a8c35-01f3-4930-9f78-ab4bd641c56f","ios":"levelo://app?vid=e83a8c35-01f3-4930-9f78-ab4bd641c56f"},"vehicle_type_id":"4","last_reported":1736252286,"current_range_meters":800,"station_id":"ce4bhc92rcd13ifvqetg","pricing_plan_id":"cebpf4jnsgd1na2vs0mg"},{"bike_id":"aa33a53e-f806-43a8-ad7e-8e2bd9644426","system_id":"levelo_inurba_marseille","lat":43.32345,"lon":5.40629,"is_reserved":false,"is_disabled":true,"rental_uris":{"android":"levelo://app?vid=aa33a53e-f806-43a8-ad7e-8e2bd9644426","ios":"levelo://app?vid=aa33a53e-f806-43a8-ad7e-8e2bd9644426"},"vehicle_type_id":"4","last_reported":1736252286,"current_range_meters":0,"station_id":"ce4bhq92rcd13ifvqhjg","pricing_plan_id":"cebpf4jnsgd1na2vs0mg"},{"bike_id":"47e4e733-ddae-489d-8488-ea0c12e2344c","system_id":"levelo_inurba_marseille","lat":43.3017,"lon":5.38148,"is_reserved":false,"is_disabled":false,"rental_uris":{"android":"levelo://app?vid=47e4e733-ddae-489d-8488-ea0c12e2344c","ios":"levelo://app?vid=47e4e733-ddae-489d-8488-ea0c12e2344c"},"vehicle_type_id":"4","last_reported":1736252286,"current_range_meters":32400,"station_id":"","pricing_plan_id":"cebpf4jnsgd1na2vs0mg"},{"bike_id":"a36a7a0f-e881-4fa0-98a5-d6031322e74b","system_id":"levelo_inurba_marseille","lat":43.29001,"lon":5.35613,"is_reserved":false,"is_disabled":false,"rental_uris":{"android":"levelo://app?vid=a36a7a0f-e881-4fa0-98a5-d6031322e74b","ios":"levelo://app?vid=a36a7a0f-e881-4fa0-98a5-d6031322e74b"},"vehicle_type_id":"4","last_reported":1736252286,"current_range_meters":38800,"station_id":"ce4bhb92rcd13ifvqen0","pricing_plan_id":"cebpf4jnsgd1na2vs0mg"},{"bike_id":"184ebaba-bf18-489d-8947-aa0b180dec35","system_id":"levelo_inurba_marseille","lat":43.30601,"lon":5.3724,"is_reserved":false,"is_disabled":false,"rental_uris":{"android":"levelo://app?vid=184ebaba-bf18-489d-8947-aa0b180dec35","ios":"levelo://app?vid=184ebaba-bf18-489d-8947-aa0b180dec35"},"vehicle_type_id":"4","last_reported":1736252286,"current_range_meters":34000,"station_id":"ce4bgqh2rcd13ifvqc4g","pricing_plan_id":"cebpf4jnsgd1na2vs0mg"},{"bike_id":"9f067e76-a631-4de3-8b36-6688d4c426e4","system_id":"levelo_inurba_marseille","lat":43.31686,"lon":5.40473,"is_reserved":false,"is_disabled":false,"rental_uris":{"android":"levelo://app?vid=9f067e76-a631-4de3-8b36-6688d4c426e4","ios":"levelo://app?vid=9f067e76-a631-4de3-8b36-6688d4c426e4"},"vehicle_type_id":"4","last_reported":1736252286,"current_range_meters":24800,"station_id":"ce4bh012rcd13ifvqd00","pricing_plan_id":"cebpf4jnsgd1na2vs0mg"},{"bike_id":"f7b40540-14cd-4842-8d0c-6eec62d50446","system_id":"levelo_inurba_marseille","lat":43.29557,"lon":5.37536,"is_reserved":false,"is_disabled":false,"rental_uris":{"android":"levelo://app?vid=f7b40540-14cd-4842-8d0c-6eec62d50446","ios":"levelo://app?vid=f7b40540-14cd-4842-8d0c-6eec62d50446"},"vehicle_type_id":"4","last_reported":1736252286,"current_range_meters":24000,"station_id":"ce4bgh92rcd13ifvqb50","pricing_plan_id":"cebpf4jnsgd1na2vs0mg"},{"bike_id":"702ab21d-0173-4ec7-8dd8-24b0ac35f721","system_id":"levelo_inurba_marseille","lat":43.29012,"lon":5.3813,"is_reserved":false,"is_disabled":true,"rental_uris":{"android":"levelo://app?vid=702ab21d-0173-4ec7-8dd8-24b0ac35f721","ios":"levelo://app?vid=702ab21d-0173-4ec7-8dd8-24b0ac35f721"},"vehicle_type_id":"4","last_reported":1736252286,"current_range_meters":8800,"station_id":"ce4bh4p2rcd13ifvqe1g","pricing_plan_id":"cebpf4jnsgd1na2vs0mg"},{"bike_id":"efb0e281-9e9d-4738-8efa-3a4e3fc0cde4","system_id":"levelo_inurba_marseille","lat":43.24637,"lon":5.38773,"is_reserved":false,"is_disabled":false,"rental_uris":{"android":"levelo://app?vid=efb0e281-9e9d-4738-8efa-3a4e3fc0cde4","ios":"levelo://app?vid=efb0e281-9e9d-4738-8efa-3a4e3fc0cde4"},"vehicle_type_id":"4","last_reported":1736252286,"current_range_meters":28800,"station_id":"","pricing_plan_id":"cebpf4jnsgd1na2vs0mg"},{"bike_id":"d532fa05-3c0d-4acf-a1d3-4f1eec327e21","system_id":"levelo_inurba_marseille","lat":43.31763,"lon":5.39012,"is_reserved":false,"is_disabled":false,"rental_uris":{"android":"levelo://app?vid=d532fa05-3c0d-4acf-a1d3-4f1eec327e21","ios":"levelo://app?vid=d532fa05-3c0d-4acf-a1d3-4f1eec327e21"},"vehicle_type_id":"4","last_reported":1736252286,"current_range_meters":28400,"station_id":"ce4bhqp2rcd13ifvqhng","pricing_plan_id":"cebpf4jnsgd1na2vs0mg"},{"bike_id":"a81f0dac-b594-48b8-b2f2-26e21503c95a","system_id":"levelo_inurba_marseille","lat":43.31695,"lon":5.43699,"is_reserved":false,"is_disabled":false,"rental_uris":{"android":"levelo://app?vid=a81f0dac-b594-48b8-b2f2-26e21503c95a","ios":"levelo://app?vid=a81f0dac-b594-48b8-b2f2-26e21503c95a"},"vehicle_type_id":"4","last_reported":1736252286,"current_range_meters":12800,"station_id":"ce4bhp92rcd13ifvqhcg","pricing_plan_id":"cebpf4jnsgd1na2vs0mg"},{"bike_id":"502087b1-18db-427e-9ac7-3d1aa22f63c7","system_id":"levelo_inurba_marseille","lat":43.29847,"lon":5.36279,"is_reserved":false,"is_disabled":false,"rental_uris":{"android":"levelo://app?vid=502087b1-18db-427e-9ac7-3d1aa22f63c7","ios":"levelo://app?vid=502087b1-18db-427e-9ac7-3d1aa22f63c7"},"vehicle_type_id":"4","last_reported":1736252286,"current_range_meters":38800,"station_id":"ce4bgpp2rcd13ifvqc3g","pricing_plan_id":"cebpf4jnsgd1na2vs0mg"},{"bike_id":"96a999e3-70dd-464e-9f52-0b69c395294f","system_id":"levelo_inurba_marseille","lat":43.3013,"lon":5.38783,"is_reserved":false,"is_disabled":false,"rental_uris":{"android":"levelo://app?vid=96a999e3-70dd-464e-9f52-0b69c395294f","ios":"levelo://app?vid=96a999e3-70dd-464e-9f52-0b69c395294f"},"vehicle_type_id":"4","last_reported":1736252286,"current_range_meters":28000,"station_id":"ce4bghh2rcd13ifvqb60","pricing_plan_id":"cebpf4jnsgd1na2vs0mg"},{"bike_id":"8bcaeacd-55f2-48aa-840b-5ec48f7447b2","system_id":"levelo_inurba_marseille","lat":43.26573,"lon":5.39046,"is_reserved":false,"is_disabled":false,"rental_uris":{"android":"levelo://app?vid=8bcaeacd-55f2-48aa-840b-5ec48f7447b2","ios":"levelo://app?vid=8bcaeacd-55f2-48aa-840b-5ec48f7447b2"},"vehicle_type_id":"4","last_reported":1736252286,"current_range_meters":32400,"station_id":"ce4bhe12rcd13ifvqf30","pricing_plan_id":"cebpf4jnsgd1na2vs0mg"},{"bike_id":"7a92d907-ce7d-4776-b9fe-0b8ebe9491a1","system_id":"levelo_inurba_marseille","lat":43.27626,"lon":5.36121,"is_reserved":false,"is_disabled":false,"rental_uris":{"android":"levelo://app?vid=7a92d907-ce7d-4776-b9fe-0b8ebe9491a1","ios":"levelo://app?vid=7a92d907-ce7d-4776-b9fe-0b8ebe9491a1"},"vehicle_type_id":"4","last_reported":1736252286,"current_range_meters":38800,"station_id":"ce4bgj92rcd13ifvqbe0","pricing_plan_id":"cebpf4jnsgd1na2vs0mg"},{"bike_id":"4853d6c9-d959-4282-a7ee-08c597a1454b","system_id":"levelo_inurba_marseille","lat":43.27665,"lon":5.38896,"is_reserved":false,"is_disabled":false,"rental_uris":{"android":"levelo://app?vid=4853d6c9-d959-4282-a7ee-08c597a1454b","ios":"levelo://app?vid=4853d6c9-d959-4282-a7ee-08c597a1454b"},"vehicle_type_id":"4","last_reported":1736252286,"current_range_meters":23200,"station_id":"ce4bhi12rcd13ifvqfo0","pricing_plan_id":"cebpf4jnsgd1na2vs0mg"},{"bike_id":"1f6f5fed-baf1-4edc-a47f-4f294af77fb8","system_id":"levelo_inurba_marseille","lat":43.249969,"lon":5.389318,"is_reserved":false,"is_disabled":false,"rental_uris":{"android":"levelo://app?vid=1f6f5fed-baf1-4edc-a47f-4f294af77fb8","ios":"levelo://app?vid=1f6f5fed-baf1-4edc-a47f-4f294af77fb8"},"vehicle_type_id":"4","last_reported":1736252286,"current_range_meters":12800,"station_id":"ce4bhgp2rcd13ifvqfd0","pricing_plan_id":"cebpf4jnsgd1na2vs0mg"},{"bike_id":"8a474426-cd46-4cf8-9edc-ef843a0ca02e","system_id":"levelo_inurba_marseille","lat":43.26564,"lon":5.39002,"is_reserved":false,"is_disabled":true,"rental_uris":{"android":"levelo://app?vid=8a474426-cd46-4cf8-9edc-ef843a0ca02e","ios":"levelo://app?vid=8a474426-cd46-4cf8-9edc-ef843a0ca02e"},"vehicle_type_id":"4","last_reported":1736252286,"current_range_meters":36400,"station_id":"ce4bhe12rcd13ifvqf30","pricing_plan_id":"cebpf4jnsgd1na2vs0mg"},{"bike_id":"b8e8befc-076e-4a84-a746-24b09895b81b","system_id":"levelo_inurba_marseille","lat":43.25577,"lon":5.38228,"is_reserved":false,"is_disabled":false,"rental_uris":{"android":"levelo://app?vid=b8e8befc-076e-4a84-a746-24b09895b81b","ios":"levelo://app?vid=b8e8befc-076e-4a84-a746-24b09895b81b"},"vehicle_type_id":"4","last_reported":1736252286,"current_range_meters":33600,"station_id":"ce4bhih2rcd13ifvqfs0","pricing_plan_id":"cebpf4jnsgd1na2vs0mg"},{"bike_id":"bbf998ea-d252-4590-8711-16d78ff4b07c","system_id":"levelo_inurba_marseille","lat":43.24653,"lon":5.38881,"is_reserved":false,"is_disabled":false,"rental_uris":{"android":"levelo://app?vid=bbf998ea-d252-4590-8711-16d78ff4b07c","ios":"levelo://app?vid=bbf998ea-d252-4590-8711-16d78ff4b07c"},"vehicle_type_id":"4","last_reported":1736252286,"current_range_meters":26800,"station_id":"ce4bhg12rcd13ifvqf60","pricing_plan_id":"cebpf4jnsgd1na2vs0mg"},{"bike_id":"e9dcdd34-b189-4d62-a46f-8838f8d5e652","system_id":"levelo_inurba_marseille","lat":43.24678,"lon":5.38143,"is_reserved":false,"is_disabled":false,"rental_uris":{"android":"levelo://app?vid=e9dcdd34-b189-4d62-a46f-8838f8d5e652","ios":"levelo://app?vid=e9dcdd34-b189-4d62-a46f-8838f8d5e652"},"vehicle_type_id":"4","last_reported":1736252286,"current_range_meters":16800,"station_id":"ce4bhih2rcd13ifvqfr0","pricing_plan_id":"cebpf4jnsgd1na2vs0mg"},{"bike_id":"5d89e310-0098-4122-8a0f-090785fbe233","system_id":"levelo_inurba_marseille","lat":43.24546,"lon":5.39528,"is_reserved":false,"is_disabled":false,"rental_uris":{"android":"levelo://app?vid=5d89e310-0098-4122-8a0f-090785fbe233","ios":"levelo://app?vid=5d89e310-0098-4122-8a0f-090785fbe233"},"vehicle_type_id":"4","last_reported":1736252286,"current_range_meters":22400,"station_id":"ce4bhlp2rcd13ifvqgjg","pricing_plan_id":"cebpf4jnsgd1na2vs0mg"},{"bike_id":"216094f6-dd69-408f-afcc-8de0795c1736","system_id":"levelo_inurba_marseille","lat":43.23154,"lon":5.43719,"is_reserved":false,"is_disabled":false,"rental_uris":{"android":"levelo://app?vid=216094f6-dd69-408f-afcc-8de0795c1736","ios":"levelo://app?vid=216094f6-dd69-408f-afcc-8de0795c1736"},"vehicle_type_id":"4","last_reported":1736252286,"current_range_meters":28400,"station_id":"ce4bhmp2rcd13ifvqgog","pricing_plan_id":"cebpf4jnsgd1na2vs0mg"},{"bike_id":"ff78d977-97b2-4f84-bc22-78608d306c04","system_id":"levelo_inurba_marseille","lat":43.31352,"lon":5.36721,"is_reserved":false,"is_disabled":false,"rental_uris":{"android":"levelo://app?vid=ff78d977-97b2-4f84-bc22-78608d306c04","ios":"levelo://app?vid=ff78d977-97b2-4f84-bc22-78608d306c04"},"vehicle_type_id":"4","last_reported":1736252286,"current_range_meters":34000,"station_id":"ce4bgr92rcd13ifvqc6g","pricing_plan_id":"cebpf4jnsgd1na2vs0mg"},{"bike_id":"664044e6-e824-440a-a874-8e818a3a1b1b","system_id":"levelo_inurba_marseille","lat":43.285629,"lon":5.394953,"is_reserved":false,"is_disabled":true,"rental_uris":{"android":"levelo://app?vid=664044e6-e824-440a-a874-8e818a3a1b1b","ios":"levelo://app?vid=664044e6-e824-440a-a874-8e818a3a1b1b"},"vehicle_type_id":"4","last_reported":1736252286,"current_range_meters":35200,"station_id":"ce4bh292rcd13ifvqdg0","pricing_plan_id":"cebpf4jnsgd1na2vs0mg"},{"bike_id":"40fe38f9-6949-48bb-b8ed-cc166d18c984","system_id":"levelo_inurba_marseille","lat":43.30857,"lon":5.3685,"is_reserved":false,"is_disabled":false,"rental_uris":{"android":"levelo://app?vid=40fe38f9-6949-48bb-b8ed-cc166d18c984","ios":"levelo://app?vid=40fe38f9-6949-48bb-b8ed-cc166d18c984"},"vehicle_type_id":"4","last_reported":1736252286,"current_range_meters":27200,"station_id":"","pricing_plan_id":"cebpf4jnsgd1na2vs0mg"},{"bike_id":"af0fb06a-2b33-40f9-80c6-1f82983ce3af","system_id":"levelo_inurba_marseille","lat":43.32063,"lon":5.41555,"is_reserved":false,"is_disabled":false,"rental_uris":{"android":"levelo://app?vid=af0fb06a-2b33-40f9-80c6-1f82983ce3af","ios":"levelo://app?vid=af0fb06a-2b33-40f9-80c6-1f82983ce3af"},"vehicle_type_id":"4","last_reported":1736252286,"current_range_meters":38800,"station_id":"ce4bhq92rcd13ifvqhkg","pricing_plan_id":"cebpf4jnsgd1na2vs0mg"},{"bike_id":"3d5215c2-1845-4ea9-95c3-66c603d13955","system_id":"levelo_inurba_marseille","lat":43.30547,"lon":5.36531,"is_reserved":false,"is_disabled":false,"rental_uris":{"android":"levelo://app?vid=3d5215c2-1845-4ea9-95c3-66c603d13955","ios":"levelo://app?vid=3d5215c2-1845-4ea9-95c3-66c603d13955"},"vehicle_type_id":"4","last_reported":1736252286,"current_range_meters":30000,"station_id":"ce4bgs12rcd13ifvqcag","pricing_plan_id":"cebpf4jnsgd1na2vs0mg"},{"bike_id":"6e2d590b-13dc-4d39-8257-e699f8ea4c2f","system_id":"levelo_inurba_marseille","lat":43.25921,"lon":5.40926,"is_reserved":false,"is_disabled":false,"rental_uris":{"android":"levelo://app?vid=6e2d590b-13dc-4d39-8257-e699f8ea4c2f","ios":"levelo://app?vid=6e2d590b-13dc-4d39-8257-e699f8ea4c2f"},"vehicle_type_id":"4","last_reported":1736252286,"current_range_meters":19600,"station_id":"ce4bhm92rcd13ifvqglg","pricing_plan_id":"cebpf4jnsgd1na2vs0mg"},{"bike_id":"0bcfea18-61ca-412d-bded-b63f59943884","system_id":"levelo_inurba_marseille","lat":43.28612,"lon":5.35098,"is_reserved":false,"is_disabled":true,"rental_uris":{"android":"levelo://app?vid=0bcfea18-61ca-412d-bded-b63f59943884","ios":"levelo://app?vid=0bcfea18-61ca-412d-bded-b63f59943884"},"vehicle_type_id":"4","last_reported":1736252286,"current_range_meters":28400,"station_id":"ce4bhch2rcd13ifvqeug","pricing_plan_id":"cebpf4jnsgd1na2vs0mg"},{"bike_id":"fe3aca21-8838-4f79-9500-244aae976113","system_id":"levelo_inurba_marseille","lat":43.29029,"lon":5.37567,"is_reserved":false,"is_disabled":false,"rental_uris":{"android":"levelo://app?vid=fe3aca21-8838-4f79-9500-244aae976113","ios":"levelo://app?vid=fe3aca21-8838-4f79-9500-244aae976113"},"vehicle_type_id":"4","last_reported":1736252286,"current_range_meters":32800,"station_id":"ce4bh692rcd13ifvqe90","pricing_plan_id":"cebpf4jnsgd1na2vs0mg"},{"bike_id":"0b9521b2-4a4a-4b15-a356-31ebe979341d","system_id":"levelo_inurba_marseille","lat":43.2995,"lon":5.43598,"is_reserved":false,"is_disabled":false,"rental_uris":{"android":"levelo://app?vid=0b9521b2-4a4a-4b15-a356-31ebe979341d","ios":"levelo://app?vid=0b9521b2-4a4a-4b15-a356-31ebe979341d"},"vehicle_type_id":"4","last_reported":1736252286,"current_range_meters":8800,"station_id":"ce4bhpp2rcd13ifvqhfg","pricing_plan_id":"cebpf4jnsgd1na2vs0mg"},{"bike_id":"03630410-cff2-41ca-8ab4-df6ebc45a627","system_id":"levelo_inurba_marseille","lat":43.30193,"lon":5.38034,"is_reserved":false,"is_disabled":true,"rental_uris":{"android":"levelo://app?vid=03630410-cff2-41ca-8ab4-df6ebc45a627","ios":"levelo://app?vid=03630410-cff2-41ca-8ab4-df6ebc45a627"},"vehicle_type_id":"4","last_reported":1736252286,"current_range_meters":33600,"station_id":"","pricing_plan_id":"cebpf4jnsgd1na2vs0mg"},{"bike_id":"ed5f1d01-b448-4857-90ec-2b1e0ae2e864","system_id":"levelo_inurba_marseille","lat":43.25583,"lon":5.38239,"is_reserved":false,"is_disabled":false,"rental_uris":{"android":"levelo://app?vid=ed5f1d01-b448-4857-90ec-2b1e0ae2e864","ios":"levelo://app?vid=ed5f1d01-b448-4857-90ec-2b1e0ae2e864"},"vehicle_type_id":"4","last_reported":1736252286,"current_range_meters":27200,"station_id":"ce4bhih2rcd13ifvqfs0","pricing_plan_id":"cebpf4jnsgd1na2vs0mg"},{"bike_id":"f3068faf-6ea3-45c0-943e-8f5eb9fecb3c","system_id":"levelo_inurba_marseille","lat":43.23965,"lon":5.36633,"is_reserved":false,"is_disabled":false,"rental_uris":{"android":"levelo://app?vid=f3068faf-6ea3-45c0-943e-8f5eb9fecb3c","ios":"levelo://app?vid=f3068faf-6ea3-45c0-943e-8f5eb9fecb3c"},"vehicle_type_id":"4","last_reported":1736252286,"current_range_meters":37600,"station_id":"ce4bhi12rcd13ifvqfp0","pricing_plan_id":"cebpf4jnsgd1na2vs0mg"},{"bike_id":"cbed9112-8e23-4560-a485-b1ca32f40cc0","system_id":"levelo_inurba_marseille","lat":43.24078,"lon":5.37753,"is_reserved":false,"is_disabled":false,"rental_uris":{"android":"levelo://app?vid=cbed9112-8e23-4560-a485-b1ca32f40cc0","ios":"levelo://app?vid=cbed9112-8e23-4560-a485-b1ca32f40cc0"},"vehicle_type_id":"4","last_reported":1736252286,"current_range_meters":30000,"station_id":"ce4bhnp2rcd13ifvqgvg","pricing_plan_id":"cebpf4jnsgd1na2vs0mg"},{"bike_id":"9206d9db-6a1d-4495-9bc2-7d4e1ef0f397","system_id":"levelo_inurba_marseille","lat":43.28907,"lon":5.38399,"is_reserved":false,"is_disabled":true,"rental_uris":{"android":"levelo://app?vid=9206d9db-6a1d-4495-9bc2-7d4e1ef0f397","ios":"levelo://app?vid=9206d9db-6a1d-4495-9bc2-7d4e1ef0f397"},"vehicle_type_id":"4","last_reported":1736252286,"current_range_meters":35200,"station_id":"ce4bh612rcd13ifvqe6g","pricing_plan_id":"cebpf4jnsgd1na2vs0mg"},{"bike_id":"2937c8f0-6f06-4c7f-8240-41ad44bc55fa","system_id":"levelo_inurba_marseille","lat":43.23192,"lon":5.39992,"is_reserved":false,"is_disabled":false,"rental_uris":{"android":"levelo://app?vid=2937c8f0-6f06-4c7f-8240-41ad44bc55fa","ios":"levelo://app?vid=2937c8f0-6f06-4c7f-8240-41ad44bc55fa"},"vehicle_type_id":"4","last_reported":1736252286,"current_range_meters":10000,"station_id":"ce4bhn12rcd13ifvqgqg","pricing_plan_id":"cebpf4jnsgd1na2vs0mg"},{"bike_id":"a953f883-6c4a-4100-b5ce-63967bb0fc51","system_id":"levelo_inurba_marseille","lat":43.27661,"lon":5.38898,"is_reserved":false,"is_disabled":false,"rental_uris":{"android":"levelo://app?vid=a953f883-6c4a-4100-b5ce-63967bb0fc51","ios":"levelo://app?vid=a953f883-6c4a-4100-b5ce-63967bb0fc51"},"vehicle_type_id":"4","last_reported":1736252286,"current_range_meters":16000,"station_id":"ce4bhi12rcd13ifvqfo0","pricing_plan_id":"cebpf4jnsgd1na2vs0mg"},{"bike_id":"457174c4-39db-4616-8471-ca62bc384bb7","system_id":"levelo_inurba_marseille","lat":43.3046,"lon":5.37911,"is_reserved":false,"is_disabled":true,"rental_uris":{"android":"levelo://app?vid=457174c4-39db-4616-8471-ca62bc384bb7","ios":"levelo://app?vid=457174c4-39db-4616-8471-ca62bc384bb7"},"vehicle_type_id":"4","last_reported":1736252286,"current_range_meters":32800,"station_id":"ce4bgup2rcd13ifvqcn0","pricing_plan_id":"cebpf4jnsgd1na2vs0mg"},{"bike_id":"2be5c012-0767-4ef2-a3f7-735f77675172","system_id":"levelo_inurba_marseille","lat":43.301503,"lon":5.37444,"is_reserved":false,"is_disabled":false,"rental_uris":{"android":"levelo://app?vid=2be5c012-0767-4ef2-a3f7-735f77675172","ios":"levelo://app?vid=2be5c012-0767-4ef2-a3f7-735f77675172"},"vehicle_type_id":"4","last_reported":1736252286,"current_range_meters":36400,"station_id":"ce4bgs92rcd13ifvqcc0","pricing_plan_id":"cebpf4jnsgd1na2vs0mg"},{"bike_id":"d014f699-d84d-436b-b3bf-8c059d18ea89","system_id":"levelo_inurba_marseille","lat":43.22924,"lon":5.35379,"is_reserved":false,"is_disabled":false,"rental_uris":{"android":"levelo://app?vid=d014f699-d84d-436b-b3bf-8c059d18ea89","ios":"levelo://app?vid=d014f699-d84d-436b-b3bf-8c059d18ea89"},"vehicle_type_id":"4","last_reported":1736252286,"current_range_meters":8400,"station_id":"cpo3532slgdg3j2ikp40","pricing_plan_id":"cebpf4jnsgd1na2vs0mg"},{"bike_id":"56171768-9850-49b6-b3b7-624c4fc4fd38","system_id":"levelo_inurba_marseille","lat":43.27306,"lon":5.39087,"is_reserved":false,"is_disabled":false,"rental_uris":{"android":"levelo://app?vid=56171768-9850-49b6-b3b7-624c4fc4fd38","ios":"levelo://app?vid=56171768-9850-49b6-b3b7-624c4fc4fd38"},"vehicle_type_id":"4","last_reported":1736252286,"current_range_meters":38800,"station_id":"ce4bhgp2rcd13ifvqfe0","pricing_plan_id":"cebpf4jnsgd1na2vs0mg"},{"bike_id":"8fa8b7f9-1a9a-4b12-8f46-a00de1a280d3","system_id":"levelo_inurba_marseille","lat":43.28421,"lon":5.34974,"is_reserved":false,"is_disabled":false,"rental_uris":{"android":"levelo://app?vid=8fa8b7f9-1a9a-4b12-8f46-a00de1a280d3","ios":"levelo://app?vid=8fa8b7f9-1a9a-4b12-8f46-a00de1a280d3"},"vehicle_type_id":"4","last_reported":1736252286,"current_range_meters":23200,"station_id":"ce4bhbh2rcd13ifvqepg","pricing_plan_id":"cebpf4jnsgd1na2vs0mg"},{"bike_id":"955387a8-4a47-4691-946f-78754c88504b","system_id":"levelo_inurba_marseille","lat":43.232,"lon":5.3556,"is_reserved":false,"is_disabled":false,"rental_uris":{"android":"levelo://app?vid=955387a8-4a47-4691-946f-78754c88504b","ios":"levelo://app?vid=955387a8-4a47-4691-946f-78754c88504b"},"vehicle_type_id":"4","last_reported":1736252286,"current_range_meters":36800,"station_id":"ce4bhu92rcd13ifvqi70","pricing_plan_id":"cebpf4jnsgd1na2vs0mg"},{"bike_id":"ef72cdb4-465d-4178-b952-49906f159c48","system_id":"levelo_inurba_marseille","lat":43.28151,"lon":5.42649,"is_reserved":false,"is_disabled":false,"rental_uris":{"android":"levelo://app?vid=ef72cdb4-465d-4178-b952-49906f159c48","ios":"levelo://app?vid=ef72cdb4-465d-4178-b952-49906f159c48"},"vehicle_type_id":"4","last_reported":1736252286,"current_range_meters":36400,"station_id":"ce4bhnh2rcd13ifvqgug","pricing_plan_id":"cebpf4jnsgd1na2vs0mg"},{"bike_id":"bcc8b0b1-8cdd-4806-83ab-8f15baeaeff0","system_id":"levelo_inurba_marseille","lat":43.32031,"lon":5.41572,"is_reserved":false,"is_disabled":false,"rental_uris":{"android":"levelo://app?vid=bcc8b0b1-8cdd-4806-83ab-8f15baeaeff0","ios":"levelo://app?vid=bcc8b0b1-8cdd-4806-83ab-8f15baeaeff0"},"vehicle_type_id":"4","last_reported":1736252286,"current_range_meters":12400,"station_id":"ce4bhq92rcd13ifvqhkg","pricing_plan_id":"cebpf4jnsgd1na2vs0mg"},{"bike_id":"f949af9a-2683-4ec9-b4bf-168b31b3bcb2","system_id":"levelo_inurba_marseille","lat":43.24648,"lon":5.38921,"is_reserved":false,"is_disabled":false,"rental_uris":{"android":"levelo://app?vid=f949af9a-2683-4ec9-b4bf-168b31b3bcb2","ios":"levelo://app?vid=f949af9a-2683-4ec9-b4bf-168b31b3bcb2"},"vehicle_type_id":"4","last_reported":1736252286,"current_range_meters":18800,"station_id":"ce4bhg12rcd13ifvqf60","pricing_plan_id":"cebpf4jnsgd1na2vs0mg"},{"bike_id":"35366d3e-9927-4914-80da-37300e9998f0","system_id":"levelo_inurba_marseille","lat":43.28697,"lon":5.37376,"is_reserved":false,"is_disabled":true,"rental_uris":{"android":"levelo://app?vid=35366d3e-9927-4914-80da-37300e9998f0","ios":"levelo://app?vid=35366d3e-9927-4914-80da-37300e9998f0"},"vehicle_type_id":"4","last_reported":1736252286,"current_range_meters":28800,"station_id":"ce4bh3p2rcd13ifvqdq0","pricing_plan_id":"cebpf4jnsgd1na2vs0mg"},{"bike_id":"49a58075-360f-493d-a66e-87bce6e29700","system_id":"levelo_inurba_marseille","lat":43.33027,"lon":5.39041,"is_reserved":false,"is_disabled":false,"rental_uris":{"android":"levelo://app?vid=49a58075-360f-493d-a66e-87bce6e29700","ios":"levelo://app?vid=49a58075-360f-493d-a66e-87bce6e29700"},"vehicle_type_id":"4","last_reported":1736252286,"current_range_meters":27200,"station_id":"ce4bhr92rcd13ifvqhrg","pricing_plan_id":"cebpf4jnsgd1na2vs0mg"},{"bike_id":"983d3f8a-42d0-4713-883e-8a0ffe5882af","system_id":"levelo_inurba_marseille","lat":43.28356,"lon":5.38641,"is_reserved":false,"is_disabled":false,"rental_uris":{"android":"levelo://app?vid=983d3f8a-42d0-4713-883e-8a0ffe5882af","ios":"levelo://app?vid=983d3f8a-42d0-4713-883e-8a0ffe5882af"},"vehicle_type_id":"4","last_reported":1736252286,"current_range_meters":9200,"station_id":"ce4bh492rcd13ifvqdvg","pricing_plan_id":"cebpf4jnsgd1na2vs0mg"},{"bike_id":"2b12a15a-b484-4d79-abbf-50eba2ce6f16","system_id":"levelo_inurba_marseille","lat":43.28938,"lon":5.38381,"is_reserved":false,"is_disabled":false,"rental_uris":{"android":"levelo://app?vid=2b12a15a-b484-4d79-abbf-50eba2ce6f16","ios":"levelo://app?vid=2b12a15a-b484-4d79-abbf-50eba2ce6f16"},"vehicle_type_id":"4","last_reported":1736252286,"current_range_meters":36800,"station_id":"ce4bh612rcd13ifvqe6g","pricing_plan_id":"cebpf4jnsgd1na2vs0mg"},{"bike_id":"2cbe44e8-5153-4f16-96d5-c672956deddb","system_id":"levelo_inurba_marseille","lat":43.29368,"lon":5.37866,"is_reserved":false,"is_disabled":false,"rental_uris":{"android":"levelo://app?vid=2cbe44e8-5153-4f16-96d5-c672956deddb","ios":"levelo://app?vid=2cbe44e8-5153-4f16-96d5-c672956deddb"},"vehicle_type_id":"4","last_reported":1736252286,"current_range_meters":14400,"station_id":"ce4bgjh2rcd13ifvqbf0","pricing_plan_id":"cebpf4jnsgd1na2vs0mg"},{"bike_id":"75321dea-10a3-400f-8783-48b2ff90b60c","system_id":"levelo_inurba_marseille","lat":43.24651,"lon":5.38902,"is_reserved":false,"is_disabled":false,"rental_uris":{"android":"levelo://app?vid=75321dea-10a3-400f-8783-48b2ff90b60c","ios":"levelo://app?vid=75321dea-10a3-400f-8783-48b2ff90b60c"},"vehicle_type_id":"4","last_reported":1736252286,"current_range_meters":38800,"station_id":"ce4bhg12rcd13ifvqf60","pricing_plan_id":"cebpf4jnsgd1na2vs0mg"},{"bike_id":"e9770833-92eb-499a-83c1-9cdd6f6c00c9","system_id":"levelo_inurba_marseille","lat":43.26682,"lon":5.38273,"is_reserved":false,"is_disabled":false,"rental_uris":{"android":"levelo://app?vid=e9770833-92eb-499a-83c1-9cdd6f6c00c9","ios":"levelo://app?vid=e9770833-92eb-499a-83c1-9cdd6f6c00c9"},"vehicle_type_id":"4","last_reported":1736252286,"current_range_meters":38400,"station_id":"ce4bhg92rcd13ifvqf90","pricing_plan_id":"cebpf4jnsgd1na2vs0mg"},{"bike_id":"f7957fa5-fa62-42a8-bedc-7f41b93df1a0","system_id":"levelo_inurba_marseille","lat":43.32539,"lon":5.41429,"is_reserved":false,"is_disabled":false,"rental_uris":{"android":"levelo://app?vid=f7957fa5-fa62-42a8-bedc-7f41b93df1a0","ios":"levelo://app?vid=f7957fa5-fa62-42a8-bedc-7f41b93df1a0"},"vehicle_type_id":"4","last_reported":1736252286,"current_range_meters":28800,"station_id":"ce4bhq12rcd13ifvqhhg","pricing_plan_id":"cebpf4jnsgd1na2vs0mg"},{"bike_id":"71d582ac-e6fe-4aab-8128-ab6df056a243","system_id":"levelo_inurba_marseille","lat":43.32471,"lon":5.36567,"is_reserved":false,"is_disabled":false,"rental_uris":{"android":"levelo://app?vid=71d582ac-e6fe-4aab-8128-ab6df056a243","ios":"levelo://app?vid=71d582ac-e6fe-4aab-8128-ab6df056a243"},"vehicle_type_id":"4","last_reported":1736252286,"current_range_meters":31200,"station_id":"ce4bhs12rcd13ifvqhvg","pricing_plan_id":"cebpf4jnsgd1na2vs0mg"},{"bike_id":"25b6f245-cadc-4cad-812c-53e062c1ef53","system_id":"levelo_inurba_marseille","lat":43.23125,"lon":5.43729,"is_reserved":false,"is_disabled":false,"rental_uris":{"android":"levelo://app?vid=25b6f245-cadc-4cad-812c-53e062c1ef53","ios":"levelo://app?vid=25b6f245-cadc-4cad-812c-53e062c1ef53"},"vehicle_type_id":"4","last_reported":1736252286,"current_range_meters":38000,"station_id":"ce4bhmp2rcd13ifvqgog","pricing_plan_id":"cebpf4jnsgd1na2vs0mg"},{"bike_id":"316234de-f3f3-45d4-99fd-0ba43ec7488a","system_id":"levelo_inurba_marseille","lat":43.29624,"lon":5.40597,"is_reserved":false,"is_disabled":true,"rental_uris":{"android":"levelo://app?vid=316234de-f3f3-45d4-99fd-0ba43ec7488a","ios":"levelo://app?vid=316234de-f3f3-45d4-99fd-0ba43ec7488a"},"vehicle_type_id":"4","last_reported":1736252286,"current_range_meters":400,"station_id":"ce4bh0h2rcd13ifvqd60","pricing_plan_id":"cebpf4jnsgd1na2vs0mg"},{"bike_id":"f53fca27-aa28-4dbc-93c8-2faccac7df74","system_id":"levelo_inurba_marseille","lat":43.283402,"lon":5.381162,"is_reserved":false,"is_disabled":false,"rental_uris":{"android":"levelo://app?vid=f53fca27-aa28-4dbc-93c8-2faccac7df74","ios":"levelo://app?vid=f53fca27-aa28-4dbc-93c8-2faccac7df74"},"vehicle_type_id":"4","last_reported":1736252286,"current_range_meters":27200,"station_id":"ce4bh412rcd13ifvqdr0","pricing_plan_id":"cebpf4jnsgd1na2vs0mg"},{"bike_id":"f0d144fe-1692-4510-b41a-0ec89617079b","system_id":"levelo_inurba_marseille","lat":43.33016,"lon":5.39046,"is_reserved":false,"is_disabled":false,"rental_uris":{"android":"levelo://app?vid=f0d144fe-1692-4510-b41a-0ec89617079b","ios":"levelo://app?vid=f0d144fe-1692-4510-b41a-0ec89617079b"},"vehicle_type_id":"4","last_reported":1736252286,"current_range_meters":36400,"station_id":"ce4bhr92rcd13ifvqhrg","pricing_plan_id":"cebpf4jnsgd1na2vs0mg"},{"bike_id":"540af6b1-2074-4ee5-8f08-d2ef00e493d4","system_id":"levelo_inurba_marseille","lat":43.29957,"lon":5.38485,"is_reserved":false,"is_disabled":false,"rental_uris":{"android":"levelo://app?vid=540af6b1-2074-4ee5-8f08-d2ef00e493d4","ios":"levelo://app?vid=540af6b1-2074-4ee5-8f08-d2ef00e493d4"},"vehicle_type_id":"4","last_reported":1736252286,"current_range_meters":29600,"station_id":"ce4bgj92rcd13ifvqbd0","pricing_plan_id":"cebpf4jnsgd1na2vs0mg"},{"bike_id":"c1533c17-e6b2-4510-aaea-5a6024f34c19","system_id":"levelo_inurba_marseille","lat":43.29553,"lon":5.42297,"is_reserved":false,"is_disabled":false,"rental_uris":{"android":"levelo://app?vid=c1533c17-e6b2-4510-aaea-5a6024f34c19","ios":"levelo://app?vid=c1533c17-e6b2-4510-aaea-5a6024f34c19"},"vehicle_type_id":"4","last_reported":1736252286,"current_range_meters":24800,"station_id":"ce4bhph2rcd13ifvqhdg","pricing_plan_id":"cebpf4jnsgd1na2vs0mg"},{"bike_id":"ea7bebe3-4aff-4a01-b28d-c9b866182ae3","system_id":"levelo_inurba_marseille","lat":43.30794,"lon":5.39229,"is_reserved":false,"is_disabled":false,"rental_uris":{"android":"levelo://app?vid=ea7bebe3-4aff-4a01-b28d-c9b866182ae3","ios":"levelo://app?vid=ea7bebe3-4aff-4a01-b28d-c9b866182ae3"},"vehicle_type_id":"4","last_reported":1736252286,"current_range_meters":28000,"station_id":"","pricing_plan_id":"cebpf4jnsgd1na2vs0mg"},{"bike_id":"4349e322-e54f-4a7c-8de9-2ce06a16918d","system_id":"levelo_inurba_marseille","lat":43.27945,"lon":5.410625,"is_reserved":false,"is_disabled":false,"rental_uris":{"android":"levelo://app?vid=4349e322-e54f-4a7c-8de9-2ce06a16918d","ios":"levelo://app?vid=4349e322-e54f-4a7c-8de9-2ce06a16918d"},"vehicle_type_id":"4","last_reported":1736252286,"current_range_meters":0,"station_id":"ce4bhnp2rcd13ifvqh0g","pricing_plan_id":"cebpf4jnsgd1na2vs0mg"},{"bike_id":"1ecbf214-5d35-4cf0-b38a-77f20fe9e9d3","system_id":"levelo_inurba_marseille","lat":43.26685,"lon":5.38261,"is_reserved":false,"is_disabled":false,"rental_uris":{"android":"levelo://app?vid=1ecbf214-5d35-4cf0-b38a-77f20fe9e9d3","ios":"levelo://app?vid=1ecbf214-5d35-4cf0-b38a-77f20fe9e9d3"},"vehicle_type_id":"4","last_reported":1736252286,"current_range_meters":39200,"station_id":"ce4bhg92rcd13ifvqf90","pricing_plan_id":"cebpf4jnsgd1na2vs0mg"},{"bike_id":"380ac25f-ddad-469c-8de6-f4bbe4522ccc","system_id":"levelo_inurba_marseille","lat":43.29843,"lon":5.36274,"is_reserved":false,"is_disabled":false,"rental_uris":{"android":"levelo://app?vid=380ac25f-ddad-469c-8de6-f4bbe4522ccc","ios":"levelo://app?vid=380ac25f-ddad-469c-8de6-f4bbe4522ccc"},"vehicle_type_id":"4","last_reported":1736252286,"current_range_meters":38800,"station_id":"ce4bgpp2rcd13ifvqc3g","pricing_plan_id":"cebpf4jnsgd1na2vs0mg"},{"bike_id":"ff7429a5-f4cc-4709-a586-0c355ae4fc76","system_id":"levelo_inurba_marseille","lat":43.317552,"lon":5.390302,"is_reserved":false,"is_disabled":false,"rental_uris":{"android":"levelo://app?vid=ff7429a5-f4cc-4709-a586-0c355ae4fc76","ios":"levelo://app?vid=ff7429a5-f4cc-4709-a586-0c355ae4fc76"},"vehicle_type_id":"4","last_reported":1736252286,"current_range_meters":37600,"station_id":"ce4bhqp2rcd13ifvqhng","pricing_plan_id":"cebpf4jnsgd1na2vs0mg"},{"bike_id":"96eaff2f-b541-4fed-a756-a159d664d1f2","system_id":"levelo_inurba_marseille","lat":43.3134,"lon":5.36838,"is_reserved":false,"is_disabled":false,"rental_uris":{"android":"levelo://app?vid=96eaff2f-b541-4fed-a756-a159d664d1f2","ios":"levelo://app?vid=96eaff2f-b541-4fed-a756-a159d664d1f2"},"vehicle_type_id":"4","last_reported":1736252286,"current_range_meters":12400,"station_id":"ce4bgr92rcd13ifvqc6g","pricing_plan_id":"cebpf4jnsgd1na2vs0mg"},{"bike_id":"2fd344b0-b1d6-4f43-99f1-7a18ee45875a","system_id":"levelo_inurba_marseille","lat":43.31766,"lon":5.38998,"is_reserved":false,"is_disabled":false,"rental_uris":{"android":"levelo://app?vid=2fd344b0-b1d6-4f43-99f1-7a18ee45875a","ios":"levelo://app?vid=2fd344b0-b1d6-4f43-99f1-7a18ee45875a"},"vehicle_type_id":"4","last_reported":1736252286,"current_range_meters":17600,"station_id":"ce4bhqp2rcd13ifvqhng","pricing_plan_id":"cebpf4jnsgd1na2vs0mg"},{"bike_id":"7a9813b1-4146-4458-9cb1-b490c5a9e407","system_id":"levelo_inurba_marseille","lat":43.29311,"lon":5.37196,"is_reserved":false,"is_disabled":false,"rental_uris":{"android":"levelo://app?vid=7a9813b1-4146-4458-9cb1-b490c5a9e407","ios":"levelo://app?vid=7a9813b1-4146-4458-9cb1-b490c5a9e407"},"vehicle_type_id":"4","last_reported":1736252286,"current_range_meters":21600,"station_id":"ce4bgh92rcd13ifvqb40","pricing_plan_id":"cebpf4jnsgd1na2vs0mg"},{"bike_id":"b262c4f7-3959-43f5-b3ff-697e55724aef","system_id":"levelo_inurba_marseille","lat":43.24069,"lon":5.37763,"is_reserved":false,"is_disabled":false,"rental_uris":{"android":"levelo://app?vid=b262c4f7-3959-43f5-b3ff-697e55724aef","ios":"levelo://app?vid=b262c4f7-3959-43f5-b3ff-697e55724aef"},"vehicle_type_id":"4","last_reported":1736252286,"current_range_meters":22800,"station_id":"ce4bhnp2rcd13ifvqgvg","pricing_plan_id":"cebpf4jnsgd1na2vs0mg"},{"bike_id":"5955b271-885f-4396-98e9-a0e2ab08e23b","system_id":"levelo_inurba_marseille","lat":43.29588,"lon":5.36743,"is_reserved":false,"is_disabled":false,"rental_uris":{"android":"levelo://app?vid=5955b271-885f-4396-98e9-a0e2ab08e23b","ios":"levelo://app?vid=5955b271-885f-4396-98e9-a0e2ab08e23b"},"vehicle_type_id":"4","last_reported":1736252286,"current_range_meters":38800,"station_id":"ce4bgph2rcd13ifvqc2g","pricing_plan_id":"cebpf4jnsgd1na2vs0mg"},{"bike_id":"aad4a535-b699-4598-8dc1-ecd244317ca1","system_id":"levelo_inurba_marseille","lat":43.23194,"lon":5.39977,"is_reserved":false,"is_disabled":false,"rental_uris":{"android":"levelo://app?vid=aad4a535-b699-4598-8dc1-ecd244317ca1","ios":"levelo://app?vid=aad4a535-b699-4598-8dc1-ecd244317ca1"},"vehicle_type_id":"4","last_reported":1736252286,"current_range_meters":8800,"station_id":"ce4bhn12rcd13ifvqgqg","pricing_plan_id":"cebpf4jnsgd1na2vs0mg"},{"bike_id":"d6cdb546-bb53-48b8-92d1-4567c98a3a89","system_id":"levelo_inurba_marseille","lat":43.29967,"lon":5.38494,"is_reserved":false,"is_disabled":false,"rental_uris":{"android":"levelo://app?vid=d6cdb546-bb53-48b8-92d1-4567c98a3a89","ios":"levelo://app?vid=d6cdb546-bb53-48b8-92d1-4567c98a3a89"},"vehicle_type_id":"4","last_reported":1736252286,"current_range_meters":25200,"station_id":"ce4bgj92rcd13ifvqbd0","pricing_plan_id":"cebpf4jnsgd1na2vs0mg"},{"bike_id":"846caf5b-5e22-45f4-b48d-e43e8381bc4e","system_id":"levelo_inurba_marseille","lat":43.30756,"lon":5.3727,"is_reserved":false,"is_disabled":false,"rental_uris":{"android":"levelo://app?vid=846caf5b-5e22-45f4-b48d-e43e8381bc4e","ios":"levelo://app?vid=846caf5b-5e22-45f4-b48d-e43e8381bc4e"},"vehicle_type_id":"4","last_reported":1736252286,"current_range_meters":22800,"station_id":"","pricing_plan_id":"cebpf4jnsgd1na2vs0mg"},{"bike_id":"d8b6ad16-2edf-48ee-aba4-9801c618dedc","system_id":"levelo_inurba_marseille","lat":43.24076,"lon":5.37753,"is_reserved":false,"is_disabled":true,"rental_uris":{"android":"levelo://app?vid=d8b6ad16-2edf-48ee-aba4-9801c618dedc","ios":"levelo://app?vid=d8b6ad16-2edf-48ee-aba4-9801c618dedc"},"vehicle_type_id":"4","last_reported":1736252286,"current_range_meters":34000,"station_id":"","pricing_plan_id":"cebpf4jnsgd1na2vs0mg"},{"bike_id":"ad6a3624-3479-4903-b62b-8609c0dd2c65","system_id":"levelo_inurba_marseille","lat":43.29944,"lon":5.39778,"is_reserved":false,"is_disabled":false,"rental_uris":{"android":"levelo://app?vid=ad6a3624-3479-4903-b62b-8609c0dd2c65","ios":"levelo://app?vid=ad6a3624-3479-4903-b62b-8609c0dd2c65"},"vehicle_type_id":"4","last_reported":1736252286,"current_range_meters":36400,"station_id":"","pricing_plan_id":"cebpf4jnsgd1na2vs0mg"},{"bike_id":"3a859fab-6c68-4b31-a24f-90a7f2f9e81a","system_id":"levelo_inurba_marseille","lat":43.28474,"lon":5.38445,"is_reserved":false,"is_disabled":false,"rental_uris":{"android":"levelo://app?vid=3a859fab-6c68-4b31-a24f-90a7f2f9e81a","ios":"levelo://app?vid=3a859fab-6c68-4b31-a24f-90a7f2f9e81a"},"vehicle_type_id":"4","last_reported":1736252286,"current_range_meters":32000,"station_id":"ce4bh512rcd13ifvqe3g","pricing_plan_id":"cebpf4jnsgd1na2vs0mg"},{"bike_id":"b210e670-04e4-4c2c-8f2a-43a3063e68eb","system_id":"levelo_inurba_marseille","lat":43.2401,"lon":5.37689,"is_reserved":false,"is_disabled":true,"rental_uris":{"android":"levelo://app?vid=b210e670-04e4-4c2c-8f2a-43a3063e68eb","ios":"levelo://app?vid=b210e670-04e4-4c2c-8f2a-43a3063e68eb"},"vehicle_type_id":"4","last_reported":1736252286,"current_range_meters":38400,"station_id":"","pricing_plan_id":"cebpf4jnsgd1na2vs0mg"},{"bike_id":"d22595dc-c6cb-4826-baf1-4b83f7201e52","system_id":"levelo_inurba_marseille","lat":43.32297,"lon":5.38247,"is_reserved":false,"is_disabled":false,"rental_uris":{"android":"levelo://app?vid=d22595dc-c6cb-4826-baf1-4b83f7201e52","ios":"levelo://app?vid=d22595dc-c6cb-4826-baf1-4b83f7201e52"},"vehicle_type_id":"4","last_reported":1736252286,"current_range_meters":19600,"station_id":"ce4bhr12rcd13ifvqhqg","pricing_plan_id":"cebpf4jnsgd1na2vs0mg"},{"bike_id":"4576b1ef-48d7-405b-b77b-6cf5c6b21cca","system_id":"levelo_inurba_marseille","lat":43.30143,"lon":5.3742,"is_reserved":false,"is_disabled":false,"rental_uris":{"android":"levelo://app?vid=4576b1ef-48d7-405b-b77b-6cf5c6b21cca","ios":"levelo://app?vid=4576b1ef-48d7-405b-b77b-6cf5c6b21cca"},"vehicle_type_id":"4","last_reported":1736252286,"current_range_meters":28800,"station_id":"","pricing_plan_id":"cebpf4jnsgd1na2vs0mg"},{"bike_id":"9f4fb280-3e5a-4879-9c3e-f31fbe4bf10f","system_id":"levelo_inurba_marseille","lat":43.29783,"lon":5.39351,"is_reserved":false,"is_disabled":false,"rental_uris":{"android":"levelo://app?vid=9f4fb280-3e5a-4879-9c3e-f31fbe4bf10f","ios":"levelo://app?vid=9f4fb280-3e5a-4879-9c3e-f31fbe4bf10f"},"vehicle_type_id":"4","last_reported":1736252286,"current_range_meters":9200,"station_id":"chh1huq6cuj3fo74tm60","pricing_plan_id":"cebpf4jnsgd1na2vs0mg"},{"bike_id":"bad934bb-fb0a-46e5-8d7b-b010aa8eb128","system_id":"levelo_inurba_marseille","lat":43.27618,"lon":5.36097,"is_reserved":false,"is_disabled":false,"rental_uris":{"android":"levelo://app?vid=bad934bb-fb0a-46e5-8d7b-b010aa8eb128","ios":"levelo://app?vid=bad934bb-fb0a-46e5-8d7b-b010aa8eb128"},"vehicle_type_id":"4","last_reported":1736252286,"current_range_meters":38800,"station_id":"ce4bgj92rcd13ifvqbe0","pricing_plan_id":"cebpf4jnsgd1na2vs0mg"},{"bike_id":"a8b6888e-d27e-40ac-990e-440f9348d454","system_id":"levelo_inurba_marseille","lat":43.28619,"lon":5.35071,"is_reserved":false,"is_disabled":true,"rental_uris":{"android":"levelo://app?vid=a8b6888e-d27e-40ac-990e-440f9348d454","ios":"levelo://app?vid=a8b6888e-d27e-40ac-990e-440f9348d454"},"vehicle_type_id":"4","last_reported":1736252286,"current_range_meters":3200,"station_id":"ce4bhch2rcd13ifvqeug","pricing_plan_id":"cebpf4jnsgd1na2vs0mg"},{"bike_id":"b9516351-6483-4df6-a78a-d2015a4619f1","system_id":"levelo_inurba_marseille","lat":43.27991,"lon":5.40004,"is_reserved":false,"is_disabled":true,"rental_uris":{"android":"levelo://app?vid=b9516351-6483-4df6-a78a-d2015a4619f1","ios":"levelo://app?vid=b9516351-6483-4df6-a78a-d2015a4619f1"},"vehicle_type_id":"4","last_reported":1736252286,"current_range_meters":0,"station_id":"ce4bho92rcd13ifvqh4g","pricing_plan_id":"cebpf4jnsgd1na2vs0mg"},{"bike_id":"9d4f6b26-efa2-442b-ab30-e6fb8f5a5de6","system_id":"levelo_inurba_marseille","lat":43.26558,"lon":5.37283,"is_reserved":false,"is_disabled":false,"rental_uris":{"android":"levelo://app?vid=9d4f6b26-efa2-442b-ab30-e6fb8f5a5de6","ios":"levelo://app?vid=9d4f6b26-efa2-442b-ab30-e6fb8f5a5de6"},"vehicle_type_id":"4","last_reported":1736252286,"current_range_meters":34000,"station_id":"ce4bhg12rcd13ifvqf70","pricing_plan_id":"cebpf4jnsgd1na2vs0mg"},{"bike_id":"31dd638f-e9f2-4d6d-a4a3-0f10163b9ef2","system_id":"levelo_inurba_marseille","lat":43.30612,"lon":5.3723,"is_reserved":false,"is_disabled":false,"rental_uris":{"android":"levelo://app?vid=31dd638f-e9f2-4d6d-a4a3-0f10163b9ef2","ios":"levelo://app?vid=31dd638f-e9f2-4d6d-a4a3-0f10163b9ef2"},"vehicle_type_id":"4","last_reported":1736252286,"current_range_meters":26800,"station_id":"ce4bgqh2rcd13ifvqc4g","pricing_plan_id":"cebpf4jnsgd1na2vs0mg"},{"bike_id":"30863604-3ac5-4b4d-883f-549ae4bd3010","system_id":"levelo_inurba_marseille","lat":43.24393,"lon":5.37061,"is_reserved":false,"is_disabled":false,"rental_uris":{"android":"levelo://app?vid=30863604-3ac5-4b4d-883f-549ae4bd3010","ios":"levelo://app?vid=30863604-3ac5-4b4d-883f-549ae4bd3010"},"vehicle_type_id":"4","last_reported":1736252286,"current_range_meters":17200,"station_id":"ce4bhhh2rcd13ifvqfk0","pricing_plan_id":"cebpf4jnsgd1na2vs0mg"},{"bike_id":"e01cecd1-e280-48d6-a64f-0028d3ac00b4","system_id":"levelo_inurba_marseille","lat":43.30914,"lon":5.36865,"is_reserved":false,"is_disabled":false,"rental_uris":{"android":"levelo://app?vid=e01cecd1-e280-48d6-a64f-0028d3ac00b4","ios":"levelo://app?vid=e01cecd1-e280-48d6-a64f-0028d3ac00b4"},