{"last_updated":1712956004,"ttl":30,"version":"2.2","data":{"bikes":[{"bike_id":"cef7540e-8af4-4751-824f-4fbe938bc3da","system_id":"levelo_inurba_marseille","lat":43.31341,"lon":5.367098,"is_reserved":false,"is_disabled":false,"rental_uris":{"android":"levelo://app?vid=cef7540e-8af4-4751-824f-4fbe938bc3da","ios":"levelo://app?vid=cef7540e-8af4-4751-824f-4fbe938bc3da"},"vehicle_type_id":"4","last_reported":1712956004,"current_range_meters":10800,"station_id":"ce4bgr92rcd13ifvqc6g","pricing_plan_id":"cebpf4jnsgd1na2vs0mg"},{"bike_id":"babdc7bd-50ef-41ab-b073-151a457b3406","system_id":"levelo_inurba_marseille","lat":43.313391,"lon":5.36706,"is_reserved":false,"is_disabled":false,"rental_uris":{"android":"levelo://app?vid=babdc7bd-50ef-41ab-b073-151a457b3406","ios":"levelo://app?vid=babdc7bd-50ef-41ab-b073-151a457b3406"},"vehicle_type_id":"4","last_reported":1712956004,"current_range_meters":26800,"station_id":"ce4bgr92rcd13ifvqc6g","pricing_plan_id":"cebpf4jnsgd1na2vs0mg"},{"bike_id":"af9f594e-9c97-4efc-af16-c99e44e1e5d3","system_id":"levelo_inurba_marseille","lat":43.313391,"lon":5.36706,"is_reserved":false,"is_disabled":false,"rental_uris":{"android":"levelo://app?vid=af9f594e-9c97-4efc-af16-c99e44e1e5d3","ios":"levelo://app?vid=af9f594e-9c97-4efc-af16-c99e44e1e5d3"},"vehicle_type_id":"4","last_reported":1712956004,"current_range_meters":17200,"station_id":"ce4bgr92rcd13ifvqc6g","pricing_plan_id":"cebpf4jnsgd1na2vs0mg"},{"bike_id":"91379bab-1df1-4cc1-b25d-7242bd44210b","system_id":"levelo_inurba_marseille","lat":43.309043,"lon":5.368529,"is_reserved":false,"is_disabled":false,"rental_uris":{"android":"levelo://app?vid=91379bab-1df1-4cc1-b25d-7242bd44210b","ios":"levelo://app?vid=91379bab-1df1-4cc1-b25d-7242bd44210b"},"vehicle_type_id":"4","last_reported":1712956004,"current_range_meters":24400,"station_id":"ce4bgn92rcd13ifvqbvg","pricing_plan_id":"cebpf4jnsgd1na2vs0mg"},{"bike_id":"7a42c00a-9e6a-4025-a35d-0f4e63f3923e","system_id":"levelo_inurba_marseille","lat":43.308713,"lon":5.36811,"is_reserved":false,"is_disabled":false,"rental_uris":{"android":"levelo://app?vid=7a42c00a-9e6a-4025-a35d-0f4e63f3923e","ios":"levelo://app?vid=7a42c00a-9e6a-4025-a35d-0f4e63f3923e"},"vehicle_type_id":"4","last_reported":1712956004,"current_range_meters":1200,"station_id":"ce4bgr92rcd13ifvqc6g","pricing_plan_id":"cebpf4jnsgd1na2vs0mg"},{"bike_id":"04fc95c0-a701-4c07-975c-b178e3e22661","system_id":"levelo_inurba_marseille","lat":43.314811,"lon":5.373103,"is_reserved":false,"is_disabled":false,"rental_uris":{"android":"levelo://app?vid=04fc95c0-a701-4c07-975c-b178e3e22661","ios":"levelo://app?vid=04fc95c0-a701-4c07-975c-b178e3e22661"},"vehicle_type_id":"4","last_reported":1712956004,"current_range_meters":3200,"station_id":"ce4bgt12rcd13ifvqcd0","pricing_plan_id":"cebpf4jnsgd1na2vs0mg"},{"bike_id":"b273acab-0124-42a2-b5e0-1bf3b1687ac2","system_id":"levelo_inurba_marseille","lat":43.314811,"lon":5.373103,"is_reserved":false,"is_disabled":false,"rental_uris":{"android":"levelo://app?vid=b273acab-0124-42a2-b5e0-1bf3b1687ac2","ios":"levelo://app?vid=b273acab-0124-42a2-b5e0-1bf3b1687ac2"},"vehicle_type_id":"4","last_reported":1712956004,"current_range_meters":23600,"station_id":"ce4bgt12rcd13ifvqcd0","pricing_plan_id":"cebpf4jnsgd1na2vs0mg"},{"bike_id":"a025ca6c-b6e9-49ba-8d92-02829029143d","system_id":"levelo_inurba_marseille","lat":43.309039,"lon":5.371797,"is_reserved":false,"is_disabled":false,"rental_uris":{"android":"levelo://app?vid=a025ca6c-b6e9-49ba-8d92-02829029143d","ios":"levelo://app?vid=a025ca6c-b6e9-49ba-8d92-02829029143d"},"vehicle_type_id":"4","last_reported":1712956004,"current_range_meters":19600,"station_id":"ce4bguh2rcd13ifvqckg","pricing_plan_id":"cebpf4jnsgd1na2vs0mg"},{"bike_id":"152594e2-7d98-4bc2-be41-a1bfd49dd977","system_id":"levelo_inurba_marseille","lat":43.309039,"lon":5.371797,"is_reserved":false,"is_disabled":false,"rental_uris":{"android":"levelo://app?vid=152594e2-7d98-4bc2-be41-a1bfd49dd977","ios":"levelo://app?vid=152594e2-7d98-4bc2-be41-a1bfd49dd977"},"vehicle_type_id":"4","last_reported":1712956004,"current_range_meters":19200,"station_id":"ce4bguh2rcd13ifvqckg","pricing_plan_id":"cebpf4jnsgd1na2vs0mg"},{"bike_id":"7532e46e-dee6-4bef-afd7-824aa12a32e4","system_id":"levelo_inurba_marseille","lat":43.305989,"lon":5.37225,"is_reserved":false,"is_disabled":false,"rental_uris":{"android":"levelo://app?vid=7532e46e-dee6-4bef-afd7-824aa12a32e4","ios":"levelo://app?vid=7532e46e-dee6-4bef-afd7-824aa12a32e4"},"vehicle_type_id":"4","last_reported":1712956004,"current_range_meters":6400,"station_id":"ce4bgqh2rcd13ifvqc4g","pricing_plan_id":"cebpf4jnsgd1na2vs0mg"},{"bike_id":"6fbd2f3e-811c-4943-a320-ccf04bc37f50","system_id":"levelo_inurba_marseille","lat":43.313571,"lon":5.384829,"is_reserved":false,"is_disabled":false,"rental_uris":{"android":"levelo://app?vid=6fbd2f3e-811c-4943-a320-ccf04bc37f50","ios":"levelo://app?vid=6fbd2f3e-811c-4943-a320-ccf04bc37f50"},"vehicle_type_id":"4","last_reported":1712956004,"current_range_meters":8000,"station_id":"ce4bgt92rcd13ifvqcf0","pricing_plan_id":"cebpf4jnsgd1na2vs0mg"},{"bike_id":"83bd4b76-ae7a-4d8f-a788-184c903b601b","system_id":"levelo_inurba_marseille","lat":43.311125,"lon":5.377624,"is_reserved":false,"is_disabled":false,"rental_uris":{"android":"levelo://app?vid=83bd4b76-ae7a-4d8f-a788-184c903b601b","ios":"levelo://app?vid=83bd4b76-ae7a-4d8f-a788-184c903b601b"},"vehicle_type_id":"4","last_reported":1712956004,"current_range_meters":0,"station_id":"ce4bgt92rcd13ifvqcg0","pricing_plan_id":"cebpf4jnsgd1na2vs0mg"},{"bike_id":"1de9a498-7afd-4e1e-8e1a-4bbb46c25705","system_id":"levelo_inurba_marseille","lat":43.307945,"lon":5.376487,"is_reserved":false,"is_disabled":false,"rental_uris":{"android":"levelo://app?vid=1de9a498-7afd-4e1e-8e1a-4bbb46c25705","ios":"levelo://app?vid=1de9a498-7afd-4e1e-8e1a-4bbb46c25705"},"vehicle_type_id":"4","last_reported":1712956004,"current_range_meters":18400,"station_id":"ce4bgv92rcd13ifvqcq0","pricing_plan_id":"cebpf4jnsgd1na2vs0mg"},{"bike_id":"b5dd317a-b435-4542-8495-35e1230074f3","system_id":"levelo_inurba_marseille","lat":43.303046,"lon":5.368981,"is_reserved":false,"is_disabled":false,"rental_uris":{"android":"levelo://app?vid=b5dd317a-b435-4542-8495-35e1230074f3","ios":"levelo://app?vid=b5dd317a-b435-4542-8495-35e1230074f3"},"vehicle_type_id":"4","last_reported":1712956004,"current_range_meters":800,"station_id":"ce4bgqh2rcd13ifvqc5g","pricing_plan_id":"cebpf4jnsgd1na2vs0mg"},{"bike_id":"9257eeab-72e1-4bee-9fa8-a3bf20d1fb4f","system_id":"levelo_inurba_marseille","lat":43.30304,"lon":5.368987,"is_reserved":false,"is_disabled":false,"rental_uris":{"android":"levelo://app?vid=9257eeab-72e1-4bee-9fa8-a3bf20d1fb4f","ios":"levelo://app?vid=9257eeab-72e1-4bee-9fa8-a3bf20d1fb4f"},"vehicle_type_id":"4","last_reported":1712956004,"current_range_meters":0,"station_id":"ce4bgqh2rcd13ifvqc5g","pricing_plan_id":"cebpf4jnsgd1na2vs0mg"},{"bike_id":"ee7d43e3-45f1-4b3f-a000-d09ea3d6050d","system_id":"levelo_inurba_marseille","lat":43.315293,"lon":5.380349,"is_reserved":false,"is_disabled":false,"rental_uris":{"android":"levelo://app?vid=ee7d43e3-45f1-4b3f-a000-d09ea3d6050d","ios":"levelo://app?vid=ee7d43e3-45f1-4b3f-a000-d09ea3d6050d"},"vehicle_type_id":"4","last_reported":1712956004,"current_range_meters":26800,"station_id":"ce4bhsp2rcd13ifvqi50","pricing_plan_id":"cebpf4jnsgd1na2vs0mg"},{"bike_id":"c973c696-6cf3-4ef6-9922-20142626237f","system_id":"levelo_inurba_marseille","lat":43.30282,"lon":5.37259,"is_reserved":false,"is_disabled":false,"rental_uris":{"android":"levelo://app?vid=c973c696-6cf3-4ef6-9922-20142626237f","ios":"levelo://app?vid=c973c696-6cf3-4ef6-9922-20142626237f"},"vehicle_type_id":"4","last_reported":1712956004,"current_range_meters":17600,"station_id":"","pricing_plan_id":"cebpf4jnsgd1na2vs0mg"},{"bike_id":"55d280b3-3edf-424d-a072-33a765b43467","system_id":"levelo_inurba_marseille","lat":43.301939,"lon":5.366286,"is_reserved":false,"is_disabled":false,"rental_uris":{"android":"levelo://app?vid=55d280b3-3edf-424d-a072-33a765b43467","ios":"levelo://app?vid=55d280b3-3edf-424d-a072-33a765b43467"},"vehicle_type_id":"4","last_reported":1712956004,"current_range_meters":0,"station_id":"ce4bgrh2rcd13ifvqc8g","pricing_plan_id":"cebpf4jnsgd1na2vs0mg"},{"bike_id":"fd69ba21-0eba-42ca-b376-aa503153cb1f","system_id":"levelo_inurba_marseille","lat":43.30812,"lon":5.38131,"is_reserved":false,"is_disabled":false,"rental_uris":{"android":"levelo://app?vid=fd69ba21-0eba-42ca-b376-aa503153cb1f","ios":"levelo://app?vid=fd69ba21-0eba-42ca-b376-aa503153cb1f"},"vehicle_type_id":"4","last_reported":1712956004,"current_range_meters":21600,"station_id":"ce4bgt12rcd13ifvqce0","pricing_plan_id":"cebpf4jnsgd1na2vs0mg"},{"bike_id":"9049468d-073a-4aec-b65a-a55dadfe6a3d","system_id":"levelo_inurba_marseille","lat":43.308012,"lon":5.381511,"is_reserved":false,"is_disabled":false,"rental_uris":{"android":"levelo://app?vid=9049468d-073a-4aec-b65a-a55dadfe6a3d","ios":"levelo://app?vid=9049468d-073a-4aec-b65a-a55dadfe6a3d"},"vehicle_type_id":"4","last_reported":1712956004,"current_range_meters":400,"station_id":"ce4bgt12rcd13ifvqce0","pricing_plan_id":"cebpf4jnsgd1na2vs0mg"},{"bike_id":"3212a649-5ed7-43ae-9404-6857fc756ad7","system_id":"levelo_inurba_marseille","lat":43.30806,"lon":5.38156,"is_reserved":false,"is_disabled":false,"rental_uris":{"android":"levelo://app?vid=3212a649-5ed7-43ae-9404-6857fc756ad7","ios":"levelo://app?vid=3212a649-5ed7-43ae-9404-6857fc756ad7"},"vehicle_type_id":"4","last_reported":1712956004,"current_range_meters":0,"station_id":"ce4bgt12rcd13ifvqce0","pricing_plan_id":"cebpf4jnsgd1na2vs0mg"},{"bike_id":"6bfd0e51-866a-46e8-8402-1e69d52d3e12","system_id":"levelo_inurba_marseille","lat":43.308001,"lon":5.381526,"is_reserved":false,"is_disabled":false,"rental_uris":{"android":"levelo://app?vid=6bfd0e51-866a-46e8-8402-1e69d52d3e12","ios":"levelo://app?vid=6bfd0e51-866a-46e8-8402-1e69d52d3e12"},"vehicle_type_id":"4","last_reported":1712956004,"current_range_meters":0,"station_id":"ce4bgt12rcd13ifvqce0","pricing_plan_id":"cebpf4jnsgd1na2vs0mg"},{"bike_id":"059dcd77-b156-4846-a2f6-dcc7ed292848","system_id":"levelo_inurba_marseille","lat":43.304632,"lon":5.37909,"is_reserved":false,"is_disabled":false,"rental_uris":{"android":"levelo://app?vid=059dcd77-b156-4846-a2f6-dcc7ed292848","ios":"levelo://app?vid=059dcd77-b156-4846-a2f6-dcc7ed292848"},"vehicle_type_id":"4","last_reported":1712956004,"current_range_meters":0,"station_id":"ce4bgup2rcd13ifvqcn0","pricing_plan_id":"cebpf4jnsgd1na2vs0mg"},{"bike_id":"6fcac34d-4b8b-4ea1-8b39-2196ca6d95b7","system_id":"levelo_inurba_marseille","lat":43.324771,"lon":5.36557,"is_reserved":false,"is_disabled":false,"rental_uris":{"android":"levelo://app?vid=6fcac34d-4b8b-4ea1-8b39-2196ca6d95b7","ios":"levelo://app?vid=6fcac34d-4b8b-4ea1-8b39-2196ca6d95b7"},"vehicle_type_id":"4","last_reported":1712956004,"current_range_meters":5600,"station_id":"ce4bhs12rcd13ifvqhvg","pricing_plan_id":"cebpf4jnsgd1na2vs0mg"},{"bike_id":"79dd9bb3-f3e0-4123-95b1-2c96af192671","system_id":"levelo_inurba_marseille","lat":43.324771,"lon":5.36557,"is_reserved":false,"is_disabled":false,"rental_uris":{"android":"levelo://app?vid=79dd9bb3-f3e0-4123-95b1-2c96af192671","ios":"levelo://app?vid=79dd9bb3-f3e0-4123-95b1-2c96af192671"},"vehicle_type_id":"4","last_reported":1712956004,"current_range_meters":15600,"station_id":"ce4bhs12rcd13ifvqhvg","pricing_plan_id":"cebpf4jnsgd1na2vs0mg"},{"bike_id":"307082cd-38ec-4e2f-958c-a7ba81ca511b","system_id":"levelo_inurba_marseille","lat":43.324771,"lon":5.36557,"is_reserved":false,"is_disabled":false,"rental_uris":{"android":"levelo://app?vid=307082cd-38ec-4e2f-958c-a7ba81ca511b","ios":"levelo://app?vid=307082cd-38ec-4e2f-958c-a7ba81ca511b"},"vehicle_type_id":"4","last_reported":1712956004,"current_range_meters":2400,"station_id":"ce4bhs12rcd13ifvqhvg","pricing_plan_id":"cebpf4jnsgd1na2vs0mg"},{"bike_id":"342b1a87-efe3-4691-a702-219fd4edfacb","system_id":"levelo_inurba_marseille","lat":43.324771,"lon":5.36557,"is_reserved":false,"is_disabled":false,"rental_uris":{"android":"levelo://app?vid=342b1a87-efe3-4691-a702-219fd4edfacb","ios":"levelo://app?vid=342b1a87-efe3-4691-a702-219fd4edfacb"},"vehicle_type_id":"4","last_reported":1712956004,"current_range_meters":0,"station_id":"ce4bhs12rcd13ifvqhvg","pricing_plan_id":"cebpf4jnsgd1na2vs0mg"},{"bike_id":"8233e652-c11d-4da5-8d18-f06b3c5caa11","system_id":"levelo_inurba_marseille","lat":43.324771,"lon":5.36557,"is_reserved":false,"is_disabled":false,"rental_uris":{"android":"levelo://app?vid=8233e652-c11d-4da5-8d18-f06b3c5caa11","ios":"levelo://app?vid=8233e652-c11d-4da5-8d18-f06b3c5caa11"},"vehicle_type_id":"4","last_reported":1712956004,"current_range_meters":10400,"station_id":"ce4bhs12rcd13ifvqhvg","pricing_plan_id":"cebpf4jnsgd1na2vs0mg"},{"bike_id":"3da179fd-ba6d-4ac5-8ae9-a73ee0c6d3ee","system_id":"levelo_inurba_marseille","lat":43.3108,"lon":5.38347,"is_reserved":false,"is_disabled":false,"rental_uris":{"android":"levelo://app?vid=3da179fd-ba6d-4ac5-8ae9-a73ee0c6d3ee","ios":"levelo://app?vid=3da179fd-ba6d-4ac5-8ae9-a73ee0c6d3ee"},"vehicle_type_id":"4","last_reported":1712956004,"current_range_meters":0,"station_id":"ce4bgv92rcd13ifvqcr0","pricing_plan_id":"cebpf4jnsgd1na2vs0mg"},{"bike_id":"15885d66-8294-406d-8563-3366eede4a1c","system_id":"levelo_inurba_marseille","lat":43.310696,"lon":5.38349,"is_reserved":false,"is_disabled":false,"rental_uris":{"android":"levelo://app?vid=15885d66-8294-406d-8563-3366eede4a1c","ios":"levelo://app?vid=15885d66-8294-406d-8563-3366eede4a1c"},"vehicle_type_id":"4","last_reported":1712956004,"current_range_meters":0,"station_id":"ce4bgv92rcd13ifvqcr0","pricing_plan_id":"cebpf4jnsgd1na2vs0mg"},{"bike_id":"87dca84b-0cb4-478f-b488-590b97d2ee57","system_id":"levelo_inurba_marseille","lat":43.31069,"lon":5.3835,"is_reserved":false,"is_disabled":false,"rental_uris":{"android":"levelo://app?vid=87dca84b-0cb4-478f-b488-590b97d2ee57","ios":"levelo://app?vid=87dca84b-0cb4-478f-b488-590b97d2ee57"},"vehicle_type_id":"4","last_reported":1712956004,"current_range_meters":27200,"station_id":"ce4bgv92rcd13ifvqcr0","pricing_plan_id":"cebpf4jnsgd1na2vs0mg"},{"bike_id":"aab8218e-5ae5-4259-8cfc-82eea594431c","system_id":"levelo_inurba_marseille","lat":43.324771,"lon":5.36557,"is_reserved":false,"is_disabled":false,"rental_uris":{"android":"levelo://app?vid=aab8218e-5ae5-4259-8cfc-82eea594431c","ios":"levelo://app?vid=aab8218e-5ae5-4259-8cfc-82eea594431c"},"vehicle_type_id":"4","last_reported":1712956004,"current_range_meters":11600,"station_id":"ce4bhs12rcd13ifvqhvg","pricing_plan_id":"cebpf4jnsgd1na2vs0mg"},{"bike_id":"2a113697-1780-4128-94ad-5b4e9830689c","system_id":"levelo_inurba_marseille","lat":43.31067,"lon":5.38353,"is_reserved":false,"is_disabled":false,"rental_uris":{"android":"levelo://app?vid=2a113697-1780-4128-94ad-5b4e9830689c","ios":"levelo://app?vid=2a113697-1780-4128-94ad-5b4e9830689c"},"vehicle_type_id":"4","last_reported":1712956004,"current_range_meters":16800,"station_id":"ce4bgv92rcd13ifvqcr0","pricing_plan_id":"cebpf4jnsgd1na2vs0mg"},{"bike_id":"b1b5b497-53d2-46e5-9c17-813854be3ca7","system_id":"levelo_inurba_marseille","lat":43.324771,"lon":5.36557,"is_reserved":false,"is_disabled":false,"rental_uris":{"android":"levelo://app?vid=b1b5b497-53d2-46e5-9c17-813854be3ca7","ios":"levelo://app?vid=b1b5b497-53d2-46e5-9c17-813854be3ca7"},"vehicle_type_id":"4","last_reported":1712956004,"current_range_meters":4000,"station_id":"ce4bhs12rcd13ifvqhvg","pricing_plan_id":"cebpf4jnsgd1na2vs0mg"},{"bike_id":"d6ab4ce5-10f5-447a-b384-f93b0d045482","system_id":"levelo_inurba_marseille","lat":43.310804,"lon":5.38359,"is_reserved":false,"is_disabled":false,"rental_uris":{"android":"levelo://app?vid=d6ab4ce5-10f5-447a-b384-f93b0d045482","ios":"levelo://app?vid=d6ab4ce5-10f5-447a-b384-f93b0d045482"},"vehicle_type_id":"4","last_reported":1712956004,"current_range_meters":10000,"station_id":"ce4bgv92rcd13ifvqcr0","pricing_plan_id":"cebpf4jnsgd1na2vs0mg"},{"bike_id":"c87f83ed-712a-45c7-9a7b-2b3813f1f46b","system_id":"levelo_inurba_marseille","lat":43.302784,"lon":5.377158,"is_reserved":false,"is_disabled":false,"rental_uris":{"android":"levelo://app?vid=c87f83ed-712a-45c7-9a7b-2b3813f1f46b","ios":"levelo://app?vid=c87f83ed-712a-45c7-9a7b-2b3813f1f46b"},"vehicle_type_id":"4","last_reported":1712956004,"current_range_meters":28400,"station_id":"ce4bguh2rcd13ifvqcj0","pricing_plan_id":"cebpf4jnsgd1na2vs0mg"},{"bike_id":"387b7c6f-c287-4395-823a-85058889ede8","system_id":"levelo_inurba_marseille","lat":43.319935,"lon":5.381699,"is_reserved":false,"is_disabled":false,"rental_uris":{"android":"levelo://app?vid=387b7c6f-c287-4395-823a-85058889ede8","ios":"levelo://app?vid=387b7c6f-c287-4395-823a-85058889ede8"},"vehicle_type_id":"4","last_reported":1712956004,"current_range_meters":0,"station_id":"ce4bhr12rcd13ifvqhpg","pricing_plan_id":"cebpf4jnsgd1na2vs0mg"},{"bike_id":"4e55ca64-fe78-48a2-9719-7902d95f15e6","system_id":"levelo_inurba_marseille","lat":43.319935,"lon":5.381699,"is_reserved":false,"is_disabled":false,"rental_uris":{"android":"levelo://app?vid=4e55ca64-fe78-48a2-9719-7902d95f15e6","ios":"levelo://app?vid=4e55ca64-fe78-48a2-9719-7902d95f15e6"},"vehicle_type_id":"4","last_reported":1712956004,"current_range_meters":3200,"station_id":"ce4bhr12rcd13ifvqhpg","pricing_plan_id":"cebpf4jnsgd1na2vs0mg"},{"bike_id":"31d436d2-22f4-444b-92ad-c36128c84b47","system_id":"levelo_inurba_marseille","lat":43.319935,"lon":5.381699,"is_reserved":false,"is_disabled":false,"rental_uris":{"android":"levelo://app?vid=31d436d2-22f4-444b-92ad-c36128c84b47","ios":"levelo://app?vid=31d436d2-22f4-444b-92ad-c36128c84b47"},"vehicle_type_id":"4","last_reported":1712956004,"current_range_meters":0,"station_id":"ce4bhr12rcd13ifvqhpg","pricing_plan_id":"cebpf4jnsgd1na2vs0mg"},{"bike_id":"9165843a-1710-47f6-acc2-8ac6b465822d","system_id":"levelo_inurba_marseille","lat":43.31996,"lon":5.38155,"is_reserved":false,"is_disabled":false,"rental_uris":{"android":"levelo://app?vid=9165843a-1710-47f6-acc2-8ac6b465822d","ios":"levelo://app?vid=9165843a-1710-47f6-acc2-8ac6b465822d"},"vehicle_type_id":"4","last_reported":1712956004,"current_range_meters":0,"station_id":"ce4bhr12rcd13ifvqhpg","pricing_plan_id":"cebpf4jnsgd1na2vs0mg"},{"bike_id":"afb78cb4-71b4-4594-a1f1-9ba7b02b5aee","system_id":"levelo_inurba_marseille","lat":43.319935,"lon":5.381699,"is_reserved":false,"is_disabled":false,"rental_uris":{"android":"levelo://app?vid=afb78cb4-71b4-4594-a1f1-9ba7b02b5aee","ios":"levelo://app?vid=afb78cb4-71b4-4594-a1f1-9ba7b02b5aee"},"vehicle_type_id":"4","last_reported":1712956004,"current_range_meters":3200,"station_id":"ce4bhr12rcd13ifvqhpg","pricing_plan_id":"cebpf4jnsgd1na2vs0mg"},{"bike_id":"c2df71dc-f20c-4a6a-80d9-4f42ef3bf709","system_id":"levelo_inurba_marseille","lat":43.31991,"lon":5.38162,"is_reserved":false,"is_disabled":false,"rental_uris":{"android":"levelo://app?vid=c2df71dc-f20c-4a6a-80d9-4f42ef3bf709","ios":"levelo://app?vid=c2df71dc-f20c-4a6a-80d9-4f42ef3bf709"},"vehicle_type_id":"4","last_reported":1712956004,"current_range_meters":21200,"station_id":"ce4bhr12rcd13ifvqhpg","pricing_plan_id":"cebpf4jnsgd1na2vs0mg"},{"bike_id":"06e2b00d-8932-4356-9214-2a9e57395088","system_id":"levelo_inurba_marseille","lat":43.319935,"lon":5.381699,"is_reserved":false,"is_disabled":false,"rental_uris":{"android":"levelo://app?vid=06e2b00d-8932-4356-9214-2a9e57395088","ios":"levelo://app?vid=06e2b00d-8932-4356-9214-2a9e57395088"},"vehicle_type_id":"4","last_reported":1712956004,"current_range_meters":18400,"station_id":"ce4bhr12rcd13ifvqhpg","pricing_plan_id":"cebpf4jnsgd1na2vs0mg"},{"bike_id":"a5c7d92a-31f4-40d7-8720-41d84efe8baf","system_id":"levelo_inurba_marseille","lat":43.319935,"lon":5.381699,"is_reserved":false,"is_disabled":false,"rental_uris":{"android":"levelo://app?vid=a5c7d92a-31f4-40d7-8720-41d84efe8baf","ios":"levelo://app?vid=a5c7d92a-31f4-40d7-8720-41d84efe8baf"},"vehicle_type_id":"4","last_reported":1712956004,"current_range_meters":7600,"station_id":"ce4bhr12rcd13ifvqhpg","pricing_plan_id":"cebpf4jnsgd1na2vs0mg"},{"bike_id":"040fe1e7-78d3-4d84-b369-f81c31655017","system_id":"levelo_inurba_marseille","lat":43.319935,"lon":5.381699,"is_reserved":false,"is_disabled":false,"rental_uris":{"android":"levelo://app?vid=040fe1e7-78d3-4d84-b369-f81c31655017","ios":"levelo://app?vid=040fe1e7-78d3-4d84-b369-f81c31655017"},"vehicle_type_id":"4","last_reported":1712956004,"current_range_meters":2000,"station_id":"ce4bhr12rcd13ifvqhpg","pricing_plan_id":"cebpf4jnsgd1na2vs0mg"},{"bike_id":"e2468eed-aa0b-4865-9d54-79680762995a","system_id":"levelo_inurba_marseille","lat":43.319935,"lon":5.381699,"is_reserved":false,"is_disabled":false,"rental_uris":{"android":"levelo://app?vid=e2468eed-aa0b-4865-9d54-79680762995a","ios":"levelo://app?vid=e2468eed-aa0b-4865-9d54-79680762995a"},"vehicle_type_id":"4","last_reported":1712956004,"current_range_meters":400,"station_id":"ce4bhr12rcd13ifvqhpg","pricing_plan_id":"cebpf4jnsgd1na2vs0mg"},{"bike_id":"264f64a1-1098-431c-a7d8-43f1485a4139","system_id":"levelo_inurba_marseille","lat":43.319935,"lon":5.381699,"is_reserved":false,"is_disabled":false,"rental_uris":{"android":"levelo://app?vid=264f64a1-1098-431c-a7d8-43f1485a4139","ios":"levelo://app?vid=264f64a1-1098-431c-a7d8-43f1485a4139"},"vehicle_type_id":"4","last_reported":1712956004,"current_range_meters":10800,"station_id":"ce4bhr12rcd13ifvqhpg","pricing_plan_id":"cebpf4jnsgd1na2vs0mg"},{"bike_id":"8cb3d3b3-4055-4e9c-9b50-f86e6cef6e16","system_id":"levelo_inurba_marseille","lat":43.313571,"lon":5.384829,"is_reserved":false,"is_disabled":false,"rental_uris":{"android":"levelo://app?vid=8cb3d3b3-4055-4e9c-9b50-f86e6cef6e16","ios":"levelo://app?vid=8cb3d3b3-4055-4e9c-9b50-f86e6cef6e16"},"vehicle_type_id":"4","last_reported":1712956004,"current_range_meters":0,"station_id":"ce4bgt92rcd13ifvqcf0","pricing_plan_id":"cebpf4jnsgd1na2vs0mg"},{"bike_id":"6bc567df-59f2-4f42-8cec-9dff9f96bbc1","system_id":"levelo_inurba_marseille","lat":43.313571,"lon":5.384829,"is_reserved":false,"is_disabled":false,"rental_uris":{"android":"levelo://app?vid=6bc567df-59f2-4f42-8cec-9dff9f96bbc1","ios":"levelo://app?vid=6bc567df-59f2-4f42-8cec-9dff9f96bbc1"},"vehicle_type_id":"4","last_reported":1712956004,"current_range_meters":21200,"station_id":"ce4bgt92rcd13ifvqcf0","pricing_plan_id":"cebpf4jnsgd1na2vs0mg"},{"bike_id":"1ca4a438-6ee8-4fd7-9ef2-027869339288","system_id":"levelo_inurba_marseille","lat":43.313571,"lon":5.384829,"is_reserved":false,"is_disabled":false,"rental_uris":{"android":"levelo://app?vid=1ca4a438-6ee8-4fd7-9ef2-027869339288","ios":"levelo://app?vid=1ca4a438-6ee8-4fd7-9ef2-027869339288"},"vehicle_type_id":"4","last_reported":1712956004,"current_range_meters":0,"station_id":"ce4bgt92rcd13ifvqcf0","pricing_plan_id":"cebpf4jnsgd1na2vs0mg"},{"bike_id":"e1af2788-98bc-4618-b1b6-381095b26e03","system_id":"levelo_inurba_marseille","lat":43.313571,"lon":5.384829,"is_reserved":false,"is_disabled":false,"rental_uris":{"android":"levelo://app?vid=e1af2788-98bc-4618-b1b6-381095b26e03","ios":"levelo://app?vid=e1af2788-98bc-4618-b1b6-381095b26e03"},"vehicle_type_id":"4","last_reported":1712956004,"current_range_meters":2800,"station_id":"ce4bgt92rcd13ifvqcf0","pricing_plan_id":"cebpf4jnsgd1na2vs0mg"},{"bike_id":"95c3be9b-032e-42c9-a658-63a3e281c9a5","system_id":"levelo_inurba_marseille","lat":43.313571,"lon":5.384829,"is_reserved":false,"is_disabled":false,"rental_uris":{"android":"levelo://app?vid=95c3be9b-032e-42c9-a658-63a3e281c9a5","ios":"levelo://app?vid=95c3be9b-032e-42c9-a658-63a3e281c9a5"},"vehicle_type_id":"4","last_reported":1712956004,"current_range_meters":0,"station_id":"ce4bgt92rcd13ifvqcf0","pricing_plan_id":"cebpf4jnsgd1na2vs0mg"},{"bike_id":"ea5528e7-6db2-43d8-846c-f3d895c77284","system_id":"levelo_inurba_marseille","lat":43.313571,"lon":5.384829,"is_reserved":false,"is_disabled":false,"rental_uris":{"android":"levelo://app?vid=ea5528e7-6db2-43d8-846c-f3d895c77284","ios":"levelo://app?vid=ea5528e7-6db2-43d8-846c-f3d895c77284"},"vehicle_type_id":"4","last_reported":1712956004,"current_range_meters":400,"station_id":"ce4bgt92rcd13ifvqcf0","pricing_plan_id":"cebpf4jnsgd1na2vs0mg"},{"bike_id":"f82b7263-d7ad-4835-9672-390dfa28ed85","system_id":"levelo_inurba_marseille","lat":43.299724,"lon":5.371829,"is_reserved":false,"is_disabled":false,"rental_uris":{"android":"levelo://app?vid=f82b7263-d7ad-4835-9672-390dfa28ed85","ios":"levelo://app?vid=f82b7263-d7ad-4835-9672-390dfa28ed85"},"vehicle_type_id":"4","last_reported":1712956004,"current_range_meters":4800,"station_id":"ce4bgr92rcd13ifvqc7g","pricing_plan_id":"cebpf4jnsgd1na2vs0mg"},{"bike_id":"12acaeb7-c93d-47ec-8fe2-269919ad591d","system_id":"levelo_inurba_marseille","lat":43.299222,"lon":5.365554,"is_reserved":false,"is_disabled":false,"rental_uris":{"android":"levelo://app?vid=12acaeb7-c93d-47ec-8fe2-269919ad591d","ios":"levelo://app?vid=12acaeb7-c93d-47ec-8fe2-269919ad591d"},"vehicle_type_id":"4","last_reported":1712956004,"current_range_meters":0,"station_id":"ce4bgm92rcd13ifvqbr0","pricing_plan_id":"cebpf4jnsgd1na2vs0mg"},{"bike_id":"6e9c67bb-bd2b-4f31-8f09-ef88e667faa8","system_id":"levelo_inurba_marseille","lat":43.299222,"lon":5.365554,"is_reserved":false,"is_disabled":false,"rental_uris":{"android":"levelo://app?vid=6e9c67bb-bd2b-4f31-8f09-ef88e667faa8","ios":"levelo://app?vid=6e9c67bb-bd2b-4f31-8f09-ef88e667faa8"},"vehicle_type_id":"4","last_reported":1712956004,"current_range_meters":18400,"station_id":"ce4bgm92rcd13ifvqbr0","pricing_plan_id":"cebpf4jnsgd1na2vs0mg"},{"bike_id":"22ba2199-f3ed-4de9-bc2d-36215e34573d","system_id":"levelo_inurba_marseille","lat":43.298433,"lon":5.362774,"is_reserved":false,"is_disabled":false,"rental_uris":{"android":"levelo://app?vid=22ba2199-f3ed-4de9-bc2d-36215e34573d","ios":"levelo://app?vid=22ba2199-f3ed-4de9-bc2d-36215e34573d"},"vehicle_type_id":"4","last_reported":1712956004,"current_range_meters":16000,"station_id":"ce4bgpp2rcd13ifvqc3g","pricing_plan_id":"cebpf4jnsgd1na2vs0mg"},{"bike_id":"2df20bd7-06e7-44fa-8ef3-b2ab58ad98a1","system_id":"levelo_inurba_marseille","lat":43.305364,"lon":5.384119,"is_reserved":false,"is_disabled":false,"rental_uris":{"android":"levelo://app?vid=2df20bd7-06e7-44fa-8ef3-b2ab58ad98a1","ios":"levelo://app?vid=2df20bd7-06e7-44fa-8ef3-b2ab58ad98a1"},"vehicle_type_id":"4","last_reported":1712956004,"current_range_meters":17200,"station_id":"ce4bgg92rcd13ifvqb30","pricing_plan_id":"cebpf4jnsgd1na2vs0mg"},{"bike_id":"6c91aeb1-c1ac-4b0b-927a-209ee6aedd6d","system_id":"levelo_inurba_marseille","lat":43.31185,"lon":5.387075,"is_reserved":false,"is_disabled":false,"rental_uris":{"android":"levelo://app?vid=6c91aeb1-c1ac-4b0b-927a-209ee6aedd6d","ios":"levelo://app?vid=6c91aeb1-c1ac-4b0b-927a-209ee6aedd6d"},"vehicle_type_id":"4","last_reported":1712956004,"current_range_meters":0,"station_id":"ce4bgv12rcd13ifvqcp0","pricing_plan_id":"cebpf4jnsgd1na2vs0mg"},{"bike_id":"08e03e2b-c2ba-4b65-9109-21c546431714","system_id":"levelo_inurba_marseille","lat":43.311523,"lon":5.387163,"is_reserved":false,"is_disabled":false,"rental_uris":{"android":"levelo://app?vid=08e03e2b-c2ba-4b65-9109-21c546431714","ios":"levelo://app?vid=08e03e2b-c2ba-4b65-9109-21c546431714"},"vehicle_type_id":"4","last_reported":1712956004,"current_range_meters":0,"station_id":"ce4bgv12rcd13ifvqcp0","pricing_plan_id":"cebpf4jnsgd1na2vs0mg"},{"bike_id":"ff8fd808-f44c-40e3-afbc-ee61614d8e94","system_id":"levelo_inurba_marseille","lat":43.311722,"lon":5.387247,"is_reserved":false,"is_disabled":false,"rental_uris":{"android":"levelo://app?vid=ff8fd808-f44c-40e3-afbc-ee61614d8e94","ios":"levelo://app?vid=ff8fd808-f44c-40e3-afbc-ee61614d8e94"},"vehicle_type_id":"4","last_reported":1712956004,"current_range_meters":13200,"station_id":"ce4bgv12rcd13ifvqcp0","pricing_plan_id":"cebpf4jnsgd1na2vs0mg"},{"bike_id":"261a1eeb-2746-4142-bfd7-2b075983d751","system_id":"levelo_inurba_marseille","lat":43.311722,"lon":5.387247,"is_reserved":false,"is_disabled":false,"rental_uris":{"android":"levelo://app?vid=261a1eeb-2746-4142-bfd7-2b075983d751","ios":"levelo://app?vid=261a1eeb-2746-4142-bfd7-2b075983d751"},"vehicle_type_id":"4","last_reported":1712956004,"current_range_meters":3600,"station_id":"ce4bgv12rcd13ifvqcp0","pricing_plan_id":"cebpf4jnsgd1na2vs0mg"},{"bike_id":"9fad1ef1-3d84-465f-8cfa-ee3717dd6a51","system_id":"levelo_inurba_marseille","lat":43.2979,"lon":5.37098,"is_reserved":false,"is_disabled":false,"rental_uris":{"android":"levelo://app?vid=9fad1ef1-3d84-465f-8cfa-ee3717dd6a51","ios":"levelo://app?vid=9fad1ef1-3d84-465f-8cfa-ee3717dd6a51"},"vehicle_type_id":"4","last_reported":1712956004,"current_range_meters":0,"station_id":"ce4bhb12rcd13ifvqem0","pricing_plan_id":"cebpf4jnsgd1na2vs0mg"},{"bike_id":"21b13b07-4f48-4469-bde8-ff30ff6484ce","system_id":"levelo_inurba_marseille","lat":43.297863,"lon":5.370897,"is_reserved":false,"is_disabled":false,"rental_uris":{"android":"levelo://app?vid=21b13b07-4f48-4469-bde8-ff30ff6484ce","ios":"levelo://app?vid=21b13b07-4f48-4469-bde8-ff30ff6484ce"},"vehicle_type_id":"4","last_reported":1712956004,"current_range_meters":4800,"station_id":"","pricing_plan_id":"cebpf4jnsgd1na2vs0mg"},{"bike_id":"32e7911f-a903-4a48-907f-a072aeb7a1bd","system_id":"levelo_inurba_marseille","lat":43.297774,"lon":5.370875,"is_reserved":false,"is_disabled":false,"rental_uris":{"android":"levelo://app?vid=32e7911f-a903-4a48-907f-a072aeb7a1bd","ios":"levelo://app?vid=32e7911f-a903-4a48-907f-a072aeb7a1bd"},"vehicle_type_id":"4","last_reported":1712956004,"current_range_meters":24800,"station_id":"ce4bgop2rcd13ifvqc1g","pricing_plan_id":"cebpf4jnsgd1na2vs0mg"},{"bike_id":"e9575f6a-7c71-448f-ab59-80d8e8773a2f","system_id":"levelo_inurba_marseille","lat":43.32285,"lon":5.38271,"is_reserved":false,"is_disabled":false,"rental_uris":{"android":"levelo://app?vid=e9575f6a-7c71-448f-ab59-80d8e8773a2f","ios":"levelo://app?vid=e9575f6a-7c71-448f-ab59-80d8e8773a2f"},"vehicle_type_id":"4","last_reported":1712956004,"current_range_meters":26800,"station_id":"ce4bhr12rcd13ifvqhqg","pricing_plan_id":"cebpf4jnsgd1na2vs0mg"},{"bike_id":"62f70c15-673b-4b5f-8664-4716e8ac8804","system_id":"levelo_inurba_marseille","lat":43.322872,"lon":5.382756,"is_reserved":false,"is_disabled":false,"rental_uris":{"android":"levelo://app?vid=62f70c15-673b-4b5f-8664-4716e8ac8804","ios":"levelo://app?vid=62f70c15-673b-4b5f-8664-4716e8ac8804"},"vehicle_type_id":"4","last_reported":1712956004,"current_range_meters":24400,"station_id":"ce4bhr12rcd13ifvqhqg","pricing_plan_id":"cebpf4jnsgd1na2vs0mg"},{"bike_id":"471f6dc1-72d2-49b3-a8bb-13ca96ae22c1","system_id":"levelo_inurba_marseille","lat":43.322885,"lon":5.382775,"is_reserved":false,"is_disabled":false,"rental_uris":{"android":"levelo://app?vid=471f6dc1-72d2-49b3-a8bb-13ca96ae22c1","ios":"levelo://app?vid=471f6dc1-72d2-49b3-a8bb-13ca96ae22c1"},"vehicle_type_id":"4","last_reported":1712956004,"current_range_meters":5200,"station_id":"ce4bhr12rcd13ifvqhqg","pricing_plan_id":"cebpf4jnsgd1na2vs0mg"},{"bike_id":"18c6a9dc-4ec5-4ab2-89a1-52b3437c6245","system_id":"levelo_inurba_marseille","lat":43.308012,"lon":5.381511,"is_reserved":false,"is_disabled":false,"rental_uris":{"android":"levelo://app?vid=18c6a9dc-4ec5-4ab2-89a1-52b3437c6245","ios":"levelo://app?vid=18c6a9dc-4ec5-4ab2-89a1-52b3437c6245"},"vehicle_type_id":"4","last_reported":1712956004,"current_range_meters":20400,"station_id":"ce4bgt12rcd13ifvqce0","pricing_plan_id":"cebpf4jnsgd1na2vs0mg"},{"bike_id":"4fc5375a-8b7e-4430-923f-783a921201b6","system_id":"levelo_inurba_marseille","lat":43.297163,"lon":5.365866,"is_reserved":false,"is_disabled":false,"rental_uris":{"android":"levelo://app?vid=4fc5375a-8b7e-4430-923f-783a921201b6","ios":"levelo://app?vid=4fc5375a-8b7e-4430-923f-783a921201b6"},"vehicle_type_id":"4","last_reported":1712956004,"current_range_meters":11200,"station_id":"ce4bgn12rcd13ifvqbt0","pricing_plan_id":"cebpf4jnsgd1na2vs0mg"},{"bike_id":"93e858ea-f908-4229-bd9c-f5084c85aef3","system_id":"levelo_inurba_marseille","lat":43.297163,"lon":5.365866,"is_reserved":false,"is_disabled":false,"rental_uris":{"android":"levelo://app?vid=93e858ea-f908-4229-bd9c-f5084c85aef3","ios":"levelo://app?vid=93e858ea-f908-4229-bd9c-f5084c85aef3"},"vehicle_type_id":"4","last_reported":1712956004,"current_range_meters":20800,"station_id":"ce4bgn12rcd13ifvqbt0","pricing_plan_id":"cebpf4jnsgd1na2vs0mg"},{"bike_id":"ac16386a-a2a8-411e-b351-fec854dfa232","system_id":"levelo_inurba_marseille","lat":43.29713,"lon":5.36606,"is_reserved":false,"is_disabled":false,"rental_uris":{"android":"levelo://app?vid=ac16386a-a2a8-411e-b351-fec854dfa232","ios":"levelo://app?vid=ac16386a-a2a8-411e-b351-fec854dfa232"},"vehicle_type_id":"4","last_reported":1712956004,"current_range_meters":8400,"station_id":"","pricing_plan_id":"cebpf4jnsgd1na2vs0mg"},{"bike_id":"372c21aa-b7d4-446c-a4e2-c00058386246","system_id":"levelo_inurba_marseille","lat":43.297071,"lon":5.366113,"is_reserved":false,"is_disabled":false,"rental_uris":{"android":"levelo://app?vid=372c21aa-b7d4-446c-a4e2-c00058386246","ios":"levelo://app?vid=372c21aa-b7d4-446c-a4e2-c00058386246"},"vehicle_type_id":"4","last_reported":1712956004,"current_range_meters":0,"station_id":"ce4bgn12rcd13ifvqbt0","pricing_plan_id":"cebpf4jnsgd1na2vs0mg"},{"bike_id":"52d1bc52-8294-4477-97ca-a3a1b12b283a","system_id":"levelo_inurba_marseille","lat":43.297163,"lon":5.365866,"is_reserved":false,"is_disabled":false,"rental_uris":{"android":"levelo://app?vid=52d1bc52-8294-4477-97ca-a3a1b12b283a","ios":"levelo://app?vid=52d1bc52-8294-4477-97ca-a3a1b12b283a"},"vehicle_type_id":"4","last_reported":1712956004,"current_range_meters":3600,"station_id":"ce4bgn12rcd13ifvqbt0","pricing_plan_id":"cebpf4jnsgd1na2vs0mg"},{"bike_id":"01c3422d-8d5c-41eb-a8b1-2c81fafcb1e7","system_id":"levelo_inurba_marseille","lat":43.29703,"lon":5.36598,"is_reserved":false,"is_disabled":false,"rental_uris":{"android":"levelo://app?vid=01c3422d-8d5c-41eb-a8b1-2c81fafcb1e7","ios":"levelo://app?vid=01c3422d-8d5c-41eb-a8b1-2c81fafcb1e7"},"vehicle_type_id":"4","last_reported":1712956004,"current_range_meters":16800,"station_id":"","pricing_plan_id":"cebpf4jnsgd1na2vs0mg"},{"bike_id":"76a11331-d646-4afe-84ea-51b18c5bc445","system_id":"levelo_inurba_marseille","lat":43.309034,"lon":5.371783,"is_reserved":false,"is_disabled":false,"rental_uris":{"android":"levelo://app?vid=76a11331-d646-4afe-84ea-51b18c5bc445","ios":"levelo://app?vid=76a11331-d646-4afe-84ea-51b18c5bc445"},"vehicle_type_id":"4","last_reported":1712956004,"current_range_meters":1600,"station_id":"ce4bguh2rcd13ifvqckg","pricing_plan_id":"cebpf4jnsgd1na2vs0mg"},{"bike_id":"bcbc2adf-2b67-4f4b-8977-b1b0ea0af4c4","system_id":"levelo_inurba_marseille","lat":43.296131,"lon":5.370791,"is_reserved":false,"is_disabled":false,"rental_uris":{"android":"levelo://app?vid=bcbc2adf-2b67-4f4b-8977-b1b0ea0af4c4","ios":"levelo://app?vid=bcbc2adf-2b67-4f4b-8977-b1b0ea0af4c4"},"vehicle_type_id":"4","last_reported":1712956004,"current_range_meters":2000,"station_id":"ce4bgnh2rcd13ifvqc0g","pricing_plan_id":"cebpf4jnsgd1na2vs0mg"},{"bike_id":"276bed6c-a046-4fa5-beab-99d6db4a80ae","system_id":"levelo_inurba_marseille","lat":43.296131,"lon":5.370791,"is_reserved":false,"is_disabled":false,"rental_uris":{"android":"levelo://app?vid=276bed6c-a046-4fa5-beab-99d6db4a80ae","ios":"levelo://app?vid=276bed6c-a046-4fa5-beab-99d6db4a80ae"},"vehicle_type_id":"4","last_reported":1712956004,"current_range_meters":0,"station_id":"ce4bgnh2rcd13ifvqc0g","pricing_plan_id":"cebpf4jnsgd1na2vs0mg"},{"bike_id":"c998b8bd-5b36-4af3-89b0-3604927eda3a","system_id":"levelo_inurba_marseille","lat":43.29573,"lon":5.367355,"is_reserved":false,"is_disabled":false,"rental_uris":{"android":"levelo://app?vid=c998b8bd-5b36-4af3-89b0-3604927eda3a","ios":"levelo://app?vid=c998b8bd-5b36-4af3-89b0-3604927eda3a"},"vehicle_type_id":"4","last_reported":1712956004,"current_range_meters":0,"station_id":"ce4bgph2rcd13ifvqc2g","pricing_plan_id":"cebpf4jnsgd1na2vs0mg"},{"bike_id":"0cdc816a-472a-4362-be85-fdace7024b2c","system_id":"levelo_inurba_marseille","lat":43.297223,"lon":5.376874,"is_reserved":false,"is_disabled":false,"rental_uris":{"android":"levelo://app?vid=0cdc816a-472a-4362-be85-fdace7024b2c","ios":"levelo://app?vid=0cdc816a-472a-4362-be85-fdace7024b2c"},"vehicle_type_id":"4","last_reported":1712956004,"current_range_meters":0,"station_id":"ce4bgkh2rcd13ifvqbl0","pricing_plan_id":"cebpf4jnsgd1na2vs0mg"},{"bike_id":"77b17f75-9f7d-41fc-a475-515d1222003a","system_id":"levelo_inurba_marseille","lat":43.299028,"lon":5.381509,"is_reserved":false,"is_disabled":false,"rental_uris":{"android":"levelo://app?vid=77b17f75-9f7d-41fc-a475-515d1222003a","ios":"levelo://app?vid=77b17f75-9f7d-41fc-a475-515d1222003a"},"vehicle_type_id":"4","last_reported":1712956004,"current_range_meters":29200,"station_id":"ce4bgj12rcd13ifvqbc0","pricing_plan_id":"cebpf4jnsgd1na2vs0mg"},{"bike_id":"322c564a-5c93-4b91-9001-2fe2d9e0c4a0","system_id":"levelo_inurba_marseille","lat":43.309589,"lon":5.390258,"is_reserved":false,"is_disabled":false,"rental_uris":{"android":"levelo://app?vid=322c564a-5c93-4b91-9001-2fe2d9e0c4a0","ios":"levelo://app?vid=322c564a-5c93-4b91-9001-2fe2d9e0c4a0"},"vehicle_type_id":"4","last_reported":1712956004,"current_range_meters":14000,"station_id":"ce4bgup2rcd13ifvqco0","pricing_plan_id":"cebpf4jnsgd1na2vs0mg"},{"bike_id":"47dfb157-f637-419a-8f43-12d08ee36646","system_id":"levelo_inurba_marseille","lat":43.299028,"lon":5.381509,"is_reserved":false,"is_disabled":false,"rental_uris":{"android":"levelo://app?vid=47dfb157-f637-419a-8f43-12d08ee36646","ios":"levelo://app?vid=47dfb157-f637-419a-8f43-12d08ee36646"},"vehicle_type_id":"4","last_reported":1712956004,"current_range_meters":5200,"station_id":"ce4bgj12rcd13ifvqbc0","pricing_plan_id":"cebpf4jnsgd1na2vs0mg"},{"bike_id":"12b07f1e-66a6-4193-a7a1-f3c25ef817fd","system_id":"levelo_inurba_marseille","lat":43.299028,"lon":5.381509,"is_reserved":false,"is_disabled":false,"rental_uris":{"android":"levelo://app?vid=12b07f1e-66a6-4193-a7a1-f3c25ef817fd","ios":"levelo://app?vid=12b07f1e-66a6-4193-a7a1-f3c25ef817fd"},"vehicle_type_id":"4","last_reported":1712956004,"current_range_meters":7600,"station_id":"ce4bgj12rcd13ifvqbc0","pricing_plan_id":"cebpf4jnsgd1na2vs0mg"},{"bike_id":"2998dd02-aca4-4435-82cc-41a8a33790b4","system_id":"levelo_inurba_marseille","lat":43.299,"lon":5.38143,"is_reserved":false,"is_disabled":false,"rental_uris":{"android":"levelo://app?vid=2998dd02-aca4-4435-82cc-41a8a33790b4","ios":"levelo://app?vid=2998dd02-aca4-4435-82cc-41a8a33790b4"},"vehicle_type_id":"4","last_reported":1712956004,"current_range_meters":0,"station_id":"ce4bgj12rcd13ifvqbc0","pricing_plan_id":"cebpf4jnsgd1na2vs0mg"},{"bike_id":"dac20799-daaa-4e11-9729-01142590f40e","system_id":"levelo_inurba_marseille","lat":43.309589,"lon":5.390258,"is_reserved":false,"is_disabled":false,"rental_uris":{"android":"levelo://app?vid=dac20799-daaa-4e11-9729-01142590f40e","ios":"levelo://app?vid=dac20799-daaa-4e11-9729-01142590f40e"},"vehicle_type_id":"4","last_reported":1712956004,"current_range_meters":12400,"station_id":"ce4bgup2rcd13ifvqco0","pricing_plan_id":"cebpf4jnsgd1na2vs0mg"},{"bike_id":"c453c553-d6d6-407a-807f-6f0eb5291cae","system_id":"levelo_inurba_marseille","lat":43.309589,"lon":5.390258,"is_reserved":false,"is_disabled":false,"rental_uris":{"android":"levelo://app?vid=c453c553-d6d6-407a-807f-6f0eb5291cae","ios":"levelo://app?vid=c453c553-d6d6-407a-807f-6f0eb5291cae"},"vehicle_type_id":"4","last_reported":1712956004,"current_range_meters":2000,"station_id":"ce4bgup2rcd13ifvqco0","pricing_plan_id":"cebpf4jnsgd1na2vs0mg"},{"bike_id":"87d602aa-2daa-4715-a185-c6c0a8451364","system_id":"levelo_inurba_marseille","lat":43.317557,"lon":5.390173,"is_reserved":false,"is_disabled":false,"rental_uris":{"android":"levelo://app?vid=87d602aa-2daa-4715-a185-c6c0a8451364","ios":"levelo://app?vid=87d602aa-2daa-4715-a185-c6c0a8451364"},"vehicle_type_id":"4","last_reported":1712956004,"current_range_meters":3600,"station_id":"ce4bhqp2rcd13ifvqhng","pricing_plan_id":"cebpf4jnsgd1na2vs0mg"},{"bike_id":"ed517da0-d814-43a2-9cae-0588c67e9505","system_id":"levelo_inurba_marseille","lat":43.317557,"lon":5.390173,"is_reserved":false,"is_disabled":false,"rental_uris":{"android":"levelo://app?vid=ed517da0-d814-43a2-9cae-0588c67e9505","ios":"levelo://app?vid=ed517da0-d814-43a2-9cae-0588c67e9505"},"vehicle_type_id":"4","last_reported":1712956004,"current_range_meters":12800,"station_id":"ce4bhqp2rcd13ifvqhng","pricing_plan_id":"cebpf4jnsgd1na2vs0mg"},{"bike_id":"8caaffb7-a852-42b3-b793-7a58f89bb34b","system_id":"levelo_inurba_marseille","lat":43.317557,"lon":5.390173,"is_reserved":false,"is_disabled":false,"rental_uris":{"android":"levelo://app?vid=8caaffb7-a852-42b3-b793-7a58f89bb34b","ios":"levelo://app?vid=8caaffb7-a852-42b3-b793-7a58f89bb34b"},"vehicle_type_id":"4","last_reported":1712956004,"current_range_meters":10400,"station_id":"ce4bhqp2rcd13ifvqhng","pricing_plan_id":"cebpf4jnsgd1na2vs0mg"},{"bike_id":"6681b098-48fd-4e49-8880-62f96600668f","system_id":"levelo_inurba_marseille","lat":43.317557,"lon":5.390173,"is_reserved":false,"is_disabled":false,"rental_uris":{"android":"levelo://app?vid=6681b098-48fd-4e49-8880-62f96600668f","ios":"levelo://app?vid=6681b098-48fd-4e49-8880-62f96600668f"},"vehicle_type_id":"4","last_reported":1712956004,"current_range_meters":1600,"station_id":"ce4bhqp2rcd13ifvqhng","pricing_plan_id":"cebpf4jnsgd1na2vs0mg"},{"bike_id":"1353979a-a377-4553-ad62-b2c43b4732d1","system_id":"levelo_inurba_marseille","lat":43.317557,"lon":5.390173,"is_reserved":false,"is_disabled":false,"rental_uris":{"android":"levelo://app?vid=1353979a-a377-4553-ad62-b2c43b4732d1","ios":"levelo://app?vid=1353979a-a377-4553-ad62-b2c43b4732d1"},"vehicle_type_id":"4","last_reported":1712956004,"current_range_meters":0,"station_id":"ce4bhqp2rcd13ifvqhng","pricing_plan_id":"cebpf4jnsgd1na2vs0mg"},{"bike_id":"266c296e-493f-4649-800c-f2b759f100f6","system_id":"levelo_inurba_marseille","lat":43.317557,"lon":5.390173,"is_reserved":false,"is_disabled":false,"rental_uris":{"android":"levelo://app?vid=266c296e-493f-4649-800c-f2b759f100f6","ios":"levelo://app?vid=266c296e-493f-4649-800c-f2b759f100f6"},"vehicle_type_id":"4","last_reported":1712956004,"current_range_meters":0,"station_id":"ce4bhqp2rcd13ifvqhng","pricing_plan_id":"cebpf4jnsgd1na2vs0mg"},{"bike_id":"9bce419f-e99b-4ece-90d7-104aaa0f4a97","system_id":"levelo_inurba_marseille","lat":43.29812,"lon":5.38099,"is_reserved":false,"is_disabled":false,"rental_uris":{"android":"levelo://app?vid=9bce419f-e99b-4ece-90d7-104aaa0f4a97","ios":"levelo://app?vid=9bce419f-e99b-4ece-90d7-104aaa0f4a97"},"vehicle_type_id":"4","last_reported":1712956004,"current_range_meters":0,"station_id":"ce4bgip2rcd13ifvqbb0","pricing_plan_id":"cebpf4jnsgd1na2vs0mg"},{"bike_id":"b9689090-87b7-455a-8c4b-ba9cc6a50446","system_id":"levelo_inurba_marseille","lat":43.29814,"lon":5.38105,"is_reserved":false,"is_disabled":false,"rental_uris":{"android":"levelo://app?vid=b9689090-87b7-455a-8c4b-ba9cc6a50446","ios":"levelo://app?vid=b9689090-87b7-455a-8c4b-ba9cc6a50446"},"vehicle_type_id":"4","last_reported":1712956004,"current_range_meters":0,"station_id":"ce4bgip2rcd13ifvqbb0","pricing_plan_id":"cebpf4jnsgd1na2vs0mg"},{"bike_id":"4bdec6c8-81dd-4837-9ea2-11e0c2e9e151","system_id":"levelo_inurba_marseille","lat":43.298065,"lon":5.380923,"is_reserved":false,"is_disabled":false,"rental_uris":{"android":"levelo://app?vid=4bdec6c8-81dd-4837-9ea2-11e0c2e9e151","ios":"levelo://app?vid=4bdec6c8-81dd-4837-9ea2-11e0c2e9e151"},"vehicle_type_id":"4","last_reported":1712956004,"current_range_meters":0,"station_id":"ce4bgip2rcd13ifvqbb0","pricing_plan_id":"cebpf4jnsgd1na2vs0mg"},{"bike_id":"879aa03e-ccc8-4c5b-b799-033f47a72823","system_id":"levelo_inurba_marseille","lat":43.298007,"lon":5.380847,"is_reserved":false,"is_disabled":false,"rental_uris":{"android":"levelo://app?vid=879aa03e-ccc8-4c5b-b799-033f47a72823","ios":"levelo://app?vid=879aa03e-ccc8-4c5b-b799-033f47a72823"},"vehicle_type_id":"4","last_reported":1712956004,"current_range_meters":0,"station_id":"ce4bgip2rcd13ifvqbb0","pricing_plan_id":"cebpf4jnsgd1na2vs0mg"},{"bike_id":"093178c0-eb1e-46c6-8814-272b12e2ab2e","system_id":"levelo_inurba_marseille","lat":43.298015,"lon":5.38087,"is_reserved":false,"is_disabled":false,"rental_uris":{"android":"levelo://app?vid=093178c0-eb1e-46c6-8814-272b12e2ab2e","ios":"levelo://app?vid=093178c0-eb1e-46c6-8814-272b12e2ab2e"},"vehicle_type_id":"4","last_reported":1712956004,"current_range_meters":0,"station_id":"ce4bgip2rcd13ifvqbb0","pricing_plan_id":"cebpf4jnsgd1na2vs0mg"},{"bike_id":"7fc78741-c5a6-44ea-9b6c-42aaccfa1ab7","system_id":"levelo_inurba_marseille","lat":43.29804,"lon":5.38095,"is_reserved":false,"is_disabled":false,"rental_uris":{"android":"levelo://app?vid=7fc78741-c5a6-44ea-9b6c-42aaccfa1ab7","ios":"levelo://app?vid=7fc78741-c5a6-44ea-9b6c-42aaccfa1ab7"},"vehicle_type_id":"4","last_reported":1712956004,"current_range_meters":0,"station_id":"ce4bgip2rcd13ifvqbb0","pricing_plan_id":"cebpf4jnsgd1na2vs0mg"},{"bike_id":"6d994eed-7d75-46d2-9db8-9515454f2438","system_id":"levelo_inurba_marseille","lat":43.297913,"lon":5.380845,"is_reserved":false,"is_disabled":false,"rental_uris":{"android":"levelo://app?vid=6d994eed-7d75-46d2-9db8-9515454f2438","ios":"levelo://app?vid=6d994eed-7d75-46d2-9db8-9515454f2438"},"vehicle_type_id":"4","last_reported":1712956004,"current_range_meters":0,"station_id":"ce4bgip2rcd13ifvqbb0","pricing_plan_id":"cebpf4jnsgd1na2vs0mg"},{"bike_id":"a6ad659c-00d5-496c-ab92-d8c1a9930c68","system_id":"levelo_inurba_marseille","lat":43.295748,"lon":5.37522,"is_reserved":false,"is_disabled":false,"rental_uris":{"android":"levelo://app?vid=a6ad659c-00d5-496c-ab92-d8c1a9930c68","ios":"levelo://app?vid=a6ad659c-00d5-496c-ab92-d8c1a9930c68"},"vehicle_type_id":"4","last_reported":1712956004,"current_range_meters":0,"station_id":"ce4bgh92rcd13ifvqb50","pricing_plan_id":"cebpf4jnsgd1na2vs0mg"},{"bike_id":"e9c07c33-4f17-438f-ae49-9c14aab3d3c5","system_id":"levelo_inurba_marseille","lat":43.29803,"lon":5.38109,"is_reserved":false,"is_disabled":false,"rental_uris":{"android":"levelo://app?vid=e9c07c33-4f17-438f-ae49-9c14aab3d3c5","ios":"levelo://app?vid=e9c07c33-4f17-438f-ae49-9c14aab3d3c5"},"vehicle_type_id":"4","last_reported":1712956004,"current_range_meters":0,"station_id":"ce4bgip2rcd13ifvqbb0","pricing_plan_id":"cebpf4jnsgd1na2vs0mg"},{"bike_id":"bd3fff4e-d628-467e-a8d1-3f28af8f5fbf","system_id":"levelo_inurba_marseille","lat":43.295743,"lon":5.37511,"is_reserved":false,"is_disabled":false,"rental_uris":{"android":"levelo://app?vid=bd3fff4e-d628-467e-a8d1-3f28af8f5fbf","ios":"levelo://app?vid=bd3fff4e-d628-467e-a8d1-3f28af8f5fbf"},"vehicle_type_id":"4","last_reported":1712956004,"current_range_meters":0,"station_id":"ce4bgh92rcd13ifvqb50","pricing_plan_id":"cebpf4jnsgd1na2vs0mg"},{"bike_id":"67c7bf35-aab2-432d-90f9-a289e5ebafa0","system_id":"levelo_inurba_marseille","lat":43.295748,"lon":5.37522,"is_reserved":false,"is_disabled":false,"rental_uris":{"android":"levelo://app?vid=67c7bf35-aab2-432d-90f9-a289e5ebafa0","ios":"levelo://app?vid=67c7bf35-aab2-432d-90f9-a289e5ebafa0"},"vehicle_type_id":"4","last_reported":1712956004,"current_range_meters":0,"station_id":"ce4bgh92rcd13ifvqb50","pricing_plan_id":"cebpf4jnsgd1na2vs0mg"},{"bike_id":"a62556e6-e223-45c5-b952-3029e326cfed","system_id":"levelo_inurba_marseille","lat":43.29571,"lon":5.37524,"is_reserved":false,"is_disabled":false,"rental_uris":{"android":"levelo://app?vid=a62556e6-e223-45c5-b952-3029e326cfed","ios":"levelo://app?vid=a62556e6-e223-45c5-b952-3029e326cfed"},"vehicle_type_id":"4","last_reported":1712956004,"current_range_meters":0,"station_id":"ce4bgh92rcd13ifvqb50","pricing_plan_id":"cebpf4jnsgd1na2vs0mg"},{"bike_id":"87768a68-be65-4247-a158-926ad4417bfe","system_id":"levelo_inurba_marseille","lat":43.304278,"lon":5.388868,"is_reserved":false,"is_disabled":false,"rental_uris":{"android":"levelo://app?vid=87768a68-be65-4247-a158-926ad4417bfe","ios":"levelo://app?vid=87768a68-be65-4247-a158-926ad4417bfe"},"vehicle_type_id":"4","last_reported":1712956004,"current_range_meters":12400,"station_id":"ce4bgk12rcd13ifvqbi0","pricing_plan_id":"cebpf4jnsgd1na2vs0mg"},{"bike_id":"116307cc-61bd-4aab-a44e-bd4a906ffaec","system_id":"levelo_inurba_marseille","lat":43.29788,"lon":5.381112,"is_reserved":false,"is_disabled":false,"rental_uris":{"android":"levelo://app?vid=116307cc-61bd-4aab-a44e-bd4a906ffaec","ios":"levelo://app?vid=116307cc-61bd-4aab-a44e-bd4a906ffaec"},"vehicle_type_id":"4","last_reported":1712956004,"current_range_meters":9600,"station_id":"ce4bgip2rcd13ifvqbb0","pricing_plan_id":"cebpf4jnsgd1na2vs0mg"},{"bike_id":"44a773fa-4fbf-4ec8-897c-157fe0074473","system_id":"levelo_inurba_marseille","lat":43.29613,"lon":5.37706,"is_reserved":false,"is_disabled":false,"rental_uris":{"android":"levelo://app?vid=44a773fa-4fbf-4ec8-897c-157fe0074473","ios":"levelo://app?vid=44a773fa-4fbf-4ec8-897c-157fe0074473"},"vehicle_type_id":"4","last_reported":1712956004,"current_range_meters":25200,"station_id":"ce4bgi92rcd13ifvqb90","pricing_plan_id":"cebpf4jnsgd1na2vs0mg"},{"bike_id":"1e43e3c0-dd17-4a35-8a50-d71dae553703","system_id":"levelo_inurba_marseille","lat":43.296067,"lon":5.377174,"is_reserved":false,"is_disabled":false,"rental_uris":{"android":"levelo://app?vid=1e43e3c0-dd17-4a35-8a50-d71dae553703","ios":"levelo://app?vid=1e43e3c0-dd17-4a35-8a50-d71dae553703"},"vehicle_type_id":"4","last_reported":1712956004,"current_range_meters":0,"station_id":"ce4bgi92rcd13ifvqb90","pricing_plan_id":"cebpf4jnsgd1na2vs0mg"},{"bike_id":"6ab98599-da89-4417-9d79-4c6fb61b9c2e","system_id":"levelo_inurba_marseille","lat":43.29609,"lon":5.37729,"is_reserved":false,"is_disabled":false,"rental_uris":{"android":"levelo://app?vid=6ab98599-da89-4417-9d79-4c6fb61b9c2e","ios":"levelo://app?vid=6ab98599-da89-4417-9d79-4c6fb61b9c2e"},"vehicle_type_id":"4","last_reported":1712956004,"current_range_meters":0,"station_id":"ce4bgi92rcd13ifvqb90","pricing_plan_id":"cebpf4jnsgd1na2vs0mg"},{"bike_id":"61a8486b-1c5b-4143-b43b-70a81a77c72e","system_id":"levelo_inurba_marseille","lat":43.29601,"lon":5.37708,"is_reserved":false,"is_disabled":false,"rental_uris":{"android":"levelo://app?vid=61a8486b-1c5b-4143-b43b-70a81a77c72e","ios":"levelo://app?vid=61a8486b-1c5b-4143-b43b-70a81a77c72e"},"vehicle_type_id":"4","last_reported":1712956004,"current_range_meters":0,"station_id":"ce4bgi92rcd13ifvqb90","pricing_plan_id":"cebpf4jnsgd1na2vs0mg"},{"bike_id":"fa24f36a-c993-4668-82f4-73b8b1e42abd","system_id":"levelo_inurba_marseille","lat":43.2936,"lon":5.37835,"is_reserved":false,"is_disabled":false,"rental_uris":{"android":"levelo://app?vid=fa24f36a-c993-4668-82f4-73b8b1e42abd","ios":"levelo://app?vid=fa24f36a-c993-4668-82f4-73b8b1e42abd"},"vehicle_type_id":"4","last_reported":1712956004,"current_range_meters":14000,"station_id":"ce4bgjh2rcd13ifvqbf0","pricing_plan_id":"cebpf4jnsgd1na2vs0mg"},{"bike_id":"89a3fc53-2021-4cfc-9f63-302f8c946025","system_id":"levelo_inurba_marseille","lat":43.299717,"lon":5.384845,"is_reserved":false,"is_disabled":false,"rental_uris":{"android":"levelo://app?vid=89a3fc53-2021-4cfc-9f63-302f8c946025","ios":"levelo://app?vid=89a3fc53-2021-4cfc-9f63-302f8c946025"},"vehicle_type_id":"4","last_reported":1712956004,"current_range_meters":28800,"station_id":"ce4bgj92rcd13ifvqbd0","pricing_plan_id":"cebpf4jnsgd1na2vs0mg"},{"bike_id":"32109091-1d2e-4958-b473-63c26ed719aa","system_id":"levelo_inurba_marseille","lat":43.298768,"lon":5.43643,"is_reserved":false,"is_disabled":false,"rental_uris":{"android":"levelo://app?vid=32109091-1d2e-4958-b473-63c26ed719aa","ios":"levelo://app?vid=32109091-1d2e-4958-b473-63c26ed719aa"},"vehicle_type_id":"4","last_reported":1712956004,"current_range_meters":13600,"station_id":"ce4bhpp2rcd13ifvqhfg","pricing_plan_id":"cebpf4jnsgd1na2vs0mg"},{"bike_id":"87a47446-1586-4275-a330-21ccd2663eec","system_id":"levelo_inurba_marseille","lat":43.32367,"lon":5.388836,"is_reserved":false,"is_disabled":false,"rental_uris":{"android":"levelo://app?vid=87a47446-1586-4275-a330-21ccd2663eec","ios":"levelo://app?vid=87a47446-1586-4275-a330-21ccd2663eec"},"vehicle_type_id":"4","last_reported":1712956004,"current_range_meters":2800,"station_id":"ce4bhqp2rcd13ifvqhog","pricing_plan_id":"cebpf4jnsgd1na2vs0mg"},{"bike_id":"f61562f9-3d2e-4bad-b4a2-f246cc318496","system_id":"levelo_inurba_marseille","lat":43.32367,"lon":5.388836,"is_reserved":false,"is_disabled":false,"rental_uris":{"android":"levelo://app?vid=f61562f9-3d2e-4bad-b4a2-f246cc318496","ios":"levelo://app?vid=f61562f9-3d2e-4bad-b4a2-f246cc318496"},"vehicle_type_id":"4","last_reported":1712956004,"current_range_meters":22400,"station_id":"ce4bhqp2rcd13ifvqhog","pricing_plan_id":"cebpf4jnsgd1na2vs0mg"},{"bike_id":"9c71595d-cead-4e17-947d-2ace0d39e986","system_id":"levelo_inurba_marseille","lat":43.32367,"lon":5.388836,"is_reserved":false,"is_disabled":false,"rental_uris":{"android":"levelo://app?vid=9c71595d-cead-4e17-947d-2ace0d39e986","ios":"levelo://app?vid=9c71595d-cead-4e17-947d-2ace0d39e986"},"vehicle_type_id":"4","last_reported":1712956004,"current_range_meters":4400,"station_id":"ce4bhqp2rcd13ifvqhog","pricing_plan_id":"cebpf4jnsgd1na2vs0mg"},{"bike_id":"f92879e8-6d15-46d6-a097-d8e8ae205312","system_id":"levelo_inurba_marseille","lat":43.32365,"lon":5.38888,"is_reserved":false,"is_disabled":false,"rental_uris":{"android":"levelo://app?vid=f92879e8-6d15-46d6-a097-d8e8ae205312","ios":"levelo://app?vid=f92879e8-6d15-46d6-a097-d8e8ae205312"},"vehicle_type_id":"4","last_reported":1712956004,"current_range_meters":3600,"station_id":"ce4bhqp2rcd13ifvqhog","pricing_plan_id":"cebpf4jnsgd1na2vs0mg"},{"bike_id":"505dc0ba-6b98-4990-a00b-e8d73d59d325","system_id":"levelo_inurba_marseille","lat":43.32367,"lon":5.388836,"is_reserved":false,"is_disabled":false,"rental_uris":{"android":"levelo://app?vid=505dc0ba-6b98-4990-a00b-e8d73d59d325","ios":"levelo://app?vid=505dc0ba-6b98-4990-a00b-e8d73d59d325"},"vehicle_type_id":"4","last_reported":1712956004,"current_range_meters":24400,"station_id":"ce4bhqp2rcd13ifvqhog","pricing_plan_id":"cebpf4jnsgd1na2vs0mg"},{"bike_id":"fe02a49c-c55e-40d0-a225-4ae35f043698","system_id":"levelo_inurba_marseille","lat":43.32367,"lon":5.388836,"is_reserved":false,"is_disabled":false,"rental_uris":{"android":"levelo://app?vid=fe02a49c-c55e-40d0-a225-4ae35f043698","ios":"levelo://app?vid=fe02a49c-c55e-40d0-a225-4ae35f043698"},"vehicle_type_id":"4","last_reported":1712956004,"current_range_meters":0,"station_id":"ce4bhqp2rcd13ifvqhog","pricing_plan_id":"cebpf4jnsgd1na2vs0mg"},{"bike_id":"1e75c24d-18eb-46d9-9e6e-354c7c094e84","system_id":"levelo_inurba_marseille","lat":43.296038,"lon":5.38099,"is_reserved":false,"is_disabled":false,"rental_uris":{"android":"levelo://app?vid=1e75c24d-18eb-46d9-9e6e-354c7c094e84","ios":"levelo://app?vid=1e75c24d-18eb-46d9-9e6e-354c7c094e84"},"vehicle_type_id":"4","last_reported":1712956004,"current_range_meters":0,"station_id":"ce4bgl12rcd13ifvqbo0","pricing_plan_id":"cebpf4jnsgd1na2vs0mg"},{"bike_id":"60d23141-2580-491a-bbaf-b83a42ac2066","system_id":"levelo_inurba_marseille","lat":43.295998,"lon":5.380963,"is_reserved":false,"is_disabled":false,"rental_uris":{"android":"levelo://app?vid=60d23141-2580-491a-bbaf-b83a42ac2066","ios":"levelo://app?vid=60d23141-2580-491a-bbaf-b83a42ac2066"},"vehicle_type_id":"4","last_reported":1712956004,"current_range_meters":0,"station_id":"ce4bgl12rcd13ifvqbo0","pricing_plan_id":"cebpf4jnsgd1na2vs0mg"},{"bike_id":"35dc6ded-2900-4732-a939-9de83699e71a","system_id":"levelo_inurba_marseille","lat":43.29307,"lon":5.37182,"is_reserved":false,"is_disabled":false,"rental_uris":{"android":"levelo://app?vid=35dc6ded-2900-4732-a939-9de83699e71a","ios":"levelo://app?vid=35dc6ded-2900-4732-a939-9de83699e71a"},"vehicle_type_id":"4","last_reported":1712956004,"current_range_meters":0,"station_id":"ce4bgh92rcd13ifvqb40","pricing_plan_id":"cebpf4jnsgd1na2vs0mg"},{"bike_id":"34c58062-f846-49ab-9eef-19231e3c0c4a","system_id":"levelo_inurba_marseille","lat":43.297814,"lon":5.393513,"is_reserved":false,"is_disabled":false,"rental_uris":{"android":"levelo://app?vid=34c58062-f846-49ab-9eef-19231e3c0c4a","ios":"levelo://app?vid=34c58062-f846-49ab-9eef-19231e3c0c4a"},"vehicle_type_id":"4","last_reported":1712956004,"current_range_meters":27600,"station_id":"chh1huq6cuj3fo74tm60","pricing_plan_id":"cebpf4jnsgd1na2vs0mg"},{"bike_id":"4e1bf405-44e0-462c-af32-bb20d8b99a41","system_id":"levelo_inurba_marseille","lat":43.293249,"lon":5.371578,"is_reserved":false,"is_disabled":false,"rental_uris":{"android":"levelo://app?vid=4e1bf405-44e0-462c-af32-bb20d8b99a41","ios":"levelo://app?vid=4e1bf405-44e0-462c-af32-bb20d8b99a41"},"vehicle_type_id":"4","last_reported":1712956004,"current_range_meters":0,"station_id":"ce4bgh92rcd13ifvqb40","pricing_plan_id":"cebpf4jnsgd1na2vs0mg"},{"bike_id":"99a75182-34c6-46f1-9125-2649374607d6","system_id":"levelo_inurba_marseille","lat":43.293249,"lon":5.371578,"is_reserved":false,"is_disabled":false,"rental_uris":{"android":"levelo://app?vid=99a75182-34c6-46f1-9125-2649374607d6","ios":"levelo://app?vid=99a75182-34c6-46f1-9125-2649374607d6"},"vehicle_type_id":"4","last_reported":1712956004,"current_range_meters":0,"station_id":"ce4bgh92rcd13ifvqb40","pricing_plan_id":"cebpf4jnsgd1na2vs0mg"},{"bike_id":"8f3ea1b8-4336-45a7-94df-cd9899d795cc","system_id":"levelo_inurba_marseille","lat":43.29299,"lon":5.371706,"is_reserved":false,"is_disabled":false,"rental_uris":{"android":"levelo://app?vid=8f3ea1b8-4336-45a7-94df-cd9899d795cc","ios":"levelo://app?vid=8f3ea1b8-4336-45a7-94df-cd9899d795cc"},"vehicle_type_id":"4","last_reported":1712956004,"current_range_meters":0,"station_id":"ce4bgh92rcd13ifvqb40","pricing_plan_id":"cebpf4jnsgd1na2vs0mg"},{"bike_id":"678c5173-6f30-4fa6-83a1-3293dd342bcc","system_id":"levelo_inurba_marseille","lat":43.292749,"lon":5.368402,"is_reserved":false,"is_disabled":false,"rental_uris":{"android":"levelo://app?vid=678c5173-6f30-4fa6-83a1-3293dd342bcc","ios":"levelo://app?vid=678c5173-6f30-4fa6-83a1-3293dd342bcc"},"vehicle_type_id":"4","last_reported":1712956004,"current_range_meters":0,"station_id":"ce4bhbp2rcd13ifvqesg","pricing_plan_id":"cebpf4jnsgd1na2vs0mg"},{"bike_id":"b9536f79-2f97-47ed-9709-77496d949f5d","system_id":"levelo_inurba_marseille","lat":43.29306,"lon":5.37446,"is_reserved":false,"is_disabled":false,"rental_uris":{"android":"levelo://app?vid=b9536f79-2f97-47ed-9709-77496d949f5d","ios":"levelo://app?vid=b9536f79-2f97-47ed-9709-77496d949f5d"},"vehicle_type_id":"4","last_reported":1712956004,"current_range_meters":0,"station_id":"ce4bgi12rcd13ifvqb70","pricing_plan_id":"cebpf4jnsgd1na2vs0mg"},{"bike_id":"7111cf2d-bbbe-44c8-b156-b09fe016ae32","system_id":"levelo_inurba_marseille","lat":43.305994,"lon":5.393687,"is_reserved":false,"is_disabled":false,"rental_uris":{"android":"levelo://app?vid=7111cf2d-bbbe-44c8-b156-b09fe016ae32","ios":"levelo://app?vid=7111cf2d-bbbe-44c8-b156-b09fe016ae32"},"vehicle_type_id":"4","last_reported":1712956004,"current_range_meters":2000,"station_id":"ce4bh0p2rcd13ifvqd80","pricing_plan_id":"cebpf4jnsgd1na2vs0mg"},{"bike_id":"580e9a1d-df92-4478-ba30-5dd4eb57174d","system_id":"levelo_inurba_marseille","lat":43.305994,"lon":5.393687,"is_reserved":false,"is_disabled":false,"rental_uris":{"android":"levelo://app?vid=580e9a1d-df92-4478-ba30-5dd4eb57174d","ios":"levelo://app?vid=580e9a1d-df92-4478-ba30-5dd4eb57174d"},"vehicle_type_id":"4","last_reported":1712956004,"current_range_meters":6800,"station_id":"ce4bh0p2rcd13ifvqd80","pricing_plan_id":"cebpf4jnsgd1na2vs0mg"},{"bike_id":"7afdad0e-812c-4da0-9222-9a931ddc744e","system_id":"levelo_inurba_marseille","lat":43.305994,"lon":5.393687,"is_reserved":false,"is_disabled":false,"rental_uris":{"android":"levelo://app?vid=7afdad0e-812c-4da0-9222-9a931ddc744e","ios":"levelo://app?vid=7afdad0e-812c-4da0-9222-9a931ddc744e"},"vehicle_type_id":"4","last_reported":1712956004,"current_range_meters":2400,"station_id":"ce4bh0p2rcd13ifvqd80","pricing_plan_id":"cebpf4jnsgd1na2vs0mg"},{"bike_id":"0da7e8ee-1524-4f37-b442-4eee87b5ccc9","system_id":"levelo_inurba_marseille","lat":43.29298,"lon":5.37465,"is_reserved":false,"is_disabled":false,"rental_uris":{"android":"levelo://app?vid=0da7e8ee-1524-4f37-b442-4eee87b5ccc9","ios":"levelo://app?vid=0da7e8ee-1524-4f37-b442-4eee87b5ccc9"},"vehicle_type_id":"4","last_reported":1712956004,"current_range_meters":0,"station_id":"ce4bgi12rcd13ifvqb70","pricing_plan_id":"cebpf4jnsgd1na2vs0mg"},{"bike_id":"9188750a-8179-4229-b11a-c7d30a99aa63","system_id":"levelo_inurba_marseille","lat":43.293787,"lon":5.378415,"is_reserved":false,"is_disabled":false,"rental_uris":{"android":"levelo://app?vid=9188750a-8179-4229-b11a-c7d30a99aa63","ios":"levelo://app?vid=9188750a-8179-4229-b11a-c7d30a99aa63"},"vehicle_type_id":"4","last_reported":1712956004,"current_range_meters":0,"station_id":"ce4bgjh2rcd13ifvqbf0","pricing_plan_id":"cebpf4jnsgd1na2vs0mg"},{"bike_id":"8db23a51-c831-4c11-a753-5c16e9330335","system_id":"levelo_inurba_marseille","lat":43.31518,"lon":5.39525,"is_reserved":false,"is_disabled":false,"rental_uris":{"android":"levelo://app?vid=8db23a51-c831-4c11-a753-5c16e9330335","ios":"levelo://app?vid=8db23a51-c831-4c11-a753-5c16e9330335"},"vehicle_type_id":"4","last_reported":1712956004,"current_range_meters":6400,"station_id":"","pricing_plan_id":"cebpf4jnsgd1na2vs0mg"},{"bike_id":"15de141f-7057-486d-a87a-954e00886a86","system_id":"levelo_inurba_marseille","lat":43.293682,"lon":5.378552,"is_reserved":false,"is_disabled":false,"rental_uris":{"android":"levelo://app?vid=15de141f-7057-486d-a87a-954e00886a86","ios":"levelo://app?vid=15de141f-7057-486d-a87a-954e00886a86"},"vehicle_type_id":"4","last_reported":1712956004,"current_range_meters":0,"station_id":"ce4bgjh2rcd13ifvqbf0","pricing_plan_id":"cebpf4jnsgd1na2vs0mg"},{"bike_id":"b24e5d48-f984-4b47-97e4-4512e8ae5efc","system_id":"levelo_inurba_marseille","lat":43.303037,"lon":5.392323,"is_reserved":false,"is_disabled":false,"rental_uris":{"android":"levelo://app?vid=b24e5d48-f984-4b47-97e4-4512e8ae5efc","ios":"levelo://app?vid=b24e5d48-f984-4b47-97e4-4512e8ae5efc"},"vehicle_type_id":"4","last_reported":1712956004,"current_range_meters":0,"station_id":"ce4bgkh2rcd13ifvqbk0","pricing_plan_id":"cebpf4jnsgd1na2vs0mg"},{"bike_id":"fb553b34-1604-4614-9196-27bacf31f51c","system_id":"levelo_inurba_marseille","lat":43.290345,"lon":5.38646,"is_reserved":false,"is_disabled":false,"rental_uris":{"android":"levelo://app?vid=fb553b34-1604-4614-9196-27bacf31f51c","ios":"levelo://app?vid=fb553b34-1604-4614-9196-27bacf31f51c"},"vehicle_type_id":"4","last_reported":1712956004,"current_range_meters":20000,"station_id":"ce4bh4p2rcd13ifvqe0g","pricing_plan_id":"cebpf4jnsgd1na2vs0mg"},{"bike_id":"60e21e4a-3ebb-4fb7-b06b-d1e2e055eb8b","system_id":"levelo_inurba_marseille","lat":43.298764,"lon":5.388973,"is_reserved":false,"is_disabled":false,"rental_uris":{"android":"levelo://app?vid=60e21e4a-3ebb-4fb7-b06b-d1e2e055eb8b","ios":"levelo://app?vid=60e21e4a-3ebb-4fb7-b06b-d1e2e055eb8b"},"vehicle_type_id":"4","last_reported":1712956004,"current_range_meters":0,"station_id":"ce4bh392rcd13ifvqdl0","pricing_plan_id":"cebpf4jnsgd1na2vs0mg"},{"bike_id":"364293ed-ecf3-4cd4-99c2-784750e67de2","system_id":"levelo_inurba_marseille","lat":43.298764,"lon":5.388973,"is_reserved":false,"is_disabled":false,"rental_uris":{"android":"levelo://app?vid=364293ed-ecf3-4cd4-99c2-784750e67de2","ios":"levelo://app?vid=364293ed-ecf3-4cd4-99c2-784750e67de2"},"vehicle_type_id":"4","last_reported":1712956004,"current_range_meters":5200,"station_id":"ce4bh392rcd13ifvqdl0","pricing_plan_id":"cebpf4jnsgd1na2vs0mg"},{"bike_id":"762c4e78-d23f-4e0a-85e8-b68009ce37f4","system_id":"levelo_inurba_marseille","lat":43.313291,"lon":5.396838,"is_reserved":false,"is_disabled":false,"rental_uris":{"android":"levelo://app?vid=762c4e78-d23f-4e0a-85e8-b68009ce37f4","ios":"levelo://app?vid=762c4e78-d23f-4e0a-85e8-b68009ce37f4"},"vehicle_type_id":"4","last_reported":1712956004,"current_range_meters":0,"station_id":"ce4bgvp2rcd13ifvqcu0","pricing_plan_id":"cebpf4jnsgd1na2vs0mg"},{"bike_id":"d3387c11-df87-4d87-89fd-aa125fe44f9f","system_id":"levelo_inurba_marseille","lat":43.30882,"lon":5.39636,"is_reserved":false,"is_disabled":false,"rental_uris":{"android":"levelo://app?vid=d3387c11-df87-4d87-89fd-aa125fe44f9f","ios":"levelo://app?vid=d3387c11-df87-4d87-89fd-aa125fe44f9f"},"vehicle_type_id":"4","last_reported":1712956004,"current_range_meters":0,"station_id":"ce4bh012rcd13ifvqcv0","pricing_plan_id":"cebpf4jnsgd1na2vs0mg"},{"bike_id":"2397688c-6d80-47d4-a6a7-cfda44fbc2b1","system_id":"levelo_inurba_marseille","lat":43.31331,"lon":5.39686,"is_reserved":false,"is_disabled":false,"rental_uris":{"android":"levelo://app?vid=2397688c-6d80-47d4-a6a7-cfda44fbc2b1","ios":"levelo://app?vid=2397688c-6d80-47d4-a6a7-cfda44fbc2b1"},"vehicle_type_id":"4","last_reported":1712956004,"current_range_meters":11200,"station_id":"ce4bgvp2rcd13ifvqcu0","pricing_plan_id":"cebpf4jnsgd1na2vs0mg"},{"bike_id":"5034db07-6e79-4069-9d84-736dc04487ff","system_id":"levelo_inurba_marseille","lat":43.291994,"lon":5.357886,"is_reserved":false,"is_disabled":false,"rental_uris":{"android":"levelo://app?vid=5034db07-6e79-4069-9d84-736dc04487ff","ios":"levelo://app?vid=5034db07-6e79-4069-9d84-736dc04487ff"},"vehicle_type_id":"4","last_reported":1712956004,"current_range_meters":0,"station_id":"ce4bhb12rcd13ifvqel0","pricing_plan_id":"cebpf4jnsgd1na2vs0mg"},{"bike_id":"feac052d-246a-4e96-8c18-09370cc9ac9f","system_id":"levelo_inurba_marseille","lat":43.291994,"lon":5.357886,"is_reserved":false,"is_disabled":false,"rental_uris":{"android":"levelo://app?vid=feac052d-246a-4e96-8c18-09370cc9ac9f","ios":"levelo://app?vid=feac052d-246a-4e96-8c18-09370cc9ac9f"},"vehicle_type_id":"4","last_reported":1712956004,"current_range_meters":0,"station_id":"ce4bhb12rcd13ifvqel0","pricing_plan_id":"cebpf4jnsgd1na2vs0mg"},{"bike_id":"5ebe0251-3709-4060-b643-9a655be0fc36","system_id":"levelo_inurba_marseille","lat":43.291994,"lon":5.357886,"is_reserved":false,"is_disabled":false,"rental_uris":{"android":"levelo://app?vid=5ebe0251-3709-4060-b643-9a655be0fc36","ios":"levelo://app?vid=5ebe0251-3709-4060-b643-9a655be0fc36"},"vehicle_type_id":"4","last_reported":1712956004,"current_range_meters":0,"station_id":"ce4bhb12rcd13ifvqel0","pricing_plan_id":"cebpf4jnsgd1na2vs0mg"},{"bike_id":"bd8b0ec4-8b90-4914-83f8-be279a3eb7cd","system_id":"levelo_inurba_marseille","lat":43.2919,"lon":5.35804,"is_reserved":false,"is_disabled":false,"rental_uris":{"android":"levelo://app?vid=bd8b0ec4-8b90-4914-83f8-be279a3eb7cd","ios":"levelo://app?vid=bd8b0ec4-8b90-4914-83f8-be279a3eb7cd"},"vehicle_type_id":"4","last_reported":1712956004,"current_range_meters":0,"station_id":"ce4bhb12rcd13ifvqel0","pricing_plan_id":"cebpf4jnsgd1na2vs0mg"},{"bike_id":"91eba9c4-190e-43c3-b2f0-1bdd12840c6f","system_id":"levelo_inurba_marseille","lat":43.309038,"lon":5.396546,"is_reserved":false,"is_disabled":false,"rental_uris":{"android":"levelo://app?vid=91eba9c4-190e-43c3-b2f0-1bdd12840c6f","ios":"levelo://app?vid=91eba9c4-190e-43c3-b2f0-1bdd12840c6f"},"vehicle_type_id":"4","last_reported":1712956004,"current_range_meters":25600,"station_id":"ce4bh012rcd13ifvqcv0","pricing_plan_id":"cebpf4jnsgd1na2vs0mg"},{"bike_id":"24d39aca-4679-4269-8ea6-b99646c03e80","system_id":"levelo_inurba_marseille","lat":43.313291,"lon":5.396838,"is_reserved":false,"is_disabled":false,"rental_uris":{"android":"levelo://app?vid=24d39aca-4679-4269-8ea6-b99646c03e80","ios":"levelo://app?vid=24d39aca-4679-4269-8ea6-b99646c03e80"},"vehicle_type_id":"4","last_reported":1712956004,"current_range_meters":22400,"station_id":"ce4bgvp2rcd13ifvqcu0","pricing_plan_id":"cebpf4jnsgd1na2vs0mg"},{"bike_id":"a51ea956-2d0f-43f9-b4f2-c4827c123280","system_id":"levelo_inurba_marseille","lat":43.313291,"lon":5.396838,"is_reserved":false,"is_disabled":false,"rental_uris":{"android":"levelo://app?vid=a51ea956-2d0f-43f9-b4f2-c4827c123280","ios":"levelo://app?vid=a51ea956-2d0f-43f9-b4f2-c4827c123280"},"vehicle_type_id":"4","last_reported":1712956004,"current_range_meters":5200,"station_id":"ce4bgvp2rcd13ifvqcu0","pricing_plan_id":"cebpf4jnsgd1na2vs0mg"},{"bike_id":"b2cb1e09-6632-486e-99f3-02b8501929ab","system_id":"levelo_inurba_marseille","lat":43.313291,"lon":5.396838,"is_reserved":false,"is_disabled":false,"rental_uris":{"android":"levelo://app?vid=b2cb1e09-6632-486e-99f3-02b8501929ab","ios":"levelo://app?vid=b2cb1e09-6632-486e-99f3-02b8501929ab"},"vehicle_type_id":"4","last_reported":1712956004,"current_range_meters":19600,"station_id":"ce4bgvp2rcd13ifvqcu0","pricing_plan_id":"cebpf4jnsgd1na2vs0mg"},{"bike_id":"b3afa7ad-ec3c-47b8-a275-c8a6cd354115","system_id":"levelo_inurba_marseille","lat":43.291994,"lon":5.357886,"is_reserved":false,"is_disabled":false,"rental_uris":{"android":"levelo://app?vid=b3afa7ad-ec3c-47b8-a275-c8a6cd354115","ios":"levelo://app?vid=b3afa7ad-ec3c-47b8-a275-c8a6cd354115"},"vehicle_type_id":"4","last_reported":1712956004,"current_range_meters":0,"station_id":"ce4bhb12rcd13ifvqel0","pricing_plan_id":"cebpf4jnsgd1na2vs0mg"},{"bike_id":"745a5e9a-478d-45e8-a4df-b33f15f73280","system_id":"levelo_inurba_marseille","lat":43.313291,"lon":5.396838,"is_reserved":false,"is_disabled":false,"rental_uris":{"android":"levelo://app?vid=745a5e9a-478d-45e8-a4df-b33f15f73280","ios":"levelo://app?vid=745a5e9a-478d-45e8-a4df-b33f15f73280"},"vehicle_type_id":"4","last_reported":1712956004,"current_range_meters":400,"station_id":"ce4bgvp2rcd13ifvqcu0","pricing_plan_id":"cebpf4jnsgd1na2vs0mg"},{"bike_id":"0fbf67d4-d148-4971-bfcf-0acc746e5d65","system_id":"levelo_inurba_marseille","lat":43.324771,"lon":5.36557,"is_reserved":false,"is_disabled":false,"rental_uris":{"android":"levelo://app?vid=0fbf67d4-d148-4971-bfcf-0acc746e5d65","ios":"levelo://app?vid=0fbf67d4-d148-4971-bfcf-0acc746e5d65"},"vehicle_type_id":"4","last_reported":1712956004,"current_range_meters":0,"station_id":"ce4bhs12rcd13ifvqhvg","pricing_plan_id":"cebpf4jnsgd1na2vs0mg"},{"bike_id":"e99e3155-12c3-40c9-b502-13b2ef09d653","system_id":"levelo_inurba_marseille","lat":43.29529,"lon":5.385581,"is_reserved":false,"is_disabled":false,"rental_uris":{"android":"levelo://app?vid=e99e3155-12c3-40c9-b502-13b2ef09d653","ios":"levelo://app?vid=e99e3155-12c3-40c9-b502-13b2ef09d653"},"vehicle_type_id":"4","last_reported":1712956004,"current_range_meters":0,"station_id":"ce4bgih2rcd13ifvqba0","pricing_plan_id":"cebpf4jnsgd1na2vs0mg"},{"bike_id":"b4df95cd-e653-4663-9189-5201eb468cc7","system_id":"levelo_inurba_marseille","lat":43.295113,"lon":5.385213,"is_reserved":false,"is_disabled":false,"rental_uris":{"android":"levelo://app?vid=b4df95cd-e653-4663-9189-5201eb468cc7","ios":"levelo://app?vid=b4df95cd-e653-4663-9189-5201eb468cc7"},"vehicle_type_id":"4","last_reported":1712956004,"current_range_meters":18000,"station_id":"ce4bgih2rcd13ifvqba0","pricing_plan_id":"cebpf4jnsgd1na2vs0mg"},{"bike_id":"baef1d04-9252-49e5-8aa9-dd2d14ccc2d3","system_id":"levelo_inurba_marseille","lat":43.290779,"lon":5.371482,"is_reserved":false,"is_disabled":false,"rental_uris":{"android":"levelo://app?vid=baef1d04-9252-49e5-8aa9-dd2d14ccc2d3","ios":"levelo://app?vid=baef1d04-9252-49e5-8aa9-dd2d14ccc2d3"},"vehicle_type_id":"4","last_reported":1712956004,"current_range_meters":4000,"station_id":"ce4bh5p2rcd13ifvqe4g","pricing_plan_id":"cebpf4jnsgd1na2vs0mg"},{"bike_id":"025b5c6c-2ba3-46b0-a21d-b6bb19cfb188","system_id":"levelo_inurba_marseille","lat":43.290779,"lon":5.371482,"is_reserved":false,"is_disabled":false,"rental_uris":{"android":"levelo://app?vid=025b5c6c-2ba3-46b0-a21d-b6bb19cfb188","ios":"levelo://app?vid=025b5c6c-2ba3-46b0-a21d-b6bb19cfb188"},"vehicle_type_id":"4","last_reported":1712956004,"current_range_meters":6000,"station_id":"ce4bh5p2rcd13ifvqe4g","pricing_plan_id":"cebpf4jnsgd1na2vs0mg"},{"bike_id":"47bb9374-df45-4a3d-a875-b4d474473e2a","system_id":"levelo_inurba_marseille","lat":43.29056,"lon":5.37158,"is_reserved":false,"is_disabled":false,"rental_uris":{"android":"levelo://app?vid=47bb9374-df45-4a3d-a875-b4d474473e2a","ios":"levelo://app?vid=47bb9374-df45-4a3d-a875-b4d474473e2a"},"vehicle_type_id":"4","last_reported":1712956004,"current_range_meters":0,"station_id":"ce4bh5p2rcd13ifvqe4g","pricing_plan_id":"cebpf4jnsgd1na2vs0mg"},{"bike_id":"cbc80def-7c7c-4594-b56e-255e82859491","system_id":"levelo_inurba_marseille","lat":43.302008,"lon":5.394694,"is_reserved":false,"is_disabled":false,"rental_uris":{"android":"levelo://app?vid=cbc80def-7c7c-4594-b56e-255e82859491","ios":"levelo://app?vid=cbc80def-7c7c-4594-b56e-255e82859491"},"vehicle_type_id":"4","last_reported":1712956004,"current_range_meters":800,"station_id":"ce4bh0p2rcd13ifvqd70","pricing_plan_id":"cebpf4jnsgd1na2vs0mg"},{"bike_id":"03504bb1-5b54-40f2-9b19-73b6700a120c","system_id":"levelo_inurba_marseille","lat":43.29442,"lon":5.38606,"is_reserved":false,"is_disabled":false,"rental_uris":{"android":"levelo://app?vid=03504bb1-5b54-40f2-9b19-73b6700a120c","ios":"levelo://app?vid=03504bb1-5b54-40f2-9b19-73b6700a120c"},"vehicle_type_id":"4","last_reported":1712956004,"current_range_meters":3200,"station_id":"ce4bh2h2rcd13ifvqdh0","pricing_plan_id":"cebpf4jnsgd1na2vs0mg"},{"bike_id":"c2fd9bda-a415-49b9-8042-efea619c733d","system_id":"levelo_inurba_marseille","lat":43.290319,"lon":5.375732,"is_reserved":false,"is_disabled":false,"rental_uris":{"android":"levelo://app?vid=c2fd9bda-a415-49b9-8042-efea619c733d","ios":"levelo://app?vid=c2fd9bda-a415-49b9-8042-efea619c733d"},"vehicle_type_id":"4","last_reported":1712956004,"current_range_meters":4000,"station_id":"ce4bh692rcd13ifvqe90","pricing_plan_id":"cebpf4jnsgd1na2vs0mg"},{"bike_id":"285bd73b-b0f7-4c9c-b14a-f5f7078ea886","system_id":"levelo_inurba_marseille","lat":43.294153,"lon":5.386305,"is_reserved":false,"is_disabled":false,"rental_uris":{"android":"levelo://app?vid=285bd73b-b0f7-4c9c-b14a-f5f7078ea886","ios":"levelo://app?vid=285bd73b-b0f7-4c9c-b14a-f5f7078ea886"},"vehicle_type_id":"4","last_reported":1712956004,"current_range_meters":12000,"station_id":"ce4bh2h2rcd13ifvqdh0","pricing_plan_id":"cebpf4jnsgd1na2vs0mg"},{"bike_id":"7d976dfa-9f6d-40cb-a24c-b7eb245fc2a6","system_id":"levelo_inurba_marseille","lat":43.2895,"lon":5.36628,"is_reserved":false,"is_disabled":false,"rental_uris":{"android":"levelo://app?vid=7d976dfa-9f6d-40cb-a24c-b7eb245fc2a6","ios":"levelo://app?vid=7d976dfa-9f6d-40cb-a24c-b7eb245fc2a6"},"vehicle_type_id":"4","last_reported":1712956004,"current_range_meters":31200,"station_id":"ce4bhap2rcd13ifvqek0","pricing_plan_id":"cebpf4jnsgd1na2vs0mg"},{"bike_id":"c86a66a2-2508-4896-b468-e0a2371f43d6","system_id":"levelo_inurba_marseille","lat":43.294153,"lon":5.386305,"is_reserved":false,"is_disabled":false,"rental_uris":{"android":"levelo://app?vid=c86a66a2-2508-4896-b468-e0a2371f43d6","ios":"levelo://app?vid=c86a66a2-2508-4896-b468-e0a2371f43d6"},"vehicle_type_id":"4","last_reported":1712956004,"current_range_meters":22400,"station_id":"ce4bh2h2rcd13ifvqdh0","pricing_plan_id":"cebpf4jnsgd1na2vs0mg"},{"bike_id":"70e10269-d13f-4548-bd70-80b1ef27cda7","system_id":"levelo_inurba_marseille","lat":43.28948,"lon":5.36623,"is_reserved":false,"is_disabled":false,"rental_uris":{"android":"levelo://app?vid=70e10269-d13f-4548-bd70-80b1ef27cda7","ios":"levelo://app?vid=70e10269-d13f-4548-bd70-80b1ef27cda7"},"vehicle_type_id":"4","last_reported":1712956004,"current_range_meters":27600,"station_id":"ce4bhap2rcd13ifvqek0","pricing_plan_id":"cebpf4jnsgd1na2vs0mg"},{"bike_id":"9f8b38e3-56cc-4550-8471-d8d15b9a8182","system_id":"levelo_inurba_marseille","lat":43.294162,"lon":5.386292,"is_reserved":false,"is_disabled":false,"rental_uris":{"android":"levelo://app?vid=9f8b38e3-56cc-4550-8471-d8d15b9a8182","ios":"levelo://app?vid=9f8b38e3-56cc-4550-8471-d8d15b9a8182"},"vehicle_type_id":"4","last_reported":1712956004,"current_range_meters":20400,"station_id":"ce4bh2h2rcd13ifvqdh0","pricing_plan_id":"cebpf4jnsgd1na2vs0mg"},{"bike_id":"748f3db9-c7a7-4e76-a658-dbd01525a8d7","system_id":"levelo_inurba_marseille","lat":43.289184,"lon":5.366408,"is_reserved":false,"is_disabled":false,"rental_uris":{"android":"levelo://app?vid=748f3db9-c7a7-4e76-a658-dbd01525a8d7","ios":"levelo://app?vid=748f3db9-c7a7-4e76-a658-dbd01525a8d7"},"vehicle_type_id":"4","last_reported":1712956004,"current_range_meters":31200,"station_id":"ce4bhap2rcd13ifvqek0","pricing_plan_id":"cebpf4jnsgd1na2vs0mg"},{"bike_id":"9027bbff-d0ed-43fc-9403-b8a95e812973","system_id":"levelo_inurba_marseille","lat":43.294162,"lon":5.386292,"is_reserved":false,"is_disabled":false,"rental_uris":{"android":"levelo://app?vid=9027bbff-d0ed-43fc-9403-b8a95e812973","ios":"levelo://app?vid=9027bbff-d0ed-43fc-9403-b8a95e812973"},"vehicle_type_id":"4","last_reported":1712956004,"current_range_meters":26000,"station_id":"ce4bh2h2rcd13ifvqdh0","pricing_plan_id":"cebpf4jnsgd1na2vs0mg"},{"bike_id":"84451b80-f982-4fa4-b191-c9a965799c24","system_id":"levelo_inurba_marseille","lat":43.294153,"lon":5.386305,"is_reserved":false,"is_disabled":false,"rental_uris":{"android":"levelo://app?vid=84451b80-f982-4fa4-b191-c9a965799c24","ios":"levelo://app?vid=84451b80-f982-4fa4-b191-c9a965799c24"},"vehicle_type_id":"4","last_reported":1712956004,"current_range_meters":23200,"station_id":"ce4bh2h2rcd13ifvqdh0","pricing_plan_id":"cebpf4jnsgd1na2vs0mg"},{"bike_id":"e3bc6fda-ac61-4e5d-8928-c25d24dcd072","system_id":"levelo_inurba_marseille","lat":43.29417,"lon":5.38629,"is_reserved":false,"is_disabled":false,"rental_uris":{"android":"levelo://app?vid=e3bc6fda-ac61-4e5d-8928-c25d24dcd072","ios":"levelo://app?vid=e3bc6fda-ac61-4e5d-8928-c25d24dcd072"},"vehicle_type_id":"4","last_reported":1712956004,"current_range_meters":2400,"station_id":"ce4bh2h2rcd13ifvqdh0","pricing_plan_id":"cebpf4jnsgd1na2vs0mg"},{"bike_id":"e6ce9407-952f-4aad-bc8e-17bffbcbcc1a","system_id":"levelo_inurba_marseille","lat":43.28942,"lon":5.36621,"is_reserved":false,"is_disabled":false,"rental_uris":{"android":"levelo://app?vid=e6ce9407-952f-4aad-bc8e-17bffbcbcc1a","ios":"levelo://app?vid=e6ce9407-952f-4aad-bc8e-17bffbcbcc1a"},"vehicle_type_id":"4","last_reported":1712956004,"current_range_meters":18400,"station_id":"ce4bhap2rcd13ifvqek0","pricing_plan_id":"cebpf4jnsgd1na2vs0mg"},{"bike_id":"7f0db639-87c3-4f2c-b064-8334a7fc5958","system_id":"levelo_inurba_marseille","lat":43.294162,"lon":5.386292,"is_reserved":false,"is_disabled":false,"rental_uris":{"android":"levelo://app?vid=7f0db639-87c3-4f2c-b064-8334a7fc5958","ios":"levelo://app?vid=7f0db639-87c3-4f2c-b064-8334a7fc5958"},"vehicle_type_id":"4","last_reported":1712956004,"current_range_meters":29600,"station_id":"ce4bh2h2rcd13ifvqdh0","pricing_plan_id":"cebpf4jnsgd1na2vs0mg"},{"bike_id":"11cfd6cf-d229-45c3-85d7-2fa5cf67bbcd","system_id":"levelo_inurba_marseille","lat":43.28941,"lon":5.36636,"is_reserved":false,"is_disabled":false,"rental_uris":{"android":"levelo://app?vid=11cfd6cf-d229-45c3-85d7-2fa5cf67bbcd","ios":"levelo://app?vid=11cfd6cf-d229-45c3-85d7-2fa5cf67bbcd"},"vehicle_type_id":"4","last_reported":1712956004,"current_range_meters":5200,"station_id":"ce4bhap2rcd13ifvqek0","pricing_plan_id":"cebpf4jnsgd1na2vs0mg"},{"bike_id":"5be687ea-bb31-4ff6-a40c-ac06170d9d6f","system_id":"levelo_inurba_marseille","lat":43.29414,"lon":5.38629,"is_reserved":false,"is_disabled":false,"rental_uris":{"android":"levelo://app?vid=5be687ea-bb31-4ff6-a40c-ac06170d9d6f","ios":"levelo://app?vid=5be687ea-bb31-4ff6-a40c-ac06170d9d6f"},"vehicle_type_id":"4","last_reported":1712956004,"current_range_meters":5600,"station_id":"ce4bh2h2rcd13ifvqdh0","pricing_plan_id":"cebpf4jnsgd1na2vs0mg"},{"bike_id":"4a5e43dc-82d3-44e1-99b6-e8d5f1d4976b","system_id":"levelo_inurba_marseille","lat":43.2894,"lon":5.366375,"is_reserved":false,"is_disabled":false,"rental_uris":{"android":"levelo://app?vid=4a5e43dc-82d3-44e1-99b6-e8d5f1d4976b","ios":"levelo://app?vid=4a5e43dc-82d3-44e1-99b6-e8d5f1d4976b"},"vehicle_type_id":"4","last_reported":1712956004,"current_range_meters":28800,"station_id":"ce4bhap2rcd13ifvqek0","pricing_plan_id":"cebpf4jnsgd1na2vs0mg"},{"bike_id":"1625d19f-f4fb-420e-8f1f-20e903ac7a44","system_id":"levelo_inurba_marseille","lat":43.2894,"lon":5.36637,"is_reserved":false,"is_disabled":false,"rental_uris":{"android":"levelo://app?vid=1625d19f-f4fb-420e-8f1f-20e903ac7a44","ios":"levelo://app?vid=1625d19f-f4fb-420e-8f1f-20e903ac7a44"},"vehicle_type_id":"4","last_reported":1712956004,"current_range_meters":24800,"station_id":"ce4bhap2rcd13ifvqek0","pricing_plan_id":"cebpf4jnsgd1na2vs0mg"},{"bike_id":"4eb2a939-5920-4c11-bb87-1905327b9081","system_id":"levelo_inurba_marseille","lat":43.29412,"lon":5.38631,"is_reserved":false,"is_disabled":false,"rental_uris":{"android":"levelo://app?vid=4eb2a939-5920-4c11-bb87-1905327b9081","ios":"levelo://app?vid=4eb2a939-5920-4c11-bb87-1905327b9081"},"vehicle_type_id":"4","last_reported":1712956004,"current_range_meters":25200,"station_id":"ce4bh2h2rcd13ifvqdh0","pricing_plan_id":"cebpf4jnsgd1na2vs0mg"},{"bike_id":"34f5fbca-10d9-4e7e-bfd2-eba8d98830b1","system_id":"levelo_inurba_marseille","lat":43.28938,"lon":5.36639,"is_reserved":false,"is_disabled":false,"rental_uris":{"android":"levelo://app?vid=34f5fbca-10d9-4e7e-bfd2-eba8d98830b1","ios":"levelo://app?vid=34f5fbca-10d9-4e7e-bfd2-eba8d98830b1"},"vehicle_type_id":"4","last_reported":1712956004,"current_range_meters":12400,"station_id":"ce4bhap2rcd13ifvqek0","pricing_plan_id":"cebpf4jnsgd1na2vs0mg"},{"bike_id":"498d7802-ed4a-4fbf-946b-0e52f4fd77da","system_id":"levelo_inurba_marseille","lat":43.289468,"lon":5.363719,"is_reserved":false,"is_disabled":false,"rental_uris":{"android":"levelo://app?vid=498d7802-ed4a-4fbf-946b-0e52f4fd77da","ios":"levelo://app?vid=498d7802-ed4a-4fbf-946b-0e52f4fd77da"},"vehicle_type_id":"4","last_reported":1712956004,"current_range_meters":21200,"station_id":"ce4bhc92rcd13ifvqetg","pricing_plan_id":"cebpf4jnsgd1na2vs0mg"},{"bike_id":"72631377-effa-45db-a5dd-d0c96e0d3051","system_id":"levelo_inurba_marseille","lat":43.289184,"lon":5.366408,"is_reserved":false,"is_disabled":false,"rental_uris":{"android":"levelo://app?vid=72631377-effa-45db-a5dd-d0c96e0d3051","ios":"levelo://app?vid=72631377-effa-45db-a5dd-d0c96e0d3051"},"vehicle_type_id":"4","last_reported":1712956004,"current_range_meters":0,"station_id":"ce4bhap2rcd13ifvqek0","pricing_plan_id":"cebpf4jnsgd1na2vs0mg"},{"bike_id":"a973c02b-6c10-4319-8add-e9b9318a8927","system_id":"levelo_inurba_marseille","lat":43.28935,"lon":5.36631,"is_reserved":false,"is_disabled":false,"rental_uris":{"android":"levelo://app?vid=a973c02b-6c10-4319-8add-e9b9318a8927","ios":"levelo://app?vid=a973c02b-6c10-4319-8add-e9b9318a8927"},"vehicle_type_id":"4","last_reported":1712956004,"current_range_meters":31200,"station_id":"ce4bhap2rcd13ifvqek0","pricing_plan_id":"cebpf4jnsgd1na2vs0mg"},{"bike_id":"a9e0cf09-8e8b-40a6-a616-b61fa4489801","system_id":"levelo_inurba_marseille","lat":43.289468,"lon":5.363719,"is_reserved":false,"is_disabled":false,"rental_uris":{"android":"levelo://app?vid=a9e0cf09-8e8b-40a6-a616-b61fa4489801","ios":"levelo://app?vid=a9e0cf09-8e8b-40a6-a616-b61fa4489801"},"vehicle_type_id":"4","last_reported":1712956004,"current_range_meters":0,"station_id":"ce4bhc92rcd13ifvqetg","pricing_plan_id":"cebpf4jnsgd1na2vs0mg"},{"bike_id":"999831e7-3d1f-49ba-8d4d-6c543304f6e8","system_id":"levelo_inurba_marseille","lat":43.294153,"lon":5.386305,"is_reserved":false,"is_disabled":false,"rental_uris":{"android":"levelo://app?vid=999831e7-3d1f-49ba-8d4d-6c543304f6e8","ios":"levelo://app?vid=999831e7-3d1f-49ba-8d4d-6c543304f6e8"},"vehicle_type_id":"4","last_reported":1712956004,"current_range_meters":4400,"station_id":"ce4bh2h2rcd13ifvqdh0","pricing_plan_id":"cebpf4jnsgd1na2vs0mg"},{"bike_id":"7ce8184a-a736-46c9-a593-355fd793ac06","system_id":"levelo_inurba_marseille","lat":43.292644,"lon":5.384257,"is_reserved":false,"is_disabled":false,"rental_uris":{"android":"levelo://app?vid=7ce8184a-a736-46c9-a593-355fd793ac06","ios":"levelo://app?vid=7ce8184a-a736-46c9-a593-355fd793ac06"},"vehicle_type_id":"4","last_reported":1712956004,"current_range_meters":18400,"station_id":"ce4bh692rcd13ifvqea0","pricing_plan_id":"cebpf4jnsgd1na2vs0mg"},{"bike_id":"39b9560c-c4c8-4645-aec5-11b5ca7ff6b5","system_id":"levelo_inurba_marseille","lat":43.281044,"lon":5.378308,"is_reserved":false,"is_disabled":false,"rental_uris":{"android":"levelo://app?vid=39b9560c-c4c8-4645-aec5-11b5ca7ff6b5","ios":"levelo://app?vid=39b9560c-c4c8-4645-aec5-11b5ca7ff6b5"},"vehicle_type_id":"4","last_reported":1712956004,"current_range_meters":25200,"station_id":"ce4bha12rcd13ifvqee0","pricing_plan_id":"cebpf4jnsgd1na2vs0mg"},{"bike_id":"51d77a92-b99d-4794-8235-5ee884bae60b","system_id":"levelo_inurba_marseille","lat":43.292644,"lon":5.384257,"is_reserved":false,"is_disabled":false,"rental_uris":{"android":"levelo://app?vid=51d77a92-b99d-4794-8235-5ee884bae60b","ios":"levelo://app?vid=51d77a92-b99d-4794-8235-5ee884bae60b"},"vehicle_type_id":"4","last_reported":1712956004,"current_range_meters":800,"station_id":"ce4bh692rcd13ifvqea0","pricing_plan_id":"cebpf4jnsgd1na2vs0mg"},{"bike_id":"68c270e0-6186-4da4-a1e6-ffeb68f7cab0","system_id":"levelo_inurba_marseille","lat":43.304296,"lon":5.397513,"is_reserved":false,"is_disabled":false,"rental_uris":{"android":"levelo://app?vid=68c270e0-6186-4da4-a1e6-ffeb68f7cab0","ios":"levelo://app?vid=68c270e0-6186-4da4-a1e6-ffeb68f7cab0"},"vehicle_type_id":"4","last_reported":1712956004,"current_range_meters":2000,"station_id":"ce4bh092rcd13ifvqd20","pricing_plan_id":"cebpf4jnsgd1na2vs0mg"},{"bike_id":"9b1af769-5fcf-4dd4-aa07-83c67bf8f7e8","system_id":"levelo_inurba_marseille","lat":43.29261,"lon":5.384383,"is_reserved":false,"is_disabled":false,"rental_uris":{"android":"levelo://app?vid=9b1af769-5fcf-4dd4-aa07-83c67bf8f7e8","ios":"levelo://app?vid=9b1af769-5fcf-4dd4-aa07-83c67bf8f7e8"},"vehicle_type_id":"4","last_reported":1712956004,"current_range_meters":0,"station_id":"ce4bh692rcd13ifvqea0","pricing_plan_id":"cebpf4jnsgd1na2vs0mg"},{"bike_id":"e8dc8f0e-2ca0-406d-bd75-7dd406e6f934","system_id":"levelo_inurba_marseille","lat":43.292644,"lon":5.384257,"is_reserved":false,"is_disabled":false,"rental_uris":{"android":"levelo://app?vid=e8dc8f0e-2ca0-406d-bd75-7dd406e6f934","ios":"levelo://app?vid=e8dc8f0e-2ca0-406d-bd75-7dd406e6f934"},"vehicle_type_id":"4","last_reported":1712956004,"current_range_meters":26000,"station_id":"ce4bh692rcd13ifvqea0","pricing_plan_id":"cebpf4jnsgd1na2vs0mg"},{"bike_id":"4ee9bc81-dbf0-4cff-a0ff-3e3139c92f74","system_id":"levelo_inurba_marseille","lat":43.292644,"lon":5.384257,"is_reserved":false,"is_disabled":false,"rental_uris":{"android":"levelo://app?vid=4ee9bc81-dbf0-4cff-a0ff-3e3139c92f74","ios":"levelo://app?vid=4ee9bc81-dbf0-4cff-a0ff-3e3139c92f74"},"vehicle_type_id":"4","last_reported":1712956004,"current_range_meters":25200,"station_id":"ce4bh692rcd13ifvqea0","pricing_plan_id":"cebpf4jnsgd1na2vs0mg"},{"bike_id":"03236db4-2742-4221-b825-338b36496455","system_id":"levelo_inurba_marseille","lat":43.292644,"lon":5.384257,"is_reserved":false,"is_disabled":false,"rental_uris":{"android":"levelo://app?vid=03236db4-2742-4221-b825-338b36496455","ios":"levelo://app?vid=03236db4-2742-4221-b825-338b36496455"},"vehicle_type_id":"4","last_reported":1712956004,"current_range_meters":25200,"station_id":"ce4bh692rcd13ifvqea0","pricing_plan_id":"cebpf4jnsgd1na2vs0mg"},{"bike_id":"86ee92ca-04ed-4e1e-b28b-4765245da1bd","system_id":"levelo_inurba_marseille","lat":43.283998,"lon":5.375062,"is_reserved":false,"is_disabled":false,"rental_uris":{"android":"levelo://app?vid=86ee92ca-04ed-4e1e-b28b-4765245da1bd","ios":"levelo://app?vid=86ee92ca-04ed-4e1e-b28b-4765245da1bd"},"vehicle_type_id":"4","last_reported":1712956004,"current_range_meters":22800,"station_id":"ce4bh412rcd13ifvqds0","pricing_plan_id":"cebpf4jnsgd1na2vs0mg"},{"bike_id":"a4333ee3-31ac-439c-9135-9370c3fbf501","system_id":"levelo_inurba_marseille","lat":43.292551,"lon":5.384411,"is_reserved":false,"is_disabled":false,"rental_uris":{"android":"levelo://app?vid=a4333ee3-31ac-439c-9135-9370c3fbf501","ios":"levelo://app?vid=a4333ee3-31ac-439c-9135-9370c3fbf501"},"vehicle_type_id":"4","last_reported":1712956004,"current_range_meters":0,"station_id":"","pricing_plan_id":"cebpf4jnsgd1na2vs0mg"},{"bike_id":"058cb45f-2df3-4f34-988a-4fa2f2bbacbe","system_id":"levelo_inurba_marseille","lat":43.292644,"lon":5.384257,"is_reserved":false,"is_disabled":false,"rental_uris":{"android":"levelo://app?vid=058cb45f-2df3-4f34-988a-4fa2f2bbacbe","ios":"levelo://app?vid=058cb45f-2df3-4f34-988a-4fa2f2bbacbe"},"vehicle_type_id":"4","last_reported":1712956004,"current_range_meters":25600,"station_id":"ce4bh692rcd13ifvqea0","pricing_plan_id":"cebpf4jnsgd1na2vs0mg"},{"bike_id":"71b6e836-b05e-41fe-b508-9a4c6051b54c","system_id":"levelo_inurba_marseille","lat":43.304296,"lon":5.397513,"is_reserved":false,"is_disabled":false,"rental_uris":{"android":"levelo://app?vid=71b6e836-b05e-41fe-b508-9a4c6051b54c","ios":"levelo://app?vid=71b6e836-b05e-41fe-b508-9a4c6051b54c"},"vehicle_type_id":"4","last_reported":1712956004,"current_range_meters":4800,"station_id":"ce4bh092rcd13ifvqd20","pricing_plan_id":"cebpf4jnsgd1na2vs0mg"},{"bike_id":"116b7f56-196c-4cdc-89eb-1f227e1bb49e","system_id":"levelo_inurba_marseille","lat":43.304274,"lon":5.397513,"is_reserved":false,"is_disabled":false,"rental_uris":{"android":"levelo://app?vid=116b7f56-196c-4cdc-89eb-1f227e1bb49e","ios":"levelo://app?vid=116b7f56-196c-4cdc-89eb-1f227e1bb49e"},"vehicle_type_id":"4","last_reported":1712956004,"current_range_meters":12800,"station_id":"ce4bh092rcd13ifvqd20","pricing_plan_id":"cebpf4jnsgd1na2vs0mg"},{"bike_id":"5ff333d7-5a07-49da-b620-e9fef7513235","system_id":"levelo_inurba_marseille","lat":43.292644,"lon":5.384257,"is_reserved":false,"is_disabled":false,"rental_uris":{"android":"levelo://app?vid=5ff333d7-5a07-49da-b620-e9fef7513235","ios":"levelo://app?vid=5ff333d7-5a07-49da-b620-e9fef7513235"},"vehicle_type_id":"4","last_reported":1712956004,"current_range_meters":22800,"station_id":"ce4bh692rcd13ifvqea0","pricing_plan_id":"cebpf4jnsgd1na2vs0mg"},{"bike_id":"0e483950-78d7-4f12-bb9e-c1ffa522916c","system_id":"levelo_inurba_marseille","lat":43.29005,"lon":5.35622,"is_reserved":false,"is_disabled":false,"rental_uris":{"android":"levelo://app?vid=0e483950-78d7-4f12-bb9e-c1ffa522916c","ios":"levelo://app?vid=0e483950-78d7-4f12-bb9e-c1ffa522916c"},"vehicle_type_id":"4","last_reported":1712956004,"current_range_meters":0,"station_id":"ce4bhb92rcd13ifvqen0","pricing_plan_id":"cebpf4jnsgd1na2vs0mg"},{"bike_id":"4d8b49c9-bfb8-4c9b-a49b-3cf24000529c","system_id":"levelo_inurba_marseille","lat":43.291,"lon":5.38146,"is_reserved":false,"is_disabled":false,"rental_uris":{"android":"levelo://app?vid=4d8b49c9-bfb8-4c9b-a49b-3cf24000529c","ios":"levelo://app?vid=4d8b49c9-bfb8-4c9b-a49b-3cf24000529c"},"vehicle_type_id":"4","last_reported":1712956004,"current_range_meters":0,"station_id":"ce4bh512rcd13ifvqe2g","pricing_plan_id":"cebpf4jnsgd1na2vs0mg"},{"bike_id":"74e81b55-6fa6-4b9f-9d1d-1a1753b4572d","system_id":"levelo_inurba_marseille","lat":43.297814,"lon":5.393513,"is_reserved":false,"is_disabled":false,"rental_uris":{"android":"levelo://app?vid=74e81b55-6fa6-4b9f-9d1d-1a1753b4572d","ios":"levelo://app?vid=74e81b55-6fa6-4b9f-9d1d-1a1753b4572d"},"vehicle_type_id":"4","last_reported":1712956004,"current_range_meters":20000,"station_id":"chh1huq6cuj3fo74tm60","pricing_plan_id":"cebpf4jnsgd1na2vs0mg"},{"bike_id":"1afc4ed8-a24d-485c-a658-df9197d08ccd","system_id":"levelo_inurba_marseille","lat":43.29789,"lon":5.39343,"is_reserved":false,"is_disabled":false,"rental_uris":{"android":"levelo://app?vid=1afc4ed8-a24d-485c-a658-df9197d08ccd","ios":"levelo://app?vid=1afc4ed8-a24d-485c-a658-df9197d08ccd"},"vehicle_type_id":"4","last_reported":1712956004,"current_range_meters":0,"station_id":"chh1huq6cuj3fo74tm60","pricing_plan_id":"cebpf4jnsgd1na2vs0mg"},{"bike_id":"5dae9644-dd0f-410d-abb5-524a29880aec","system_id":"levelo_inurba_marseille","lat":43.297814,"lon":5.393513,"is_reserved":false,"is_disabled":false,"rental_uris":{"android":"levelo://app?vid=5dae9644-dd0f-410d-abb5-524a29880aec","ios":"levelo://app?vid=5dae9644-dd0f-410d-abb5-524a29880aec"},"vehicle_type_id":"4","last_reported":1712956004,"current_range_meters":0,"station_id":"chh1huq6cuj3fo74tm60","pricing_plan_id":"cebpf4jnsgd1na2vs0mg"},{"bike_id":"7f1310d8-bfd6-4bcb-bd16-afdf636513a6","system_id":"levelo_inurba_marseille","lat":43.295169,"lon":5.390426,"is_reserved":false,"is_disabled":false,"rental_uris":{"android":"levelo://app?vid=7f1310d8-bfd6-4bcb-bd16-afdf636513a6","ios":"levelo://app?vid=7f1310d8-bfd6-4bcb-bd16-afdf636513a6"},"vehicle_type_id":"4","last_reported":1712956004,"current_range_meters":0,"station_id":"ce4bh3p2rcd13ifvqdp0","pricing_plan_id":"cebpf4jnsgd1na2vs0mg"},{"bike_id":"544fd192-8c26-4a9f-824a-e4c1adab3827","system_id":"levelo_inurba_marseille","lat":43.330442,"lon":5.389148,"is_reserved":false,"is_disabled":false,"rental_uris":{"android":"levelo://app?vid=544fd192-8c26-4a9f-824a-e4c1adab3827","ios":"levelo://app?vid=544fd192-8c26-4a9f-824a-e4c1adab3827"},"vehicle_type_id":"4","last_reported":1712956004,"current_range_meters":20400,"station_id":"ce4bhr92rcd13ifvqhrg","pricing_plan_id":"cebpf4jnsgd1na2vs0mg"},{"bike_id":"59d1037b-ede4-4f64-b8b2-a71797352502","system_id":"levelo_inurba_marseille","lat":43.29521,"lon":5.3904,"is_reserved":false,"is_disabled":false,"rental_uris":{"android":"levelo://app?vid=59d1037b-ede4-4f64-b8b2-a71797352502","ios":"levelo://app?vid=59d1037b-ede4-4f64-b8b2-a71797352502"},"vehicle_type_id":"4","last_reported":1712956004,"current_range_meters":0,"station_id":"ce4bh3p2rcd13ifvqdp0","pricing_plan_id":"cebpf4jnsgd1na2vs0mg"},{"bike_id":"e6c2a6d3-83a4-4387-9656-3f4593963178","system_id":"levelo_inurba_marseille","lat":43.295169,"lon":5.390426,"is_reserved":false,"is_disabled":false,"rental_uris":{"android":"levelo://app?vid=e6c2a6d3-83a4-4387-9656-3f4593963178","ios":"levelo://app?vid=e6c2a6d3-83a4-4387-9656-3f4593963178"},"vehicle_type_id":"4","last_reported":1712956004,"current_range_meters":0,"station_id":"ce4bh3p2rcd13ifvqdp0","pricing_plan_id":"cebpf4jnsgd1na2vs0mg"},{"bike_id":"23d7551d-019d-4643-910c-f2e4a6689a41","system_id":"levelo_inurba_marseille","lat":43.29519,"lon":5.39042,"is_reserved":false,"is_disabled":false,"rental_uris":{"android":"levelo://app?vid=23d7551d-019d-4643-910c-f2e4a6689a41","ios":"levelo://app?vid=23d7551d-019d-4643-910c-f2e4a6689a41"},"vehicle_type_id":"4","last_reported":1712956004,"current_range_meters":800,"station_id":"ce4bh3p2rcd13ifvqdp0","pricing_plan_id":"cebpf4jnsgd1na2vs0mg"},{"bike_id":"742dbf39-38fb-4708-963b-2a4176e7968d","system_id":"levelo_inurba_marseille","lat":43.2952,"lon":5.39045,"is_reserved":false,"is_disabled":false,"rental_uris":{"android":"levelo://app?vid=742dbf39-38fb-4708-963b-2a4176e7968d","ios":"levelo://app?vid=742dbf39-38fb-4708-963b-2a4176e7968d"},"vehicle_type_id":"4","last_reported":1712956004,"current_range_meters":26400,"station_id":"ce4bh3p2rcd13ifvqdp0","pricing_plan_id":"cebpf4jnsgd1na2vs0mg"},{"bike_id":"906378b0-4fb7-457c-96cf-f142620800b9","system_id":"levelo_inurba_marseille","lat":43.295166,"lon":5.390429,"is_reserved":false,"is_disabled":false,"rental_uris":{"android":"levelo://app?vid=906378b0-4fb7-457c-96cf-f142620800b9","ios":"levelo://app?vid=906378b0-4fb7-457c-96cf-f142620800b9"},"vehicle_type_id":"4","last_reported":1712956004,"current_range_meters":0,"station_id":"ce4bh3p2rcd13ifvqdp0","pricing_plan_id":"cebpf4jnsgd1na2vs0mg"},{"bike_id":"8e42bfe4-0be4-4583-bd02-5306e7eb0112","system_id":"levelo_inurba_marseille","lat":43.265569,"lon":5.390047,"is_reserved":false,"is_disabled":false,"rental_uris":{"android":"levelo://app?vid=8e42bfe4-0be4-4583-bd02-5306e7eb0112","ios":"levelo://app?vid=8e42bfe4-0be4-4583-bd02-5306e7eb0112"},"vehicle_type_id":"4","last_reported":1712956004,"current_range_meters":4000,"station_id":"ce4bhe12rcd13ifvqf30","pricing_plan_id":"cebpf4jnsgd1na2vs0mg"},{"bike_id":"d8641095-2343-4660-9560-8d15a376c480","system_id":"levelo_inurba_marseille","lat":43.290195,"lon":5.38123,"is_reserved":false,"is_disabled":false,"rental_uris":{"android":"levelo://app?vid=d8641095-2343-4660-9560-8d15a376c480","ios":"levelo://app?vid=d8641095-2343-4660-9560-8d15a376c480"},"vehicle_type_id":"4","last_reported":1712956004,"current_range_meters":0,"station_id":"ce4bh4p2rcd13ifvqe1g","pricing_plan_id":"cebpf4jnsgd1na2vs0mg"},{"bike_id":"adb63794-1fce-4f38-8a41-97dc8002b0de","system_id":"levelo_inurba_marseille","lat":43.290208,"lon":5.381375,"is_reserved":false,"is_disabled":false,"rental_uris":{"android":"levelo://app?vid=adb63794-1fce-4f38-8a41-97dc8002b0de","ios":"levelo://app?vid=adb63794-1fce-4f38-8a41-97dc8002b0de"},"vehicle_type_id":"4","last_reported":1712956004,"current_range_meters":16000,"station_id":"ce4bh4p2rcd13ifvqe1g","pricing_plan_id":"cebpf4jnsgd1na2vs0mg"},{"bike_id":"ac0303c5-f354-4b9c-a0ae-c17734f09d8c","system_id":"levelo_inurba_marseille","lat":43.29019,"lon":5.38135,"is_reserved":false,"is_disabled":false,"rental_uris":{"android":"levelo://app?vid=ac0303c5-f354-4b9c-a0ae-c17734f09d8c","ios":"levelo://app?vid=ac0303c5-f354-4b9c-a0ae-c17734f09d8c"},"vehicle_type_id":"4","last_reported":1712956004,"current_range_meters":0,"station_id":"ce4bh4p2rcd13ifvqe1g","pricing_plan_id":"cebpf4jnsgd1na2vs0mg"},{"bike_id":"4000d6d8-bcbd-481e-a13b-16a46642931b","system_id":"levelo_inurba_marseille","lat":43.28856,"lon":5.3587,"is_reserved":false,"is_disabled":false,"rental_uris":{"android":"levelo://app?vid=4000d6d8-bcbd-481e-a13b-16a46642931b","ios":"levelo://app?vid=4000d6d8-bcbd-481e-a13b-16a46642931b"},"vehicle_type_id":"4","last_reported":1712956004,"current_range_meters":0,"station_id":"ce4bhb12rcd13ifvqem0","pricing_plan_id":"cebpf4jnsgd1na2vs0mg"},{"bike_id":"07dc7555-201a-4ba4-869b-c3158ac142ba","system_id":"levelo_inurba_marseille","lat":43.28851,"lon":5.35841,"is_reserved":false,"is_disabled":false,"rental_uris":{"android":"levelo://app?vid=07dc7555-201a-4ba4-869b-c3158ac142ba","ios":"levelo://app?vid=07dc7555-201a-4ba4-869b-c3158ac142ba"},"vehicle_type_id":"4","last_reported":1712956004,"current_range_meters":25200,"station_id":"ce4bhb12rcd13ifvqem0","pricing_plan_id":"cebpf4jnsgd1na2vs0mg"},{"bike_id":"4bf3e806-7d2d-41eb-a92b-8f294d86849c","system_id":"levelo_inurba_marseille","lat":43.28851,"lon":5.35831,"is_reserved":false,"is_disabled":false,"rental_uris":{"android":"levelo://app?vid=4bf3e806-7d2d-41eb-a92b-8f294d86849c","ios":"levelo://app?vid=4bf3e806-7d2d-41eb-a92b-8f294d86849c"},"vehicle_type_id":"4","last_reported":1712956004,"current_range_meters":0,"station_id":"ce4bhb12rcd13ifvqem0","pricing_plan_id":"cebpf4jnsgd1na2vs0mg"},{"bike_id":"1c5eff99-8e43-4327-9ec5-03956c9ae8c9","system_id":"levelo_inurba_marseille","lat":43.28856,"lon":5.358371,"is_reserved":false,"is_disabled":false,"rental_uris":{"android":"levelo://app?vid=1c5eff99-8e43-4327-9ec5-03956c9ae8c9","ios":"levelo://app?vid=1c5eff99-8e43-4327-9ec5-03956c9ae8c9"},"vehicle_type_id":"4","last_reported":1712956004,"current_range_meters":4000,"station_id":"ce4bhb12rcd13ifvqem0","pricing_plan_id":"cebpf4jnsgd1na2vs0mg"},{"bike_id":"17c7372a-8794-4d05-8c76-ecb4bec079d5","system_id":"levelo_inurba_marseille","lat":43.312609,"lon":5.401662,"is_reserved":false,"is_disabled":false,"rental_uris":{"android":"levelo://app?vid=17c7372a-8794-4d05-8c76-ecb4bec079d5","ios":"levelo://app?vid=17c7372a-8794-4d05-8c76-ecb4bec079d5"},"vehicle_type_id":"4","last_reported":1712956004,"current_range_meters":23200,"station_id":"ce4bh092rcd13ifvqd30","pricing_plan_id":"cebpf4jnsgd1na2vs0mg"},