{"last_updated":1779047915,"ttl":60,"version":"2.2","data":{"bikes":[{"bike_id":"3b6ad17b-5811-42c2-8655-9f2d4768a767","system_id":"levelo_inurba_marseille","lat":43.27609,"lon":5.36096,"is_reserved":false,"is_disabled":true,"rental_uris":{"android":"levelo://app?vid=3b6ad17b-5811-42c2-8655-9f2d4768a767","ios":"levelo://app?vid=3b6ad17b-5811-42c2-8655-9f2d4768a767"},"vehicle_type_id":"4","last_reported":1779047915,"current_range_meters":2800,"station_id":"ce4bgj92rcd13ifvqbe0","pricing_plan_id":"cebpf4jnsgd1na2vs0mg"},{"bike_id":"34b35edb-219f-4f37-b9b3-773c3bf74516","system_id":"levelo_inurba_marseille","lat":43.31119,"lon":5.37758,"is_reserved":false,"is_disabled":false,"rental_uris":{"android":"levelo://app?vid=34b35edb-219f-4f37-b9b3-773c3bf74516","ios":"levelo://app?vid=34b35edb-219f-4f37-b9b3-773c3bf74516"},"vehicle_type_id":"4","last_reported":1779047915,"current_range_meters":2800,"station_id":"ce4bgt92rcd13ifvqcg0","pricing_plan_id":"cebpf4jnsgd1na2vs0mg"},{"bike_id":"47f093e7-99ff-4e07-b233-1f892c85ad89","system_id":"levelo_inurba_marseille","lat":43.26223,"lon":5.38763,"is_reserved":false,"is_disabled":false,"rental_uris":{"android":"levelo://app?vid=47f093e7-99ff-4e07-b233-1f892c85ad89","ios":"levelo://app?vid=47f093e7-99ff-4e07-b233-1f892c85ad89"},"vehicle_type_id":"4","last_reported":1779047915,"current_range_meters":2800,"station_id":"","pricing_plan_id":"cebpf4jnsgd1na2vs0mg"},{"bike_id":"89eedb14-fa6c-4e94-8c6e-41628e8041d6","system_id":"levelo_inurba_marseille","lat":43.28707,"lon":5.46678,"is_reserved":false,"is_disabled":false,"rental_uris":{"android":"levelo://app?vid=89eedb14-fa6c-4e94-8c6e-41628e8041d6","ios":"levelo://app?vid=89eedb14-fa6c-4e94-8c6e-41628e8041d6"},"vehicle_type_id":"4","last_reported":1779047915,"current_range_meters":2800,"station_id":"st_d6tc3vkotcvc738tfjhg","pricing_plan_id":"cebpf4jnsgd1na2vs0mg"},{"bike_id":"54f84154-4911-4633-ad51-ff13eeb2e9f1","system_id":"levelo_inurba_marseille","lat":43.24643,"lon":5.41521,"is_reserved":false,"is_disabled":false,"rental_uris":{"android":"levelo://app?vid=54f84154-4911-4633-ad51-ff13eeb2e9f1","ios":"levelo://app?vid=54f84154-4911-4633-ad51-ff13eeb2e9f1"},"vehicle_type_id":"4","last_reported":1779047915,"current_range_meters":2800,"station_id":"","pricing_plan_id":"cebpf4jnsgd1na2vs0mg"},{"bike_id":"4be5f4b6-200c-4e17-b127-cd2bc04beea5","system_id":"levelo_inurba_marseille","lat":43.28924,"lon":5.38403,"is_reserved":false,"is_disabled":false,"rental_uris":{"android":"levelo://app?vid=4be5f4b6-200c-4e17-b127-cd2bc04beea5","ios":"levelo://app?vid=4be5f4b6-200c-4e17-b127-cd2bc04beea5"},"vehicle_type_id":"4","last_reported":1779047915,"current_range_meters":2800,"station_id":"ce4bh612rcd13ifvqe6g","pricing_plan_id":"cebpf4jnsgd1na2vs0mg"},{"bike_id":"6a4c2e9b-27c2-4388-95c0-205c60ca40a0","system_id":"levelo_inurba_marseille","lat":43.29453,"lon":5.38636,"is_reserved":false,"is_disabled":false,"rental_uris":{"android":"levelo://app?vid=6a4c2e9b-27c2-4388-95c0-205c60ca40a0","ios":"levelo://app?vid=6a4c2e9b-27c2-4388-95c0-205c60ca40a0"},"vehicle_type_id":"4","last_reported":1779047915,"current_range_meters":2800,"station_id":"","pricing_plan_id":"cebpf4jnsgd1na2vs0mg"},{"bike_id":"447fcbe5-e6f2-4576-986c-49424c99952a","system_id":"levelo_inurba_marseille","lat":43.25332,"lon":5.4216,"is_reserved":false,"is_disabled":false,"rental_uris":{"android":"levelo://app?vid=447fcbe5-e6f2-4576-986c-49424c99952a","ios":"levelo://app?vid=447fcbe5-e6f2-4576-986c-49424c99952a"},"vehicle_type_id":"4","last_reported":1779047915,"current_range_meters":2800,"station_id":"st_d2m65c5bi1j21697t3ng","pricing_plan_id":"cebpf4jnsgd1na2vs0mg"},{"bike_id":"af3bed8c-3114-439a-8346-573ea57501c5","system_id":"levelo_inurba_marseille","lat":43.309436,"lon":5.390289,"is_reserved":false,"is_disabled":false,"rental_uris":{"android":"levelo://app?vid=af3bed8c-3114-439a-8346-573ea57501c5","ios":"levelo://app?vid=af3bed8c-3114-439a-8346-573ea57501c5"},"vehicle_type_id":"4","last_reported":1779047915,"current_range_meters":3200,"station_id":"ce4bgup2rcd13ifvqco0","pricing_plan_id":"cebpf4jnsgd1na2vs0mg"},{"bike_id":"b54c90e5-4cf1-470e-90f4-f9eb7fb7682b","system_id":"levelo_inurba_marseille","lat":43.29687,"lon":5.37703,"is_reserved":false,"is_disabled":true,"rental_uris":{"android":"levelo://app?vid=b54c90e5-4cf1-470e-90f4-f9eb7fb7682b","ios":"levelo://app?vid=b54c90e5-4cf1-470e-90f4-f9eb7fb7682b"},"vehicle_type_id":"4","last_reported":1779047915,"current_range_meters":3200,"station_id":"ce4bgkh2rcd13ifvqbl0","pricing_plan_id":"cebpf4jnsgd1na2vs0mg"},{"bike_id":"c9b8c22e-e4a4-431e-81d1-866a9cbbba40","system_id":"levelo_inurba_marseille","lat":43.21774,"lon":5.34602,"is_reserved":false,"is_disabled":true,"rental_uris":{"android":"levelo://app?vid=c9b8c22e-e4a4-431e-81d1-866a9cbbba40","ios":"levelo://app?vid=c9b8c22e-e4a4-431e-81d1-866a9cbbba40"},"vehicle_type_id":"4","last_reported":1779047915,"current_range_meters":3200,"station_id":"st_cvj6r9ubvosntc0bgbag","pricing_plan_id":"cebpf4jnsgd1na2vs0mg"},{"bike_id":"391b50dc-f04d-41da-9469-ee3fa9cc785b","system_id":"levelo_inurba_marseille","lat":43.33543,"lon":5.37447,"is_reserved":false,"is_disabled":false,"rental_uris":{"android":"levelo://app?vid=391b50dc-f04d-41da-9469-ee3fa9cc785b","ios":"levelo://app?vid=391b50dc-f04d-41da-9469-ee3fa9cc785b"},"vehicle_type_id":"4","last_reported":1779047915,"current_range_meters":3200,"station_id":"st_d46tts09ee8s73dlu43g","pricing_plan_id":"cebpf4jnsgd1na2vs0mg"},{"bike_id":"f58c35b5-8301-4cac-a2ed-65f4f0b95ed5","system_id":"levelo_inurba_marseille","lat":43.2551,"lon":5.37649,"is_reserved":false,"is_disabled":true,"rental_uris":{"android":"levelo://app?vid=f58c35b5-8301-4cac-a2ed-65f4f0b95ed5","ios":"levelo://app?vid=f58c35b5-8301-4cac-a2ed-65f4f0b95ed5"},"vehicle_type_id":"4","last_reported":1779047915,"current_range_meters":3200,"station_id":"ce4bhh12rcd13ifvqff0","pricing_plan_id":"cebpf4jnsgd1na2vs0mg"},{"bike_id":"4b584b91-6611-441f-bd8d-f46ade499770","system_id":"levelo_inurba_marseille","lat":43.31892,"lon":5.36799,"is_reserved":false,"is_disabled":false,"rental_uris":{"android":"levelo://app?vid=4b584b91-6611-441f-bd8d-f46ade499770","ios":"levelo://app?vid=4b584b91-6611-441f-bd8d-f46ade499770"},"vehicle_type_id":"4","last_reported":1779047915,"current_range_meters":3200,"station_id":"st_d6o2h0d0559c73evc1b0","pricing_plan_id":"cebpf4jnsgd1na2vs0mg"},{"bike_id":"a4ef27c6-14af-4352-8eae-12622ec32150","system_id":"levelo_inurba_marseille","lat":43.31716,"lon":5.43691,"is_reserved":false,"is_disabled":false,"rental_uris":{"android":"levelo://app?vid=a4ef27c6-14af-4352-8eae-12622ec32150","ios":"levelo://app?vid=a4ef27c6-14af-4352-8eae-12622ec32150"},"vehicle_type_id":"4","last_reported":1779047915,"current_range_meters":3200,"station_id":"ce4bhp92rcd13ifvqhcg","pricing_plan_id":"cebpf4jnsgd1na2vs0mg"},{"bike_id":"e2aa5f85-25fc-4bb0-aeb1-48ea0c11b55e","system_id":"levelo_inurba_marseille","lat":43.304168,"lon":5.397369,"is_reserved":false,"is_disabled":false,"rental_uris":{"android":"levelo://app?vid=e2aa5f85-25fc-4bb0-aeb1-48ea0c11b55e","ios":"levelo://app?vid=e2aa5f85-25fc-4bb0-aeb1-48ea0c11b55e"},"vehicle_type_id":"4","last_reported":1779047915,"current_range_meters":3200,"station_id":"ce4bh092rcd13ifvqd20","pricing_plan_id":"cebpf4jnsgd1na2vs0mg"},{"bike_id":"5bd6e5d9-e93a-4a4e-8ca1-343d3adc83cf","system_id":"levelo_inurba_marseille","lat":43.27051,"lon":5.40261,"is_reserved":false,"is_disabled":false,"rental_uris":{"android":"levelo://app?vid=5bd6e5d9-e93a-4a4e-8ca1-343d3adc83cf","ios":"levelo://app?vid=5bd6e5d9-e93a-4a4e-8ca1-343d3adc83cf"},"vehicle_type_id":"4","last_reported":1779047915,"current_range_meters":3200,"station_id":"ce4bhk92rcd13ifvqgc0","pricing_plan_id":"cebpf4jnsgd1na2vs0mg"},{"bike_id":"488a9249-ab10-459b-b8bf-98cb3bc718b8","system_id":"levelo_inurba_marseille","lat":43.22571,"lon":5.41629,"is_reserved":false,"is_disabled":false,"rental_uris":{"android":"levelo://app?vid=488a9249-ab10-459b-b8bf-98cb3bc718b8","ios":"levelo://app?vid=488a9249-ab10-459b-b8bf-98cb3bc718b8"},"vehicle_type_id":"4","last_reported":1779047915,"current_range_meters":3600,"station_id":"st_d2o4gvlbi1j2169b742g","pricing_plan_id":"cebpf4jnsgd1na2vs0mg"},{"bike_id":"2f6ca038-9e8a-499e-94be-71aabf32edf3","system_id":"levelo_inurba_marseille","lat":43.33545,"lon":5.37459,"is_reserved":false,"is_disabled":false,"rental_uris":{"android":"levelo://app?vid=2f6ca038-9e8a-499e-94be-71aabf32edf3","ios":"levelo://app?vid=2f6ca038-9e8a-499e-94be-71aabf32edf3"},"vehicle_type_id":"4","last_reported":1779047915,"current_range_meters":3600,"station_id":"st_d46tts09ee8s73dlu43g","pricing_plan_id":"cebpf4jnsgd1na2vs0mg"},{"bike_id":"d883c0f7-a56b-4c01-b096-561a0103c603","system_id":"levelo_inurba_marseille","lat":43.28707,"lon":5.46685,"is_reserved":false,"is_disabled":false,"rental_uris":{"android":"levelo://app?vid=d883c0f7-a56b-4c01-b096-561a0103c603","ios":"levelo://app?vid=d883c0f7-a56b-4c01-b096-561a0103c603"},"vehicle_type_id":"4","last_reported":1779047915,"current_range_meters":3600,"station_id":"st_d6tc3vkotcvc738tfjhg","pricing_plan_id":"cebpf4jnsgd1na2vs0mg"},{"bike_id":"021a3014-354f-4f07-84a6-c9b58284be2e","system_id":"levelo_inurba_marseille","lat":43.27682,"lon":5.41376,"is_reserved":false,"is_disabled":false,"rental_uris":{"android":"levelo://app?vid=021a3014-354f-4f07-84a6-c9b58284be2e","ios":"levelo://app?vid=021a3014-354f-4f07-84a6-c9b58284be2e"},"vehicle_type_id":"4","last_reported":1779047915,"current_range_meters":3600,"station_id":"","pricing_plan_id":"cebpf4jnsgd1na2vs0mg"},{"bike_id":"2e108468-d288-4b33-ad0a-131180b70fbc","system_id":"levelo_inurba_marseille","lat":43.25584,"lon":5.38235,"is_reserved":false,"is_disabled":false,"rental_uris":{"android":"levelo://app?vid=2e108468-d288-4b33-ad0a-131180b70fbc","ios":"levelo://app?vid=2e108468-d288-4b33-ad0a-131180b70fbc"},"vehicle_type_id":"4","last_reported":1779047915,"current_range_meters":3600,"station_id":"ce4bhih2rcd13ifvqfs0","pricing_plan_id":"cebpf4jnsgd1na2vs0mg"},{"bike_id":"71de3602-30e6-4e1c-b30e-31801efa5ed3","system_id":"levelo_inurba_marseille","lat":43.2389,"lon":5.3745,"is_reserved":false,"is_disabled":true,"rental_uris":{"android":"levelo://app?vid=71de3602-30e6-4e1c-b30e-31801efa5ed3","ios":"levelo://app?vid=71de3602-30e6-4e1c-b30e-31801efa5ed3"},"vehicle_type_id":"4","last_reported":1779047915,"current_range_meters":3600,"station_id":"st_d6sm7csbq4hs73f8fpjg","pricing_plan_id":"cebpf4jnsgd1na2vs0mg"},{"bike_id":"ef05a466-74a6-428e-9978-e7fb138ca4ee","system_id":"levelo_inurba_marseille","lat":43.26572,"lon":5.39039,"is_reserved":false,"is_disabled":true,"rental_uris":{"android":"levelo://app?vid=ef05a466-74a6-428e-9978-e7fb138ca4ee","ios":"levelo://app?vid=ef05a466-74a6-428e-9978-e7fb138ca4ee"},"vehicle_type_id":"4","last_reported":1779047915,"current_range_meters":3600,"station_id":"ce4bhe12rcd13ifvqf30","pricing_plan_id":"cebpf4jnsgd1na2vs0mg"},{"bike_id":"a72ed776-a4c5-4fa7-8b4f-299ef308f60d","system_id":"levelo_inurba_marseille","lat":43.225281,"lon":5.348366,"is_reserved":false,"is_disabled":true,"rental_uris":{"android":"levelo://app?vid=a72ed776-a4c5-4fa7-8b4f-299ef308f60d","ios":"levelo://app?vid=a72ed776-a4c5-4fa7-8b4f-299ef308f60d"},"vehicle_type_id":"4","last_reported":1779047915,"current_range_meters":3600,"station_id":"st_cvj5dfep6f1abm77gieg","pricing_plan_id":"cebpf4jnsgd1na2vs0mg"},{"bike_id":"df4672e2-3eea-4479-8560-fa0fb94b9cdd","system_id":"levelo_inurba_marseille","lat":43.2869,"lon":5.36349,"is_reserved":false,"is_disabled":false,"rental_uris":{"android":"levelo://app?vid=df4672e2-3eea-4479-8560-fa0fb94b9cdd","ios":"levelo://app?vid=df4672e2-3eea-4479-8560-fa0fb94b9cdd"},"vehicle_type_id":"4","last_reported":1779047915,"current_range_meters":3600,"station_id":"ce4bhah2rcd13ifvqej0","pricing_plan_id":"cebpf4jnsgd1na2vs0mg"},{"bike_id":"6a6aae50-57e9-45a1-b44e-15449f93cd34","system_id":"levelo_inurba_marseille","lat":43.29759,"lon":5.42767,"is_reserved":false,"is_disabled":false,"rental_uris":{"android":"levelo://app?vid=6a6aae50-57e9-45a1-b44e-15449f93cd34","ios":"levelo://app?vid=6a6aae50-57e9-45a1-b44e-15449f93cd34"},"vehicle_type_id":"4","last_reported":1779047915,"current_range_meters":3600,"station_id":"st_d3md5207bmas73dh9klg","pricing_plan_id":"cebpf4jnsgd1na2vs0mg"},{"bike_id":"d7f2ec52-1f3e-4741-adba-7f30cc0a3e6f","system_id":"levelo_inurba_marseille","lat":43.26025,"lon":5.37554,"is_reserved":false,"is_disabled":true,"rental_uris":{"android":"levelo://app?vid=d7f2ec52-1f3e-4741-adba-7f30cc0a3e6f","ios":"levelo://app?vid=d7f2ec52-1f3e-4741-adba-7f30cc0a3e6f"},"vehicle_type_id":"4","last_reported":1779047915,"current_range_meters":3600,"station_id":"ce4bhgh2rcd13ifvqfa0","pricing_plan_id":"cebpf4jnsgd1na2vs0mg"},{"bike_id":"76ece3b2-259a-4dcc-8c53-23c442307232","system_id":"levelo_inurba_marseille","lat":43.28223,"lon":5.39084,"is_reserved":false,"is_disabled":false,"rental_uris":{"android":"levelo://app?vid=76ece3b2-259a-4dcc-8c53-23c442307232","ios":"levelo://app?vid=76ece3b2-259a-4dcc-8c53-23c442307232"},"vehicle_type_id":"4","last_reported":1779047915,"current_range_meters":3600,"station_id":"ce4bhn92rcd13ifvqgsg","pricing_plan_id":"cebpf4jnsgd1na2vs0mg"},{"bike_id":"3cb2c931-c862-4d31-8fe6-2c60d6096443","system_id":"levelo_inurba_marseille","lat":43.26253,"lon":5.40438,"is_reserved":false,"is_disabled":false,"rental_uris":{"android":"levelo://app?vid=3cb2c931-c862-4d31-8fe6-2c60d6096443","ios":"levelo://app?vid=3cb2c931-c862-4d31-8fe6-2c60d6096443"},"vehicle_type_id":"4","last_reported":1779047915,"current_range_meters":3600,"station_id":"ce4bhmh2rcd13ifvqgmg","pricing_plan_id":"cebpf4jnsgd1na2vs0mg"},{"bike_id":"71918cea-b617-4f68-aa50-3e8772137752","system_id":"levelo_inurba_marseille","lat":43.292796,"lon":5.401182,"is_reserved":false,"is_disabled":false,"rental_uris":{"android":"levelo://app?vid=71918cea-b617-4f68-aa50-3e8772137752","ios":"levelo://app?vid=71918cea-b617-4f68-aa50-3e8772137752"},"vehicle_type_id":"4","last_reported":1779047915,"current_range_meters":3600,"station_id":"ce4bh312rcd13ifvqdk0","pricing_plan_id":"cebpf4jnsgd1na2vs0mg"},{"bike_id":"f7cab484-4725-4921-89ba-b02924312c14","system_id":"levelo_inurba_marseille","lat":43.27307,"lon":5.39102,"is_reserved":false,"is_disabled":false,"rental_uris":{"android":"levelo://app?vid=f7cab484-4725-4921-89ba-b02924312c14","ios":"levelo://app?vid=f7cab484-4725-4921-89ba-b02924312c14"},"vehicle_type_id":"4","last_reported":1779047915,"current_range_meters":4000,"station_id":"ce4bhgp2rcd13ifvqfe0","pricing_plan_id":"cebpf4jnsgd1na2vs0mg"},{"bike_id":"65031c68-348f-4db9-854c-9e4fca32803c","system_id":"levelo_inurba_marseille","lat":43.30777,"lon":5.40223,"is_reserved":false,"is_disabled":false,"rental_uris":{"android":"levelo://app?vid=65031c68-348f-4db9-854c-9e4fca32803c","ios":"levelo://app?vid=65031c68-348f-4db9-854c-9e4fca32803c"},"vehicle_type_id":"4","last_reported":1779047915,"current_range_meters":4000,"station_id":"","pricing_plan_id":"cebpf4jnsgd1na2vs0mg"},{"bike_id":"4dfbbb73-3c53-4e8a-8d3c-17d14069b634","system_id":"levelo_inurba_marseille","lat":43.31687,"lon":5.40482,"is_reserved":false,"is_disabled":false,"rental_uris":{"android":"levelo://app?vid=4dfbbb73-3c53-4e8a-8d3c-17d14069b634","ios":"levelo://app?vid=4dfbbb73-3c53-4e8a-8d3c-17d14069b634"},"vehicle_type_id":"4","last_reported":1779047915,"current_range_meters":4000,"station_id":"ce4bh012rcd13ifvqd00","pricing_plan_id":"cebpf4jnsgd1na2vs0mg"},{"bike_id":"b4d3a7ef-d996-48f2-a414-1f9c8040bb8f","system_id":"levelo_inurba_marseille","lat":43.27494,"lon":5.42445,"is_reserved":false,"is_disabled":false,"rental_uris":{"android":"levelo://app?vid=b4d3a7ef-d996-48f2-a414-1f9c8040bb8f","ios":"levelo://app?vid=b4d3a7ef-d996-48f2-a414-1f9c8040bb8f"},"vehicle_type_id":"4","last_reported":1779047915,"current_range_meters":4000,"station_id":"ce4bhn92rcd13ifvqgrg","pricing_plan_id":"cebpf4jnsgd1na2vs0mg"},{"bike_id":"56cac3fd-3351-4719-9ea8-319faaa51665","system_id":"levelo_inurba_marseille","lat":43.26915,"lon":5.40291,"is_reserved":false,"is_disabled":false,"rental_uris":{"android":"levelo://app?vid=56cac3fd-3351-4719-9ea8-319faaa51665","ios":"levelo://app?vid=56cac3fd-3351-4719-9ea8-319faaa51665"},"vehicle_type_id":"4","last_reported":1779047915,"current_range_meters":4000,"station_id":"cjm6bp8fraef2m0cb0m0","pricing_plan_id":"cebpf4jnsgd1na2vs0mg"},{"bike_id":"7ecc22d2-335d-4ea0-ac77-260eccfc3b68","system_id":"levelo_inurba_marseille","lat":43.31901,"lon":5.40745,"is_reserved":false,"is_disabled":true,"rental_uris":{"android":"levelo://app?vid=7ecc22d2-335d-4ea0-ac77-260eccfc3b68","ios":"levelo://app?vid=7ecc22d2-335d-4ea0-ac77-260eccfc3b68"},"vehicle_type_id":"4","last_reported":1779047915,"current_range_meters":4000,"station_id":"ce4bhq12rcd13ifvqhig","pricing_plan_id":"cebpf4jnsgd1na2vs0mg"},{"bike_id":"95b5aa74-b3e0-4286-ab92-7f4c507d6172","system_id":"levelo_inurba_marseille","lat":43.23061,"lon":5.35493,"is_reserved":false,"is_disabled":false,"rental_uris":{"android":"levelo://app?vid=95b5aa74-b3e0-4286-ab92-7f4c507d6172","ios":"levelo://app?vid=95b5aa74-b3e0-4286-ab92-7f4c507d6172"},"vehicle_type_id":"4","last_reported":1779047915,"current_range_meters":4400,"station_id":"cpo3342slgdg3j2ifvpg","pricing_plan_id":"cebpf4jnsgd1na2vs0mg"},{"bike_id":"2b9eb6ee-10e6-4343-9626-1e1e75c5c19c","system_id":"levelo_inurba_marseille","lat":43.28446,"lon":5.39206,"is_reserved":false,"is_disabled":false,"rental_uris":{"android":"levelo://app?vid=2b9eb6ee-10e6-4343-9626-1e1e75c5c19c","ios":"levelo://app?vid=2b9eb6ee-10e6-4343-9626-1e1e75c5c19c"},"vehicle_type_id":"4","last_reported":1779047915,"current_range_meters":4400,"station_id":"ce4bhoh2rcd13ifvqh5g","pricing_plan_id":"cebpf4jnsgd1na2vs0mg"},{"bike_id":"9562c05c-1228-4af8-ba1c-bc90f99d8ada","system_id":"levelo_inurba_marseille","lat":43.28693,"lon":5.3866,"is_reserved":false,"is_disabled":false,"rental_uris":{"android":"levelo://app?vid=9562c05c-1228-4af8-ba1c-bc90f99d8ada","ios":"levelo://app?vid=9562c05c-1228-4af8-ba1c-bc90f99d8ada"},"vehicle_type_id":"4","last_reported":1779047915,"current_range_meters":4400,"station_id":"ce4bh492rcd13ifvqdug","pricing_plan_id":"cebpf4jnsgd1na2vs0mg"},{"bike_id":"def936b9-c970-44b5-9beb-5140f31a7371","system_id":"levelo_inurba_marseille","lat":43.29263,"lon":5.38431,"is_reserved":false,"is_disabled":false,"rental_uris":{"android":"levelo://app?vid=def936b9-c970-44b5-9beb-5140f31a7371","ios":"levelo://app?vid=def936b9-c970-44b5-9beb-5140f31a7371"},"vehicle_type_id":"4","last_reported":1779047915,"current_range_meters":4400,"station_id":"ce4bh692rcd13ifvqea0","pricing_plan_id":"cebpf4jnsgd1na2vs0mg"},{"bike_id":"0bd112c5-ad94-44c5-8026-def3fcc04c7d","system_id":"levelo_inurba_marseille","lat":43.27993,"lon":5.40025,"is_reserved":false,"is_disabled":false,"rental_uris":{"android":"levelo://app?vid=0bd112c5-ad94-44c5-8026-def3fcc04c7d","ios":"levelo://app?vid=0bd112c5-ad94-44c5-8026-def3fcc04c7d"},"vehicle_type_id":"4","last_reported":1779047915,"current_range_meters":4400,"station_id":"ce4bho92rcd13ifvqh4g","pricing_plan_id":"cebpf4jnsgd1na2vs0mg"},{"bike_id":"02b92838-cb01-4543-a255-dc9e1671c483","system_id":"levelo_inurba_marseille","lat":43.30959,"lon":5.3904,"is_reserved":false,"is_disabled":false,"rental_uris":{"android":"levelo://app?vid=02b92838-cb01-4543-a255-dc9e1671c483","ios":"levelo://app?vid=02b92838-cb01-4543-a255-dc9e1671c483"},"vehicle_type_id":"4","last_reported":1779047915,"current_range_meters":4400,"station_id":"ce4bgup2rcd13ifvqco0","pricing_plan_id":"cebpf4jnsgd1na2vs0mg"},{"bike_id":"4dbd581f-c05f-4635-a7af-f54b41361989","system_id":"levelo_inurba_marseille","lat":43.29529,"lon":5.39011,"is_reserved":false,"is_disabled":false,"rental_uris":{"android":"levelo://app?vid=4dbd581f-c05f-4635-a7af-f54b41361989","ios":"levelo://app?vid=4dbd581f-c05f-4635-a7af-f54b41361989"},"vehicle_type_id":"4","last_reported":1779047915,"current_range_meters":4400,"station_id":"ce4bh3p2rcd13ifvqdp0","pricing_plan_id":"cebpf4jnsgd1na2vs0mg"},{"bike_id":"9c77cdc0-0332-44a0-8caf-b0f006af6dfa","system_id":"levelo_inurba_marseille","lat":43.292036,"lon":5.393206,"is_reserved":false,"is_disabled":false,"rental_uris":{"android":"levelo://app?vid=9c77cdc0-0332-44a0-8caf-b0f006af6dfa","ios":"levelo://app?vid=9c77cdc0-0332-44a0-8caf-b0f006af6dfa"},"vehicle_type_id":"4","last_reported":1779047915,"current_range_meters":4400,"station_id":"ce4bh192rcd13ifvqdd0","pricing_plan_id":"cebpf4jnsgd1na2vs0mg"},{"bike_id":"824c6726-d7b9-4f8f-9280-41d1d42ad5d1","system_id":"levelo_inurba_marseille","lat":43.26781,"lon":5.39418,"is_reserved":false,"is_disabled":false,"rental_uris":{"android":"levelo://app?vid=824c6726-d7b9-4f8f-9280-41d1d42ad5d1","ios":"levelo://app?vid=824c6726-d7b9-4f8f-9280-41d1d42ad5d1"},"vehicle_type_id":"4","last_reported":1779047915,"current_range_meters":4400,"station_id":"ce4bhh12rcd13ifvqfg0","pricing_plan_id":"cebpf4jnsgd1na2vs0mg"},{"bike_id":"aa9d571d-618a-4a5c-a72d-c16ef134e655","system_id":"levelo_inurba_marseille","lat":43.28384,"lon":5.45972,"is_reserved":false,"is_disabled":false,"rental_uris":{"android":"levelo://app?vid=aa9d571d-618a-4a5c-a72d-c16ef134e655","ios":"levelo://app?vid=aa9d571d-618a-4a5c-a72d-c16ef134e655"},"vehicle_type_id":"4","last_reported":1779047915,"current_range_meters":4400,"station_id":"ce4bhgh2rcd13ifvqfa0","pricing_plan_id":"cebpf4jnsgd1na2vs0mg"},{"bike_id":"6dbd238b-0b34-423b-b800-bae15bc9939e","system_id":"levelo_inurba_marseille","lat":43.26256,"lon":5.40431,"is_reserved":false,"is_disabled":false,"rental_uris":{"android":"levelo://app?vid=6dbd238b-0b34-423b-b800-bae15bc9939e","ios":"levelo://app?vid=6dbd238b-0b34-423b-b800-bae15bc9939e"},"vehicle_type_id":"4","last_reported":1779047915,"current_range_meters":4400,"station_id":"ce4bhmh2rcd13ifvqgmg","pricing_plan_id":"cebpf4jnsgd1na2vs0mg"},{"bike_id":"904f06ba-3a45-4118-bbf1-7f6e176ea00d","system_id":"levelo_inurba_marseille","lat":43.32543,"lon":5.41433,"is_reserved":false,"is_disabled":false,"rental_uris":{"android":"levelo://app?vid=904f06ba-3a45-4118-bbf1-7f6e176ea00d","ios":"levelo://app?vid=904f06ba-3a45-4118-bbf1-7f6e176ea00d"},"vehicle_type_id":"4","last_reported":1779047915,"current_range_meters":4800,"station_id":"ce4bhq12rcd13ifvqhhg","pricing_plan_id":"cebpf4jnsgd1na2vs0mg"},{"bike_id":"5ff0bee1-2723-4366-87db-f27c42ef54c4","system_id":"levelo_inurba_marseille","lat":43.30546,"lon":5.36525,"is_reserved":false,"is_disabled":false,"rental_uris":{"android":"levelo://app?vid=5ff0bee1-2723-4366-87db-f27c42ef54c4","ios":"levelo://app?vid=5ff0bee1-2723-4366-87db-f27c42ef54c4"},"vehicle_type_id":"4","last_reported":1779047915,"current_range_meters":4800,"station_id":"ce4bgs12rcd13ifvqcag","pricing_plan_id":"cebpf4jnsgd1na2vs0mg"},{"bike_id":"589519f5-3d4d-477d-b715-51da2a76d4b7","system_id":"levelo_inurba_marseille","lat":43.2694,"lon":5.40256,"is_reserved":false,"is_disabled":false,"rental_uris":{"android":"levelo://app?vid=589519f5-3d4d-477d-b715-51da2a76d4b7","ios":"levelo://app?vid=589519f5-3d4d-477d-b715-51da2a76d4b7"},"vehicle_type_id":"4","last_reported":1779047915,"current_range_meters":4800,"station_id":"cjm6bp8fraef2m0cb0m0","pricing_plan_id":"cebpf4jnsgd1na2vs0mg"},{"bike_id":"c4d175a0-6d02-4fdd-a32c-668209eec0c9","system_id":"levelo_inurba_marseille","lat":43.30217,"lon":5.39458,"is_reserved":false,"is_disabled":false,"rental_uris":{"android":"levelo://app?vid=c4d175a0-6d02-4fdd-a32c-668209eec0c9","ios":"levelo://app?vid=c4d175a0-6d02-4fdd-a32c-668209eec0c9"},"vehicle_type_id":"4","last_reported":1779047915,"current_range_meters":4800,"station_id":"ce4bh0p2rcd13ifvqd70","pricing_plan_id":"cebpf4jnsgd1na2vs0mg"},{"bike_id":"81d486c6-8055-4622-b184-526a5a37dde4","system_id":"levelo_inurba_marseille","lat":43.30171,"lon":5.36618,"is_reserved":false,"is_disabled":false,"rental_uris":{"android":"levelo://app?vid=81d486c6-8055-4622-b184-526a5a37dde4","ios":"levelo://app?vid=81d486c6-8055-4622-b184-526a5a37dde4"},"vehicle_type_id":"4","last_reported":1779047915,"current_range_meters":4800,"station_id":"ce4bgrh2rcd13ifvqc8g","pricing_plan_id":"cebpf4jnsgd1na2vs0mg"},{"bike_id":"40fb7786-8cc1-4d48-93b3-a3ba0d965e6c","system_id":"levelo_inurba_marseille","lat":43.290672,"lon":5.37572,"is_reserved":false,"is_disabled":false,"rental_uris":{"android":"levelo://app?vid=40fb7786-8cc1-4d48-93b3-a3ba0d965e6c","ios":"levelo://app?vid=40fb7786-8cc1-4d48-93b3-a3ba0d965e6c"},"vehicle_type_id":"4","last_reported":1779047915,"current_range_meters":4800,"station_id":"ce4bh692rcd13ifvqe90","pricing_plan_id":"cebpf4jnsgd1na2vs0mg"},{"bike_id":"1d06564d-ea73-4d68-ab30-68a567adc035","system_id":"levelo_inurba_marseille","lat":43.3104,"lon":5.37175,"is_reserved":false,"is_disabled":false,"rental_uris":{"android":"levelo://app?vid=1d06564d-ea73-4d68-ab30-68a567adc035","ios":"levelo://app?vid=1d06564d-ea73-4d68-ab30-68a567adc035"},"vehicle_type_id":"4","last_reported":1779047915,"current_range_meters":4800,"station_id":"st_d4kl2rp97mjs73e7tdfg","pricing_plan_id":"cebpf4jnsgd1na2vs0mg"},{"bike_id":"13427265-7fc6-43dc-8049-93594f404dad","system_id":"levelo_inurba_marseille","lat":43.23961,"lon":5.36618,"is_reserved":false,"is_disabled":false,"rental_uris":{"android":"levelo://app?vid=13427265-7fc6-43dc-8049-93594f404dad","ios":"levelo://app?vid=13427265-7fc6-43dc-8049-93594f404dad"},"vehicle_type_id":"4","last_reported":1779047915,"current_range_meters":4800,"station_id":"ce4bhi12rcd13ifvqfp0","pricing_plan_id":"cebpf4jnsgd1na2vs0mg"},{"bike_id":"dc210f91-085a-4684-a4ce-04d864ad8ec6","system_id":"levelo_inurba_marseille","lat":43.24809,"lon":5.37453,"is_reserved":false,"is_disabled":false,"rental_uris":{"android":"levelo://app?vid=dc210f91-085a-4684-a4ce-04d864ad8ec6","ios":"levelo://app?vid=dc210f91-085a-4684-a4ce-04d864ad8ec6"},"vehicle_type_id":"4","last_reported":1779047915,"current_range_meters":4800,"station_id":"ce4bhgh2rcd13ifvqfb0","pricing_plan_id":"cebpf4jnsgd1na2vs0mg"},{"bike_id":"ee617cb3-d828-445a-bbbf-fc4ee3217bb1","system_id":"levelo_inurba_marseille","lat":43.25113,"lon":5.39502,"is_reserved":false,"is_disabled":false,"rental_uris":{"android":"levelo://app?vid=ee617cb3-d828-445a-bbbf-fc4ee3217bb1","ios":"levelo://app?vid=ee617cb3-d828-445a-bbbf-fc4ee3217bb1"},"vehicle_type_id":"4","last_reported":1779047915,"current_range_meters":4800,"station_id":"ce4bhm12rcd13ifvqgkg","pricing_plan_id":"cebpf4jnsgd1na2vs0mg"},{"bike_id":"855e13db-2be5-4101-96e1-db7dac9c0ba6","system_id":"levelo_inurba_marseille","lat":43.30356,"lon":5.42459,"is_reserved":false,"is_disabled":false,"rental_uris":{"android":"levelo://app?vid=855e13db-2be5-4101-96e1-db7dac9c0ba6","ios":"levelo://app?vid=855e13db-2be5-4101-96e1-db7dac9c0ba6"},"vehicle_type_id":"4","last_reported":1779047915,"current_range_meters":4800,"station_id":"ce4bhoh2rcd13ifvqh6g","pricing_plan_id":"cebpf4jnsgd1na2vs0mg"},{"bike_id":"cf7cbd53-4b33-421e-8317-0504b7bb9c5f","system_id":"levelo_inurba_marseille","lat":43.29274,"lon":5.38423,"is_reserved":false,"is_disabled":false,"rental_uris":{"android":"levelo://app?vid=cf7cbd53-4b33-421e-8317-0504b7bb9c5f","ios":"levelo://app?vid=cf7cbd53-4b33-421e-8317-0504b7bb9c5f"},"vehicle_type_id":"4","last_reported":1779047915,"current_range_meters":4800,"station_id":"ce4bh692rcd13ifvqea0","pricing_plan_id":"cebpf4jnsgd1na2vs0mg"},{"bike_id":"58c2f4c0-4bec-4781-9d6a-61ef7bc8b17c","system_id":"levelo_inurba_marseille","lat":43.24016,"lon":5.3625,"is_reserved":false,"is_disabled":false,"rental_uris":{"android":"levelo://app?vid=58c2f4c0-4bec-4781-9d6a-61ef7bc8b17c","ios":"levelo://app?vid=58c2f4c0-4bec-4781-9d6a-61ef7bc8b17c"},"vehicle_type_id":"4","last_reported":1779047915,"current_range_meters":4800,"station_id":"","pricing_plan_id":"cebpf4jnsgd1na2vs0mg"},{"bike_id":"de531965-79d0-44d4-900c-04591c31f4fc","system_id":"levelo_inurba_marseille","lat":43.24417,"lon":5.37055,"is_reserved":false,"is_disabled":false,"rental_uris":{"android":"levelo://app?vid=de531965-79d0-44d4-900c-04591c31f4fc","ios":"levelo://app?vid=de531965-79d0-44d4-900c-04591c31f4fc"},"vehicle_type_id":"4","last_reported":1779047915,"current_range_meters":4800,"station_id":"ce4bhhh2rcd13ifvqfk0","pricing_plan_id":"cebpf4jnsgd1na2vs0mg"},{"bike_id":"915cfbd7-fac7-40fd-83d7-dcb53b1495bb","system_id":"levelo_inurba_marseille","lat":43.29977,"lon":5.38495,"is_reserved":false,"is_disabled":false,"rental_uris":{"android":"levelo://app?vid=915cfbd7-fac7-40fd-83d7-dcb53b1495bb","ios":"levelo://app?vid=915cfbd7-fac7-40fd-83d7-dcb53b1495bb"},"vehicle_type_id":"4","last_reported":1779047915,"current_range_meters":4800,"station_id":"ce4bgj92rcd13ifvqbd0","pricing_plan_id":"cebpf4jnsgd1na2vs0mg"},{"bike_id":"d77966f0-5c13-40db-9d14-10601a4afd72","system_id":"levelo_inurba_marseille","lat":43.26809,"lon":5.40825,"is_reserved":false,"is_disabled":false,"rental_uris":{"android":"levelo://app?vid=d77966f0-5c13-40db-9d14-10601a4afd72","ios":"levelo://app?vid=d77966f0-5c13-40db-9d14-10601a4afd72"},"vehicle_type_id":"4","last_reported":1779047915,"current_range_meters":4800,"station_id":"","pricing_plan_id":"cebpf4jnsgd1na2vs0mg"},{"bike_id":"069e4ffc-e146-485c-92d8-f22bf845ffcd","system_id":"levelo_inurba_marseille","lat":43.28703,"lon":5.46682,"is_reserved":false,"is_disabled":false,"rental_uris":{"android":"levelo://app?vid=069e4ffc-e146-485c-92d8-f22bf845ffcd","ios":"levelo://app?vid=069e4ffc-e146-485c-92d8-f22bf845ffcd"},"vehicle_type_id":"4","last_reported":1779047915,"current_range_meters":4800,"station_id":"st_d6tc3vkotcvc738tfjhg","pricing_plan_id":"cebpf4jnsgd1na2vs0mg"},{"bike_id":"b43f7b66-8ea3-4971-a385-9185038dd5e0","system_id":"levelo_inurba_marseille","lat":43.24818,"lon":5.37448,"is_reserved":false,"is_disabled":false,"rental_uris":{"android":"levelo://app?vid=b43f7b66-8ea3-4971-a385-9185038dd5e0","ios":"levelo://app?vid=b43f7b66-8ea3-4971-a385-9185038dd5e0"},"vehicle_type_id":"4","last_reported":1779047915,"current_range_meters":5600,"station_id":"ce4bhgh2rcd13ifvqfb0","pricing_plan_id":"cebpf4jnsgd1na2vs0mg"},{"bike_id":"72903579-8fd6-484f-b59e-c52adf730e7d","system_id":"levelo_inurba_marseille","lat":43.28571,"lon":5.39489,"is_reserved":false,"is_disabled":false,"rental_uris":{"android":"levelo://app?vid=72903579-8fd6-484f-b59e-c52adf730e7d","ios":"levelo://app?vid=72903579-8fd6-484f-b59e-c52adf730e7d"},"vehicle_type_id":"4","last_reported":1779047915,"current_range_meters":5600,"station_id":"ce4bh292rcd13ifvqdg0","pricing_plan_id":"cebpf4jnsgd1na2vs0mg"},{"bike_id":"88b0c703-e811-4359-8591-f15b5924f4d1","system_id":"levelo_inurba_marseille","lat":43.29073,"lon":5.37173,"is_reserved":false,"is_disabled":false,"rental_uris":{"android":"levelo://app?vid=88b0c703-e811-4359-8591-f15b5924f4d1","ios":"levelo://app?vid=88b0c703-e811-4359-8591-f15b5924f4d1"},"vehicle_type_id":"4","last_reported":1779047915,"current_range_meters":5600,"station_id":"ce4bh5p2rcd13ifvqe4g","pricing_plan_id":"cebpf4jnsgd1na2vs0mg"},{"bike_id":"0ce30f77-6229-4e27-b16c-8155b7318341","system_id":"levelo_inurba_marseille","lat":43.29021,"lon":5.38122,"is_reserved":false,"is_disabled":false,"rental_uris":{"android":"levelo://app?vid=0ce30f77-6229-4e27-b16c-8155b7318341","ios":"levelo://app?vid=0ce30f77-6229-4e27-b16c-8155b7318341"},"vehicle_type_id":"4","last_reported":1779047915,"current_range_meters":5600,"station_id":"ce4bh4p2rcd13ifvqe1g","pricing_plan_id":"cebpf4jnsgd1na2vs0mg"},{"bike_id":"144dcf3c-bd5d-4bf0-9e03-8a85bae0b8e6","system_id":"levelo_inurba_marseille","lat":43.24815,"lon":5.37457,"is_reserved":false,"is_disabled":false,"rental_uris":{"android":"levelo://app?vid=144dcf3c-bd5d-4bf0-9e03-8a85bae0b8e6","ios":"levelo://app?vid=144dcf3c-bd5d-4bf0-9e03-8a85bae0b8e6"},"vehicle_type_id":"4","last_reported":1779047915,"current_range_meters":5600,"station_id":"ce4bhgh2rcd13ifvqfb0","pricing_plan_id":"cebpf4jnsgd1na2vs0mg"},{"bike_id":"5b406659-18dc-40df-8cbb-f1b3412ec4a5","system_id":"levelo_inurba_marseille","lat":43.29859,"lon":5.36277,"is_reserved":false,"is_disabled":false,"rental_uris":{"android":"levelo://app?vid=5b406659-18dc-40df-8cbb-f1b3412ec4a5","ios":"levelo://app?vid=5b406659-18dc-40df-8cbb-f1b3412ec4a5"},"vehicle_type_id":"4","last_reported":1779047915,"current_range_meters":5600,"station_id":"ce4bgpp2rcd13ifvqc3g","pricing_plan_id":"cebpf4jnsgd1na2vs0mg"},{"bike_id":"afc2a5b0-1c9b-4ade-a260-751814005a03","system_id":"levelo_inurba_marseille","lat":43.24933,"lon":5.38927,"is_reserved":false,"is_disabled":false,"rental_uris":{"android":"levelo://app?vid=afc2a5b0-1c9b-4ade-a260-751814005a03","ios":"levelo://app?vid=afc2a5b0-1c9b-4ade-a260-751814005a03"},"vehicle_type_id":"4","last_reported":1779047915,"current_range_meters":5600,"station_id":"","pricing_plan_id":"cebpf4jnsgd1na2vs0mg"},{"bike_id":"c88718d1-c585-42c7-a165-977901d60dbd","system_id":"levelo_inurba_marseille","lat":43.28718,"lon":5.39974,"is_reserved":false,"is_disabled":false,"rental_uris":{"android":"levelo://app?vid=c88718d1-c585-42c7-a165-977901d60dbd","ios":"levelo://app?vid=c88718d1-c585-42c7-a165-977901d60dbd"},"vehicle_type_id":"4","last_reported":1779047915,"current_range_meters":5600,"station_id":"ce4bho92rcd13ifvqh3g","pricing_plan_id":"cebpf4jnsgd1na2vs0mg"},{"bike_id":"16851742-d492-43b9-8de3-a74661547bec","system_id":"levelo_inurba_marseille","lat":43.30391,"lon":5.41256,"is_reserved":false,"is_disabled":false,"rental_uris":{"android":"levelo://app?vid=16851742-d492-43b9-8de3-a74661547bec","ios":"levelo://app?vid=16851742-d492-43b9-8de3-a74661547bec"},"vehicle_type_id":"4","last_reported":1779047915,"current_range_meters":5600,"station_id":"ce4bhop2rcd13ifvqh8g","pricing_plan_id":"cebpf4jnsgd1na2vs0mg"},{"bike_id":"4d3d050c-033f-41df-9f1e-316f361d1168","system_id":"levelo_inurba_marseille","lat":43.30103,"lon":5.3908,"is_reserved":false,"is_disabled":false,"rental_uris":{"android":"levelo://app?vid=4d3d050c-033f-41df-9f1e-316f361d1168","ios":"levelo://app?vid=4d3d050c-033f-41df-9f1e-316f361d1168"},"vehicle_type_id":"4","last_reported":1779047915,"current_range_meters":5600,"station_id":"ce4bh192rcd13ifvqdb0","pricing_plan_id":"cebpf4jnsgd1na2vs0mg"},{"bike_id":"61399ca3-8344-498f-89d7-90b632c9660c","system_id":"levelo_inurba_marseille","lat":43.265665,"lon":5.403398,"is_reserved":false,"is_disabled":false,"rental_uris":{"android":"levelo://app?vid=61399ca3-8344-498f-89d7-90b632c9660c","ios":"levelo://app?vid=61399ca3-8344-498f-89d7-90b632c9660c"},"vehicle_type_id":"4","last_reported":1779047915,"current_range_meters":5600,"station_id":"ce4bhmp2rcd13ifvqgng","pricing_plan_id":"cebpf4jnsgd1na2vs0mg"},{"bike_id":"72605231-0b8d-4a45-9371-108ec78bf59b","system_id":"levelo_inurba_marseille","lat":43.28702,"lon":5.39975,"is_reserved":false,"is_disabled":false,"rental_uris":{"android":"levelo://app?vid=72605231-0b8d-4a45-9371-108ec78bf59b","ios":"levelo://app?vid=72605231-0b8d-4a45-9371-108ec78bf59b"},"vehicle_type_id":"4","last_reported":1779047915,"current_range_meters":5600,"station_id":"ce4bho92rcd13ifvqh3g","pricing_plan_id":"cebpf4jnsgd1na2vs0mg"},{"bike_id":"f1cd0890-3e2d-4ace-99cd-3f5cc88ecf21","system_id":"levelo_inurba_marseille","lat":43.31904,"lon":5.36791,"is_reserved":false,"is_disabled":false,"rental_uris":{"android":"levelo://app?vid=f1cd0890-3e2d-4ace-99cd-3f5cc88ecf21","ios":"levelo://app?vid=f1cd0890-3e2d-4ace-99cd-3f5cc88ecf21"},"vehicle_type_id":"4","last_reported":1779047915,"current_range_meters":6000,"station_id":"st_d6o2h0d0559c73evc1b0","pricing_plan_id":"cebpf4jnsgd1na2vs0mg"},{"bike_id":"0baeead3-5057-46f7-9ab7-624502f6039c","system_id":"levelo_inurba_marseille","lat":43.292801,"lon":5.401149,"is_reserved":false,"is_disabled":true,"rental_uris":{"android":"levelo://app?vid=0baeead3-5057-46f7-9ab7-624502f6039c","ios":"levelo://app?vid=0baeead3-5057-46f7-9ab7-624502f6039c"},"vehicle_type_id":"4","last_reported":1779047915,"current_range_meters":6000,"station_id":"ce4bh312rcd13ifvqdk0","pricing_plan_id":"cebpf4jnsgd1na2vs0mg"},{"bike_id":"e7769197-75a5-4ebd-8a7c-258a71c3d79f","system_id":"levelo_inurba_marseille","lat":43.27617,"lon":5.361,"is_reserved":false,"is_disabled":false,"rental_uris":{"android":"levelo://app?vid=e7769197-75a5-4ebd-8a7c-258a71c3d79f","ios":"levelo://app?vid=e7769197-75a5-4ebd-8a7c-258a71c3d79f"},"vehicle_type_id":"4","last_reported":1779047915,"current_range_meters":6000,"station_id":"ce4bhbh2rcd13ifvqeqg","pricing_plan_id":"cebpf4jnsgd1na2vs0mg"},{"bike_id":"62491268-7d1b-4037-9dd7-2d4c13008b92","system_id":"levelo_inurba_marseille","lat":43.30792,"lon":5.37065,"is_reserved":false,"is_disabled":false,"rental_uris":{"android":"levelo://app?vid=62491268-7d1b-4037-9dd7-2d4c13008b92","ios":"levelo://app?vid=62491268-7d1b-4037-9dd7-2d4c13008b92"},"vehicle_type_id":"4","last_reported":1779047915,"current_range_meters":6000,"station_id":"","pricing_plan_id":"cebpf4jnsgd1na2vs0mg"},{"bike_id":"3d2f482a-90d0-4fd6-acee-470dbd6acb0e","system_id":"levelo_inurba_marseille","lat":43.29973,"lon":5.38502,"is_reserved":false,"is_disabled":false,"rental_uris":{"android":"levelo://app?vid=3d2f482a-90d0-4fd6-acee-470dbd6acb0e","ios":"levelo://app?vid=3d2f482a-90d0-4fd6-acee-470dbd6acb0e"},"vehicle_type_id":"4","last_reported":1779047915,"current_range_meters":6000,"station_id":"ce4bgj92rcd13ifvqbd0","pricing_plan_id":"cebpf4jnsgd1na2vs0mg"},{"bike_id":"54fde902-aa3c-457a-b571-90fafcd914f0","system_id":"levelo_inurba_marseille","lat":43.25266,"lon":5.37412,"is_reserved":false,"is_disabled":false,"rental_uris":{"android":"levelo://app?vid=54fde902-aa3c-457a-b571-90fafcd914f0","ios":"levelo://app?vid=54fde902-aa3c-457a-b571-90fafcd914f0"},"vehicle_type_id":"4","last_reported":1779047915,"current_range_meters":6000,"station_id":"","pricing_plan_id":"cebpf4jnsgd1na2vs0mg"},{"bike_id":"d61a5bad-5179-4144-83df-8466c8572fc4","system_id":"levelo_inurba_marseille","lat":43.23972,"lon":5.36616,"is_reserved":false,"is_disabled":false,"rental_uris":{"android":"levelo://app?vid=d61a5bad-5179-4144-83df-8466c8572fc4","ios":"levelo://app?vid=d61a5bad-5179-4144-83df-8466c8572fc4"},"vehicle_type_id":"4","last_reported":1779047915,"current_range_meters":6000,"station_id":"ce4bhi12rcd13ifvqfp0","pricing_plan_id":"cebpf4jnsgd1na2vs0mg"},{"bike_id":"b702e4f7-f82f-4454-9af6-c50764d95921","system_id":"levelo_inurba_marseille","lat":43.317,"lon":5.43708,"is_reserved":false,"is_disabled":false,"rental_uris":{"android":"levelo://app?vid=b702e4f7-f82f-4454-9af6-c50764d95921","ios":"levelo://app?vid=b702e4f7-f82f-4454-9af6-c50764d95921"},"vehicle_type_id":"4","last_reported":1779047915,"current_range_meters":6000,"station_id":"ce4bhp92rcd13ifvqhcg","pricing_plan_id":"cebpf4jnsgd1na2vs0mg"},{"bike_id":"33e920cc-1f61-4cd2-afd0-21aec7cef99f","system_id":"levelo_inurba_marseille","lat":43.27917,"lon":5.39573,"is_reserved":false,"is_disabled":false,"rental_uris":{"android":"levelo://app?vid=33e920cc-1f61-4cd2-afd0-21aec7cef99f","ios":"levelo://app?vid=33e920cc-1f61-4cd2-afd0-21aec7cef99f"},"vehicle_type_id":"4","last_reported":1779047915,"current_range_meters":6000,"station_id":"ce4bhf92rcd13ifvqf40","pricing_plan_id":"cebpf4jnsgd1na2vs0mg"},{"bike_id":"f8a5f064-06cc-4b4b-876a-d0e585eca0f2","system_id":"levelo_inurba_marseille","lat":43.29686,"lon":5.36617,"is_reserved":false,"is_disabled":false,"rental_uris":{"android":"levelo://app?vid=f8a5f064-06cc-4b4b-876a-d0e585eca0f2","ios":"levelo://app?vid=f8a5f064-06cc-4b4b-876a-d0e585eca0f2"},"vehicle_type_id":"4","last_reported":1779047915,"current_range_meters":6000,"station_id":"ce4bgn12rcd13ifvqbt0","pricing_plan_id":"cebpf4jnsgd1na2vs0mg"},{"bike_id":"6142fb54-5ddd-4594-858e-637ad4d92369","system_id":"levelo_inurba_marseille","lat":43.26816,"lon":5.40252,"is_reserved":false,"is_disabled":false,"rental_uris":{"android":"levelo://app?vid=6142fb54-5ddd-4594-858e-637ad4d92369","ios":"levelo://app?vid=6142fb54-5ddd-4594-858e-637ad4d92369"},"vehicle_type_id":"4","last_reported":1779047915,"current_range_meters":6000,"station_id":"ce501612rcd8frsf0b60","pricing_plan_id":"cebpf4jnsgd1na2vs0mg"},{"bike_id":"f6cf82aa-9b3e-4e0e-986c-8dd34601f1fe","system_id":"levelo_inurba_marseille","lat":43.27311,"lon":5.39088,"is_reserved":false,"is_disabled":false,"rental_uris":{"android":"levelo://app?vid=f6cf82aa-9b3e-4e0e-986c-8dd34601f1fe","ios":"levelo://app?vid=f6cf82aa-9b3e-4e0e-986c-8dd34601f1fe"},"vehicle_type_id":"4","last_reported":1779047915,"current_range_meters":6000,"station_id":"ce4bhgp2rcd13ifvqfe0","pricing_plan_id":"cebpf4jnsgd1na2vs0mg"},{"bike_id":"e56f2c12-9545-4f3e-844f-e9d70b70cef8","system_id":"levelo_inurba_marseille","lat":43.241676,"lon":5.363888,"is_reserved":false,"is_disabled":false,"rental_uris":{"android":"levelo://app?vid=e56f2c12-9545-4f3e-844f-e9d70b70cef8","ios":"levelo://app?vid=e56f2c12-9545-4f3e-844f-e9d70b70cef8"},"vehicle_type_id":"4","last_reported":1779047915,"current_range_meters":6000,"station_id":"cpo36qri1sfpv3e86is0","pricing_plan_id":"cebpf4jnsgd1na2vs0mg"},{"bike_id":"302a72ea-3775-417b-8d62-4fb684003f89","system_id":"levelo_inurba_marseille","lat":43.2953,"lon":5.38542,"is_reserved":false,"is_disabled":false,"rental_uris":{"android":"levelo://app?vid=302a72ea-3775-417b-8d62-4fb684003f89","ios":"levelo://app?vid=302a72ea-3775-417b-8d62-4fb684003f89"},"vehicle_type_id":"4","last_reported":1779047915,"current_range_meters":6000,"station_id":"ce4bgih2rcd13ifvqba0","pricing_plan_id":"cebpf4jnsgd1na2vs0mg"},{"bike_id":"c6e93e06-3823-44a1-9183-7579cebb2f07","system_id":"levelo_inurba_marseille","lat":43.29269,"lon":5.38419,"is_reserved":false,"is_disabled":false,"rental_uris":{"android":"levelo://app?vid=c6e93e06-3823-44a1-9183-7579cebb2f07","ios":"levelo://app?vid=c6e93e06-3823-44a1-9183-7579cebb2f07"},"vehicle_type_id":"4","last_reported":1779047915,"current_range_meters":6000,"station_id":"ce4bh692rcd13ifvqea0","pricing_plan_id":"cebpf4jnsgd1na2vs0mg"},{"bike_id":"0b43bdac-1267-48e1-afce-533a677f2ce9","system_id":"levelo_inurba_marseille","lat":43.29588,"lon":5.39585,"is_reserved":false,"is_disabled":false,"rental_uris":{"android":"levelo://app?vid=0b43bdac-1267-48e1-afce-533a677f2ce9","ios":"levelo://app?vid=0b43bdac-1267-48e1-afce-533a677f2ce9"},"vehicle_type_id":"4","last_reported":1779047915,"current_range_meters":6000,"station_id":"","pricing_plan_id":"cebpf4jnsgd1na2vs0mg"},{"bike_id":"bf263bfd-7cda-4bc4-a715-962f221c4e35","system_id":"levelo_inurba_marseille","lat":43.29983,"lon":5.37169,"is_reserved":false,"is_disabled":false,"rental_uris":{"android":"levelo://app?vid=bf263bfd-7cda-4bc4-a715-962f221c4e35","ios":"levelo://app?vid=bf263bfd-7cda-4bc4-a715-962f221c4e35"},"vehicle_type_id":"4","last_reported":1779047915,"current_range_meters":6000,"station_id":"ce4bgr92rcd13ifvqc7g","pricing_plan_id":"cebpf4jnsgd1na2vs0mg"},{"bike_id":"1725e9ad-6780-4716-8376-c2be2afd8017","system_id":"levelo_inurba_marseille","lat":43.2767,"lon":5.38893,"is_reserved":false,"is_disabled":false,"rental_uris":{"android":"levelo://app?vid=1725e9ad-6780-4716-8376-c2be2afd8017","ios":"levelo://app?vid=1725e9ad-6780-4716-8376-c2be2afd8017"},"vehicle_type_id":"4","last_reported":1779047915,"current_range_meters":6000,"station_id":"ce4bhi12rcd13ifvqfo0","pricing_plan_id":"cebpf4jnsgd1na2vs0mg"},{"bike_id":"eecc2b6c-aeb0-4088-ab82-0596e29b46f6","system_id":"levelo_inurba_marseille","lat":43.27419,"lon":5.39395,"is_reserved":false,"is_disabled":true,"rental_uris":{"android":"levelo://app?vid=eecc2b6c-aeb0-4088-ab82-0596e29b46f6","ios":"levelo://app?vid=eecc2b6c-aeb0-4088-ab82-0596e29b46f6"},"vehicle_type_id":"4","last_reported":1779047915,"current_range_meters":6000,"station_id":"ce4bhdp2rcd13ifvqf20","pricing_plan_id":"cebpf4jnsgd1na2vs0mg"},{"bike_id":"af2d2bd4-1d04-46a8-9f96-08a235bb6257","system_id":"levelo_inurba_marseille","lat":43.29077,"lon":5.37542,"is_reserved":false,"is_disabled":false,"rental_uris":{"android":"levelo://app?vid=af2d2bd4-1d04-46a8-9f96-08a235bb6257","ios":"levelo://app?vid=af2d2bd4-1d04-46a8-9f96-08a235bb6257"},"vehicle_type_id":"4","last_reported":1779047915,"current_range_meters":6000,"station_id":"","pricing_plan_id":"cebpf4jnsgd1na2vs0mg"},{"bike_id":"7ad82494-d2db-46c2-80dd-2d50fdb47afb","system_id":"levelo_inurba_marseille","lat":43.27199,"lon":5.3918,"is_reserved":false,"is_disabled":false,"rental_uris":{"android":"levelo://app?vid=7ad82494-d2db-46c2-80dd-2d50fdb47afb","ios":"levelo://app?vid=7ad82494-d2db-46c2-80dd-2d50fdb47afb"},"vehicle_type_id":"4","last_reported":1779047915,"current_range_meters":6000,"station_id":"ce4bhhp2rcd13ifvqfm0","pricing_plan_id":"cebpf4jnsgd1na2vs0mg"},{"bike_id":"2986d552-3005-43a7-8483-2d7fd8b5d0f4","system_id":"levelo_inurba_marseille","lat":43.24835,"lon":5.37467,"is_reserved":false,"is_disabled":false,"rental_uris":{"android":"levelo://app?vid=2986d552-3005-43a7-8483-2d7fd8b5d0f4","ios":"levelo://app?vid=2986d552-3005-43a7-8483-2d7fd8b5d0f4"},"vehicle_type_id":"4","last_reported":1779047915,"current_range_meters":6000,"station_id":"","pricing_plan_id":"cebpf4jnsgd1na2vs0mg"},{"bike_id":"832d64bf-bfdb-444d-bc03-658089b5ad2a","system_id":"levelo_inurba_marseille","lat":43.27327,"lon":5.36213,"is_reserved":false,"is_disabled":false,"rental_uris":{"android":"levelo://app?vid=832d64bf-bfdb-444d-bc03-658089b5ad2a","ios":"levelo://app?vid=832d64bf-bfdb-444d-bc03-658089b5ad2a"},"vehicle_type_id":"4","last_reported":1779047915,"current_range_meters":6000,"station_id":"","pricing_plan_id":"cebpf4jnsgd1na2vs0mg"},{"bike_id":"dba42704-d1e2-4da3-a873-39c8b46bf9c9","system_id":"levelo_inurba_marseille","lat":43.29256,"lon":5.40903,"is_reserved":false,"is_disabled":false,"rental_uris":{"android":"levelo://app?vid=dba42704-d1e2-4da3-a873-39c8b46bf9c9","ios":"levelo://app?vid=dba42704-d1e2-4da3-a873-39c8b46bf9c9"},"vehicle_type_id":"4","last_reported":1779047915,"current_range_meters":6000,"station_id":"ce4bh192rcd13ifvqdc0","pricing_plan_id":"cebpf4jnsgd1na2vs0mg"},{"bike_id":"afe11141-8996-42c9-8f0d-1bd1997a7530","system_id":"levelo_inurba_marseille","lat":43.29617,"lon":5.37797,"is_reserved":false,"is_disabled":false,"rental_uris":{"android":"levelo://app?vid=afe11141-8996-42c9-8f0d-1bd1997a7530","ios":"levelo://app?vid=afe11141-8996-42c9-8f0d-1bd1997a7530"},"vehicle_type_id":"4","last_reported":1779047915,"current_range_meters":6400,"station_id":"","pricing_plan_id":"cebpf4jnsgd1na2vs0mg"},{"bike_id":"54ab9ce3-2b91-42b0-a7d8-1383a1442009","system_id":"levelo_inurba_marseille","lat":43.22565,"lon":5.41634,"is_reserved":false,"is_disabled":false,"rental_uris":{"android":"levelo://app?vid=54ab9ce3-2b91-42b0-a7d8-1383a1442009","ios":"levelo://app?vid=54ab9ce3-2b91-42b0-a7d8-1383a1442009"},"vehicle_type_id":"4","last_reported":1779047915,"current_range_meters":6400,"station_id":"st_d2o4gvlbi1j2169b742g","pricing_plan_id":"cebpf4jnsgd1na2vs0mg"},{"bike_id":"f3b42881-9a93-4e8e-b282-fd4ef90931fd","system_id":"levelo_inurba_marseille","lat":43.27965,"lon":5.38695,"is_reserved":false,"is_disabled":false,"rental_uris":{"android":"levelo://app?vid=f3b42881-9a93-4e8e-b282-fd4ef90931fd","ios":"levelo://app?vid=f3b42881-9a93-4e8e-b282-fd4ef90931fd"},"vehicle_type_id":"4","last_reported":1779047915,"current_range_meters":6400,"station_id":"ce4bhg12rcd13ifvqf80","pricing_plan_id":"cebpf4jnsgd1na2vs0mg"},{"bike_id":"c332725f-1433-4df6-83da-b09f7d9eca8a","system_id":"levelo_inurba_marseille","lat":43.28869,"lon":5.42525,"is_reserved":false,"is_disabled":false,"rental_uris":{"android":"levelo://app?vid=c332725f-1433-4df6-83da-b09f7d9eca8a","ios":"levelo://app?vid=c332725f-1433-4df6-83da-b09f7d9eca8a"},"vehicle_type_id":"4","last_reported":1779047915,"current_range_meters":6400,"station_id":"st_d3b462108ojc7389ooeg","pricing_plan_id":"cebpf4jnsgd1na2vs0mg"},{"bike_id":"7b127ec7-0070-45dd-9ff1-e1878546b350","system_id":"levelo_inurba_marseille","lat":43.28271,"lon":5.35076,"is_reserved":false,"is_disabled":true,"rental_uris":{"android":"levelo://app?vid=7b127ec7-0070-45dd-9ff1-e1878546b350","ios":"levelo://app?vid=7b127ec7-0070-45dd-9ff1-e1878546b350"},"vehicle_type_id":"4","last_reported":1779047915,"current_range_meters":6400,"station_id":"ce4bhbp2rcd13ifvqerg","pricing_plan_id":"cebpf4jnsgd1na2vs0mg"},{"bike_id":"fb86733b-144b-4c0a-83c9-ab7086be4c18","system_id":"levelo_inurba_marseille","lat":43.27954,"lon":5.38684,"is_reserved":false,"is_disabled":true,"rental_uris":{"android":"levelo://app?vid=fb86733b-144b-4c0a-83c9-ab7086be4c18","ios":"levelo://app?vid=fb86733b-144b-4c0a-83c9-ab7086be4c18"},"vehicle_type_id":"4","last_reported":1779047915,"current_range_meters":6400,"station_id":"ce4bhg12rcd13ifvqf80","pricing_plan_id":"cebpf4jnsgd1na2vs0mg"},{"bike_id":"d26debdb-f469-4a13-a8ba-292bb0c749cd","system_id":"levelo_inurba_marseille","lat":43.22925,"lon":5.35375,"is_reserved":false,"is_disabled":false,"rental_uris":{"android":"levelo://app?vid=d26debdb-f469-4a13-a8ba-292bb0c749cd","ios":"levelo://app?vid=d26debdb-f469-4a13-a8ba-292bb0c749cd"},"vehicle_type_id":"4","last_reported":1779047915,"current_range_meters":6400,"station_id":"cpo3532slgdg3j2ikp40","pricing_plan_id":"cebpf4jnsgd1na2vs0mg"},{"bike_id":"fb32d163-c477-4aa0-97a7-e411303b0a42","system_id":"levelo_inurba_marseille","lat":43.21166,"lon":5.35054,"is_reserved":false,"is_disabled":false,"rental_uris":{"android":"levelo://app?vid=fb32d163-c477-4aa0-97a7-e411303b0a42","ios":"levelo://app?vid=fb32d163-c477-4aa0-97a7-e411303b0a42"},"vehicle_type_id":"4","last_reported":1779047915,"current_range_meters":6400,"station_id":"st_cvj6sg6p6f1abm77japg","pricing_plan_id":"cebpf4jnsgd1na2vs0mg"},{"bike_id":"b249b654-9f6a-4dcd-9f3a-de18b5d86afb","system_id":"levelo_inurba_marseille","lat":43.24167,"lon":5.36394,"is_reserved":false,"is_disabled":false,"rental_uris":{"android":"levelo://app?vid=b249b654-9f6a-4dcd-9f3a-de18b5d86afb","ios":"levelo://app?vid=b249b654-9f6a-4dcd-9f3a-de18b5d86afb"},"vehicle_type_id":"4","last_reported":1779047915,"current_range_meters":6400,"station_id":"cpo36qri1sfpv3e86is0","pricing_plan_id":"cebpf4jnsgd1na2vs0mg"},{"bike_id":"4f9c05a9-48cd-4271-bffa-29556b30148b","system_id":"levelo_inurba_marseille","lat":43.29304,"lon":5.40304,"is_reserved":false,"is_disabled":false,"rental_uris":{"android":"levelo://app?vid=4f9c05a9-48cd-4271-bffa-29556b30148b","ios":"levelo://app?vid=4f9c05a9-48cd-4271-bffa-29556b30148b"},"vehicle_type_id":"4","last_reported":1779047915,"current_range_meters":6400,"station_id":"","pricing_plan_id":"cebpf4jnsgd1na2vs0mg"},{"bike_id":"a4dcb63d-da5e-4e93-abca-967325ccef1b","system_id":"levelo_inurba_marseille","lat":43.23882,"lon":5.3746,"is_reserved":false,"is_disabled":true,"rental_uris":{"android":"levelo://app?vid=a4dcb63d-da5e-4e93-abca-967325ccef1b","ios":"levelo://app?vid=a4dcb63d-da5e-4e93-abca-967325ccef1b"},"vehicle_type_id":"4","last_reported":1779047915,"current_range_meters":6400,"station_id":"st_d6sm7csbq4hs73f8fpjg","pricing_plan_id":"cebpf4jnsgd1na2vs0mg"},{"bike_id":"fbfb02c2-5d67-4965-8660-09d9e4753c1f","system_id":"levelo_inurba_marseille","lat":43.29978,"lon":5.38506,"is_reserved":false,"is_disabled":false,"rental_uris":{"android":"levelo://app?vid=fbfb02c2-5d67-4965-8660-09d9e4753c1f","ios":"levelo://app?vid=fbfb02c2-5d67-4965-8660-09d9e4753c1f"},"vehicle_type_id":"4","last_reported":1779047915,"current_range_meters":6400,"station_id":"ce4bgj92rcd13ifvqbd0","pricing_plan_id":"cebpf4jnsgd1na2vs0mg"},{"bike_id":"471c599a-d317-44fb-91c7-b181a7263dd1","system_id":"levelo_inurba_marseille","lat":43.24074,"lon":5.37765,"is_reserved":false,"is_disabled":false,"rental_uris":{"android":"levelo://app?vid=471c599a-d317-44fb-91c7-b181a7263dd1","ios":"levelo://app?vid=471c599a-d317-44fb-91c7-b181a7263dd1"},"vehicle_type_id":"4","last_reported":1779047915,"current_range_meters":6400,"station_id":"ce4bhnp2rcd13ifvqgvg","pricing_plan_id":"cebpf4jnsgd1na2vs0mg"},{"bike_id":"7af3deac-591f-4e06-9b07-18f668304cda","system_id":"levelo_inurba_marseille","lat":43.26235,"lon":5.37581,"is_reserved":false,"is_disabled":false,"rental_uris":{"android":"levelo://app?vid=7af3deac-591f-4e06-9b07-18f668304cda","ios":"levelo://app?vid=7af3deac-591f-4e06-9b07-18f668304cda"},"vehicle_type_id":"4","last_reported":1779047915,"current_range_meters":6400,"station_id":"","pricing_plan_id":"cebpf4jnsgd1na2vs0mg"},{"bike_id":"b1a83a13-4601-4cc8-b069-9b93072b6870","system_id":"levelo_inurba_marseille","lat":43.32103,"lon":5.36781,"is_reserved":false,"is_disabled":false,"rental_uris":{"android":"levelo://app?vid=b1a83a13-4601-4cc8-b069-9b93072b6870","ios":"levelo://app?vid=b1a83a13-4601-4cc8-b069-9b93072b6870"},"vehicle_type_id":"4","last_reported":1779047915,"current_range_meters":6400,"station_id":"ce4bhrh2rcd13ifvqhug","pricing_plan_id":"cebpf4jnsgd1na2vs0mg"},{"bike_id":"51c4db2d-afb1-4da8-9a2d-4c72328cc145","system_id":"levelo_inurba_marseille","lat":43.260293,"lon":5.375517,"is_reserved":false,"is_disabled":false,"rental_uris":{"android":"levelo://app?vid=51c4db2d-afb1-4da8-9a2d-4c72328cc145","ios":"levelo://app?vid=51c4db2d-afb1-4da8-9a2d-4c72328cc145"},"vehicle_type_id":"4","last_reported":1779047915,"current_range_meters":6400,"station_id":"ce4bhgh2rcd13ifvqfa0","pricing_plan_id":"cebpf4jnsgd1na2vs0mg"},{"bike_id":"57d54335-7168-4a0a-8b10-b7cd0fcac1c9","system_id":"levelo_inurba_marseille","lat":43.29715,"lon":5.36618,"is_reserved":false,"is_disabled":false,"rental_uris":{"android":"levelo://app?vid=57d54335-7168-4a0a-8b10-b7cd0fcac1c9","ios":"levelo://app?vid=57d54335-7168-4a0a-8b10-b7cd0fcac1c9"},"vehicle_type_id":"4","last_reported":1779047915,"current_range_meters":6800,"station_id":"ce4bgn12rcd13ifvqbt0","pricing_plan_id":"cebpf4jnsgd1na2vs0mg"},{"bike_id":"2986fb6d-029a-46c2-a508-7b31795b62a0","system_id":"levelo_inurba_marseille","lat":43.27819,"lon":5.40709,"is_reserved":false,"is_disabled":false,"rental_uris":{"android":"levelo://app?vid=2986fb6d-029a-46c2-a508-7b31795b62a0","ios":"levelo://app?vid=2986fb6d-029a-46c2-a508-7b31795b62a0"},"vehicle_type_id":"4","last_reported":1779047915,"current_range_meters":6800,"station_id":"ce4bhnh2rcd13ifvqgtg","pricing_plan_id":"cebpf4jnsgd1na2vs0mg"},{"bike_id":"5f6900ba-259e-4899-b1c6-79e14c1eb135","system_id":"levelo_inurba_marseille","lat":43.21207,"lon":5.35058,"is_reserved":false,"is_disabled":false,"rental_uris":{"android":"levelo://app?vid=5f6900ba-259e-4899-b1c6-79e14c1eb135","ios":"levelo://app?vid=5f6900ba-259e-4899-b1c6-79e14c1eb135"},"vehicle_type_id":"4","last_reported":1779047915,"current_range_meters":6800,"station_id":"st_cvj6sg6p6f1abm77japg","pricing_plan_id":"cebpf4jnsgd1na2vs0mg"},{"bike_id":"5c088cbe-f367-4c53-832b-92dcbcd67f3b","system_id":"levelo_inurba_marseille","lat":43.24652,"lon":5.38888,"is_reserved":false,"is_disabled":false,"rental_uris":{"android":"levelo://app?vid=5c088cbe-f367-4c53-832b-92dcbcd67f3b","ios":"levelo://app?vid=5c088cbe-f367-4c53-832b-92dcbcd67f3b"},"vehicle_type_id":"4","last_reported":1779047915,"current_range_meters":6800,"station_id":"ce4bhg12rcd13ifvqf60","pricing_plan_id":"cebpf4jnsgd1na2vs0mg"},{"bike_id":"e5b0fcb7-16bc-4149-8522-a9dbdd766b0a","system_id":"levelo_inurba_marseille","lat":43.26812,"lon":5.40252,"is_reserved":false,"is_disabled":false,"rental_uris":{"android":"levelo://app?vid=e5b0fcb7-16bc-4149-8522-a9dbdd766b0a","ios":"levelo://app?vid=e5b0fcb7-16bc-4149-8522-a9dbdd766b0a"},"vehicle_type_id":"4","last_reported":1779047915,"current_range_meters":6800,"station_id":"ce501612rcd8frsf0b60","pricing_plan_id":"cebpf4jnsgd1na2vs0mg"},{"bike_id":"1a604e1b-7247-4bf8-8da3-cd73d8358a5b","system_id":"levelo_inurba_marseille","lat":43.24333,"lon":5.38424,"is_reserved":false,"is_disabled":false,"rental_uris":{"android":"levelo://app?vid=1a604e1b-7247-4bf8-8da3-cd73d8358a5b","ios":"levelo://app?vid=1a604e1b-7247-4bf8-8da3-cd73d8358a5b"},"vehicle_type_id":"4","last_reported":1779047915,"current_range_meters":6800,"station_id":"","pricing_plan_id":"cebpf4jnsgd1na2vs0mg"},{"bike_id":"bd6c6a18-b185-4ca4-bf72-37723228331c","system_id":"levelo_inurba_marseille","lat":43.26874,"lon":5.39501,"is_reserved":false,"is_disabled":false,"rental_uris":{"android":"levelo://app?vid=bd6c6a18-b185-4ca4-bf72-37723228331c","ios":"levelo://app?vid=bd6c6a18-b185-4ca4-bf72-37723228331c"},"vehicle_type_id":"4","last_reported":1779047915,"current_range_meters":6800,"station_id":"","pricing_plan_id":"cebpf4jnsgd1na2vs0mg"},{"bike_id":"235a6e45-3fd2-4b62-a6f5-bed904ba7fa0","system_id":"levelo_inurba_marseille","lat":43.27314,"lon":5.39104,"is_reserved":false,"is_disabled":false,"rental_uris":{"android":"levelo://app?vid=235a6e45-3fd2-4b62-a6f5-bed904ba7fa0","ios":"levelo://app?vid=235a6e45-3fd2-4b62-a6f5-bed904ba7fa0"},"vehicle_type_id":"4","last_reported":1779047915,"current_range_meters":6800,"station_id":"ce4bhgp2rcd13ifvqfe0","pricing_plan_id":"cebpf4jnsgd1na2vs0mg"},{"bike_id":"71ee6503-1c9e-4aa5-82c6-ae2135886773","system_id":"levelo_inurba_marseille","lat":43.27625,"lon":5.36104,"is_reserved":false,"is_disabled":false,"rental_uris":{"android":"levelo://app?vid=71ee6503-1c9e-4aa5-82c6-ae2135886773","ios":"levelo://app?vid=71ee6503-1c9e-4aa5-82c6-ae2135886773"},"vehicle_type_id":"4","last_reported":1779047915,"current_range_meters":6800,"station_id":"ce4bgj92rcd13ifvqbe0","pricing_plan_id":"cebpf4jnsgd1na2vs0mg"},{"bike_id":"d694a24c-448f-40d3-93b9-cd4f3b5cfb26","system_id":"levelo_inurba_marseille","lat":43.24968,"lon":5.40487,"is_reserved":false,"is_disabled":false,"rental_uris":{"android":"levelo://app?vid=d694a24c-448f-40d3-93b9-cd4f3b5cfb26","ios":"levelo://app?vid=d694a24c-448f-40d3-93b9-cd4f3b5cfb26"},"vehicle_type_id":"4","last_reported":1779047915,"current_range_meters":6800,"station_id":"st_d2ngiaodas8pm72gd1h0","pricing_plan_id":"cebpf4jnsgd1na2vs0mg"},{"bike_id":"c25116ee-36e8-4385-ac6a-936536f8e0ec","system_id":"levelo_inurba_marseille","lat":43.26565,"lon":5.42178,"is_reserved":false,"is_disabled":false,"rental_uris":{"android":"levelo://app?vid=c25116ee-36e8-4385-ac6a-936536f8e0ec","ios":"levelo://app?vid=c25116ee-36e8-4385-ac6a-936536f8e0ec"},"vehicle_type_id":"4","last_reported":1779047915,"current_range_meters":6800,"station_id":"","pricing_plan_id":"cebpf4jnsgd1na2vs0mg"},{"bike_id":"ce532fcd-5557-4a28-a00e-d605ccf8c010","system_id":"levelo_inurba_marseille","lat":43.24402,"lon":5.37063,"is_reserved":false,"is_disabled":false,"rental_uris":{"android":"levelo://app?vid=ce532fcd-5557-4a28-a00e-d605ccf8c010","ios":"levelo://app?vid=ce532fcd-5557-4a28-a00e-d605ccf8c010"},"vehicle_type_id":"4","last_reported":1779047915,"current_range_meters":6800,"station_id":"ce4bhhh2rcd13ifvqfk0","pricing_plan_id":"cebpf4jnsgd1na2vs0mg"},{"bike_id":"28ea8ab8-f68c-422d-ae62-5dda211f8abb","system_id":"levelo_inurba_marseille","lat":43.32111,"lon":5.36772,"is_reserved":false,"is_disabled":false,"rental_uris":{"android":"levelo://app?vid=28ea8ab8-f68c-422d-ae62-5dda211f8abb","ios":"levelo://app?vid=28ea8ab8-f68c-422d-ae62-5dda211f8abb"},"vehicle_type_id":"4","last_reported":1779047915,"current_range_meters":6800,"station_id":"ce4bhrh2rcd13ifvqhug","pricing_plan_id":"cebpf4jnsgd1na2vs0mg"},{"bike_id":"3709e2eb-1cc1-449a-a8a9-9b35e8235906","system_id":"levelo_inurba_marseille","lat":43.2636,"lon":5.41065,"is_reserved":false,"is_disabled":false,"rental_uris":{"android":"levelo://app?vid=3709e2eb-1cc1-449a-a8a9-9b35e8235906","ios":"levelo://app?vid=3709e2eb-1cc1-449a-a8a9-9b35e8235906"},"vehicle_type_id":"4","last_reported":1779047915,"current_range_meters":6800,"station_id":"st_d4e5ca6na9uc73bfl5fg","pricing_plan_id":"cebpf4jnsgd1na2vs0mg"},{"bike_id":"41ded781-3ab4-4404-8a64-8293b4fa5a47","system_id":"levelo_inurba_marseille","lat":43.30249,"lon":5.4003,"is_reserved":false,"is_disabled":false,"rental_uris":{"android":"levelo://app?vid=41ded781-3ab4-4404-8a64-8293b4fa5a47","ios":"levelo://app?vid=41ded781-3ab4-4404-8a64-8293b4fa5a47"},"vehicle_type_id":"4","last_reported":1779047915,"current_range_meters":6800,"station_id":"ce4bgvh2rcd13ifvqcs0","pricing_plan_id":"cebpf4jnsgd1na2vs0mg"},{"bike_id":"8dc7b2ad-9120-4009-8c05-65cfd51c493c","system_id":"levelo_inurba_marseille","lat":43.29871,"lon":5.38906,"is_reserved":false,"is_disabled":false,"rental_uris":{"android":"levelo://app?vid=8dc7b2ad-9120-4009-8c05-65cfd51c493c","ios":"levelo://app?vid=8dc7b2ad-9120-4009-8c05-65cfd51c493c"},"vehicle_type_id":"4","last_reported":1779047915,"current_range_meters":6800,"station_id":"ce4bh392rcd13ifvqdl0","pricing_plan_id":"cebpf4jnsgd1na2vs0mg"},{"bike_id":"1d1c1d9d-7889-415d-91c9-fd9f94fe7d71","system_id":"levelo_inurba_marseille","lat":43.27059,"lon":5.40262,"is_reserved":false,"is_disabled":false,"rental_uris":{"android":"levelo://app?vid=1d1c1d9d-7889-415d-91c9-fd9f94fe7d71","ios":"levelo://app?vid=1d1c1d9d-7889-415d-91c9-fd9f94fe7d71"},"vehicle_type_id":"4","last_reported":1779047915,"current_range_meters":6800,"station_id":"ce4bhk92rcd13ifvqgc0","pricing_plan_id":"cebpf4jnsgd1na2vs0mg"},{"bike_id":"6f2c2415-0abc-4a6d-81e0-d4315cd25937","system_id":"levelo_inurba_marseille","lat":43.29291,"lon":5.40118,"is_reserved":false,"is_disabled":false,"rental_uris":{"android":"levelo://app?vid=6f2c2415-0abc-4a6d-81e0-d4315cd25937","ios":"levelo://app?vid=6f2c2415-0abc-4a6d-81e0-d4315cd25937"},"vehicle_type_id":"4","last_reported":1779047915,"current_range_meters":6800,"station_id":"ce4bh312rcd13ifvqdk0","pricing_plan_id":"cebpf4jnsgd1na2vs0mg"},{"bike_id":"9e878235-dd2c-4199-9aa8-8698ea6e9314","system_id":"levelo_inurba_marseille","lat":43.25094,"lon":5.39516,"is_reserved":false,"is_disabled":false,"rental_uris":{"android":"levelo://app?vid=9e878235-dd2c-4199-9aa8-8698ea6e9314","ios":"levelo://app?vid=9e878235-dd2c-4199-9aa8-8698ea6e9314"},"vehicle_type_id":"4","last_reported":1779047915,"current_range_meters":6800,"station_id":"ce4bhm12rcd13ifvqgkg","pricing_plan_id":"cebpf4jnsgd1na2vs0mg"},{"bike_id":"65dbae25-6334-47ef-a49d-ffe5a15f1273","system_id":"levelo_inurba_marseille","lat":43.24156,"lon":5.36408,"is_reserved":false,"is_disabled":false,"rental_uris":{"android":"levelo://app?vid=65dbae25-6334-47ef-a49d-ffe5a15f1273","ios":"levelo://app?vid=65dbae25-6334-47ef-a49d-ffe5a15f1273"},"vehicle_type_id":"4","last_reported":1779047915,"current_range_meters":6800,"station_id":"cpo36qri1sfpv3e86is0","pricing_plan_id":"cebpf4jnsgd1na2vs0mg"},{"bike_id":"d815c488-0cf1-4d4b-bacb-68d62f5a9580","system_id":"levelo_inurba_marseille","lat":43.31222,"lon":5.36841,"is_reserved":false,"is_disabled":false,"rental_uris":{"android":"levelo://app?vid=d815c488-0cf1-4d4b-bacb-68d62f5a9580","ios":"levelo://app?vid=d815c488-0cf1-4d4b-bacb-68d62f5a9580"},"vehicle_type_id":"4","last_reported":1779047915,"current_range_meters":6800,"station_id":"ce4bgl92rcd13ifvqbq0","pricing_plan_id":"cebpf4jnsgd1na2vs0mg"},{"bike_id":"bedf7b70-472e-453d-b03b-b7a2212011fa","system_id":"levelo_inurba_marseille","lat":43.27197,"lon":5.39189,"is_reserved":false,"is_disabled":false,"rental_uris":{"android":"levelo://app?vid=bedf7b70-472e-453d-b03b-b7a2212011fa","ios":"levelo://app?vid=bedf7b70-472e-453d-b03b-b7a2212011fa"},"vehicle_type_id":"4","last_reported":1779047915,"current_range_meters":6800,"station_id":"ce4bhhp2rcd13ifvqfm0","pricing_plan_id":"cebpf4jnsgd1na2vs0mg"},{"bike_id":"c42cd8aa-b86d-4b0d-a8bd-91284919ac1c","system_id":"levelo_inurba_marseille","lat":43.24399,"lon":5.37081,"is_reserved":false,"is_disabled":false,"rental_uris":{"android":"levelo://app?vid=c42cd8aa-b86d-4b0d-a8bd-91284919ac1c","ios":"levelo://app?vid=c42cd8aa-b86d-4b0d-a8bd-91284919ac1c"},"vehicle_type_id":"4","last_reported":1779047915,"current_range_meters":7200,"station_id":"ce4bhhh2rcd13ifvqfk0","pricing_plan_id":"cebpf4jnsgd1na2vs0mg"},{"bike_id":"4594bcf5-4027-4564-aa74-8f0911cfd6ee","system_id":"levelo_inurba_marseille","lat":43.26573,"lon":5.39627,"is_reserved":false,"is_disabled":false,"rental_uris":{"android":"levelo://app?vid=4594bcf5-4027-4564-aa74-8f0911cfd6ee","ios":"levelo://app?vid=4594bcf5-4027-4564-aa74-8f0911cfd6ee"},"vehicle_type_id":"4","last_reported":1779047915,"current_range_meters":7200,"station_id":"","pricing_plan_id":"cebpf4jnsgd1na2vs0mg"},{"bike_id":"a5a2318a-33d9-4e58-8414-86b09ee999c4","system_id":"levelo_inurba_marseille","lat":43.28024,"lon":5.39991,"is_reserved":false,"is_disabled":false,"rental_uris":{"android":"levelo://app?vid=a5a2318a-33d9-4e58-8414-86b09ee999c4","ios":"levelo://app?vid=a5a2318a-33d9-4e58-8414-86b09ee999c4"},"vehicle_type_id":"4","last_reported":1779047915,"current_range_meters":7200,"station_id":"ce4bho92rcd13ifvqh4g","pricing_plan_id":"cebpf4jnsgd1na2vs0mg"},{"bike_id":"ab683654-00d6-482a-99f3-3b01e127b0cc","system_id":"levelo_inurba_marseille","lat":43.26941,"lon":5.40246,"is_reserved":false,"is_disabled":false,"rental_uris":{"android":"levelo://app?vid=ab683654-00d6-482a-99f3-3b01e127b0cc","ios":"levelo://app?vid=ab683654-00d6-482a-99f3-3b01e127b0cc"},"vehicle_type_id":"4","last_reported":1779047915,"current_range_meters":7200,"station_id":"cjm6bp8fraef2m0cb0m0","pricing_plan_id":"cebpf4jnsgd1na2vs0mg"},{"bike_id":"1fbce2f5-da80-4e48-bf50-ba3a76552067","system_id":"levelo_inurba_marseille","lat":43.30953,"lon":5.39044,"is_reserved":false,"is_disabled":true,"rental_uris":{"android":"levelo://app?vid=1fbce2f5-da80-4e48-bf50-ba3a76552067","ios":"levelo://app?vid=1fbce2f5-da80-4e48-bf50-ba3a76552067"},"vehicle_type_id":"4","last_reported":1779047915,"current_range_meters":7200,"station_id":"ce4bgup2rcd13ifvqco0","pricing_plan_id":"cebpf4jnsgd1na2vs0mg"},{"bike_id":"00f07221-40ec-4f62-9b59-bb0756e8fce8","system_id":"levelo_inurba_marseille","lat":43.27207,"lon":5.39179,"is_reserved":false,"is_disabled":true,"rental_uris":{"android":"levelo://app?vid=00f07221-40ec-4f62-9b59-bb0756e8fce8","ios":"levelo://app?vid=00f07221-40ec-4f62-9b59-bb0756e8fce8"},"vehicle_type_id":"4","last_reported":1779047915,"current_range_meters":7200,"station_id":"ce4bhhp2rcd13ifvqfm0","pricing_plan_id":"cebpf4jnsgd1na2vs0mg"},{"bike_id":"8a1d19c1-4998-48cc-919f-a7da99fe2397","system_id":"levelo_inurba_marseille","lat":43.27845,"lon":5.39187,"is_reserved":false,"is_disabled":true,"rental_uris":{"android":"levelo://app?vid=8a1d19c1-4998-48cc-919f-a7da99fe2397","ios":"levelo://app?vid=8a1d19c1-4998-48cc-919f-a7da99fe2397"},"vehicle_type_id":"4","last_reported":1779047915,"current_range_meters":7200,"station_id":"ce4bhjp2rcd13ifvqga0","pricing_plan_id":"cebpf4jnsgd1na2vs0mg"},{"bike_id":"dd6df5b2-52b8-49a8-91cf-d826100f9526","system_id":"levelo_inurba_marseille","lat":43.32463,"lon":5.3657,"is_reserved":false,"is_disabled":false,"rental_uris":{"android":"levelo://app?vid=dd6df5b2-52b8-49a8-91cf-d826100f9526","ios":"levelo://app?vid=dd6df5b2-52b8-49a8-91cf-d826100f9526"},"vehicle_type_id":"4","last_reported":1779047915,"current_range_meters":7200,"station_id":"ce4bhs12rcd13ifvqhvg","pricing_plan_id":"cebpf4jnsgd1na2vs0mg"},{"bike_id":"80151f78-e237-427a-8f4e-ebd85b681d21","system_id":"levelo_inurba_marseille","lat":43.29267,"lon":5.38437,"is_reserved":false,"is_disabled":false,"rental_uris":{"android":"levelo://app?vid=80151f78-e237-427a-8f4e-ebd85b681d21","ios":"levelo://app?vid=80151f78-e237-427a-8f4e-ebd85b681d21"},"vehicle_type_id":"4","last_reported":1779047915,"current_range_meters":7200,"station_id":"ce4bh692rcd13ifvqea0","pricing_plan_id":"cebpf4jnsgd1na2vs0mg"},{"bike_id":"1d938f0a-cc4f-459d-88ac-05c0628b0e63","system_id":"levelo_inurba_marseille","lat":43.30542,"lon":5.38419,"is_reserved":false,"is_disabled":false,"rental_uris":{"android":"levelo://app?vid=1d938f0a-cc4f-459d-88ac-05c0628b0e63","ios":"levelo://app?vid=1d938f0a-cc4f-459d-88ac-05c0628b0e63"},"vehicle_type_id":"4","last_reported":1779047915,"current_range_meters":7200,"station_id":"ce4bgg92rcd13ifvqb30","pricing_plan_id":"cebpf4jnsgd1na2vs0mg"},{"bike_id":"9de423cf-09d6-4636-b22f-b51156ae05e5","system_id":"levelo_inurba_marseille","lat":43.27347,"lon":5.39055,"is_reserved":false,"is_disabled":false,"rental_uris":{"android":"levelo://app?vid=9de423cf-09d6-4636-b22f-b51156ae05e5","ios":"levelo://app?vid=9de423cf-09d6-4636-b22f-b51156ae05e5"},"vehicle_type_id":"4","last_reported":1779047915,"current_range_meters":7200,"station_id":"ce4bhgp2rcd13ifvqfe0","pricing_plan_id":"cebpf4jnsgd1na2vs0mg"},{"bike_id":"305a1a7d-4627-447a-b03e-c00d9e2f8594","system_id":"levelo_inurba_marseille","lat":43.29929,"lon":5.36538,"is_reserved":false,"is_disabled":false,"rental_uris":{"android":"levelo://app?vid=305a1a7d-4627-447a-b03e-c00d9e2f8594","ios":"levelo://app?vid=305a1a7d-4627-447a-b03e-c00d9e2f8594"},"vehicle_type_id":"4","last_reported":1779047915,"current_range_meters":7200,"station_id":"ce4bgm92rcd13ifvqbr0","pricing_plan_id":"cebpf4jnsgd1na2vs0mg"},{"bike_id":"b3f6493c-d013-4c08-8527-9e057dfa45f6","system_id":"levelo_inurba_marseille","lat":43.29298,"lon":5.37431,"is_reserved":false,"is_disabled":true,"rental_uris":{"android":"levelo://app?vid=b3f6493c-d013-4c08-8527-9e057dfa45f6","ios":"levelo://app?vid=b3f6493c-d013-4c08-8527-9e057dfa45f6"},"vehicle_type_id":"4","last_reported":1779047915,"current_range_meters":7200,"station_id":"ce4bgi12rcd13ifvqb70","pricing_plan_id":"cebpf4jnsgd1na2vs0mg"},{"bike_id":"4769f653-6dce-4e43-b4a1-4a44ffd9fa0e","system_id":"levelo_inurba_marseille","lat":43.2927,"lon":5.37618,"is_reserved":false,"is_disabled":true,"rental_uris":{"android":"levelo://app?vid=4769f653-6dce-4e43-b4a1-4a44ffd9fa0e","ios":"levelo://app?vid=4769f653-6dce-4e43-b4a1-4a44ffd9fa0e"},"vehicle_type_id":"4","last_reported":1779047915,"current_range_meters":7200,"station_id":"ce4bgi12rcd13ifvqb80","pricing_plan_id":"cebpf4jnsgd1na2vs0mg"},{"bike_id":"884ed760-7b7a-409a-a3f8-ab3fc1938d48","system_id":"levelo_inurba_marseille","lat":43.30305,"lon":5.36875,"is_reserved":false,"is_disabled":false,"rental_uris":{"android":"levelo://app?vid=884ed760-7b7a-409a-a3f8-ab3fc1938d48","ios":"levelo://app?vid=884ed760-7b7a-409a-a3f8-ab3fc1938d48"},"vehicle_type_id":"4","last_reported":1779047915,"current_range_meters":7200,"station_id":"ce4bgqh2rcd13ifvqc5g","pricing_plan_id":"cebpf4jnsgd1na2vs0mg"},{"bike_id":"3f39d2b6-7b2d-4d57-845c-4c962dadfaad","system_id":"levelo_inurba_marseille","lat":43.26965,"lon":5.36637,"is_reserved":false,"is_disabled":false,"rental_uris":{"android":"levelo://app?vid=3f39d2b6-7b2d-4d57-845c-4c962dadfaad","ios":"levelo://app?vid=3f39d2b6-7b2d-4d57-845c-4c962dadfaad"},"vehicle_type_id":"4","last_reported":1779047915,"current_range_meters":7200,"station_id":"","pricing_plan_id":"cebpf4jnsgd1na2vs0mg"},{"bike_id":"12b35af7-acd4-4e3f-a8f0-e1988b414249","system_id":"levelo_inurba_marseille","lat":43.29984,"lon":5.38486,"is_reserved":false,"is_disabled":false,"rental_uris":{"android":"levelo://app?vid=12b35af7-acd4-4e3f-a8f0-e1988b414249","ios":"levelo://app?vid=12b35af7-acd4-4e3f-a8f0-e1988b414249"},"vehicle_type_id":"4","last_reported":1779047915,"current_range_meters":7200,"station_id":"ce4bgj92rcd13ifvqbd0","pricing_plan_id":"cebpf4jnsgd1na2vs0mg"},{"bike_id":"7410179e-6e6c-4cf8-9f22-c088ba1f2e2f","system_id":"levelo_inurba_marseille","lat":43.28924,"lon":5.36642,"is_reserved":false,"is_disabled":false,"rental_uris":{"android":"levelo://app?vid=7410179e-6e6c-4cf8-9f22-c088ba1f2e2f","ios":"levelo://app?vid=7410179e-6e6c-4cf8-9f22-c088ba1f2e2f"},"vehicle_type_id":"4","last_reported":1779047915,"current_range_meters":7200,"station_id":"ce4bhap2rcd13ifvqek0","pricing_plan_id":"cebpf4jnsgd1na2vs0mg"},{"bike_id":"eb8ebb0d-c874-4c4f-9aef-bd9f11e8a2ff","system_id":"levelo_inurba_marseille","lat":43.29941,"lon":5.37191,"is_reserved":false,"is_disabled":false,"rental_uris":{"android":"levelo://app?vid=eb8ebb0d-c874-4c4f-9aef-bd9f11e8a2ff","ios":"levelo://app?vid=eb8ebb0d-c874-4c4f-9aef-bd9f11e8a2ff"},"vehicle_type_id":"4","last_reported":1779047915,"current_range_meters":7200,"station_id":"ce4bgr92rcd13ifvqc7g","pricing_plan_id":"cebpf4jnsgd1na2vs0mg"},{"bike_id":"728a7fef-5f59-4714-bdfc-45ee72d1f041","system_id":"levelo_inurba_marseille","lat":43.30789,"lon":5.37653,"is_reserved":false,"is_disabled":false,"rental_uris":{"android":"levelo://app?vid=728a7fef-5f59-4714-bdfc-45ee72d1f041","ios":"levelo://app?vid=728a7fef-5f59-4714-bdfc-45ee72d1f041"},"vehicle_type_id":"4","last_reported":1779047915,"current_range_meters":7200,"station_id":"ce4bgv92rcd13ifvqcq0","pricing_plan_id":"cebpf4jnsgd1na2vs0mg"},{"bike_id":"37e8354e-ce39-4030-9881-babd9feb5321","system_id":"levelo_inurba_marseille","lat":43.23962,"lon":5.36658,"is_reserved":false,"is_disabled":false,"rental_uris":{"android":"levelo://app?vid=37e8354e-ce39-4030-9881-babd9feb5321","ios":"levelo://app?vid=37e8354e-ce39-4030-9881-babd9feb5321"},"vehicle_type_id":"4","last_reported":1779047915,"current_range_meters":8000,"station_id":"ce4bhi12rcd13ifvqfp0","pricing_plan_id":"cebpf4jnsgd1na2vs0mg"},{"bike_id":"13b0c588-4d25-4fc2-bef0-8f0b93a73f94","system_id":"levelo_inurba_marseille","lat":43.24188,"lon":5.36383,"is_reserved":false,"is_disabled":false,"rental_uris":{"android":"levelo://app?vid=13b0c588-4d25-4fc2-bef0-8f0b93a73f94","ios":"levelo://app?vid=13b0c588-4d25-4fc2-bef0-8f0b93a73f94"},"vehicle_type_id":"4","last_reported":1779047915,"current_range_meters":8000,"station_id":"cpo36qri1sfpv3e86is0","pricing_plan_id":"cebpf4jnsgd1na2vs0mg"},{"bike_id":"dae64e63-b5b1-472f-bd6c-4583689cf002","system_id":"levelo_inurba_marseille","lat":43.31717,"lon":5.40471,"is_reserved":false,"is_disabled":false,"rental_uris":{"android":"levelo://app?vid=dae64e63-b5b1-472f-bd6c-4583689cf002","ios":"levelo://app?vid=dae64e63-b5b1-472f-bd6c-4583689cf002"},"vehicle_type_id":"4","last_reported":1779047915,"current_range_meters":8000,"station_id":"ce4bh012rcd13ifvqd00","pricing_plan_id":"cebpf4jnsgd1na2vs0mg"},{"bike_id":"47a2a6ef-37cb-4def-a862-a0fa35fdf816","system_id":"levelo_inurba_marseille","lat":43.29584,"lon":5.36745,"is_reserved":false,"is_disabled":false,"rental_uris":{"android":"levelo://app?vid=47a2a6ef-37cb-4def-a862-a0fa35fdf816","ios":"levelo://app?vid=47a2a6ef-37cb-4def-a862-a0fa35fdf816"},"vehicle_type_id":"4","last_reported":1779047915,"current_range_meters":8000,"station_id":"ce4bgph2rcd13ifvqc2g","pricing_plan_id":"cebpf4jnsgd1na2vs0mg"},{"bike_id":"48c02505-199c-4fa4-89dd-ddcb9ca5c618","system_id":"levelo_inurba_marseille","lat":43.23187,"lon":5.39981,"is_reserved":false,"is_disabled":false,"rental_uris":{"android":"levelo://app?vid=48c02505-199c-4fa4-89dd-ddcb9ca5c618","ios":"levelo://app?vid=48c02505-199c-4fa4-89dd-ddcb9ca5c618"},"vehicle_type_id":"4","last_reported":1779047915,"current_range_meters":8000,"station_id":"ce4bhn12rcd13ifvqgqg","pricing_plan_id":"cebpf4jnsgd1na2vs0mg"},{"bike_id":"0dcdde67-75c7-4ebd-9743-4fe75e8b69e4","system_id":"levelo_inurba_marseille","lat":43.27899,"lon":5.39594,"is_reserved":false,"is_disabled":false,"rental_uris":{"android":"levelo://app?vid=0dcdde67-75c7-4ebd-9743-4fe75e8b69e4","ios":"levelo://app?vid=0dcdde67-75c7-4ebd-9743-4fe75e8b69e4"},"vehicle_type_id":"4","last_reported":1779047915,"current_range_meters":8000,"station_id":"ce4bhf92rcd13ifvqf40","pricing_plan_id":"cebpf4jnsgd1na2vs0mg"},{"bike_id":"0c7fc7e6-13dd-4503-982c-8e557ba72f04","system_id":"levelo_inurba_marseille","lat":43.290649,"lon":5.371595,"is_reserved":false,"is_disabled":true,"rental_uris":{"android":"levelo://app?vid=0c7fc7e6-13dd-4503-982c-8e557ba72f04","ios":"levelo://app?vid=0c7fc7e6-13dd-4503-982c-8e557ba72f04"},"vehicle_type_id":"4","last_reported":1779047915,"current_range_meters":8000,"station_id":"ce4bh5p2rcd13ifvqe4g","pricing_plan_id":"cebpf4jnsgd1na2vs0mg"},{"bike_id":"2d7c74b1-3e33-42fb-af03-1aa65310216f","system_id":"levelo_inurba_marseille","lat":43.30656,"lon":5.40087,"is_reserved":false,"is_disabled":false,"rental_uris":{"android":"levelo://app?vid=2d7c74b1-3e33-42fb-af03-1aa65310216f","ios":"levelo://app?vid=2d7c74b1-3e33-42fb-af03-1aa65310216f"},"vehicle_type_id":"4","last_reported":1779047915,"current_range_meters":8000,"station_id":"ce4bh112rcd13ifvqda0","pricing_plan_id":"cebpf4jnsgd1na2vs0mg"},{"bike_id":"1d095693-2450-4994-a078-b31dc5ce940a","system_id":"levelo_inurba_marseille","lat":43.28654,"lon":5.37778,"is_reserved":false,"is_disabled":false,"rental_uris":{"android":"levelo://app?vid=1d095693-2450-4994-a078-b31dc5ce940a","ios":"levelo://app?vid=1d095693-2450-4994-a078-b31dc5ce940a"},"vehicle_type_id":"4","last_reported":1779047915,"current_range_meters":8000,"station_id":"","pricing_plan_id":"cebpf4jnsgd1na2vs0mg"},{"bike_id":"87fc2fe2-8003-4c12-8163-d269b0b19a58","system_id":"levelo_inurba_marseille","lat":43.29941,"lon":5.36553,"is_reserved":false,"is_disabled":false,"rental_uris":{"android":"levelo://app?vid=87fc2fe2-8003-4c12-8163-d269b0b19a58","ios":"levelo://app?vid=87fc2fe2-8003-4c12-8163-d269b0b19a58"},"vehicle_type_id":"4","last_reported":1779047915,"current_range_meters":8000,"station_id":"ce4bgm92rcd13ifvqbr0","pricing_plan_id":"cebpf4jnsgd1na2vs0mg"},{"bike_id":"fa1a045f-2361-486e-afa4-3f179565cf19","system_id":"levelo_inurba_marseille","lat":43.27035,"lon":5.38742,"is_reserved":false,"is_disabled":false,"rental_uris":{"android":"levelo://app?vid=fa1a045f-2361-486e-afa4-3f179565cf19","ios":"levelo://app?vid=fa1a045f-2361-486e-afa4-3f179565cf19"},"vehicle_type_id":"4","last_reported":1779047915,"current_range_meters":8000,"station_id":"","pricing_plan_id":"cebpf4jnsgd1na2vs0mg"},{"bike_id":"4838045d-2dc1-4de4-92b4-845f608da7de","system_id":"levelo_inurba_marseille","lat":43.29705,"lon":5.37704,"is_reserved":false,"is_disabled":false,"rental_uris":{"android":"levelo://app?vid=4838045d-2dc1-4de4-92b4-845f608da7de","ios":"levelo://app?vid=4838045d-2dc1-4de4-92b4-845f608da7de"},"vehicle_type_id":"4","last_reported":1779047915,"current_range_meters":8000,"station_id":"ce4bgkh2rcd13ifvqbl0","pricing_plan_id":"cebpf4jnsgd1na2vs0mg"},{"bike_id":"aa43b1eb-1edf-4714-a910-e5d20614fe5f","system_id":"levelo_inurba_marseille","lat":43.28363,"lon":5.38093,"is_reserved":false,"is_disabled":false,"rental_uris":{"android":"levelo://app?vid=aa43b1eb-1edf-4714-a910-e5d20614fe5f","ios":"levelo://app?vid=aa43b1eb-1edf-4714-a910-e5d20614fe5f"},"vehicle_type_id":"4","last_reported":1779047915,"current_range_meters":8000,"station_id":"ce4bh412rcd13ifvqdr0","pricing_plan_id":"cebpf4jnsgd1na2vs0mg"},{"bike_id":"a1637fae-cad0-4d79-b358-a47ebcc91caf","system_id":"levelo_inurba_marseille","lat":43.27863,"lon":5.38571,"is_reserved":false,"is_disabled":false,"rental_uris":{"android":"levelo://app?vid=a1637fae-cad0-4d79-b358-a47ebcc91caf","ios":"levelo://app?vid=a1637fae-cad0-4d79-b358-a47ebcc91caf"},"vehicle_type_id":"4","last_reported":1779047915,"current_range_meters":8000,"station_id":"","pricing_plan_id":"cebpf4jnsgd1na2vs0mg"},{"bike_id":"2e3ea795-a6bf-458f-844c-e7760666b217","system_id":"levelo_inurba_marseille","lat":43.21173,"lon":5.35106,"is_reserved":false,"is_disabled":false,"rental_uris":{"android":"levelo://app?vid=2e3ea795-a6bf-458f-844c-e7760666b217","ios":"levelo://app?vid=2e3ea795-a6bf-458f-844c-e7760666b217"},"vehicle_type_id":"4","last_reported":1779047915,"current_range_meters":8000,"station_id":"st_cvj6sg6p6f1abm77japg","pricing_plan_id":"cebpf4jnsgd1na2vs0mg"},{"bike_id":"ba9139b3-b8e8-4c83-a23a-5acff42cf9ab","system_id":"levelo_inurba_marseille","lat":43.24942,"lon":5.40486,"is_reserved":false,"is_disabled":false,"rental_uris":{"android":"levelo://app?vid=ba9139b3-b8e8-4c83-a23a-5acff42cf9ab","ios":"levelo://app?vid=ba9139b3-b8e8-4c83-a23a-5acff42cf9ab"},"vehicle_type_id":"4","last_reported":1779047915,"current_range_meters":8000,"station_id":"st_d2ngiaodas8pm72gd1h0","pricing_plan_id":"cebpf4jnsgd1na2vs0mg"},{"bike_id":"1d15c986-f1a6-4495-ac27-61a7b43ce6c2","system_id":"levelo_inurba_marseille","lat":43.29858,"lon":5.36252,"is_reserved":false,"is_disabled":false,"rental_uris":{"android":"levelo://app?vid=1d15c986-f1a6-4495-ac27-61a7b43ce6c2","ios":"levelo://app?vid=1d15c986-f1a6-4495-ac27-61a7b43ce6c2"},"vehicle_type_id":"4","last_reported":1779047915,"current_range_meters":8000,"station_id":"ce4bgpp2rcd13ifvqc3g","pricing_plan_id":"cebpf4jnsgd1na2vs0mg"},{"bike_id":"616a37b9-2d39-4d33-aa08-3afeee8eb5cc","system_id":"levelo_inurba_marseille","lat":43.24805,"lon":5.37457,"is_reserved":false,"is_disabled":false,"rental_uris":{"android":"levelo://app?vid=616a37b9-2d39-4d33-aa08-3afeee8eb5cc","ios":"levelo://app?vid=616a37b9-2d39-4d33-aa08-3afeee8eb5cc"},"vehicle_type_id":"4","last_reported":1779047915,"current_range_meters":8000,"station_id":"ce4bhgh2rcd13ifvqfb0","pricing_plan_id":"cebpf4jnsgd1na2vs0mg"},{"bike_id":"4ffd0320-caf1-4818-8470-812f3e330d06","system_id":"levelo_inurba_marseille","lat":43.28273,"lon":5.35056,"is_reserved":false,"is_disabled":true,"rental_uris":{"android":"levelo://app?vid=4ffd0320-caf1-4818-8470-812f3e330d06","ios":"levelo://app?vid=4ffd0320-caf1-4818-8470-812f3e330d06"},"vehicle_type_id":"4","last_reported":1779047915,"current_range_meters":8000,"station_id":"ce4bhbp2rcd13ifvqerg","pricing_plan_id":"cebpf4jnsgd1na2vs0mg"},{"bike_id":"8a899383-2252-45e1-aa80-7e646242b1a4","system_id":"levelo_inurba_marseille","lat":43.29278,"lon":5.40122,"is_reserved":false,"is_disabled":false,"rental_uris":{"android":"levelo://app?vid=8a899383-2252-45e1-aa80-7e646242b1a4","ios":"levelo://app?vid=8a899383-2252-45e1-aa80-7e646242b1a4"},"vehicle_type_id":"4","last_reported":1779047915,"current_range_meters":8000,"station_id":"ce4bh312rcd13ifvqdk0","pricing_plan_id":"cebpf4jnsgd1na2vs0mg"},{"bike_id":"bb9cd75a-b7c6-451a-ae1b-ccad6972075c","system_id":"levelo_inurba_marseille","lat":43.337444,"lon":5.374475,"is_reserved":false,"is_disabled":false,"rental_uris":{"android":"levelo://app?vid=bb9cd75a-b7c6-451a-ae1b-ccad6972075c","ios":"levelo://app?vid=bb9cd75a-b7c6-451a-ae1b-ccad6972075c"},"vehicle_type_id":"4","last_reported":1779047915,"current_range_meters":8000,"station_id":"","pricing_plan_id":"cebpf4jnsgd1na2vs0mg"},{"bike_id":"50a6d4b0-42a5-49b2-a746-3042908bb0af","system_id":"levelo_inurba_marseille","lat":43.29195,"lon":5.39317,"is_reserved":false,"is_disabled":false,"rental_uris":{"android":"levelo://app?vid=50a6d4b0-42a5-49b2-a746-3042908bb0af","ios":"levelo://app?vid=50a6d4b0-42a5-49b2-a746-3042908bb0af"},"vehicle_type_id":"4","last_reported":1779047915,"current_range_meters":8000,"station_id":"ce4bh192rcd13ifvqdd0","pricing_plan_id":"cebpf4jnsgd1na2vs0mg"},{"bike_id":"0608dea6-b2c7-4660-b739-1f53923d87c1","system_id":"levelo_inurba_marseille","lat":43.30601,"lon":5.39359,"is_reserved":false,"is_disabled":true,"rental_uris":{"android":"levelo://app?vid=0608dea6-b2c7-4660-b739-1f53923d87c1","ios":"levelo://app?vid=0608dea6-b2c7-4660-b739-1f53923d87c1"},"vehicle_type_id":"4","last_reported":1779047915,"current_range_meters":8000,"station_id":"ce4bh0p2rcd13ifvqd80","pricing_plan_id":"cebpf4jnsgd1na2vs0mg"},{"bike_id":"8cbe947f-15aa-434a-b6b5-a2b50d5b0522","system_id":"levelo_inurba_marseille","lat":43.27888,"lon":5.39605,"is_reserved":false,"is_disabled":false,"rental_uris":{"android":"levelo://app?vid=8cbe947f-15aa-434a-b6b5-a2b50d5b0522","ios":"levelo://app?vid=8cbe947f-15aa-434a-b6b5-a2b50d5b0522"},"vehicle_type_id":"4","last_reported":1779047915,"current_range_meters":8000,"station_id":"ce4bhf92rcd13ifvqf40","pricing_plan_id":"cebpf4jnsgd1na2vs0mg"},{"bike_id":"e2a000ce-dcb8-4ea0-a726-21acbdc29397","system_id":"levelo_inurba_marseille","lat":43.30435,"lon":5.41289,"is_reserved":false,"is_disabled":false,"rental_uris":{"android":"levelo://app?vid=e2a000ce-dcb8-4ea0-a726-21acbdc29397","ios":"levelo://app?vid=e2a000ce-dcb8-4ea0-a726-21acbdc29397"},"vehicle_type_id":"4","last_reported":1779047915,"current_range_meters":8000,"station_id":"ce4bhop2rcd13ifvqh8g","pricing_plan_id":"cebpf4jnsgd1na2vs0mg"},{"bike_id":"6d7f96b4-b736-45ee-be41-e9983494cbea","system_id":"levelo_inurba_marseille","lat":43.28949,"lon":5.38375,"is_reserved":false,"is_disabled":false,"rental_uris":{"android":"levelo://app?vid=6d7f96b4-b736-45ee-be41-e9983494cbea","ios":"levelo://app?vid=6d7f96b4-b736-45ee-be41-e9983494cbea"},"vehicle_type_id":"4","last_reported":1779047915,"current_range_meters":8000,"station_id":"ce4bh612rcd13ifvqe6g","pricing_plan_id":"cebpf4jnsgd1na2vs0mg"},{"bike_id":"82732d27-a6fd-4309-8f0b-8efeb9732e2d","system_id":"levelo_inurba_marseille","lat":43.27561,"lon":5.3842,"is_reserved":false,"is_disabled":false,"rental_uris":{"android":"levelo://app?vid=82732d27-a6fd-4309-8f0b-8efeb9732e2d","ios":"levelo://app?vid=82732d27-a6fd-4309-8f0b-8efeb9732e2d"},"vehicle_type_id":"4","last_reported":1779047915,"current_range_meters":8000,"station_id":"ce4bhh92rcd13ifvqfi0","pricing_plan_id":"cebpf4jnsgd1na2vs0mg"},{"bike_id":"0625ea84-8105-448f-87d5-411c05db2009","system_id":"levelo_inurba_marseille","lat":43.2983,"lon":5.41679,"is_reserved":false,"is_disabled":false,"rental_uris":{"android":"levelo://app?vid=0625ea84-8105-448f-87d5-411c05db2009","ios":"levelo://app?vid=0625ea84-8105-448f-87d5-411c05db2009"},"vehicle_type_id":"4","last_reported":1779047915,"current_range_meters":8000,"station_id":"","pricing_plan_id":"cebpf4jnsgd1na2vs0mg"},{"bike_id":"8f9937f3-c536-45b0-80fa-7127a471059b","system_id":"levelo_inurba_marseille","lat":43.28602,"lon":5.46811,"is_reserved":false,"is_disabled":false,"rental_uris":{"android":"levelo://app?vid=8f9937f3-c536-45b0-80fa-7127a471059b","ios":"levelo://app?vid=8f9937f3-c536-45b0-80fa-7127a471059b"},"vehicle_type_id":"4","last_reported":1779047915,"current_range_meters":8000,"station_id":"st_d6tc3vkotcvc738tfjhg","pricing_plan_id":"cebpf4jnsgd1na2vs0mg"},{"bike_id":"76cf3572-f18a-4944-8f98-d22b0c513847","system_id":"levelo_inurba_marseille","lat":43.29704,"lon":5.37667,"is_reserved":false,"is_disabled":false,"rental_uris":{"android":"levelo://app?vid=76cf3572-f18a-4944-8f98-d22b0c513847","ios":"levelo://app?vid=76cf3572-f18a-4944-8f98-d22b0c513847"},"vehicle_type_id":"4","last_reported":1779047915,"current_range_meters":8000,"station_id":"ce4bgkh2rcd13ifvqbl0","pricing_plan_id":"cebpf4jnsgd1na2vs0mg"},{"bike_id":"6adcefd4-5da8-42e2-8b68-86fc98bbdd70","system_id":"levelo_inurba_marseille","lat":43.3135,"lon":5.44127,"is_reserved":false,"is_disabled":false,"rental_uris":{"android":"levelo://app?vid=6adcefd4-5da8-42e2-8b68-86fc98bbdd70","ios":"levelo://app?vid=6adcefd4-5da8-42e2-8b68-86fc98bbdd70"},"vehicle_type_id":"4","last_reported":1779047915,"current_range_meters":8000,"station_id":"","pricing_plan_id":"cebpf4jnsgd1na2vs0mg"},{"bike_id":"43442916-2496-4a59-9563-08917babadbf","system_id":"levelo_inurba_marseille","lat":43.28665,"lon":5.38685,"is_reserved":false,"is_disabled":false,"rental_uris":{"android":"levelo://app?vid=43442916-2496-4a59-9563-08917babadbf","ios":"levelo://app?vid=43442916-2496-4a59-9563-08917babadbf"},"vehicle_type_id":"4","last_reported":1779047915,"current_range_meters":8000,"station_id":"ce4bh492rcd13ifvqdug","pricing_plan_id":"cebpf4jnsgd1na2vs0mg"},{"bike_id":"11f149fb-1408-4969-a9ff-b85a4b651e7c","system_id":"levelo_inurba_marseille","lat":43.26357,"lon":5.41083,"is_reserved":false,"is_disabled":false,"rental_uris":{"android":"levelo://app?vid=11f149fb-1408-4969-a9ff-b85a4b651e7c","ios":"levelo://app?vid=11f149fb-1408-4969-a9ff-b85a4b651e7c"},"vehicle_type_id":"4","last_reported":1779047915,"current_range_meters":8000,"station_id":"st_d4e5ca6na9uc73bfl5fg","pricing_plan_id":"cebpf4jnsgd1na2vs0mg"},{"bike_id":"0b966623-9902-41cb-9087-ebf90f15881f","system_id":"levelo_inurba_marseille","lat":43.27811,"lon":5.40714,"is_reserved":false,"is_disabled":false,"rental_uris":{"android":"levelo://app?vid=0b966623-9902-41cb-9087-ebf90f15881f","ios":"levelo://app?vid=0b966623-9902-41cb-9087-ebf90f15881f"},"vehicle_type_id":"4","last_reported":1779047915,"current_range_meters":8000,"station_id":"ce4bhnh2rcd13ifvqgtg","pricing_plan_id":"cebpf4jnsgd1na2vs0mg"},{"bike_id":"6276bff5-4581-47e4-a8e1-b655b8d14bf7","system_id":"levelo_inurba_marseille","lat":43.31233,"lon":5.37814,"is_reserved":false,"is_disabled":false,"rental_uris":{"android":"levelo://app?vid=6276bff5-4581-47e4-a8e1-b655b8d14bf7","ios":"levelo://app?vid=6276bff5-4581-47e4-a8e1-b655b8d14bf7"},"vehicle_type_id":"4","last_reported":1779047915,"current_range_meters":8000,"station_id":"","pricing_plan_id":"cebpf4jnsgd1na2vs0mg"},{"bike_id":"44d62942-015e-4e08-aa58-a151f9d82f40","system_id":"levelo_inurba_marseille","lat":43.25085,"lon":5.39494,"is_reserved":false,"is_disabled":false,"rental_uris":{"android":"levelo://app?vid=44d62942-015e-4e08-aa58-a151f9d82f40","ios":"levelo://app?vid=44d62942-015e-4e08-aa58-a151f9d82f40"},"vehicle_type_id":"4","last_reported":1779047915,"current_range_meters":8400,"station_id":"ce4bhm12rcd13ifvqgkg","pricing_plan_id":"cebpf4jnsgd1na2vs0mg"},{"bike_id":"627b26f3-84b0-47c1-9a7d-7d4e921513f2","system_id":"levelo_inurba_marseille","lat":43.29193,"lon":5.39322,"is_reserved":false,"is_disabled":false,"rental_uris":{"android":"levelo://app?vid=627b26f3-84b0-47c1-9a7d-7d4e921513f2","ios":"levelo://app?vid=627b26f3-84b0-47c1-9a7d-7d4e921513f2"},"vehicle_type_id":"4","last_reported":1779047915,"current_range_meters":8400,"station_id":"ce4bh192rcd13ifvqdd0","pricing_plan_id":"cebpf4jnsgd1na2vs0mg"},{"bike_id":"c802a554-9fb5-4e10-819d-3615d5152820","system_id":"levelo_inurba_marseille","lat":43.23982,"lon":5.36621,"is_reserved":false,"is_disabled":false,"rental_uris":{"android":"levelo://app?vid=c802a554-9fb5-4e10-819d-3615d5152820","ios":"levelo://app?vid=c802a554-9fb5-4e10-819d-3615d5152820"},"vehicle_type_id":"4","last_reported":1779047915,"current_range_meters":8400,"station_id":"ce4bhi12rcd13ifvqfp0","pricing_plan_id":"cebpf4jnsgd1na2vs0mg"},{"bike_id":"fb13ce5a-b947-4685-af35-f885d7c76828","system_id":"levelo_inurba_marseille","lat":43.26226,"lon":5.40462,"is_reserved":false,"is_disabled":false,"rental_uris":{"android":"levelo://app?vid=fb13ce5a-b947-4685-af35-f885d7c76828","ios":"levelo://app?vid=fb13ce5a-b947-4685-af35-f885d7c76828"},"vehicle_type_id":"4","last_reported":1779047915,"current_range_meters":8400,"station_id":"ce4bhmh2rcd13ifvqgmg","pricing_plan_id":"cebpf4jnsgd1na2vs0mg"},{"bike_id":"a07fc93a-0889-42f5-b604-e39f1548e4a2","system_id":"levelo_inurba_marseille","lat":43.27991,"lon":5.40011,"is_reserved":false,"is_disabled":false,"rental_uris":{"android":"levelo://app?vid=a07fc93a-0889-42f5-b604-e39f1548e4a2","ios":"levelo://app?vid=a07fc93a-0889-42f5-b604-e39f1548e4a2"},"vehicle_type_id":"4","last_reported":1779047915,"current_range_meters":8400,"station_id":"ce4bho92rcd13ifvqh4g","pricing_plan_id":"cebpf4jnsgd1na2vs0mg"},{"bike_id":"4280f3b9-7424-4daa-b934-ee7e1773b5ea","system_id":"levelo_inurba_marseille","lat":43.27063,"lon":5.38304,"is_reserved":false,"is_disabled":false,"rental_uris":{"android":"levelo://app?vid=4280f3b9-7424-4daa-b934-ee7e1773b5ea","ios":"levelo://app?vid=4280f3b9-7424-4daa-b934-ee7e1773b5ea"},"vehicle_type_id":"4","last_reported":1779047915,"current_range_meters":8400,"station_id":"st_d3n2fo6cfp8s73cte1j0","pricing_plan_id":"cebpf4jnsgd1na2vs0mg"},{"bike_id":"332f0f18-438c-4d98-a30f-6bc7a8ac3ae6","system_id":"levelo_inurba_marseille","lat":43.28617,"lon":5.39859,"is_reserved":false,"is_disabled":false,"rental_uris":{"android":"levelo://app?vid=332f0f18-438c-4d98-a30f-6bc7a8ac3ae6","ios":"levelo://app?vid=332f0f18-438c-4d98-a30f-6bc7a8ac3ae6"},"vehicle_type_id":"4","last_reported":1779047915,"current_range_meters":8400,"station_id":"st_d4a7ka997mjs738ck50g","pricing_plan_id":"cebpf4jnsgd1na2vs0mg"},{"bike_id":"b81bfa2d-bdf1-466c-8696-75a73b68ab5f","system_id":"levelo_inurba_marseille","lat":43.24182,"lon":5.36386,"is_reserved":false,"is_disabled":true,"rental_uris":{"android":"levelo://app?vid=b81bfa2d-bdf1-466c-8696-75a73b68ab5f","ios":"levelo://app?vid=b81bfa2d-bdf1-466c-8696-75a73b68ab5f"},"vehicle_type_id":"4","last_reported":1779047915,"current_range_meters":8400,"station_id":"cpo36qri1sfpv3e86is0","pricing_plan_id":"cebpf4jnsgd1na2vs0mg"},{"bike_id":"4403e0f2-3728-4b55-9ee7-4919ddfa29cf","system_id":"levelo_inurba_marseille","lat":43.29782,"lon":5.41648,"is_reserved":false,"is_disabled":false,"rental_uris":{"android":"levelo://app?vid=4403e0f2-3728-4b55-9ee7-4919ddfa29cf","ios":"levelo://app?vid=4403e0f2-3728-4b55-9ee7-4919ddfa29cf"},"vehicle_type_id":"4","last_reported":1779047915,"current_range_meters":8400,"station_id":"","pricing_plan_id":"cebpf4jnsgd1na2vs0mg"},{"bike_id":"01d1c558-37a9-4044-a28f-feac44a528c6","system_id":"levelo_inurba_marseille","lat":43.27054,"lon":5.4026,"is_reserved":false,"is_disabled":false,"rental_uris":{"android":"levelo://app?vid=01d1c558-37a9-4044-a28f-feac44a528c6","ios":"levelo://app?vid=01d1c558-37a9-4044-a28f-feac44a528c6"},"vehicle_type_id":"4","last_reported":1779047915,"current_range_meters":8400,"station_id":"ce4bhk92rcd13ifvqgc0","pricing_plan_id":"cebpf4jnsgd1na2vs0mg"},{"bike_id":"2a0f5a5f-e48d-4a40-83ca-b49fb42d8f35","system_id":"levelo_inurba_marseille","lat":43.29265,"lon":5.38444,"is_reserved":false,"is_disabled":false,"rental_uris":{"android":"levelo://app?vid=2a0f5a5f-e48d-4a40-83ca-b49fb42d8f35","ios":"levelo://app?vid=2a0f5a5f-e48d-4a40-83ca-b49fb42d8f35"},"vehicle_type_id":"4","last_reported":1779047915,"current_range_meters":8400,"station_id":"ce4bh692rcd13ifvqea0","pricing_plan_id":"cebpf4jnsgd1na2vs0mg"},{"bike_id":"dbff2f56-fecc-4566-9e72-f251e59a0a58","system_id":"levelo_inurba_marseille","lat":43.22548,"lon":5.41692,"is_reserved":false,"is_disabled":false,"rental_uris":{"android":"levelo://app?vid=dbff2f56-fecc-4566-9e72-f251e59a0a58","ios":"levelo://app?vid=dbff2f56-fecc-4566-9e72-f251e59a0a58"},"vehicle_type_id":"4","last_reported":1779047915,"current_range_meters":8400,"station_id":"st_d2o4gvlbi1j2169b742g","pricing_plan_id":"cebpf4jnsgd1na2vs0mg"},{"bike_id":"126735d8-a6b3-4888-aa40-5a961ac244e7","system_id":"levelo_inurba_marseille","lat":43.31886,"lon":5.368,"is_reserved":false,"is_disabled":false,"rental_uris":{"android":"levelo://app?vid=126735d8-a6b3-4888-aa40-5a961ac244e7","ios":"levelo://app?vid=126735d8-a6b3-4888-aa40-5a961ac244e7"},"vehicle_type_id":"4","last_reported":1779047915,"current_range_meters":8400,"station_id":"st_d6o2h0d0559c73evc1b0","pricing_plan_id":"cebpf4jnsgd1na2vs0mg"},{"bike_id":"5d23e7ca-539a-488d-b581-4fc9ac04d4bf","system_id":"levelo_inurba_marseille","lat":43.24816,"lon":5.3743,"is_reserved":false,"is_disabled":false,"rental_uris":{"android":"levelo://app?vid=5d23e7ca-539a-488d-b581-4fc9ac04d4bf","ios":"levelo://app?vid=5d23e7ca-539a-488d-b581-4fc9ac04d4bf"},"vehicle_type_id":"4","last_reported":1779047915,"current_range_meters":8400,"station_id":"ce4bhgh2rcd13ifvqfb0","pricing_plan_id":"cebpf4jnsgd1na2vs0mg"},{"bike_id":"2965f993-c553-4a93-b31f-7339498805aa","system_id":"levelo_inurba_marseille","lat":43.29244,"lon":5.36033,"is_reserved":false,"is_disabled":true,"rental_uris":{"android":"levelo://app?vid=2965f993-c553-4a93-b31f-7339498805aa","ios":"levelo://app?vid=2965f993-c553-4a93-b31f-7339498805aa"},"vehicle_type_id":"4","last_reported":1779047915,"current_range_meters":8400,"station_id":"ce4bhbh2rcd13ifvqeqg","pricing_plan_id":"cebpf4jnsgd1na2vs0mg"},{"bike_id":"8efef881-1519-49b8-95df-1da3bd7d822c","system_id":"levelo_inurba_marseille","lat":43.2394,"lon":5.3663,"is_reserved":false,"is_disabled":false,"rental_uris":{"android":"levelo://app?vid=8efef881-1519-49b8-95df-1da3bd7d822c","ios":"levelo://app?vid=8efef881-1519-49b8-95df-1da3bd7d822c"},"vehicle_type_id":"4","last_reported":1779047915,"current_range_meters":8400,"station_id":"ce4bhi12rcd13ifvqfp0","pricing_plan_id":"cebpf4jnsgd1na2vs0mg"},{"bike_id":"a00582bb-14ee-4488-b76d-e923712179d5","system_id":"levelo_inurba_marseille","lat":43.22554,"lon":5.41634,"is_reserved":false,"is_disabled":false,"rental_uris":{"android":"levelo://app?vid=a00582bb-14ee-4488-b76d-e923712179d5","ios":"levelo://app?vid=a00582bb-14ee-4488-b76d-e923712179d5"},"vehicle_type_id":"4","last_reported":1779047915,"current_range_meters":8400,"station_id":"st_d2o4gvlbi1j2169b742g","pricing_plan_id":"cebpf4jnsgd1na2vs0mg"},{"bike_id":"a1fc7c39-8346-40ae-a928-1af180cc97df","system_id":"levelo_inurba_marseille","lat":43.24645,"lon":5.38886,"is_reserved":false,"is_disabled":false,"rental_uris":{"android":"levelo://app?vid=a1fc7c39-8346-40ae-a928-1af180cc97df","ios":"levelo://app?vid=a1fc7c39-8346-40ae-a928-1af180cc97df"},"vehicle_type_id":"4","last_reported":1779047915,"current_range_meters":8400,"station_id":"ce4bhg12rcd13ifvqf60","pricing_plan_id":"cebpf4jnsgd1na2vs0mg"},{"bike_id":"c607e0b1-2b1d-4776-bf18-1bde0ba0cad9","system_id":"levelo_inurba_marseille","lat":43.29817,"lon":5.37096,"is_reserved":false,"is_disabled":false,"rental_uris":{"android":"levelo://app?vid=c607e0b1-2b1d-4776-bf18-1bde0ba0cad9","ios":"levelo://app?vid=c607e0b1-2b1d-4776-bf18-1bde0ba0cad9"},"vehicle_type_id":"4","last_reported":1779047915,"current_range_meters":8400,"station_id":"ce4bgop2rcd13ifvqc1g","pricing_plan_id":"cebpf4jnsgd1na2vs0mg"},{"bike_id":"2f4b3587-bc7f-4f93-abe8-e0e70970735e","system_id":"levelo_inurba_marseille","lat":43.25305,"lon":5.41377,"is_reserved":false,"is_disabled":false,"rental_uris":{"android":"levelo://app?vid=2f4b3587-bc7f-4f93-abe8-e0e70970735e","ios":"levelo://app?vid=2f4b3587-bc7f-4f93-abe8-e0e70970735e"},"vehicle_type_id":"4","last_reported":1779047915,"current_range_meters":8400,"station_id":"","pricing_plan_id":"cebpf4jnsgd1na2vs0mg"},{"bike_id":"61d0f610-d76d-4e72-a50c-77105c920c33","system_id":"levelo_inurba_marseille","lat":43.33248,"lon":5.4059,"is_reserved":false,"is_disabled":false,"rental_uris":{"android":"levelo://app?vid=61d0f610-d76d-4e72-a50c-77105c920c33","ios":"levelo://app?vid=61d0f610-d76d-4e72-a50c-77105c920c33"},"vehicle_type_id":"4","last_reported":1779047915,"current_range_meters":8400,"station_id":"","pricing_plan_id":"cebpf4jnsgd1na2vs0mg"},{"bike_id":"6c56d950-4c74-4953-bd62-14662e522e80","system_id":"levelo_inurba_marseille","lat":43.30366,"lon":5.41884,"is_reserved":false,"is_disabled":false,"rental_uris":{"android":"levelo://app?vid=6c56d950-4c74-4953-bd62-14662e522e80","ios":"levelo://app?vid=6c56d950-4c74-4953-bd62-14662e522e80"},"vehicle_type_id":"4","last_reported":1779047915,"current_range_meters":8400,"station_id":"ce4bhop2rcd13ifvqh7g","pricing_plan_id":"cebpf4jnsgd1na2vs0mg"},{"bike_id":"67e76aeb-e290-4d9f-a86a-a4195e2bcdfa","system_id":"levelo_inurba_marseille","lat":43.32108,"lon":5.36758,"is_reserved":false,"is_disabled":false,"rental_uris":{"android":"levelo://app?vid=67e76aeb-e290-4d9f-a86a-a4195e2bcdfa","ios":"levelo://app?vid=67e76aeb-e290-4d9f-a86a-a4195e2bcdfa"},"vehicle_type_id":"4","last_reported":1779047915,"current_range_meters":8400,"station_id":"ce4bhrh2rcd13ifvqhug","pricing_plan_id":"cebpf4jnsgd1na2vs0mg"},{"bike_id":"8fbd00b2-4f70-4e2f-aae4-94df51420d59","system_id":"levelo_inurba_marseille","lat":43.3032,"lon":5.36908,"is_reserved":false,"is_disabled":false,"rental_uris":{"android":"levelo://app?vid=8fbd00b2-4f70-4e2f-aae4-94df51420d59","ios":"levelo://app?vid=8fbd00b2-4f70-4e2f-aae4-94df51420d59"},"vehicle_type_id":"4","last_reported":1779047915,"current_range_meters":8400,"station_id":"ce4bgqh2rcd13ifvqc5g","pricing_plan_id":"cebpf4jnsgd1na2vs0mg"},{"bike_id":"ca955cfb-b66c-4bda-a443-96239a71511c","system_id":"levelo_inurba_marseille","lat":43.29447,"lon":5.39742,"is_reserved":false,"is_disabled":false,"rental_uris":{"android":"levelo://app?vid=ca955cfb-b66c-4bda-a443-96239a71511c","ios":"levelo://app?vid=ca955cfb-b66c-4bda-a443-96239a71511c"},"vehicle_type_id":"4","last_reported":1779047915,"current_range_meters":8400,"station_id":"ce4bh3h2rcd13ifvqdo0","pricing_plan_id":"cebpf4jnsgd1na2vs0mg"},{"bike_id":"fec971bb-1db9-4af9-8b7e-85ceb2a36730","system_id":"levelo_inurba_marseille","lat":43.33188,"lon":5.37671,"is_reserved":false,"is_disabled":false,"rental_uris":{"android":"levelo://app?vid=fec971bb-1db9-4af9-8b7e-85ceb2a36730","ios":"levelo://app?vid=fec971bb-1db9-4af9-8b7e-85ceb2a36730"},"vehicle_type_id":"4","last_reported":1779047915,"current_range_meters":8400,"station_id":"st_d46cu089ee8s73dldbu0","pricing_plan_id":"cebpf4jnsgd1na2vs0mg"},