{"last_updated":1726553575,"ttl":30,"version":"2.2","data":{"bikes":[{"bike_id":"18d6962d-b5d0-4cf1-8d82-4aef16436bc2","system_id":"levelo_inurba_marseille","lat":43.28624,"lon":5.35131,"is_reserved":false,"is_disabled":false,"rental_uris":{"android":"levelo://app?vid=18d6962d-b5d0-4cf1-8d82-4aef16436bc2","ios":"levelo://app?vid=18d6962d-b5d0-4cf1-8d82-4aef16436bc2"},"vehicle_type_id":"4","last_reported":1726553575,"current_range_meters":38800,"station_id":"ce4bhch2rcd13ifvqeug","pricing_plan_id":"cebpf4jnsgd1na2vs0mg"},{"bike_id":"00680850-50d0-4792-883e-8a72362dcd4a","system_id":"levelo_inurba_marseille","lat":43.27492,"lon":5.42456,"is_reserved":false,"is_disabled":false,"rental_uris":{"android":"levelo://app?vid=00680850-50d0-4792-883e-8a72362dcd4a","ios":"levelo://app?vid=00680850-50d0-4792-883e-8a72362dcd4a"},"vehicle_type_id":"4","last_reported":1726553575,"current_range_meters":35600,"station_id":"ce4bhn92rcd13ifvqgrg","pricing_plan_id":"cebpf4jnsgd1na2vs0mg"},{"bike_id":"f16211a6-d40c-4ac2-8a64-a62358af3bfe","system_id":"levelo_inurba_marseille","lat":43.25109,"lon":5.40341,"is_reserved":false,"is_disabled":false,"rental_uris":{"android":"levelo://app?vid=f16211a6-d40c-4ac2-8a64-a62358af3bfe","ios":"levelo://app?vid=f16211a6-d40c-4ac2-8a64-a62358af3bfe"},"vehicle_type_id":"4","last_reported":1726553575,"current_range_meters":23200,"station_id":"ce4bhlh2rcd13ifvqgig","pricing_plan_id":"cebpf4jnsgd1na2vs0mg"},{"bike_id":"cf5b0f72-4e3e-4b93-9c28-7947369b5199","system_id":"levelo_inurba_marseille","lat":43.33726,"lon":5.39185,"is_reserved":false,"is_disabled":false,"rental_uris":{"android":"levelo://app?vid=cf5b0f72-4e3e-4b93-9c28-7947369b5199","ios":"levelo://app?vid=cf5b0f72-4e3e-4b93-9c28-7947369b5199"},"vehicle_type_id":"4","last_reported":1726553575,"current_range_meters":18800,"station_id":"ce4bhr92rcd13ifvqhsg","pricing_plan_id":"cebpf4jnsgd1na2vs0mg"},{"bike_id":"e58e4e10-994d-474f-afcc-7b41ddc63dfe","system_id":"levelo_inurba_marseille","lat":43.28152,"lon":5.42638,"is_reserved":false,"is_disabled":false,"rental_uris":{"android":"levelo://app?vid=e58e4e10-994d-474f-afcc-7b41ddc63dfe","ios":"levelo://app?vid=e58e4e10-994d-474f-afcc-7b41ddc63dfe"},"vehicle_type_id":"4","last_reported":1726553575,"current_range_meters":38800,"station_id":"ce4bhnh2rcd13ifvqgug","pricing_plan_id":"cebpf4jnsgd1na2vs0mg"},{"bike_id":"43176770-eaee-4996-86c7-d408161e4ce6","system_id":"levelo_inurba_marseille","lat":43.29892,"lon":5.43668,"is_reserved":false,"is_disabled":false,"rental_uris":{"android":"levelo://app?vid=43176770-eaee-4996-86c7-d408161e4ce6","ios":"levelo://app?vid=43176770-eaee-4996-86c7-d408161e4ce6"},"vehicle_type_id":"4","last_reported":1726553575,"current_range_meters":7200,"station_id":"ce4bhpp2rcd13ifvqhfg","pricing_plan_id":"cebpf4jnsgd1na2vs0mg"},{"bike_id":"9f29b64f-a31a-43c8-9b96-9614d0697194","system_id":"levelo_inurba_marseille","lat":43.30595,"lon":5.39361,"is_reserved":false,"is_disabled":false,"rental_uris":{"android":"levelo://app?vid=9f29b64f-a31a-43c8-9b96-9614d0697194","ios":"levelo://app?vid=9f29b64f-a31a-43c8-9b96-9614d0697194"},"vehicle_type_id":"4","last_reported":1726553575,"current_range_meters":19200,"station_id":"ce4bh0p2rcd13ifvqd80","pricing_plan_id":"cebpf4jnsgd1na2vs0mg"},{"bike_id":"9ae74781-e291-4f41-9df0-8d2a770621ca","system_id":"levelo_inurba_marseille","lat":43.3303,"lon":5.39043,"is_reserved":false,"is_disabled":false,"rental_uris":{"android":"levelo://app?vid=9ae74781-e291-4f41-9df0-8d2a770621ca","ios":"levelo://app?vid=9ae74781-e291-4f41-9df0-8d2a770621ca"},"vehicle_type_id":"4","last_reported":1726553575,"current_range_meters":39200,"station_id":"ce4bhr92rcd13ifvqhrg","pricing_plan_id":"cebpf4jnsgd1na2vs0mg"},{"bike_id":"687ffc61-ed4c-4ca8-9b44-7950dd971550","system_id":"levelo_inurba_marseille","lat":43.24082,"lon":5.37754,"is_reserved":false,"is_disabled":false,"rental_uris":{"android":"levelo://app?vid=687ffc61-ed4c-4ca8-9b44-7950dd971550","ios":"levelo://app?vid=687ffc61-ed4c-4ca8-9b44-7950dd971550"},"vehicle_type_id":"4","last_reported":1726553575,"current_range_meters":30400,"station_id":"ce4bhnp2rcd13ifvqgvg","pricing_plan_id":"cebpf4jnsgd1na2vs0mg"},{"bike_id":"9ff51e33-edb9-4350-bfee-8e4cf4b11572","system_id":"levelo_inurba_marseille","lat":43.28156,"lon":5.42647,"is_reserved":false,"is_disabled":false,"rental_uris":{"android":"levelo://app?vid=9ff51e33-edb9-4350-bfee-8e4cf4b11572","ios":"levelo://app?vid=9ff51e33-edb9-4350-bfee-8e4cf4b11572"},"vehicle_type_id":"4","last_reported":1726553575,"current_range_meters":38400,"station_id":"ce4bhnh2rcd13ifvqgug","pricing_plan_id":"cebpf4jnsgd1na2vs0mg"},{"bike_id":"73e35758-9d49-4744-bb20-f16d5c1ccca8","system_id":"levelo_inurba_marseille","lat":43.302094,"lon":5.394628,"is_reserved":false,"is_disabled":false,"rental_uris":{"android":"levelo://app?vid=73e35758-9d49-4744-bb20-f16d5c1ccca8","ios":"levelo://app?vid=73e35758-9d49-4744-bb20-f16d5c1ccca8"},"vehicle_type_id":"4","last_reported":1726553575,"current_range_meters":30000,"station_id":"ce4bhop2rcd13ifvqh7g","pricing_plan_id":"cebpf4jnsgd1na2vs0mg"},{"bike_id":"8314b9bb-fc84-40e7-9b75-92d23f4a451a","system_id":"levelo_inurba_marseille","lat":43.279236,"lon":5.410296,"is_reserved":false,"is_disabled":false,"rental_uris":{"android":"levelo://app?vid=8314b9bb-fc84-40e7-9b75-92d23f4a451a","ios":"levelo://app?vid=8314b9bb-fc84-40e7-9b75-92d23f4a451a"},"vehicle_type_id":"4","last_reported":1726553575,"current_range_meters":30000,"station_id":"ce4bhnp2rcd13ifvqh0g","pricing_plan_id":"cebpf4jnsgd1na2vs0mg"},{"bike_id":"679c7330-de8a-45ef-a863-d5ab6eb53c1b","system_id":"levelo_inurba_marseille","lat":43.29038,"lon":5.37569,"is_reserved":false,"is_disabled":false,"rental_uris":{"android":"levelo://app?vid=679c7330-de8a-45ef-a863-d5ab6eb53c1b","ios":"levelo://app?vid=679c7330-de8a-45ef-a863-d5ab6eb53c1b"},"vehicle_type_id":"4","last_reported":1726553575,"current_range_meters":36000,"station_id":"ce4bh692rcd13ifvqe90","pricing_plan_id":"cebpf4jnsgd1na2vs0mg"},{"bike_id":"3cf0e088-ea84-4ed1-9cc1-9091a64cd05a","system_id":"levelo_inurba_marseille","lat":43.26943,"lon":5.40254,"is_reserved":false,"is_disabled":false,"rental_uris":{"android":"levelo://app?vid=3cf0e088-ea84-4ed1-9cc1-9091a64cd05a","ios":"levelo://app?vid=3cf0e088-ea84-4ed1-9cc1-9091a64cd05a"},"vehicle_type_id":"4","last_reported":1726553575,"current_range_meters":20400,"station_id":"cjm6bp8fraef2m0cb0m0","pricing_plan_id":"cebpf4jnsgd1na2vs0mg"},{"bike_id":"13ec4916-f0ea-4897-8afc-596425b42c42","system_id":"levelo_inurba_marseille","lat":43.23187,"lon":5.35556,"is_reserved":false,"is_disabled":false,"rental_uris":{"android":"levelo://app?vid=13ec4916-f0ea-4897-8afc-596425b42c42","ios":"levelo://app?vid=13ec4916-f0ea-4897-8afc-596425b42c42"},"vehicle_type_id":"4","last_reported":1726553575,"current_range_meters":10800,"station_id":"ce4bhu92rcd13ifvqi70","pricing_plan_id":"cebpf4jnsgd1na2vs0mg"},{"bike_id":"e92289e0-b00e-420d-bbc9-625c76009d60","system_id":"levelo_inurba_marseille","lat":43.28154,"lon":5.42644,"is_reserved":false,"is_disabled":false,"rental_uris":{"android":"levelo://app?vid=e92289e0-b00e-420d-bbc9-625c76009d60","ios":"levelo://app?vid=e92289e0-b00e-420d-bbc9-625c76009d60"},"vehicle_type_id":"4","last_reported":1726553575,"current_range_meters":38400,"station_id":"ce4bhnh2rcd13ifvqgug","pricing_plan_id":"cebpf4jnsgd1na2vs0mg"},{"bike_id":"9d243943-f186-4f8f-b775-710d28fca1e0","system_id":"levelo_inurba_marseille","lat":43.32665,"lon":5.39486,"is_reserved":false,"is_disabled":false,"rental_uris":{"android":"levelo://app?vid=9d243943-f186-4f8f-b775-710d28fca1e0","ios":"levelo://app?vid=9d243943-f186-4f8f-b775-710d28fca1e0"},"vehicle_type_id":"4","last_reported":1726553575,"current_range_meters":36800,"station_id":"ce4bhq12rcd13ifvqhhg","pricing_plan_id":"cebpf4jnsgd1na2vs0mg"},{"bike_id":"8c616396-a94a-4332-aebd-d1ee08136d31","system_id":"levelo_inurba_marseille","lat":43.30598,"lon":5.39366,"is_reserved":false,"is_disabled":false,"rental_uris":{"android":"levelo://app?vid=8c616396-a94a-4332-aebd-d1ee08136d31","ios":"levelo://app?vid=8c616396-a94a-4332-aebd-d1ee08136d31"},"vehicle_type_id":"4","last_reported":1726553575,"current_range_meters":31200,"station_id":"ce4bh0p2rcd13ifvqd80","pricing_plan_id":"cebpf4jnsgd1na2vs0mg"},{"bike_id":"66804b6a-72f1-4b81-96af-6bf316c5e596","system_id":"levelo_inurba_marseille","lat":43.26568,"lon":5.38999,"is_reserved":false,"is_disabled":false,"rental_uris":{"android":"levelo://app?vid=66804b6a-72f1-4b81-96af-6bf316c5e596","ios":"levelo://app?vid=66804b6a-72f1-4b81-96af-6bf316c5e596"},"vehicle_type_id":"4","last_reported":1726553575,"current_range_meters":16000,"station_id":"ce4bhe12rcd13ifvqf30","pricing_plan_id":"cebpf4jnsgd1na2vs0mg"},{"bike_id":"08b69263-e001-4dc9-bd9b-61da1d7d6782","system_id":"levelo_inurba_marseille","lat":43.297943,"lon":5.404108,"is_reserved":false,"is_disabled":false,"rental_uris":{"android":"levelo://app?vid=08b69263-e001-4dc9-bd9b-61da1d7d6782","ios":"levelo://app?vid=08b69263-e001-4dc9-bd9b-61da1d7d6782"},"vehicle_type_id":"4","last_reported":1726553575,"current_range_meters":32000,"station_id":"ce4bh112rcd13ifvqd90","pricing_plan_id":"cebpf4jnsgd1na2vs0mg"},{"bike_id":"bd94582e-e61e-4e25-81f6-e34f64c6fc9f","system_id":"levelo_inurba_marseille","lat":43.29549,"lon":5.42284,"is_reserved":false,"is_disabled":false,"rental_uris":{"android":"levelo://app?vid=bd94582e-e61e-4e25-81f6-e34f64c6fc9f","ios":"levelo://app?vid=bd94582e-e61e-4e25-81f6-e34f64c6fc9f"},"vehicle_type_id":"4","last_reported":1726553575,"current_range_meters":32000,"station_id":"ce4bhph2rcd13ifvqhdg","pricing_plan_id":"cebpf4jnsgd1na2vs0mg"},{"bike_id":"f7ba75b6-9e74-43ff-abae-9f7d376ca3c4","system_id":"levelo_inurba_marseille","lat":43.31132,"lon":5.40106,"is_reserved":false,"is_disabled":false,"rental_uris":{"android":"levelo://app?vid=f7ba75b6-9e74-43ff-abae-9f7d376ca3c4","ios":"levelo://app?vid=f7ba75b6-9e74-43ff-abae-9f7d376ca3c4"},"vehicle_type_id":"4","last_reported":1726553575,"current_range_meters":38000,"station_id":"ce4bhq12rcd13ifvqhhg","pricing_plan_id":"cebpf4jnsgd1na2vs0mg"},{"bike_id":"d2d186e6-a364-4f4a-8275-6e166876e5d7","system_id":"levelo_inurba_marseille","lat":43.32536,"lon":5.41425,"is_reserved":false,"is_disabled":false,"rental_uris":{"android":"levelo://app?vid=d2d186e6-a364-4f4a-8275-6e166876e5d7","ios":"levelo://app?vid=d2d186e6-a364-4f4a-8275-6e166876e5d7"},"vehicle_type_id":"4","last_reported":1726553575,"current_range_meters":22000,"station_id":"ce4bhq12rcd13ifvqhhg","pricing_plan_id":"cebpf4jnsgd1na2vs0mg"},{"bike_id":"dbd298e0-a382-4414-92ca-00d7d938bcff","system_id":"levelo_inurba_marseille","lat":43.23199,"lon":5.35552,"is_reserved":false,"is_disabled":false,"rental_uris":{"android":"levelo://app?vid=dbd298e0-a382-4414-92ca-00d7d938bcff","ios":"levelo://app?vid=dbd298e0-a382-4414-92ca-00d7d938bcff"},"vehicle_type_id":"4","last_reported":1726553575,"current_range_meters":37600,"station_id":"ce4bhu92rcd13ifvqi70","pricing_plan_id":"cebpf4jnsgd1na2vs0mg"},{"bike_id":"c86c1aec-4ad5-40c5-a7f9-4f6555405ddf","system_id":"levelo_inurba_marseille","lat":43.30463,"lon":5.379,"is_reserved":false,"is_disabled":false,"rental_uris":{"android":"levelo://app?vid=c86c1aec-4ad5-40c5-a7f9-4f6555405ddf","ios":"levelo://app?vid=c86c1aec-4ad5-40c5-a7f9-4f6555405ddf"},"vehicle_type_id":"4","last_reported":1726553575,"current_range_meters":32800,"station_id":"ce4bgup2rcd13ifvqcn0","pricing_plan_id":"cebpf4jnsgd1na2vs0mg"},{"bike_id":"e8904b41-acca-4229-a2a5-043ecb9ffb03","system_id":"levelo_inurba_marseille","lat":43.29597,"lon":5.38112,"is_reserved":false,"is_disabled":false,"rental_uris":{"android":"levelo://app?vid=e8904b41-acca-4229-a2a5-043ecb9ffb03","ios":"levelo://app?vid=e8904b41-acca-4229-a2a5-043ecb9ffb03"},"vehicle_type_id":"4","last_reported":1726553575,"current_range_meters":24400,"station_id":"ce4bgl12rcd13ifvqbo0","pricing_plan_id":"cebpf4jnsgd1na2vs0mg"},{"bike_id":"8911eb2d-7b08-435f-8143-91d9c6dfff38","system_id":"levelo_inurba_marseille","lat":43.25941,"lon":5.40902,"is_reserved":false,"is_disabled":false,"rental_uris":{"android":"levelo://app?vid=8911eb2d-7b08-435f-8143-91d9c6dfff38","ios":"levelo://app?vid=8911eb2d-7b08-435f-8143-91d9c6dfff38"},"vehicle_type_id":"4","last_reported":1726553575,"current_range_meters":15200,"station_id":"ce4bhm92rcd13ifvqglg","pricing_plan_id":"cebpf4jnsgd1na2vs0mg"},{"bike_id":"6df1fa83-f877-461b-8237-c1c6f078bd27","system_id":"levelo_inurba_marseille","lat":43.30474,"lon":5.3791,"is_reserved":false,"is_disabled":false,"rental_uris":{"android":"levelo://app?vid=6df1fa83-f877-461b-8237-c1c6f078bd27","ios":"levelo://app?vid=6df1fa83-f877-461b-8237-c1c6f078bd27"},"vehicle_type_id":"4","last_reported":1726553575,"current_range_meters":32800,"station_id":"ce4bgup2rcd13ifvqcn0","pricing_plan_id":"cebpf4jnsgd1na2vs0mg"},{"bike_id":"59e50323-d2e7-4c43-b6ba-513ac92be97a","system_id":"levelo_inurba_marseille","lat":43.25821,"lon":5.39429,"is_reserved":false,"is_disabled":false,"rental_uris":{"android":"levelo://app?vid=59e50323-d2e7-4c43-b6ba-513ac92be97a","ios":"levelo://app?vid=59e50323-d2e7-4c43-b6ba-513ac92be97a"},"vehicle_type_id":"4","last_reported":1726553575,"current_range_meters":39200,"station_id":"","pricing_plan_id":"cebpf4jnsgd1na2vs0mg"},{"bike_id":"1a03f8ab-71f3-42ad-8dd4-a218a8dbf291","system_id":"levelo_inurba_marseille","lat":43.31486,"lon":5.37315,"is_reserved":false,"is_disabled":false,"rental_uris":{"android":"levelo://app?vid=1a03f8ab-71f3-42ad-8dd4-a218a8dbf291","ios":"levelo://app?vid=1a03f8ab-71f3-42ad-8dd4-a218a8dbf291"},"vehicle_type_id":"4","last_reported":1726553575,"current_range_meters":6800,"station_id":"ce4bgt12rcd13ifvqcd0","pricing_plan_id":"cebpf4jnsgd1na2vs0mg"},{"bike_id":"dec144c8-ef0c-4fef-a0e3-961ddef52258","system_id":"levelo_inurba_marseille","lat":43.29599,"lon":5.38102,"is_reserved":false,"is_disabled":false,"rental_uris":{"android":"levelo://app?vid=dec144c8-ef0c-4fef-a0e3-961ddef52258","ios":"levelo://app?vid=dec144c8-ef0c-4fef-a0e3-961ddef52258"},"vehicle_type_id":"4","last_reported":1726553575,"current_range_meters":14000,"station_id":"ce4bgl12rcd13ifvqbo0","pricing_plan_id":"cebpf4jnsgd1na2vs0mg"},{"bike_id":"c6d5723c-38df-48e7-8c64-55a9bbfb3561","system_id":"levelo_inurba_marseille","lat":43.30147,"lon":5.38086,"is_reserved":false,"is_disabled":false,"rental_uris":{"android":"levelo://app?vid=c6d5723c-38df-48e7-8c64-55a9bbfb3561","ios":"levelo://app?vid=c6d5723c-38df-48e7-8c64-55a9bbfb3561"},"vehicle_type_id":"4","last_reported":1726553575,"current_range_meters":20000,"station_id":"ce4bgjp2rcd13ifvqbh0","pricing_plan_id":"cebpf4jnsgd1na2vs0mg"},{"bike_id":"2a5808e5-1612-4dc1-a62b-b9c71459256c","system_id":"levelo_inurba_marseille","lat":43.34094,"lon":5.39103,"is_reserved":false,"is_disabled":false,"rental_uris":{"android":"levelo://app?vid=2a5808e5-1612-4dc1-a62b-b9c71459256c","ios":"levelo://app?vid=2a5808e5-1612-4dc1-a62b-b9c71459256c"},"vehicle_type_id":"4","last_reported":1726553575,"current_range_meters":12400,"station_id":"","pricing_plan_id":"cebpf4jnsgd1na2vs0mg"},{"bike_id":"03f057ab-78ba-4602-952f-cd279147a6ac","system_id":"levelo_inurba_marseille","lat":43.28014,"lon":5.39406,"is_reserved":false,"is_disabled":false,"rental_uris":{"android":"levelo://app?vid=03f057ab-78ba-4602-952f-cd279147a6ac","ios":"levelo://app?vid=03f057ab-78ba-4602-952f-cd279147a6ac"},"vehicle_type_id":"4","last_reported":1726553575,"current_range_meters":36400,"station_id":"","pricing_plan_id":"cebpf4jnsgd1na2vs0mg"},{"bike_id":"e75bdf37-6017-4dd9-8183-f2edc970ca06","system_id":"levelo_inurba_marseille","lat":43.23195,"lon":5.35548,"is_reserved":false,"is_disabled":false,"rental_uris":{"android":"levelo://app?vid=e75bdf37-6017-4dd9-8183-f2edc970ca06","ios":"levelo://app?vid=e75bdf37-6017-4dd9-8183-f2edc970ca06"},"vehicle_type_id":"4","last_reported":1726553575,"current_range_meters":31200,"station_id":"ce4bhu92rcd13ifvqi70","pricing_plan_id":"cebpf4jnsgd1na2vs0mg"},{"bike_id":"0b5b35db-5b56-44f3-bc2f-34b9aa05e8b6","system_id":"levelo_inurba_marseille","lat":43.26961,"lon":5.3864,"is_reserved":false,"is_disabled":false,"rental_uris":{"android":"levelo://app?vid=0b5b35db-5b56-44f3-bc2f-34b9aa05e8b6","ios":"levelo://app?vid=0b5b35db-5b56-44f3-bc2f-34b9aa05e8b6"},"vehicle_type_id":"4","last_reported":1726553575,"current_range_meters":9200,"station_id":"ce4bhh92rcd13ifvqfh0","pricing_plan_id":"cebpf4jnsgd1na2vs0mg"},{"bike_id":"854ef71a-b0ce-4b7e-853e-bc9e44a683bb","system_id":"levelo_inurba_marseille","lat":43.25936,"lon":5.40911,"is_reserved":false,"is_disabled":false,"rental_uris":{"android":"levelo://app?vid=854ef71a-b0ce-4b7e-853e-bc9e44a683bb","ios":"levelo://app?vid=854ef71a-b0ce-4b7e-853e-bc9e44a683bb"},"vehicle_type_id":"4","last_reported":1726553575,"current_range_meters":21600,"station_id":"ce4bhm92rcd13ifvqglg","pricing_plan_id":"cebpf4jnsgd1na2vs0mg"},{"bike_id":"1c7e7222-5f93-4f6c-9433-f6bfd34c9523","system_id":"levelo_inurba_marseille","lat":43.28335,"lon":5.38102,"is_reserved":false,"is_disabled":false,"rental_uris":{"android":"levelo://app?vid=1c7e7222-5f93-4f6c-9433-f6bfd34c9523","ios":"levelo://app?vid=1c7e7222-5f93-4f6c-9433-f6bfd34c9523"},"vehicle_type_id":"4","last_reported":1726553575,"current_range_meters":30400,"station_id":"ce4bh412rcd13ifvqdr0","pricing_plan_id":"cebpf4jnsgd1na2vs0mg"},{"bike_id":"c52e4848-dd66-46b8-a132-9836b7620028","system_id":"levelo_inurba_marseille","lat":43.25933,"lon":5.40911,"is_reserved":false,"is_disabled":false,"rental_uris":{"android":"levelo://app?vid=c52e4848-dd66-46b8-a132-9836b7620028","ios":"levelo://app?vid=c52e4848-dd66-46b8-a132-9836b7620028"},"vehicle_type_id":"4","last_reported":1726553575,"current_range_meters":19600,"station_id":"ce4bhm92rcd13ifvqglg","pricing_plan_id":"cebpf4jnsgd1na2vs0mg"},{"bike_id":"f60209f1-bb66-4649-a2f4-e3fd3060e157","system_id":"levelo_inurba_marseille","lat":43.28439,"lon":5.39181,"is_reserved":false,"is_disabled":false,"rental_uris":{"android":"levelo://app?vid=f60209f1-bb66-4649-a2f4-e3fd3060e157","ios":"levelo://app?vid=f60209f1-bb66-4649-a2f4-e3fd3060e157"},"vehicle_type_id":"4","last_reported":1726553575,"current_range_meters":36800,"station_id":"ce4bhoh2rcd13ifvqh5g","pricing_plan_id":"cebpf4jnsgd1na2vs0mg"},{"bike_id":"3b15907d-91f2-4c22-8163-1ac1ab4257d7","system_id":"levelo_inurba_marseille","lat":43.28346,"lon":5.38094,"is_reserved":false,"is_disabled":false,"rental_uris":{"android":"levelo://app?vid=3b15907d-91f2-4c22-8163-1ac1ab4257d7","ios":"levelo://app?vid=3b15907d-91f2-4c22-8163-1ac1ab4257d7"},"vehicle_type_id":"4","last_reported":1726553575,"current_range_meters":23200,"station_id":"ce4bh412rcd13ifvqdr0","pricing_plan_id":"cebpf4jnsgd1na2vs0mg"},{"bike_id":"661ced82-7677-4a67-9e55-a93ec612a975","system_id":"levelo_inurba_marseille","lat":43.30211,"lon":5.38349,"is_reserved":false,"is_disabled":false,"rental_uris":{"android":"levelo://app?vid=661ced82-7677-4a67-9e55-a93ec612a975","ios":"levelo://app?vid=661ced82-7677-4a67-9e55-a93ec612a975"},"vehicle_type_id":"4","last_reported":1726553575,"current_range_meters":34800,"station_id":"","pricing_plan_id":"cebpf4jnsgd1na2vs0mg"},{"bike_id":"f7c5f498-ff12-4314-8429-5f004ed18f79","system_id":"levelo_inurba_marseille","lat":43.30423,"lon":5.39736,"is_reserved":false,"is_disabled":false,"rental_uris":{"android":"levelo://app?vid=f7c5f498-ff12-4314-8429-5f004ed18f79","ios":"levelo://app?vid=f7c5f498-ff12-4314-8429-5f004ed18f79"},"vehicle_type_id":"4","last_reported":1726553575,"current_range_meters":23200,"station_id":"ce4bh092rcd13ifvqd20","pricing_plan_id":"cebpf4jnsgd1na2vs0mg"},{"bike_id":"87cb734b-2ed9-475c-96d0-2d96cf5859d3","system_id":"levelo_inurba_marseille","lat":43.3229,"lon":5.38263,"is_reserved":false,"is_disabled":false,"rental_uris":{"android":"levelo://app?vid=87cb734b-2ed9-475c-96d0-2d96cf5859d3","ios":"levelo://app?vid=87cb734b-2ed9-475c-96d0-2d96cf5859d3"},"vehicle_type_id":"4","last_reported":1726553575,"current_range_meters":23200,"station_id":"ce4bhr12rcd13ifvqhqg","pricing_plan_id":"cebpf4jnsgd1na2vs0mg"},{"bike_id":"a0484836-e78f-4571-a604-70e3d13786ef","system_id":"levelo_inurba_marseille","lat":43.24181,"lon":5.39739,"is_reserved":false,"is_disabled":false,"rental_uris":{"android":"levelo://app?vid=a0484836-e78f-4571-a604-70e3d13786ef","ios":"levelo://app?vid=a0484836-e78f-4571-a604-70e3d13786ef"},"vehicle_type_id":"4","last_reported":1726553575,"current_range_meters":23200,"station_id":"ce4bhn12rcd13ifvqgpg","pricing_plan_id":"cebpf4jnsgd1na2vs0mg"},{"bike_id":"6fcb671c-f04a-47fc-8948-e59988d81a5e","system_id":"levelo_inurba_marseille","lat":43.24078,"lon":5.37756,"is_reserved":false,"is_disabled":false,"rental_uris":{"android":"levelo://app?vid=6fcb671c-f04a-47fc-8948-e59988d81a5e","ios":"levelo://app?vid=6fcb671c-f04a-47fc-8948-e59988d81a5e"},"vehicle_type_id":"4","last_reported":1726553575,"current_range_meters":36800,"station_id":"ce4bhnp2rcd13ifvqgvg","pricing_plan_id":"cebpf4jnsgd1na2vs0mg"},{"bike_id":"90b9b63b-7cb1-4ff9-bb6e-508f03886439","system_id":"levelo_inurba_marseille","lat":43.302692,"lon":5.377448,"is_reserved":false,"is_disabled":false,"rental_uris":{"android":"levelo://app?vid=90b9b63b-7cb1-4ff9-bb6e-508f03886439","ios":"levelo://app?vid=90b9b63b-7cb1-4ff9-bb6e-508f03886439"},"vehicle_type_id":"4","last_reported":1726553575,"current_range_meters":33200,"station_id":"ce4bguh2rcd13ifvqcj0","pricing_plan_id":"cebpf4jnsgd1na2vs0mg"},{"bike_id":"0554ed39-aa56-4078-aa8f-1771d84240cc","system_id":"levelo_inurba_marseille","lat":43.27967,"lon":5.38708,"is_reserved":false,"is_disabled":false,"rental_uris":{"android":"levelo://app?vid=0554ed39-aa56-4078-aa8f-1771d84240cc","ios":"levelo://app?vid=0554ed39-aa56-4078-aa8f-1771d84240cc"},"vehicle_type_id":"4","last_reported":1726553575,"current_range_meters":3200,"station_id":"ce4bhg12rcd13ifvqf80","pricing_plan_id":"cebpf4jnsgd1na2vs0mg"},{"bike_id":"e4efb9fb-b25e-4092-b5fb-7b04649fcf29","system_id":"levelo_inurba_marseille","lat":43.29224,"lon":5.36064,"is_reserved":false,"is_disabled":false,"rental_uris":{"android":"levelo://app?vid=e4efb9fb-b25e-4092-b5fb-7b04649fcf29","ios":"levelo://app?vid=e4efb9fb-b25e-4092-b5fb-7b04649fcf29"},"vehicle_type_id":"4","last_reported":1726553575,"current_range_meters":22800,"station_id":"ce4bhbh2rcd13ifvqeqg","pricing_plan_id":"cebpf4jnsgd1na2vs0mg"},{"bike_id":"da1257b2-274a-46ae-9cd0-7ad794d50efd","system_id":"levelo_inurba_marseille","lat":43.29713,"lon":5.36629,"is_reserved":false,"is_disabled":false,"rental_uris":{"android":"levelo://app?vid=da1257b2-274a-46ae-9cd0-7ad794d50efd","ios":"levelo://app?vid=da1257b2-274a-46ae-9cd0-7ad794d50efd"},"vehicle_type_id":"4","last_reported":1726553575,"current_range_meters":5600,"station_id":"ce4bgn12rcd13ifvqbt0","pricing_plan_id":"cebpf4jnsgd1na2vs0mg"},{"bike_id":"f409a27c-3291-4d9b-ac57-9e74e75d80d1","system_id":"levelo_inurba_marseille","lat":43.32365,"lon":5.38885,"is_reserved":false,"is_disabled":false,"rental_uris":{"android":"levelo://app?vid=f409a27c-3291-4d9b-ac57-9e74e75d80d1","ios":"levelo://app?vid=f409a27c-3291-4d9b-ac57-9e74e75d80d1"},"vehicle_type_id":"4","last_reported":1726553575,"current_range_meters":16000,"station_id":"ce4bhqp2rcd13ifvqhog","pricing_plan_id":"cebpf4jnsgd1na2vs0mg"},{"bike_id":"4232e9d2-5cc7-4941-99f6-12282f5a71a2","system_id":"levelo_inurba_marseille","lat":43.27496,"lon":5.42451,"is_reserved":false,"is_disabled":false,"rental_uris":{"android":"levelo://app?vid=4232e9d2-5cc7-4941-99f6-12282f5a71a2","ios":"levelo://app?vid=4232e9d2-5cc7-4941-99f6-12282f5a71a2"},"vehicle_type_id":"4","last_reported":1726553575,"current_range_meters":32000,"station_id":"ce4bhn92rcd13ifvqgrg","pricing_plan_id":"cebpf4jnsgd1na2vs0mg"},{"bike_id":"d4537772-3b85-45f7-9894-b6f5ab60b995","system_id":"levelo_inurba_marseille","lat":43.243408,"lon":5.396603,"is_reserved":false,"is_disabled":false,"rental_uris":{"android":"levelo://app?vid=d4537772-3b85-45f7-9894-b6f5ab60b995","ios":"levelo://app?vid=d4537772-3b85-45f7-9894-b6f5ab60b995"},"vehicle_type_id":"4","last_reported":1726553575,"current_range_meters":28000,"station_id":"","pricing_plan_id":"cebpf4jnsgd1na2vs0mg"},{"bike_id":"a2311bbf-a129-4bd6-aa78-bbe376aa5529","system_id":"levelo_inurba_marseille","lat":43.28433,"lon":5.3918,"is_reserved":false,"is_disabled":false,"rental_uris":{"android":"levelo://app?vid=a2311bbf-a129-4bd6-aa78-bbe376aa5529","ios":"levelo://app?vid=a2311bbf-a129-4bd6-aa78-bbe376aa5529"},"vehicle_type_id":"4","last_reported":1726553575,"current_range_meters":32800,"station_id":"ce4bhoh2rcd13ifvqh5g","pricing_plan_id":"cebpf4jnsgd1na2vs0mg"},{"bike_id":"4373386c-b856-4e09-983c-e1c22efce697","system_id":"levelo_inurba_marseille","lat":43.30471,"lon":5.3791,"is_reserved":false,"is_disabled":false,"rental_uris":{"android":"levelo://app?vid=4373386c-b856-4e09-983c-e1c22efce697","ios":"levelo://app?vid=4373386c-b856-4e09-983c-e1c22efce697"},"vehicle_type_id":"4","last_reported":1726553575,"current_range_meters":34000,"station_id":"ce4bgup2rcd13ifvqcn0","pricing_plan_id":"cebpf4jnsgd1na2vs0mg"},{"bike_id":"a4ada59e-f55c-43c4-a660-4b916645f1c6","system_id":"levelo_inurba_marseille","lat":43.28456,"lon":5.35859,"is_reserved":false,"is_disabled":false,"rental_uris":{"android":"levelo://app?vid=a4ada59e-f55c-43c4-a660-4b916645f1c6","ios":"levelo://app?vid=a4ada59e-f55c-43c4-a660-4b916645f1c6"},"vehicle_type_id":"4","last_reported":1726553575,"current_range_meters":28400,"station_id":"ce4bhah2rcd13ifvqei0","pricing_plan_id":"cebpf4jnsgd1na2vs0mg"},{"bike_id":"c7f93bf2-2b30-4c5c-aa72-447b3f4a28ea","system_id":"levelo_inurba_marseille","lat":43.29897,"lon":5.43668,"is_reserved":false,"is_disabled":false,"rental_uris":{"android":"levelo://app?vid=c7f93bf2-2b30-4c5c-aa72-447b3f4a28ea","ios":"levelo://app?vid=c7f93bf2-2b30-4c5c-aa72-447b3f4a28ea"},"vehicle_type_id":"4","last_reported":1726553575,"current_range_meters":10000,"station_id":"ce4bhpp2rcd13ifvqhfg","pricing_plan_id":"cebpf4jnsgd1na2vs0mg"},{"bike_id":"22a588b1-cfec-4a63-9499-3cf933091fed","system_id":"levelo_inurba_marseille","lat":43.30545,"lon":5.36699,"is_reserved":false,"is_disabled":false,"rental_uris":{"android":"levelo://app?vid=22a588b1-cfec-4a63-9499-3cf933091fed","ios":"levelo://app?vid=22a588b1-cfec-4a63-9499-3cf933091fed"},"vehicle_type_id":"4","last_reported":1726553575,"current_range_meters":36000,"station_id":"ce4bgrp2rcd13ifvqc9g","pricing_plan_id":"cebpf4jnsgd1na2vs0mg"},{"bike_id":"bf7d1341-1df4-4fe7-bf06-57fcff64da2c","system_id":"levelo_inurba_marseille","lat":43.24547,"lon":5.39523,"is_reserved":false,"is_disabled":false,"rental_uris":{"android":"levelo://app?vid=bf7d1341-1df4-4fe7-bf06-57fcff64da2c","ios":"levelo://app?vid=bf7d1341-1df4-4fe7-bf06-57fcff64da2c"},"vehicle_type_id":"4","last_reported":1726553575,"current_range_meters":26800,"station_id":"ce4bhlp2rcd13ifvqgjg","pricing_plan_id":"cebpf4jnsgd1na2vs0mg"},{"bike_id":"890a5136-86d5-4859-b798-9b004daeeb8d","system_id":"levelo_inurba_marseille","lat":43.26973,"lon":5.40261,"is_reserved":false,"is_disabled":false,"rental_uris":{"android":"levelo://app?vid=890a5136-86d5-4859-b798-9b004daeeb8d","ios":"levelo://app?vid=890a5136-86d5-4859-b798-9b004daeeb8d"},"vehicle_type_id":"4","last_reported":1726553575,"current_range_meters":38000,"station_id":"cjm6bp8fraef2m0cb0m0","pricing_plan_id":"cebpf4jnsgd1na2vs0mg"},{"bike_id":"ee4613bb-1188-4e55-9b3a-1b381f9926dd","system_id":"levelo_inurba_marseille","lat":43.27431,"lon":5.394354,"is_reserved":false,"is_disabled":false,"rental_uris":{"android":"levelo://app?vid=ee4613bb-1188-4e55-9b3a-1b381f9926dd","ios":"levelo://app?vid=ee4613bb-1188-4e55-9b3a-1b381f9926dd"},"vehicle_type_id":"4","last_reported":1726553575,"current_range_meters":38000,"station_id":"ce4bhdp2rcd13ifvqf20","pricing_plan_id":"cebpf4jnsgd1na2vs0mg"},{"bike_id":"128ec406-53f9-4071-b496-4e5020ff87f3","system_id":"levelo_inurba_marseille","lat":43.25942,"lon":5.40902,"is_reserved":false,"is_disabled":false,"rental_uris":{"android":"levelo://app?vid=128ec406-53f9-4071-b496-4e5020ff87f3","ios":"levelo://app?vid=128ec406-53f9-4071-b496-4e5020ff87f3"},"vehicle_type_id":"4","last_reported":1726553575,"current_range_meters":12000,"station_id":"ce4bhm92rcd13ifvqglg","pricing_plan_id":"cebpf4jnsgd1na2vs0mg"},{"bike_id":"f134fd8f-0729-4713-b7b2-13071a3aac3c","system_id":"levelo_inurba_marseille","lat":43.26923,"lon":5.42073,"is_reserved":false,"is_disabled":false,"rental_uris":{"android":"levelo://app?vid=f134fd8f-0729-4713-b7b2-13071a3aac3c","ios":"levelo://app?vid=f134fd8f-0729-4713-b7b2-13071a3aac3c"},"vehicle_type_id":"4","last_reported":1726553575,"current_range_meters":14000,"station_id":"cjm6bp8fraef2m0cb0m0","pricing_plan_id":"cebpf4jnsgd1na2vs0mg"},{"bike_id":"92b8bd1c-e401-450b-b3d5-a511a0ac3cc7","system_id":"levelo_inurba_marseille","lat":43.31683,"lon":5.40471,"is_reserved":false,"is_disabled":false,"rental_uris":{"android":"levelo://app?vid=92b8bd1c-e401-450b-b3d5-a511a0ac3cc7","ios":"levelo://app?vid=92b8bd1c-e401-450b-b3d5-a511a0ac3cc7"},"vehicle_type_id":"4","last_reported":1726553575,"current_range_meters":20400,"station_id":"ce4bh012rcd13ifvqd00","pricing_plan_id":"cebpf4jnsgd1na2vs0mg"},{"bike_id":"cc40d2fd-8c34-4151-a154-ec9531bf7830","system_id":"levelo_inurba_marseille","lat":43.2923,"lon":5.36061,"is_reserved":false,"is_disabled":false,"rental_uris":{"android":"levelo://app?vid=cc40d2fd-8c34-4151-a154-ec9531bf7830","ios":"levelo://app?vid=cc40d2fd-8c34-4151-a154-ec9531bf7830"},"vehicle_type_id":"4","last_reported":1726553575,"current_range_meters":29600,"station_id":"ce4bhbh2rcd13ifvqeqg","pricing_plan_id":"cebpf4jnsgd1na2vs0mg"},{"bike_id":"465d0655-8dd4-4e16-b1ef-1b46bf4326ce","system_id":"levelo_inurba_marseille","lat":43.29923,"lon":5.37148,"is_reserved":false,"is_disabled":false,"rental_uris":{"android":"levelo://app?vid=465d0655-8dd4-4e16-b1ef-1b46bf4326ce","ios":"levelo://app?vid=465d0655-8dd4-4e16-b1ef-1b46bf4326ce"},"vehicle_type_id":"4","last_reported":1726553575,"current_range_meters":24400,"station_id":"","pricing_plan_id":"cebpf4jnsgd1na2vs0mg"},{"bike_id":"b6491c63-4cf9-4e7e-8c41-2e4512473191","system_id":"levelo_inurba_marseille","lat":43.30146,"lon":5.38085,"is_reserved":false,"is_disabled":false,"rental_uris":{"android":"levelo://app?vid=b6491c63-4cf9-4e7e-8c41-2e4512473191","ios":"levelo://app?vid=b6491c63-4cf9-4e7e-8c41-2e4512473191"},"vehicle_type_id":"4","last_reported":1726553575,"current_range_meters":37600,"station_id":"ce4bgjp2rcd13ifvqbh0","pricing_plan_id":"cebpf4jnsgd1na2vs0mg"},{"bike_id":"0b5743fb-c432-4a8b-af61-02f37e691302","system_id":"levelo_inurba_marseille","lat":43.26564,"lon":5.38999,"is_reserved":false,"is_disabled":false,"rental_uris":{"android":"levelo://app?vid=0b5743fb-c432-4a8b-af61-02f37e691302","ios":"levelo://app?vid=0b5743fb-c432-4a8b-af61-02f37e691302"},"vehicle_type_id":"4","last_reported":1726553575,"current_range_meters":37600,"station_id":"ce4bhe12rcd13ifvqf30","pricing_plan_id":"cebpf4jnsgd1na2vs0mg"},{"bike_id":"4153cc51-d4e8-4e56-a8fd-c1a04ecf3fa7","system_id":"levelo_inurba_marseille","lat":43.29955,"lon":5.41339,"is_reserved":false,"is_disabled":false,"rental_uris":{"android":"levelo://app?vid=4153cc51-d4e8-4e56-a8fd-c1a04ecf3fa7","ios":"levelo://app?vid=4153cc51-d4e8-4e56-a8fd-c1a04ecf3fa7"},"vehicle_type_id":"4","last_reported":1726553575,"current_range_meters":30800,"station_id":"ce4bhp12rcd13ifvqh9g","pricing_plan_id":"cebpf4jnsgd1na2vs0mg"},{"bike_id":"fdb2b13a-11cd-42ca-8a52-92bcabd171a0","system_id":"levelo_inurba_marseille","lat":43.30467,"lon":5.37898,"is_reserved":false,"is_disabled":false,"rental_uris":{"android":"levelo://app?vid=fdb2b13a-11cd-42ca-8a52-92bcabd171a0","ios":"levelo://app?vid=fdb2b13a-11cd-42ca-8a52-92bcabd171a0"},"vehicle_type_id":"4","last_reported":1726553575,"current_range_meters":38800,"station_id":"ce4bgup2rcd13ifvqcn0","pricing_plan_id":"cebpf4jnsgd1na2vs0mg"},{"bike_id":"276f5bc5-cde4-4e10-9759-0572a1e0f52c","system_id":"levelo_inurba_marseille","lat":43.297696,"lon":5.403731,"is_reserved":false,"is_disabled":false,"rental_uris":{"android":"levelo://app?vid=276f5bc5-cde4-4e10-9759-0572a1e0f52c","ios":"levelo://app?vid=276f5bc5-cde4-4e10-9759-0572a1e0f52c"},"vehicle_type_id":"4","last_reported":1726553575,"current_range_meters":38000,"station_id":"ce4bh0h2rcd13ifvqd60","pricing_plan_id":"cebpf4jnsgd1na2vs0mg"},{"bike_id":"8cb592d9-f82f-4171-894f-8d7ffa6525e5","system_id":"levelo_inurba_marseille","lat":43.23193,"lon":5.35545,"is_reserved":false,"is_disabled":false,"rental_uris":{"android":"levelo://app?vid=8cb592d9-f82f-4171-894f-8d7ffa6525e5","ios":"levelo://app?vid=8cb592d9-f82f-4171-894f-8d7ffa6525e5"},"vehicle_type_id":"4","last_reported":1726553575,"current_range_meters":20800,"station_id":"ce4bhu92rcd13ifvqi70","pricing_plan_id":"cebpf4jnsgd1na2vs0mg"},{"bike_id":"35fb4e8f-28da-49f1-aa93-ba3dee3f68ed","system_id":"levelo_inurba_marseille","lat":43.27432,"lon":5.39422,"is_reserved":false,"is_disabled":false,"rental_uris":{"android":"levelo://app?vid=35fb4e8f-28da-49f1-aa93-ba3dee3f68ed","ios":"levelo://app?vid=35fb4e8f-28da-49f1-aa93-ba3dee3f68ed"},"vehicle_type_id":"4","last_reported":1726553575,"current_range_meters":32800,"station_id":"ce4bhdp2rcd13ifvqf20","pricing_plan_id":"cebpf4jnsgd1na2vs0mg"},{"bike_id":"a6664524-29e4-4cb3-8a11-89baa18fda12","system_id":"levelo_inurba_marseille","lat":43.2996,"lon":5.41327,"is_reserved":false,"is_disabled":false,"rental_uris":{"android":"levelo://app?vid=a6664524-29e4-4cb3-8a11-89baa18fda12","ios":"levelo://app?vid=a6664524-29e4-4cb3-8a11-89baa18fda12"},"vehicle_type_id":"4","last_reported":1726553575,"current_range_meters":38000,"station_id":"ce4bhp12rcd13ifvqh9g","pricing_plan_id":"cebpf4jnsgd1na2vs0mg"},{"bike_id":"e8577ff1-e7d5-4bd8-af09-a820a63b8b50","system_id":"levelo_inurba_marseille","lat":43.33023,"lon":5.39047,"is_reserved":false,"is_disabled":false,"rental_uris":{"android":"levelo://app?vid=e8577ff1-e7d5-4bd8-af09-a820a63b8b50","ios":"levelo://app?vid=e8577ff1-e7d5-4bd8-af09-a820a63b8b50"},"vehicle_type_id":"4","last_reported":1726553575,"current_range_meters":14400,"station_id":"ce4bhr92rcd13ifvqhrg","pricing_plan_id":"cebpf4jnsgd1na2vs0mg"},{"bike_id":"20a4a91d-8541-4958-9b2e-4e75165c8a2a","system_id":"levelo_inurba_marseille","lat":43.30798,"lon":5.43519,"is_reserved":false,"is_disabled":false,"rental_uris":{"android":"levelo://app?vid=20a4a91d-8541-4958-9b2e-4e75165c8a2a","ios":"levelo://app?vid=20a4a91d-8541-4958-9b2e-4e75165c8a2a"},"vehicle_type_id":"4","last_reported":1726553575,"current_range_meters":16400,"station_id":"ce4bhph2rcd13ifvqheg","pricing_plan_id":"cebpf4jnsgd1na2vs0mg"},{"bike_id":"091b3b6b-8fb6-4c16-acf4-adf8bda04be7","system_id":"levelo_inurba_marseille","lat":43.28614,"lon":5.35106,"is_reserved":false,"is_disabled":false,"rental_uris":{"android":"levelo://app?vid=091b3b6b-8fb6-4c16-acf4-adf8bda04be7","ios":"levelo://app?vid=091b3b6b-8fb6-4c16-acf4-adf8bda04be7"},"vehicle_type_id":"4","last_reported":1726553575,"current_range_meters":36800,"station_id":"ce4bhch2rcd13ifvqeug","pricing_plan_id":"cebpf4jnsgd1na2vs0mg"},{"bike_id":"c3bcca86-6294-4639-9d07-9722d40f464e","system_id":"levelo_inurba_marseille","lat":43.29901,"lon":5.43664,"is_reserved":false,"is_disabled":false,"rental_uris":{"android":"levelo://app?vid=c3bcca86-6294-4639-9d07-9722d40f464e","ios":"levelo://app?vid=c3bcca86-6294-4639-9d07-9722d40f464e"},"vehicle_type_id":"4","last_reported":1726553575,"current_range_meters":37600,"station_id":"ce4bhpp2rcd13ifvqhfg","pricing_plan_id":"cebpf4jnsgd1na2vs0mg"},{"bike_id":"b8575011-8302-48a4-8af4-a59ce79d4a2f","system_id":"levelo_inurba_marseille","lat":43.3108,"lon":5.42436,"is_reserved":false,"is_disabled":false,"rental_uris":{"android":"levelo://app?vid=b8575011-8302-48a4-8af4-a59ce79d4a2f","ios":"levelo://app?vid=b8575011-8302-48a4-8af4-a59ce79d4a2f"},"vehicle_type_id":"4","last_reported":1726553575,"current_range_meters":32800,"station_id":"ce4bhp92rcd13ifvqhag","pricing_plan_id":"cebpf4jnsgd1na2vs0mg"},{"bike_id":"e1a43cb5-c710-4741-8195-0b7cf690e706","system_id":"levelo_inurba_marseille","lat":43.29793,"lon":5.381,"is_reserved":false,"is_disabled":false,"rental_uris":{"android":"levelo://app?vid=e1a43cb5-c710-4741-8195-0b7cf690e706","ios":"levelo://app?vid=e1a43cb5-c710-4741-8195-0b7cf690e706"},"vehicle_type_id":"4","last_reported":1726553575,"current_range_meters":38800,"station_id":"ce4bgip2rcd13ifvqbb0","pricing_plan_id":"cebpf4jnsgd1na2vs0mg"},{"bike_id":"cd01429b-75bd-4cd2-b070-bbc3cec7343d","system_id":"levelo_inurba_marseille","lat":43.240723,"lon":5.377613,"is_reserved":false,"is_disabled":false,"rental_uris":{"android":"levelo://app?vid=cd01429b-75bd-4cd2-b070-bbc3cec7343d","ios":"levelo://app?vid=cd01429b-75bd-4cd2-b070-bbc3cec7343d"},"vehicle_type_id":"4","last_reported":1726553575,"current_range_meters":38400,"station_id":"ce4bhnp2rcd13ifvqgvg","pricing_plan_id":"cebpf4jnsgd1na2vs0mg"},{"bike_id":"8a14e327-f1ba-4fa7-932f-68c0a0975b98","system_id":"levelo_inurba_marseille","lat":43.3361,"lon":5.41032,"is_reserved":false,"is_disabled":false,"rental_uris":{"android":"levelo://app?vid=8a14e327-f1ba-4fa7-932f-68c0a0975b98","ios":"levelo://app?vid=8a14e327-f1ba-4fa7-932f-68c0a0975b98"},"vehicle_type_id":"4","last_reported":1726553575,"current_range_meters":38400,"station_id":"ce4bhqh2rcd13ifvqhmg","pricing_plan_id":"cebpf4jnsgd1na2vs0mg"},{"bike_id":"6bdf6d7d-2eb2-45b2-b185-2714b7273c57","system_id":"levelo_inurba_marseille","lat":43.27179,"lon":5.40993,"is_reserved":false,"is_disabled":false,"rental_uris":{"android":"levelo://app?vid=6bdf6d7d-2eb2-45b2-b185-2714b7273c57","ios":"levelo://app?vid=6bdf6d7d-2eb2-45b2-b185-2714b7273c57"},"vehicle_type_id":"4","last_reported":1726553575,"current_range_meters":17600,"station_id":"ce4bhl12rcd13ifvqgf0","pricing_plan_id":"cebpf4jnsgd1na2vs0mg"},{"bike_id":"c38cc822-8a7c-4c1b-af0a-acaa151e2dad","system_id":"levelo_inurba_marseille","lat":43.31026,"lon":5.40089,"is_reserved":false,"is_disabled":false,"rental_uris":{"android":"levelo://app?vid=c38cc822-8a7c-4c1b-af0a-acaa151e2dad","ios":"levelo://app?vid=c38cc822-8a7c-4c1b-af0a-acaa151e2dad"},"vehicle_type_id":"4","last_reported":1726553575,"current_range_meters":29600,"station_id":"ce4bhr92rcd13ifvqhsg","pricing_plan_id":"cebpf4jnsgd1na2vs0mg"},{"bike_id":"1c2e2fbf-81d9-4c27-a54e-f6ee9103b45b","system_id":"levelo_inurba_marseille","lat":43.28953,"lon":5.39643,"is_reserved":false,"is_disabled":false,"rental_uris":{"android":"levelo://app?vid=1c2e2fbf-81d9-4c27-a54e-f6ee9103b45b","ios":"levelo://app?vid=1c2e2fbf-81d9-4c27-a54e-f6ee9103b45b"},"vehicle_type_id":"4","last_reported":1726553575,"current_range_meters":30800,"station_id":"ce4bh3h2rcd13ifvqdn0","pricing_plan_id":"cebpf4jnsgd1na2vs0mg"},{"bike_id":"b1db6496-7d7b-4acc-a88c-e5406d38e100","system_id":"levelo_inurba_marseille","lat":43.23195,"lon":5.35556,"is_reserved":false,"is_disabled":false,"rental_uris":{"android":"levelo://app?vid=b1db6496-7d7b-4acc-a88c-e5406d38e100","ios":"levelo://app?vid=b1db6496-7d7b-4acc-a88c-e5406d38e100"},"vehicle_type_id":"4","last_reported":1726553575,"current_range_meters":28400,"station_id":"ce4bhu92rcd13ifvqi70","pricing_plan_id":"cebpf4jnsgd1na2vs0mg"},{"bike_id":"a1006a58-28fc-4eb7-b2fa-ec4943a265c1","system_id":"levelo_inurba_marseille","lat":43.275865,"lon":5.424321,"is_reserved":false,"is_disabled":false,"rental_uris":{"android":"levelo://app?vid=a1006a58-28fc-4eb7-b2fa-ec4943a265c1","ios":"levelo://app?vid=a1006a58-28fc-4eb7-b2fa-ec4943a265c1"},"vehicle_type_id":"4","last_reported":1726553575,"current_range_meters":28400,"station_id":"","pricing_plan_id":"cebpf4jnsgd1na2vs0mg"},{"bike_id":"3a7e7c8e-287d-4a2b-ba01-e006f35ac0fa","system_id":"levelo_inurba_marseille","lat":43.29192,"lon":5.35796,"is_reserved":false,"is_disabled":false,"rental_uris":{"android":"levelo://app?vid=3a7e7c8e-287d-4a2b-ba01-e006f35ac0fa","ios":"levelo://app?vid=3a7e7c8e-287d-4a2b-ba01-e006f35ac0fa"},"vehicle_type_id":"4","last_reported":1726553575,"current_range_meters":7200,"station_id":"ce4bhb12rcd13ifvqel0","pricing_plan_id":"cebpf4jnsgd1na2vs0mg"},{"bike_id":"6c8aeead-2758-49fb-9cd2-fad944b238ce","system_id":"levelo_inurba_marseille","lat":43.283478,"lon":5.381045,"is_reserved":false,"is_disabled":false,"rental_uris":{"android":"levelo://app?vid=6c8aeead-2758-49fb-9cd2-fad944b238ce","ios":"levelo://app?vid=6c8aeead-2758-49fb-9cd2-fad944b238ce"},"vehicle_type_id":"4","last_reported":1726553575,"current_range_meters":37600,"station_id":"ce4bh412rcd13ifvqdr0","pricing_plan_id":"cebpf4jnsgd1na2vs0mg"},{"bike_id":"733e4865-3357-4a1f-819b-4a724885d4e3","system_id":"levelo_inurba_marseille","lat":43.26924,"lon":5.38638,"is_reserved":false,"is_disabled":false,"rental_uris":{"android":"levelo://app?vid=733e4865-3357-4a1f-819b-4a724885d4e3","ios":"levelo://app?vid=733e4865-3357-4a1f-819b-4a724885d4e3"},"vehicle_type_id":"4","last_reported":1726553575,"current_range_meters":34000,"station_id":"ce4bhh92rcd13ifvqfh0","pricing_plan_id":"cebpf4jnsgd1na2vs0mg"},{"bike_id":"5cf4c2f1-f092-4550-b8cf-369099ebc3bc","system_id":"levelo_inurba_marseille","lat":43.24564,"lon":5.41556,"is_reserved":false,"is_disabled":false,"rental_uris":{"android":"levelo://app?vid=5cf4c2f1-f092-4550-b8cf-369099ebc3bc","ios":"levelo://app?vid=5cf4c2f1-f092-4550-b8cf-369099ebc3bc"},"vehicle_type_id":"4","last_reported":1726553575,"current_range_meters":4000,"station_id":"ce4bhlh2rcd13ifvqgig","pricing_plan_id":"cebpf4jnsgd1na2vs0mg"},{"bike_id":"46617874-6777-4620-8f96-2d9ffa2549bc","system_id":"levelo_inurba_marseille","lat":43.271729,"lon":5.409889,"is_reserved":false,"is_disabled":false,"rental_uris":{"android":"levelo://app?vid=46617874-6777-4620-8f96-2d9ffa2549bc","ios":"levelo://app?vid=46617874-6777-4620-8f96-2d9ffa2549bc"},"vehicle_type_id":"4","last_reported":1726553575,"current_range_meters":6400,"station_id":"ce4bhl12rcd13ifvqgf0","pricing_plan_id":"cebpf4jnsgd1na2vs0mg"},{"bike_id":"6efdbf21-5c49-4249-b16c-c44bc78ff67f","system_id":"levelo_inurba_marseille","lat":43.283447,"lon":5.381049,"is_reserved":false,"is_disabled":false,"rental_uris":{"android":"levelo://app?vid=6efdbf21-5c49-4249-b16c-c44bc78ff67f","ios":"levelo://app?vid=6efdbf21-5c49-4249-b16c-c44bc78ff67f"},"vehicle_type_id":"4","last_reported":1726553575,"current_range_meters":29600,"station_id":"ce4bh412rcd13ifvqdr0","pricing_plan_id":"cebpf4jnsgd1na2vs0mg"},{"bike_id":"cc3b8af5-922b-47a4-9520-14c9cfb481c6","system_id":"levelo_inurba_marseille","lat":43.27495,"lon":5.4245,"is_reserved":false,"is_disabled":false,"rental_uris":{"android":"levelo://app?vid=cc3b8af5-922b-47a4-9520-14c9cfb481c6","ios":"levelo://app?vid=cc3b8af5-922b-47a4-9520-14c9cfb481c6"},"vehicle_type_id":"4","last_reported":1726553575,"current_range_meters":10800,"station_id":"ce4bhn92rcd13ifvqgrg","pricing_plan_id":"cebpf4jnsgd1na2vs0mg"},{"bike_id":"62b7b0a1-7aa9-410e-b74e-b523b2648aa5","system_id":"levelo_inurba_marseille","lat":43.23964,"lon":5.36626,"is_reserved":false,"is_disabled":false,"rental_uris":{"android":"levelo://app?vid=62b7b0a1-7aa9-410e-b74e-b523b2648aa5","ios":"levelo://app?vid=62b7b0a1-7aa9-410e-b74e-b523b2648aa5"},"vehicle_type_id":"4","last_reported":1726553575,"current_range_meters":35600,"station_id":"ce4bhi12rcd13ifvqfp0","pricing_plan_id":"cebpf4jnsgd1na2vs0mg"},{"bike_id":"b5f27f9e-78a9-4425-86cf-0a7af7a32e0f","system_id":"levelo_inurba_marseille","lat":43.28414,"lon":5.34986,"is_reserved":false,"is_disabled":false,"rental_uris":{"android":"levelo://app?vid=b5f27f9e-78a9-4425-86cf-0a7af7a32e0f","ios":"levelo://app?vid=b5f27f9e-78a9-4425-86cf-0a7af7a32e0f"},"vehicle_type_id":"4","last_reported":1726553575,"current_range_meters":38400,"station_id":"ce4bhbh2rcd13ifvqepg","pricing_plan_id":"cebpf4jnsgd1na2vs0mg"},{"bike_id":"b645ac77-0d58-4fa9-8ad3-947af8bdb1d9","system_id":"levelo_inurba_marseille","lat":43.29897,"lon":5.43662,"is_reserved":false,"is_disabled":false,"rental_uris":{"android":"levelo://app?vid=b645ac77-0d58-4fa9-8ad3-947af8bdb1d9","ios":"levelo://app?vid=b645ac77-0d58-4fa9-8ad3-947af8bdb1d9"},"vehicle_type_id":"4","last_reported":1726553575,"current_range_meters":26000,"station_id":"ce4bhpp2rcd13ifvqhfg","pricing_plan_id":"cebpf4jnsgd1na2vs0mg"},{"bike_id":"cf2c66f6-5da9-4f8f-89e2-27d3672b4011","system_id":"levelo_inurba_marseille","lat":43.30475,"lon":5.37918,"is_reserved":false,"is_disabled":false,"rental_uris":{"android":"levelo://app?vid=cf2c66f6-5da9-4f8f-89e2-27d3672b4011","ios":"levelo://app?vid=cf2c66f6-5da9-4f8f-89e2-27d3672b4011"},"vehicle_type_id":"4","last_reported":1726553575,"current_range_meters":29600,"station_id":"ce4bgup2rcd13ifvqcn0","pricing_plan_id":"cebpf4jnsgd1na2vs0mg"},{"bike_id":"1d53a508-0946-4ef0-9d31-e3d5f444a352","system_id":"levelo_inurba_marseille","lat":43.2408,"lon":5.37734,"is_reserved":false,"is_disabled":false,"rental_uris":{"android":"levelo://app?vid=1d53a508-0946-4ef0-9d31-e3d5f444a352","ios":"levelo://app?vid=1d53a508-0946-4ef0-9d31-e3d5f444a352"},"vehicle_type_id":"4","last_reported":1726553575,"current_range_meters":38400,"station_id":"ce4bhnp2rcd13ifvqgvg","pricing_plan_id":"cebpf4jnsgd1na2vs0mg"},{"bike_id":"d07510fb-c4f4-4c85-81e3-a462d20e3255","system_id":"levelo_inurba_marseille","lat":43.232056,"lon":5.436064,"is_reserved":false,"is_disabled":false,"rental_uris":{"android":"levelo://app?vid=d07510fb-c4f4-4c85-81e3-a462d20e3255","ios":"levelo://app?vid=d07510fb-c4f4-4c85-81e3-a462d20e3255"},"vehicle_type_id":"4","last_reported":1726553575,"current_range_meters":36400,"station_id":"ce4bhmp2rcd13ifvqgog","pricing_plan_id":"cebpf4jnsgd1na2vs0mg"},{"bike_id":"7abc2a25-404a-4f70-a7c0-c89315b5c4bc","system_id":"levelo_inurba_marseille","lat":43.31026,"lon":5.4034,"is_reserved":false,"is_disabled":false,"rental_uris":{"android":"levelo://app?vid=7abc2a25-404a-4f70-a7c0-c89315b5c4bc","ios":"levelo://app?vid=7abc2a25-404a-4f70-a7c0-c89315b5c4bc"},"vehicle_type_id":"4","last_reported":1726553575,"current_range_meters":23200,"station_id":"","pricing_plan_id":"cebpf4jnsgd1na2vs0mg"},{"bike_id":"408c5749-702c-43ea-9058-5bebe1ea2111","system_id":"levelo_inurba_marseille","lat":43.27493,"lon":5.42452,"is_reserved":false,"is_disabled":false,"rental_uris":{"android":"levelo://app?vid=408c5749-702c-43ea-9058-5bebe1ea2111","ios":"levelo://app?vid=408c5749-702c-43ea-9058-5bebe1ea2111"},"vehicle_type_id":"4","last_reported":1726553575,"current_range_meters":16400,"station_id":"ce4bhn92rcd13ifvqgrg","pricing_plan_id":"cebpf4jnsgd1na2vs0mg"},{"bike_id":"677498c9-746b-4650-9a8e-2c7479635944","system_id":"levelo_inurba_marseille","lat":43.33026,"lon":5.39046,"is_reserved":false,"is_disabled":false,"rental_uris":{"android":"levelo://app?vid=677498c9-746b-4650-9a8e-2c7479635944","ios":"levelo://app?vid=677498c9-746b-4650-9a8e-2c7479635944"},"vehicle_type_id":"4","last_reported":1726553575,"current_range_meters":24000,"station_id":"ce4bhr92rcd13ifvqhrg","pricing_plan_id":"cebpf4jnsgd1na2vs0mg"},{"bike_id":"5c26aa92-8e48-4a9c-a6b6-b5fd4f6588ce","system_id":"levelo_inurba_marseille","lat":43.29366,"lon":5.37848,"is_reserved":false,"is_disabled":false,"rental_uris":{"android":"levelo://app?vid=5c26aa92-8e48-4a9c-a6b6-b5fd4f6588ce","ios":"levelo://app?vid=5c26aa92-8e48-4a9c-a6b6-b5fd4f6588ce"},"vehicle_type_id":"4","last_reported":1726553575,"current_range_meters":14000,"station_id":"ce4bgjh2rcd13ifvqbf0","pricing_plan_id":"cebpf4jnsgd1na2vs0mg"},{"bike_id":"8ad1dd61-51a6-4b68-afa7-87ebac0fe573","system_id":"levelo_inurba_marseille","lat":43.30472,"lon":5.379,"is_reserved":false,"is_disabled":false,"rental_uris":{"android":"levelo://app?vid=8ad1dd61-51a6-4b68-afa7-87ebac0fe573","ios":"levelo://app?vid=8ad1dd61-51a6-4b68-afa7-87ebac0fe573"},"vehicle_type_id":"4","last_reported":1726553575,"current_range_meters":26000,"station_id":"ce4bgup2rcd13ifvqcn0","pricing_plan_id":"cebpf4jnsgd1na2vs0mg"},{"bike_id":"60c70200-4385-4541-87e7-1ce9306b7c31","system_id":"levelo_inurba_marseille","lat":43.29806,"lon":5.38078,"is_reserved":false,"is_disabled":false,"rental_uris":{"android":"levelo://app?vid=60c70200-4385-4541-87e7-1ce9306b7c31","ios":"levelo://app?vid=60c70200-4385-4541-87e7-1ce9306b7c31"},"vehicle_type_id":"4","last_reported":1726553575,"current_range_meters":18800,"station_id":"ce4bgip2rcd13ifvqbb0","pricing_plan_id":"cebpf4jnsgd1na2vs0mg"},{"bike_id":"221aa148-2bd8-42d4-8193-281cb621bafb","system_id":"levelo_inurba_marseille","lat":43.2937,"lon":5.37849,"is_reserved":false,"is_disabled":false,"rental_uris":{"android":"levelo://app?vid=221aa148-2bd8-42d4-8193-281cb621bafb","ios":"levelo://app?vid=221aa148-2bd8-42d4-8193-281cb621bafb"},"vehicle_type_id":"4","last_reported":1726553575,"current_range_meters":37600,"station_id":"ce4bgjh2rcd13ifvqbf0","pricing_plan_id":"cebpf4jnsgd1na2vs0mg"},{"bike_id":"7ba5a0d3-87f5-4dbc-8dc8-0d67d795da41","system_id":"levelo_inurba_marseille","lat":43.30915,"lon":5.36851,"is_reserved":false,"is_disabled":false,"rental_uris":{"android":"levelo://app?vid=7ba5a0d3-87f5-4dbc-8dc8-0d67d795da41","ios":"levelo://app?vid=7ba5a0d3-87f5-4dbc-8dc8-0d67d795da41"},"vehicle_type_id":"4","last_reported":1726553575,"current_range_meters":40000,"station_id":"ce4bgn92rcd13ifvqbvg","pricing_plan_id":"cebpf4jnsgd1na2vs0mg"},{"bike_id":"6ab90e7b-3cd5-4ab0-a6e3-16251a781fff","system_id":"levelo_inurba_marseille","lat":43.2846,"lon":5.35884,"is_reserved":false,"is_disabled":false,"rental_uris":{"android":"levelo://app?vid=6ab90e7b-3cd5-4ab0-a6e3-16251a781fff","ios":"levelo://app?vid=6ab90e7b-3cd5-4ab0-a6e3-16251a781fff"},"vehicle_type_id":"4","last_reported":1726553575,"current_range_meters":38400,"station_id":"ce4bhah2rcd13ifvqei0","pricing_plan_id":"cebpf4jnsgd1na2vs0mg"},{"bike_id":"15392aa0-90a1-41d4-a66d-995d88d0aa75","system_id":"levelo_inurba_marseille","lat":43.24667,"lon":5.38167,"is_reserved":false,"is_disabled":false,"rental_uris":{"android":"levelo://app?vid=15392aa0-90a1-41d4-a66d-995d88d0aa75","ios":"levelo://app?vid=15392aa0-90a1-41d4-a66d-995d88d0aa75"},"vehicle_type_id":"4","last_reported":1726553575,"current_range_meters":36400,"station_id":"ce4bhih2rcd13ifvqfr0","pricing_plan_id":"cebpf4jnsgd1na2vs0mg"},{"bike_id":"c120e053-2cf6-4b86-baef-2147853299bf","system_id":"levelo_inurba_marseille","lat":43.32373,"lon":5.38885,"is_reserved":false,"is_disabled":false,"rental_uris":{"android":"levelo://app?vid=c120e053-2cf6-4b86-baef-2147853299bf","ios":"levelo://app?vid=c120e053-2cf6-4b86-baef-2147853299bf"},"vehicle_type_id":"4","last_reported":1726553575,"current_range_meters":38000,"station_id":"ce4bhqp2rcd13ifvqhog","pricing_plan_id":"cebpf4jnsgd1na2vs0mg"},{"bike_id":"b4148530-ebdb-4fd3-a840-6ebd85f44bf4","system_id":"levelo_inurba_marseille","lat":43.31693,"lon":5.40475,"is_reserved":false,"is_disabled":false,"rental_uris":{"android":"levelo://app?vid=b4148530-ebdb-4fd3-a840-6ebd85f44bf4","ios":"levelo://app?vid=b4148530-ebdb-4fd3-a840-6ebd85f44bf4"},"vehicle_type_id":"4","last_reported":1726553575,"current_range_meters":12000,"station_id":"ce4bh012rcd13ifvqd00","pricing_plan_id":"cebpf4jnsgd1na2vs0mg"},{"bike_id":"1b4b0920-5098-492d-8f45-9d74a5f1adcd","system_id":"levelo_inurba_marseille","lat":43.25442,"lon":5.40143,"is_reserved":false,"is_disabled":false,"rental_uris":{"android":"levelo://app?vid=1b4b0920-5098-492d-8f45-9d74a5f1adcd","ios":"levelo://app?vid=1b4b0920-5098-492d-8f45-9d74a5f1adcd"},"vehicle_type_id":"4","last_reported":1726553575,"current_range_meters":38400,"station_id":"","pricing_plan_id":"cebpf4jnsgd1na2vs0mg"},{"bike_id":"0775a585-588e-4a73-84db-4bf9466c672d","system_id":"levelo_inurba_marseille","lat":43.28566,"lon":5.39494,"is_reserved":false,"is_disabled":false,"rental_uris":{"android":"levelo://app?vid=0775a585-588e-4a73-84db-4bf9466c672d","ios":"levelo://app?vid=0775a585-588e-4a73-84db-4bf9466c672d"},"vehicle_type_id":"4","last_reported":1726553575,"current_range_meters":30000,"station_id":"ce4bh292rcd13ifvqdg0","pricing_plan_id":"cebpf4jnsgd1na2vs0mg"},{"bike_id":"efdb13d6-ef23-49b0-9a8b-75b101687d79","system_id":"levelo_inurba_marseille","lat":43.32337,"lon":5.40579,"is_reserved":false,"is_disabled":false,"rental_uris":{"android":"levelo://app?vid=efdb13d6-ef23-49b0-9a8b-75b101687d79","ios":"levelo://app?vid=efdb13d6-ef23-49b0-9a8b-75b101687d79"},"vehicle_type_id":"4","last_reported":1726553575,"current_range_meters":38800,"station_id":"ce4bhq92rcd13ifvqhjg","pricing_plan_id":"cebpf4jnsgd1na2vs0mg"},{"bike_id":"13e43b9a-904c-49b7-b945-1e8993ffc8e5","system_id":"levelo_inurba_marseille","lat":43.25943,"lon":5.409,"is_reserved":false,"is_disabled":false,"rental_uris":{"android":"levelo://app?vid=13e43b9a-904c-49b7-b945-1e8993ffc8e5","ios":"levelo://app?vid=13e43b9a-904c-49b7-b945-1e8993ffc8e5"},"vehicle_type_id":"4","last_reported":1726553575,"current_range_meters":36400,"station_id":"ce4bhm92rcd13ifvqglg","pricing_plan_id":"cebpf4jnsgd1na2vs0mg"},{"bike_id":"4d579e43-d134-468d-832a-405c8e9aa74b","system_id":"levelo_inurba_marseille","lat":43.27564,"lon":5.38417,"is_reserved":false,"is_disabled":false,"rental_uris":{"android":"levelo://app?vid=4d579e43-d134-468d-832a-405c8e9aa74b","ios":"levelo://app?vid=4d579e43-d134-468d-832a-405c8e9aa74b"},"vehicle_type_id":"4","last_reported":1726553575,"current_range_meters":38800,"station_id":"ce4bhh92rcd13ifvqfi0","pricing_plan_id":"cebpf4jnsgd1na2vs0mg"},{"bike_id":"99684f50-b398-427b-a4e9-7ca0a0382c79","system_id":"levelo_inurba_marseille","lat":43.23193,"lon":5.35553,"is_reserved":false,"is_disabled":false,"rental_uris":{"android":"levelo://app?vid=99684f50-b398-427b-a4e9-7ca0a0382c79","ios":"levelo://app?vid=99684f50-b398-427b-a4e9-7ca0a0382c79"},"vehicle_type_id":"4","last_reported":1726553575,"current_range_meters":38800,"station_id":"ce4bhu92rcd13ifvqi70","pricing_plan_id":"cebpf4jnsgd1na2vs0mg"},{"bike_id":"1338a8fb-0d78-435a-9336-1116f4860d56","system_id":"levelo_inurba_marseille","lat":43.30588,"lon":5.39353,"is_reserved":false,"is_disabled":false,"rental_uris":{"android":"levelo://app?vid=1338a8fb-0d78-435a-9336-1116f4860d56","ios":"levelo://app?vid=1338a8fb-0d78-435a-9336-1116f4860d56"},"vehicle_type_id":"4","last_reported":1726553575,"current_range_meters":35200,"station_id":"ce4bh0p2rcd13ifvqd80","pricing_plan_id":"cebpf4jnsgd1na2vs0mg"},{"bike_id":"7631bd94-1520-4f34-8e01-b1483f315aab","system_id":"levelo_inurba_marseille","lat":43.26938,"lon":5.38932,"is_reserved":false,"is_disabled":false,"rental_uris":{"android":"levelo://app?vid=7631bd94-1520-4f34-8e01-b1483f315aab","ios":"levelo://app?vid=7631bd94-1520-4f34-8e01-b1483f315aab"},"vehicle_type_id":"4","last_reported":1726553575,"current_range_meters":19200,"station_id":"ce4bhhh2rcd13ifvqfl0","pricing_plan_id":"cebpf4jnsgd1na2vs0mg"},{"bike_id":"e24bc9a5-2691-49c0-9039-6faa006378c2","system_id":"levelo_inurba_marseille","lat":43.30475,"lon":5.3791,"is_reserved":false,"is_disabled":false,"rental_uris":{"android":"levelo://app?vid=e24bc9a5-2691-49c0-9039-6faa006378c2","ios":"levelo://app?vid=e24bc9a5-2691-49c0-9039-6faa006378c2"},"vehicle_type_id":"4","last_reported":1726553575,"current_range_meters":38000,"station_id":"ce4bgup2rcd13ifvqcn0","pricing_plan_id":"cebpf4jnsgd1na2vs0mg"},{"bike_id":"00436b8a-b35f-48d0-ae23-b43ed74be5dd","system_id":"levelo_inurba_marseille","lat":43.27496,"lon":5.42448,"is_reserved":false,"is_disabled":false,"rental_uris":{"android":"levelo://app?vid=00436b8a-b35f-48d0-ae23-b43ed74be5dd","ios":"levelo://app?vid=00436b8a-b35f-48d0-ae23-b43ed74be5dd"},"vehicle_type_id":"4","last_reported":1726553575,"current_range_meters":31200,"station_id":"ce4bhn92rcd13ifvqgrg","pricing_plan_id":"cebpf4jnsgd1na2vs0mg"},{"bike_id":"1e50fdae-020a-4cb6-9b1c-d6613add5f05","system_id":"levelo_inurba_marseille","lat":43.30927,"lon":5.40145,"is_reserved":false,"is_disabled":false,"rental_uris":{"android":"levelo://app?vid=1e50fdae-020a-4cb6-9b1c-d6613add5f05","ios":"levelo://app?vid=1e50fdae-020a-4cb6-9b1c-d6613add5f05"},"vehicle_type_id":"4","last_reported":1726553575,"current_range_meters":14800,"station_id":"ce4bgvp2rcd13ifvqct0","pricing_plan_id":"cebpf4jnsgd1na2vs0mg"},{"bike_id":"ba07389c-7656-4771-bfca-ecf989f73900","system_id":"levelo_inurba_marseille","lat":43.24261,"lon":5.36798,"is_reserved":false,"is_disabled":false,"rental_uris":{"android":"levelo://app?vid=ba07389c-7656-4771-bfca-ecf989f73900","ios":"levelo://app?vid=ba07389c-7656-4771-bfca-ecf989f73900"},"vehicle_type_id":"4","last_reported":1726553575,"current_range_meters":28800,"station_id":"","pricing_plan_id":"cebpf4jnsgd1na2vs0mg"},{"bike_id":"fcf97093-637c-4342-854a-02e456b30eed","system_id":"levelo_inurba_marseille","lat":43.31492,"lon":5.37303,"is_reserved":false,"is_disabled":false,"rental_uris":{"android":"levelo://app?vid=fcf97093-637c-4342-854a-02e456b30eed","ios":"levelo://app?vid=fcf97093-637c-4342-854a-02e456b30eed"},"vehicle_type_id":"4","last_reported":1726553575,"current_range_meters":36800,"station_id":"ce4bgt12rcd13ifvqcd0","pricing_plan_id":"cebpf4jnsgd1na2vs0mg"},{"bike_id":"e72f43fd-5fd7-43f3-8743-4c038c7a4717","system_id":"levelo_inurba_marseille","lat":43.24646,"lon":5.38899,"is_reserved":false,"is_disabled":false,"rental_uris":{"android":"levelo://app?vid=e72f43fd-5fd7-43f3-8743-4c038c7a4717","ios":"levelo://app?vid=e72f43fd-5fd7-43f3-8743-4c038c7a4717"},"vehicle_type_id":"4","last_reported":1726553575,"current_range_meters":30800,"station_id":"ce4bhg12rcd13ifvqf60","pricing_plan_id":"cebpf4jnsgd1na2vs0mg"},{"bike_id":"0ee7a5e1-a53d-474a-9625-99477ecad597","system_id":"levelo_inurba_marseille","lat":43.22928,"lon":5.35381,"is_reserved":false,"is_disabled":false,"rental_uris":{"android":"levelo://app?vid=0ee7a5e1-a53d-474a-9625-99477ecad597","ios":"levelo://app?vid=0ee7a5e1-a53d-474a-9625-99477ecad597"},"vehicle_type_id":"4","last_reported":1726553575,"current_range_meters":6000,"station_id":"cpo3532slgdg3j2ikp40","pricing_plan_id":"cebpf4jnsgd1na2vs0mg"},{"bike_id":"77e000e7-1734-4e49-93cb-8d8e0e201614","system_id":"levelo_inurba_marseille","lat":43.295624,"lon":5.422799,"is_reserved":false,"is_disabled":false,"rental_uris":{"android":"levelo://app?vid=77e000e7-1734-4e49-93cb-8d8e0e201614","ios":"levelo://app?vid=77e000e7-1734-4e49-93cb-8d8e0e201614"},"vehicle_type_id":"4","last_reported":1726553575,"current_range_meters":7200,"station_id":"ce4bhph2rcd13ifvqhdg","pricing_plan_id":"cebpf4jnsgd1na2vs0mg"},{"bike_id":"50a2b5d3-0f50-4851-bf79-9ecccd45ca06","system_id":"levelo_inurba_marseille","lat":43.27379,"lon":5.36249,"is_reserved":false,"is_disabled":false,"rental_uris":{"android":"levelo://app?vid=50a2b5d3-0f50-4851-bf79-9ecccd45ca06","ios":"levelo://app?vid=50a2b5d3-0f50-4851-bf79-9ecccd45ca06"},"vehicle_type_id":"4","last_reported":1726553575,"current_range_meters":36800,"station_id":"ce4bhbh2rcd13ifvqeo0","pricing_plan_id":"cebpf4jnsgd1na2vs0mg"},{"bike_id":"029ca9a5-3d14-4806-ac9a-6443f441bb80","system_id":"levelo_inurba_marseille","lat":43.28941,"lon":5.36636,"is_reserved":false,"is_disabled":false,"rental_uris":{"android":"levelo://app?vid=029ca9a5-3d14-4806-ac9a-6443f441bb80","ios":"levelo://app?vid=029ca9a5-3d14-4806-ac9a-6443f441bb80"},"vehicle_type_id":"4","last_reported":1726553575,"current_range_meters":28800,"station_id":"ce4bhap2rcd13ifvqek0","pricing_plan_id":"cebpf4jnsgd1na2vs0mg"},{"bike_id":"1aa9d18b-3cb0-43db-abef-b9bb4172ad85","system_id":"levelo_inurba_marseille","lat":43.26943,"lon":5.40242,"is_reserved":false,"is_disabled":false,"rental_uris":{"android":"levelo://app?vid=1aa9d18b-3cb0-43db-abef-b9bb4172ad85","ios":"levelo://app?vid=1aa9d18b-3cb0-43db-abef-b9bb4172ad85"},"vehicle_type_id":"4","last_reported":1726553575,"current_range_meters":37600,"station_id":"cjm6bp8fraef2m0cb0m0","pricing_plan_id":"cebpf4jnsgd1na2vs0mg"},{"bike_id":"d2c54274-6e2d-402a-82da-79b56d9c38e9","system_id":"levelo_inurba_marseille","lat":43.24578,"lon":5.3935,"is_reserved":false,"is_disabled":false,"rental_uris":{"android":"levelo://app?vid=d2c54274-6e2d-402a-82da-79b56d9c38e9","ios":"levelo://app?vid=d2c54274-6e2d-402a-82da-79b56d9c38e9"},"vehicle_type_id":"4","last_reported":1726553575,"current_range_meters":25600,"station_id":"ce4bhlp2rcd13ifvqgjg","pricing_plan_id":"cebpf4jnsgd1na2vs0mg"},{"bike_id":"ad722464-32b1-4125-bf35-54f1e4aed3dd","system_id":"levelo_inurba_marseille","lat":43.24076,"lon":5.37759,"is_reserved":false,"is_disabled":false,"rental_uris":{"android":"levelo://app?vid=ad722464-32b1-4125-bf35-54f1e4aed3dd","ios":"levelo://app?vid=ad722464-32b1-4125-bf35-54f1e4aed3dd"},"vehicle_type_id":"4","last_reported":1726553575,"current_range_meters":6000,"station_id":"ce4bhnp2rcd13ifvqgvg","pricing_plan_id":"cebpf4jnsgd1na2vs0mg"},{"bike_id":"8d52c58f-9942-4f2d-b989-11d61f2ba529","system_id":"levelo_inurba_marseille","lat":43.30334,"lon":5.40404,"is_reserved":false,"is_disabled":false,"rental_uris":{"android":"levelo://app?vid=8d52c58f-9942-4f2d-b989-11d61f2ba529","ios":"levelo://app?vid=8d52c58f-9942-4f2d-b989-11d61f2ba529"},"vehicle_type_id":"4","last_reported":1726553575,"current_range_meters":17200,"station_id":"ce4bh012rcd13ifvqd10","pricing_plan_id":"cebpf4jnsgd1na2vs0mg"},{"bike_id":"81d08b96-f434-4055-ae4f-ea6ba1db2afe","system_id":"levelo_inurba_marseille","lat":43.28719,"lon":5.37928,"is_reserved":false,"is_disabled":false,"rental_uris":{"android":"levelo://app?vid=81d08b96-f434-4055-ae4f-ea6ba1db2afe","ios":"levelo://app?vid=81d08b96-f434-4055-ae4f-ea6ba1db2afe"},"vehicle_type_id":"4","last_reported":1726553575,"current_range_meters":37600,"station_id":"ce4bh9p2rcd13ifvqec0","pricing_plan_id":"cebpf4jnsgd1na2vs0mg"},{"bike_id":"fed25c85-b3e7-4093-a992-a9eacb54e345","system_id":"levelo_inurba_marseille","lat":43.23195,"lon":5.35549,"is_reserved":false,"is_disabled":false,"rental_uris":{"android":"levelo://app?vid=fed25c85-b3e7-4093-a992-a9eacb54e345","ios":"levelo://app?vid=fed25c85-b3e7-4093-a992-a9eacb54e345"},"vehicle_type_id":"4","last_reported":1726553575,"current_range_meters":38400,"station_id":"ce4bhu92rcd13ifvqi70","pricing_plan_id":"cebpf4jnsgd1na2vs0mg"},{"bike_id":"e0e3ce47-6512-45e6-b84e-afd8802c8af3","system_id":"levelo_inurba_marseille","lat":43.3047,"lon":5.37903,"is_reserved":false,"is_disabled":false,"rental_uris":{"android":"levelo://app?vid=e0e3ce47-6512-45e6-b84e-afd8802c8af3","ios":"levelo://app?vid=e0e3ce47-6512-45e6-b84e-afd8802c8af3"},"vehicle_type_id":"4","last_reported":1726553575,"current_range_meters":38800,"station_id":"ce4bgup2rcd13ifvqcn0","pricing_plan_id":"cebpf4jnsgd1na2vs0mg"},{"bike_id":"3bb355ca-e15e-46c0-91bf-85771f96f162","system_id":"levelo_inurba_marseille","lat":43.30594,"lon":5.39357,"is_reserved":false,"is_disabled":false,"rental_uris":{"android":"levelo://app?vid=3bb355ca-e15e-46c0-91bf-85771f96f162","ios":"levelo://app?vid=3bb355ca-e15e-46c0-91bf-85771f96f162"},"vehicle_type_id":"4","last_reported":1726553575,"current_range_meters":28400,"station_id":"ce4bh0p2rcd13ifvqd80","pricing_plan_id":"cebpf4jnsgd1na2vs0mg"},{"bike_id":"0ae883a0-9800-41cb-b92c-319fb31ae4ee","system_id":"levelo_inurba_marseille","lat":43.28351,"lon":5.38094,"is_reserved":false,"is_disabled":false,"rental_uris":{"android":"levelo://app?vid=0ae883a0-9800-41cb-b92c-319fb31ae4ee","ios":"levelo://app?vid=0ae883a0-9800-41cb-b92c-319fb31ae4ee"},"vehicle_type_id":"4","last_reported":1726553575,"current_range_meters":20400,"station_id":"ce4bh412rcd13ifvqdr0","pricing_plan_id":"cebpf4jnsgd1na2vs0mg"},{"bike_id":"85783084-3a1e-403e-ab0a-bf6398a9a0da","system_id":"levelo_inurba_marseille","lat":43.240746,"lon":5.377207,"is_reserved":false,"is_disabled":false,"rental_uris":{"android":"levelo://app?vid=85783084-3a1e-403e-ab0a-bf6398a9a0da","ios":"levelo://app?vid=85783084-3a1e-403e-ab0a-bf6398a9a0da"},"vehicle_type_id":"4","last_reported":1726553575,"current_range_meters":34000,"station_id":"ce4bhnp2rcd13ifvqgvg","pricing_plan_id":"cebpf4jnsgd1na2vs0mg"},{"bike_id":"594f7c76-57ca-4cd5-bc88-27ebcd872fa6","system_id":"levelo_inurba_marseille","lat":43.304648,"lon":5.379231,"is_reserved":false,"is_disabled":false,"rental_uris":{"android":"levelo://app?vid=594f7c76-57ca-4cd5-bc88-27ebcd872fa6","ios":"levelo://app?vid=594f7c76-57ca-4cd5-bc88-27ebcd872fa6"},"vehicle_type_id":"4","last_reported":1726553575,"current_range_meters":34000,"station_id":"ce4bgup2rcd13ifvqcn0","pricing_plan_id":"cebpf4jnsgd1na2vs0mg"},{"bike_id":"6ad2fe94-195b-4d58-9ac6-d3a9675a4c80","system_id":"levelo_inurba_marseille","lat":43.23067,"lon":5.35491,"is_reserved":false,"is_disabled":false,"rental_uris":{"android":"levelo://app?vid=6ad2fe94-195b-4d58-9ac6-d3a9675a4c80","ios":"levelo://app?vid=6ad2fe94-195b-4d58-9ac6-d3a9675a4c80"},"vehicle_type_id":"4","last_reported":1726553575,"current_range_meters":11600,"station_id":"cpo3342slgdg3j2ifvpg","pricing_plan_id":"cebpf4jnsgd1na2vs0mg"},{"bike_id":"6dd17a2f-59bb-4453-859d-2c09ab795824","system_id":"levelo_inurba_marseille","lat":43.3302,"lon":5.39049,"is_reserved":false,"is_disabled":false,"rental_uris":{"android":"levelo://app?vid=6dd17a2f-59bb-4453-859d-2c09ab795824","ios":"levelo://app?vid=6dd17a2f-59bb-4453-859d-2c09ab795824"},"vehicle_type_id":"4","last_reported":1726553575,"current_range_meters":32400,"station_id":"ce4bhr92rcd13ifvqhrg","pricing_plan_id":"cebpf4jnsgd1na2vs0mg"},{"bike_id":"e3bbc970-b6c8-46e6-8f6e-ed2e96d07b65","system_id":"levelo_inurba_marseille","lat":43.27421,"lon":5.39412,"is_reserved":false,"is_disabled":false,"rental_uris":{"android":"levelo://app?vid=e3bbc970-b6c8-46e6-8f6e-ed2e96d07b65","ios":"levelo://app?vid=e3bbc970-b6c8-46e6-8f6e-ed2e96d07b65"},"vehicle_type_id":"4","last_reported":1726553575,"current_range_meters":24400,"station_id":"ce4bhdp2rcd13ifvqf20","pricing_plan_id":"cebpf4jnsgd1na2vs0mg"},{"bike_id":"c2ecb147-8ee1-4803-aa1c-5a9b13d8ea1c","system_id":"levelo_inurba_marseille","lat":43.23153,"lon":5.43711,"is_reserved":false,"is_disabled":false,"rental_uris":{"android":"levelo://app?vid=c2ecb147-8ee1-4803-aa1c-5a9b13d8ea1c","ios":"levelo://app?vid=c2ecb147-8ee1-4803-aa1c-5a9b13d8ea1c"},"vehicle_type_id":"4","last_reported":1726553575,"current_range_meters":38400,"station_id":"ce4bhmp2rcd13ifvqgog","pricing_plan_id":"cebpf4jnsgd1na2vs0mg"},{"bike_id":"8ac17af3-1087-4030-8684-fc752197666e","system_id":"levelo_inurba_marseille","lat":43.32368,"lon":5.3888,"is_reserved":false,"is_disabled":false,"rental_uris":{"android":"levelo://app?vid=8ac17af3-1087-4030-8684-fc752197666e","ios":"levelo://app?vid=8ac17af3-1087-4030-8684-fc752197666e"},"vehicle_type_id":"4","last_reported":1726553575,"current_range_meters":19200,"station_id":"ce4bhqp2rcd13ifvqhog","pricing_plan_id":"cebpf4jnsgd1na2vs0mg"},{"bike_id":"c87fb60b-5c86-45c9-9060-91e0fe986f58","system_id":"levelo_inurba_marseille","lat":43.29846,"lon":5.36274,"is_reserved":false,"is_disabled":false,"rental_uris":{"android":"levelo://app?vid=c87fb60b-5c86-45c9-9060-91e0fe986f58","ios":"levelo://app?vid=c87fb60b-5c86-45c9-9060-91e0fe986f58"},"vehicle_type_id":"4","last_reported":1726553575,"current_range_meters":35200,"station_id":"ce4bgpp2rcd13ifvqc3g","pricing_plan_id":"cebpf4jnsgd1na2vs0mg"},{"bike_id":"285d3ce5-30a7-4099-b570-90e915acc78a","system_id":"levelo_inurba_marseille","lat":43.2465,"lon":5.38896,"is_reserved":false,"is_disabled":false,"rental_uris":{"android":"levelo://app?vid=285d3ce5-30a7-4099-b570-90e915acc78a","ios":"levelo://app?vid=285d3ce5-30a7-4099-b570-90e915acc78a"},"vehicle_type_id":"4","last_reported":1726553575,"current_range_meters":39200,"station_id":"ce4bhg12rcd13ifvqf60","pricing_plan_id":"cebpf4jnsgd1na2vs0mg"},{"bike_id":"a0da9788-6ad0-4bd2-9978-72c1654ca4ea","system_id":"levelo_inurba_marseille","lat":43.32368,"lon":5.38884,"is_reserved":false,"is_disabled":false,"rental_uris":{"android":"levelo://app?vid=a0da9788-6ad0-4bd2-9978-72c1654ca4ea","ios":"levelo://app?vid=a0da9788-6ad0-4bd2-9978-72c1654ca4ea"},"vehicle_type_id":"4","last_reported":1726553575,"current_range_meters":16400,"station_id":"ce4bhqp2rcd13ifvqhog","pricing_plan_id":"cebpf4jnsgd1na2vs0mg"},{"bike_id":"f11293b9-5944-418c-9cea-2087ec8521d3","system_id":"levelo_inurba_marseille","lat":43.31228,"lon":5.36855,"is_reserved":false,"is_disabled":false,"rental_uris":{"android":"levelo://app?vid=f11293b9-5944-418c-9cea-2087ec8521d3","ios":"levelo://app?vid=f11293b9-5944-418c-9cea-2087ec8521d3"},"vehicle_type_id":"4","last_reported":1726553575,"current_range_meters":16400,"station_id":"ce4bgl92rcd13ifvqbq0","pricing_plan_id":"cebpf4jnsgd1na2vs0mg"},{"bike_id":"0db88feb-1f89-40f0-8f77-ba7ba60b5ea5","system_id":"levelo_inurba_marseille","lat":43.30467,"lon":5.37902,"is_reserved":false,"is_disabled":false,"rental_uris":{"android":"levelo://app?vid=0db88feb-1f89-40f0-8f77-ba7ba60b5ea5","ios":"levelo://app?vid=0db88feb-1f89-40f0-8f77-ba7ba60b5ea5"},"vehicle_type_id":"4","last_reported":1726553575,"current_range_meters":23200,"station_id":"ce4bgup2rcd13ifvqcn0","pricing_plan_id":"cebpf4jnsgd1na2vs0mg"},{"bike_id":"ee2a6f6f-8fd5-4be5-b404-f76250f2e4dc","system_id":"levelo_inurba_marseille","lat":43.27496,"lon":5.42446,"is_reserved":false,"is_disabled":false,"rental_uris":{"android":"levelo://app?vid=ee2a6f6f-8fd5-4be5-b404-f76250f2e4dc","ios":"levelo://app?vid=ee2a6f6f-8fd5-4be5-b404-f76250f2e4dc"},"vehicle_type_id":"4","last_reported":1726553575,"current_range_meters":38800,"station_id":"ce4bhn92rcd13ifvqgrg","pricing_plan_id":"cebpf4jnsgd1na2vs0mg"},{"bike_id":"22f26e89-4ccd-47af-bb30-5f037502847c","system_id":"levelo_inurba_marseille","lat":43.2319,"lon":5.39992,"is_reserved":false,"is_disabled":false,"rental_uris":{"android":"levelo://app?vid=22f26e89-4ccd-47af-bb30-5f037502847c","ios":"levelo://app?vid=22f26e89-4ccd-47af-bb30-5f037502847c"},"vehicle_type_id":"4","last_reported":1726553575,"current_range_meters":28800,"station_id":"ce4bhn12rcd13ifvqgqg","pricing_plan_id":"cebpf4jnsgd1na2vs0mg"},{"bike_id":"c71ef2fd-b580-46c2-b8b7-5c54866faa8b","system_id":"levelo_inurba_marseille","lat":43.30602,"lon":5.39357,"is_reserved":false,"is_disabled":false,"rental_uris":{"android":"levelo://app?vid=c71ef2fd-b580-46c2-b8b7-5c54866faa8b","ios":"levelo://app?vid=c71ef2fd-b580-46c2-b8b7-5c54866faa8b"},"vehicle_type_id":"4","last_reported":1726553575,"current_range_meters":38800,"station_id":"ce4bh0p2rcd13ifvqd80","pricing_plan_id":"cebpf4jnsgd1na2vs0mg"},{"bike_id":"dcedc4d0-5154-46be-ab26-09bd6c855628","system_id":"levelo_inurba_marseille","lat":43.32359,"lon":5.38882,"is_reserved":false,"is_disabled":false,"rental_uris":{"android":"levelo://app?vid=dcedc4d0-5154-46be-ab26-09bd6c855628","ios":"levelo://app?vid=dcedc4d0-5154-46be-ab26-09bd6c855628"},"vehicle_type_id":"4","last_reported":1726553575,"current_range_meters":33600,"station_id":"ce4bhqp2rcd13ifvqhog","pricing_plan_id":"cebpf4jnsgd1na2vs0mg"},{"bike_id":"40985379-541f-4b2c-ad78-dae449190c41","system_id":"levelo_inurba_marseille","lat":43.29033,"lon":5.38647,"is_reserved":false,"is_disabled":false,"rental_uris":{"android":"levelo://app?vid=40985379-541f-4b2c-ad78-dae449190c41","ios":"levelo://app?vid=40985379-541f-4b2c-ad78-dae449190c41"},"vehicle_type_id":"4","last_reported":1726553575,"current_range_meters":32400,"station_id":"ce4bh4p2rcd13ifvqe0g","pricing_plan_id":"cebpf4jnsgd1na2vs0mg"},{"bike_id":"4116b19f-3bd6-44e6-a4e0-283059e35145","system_id":"levelo_inurba_marseille","lat":43.284616,"lon":5.358809,"is_reserved":false,"is_disabled":false,"rental_uris":{"android":"levelo://app?vid=4116b19f-3bd6-44e6-a4e0-283059e35145","ios":"levelo://app?vid=4116b19f-3bd6-44e6-a4e0-283059e35145"},"vehicle_type_id":"4","last_reported":1726553575,"current_range_meters":36800,"station_id":"ce4bhah2rcd13ifvqei0","pricing_plan_id":"cebpf4jnsgd1na2vs0mg"},{"bike_id":"0d830da1-088f-410f-befa-e68ac04cbdf5","system_id":"levelo_inurba_marseille","lat":43.24081,"lon":5.37733,"is_reserved":false,"is_disabled":false,"rental_uris":{"android":"levelo://app?vid=0d830da1-088f-410f-befa-e68ac04cbdf5","ios":"levelo://app?vid=0d830da1-088f-410f-befa-e68ac04cbdf5"},"vehicle_type_id":"4","last_reported":1726553575,"current_range_meters":30400,"station_id":"ce4bhnp2rcd13ifvqgvg","pricing_plan_id":"cebpf4jnsgd1na2vs0mg"},{"bike_id":"65eecb51-7024-4f30-af20-d65f809bce2b","system_id":"levelo_inurba_marseille","lat":43.31471,"lon":5.38327,"is_reserved":false,"is_disabled":false,"rental_uris":{"android":"levelo://app?vid=65eecb51-7024-4f30-af20-d65f809bce2b","ios":"levelo://app?vid=65eecb51-7024-4f30-af20-d65f809bce2b"},"vehicle_type_id":"4","last_reported":1726553575,"current_range_meters":8800,"station_id":"ce4bgvp2rcd13ifvqcu0","pricing_plan_id":"cebpf4jnsgd1na2vs0mg"},{"bike_id":"c034b2d4-b5bc-412f-bc1e-4b54e7a2ef44","system_id":"levelo_inurba_marseille","lat":43.27494,"lon":5.42455,"is_reserved":false,"is_disabled":false,"rental_uris":{"android":"levelo://app?vid=c034b2d4-b5bc-412f-bc1e-4b54e7a2ef44","ios":"levelo://app?vid=c034b2d4-b5bc-412f-bc1e-4b54e7a2ef44"},"vehicle_type_id":"4","last_reported":1726553575,"current_range_meters":38800,"station_id":"ce4bhn92rcd13ifvqgrg","pricing_plan_id":"cebpf4jnsgd1na2vs0mg"},{"bike_id":"1c0be0df-2859-4834-8ec3-e54bba296300","system_id":"levelo_inurba_marseille","lat":43.26486,"lon":5.39549,"is_reserved":false,"is_disabled":false,"rental_uris":{"android":"levelo://app?vid=1c0be0df-2859-4834-8ec3-e54bba296300","ios":"levelo://app?vid=1c0be0df-2859-4834-8ec3-e54bba296300"},"vehicle_type_id":"4","last_reported":1726553575,"current_range_meters":38800,"station_id":"ce4bhi12rcd13ifvqfq0","pricing_plan_id":"cebpf4jnsgd1na2vs0mg"},{"bike_id":"714bd286-0914-421a-ac78-a8aec3d8de06","system_id":"levelo_inurba_marseille","lat":43.31715,"lon":5.43706,"is_reserved":false,"is_disabled":false,"rental_uris":{"android":"levelo://app?vid=714bd286-0914-421a-ac78-a8aec3d8de06","ios":"levelo://app?vid=714bd286-0914-421a-ac78-a8aec3d8de06"},"vehicle_type_id":"4","last_reported":1726553575,"current_range_meters":6000,"station_id":"ce4bhp92rcd13ifvqhcg","pricing_plan_id":"cebpf4jnsgd1na2vs0mg"},{"bike_id":"90ac149a-3a95-4b27-be6a-2683b4b59c04","system_id":"levelo_inurba_marseille","lat":43.32364,"lon":5.38888,"is_reserved":false,"is_disabled":false,"rental_uris":{"android":"levelo://app?vid=90ac149a-3a95-4b27-be6a-2683b4b59c04","ios":"levelo://app?vid=90ac149a-3a95-4b27-be6a-2683b4b59c04"},"vehicle_type_id":"4","last_reported":1726553575,"current_range_meters":26800,"station_id":"ce4bhqp2rcd13ifvqhog","pricing_plan_id":"cebpf4jnsgd1na2vs0mg"},{"bike_id":"9e6acc5e-94a7-4e9f-94a9-f4362cac3b04","system_id":"levelo_inurba_marseille","lat":43.30907,"lon":5.36852,"is_reserved":false,"is_disabled":false,"rental_uris":{"android":"levelo://app?vid=9e6acc5e-94a7-4e9f-94a9-f4362cac3b04","ios":"levelo://app?vid=9e6acc5e-94a7-4e9f-94a9-f4362cac3b04"},"vehicle_type_id":"4","last_reported":1726553575,"current_range_meters":39200,"station_id":"ce4bgn92rcd13ifvqbvg","pricing_plan_id":"cebpf4jnsgd1na2vs0mg"},{"bike_id":"f5c0e1e2-2d50-430f-b096-cc74d6ddc37d","system_id":"levelo_inurba_marseille","lat":43.27496,"lon":5.42451,"is_reserved":false,"is_disabled":false,"rental_uris":{"android":"levelo://app?vid=f5c0e1e2-2d50-430f-b096-cc74d6ddc37d","ios":"levelo://app?vid=f5c0e1e2-2d50-430f-b096-cc74d6ddc37d"},"vehicle_type_id":"4","last_reported":1726553575,"current_range_meters":38800,"station_id":"ce4bhn92rcd13ifvqgrg","pricing_plan_id":"cebpf4jnsgd1na2vs0mg"},{"bike_id":"23dd0c20-fce0-40ea-aaa2-cab4c3dedbd9","system_id":"levelo_inurba_marseille","lat":43.23152,"lon":5.43723,"is_reserved":false,"is_disabled":false,"rental_uris":{"android":"levelo://app?vid=23dd0c20-fce0-40ea-aaa2-cab4c3dedbd9","ios":"levelo://app?vid=23dd0c20-fce0-40ea-aaa2-cab4c3dedbd9"},"vehicle_type_id":"4","last_reported":1726553575,"current_range_meters":10800,"station_id":"ce4bhmp2rcd13ifvqgog","pricing_plan_id":"cebpf4jnsgd1na2vs0mg"},{"bike_id":"4d47fd35-f1ea-40e7-ad44-3da2fd66b9c0","system_id":"levelo_inurba_marseille","lat":43.27495,"lon":5.42451,"is_reserved":false,"is_disabled":false,"rental_uris":{"android":"levelo://app?vid=4d47fd35-f1ea-40e7-ad44-3da2fd66b9c0","ios":"levelo://app?vid=4d47fd35-f1ea-40e7-ad44-3da2fd66b9c0"},"vehicle_type_id":"4","last_reported":1726553575,"current_range_meters":24400,"station_id":"ce4bhn92rcd13ifvqgrg","pricing_plan_id":"cebpf4jnsgd1na2vs0mg"},{"bike_id":"b01418f4-0753-4dcd-b012-9f06a51cbc86","system_id":"levelo_inurba_marseille","lat":43.29012,"lon":5.38137,"is_reserved":false,"is_disabled":false,"rental_uris":{"android":"levelo://app?vid=b01418f4-0753-4dcd-b012-9f06a51cbc86","ios":"levelo://app?vid=b01418f4-0753-4dcd-b012-9f06a51cbc86"},"vehicle_type_id":"4","last_reported":1726553575,"current_range_meters":27600,"station_id":"ce4bh4p2rcd13ifvqe1g","pricing_plan_id":"cebpf4jnsgd1na2vs0mg"},{"bike_id":"fb389055-f66c-4e32-b271-86411d587f5d","system_id":"levelo_inurba_marseille","lat":43.30307,"lon":5.369,"is_reserved":false,"is_disabled":false,"rental_uris":{"android":"levelo://app?vid=fb389055-f66c-4e32-b271-86411d587f5d","ios":"levelo://app?vid=fb389055-f66c-4e32-b271-86411d587f5d"},"vehicle_type_id":"4","last_reported":1726553575,"current_range_meters":38800,"station_id":"ce4bgqh2rcd13ifvqc5g","pricing_plan_id":"cebpf4jnsgd1na2vs0mg"},{"bike_id":"9aff3f9f-e176-43ae-9e12-492612b7ce95","system_id":"levelo_inurba_marseille","lat":43.2749,"lon":5.4246,"is_reserved":false,"is_disabled":false,"rental_uris":{"android":"levelo://app?vid=9aff3f9f-e176-43ae-9e12-492612b7ce95","ios":"levelo://app?vid=9aff3f9f-e176-43ae-9e12-492612b7ce95"},"vehicle_type_id":"4","last_reported":1726553575,"current_range_meters":8000,"station_id":"ce4bhn92rcd13ifvqgrg","pricing_plan_id":"cebpf4jnsgd1na2vs0mg"},{"bike_id":"7dd25116-4b08-418f-b59a-2cd52163c135","system_id":"levelo_inurba_marseille","lat":43.24082,"lon":5.37753,"is_reserved":false,"is_disabled":false,"rental_uris":{"android":"levelo://app?vid=7dd25116-4b08-418f-b59a-2cd52163c135","ios":"levelo://app?vid=7dd25116-4b08-418f-b59a-2cd52163c135"},"vehicle_type_id":"4","last_reported":1726553575,"current_range_meters":38800,"station_id":"ce4bhnp2rcd13ifvqgvg","pricing_plan_id":"cebpf4jnsgd1na2vs0mg"},{"bike_id":"8ea79706-33c2-4140-a630-4d917dade742","system_id":"levelo_inurba_marseille","lat":43.231504,"lon":5.437244,"is_reserved":false,"is_disabled":false,"rental_uris":{"android":"levelo://app?vid=8ea79706-33c2-4140-a630-4d917dade742","ios":"levelo://app?vid=8ea79706-33c2-4140-a630-4d917dade742"},"vehicle_type_id":"4","last_reported":1726553575,"current_range_meters":26000,"station_id":"ce4bhmp2rcd13ifvqgog","pricing_plan_id":"cebpf4jnsgd1na2vs0mg"},{"bike_id":"651a741a-1333-4a43-8f78-077564a8ca91","system_id":"levelo_inurba_marseille","lat":43.28928,"lon":5.3838,"is_reserved":false,"is_disabled":false,"rental_uris":{"android":"levelo://app?vid=651a741a-1333-4a43-8f78-077564a8ca91","ios":"levelo://app?vid=651a741a-1333-4a43-8f78-077564a8ca91"},"vehicle_type_id":"4","last_reported":1726553575,"current_range_meters":38800,"station_id":"ce4bh612rcd13ifvqe6g","pricing_plan_id":"cebpf4jnsgd1na2vs0mg"},{"bike_id":"2a74aa2d-f8fa-4b59-af3e-57ccb051a669","system_id":"levelo_inurba_marseille","lat":43.31724,"lon":5.42403,"is_reserved":false,"is_disabled":false,"rental_uris":{"android":"levelo://app?vid=2a74aa2d-f8fa-4b59-af3e-57ccb051a669","ios":"levelo://app?vid=2a74aa2d-f8fa-4b59-af3e-57ccb051a669"},"vehicle_type_id":"4","last_reported":1726553575,"current_range_meters":13600,"station_id":"ce4bhp92rcd13ifvqhbg","pricing_plan_id":"cebpf4jnsgd1na2vs0mg"},{"bike_id":"a7795e52-ef4c-4bc6-82c4-5cd41754e79d","system_id":"levelo_inurba_marseille","lat":43.30627,"lon":5.3803,"is_reserved":false,"is_disabled":false,"rental_uris":{"android":"levelo://app?vid=a7795e52-ef4c-4bc6-82c4-5cd41754e79d","ios":"levelo://app?vid=a7795e52-ef4c-4bc6-82c4-5cd41754e79d"},"vehicle_type_id":"4","last_reported":1726553575,"current_range_meters":15200,"station_id":"","pricing_plan_id":"cebpf4jnsgd1na2vs0mg"},{"bike_id":"aeeca904-6bbe-496d-85df-603516408c66","system_id":"levelo_inurba_marseille","lat":43.25719,"lon":5.41111,"is_reserved":false,"is_disabled":false,"rental_uris":{"android":"levelo://app?vid=aeeca904-6bbe-496d-85df-603516408c66","ios":"levelo://app?vid=aeeca904-6bbe-496d-85df-603516408c66"},"vehicle_type_id":"4","last_reported":1726553575,"current_range_meters":17200,"station_id":"ce4bhkp2rcd13ifvqgd0","pricing_plan_id":"cebpf4jnsgd1na2vs0mg"},{"bike_id":"07cbb859-ea24-4a6a-a4d2-7a7ee4a00c4d","system_id":"levelo_inurba_marseille","lat":43.2867,"lon":5.38653,"is_reserved":false,"is_disabled":false,"rental_uris":{"android":"levelo://app?vid=07cbb859-ea24-4a6a-a4d2-7a7ee4a00c4d","ios":"levelo://app?vid=07cbb859-ea24-4a6a-a4d2-7a7ee4a00c4d"},"vehicle_type_id":"4","last_reported":1726553575,"current_range_meters":37600,"station_id":"ce4bh492rcd13ifvqdug","pricing_plan_id":"cebpf4jnsgd1na2vs0mg"},{"bike_id":"7bf3a00d-0f72-4210-8e27-271d81087077","system_id":"levelo_inurba_marseille","lat":43.30153,"lon":5.38083,"is_reserved":false,"is_disabled":false,"rental_uris":{"android":"levelo://app?vid=7bf3a00d-0f72-4210-8e27-271d81087077","ios":"levelo://app?vid=7bf3a00d-0f72-4210-8e27-271d81087077"},"vehicle_type_id":"4","last_reported":1726553575,"current_range_meters":27200,"station_id":"ce4bgjp2rcd13ifvqbh0","pricing_plan_id":"cebpf4jnsgd1na2vs0mg"},{"bike_id":"5e44dce9-cd70-42b5-97d2-16690f3be528","system_id":"levelo_inurba_marseille","lat":43.30159,"lon":5.38079,"is_reserved":false,"is_disabled":false,"rental_uris":{"android":"levelo://app?vid=5e44dce9-cd70-42b5-97d2-16690f3be528","ios":"levelo://app?vid=5e44dce9-cd70-42b5-97d2-16690f3be528"},"vehicle_type_id":"4","last_reported":1726553575,"current_range_meters":36000,"station_id":"ce4bgjp2rcd13ifvqbh0","pricing_plan_id":"cebpf4jnsgd1na2vs0mg"},{"bike_id":"04aef8ce-eff2-415b-bf72-b9490ba7170c","system_id":"levelo_inurba_marseille","lat":43.2981,"lon":5.3809,"is_reserved":false,"is_disabled":false,"rental_uris":{"android":"levelo://app?vid=04aef8ce-eff2-415b-bf72-b9490ba7170c","ios":"levelo://app?vid=04aef8ce-eff2-415b-bf72-b9490ba7170c"},"vehicle_type_id":"4","last_reported":1726553575,"current_range_meters":7200,"station_id":"ce4bgip2rcd13ifvqbb0","pricing_plan_id":"cebpf4jnsgd1na2vs0mg"},{"bike_id":"54a39329-f575-4727-ac1f-a5a4ccac54db","system_id":"levelo_inurba_marseille","lat":43.33617,"lon":5.41037,"is_reserved":false,"is_disabled":false,"rental_uris":{"android":"levelo://app?vid=54a39329-f575-4727-ac1f-a5a4ccac54db","ios":"levelo://app?vid=54a39329-f575-4727-ac1f-a5a4ccac54db"},"vehicle_type_id":"4","last_reported":1726553575,"current_range_meters":35600,"station_id":"ce4bhqh2rcd13ifvqhmg","pricing_plan_id":"cebpf4jnsgd1na2vs0mg"},{"bike_id":"cbaf03bf-0340-4293-a424-18d0ef0b595f","system_id":"levelo_inurba_marseille","lat":43.299,"lon":5.43666,"is_reserved":false,"is_disabled":false,"rental_uris":{"android":"levelo://app?vid=cbaf03bf-0340-4293-a424-18d0ef0b595f","ios":"levelo://app?vid=cbaf03bf-0340-4293-a424-18d0ef0b595f"},"vehicle_type_id":"4","last_reported":1726553575,"current_range_meters":23200,"station_id":"ce4bhpp2rcd13ifvqhfg","pricing_plan_id":"cebpf4jnsgd1na2vs0mg"},{"bike_id":"7b5cf287-5ca9-47cf-8f93-0b7b0a662246","system_id":"levelo_inurba_marseille","lat":43.309849,"lon":5.390448,"is_reserved":false,"is_disabled":false,"rental_uris":{"android":"levelo://app?vid=7b5cf287-5ca9-47cf-8f93-0b7b0a662246","ios":"levelo://app?vid=7b5cf287-5ca9-47cf-8f93-0b7b0a662246"},"vehicle_type_id":"4","last_reported":1726553575,"current_range_meters":10800,"station_id":"ce4bgup2rcd13ifvqco0","pricing_plan_id":"cebpf4jnsgd1na2vs0mg"},{"bike_id":"f3c2635b-194e-4fed-8af4-f50c9d56b5c5","system_id":"levelo_inurba_marseille","lat":43.30154,"lon":5.38075,"is_reserved":false,"is_disabled":false,"rental_uris":{"android":"levelo://app?vid=f3c2635b-194e-4fed-8af4-f50c9d56b5c5","ios":"levelo://app?vid=f3c2635b-194e-4fed-8af4-f50c9d56b5c5"},"vehicle_type_id":"4","last_reported":1726553575,"current_range_meters":23200,"station_id":"ce4bgjp2rcd13ifvqbh0","pricing_plan_id":"cebpf4jnsgd1na2vs0mg"},{"bike_id":"f78ec244-0aef-4b6c-a1be-b01f3523a44d","system_id":"levelo_inurba_marseille","lat":43.27492,"lon":5.42452,"is_reserved":false,"is_disabled":false,"rental_uris":{"android":"levelo://app?vid=f78ec244-0aef-4b6c-a1be-b01f3523a44d","ios":"levelo://app?vid=f78ec244-0aef-4b6c-a1be-b01f3523a44d"},"vehicle_type_id":"4","last_reported":1726553575,"current_range_meters":34000,"station_id":"ce4bhn92rcd13ifvqgrg","pricing_plan_id":"cebpf4jnsgd1na2vs0mg"},{"bike_id":"b71de538-a719-49bb-8773-2331356ccc3c","system_id":"levelo_inurba_marseille","lat":43.32295,"lon":5.3827,"is_reserved":false,"is_disabled":false,"rental_uris":{"android":"levelo://app?vid=b71de538-a719-49bb-8773-2331356ccc3c","ios":"levelo://app?vid=b71de538-a719-49bb-8773-2331356ccc3c"},"vehicle_type_id":"4","last_reported":1726553575,"current_range_meters":38400,"station_id":"ce4bhr12rcd13ifvqhqg","pricing_plan_id":"cebpf4jnsgd1na2vs0mg"},{"bike_id":"31d7628c-a98b-4127-881d-92022a3abc84","system_id":"levelo_inurba_marseille","lat":43.25931,"lon":5.40903,"is_reserved":false,"is_disabled":false,"rental_uris":{"android":"levelo://app?vid=31d7628c-a98b-4127-881d-92022a3abc84","ios":"levelo://app?vid=31d7628c-a98b-4127-881d-92022a3abc84"},"vehicle_type_id":"4","last_reported":1726553575,"current_range_meters":29600,"station_id":"ce4bhm92rcd13ifvqglg","pricing_plan_id":"cebpf4jnsgd1na2vs0mg"},{"bike_id":"800346a3-f67c-4452-88ce-b124918b6285","system_id":"levelo_inurba_marseille","lat":43.27815,"lon":5.40711,"is_reserved":false,"is_disabled":false,"rental_uris":{"android":"levelo://app?vid=800346a3-f67c-4452-88ce-b124918b6285","ios":"levelo://app?vid=800346a3-f67c-4452-88ce-b124918b6285"},"vehicle_type_id":"4","last_reported":1726553575,"current_range_meters":38000,"station_id":"ce4bhnh2rcd13ifvqgtg","pricing_plan_id":"cebpf4jnsgd1na2vs0mg"},{"bike_id":"cf089e35-748d-4fca-8ca3-0828e6433f9b","system_id":"levelo_inurba_marseille","lat":43.29205,"lon":5.39324,"is_reserved":false,"is_disabled":false,"rental_uris":{"android":"levelo://app?vid=cf089e35-748d-4fca-8ca3-0828e6433f9b","ios":"levelo://app?vid=cf089e35-748d-4fca-8ca3-0828e6433f9b"},"vehicle_type_id":"4","last_reported":1726553575,"current_range_meters":38000,"station_id":"ce4bh192rcd13ifvqdd0","pricing_plan_id":"cebpf4jnsgd1na2vs0mg"},{"bike_id":"3a547ae8-098d-445e-8462-9d96475a82c1","system_id":"levelo_inurba_marseille","lat":43.30464,"lon":5.37906,"is_reserved":false,"is_disabled":false,"rental_uris":{"android":"levelo://app?vid=3a547ae8-098d-445e-8462-9d96475a82c1","ios":"levelo://app?vid=3a547ae8-098d-445e-8462-9d96475a82c1"},"vehicle_type_id":"4","last_reported":1726553575,"current_range_meters":10000,"station_id":"ce4bgup2rcd13ifvqcn0","pricing_plan_id":"cebpf4jnsgd1na2vs0mg"},{"bike_id":"b63e635a-bcc4-4aaf-a39c-a450ac598459","system_id":"levelo_inurba_marseille","lat":43.29602,"lon":5.38102,"is_reserved":false,"is_disabled":false,"rental_uris":{"android":"levelo://app?vid=b63e635a-bcc4-4aaf-a39c-a450ac598459","ios":"levelo://app?vid=b63e635a-bcc4-4aaf-a39c-a450ac598459"},"vehicle_type_id":"4","last_reported":1726553575,"current_range_meters":32800,"station_id":"ce4bgl12rcd13ifvqbo0","pricing_plan_id":"cebpf4jnsgd1na2vs0mg"},{"bike_id":"6d5971ef-7d64-4a7a-ad62-70f881be5e52","system_id":"levelo_inurba_marseille","lat":43.30276,"lon":5.3773,"is_reserved":false,"is_disabled":false,"rental_uris":{"android":"levelo://app?vid=6d5971ef-7d64-4a7a-ad62-70f881be5e52","ios":"levelo://app?vid=6d5971ef-7d64-4a7a-ad62-70f881be5e52"},"vehicle_type_id":"4","last_reported":1726553575,"current_range_meters":30400,"station_id":"ce4bguh2rcd13ifvqcj0","pricing_plan_id":"cebpf4jnsgd1na2vs0mg"},{"bike_id":"e04df40c-267e-48ef-8c7f-e8e3511c8595","system_id":"levelo_inurba_marseille","lat":43.28938,"lon":5.39619,"is_reserved":false,"is_disabled":false,"rental_uris":{"android":"levelo://app?vid=e04df40c-267e-48ef-8c7f-e8e3511c8595","ios":"levelo://app?vid=e04df40c-267e-48ef-8c7f-e8e3511c8595"},"vehicle_type_id":"4","last_reported":1726553575,"current_range_meters":38800,"station_id":"ce4bh3h2rcd13ifvqdn0","pricing_plan_id":"cebpf4jnsgd1na2vs0mg"},{"bike_id":"4bee2a2d-560d-4426-8c8d-358a71e145ea","system_id":"levelo_inurba_marseille","lat":43.303986,"lon":5.373511,"is_reserved":false,"is_disabled":false,"rental_uris":{"android":"levelo://app?vid=4bee2a2d-560d-4426-8c8d-358a71e145ea","ios":"levelo://app?vid=4bee2a2d-560d-4426-8c8d-358a71e145ea"},"vehicle_type_id":"4","last_reported":1726553575,"current_range_meters":28400,"station_id":"","pricing_plan_id":"cebpf4jnsgd1na2vs0mg"},{"bike_id":"762047d0-79c9-412d-bd05-5ac2f308b858","system_id":"levelo_inurba_marseille","lat":43.25821,"lon":5.39434,"is_reserved":false,"is_disabled":false,"rental_uris":{"android":"levelo://app?vid=762047d0-79c9-412d-bd05-5ac2f308b858","ios":"levelo://app?vid=762047d0-79c9-412d-bd05-5ac2f308b858"},"vehicle_type_id":"4","last_reported":1726553575,"current_range_meters":36000,"station_id":"ce4bhip2rcd13ifvqft0","pricing_plan_id":"cebpf4jnsgd1na2vs0mg"},{"bike_id":"764492cd-7476-4794-9106-061c8cb03c80","system_id":"levelo_inurba_marseille","lat":43.27494,"lon":5.424245,"is_reserved":false,"is_disabled":false,"rental_uris":{"android":"levelo://app?vid=764492cd-7476-4794-9106-061c8cb03c80","ios":"levelo://app?vid=764492cd-7476-4794-9106-061c8cb03c80"},"vehicle_type_id":"4","last_reported":1726553575,"current_range_meters":30400,"station_id":"ce4bhn92rcd13ifvqgrg","pricing_plan_id":"cebpf4jnsgd1na2vs0mg"},{"bike_id":"d050d7b7-e817-42dd-99e2-bc8a4864acf7","system_id":"levelo_inurba_marseille","lat":43.33614,"lon":5.41023,"is_reserved":false,"is_disabled":false,"rental_uris":{"android":"levelo://app?vid=d050d7b7-e817-42dd-99e2-bc8a4864acf7","ios":"levelo://app?vid=d050d7b7-e817-42dd-99e2-bc8a4864acf7"},"vehicle_type_id":"4","last_reported":1726553575,"current_range_meters":38800,"station_id":"ce4bhqh2rcd13ifvqhmg","pricing_plan_id":"cebpf4jnsgd1na2vs0mg"},{"bike_id":"328d45f9-980e-4811-97c0-47d761861509","system_id":"levelo_inurba_marseille","lat":43.29847,"lon":5.37836,"is_reserved":false,"is_disabled":false,"rental_uris":{"android":"levelo://app?vid=328d45f9-980e-4811-97c0-47d761861509","ios":"levelo://app?vid=328d45f9-980e-4811-97c0-47d761861509"},"vehicle_type_id":"4","last_reported":1726553575,"current_range_meters":18800,"station_id":"ce4bgkh2rcd13ifvqbl0","pricing_plan_id":"cebpf4jnsgd1na2vs0mg"},{"bike_id":"e1247036-949c-49d5-8c34-39a2938842b7","system_id":"levelo_inurba_marseille","lat":43.26558,"lon":5.39015,"is_reserved":false,"is_disabled":false,"rental_uris":{"android":"levelo://app?vid=e1247036-949c-49d5-8c34-39a2938842b7","ios":"levelo://app?vid=e1247036-949c-49d5-8c34-39a2938842b7"},"vehicle_type_id":"4","last_reported":1726553575,"current_range_meters":37600,"station_id":"ce4bhe12rcd13ifvqf30","pricing_plan_id":"cebpf4jnsgd1na2vs0mg"},{"bike_id":"358adf5b-37ad-4a62-b033-01aca0590761","system_id":"levelo_inurba_marseille","lat":43.24661,"lon":5.38168,"is_reserved":false,"is_disabled":false,"rental_uris":{"android":"levelo://app?vid=358adf5b-37ad-4a62-b033-01aca0590761","ios":"levelo://app?vid=358adf5b-37ad-4a62-b033-01aca0590761"},"vehicle_type_id":"4","last_reported":1726553575,"current_range_meters":38800,"station_id":"ce4bhih2rcd13ifvqfr0","pricing_plan_id":"cebpf4jnsgd1na2vs0mg"},{"bike_id":"f5b9ac8b-af68-4514-8983-63d49995dcf8","system_id":"levelo_inurba_marseille","lat":43.25584,"lon":5.3823,"is_reserved":false,"is_disabled":false,"rental_uris":{"android":"levelo://app?vid=f5b9ac8b-af68-4514-8983-63d49995dcf8","ios":"levelo://app?vid=f5b9ac8b-af68-4514-8983-63d49995dcf8"},"vehicle_type_id":"4","last_reported":1726553575,"current_range_meters":32000,"station_id":"ce4bhih2rcd13ifvqfs0","pricing_plan_id":"cebpf4jnsgd1na2vs0mg"},{"bike_id":"9acdf472-e2e8-47ba-8975-f012d9637227","system_id":"levelo_inurba_marseille","lat":43.27377,"lon":5.36244,"is_reserved":false,"is_disabled":false,"rental_uris":{"android":"levelo://app?vid=9acdf472-e2e8-47ba-8975-f012d9637227","ios":"levelo://app?vid=9acdf472-e2e8-47ba-8975-f012d9637227"},"vehicle_type_id":"4","last_reported":1726553575,"current_range_meters":37600,"station_id":"ce4bhbh2rcd13ifvqeo0","pricing_plan_id":"cebpf4jnsgd1na2vs0mg"},{"bike_id":"fe43840c-a2c0-45d0-a19d-4ad10017aa65","system_id":"levelo_inurba_marseille","lat":43.28037,"lon":5.36944,"is_reserved":false,"is_disabled":false,"rental_uris":{"android":"levelo://app?vid=fe43840c-a2c0-45d0-a19d-4ad10017aa65","ios":"levelo://app?vid=fe43840c-a2c0-45d0-a19d-4ad10017aa65"},"vehicle_type_id":"4","last_reported":1726553575,"current_range_meters":39200,"station_id":"ce4bha12rcd13ifvqef0","pricing_plan_id":"cebpf4jnsgd1na2vs0mg"},{"bike_id":"fa690805-233a-4a70-a9f3-33f1b67cdb1f","system_id":"levelo_inurba_marseille","lat":43.32291,"lon":5.38264,"is_reserved":false,"is_disabled":false,"rental_uris":{"android":"levelo://app?vid=fa690805-233a-4a70-a9f3-33f1b67cdb1f","ios":"levelo://app?vid=fa690805-233a-4a70-a9f3-33f1b67cdb1f"},"vehicle_type_id":"4","last_reported":1726553575,"current_range_meters":34000,"station_id":"ce4bhr12rcd13ifvqhqg","pricing_plan_id":"cebpf4jnsgd1na2vs0mg"},{"bike_id":"8b608b96-fedf-4511-8d4b-09bad2606e1a","system_id":"levelo_inurba_marseille","lat":43.27721,"lon":5.41131,"is_reserved":false,"is_disabled":false,"rental_uris":{"android":"levelo://app?vid=8b608b96-fedf-4511-8d4b-09bad2606e1a","ios":"levelo://app?vid=8b608b96-fedf-4511-8d4b-09bad2606e1a"},"vehicle_type_id":"4","last_reported":1726553575,"current_range_meters":10800,"station_id":"","pricing_plan_id":"cebpf4jnsgd1na2vs0mg"},{"bike_id":"56b0d18f-6297-4a88-bdba-8a72a852a884","system_id":"levelo_inurba_marseille","lat":43.30989,"lon":5.37353,"is_reserved":false,"is_disabled":false,"rental_uris":{"android":"levelo://app?vid=56b0d18f-6297-4a88-bdba-8a72a852a884","ios":"levelo://app?vid=56b0d18f-6297-4a88-bdba-8a72a852a884"},"vehicle_type_id":"4","last_reported":1726553575,"current_range_meters":34000,"station_id":"","pricing_plan_id":"cebpf4jnsgd1na2vs0mg"},{"bike_id":"70b88215-4436-4b90-8ece-7363720f248f","system_id":"levelo_inurba_marseille","lat":43.32365,"lon":5.38879,"is_reserved":false,"is_disabled":false,"rental_uris":{"android":"levelo://app?vid=70b88215-4436-4b90-8ece-7363720f248f","ios":"levelo://app?vid=70b88215-4436-4b90-8ece-7363720f248f"},"vehicle_type_id":"4","last_reported":1726553575,"current_range_meters":8400,"station_id":"ce4bhqp2rcd13ifvqhog","pricing_plan_id":"cebpf4jnsgd1na2vs0mg"},{"bike_id":"57be3ded-1ee9-42c1-b39d-7196fdda9743","system_id":"levelo_inurba_marseille","lat":43.3229,"lon":5.38278,"is_reserved":false,"is_disabled":false,"rental_uris":{"android":"levelo://app?vid=57be3ded-1ee9-42c1-b39d-7196fdda9743","ios":"levelo://app?vid=57be3ded-1ee9-42c1-b39d-7196fdda9743"},"vehicle_type_id":"4","last_reported":1726553575,"current_range_meters":38000,"station_id":"ce4bhr12rcd13ifvqhqg","pricing_plan_id":"cebpf4jnsgd1na2vs0mg"},{"bike_id":"13d4a6af-6ba3-4467-b6b2-cc5378b74a17","system_id":"levelo_inurba_marseille","lat":43.2894,"lon":5.39663,"is_reserved":false,"is_disabled":false,"rental_uris":{"android":"levelo://app?vid=13d4a6af-6ba3-4467-b6b2-cc5378b74a17","ios":"levelo://app?vid=13d4a6af-6ba3-4467-b6b2-cc5378b74a17"},"vehicle_type_id":"4","last_reported":1726553575,"current_range_meters":38000,"station_id":"ce4bh392rcd13ifvqdm0","pricing_plan_id":"cebpf4jnsgd1na2vs0mg"},{"bike_id":"ab9c38aa-220b-4b11-abfc-fd77a88a6860","system_id":"levelo_inurba_marseille","lat":43.2397,"lon":5.36626,"is_reserved":false,"is_disabled":false,"rental_uris":{"android":"levelo://app?vid=ab9c38aa-220b-4b11-abfc-fd77a88a6860","ios":"levelo://app?vid=ab9c38aa-220b-4b11-abfc-fd77a88a6860"},"vehicle_type_id":"4","last_reported":1726553575,"current_range_meters":39200,"station_id":"ce4bhi12rcd13ifvqfp0","pricing_plan_id":"cebpf4jnsgd1na2vs0mg"},{"bike_id":"553e7d9a-77cb-4456-9316-fdff3d02305f","system_id":"levelo_inurba_marseille","lat":43.25868,"lon":5.399,"is_reserved":false,"is_disabled":false,"rental_uris":{"android":"levelo://app?vid=553e7d9a-77cb-4456-9316-fdff3d02305f","ios":"levelo://app?vid=553e7d9a-77cb-4456-9316-fdff3d02305f"},"vehicle_type_id":"4","last_reported":1726553575,"current_range_meters":26800,"station_id":"ce4bhl92rcd13ifvqghg","pricing_plan_id":"cebpf4jnsgd1na2vs0mg"},{"bike_id":"d2dd2b43-b61a-400b-bbde-833f334eab42","system_id":"levelo_inurba_marseille","lat":43.32241,"lon":5.39228,"is_reserved":false,"is_disabled":false,"rental_uris":{"android":"levelo://app?vid=d2dd2b43-b61a-400b-bbde-833f334eab42","ios":"levelo://app?vid=d2dd2b43-b61a-400b-bbde-833f334eab42"},"vehicle_type_id":"4","last_reported":1726553575,"current_range_meters":24000,"station_id":"","pricing_plan_id":"cebpf4jnsgd1na2vs0mg"},{"bike_id":"8c9bdf96-35c6-49be-9c44-e19edfe902c1","system_id":"levelo_inurba_marseille","lat":43.3248,"lon":5.36566,"is_reserved":false,"is_disabled":false,"rental_uris":{"android":"levelo://app?vid=8c9bdf96-35c6-49be-9c44-e19edfe902c1","ios":"levelo://app?vid=8c9bdf96-35c6-49be-9c44-e19edfe902c1"},"vehicle_type_id":"4","last_reported":1726553575,"current_range_meters":38800,"station_id":"ce4bhs12rcd13ifvqhvg","pricing_plan_id":"cebpf4jnsgd1na2vs0mg"},{"bike_id":"fe16eb8d-983a-43ee-9b13-eab0b912649f","system_id":"levelo_inurba_marseille","lat":43.2705,"lon":5.40262,"is_reserved":false,"is_disabled":false,"rental_uris":{"android":"levelo://app?vid=fe16eb8d-983a-43ee-9b13-eab0b912649f","ios":"levelo://app?vid=fe16eb8d-983a-43ee-9b13-eab0b912649f"},"vehicle_type_id":"4","last_reported":1726553575,"current_range_meters":8800,"station_id":"ce4bhk92rcd13ifvqgc0","pricing_plan_id":"cebpf4jnsgd1na2vs0mg"},{"bike_id":"bb5d6029-9664-468f-99c5-4169cfbe9a0b","system_id":"levelo_inurba_marseille","lat":43.31693,"lon":5.40472,"is_reserved":false,"is_disabled":false,"rental_uris":{"android":"levelo://app?vid=bb5d6029-9664-468f-99c5-4169cfbe9a0b","ios":"levelo://app?vid=bb5d6029-9664-468f-99c5-4169cfbe9a0b"},"vehicle_type_id":"4","last_reported":1726553575,"current_range_meters":39200,"station_id":"ce4bh012rcd13ifvqd00","pricing_plan_id":"cebpf4jnsgd1na2vs0mg"},{"bike_id":"ea8ee6bb-f852-4c94-8f83-2009a1dcce0f","system_id":"levelo_inurba_marseille","lat":43.26238,"lon":5.40271,"is_reserved":false,"is_disabled":false,"rental_uris":{"android":"levelo://app?vid=ea8ee6bb-f852-4c94-8f83-2009a1dcce0f","ios":"levelo://app?vid=ea8ee6bb-f852-4c94-8f83-2009a1dcce0f"},"vehicle_type_id":"4","last_reported":1726553575,"current_range_meters":12800,"station_id":"","pricing_plan_id":"cebpf4jnsgd1na2vs0mg"},{"bike_id":"471ec5ba-60a1-4546-abfe-3624697344b9","system_id":"levelo_inurba_marseille","lat":43.29805,"lon":5.38092,"is_reserved":false,"is_disabled":false,"rental_uris":{"android":"levelo://app?vid=471ec5ba-60a1-4546-abfe-3624697344b9","ios":"levelo://app?vid=471ec5ba-60a1-4546-abfe-3624697344b9"},"vehicle_type_id":"4","last_reported":1726553575,"current_range_meters":25600,"station_id":"ce4bgip2rcd13ifvqbb0","pricing_plan_id":"cebpf4jnsgd1na2vs0mg"},{"bike_id":"f075ff35-adc6-4c44-9ae0-b763f4bd8995","system_id":"levelo_inurba_marseille","lat":43.26938,"lon":5.40262,"is_reserved":false,"is_disabled":false,"rental_uris":{"android":"levelo://app?vid=f075ff35-adc6-4c44-9ae0-b763f4bd8995","ios":"levelo://app?vid=f075ff35-adc6-4c44-9ae0-b763f4bd8995"},"vehicle_type_id":"4","last_reported":1726553575,"current_range_meters":15200,"station_id":"cjm6bp8fraef2m0cb0m0","pricing_plan_id":"cebpf4jnsgd1na2vs0mg"},{"bike_id":"4794a437-9232-4ded-ada9-c1413dd4f781","system_id":"levelo_inurba_marseille","lat":43.25939,"lon":5.40907,"is_reserved":false,"is_disabled":false,"rental_uris":{"android":"levelo://app?vid=4794a437-9232-4ded-ada9-c1413dd4f781","ios":"levelo://app?vid=4794a437-9232-4ded-ada9-c1413dd4f781"},"vehicle_type_id":"4","last_reported":1726553575,"current_range_meters":38400,"station_id":"ce4bhm92rcd13ifvqglg","pricing_plan_id":"cebpf4jnsgd1na2vs0mg"},