{"last_updated":1736939252,"ttl":60,"version":"2.2","data":{"bikes":[{"bike_id":"7372ff2f-dc64-482f-b7e3-d96f04320c64","system_id":"levelo_inurba_marseille","lat":43.26682,"lon":5.3827,"is_reserved":false,"is_disabled":false,"rental_uris":{"android":"levelo://app?vid=7372ff2f-dc64-482f-b7e3-d96f04320c64","ios":"levelo://app?vid=7372ff2f-dc64-482f-b7e3-d96f04320c64"},"vehicle_type_id":"4","last_reported":1736939252,"current_range_meters":11200,"station_id":"ce4bhg92rcd13ifvqf90","pricing_plan_id":"cebpf4jnsgd1na2vs0mg"},{"bike_id":"46cd3a02-8b2f-4b2e-a52d-372b2e1329e8","system_id":"levelo_inurba_marseille","lat":43.29035,"lon":5.35924,"is_reserved":false,"is_disabled":false,"rental_uris":{"android":"levelo://app?vid=46cd3a02-8b2f-4b2e-a52d-372b2e1329e8","ios":"levelo://app?vid=46cd3a02-8b2f-4b2e-a52d-372b2e1329e8"},"vehicle_type_id":"4","last_reported":1736939252,"current_range_meters":30800,"station_id":"ce4bha92rcd13ifvqeg0","pricing_plan_id":"cebpf4jnsgd1na2vs0mg"},{"bike_id":"3bfa0ac1-21fc-4cf0-8611-33fa510f902d","system_id":"levelo_inurba_marseille","lat":43.24148,"lon":5.3641,"is_reserved":false,"is_disabled":false,"rental_uris":{"android":"levelo://app?vid=3bfa0ac1-21fc-4cf0-8611-33fa510f902d","ios":"levelo://app?vid=3bfa0ac1-21fc-4cf0-8611-33fa510f902d"},"vehicle_type_id":"4","last_reported":1736939252,"current_range_meters":9600,"station_id":"cpo36qri1sfpv3e86is0","pricing_plan_id":"cebpf4jnsgd1na2vs0mg"},{"bike_id":"459eda55-c02d-48e5-b482-24c6e37a8793","system_id":"levelo_inurba_marseille","lat":43.28443,"lon":5.392,"is_reserved":false,"is_disabled":true,"rental_uris":{"android":"levelo://app?vid=459eda55-c02d-48e5-b482-24c6e37a8793","ios":"levelo://app?vid=459eda55-c02d-48e5-b482-24c6e37a8793"},"vehicle_type_id":"4","last_reported":1736939252,"current_range_meters":11200,"station_id":"ce4bhoh2rcd13ifvqh5g","pricing_plan_id":"cebpf4jnsgd1na2vs0mg"},{"bike_id":"89fcc9a4-94e9-40fd-96bc-65298ed41a65","system_id":"levelo_inurba_marseille","lat":43.32491,"lon":5.39488,"is_reserved":false,"is_disabled":false,"rental_uris":{"android":"levelo://app?vid=89fcc9a4-94e9-40fd-96bc-65298ed41a65","ios":"levelo://app?vid=89fcc9a4-94e9-40fd-96bc-65298ed41a65"},"vehicle_type_id":"4","last_reported":1736939252,"current_range_meters":34000,"station_id":"","pricing_plan_id":"cebpf4jnsgd1na2vs0mg"},{"bike_id":"81ceb094-938e-4473-9dd8-101d7e2c1579","system_id":"levelo_inurba_marseille","lat":43.30285,"lon":5.36919,"is_reserved":false,"is_disabled":false,"rental_uris":{"android":"levelo://app?vid=81ceb094-938e-4473-9dd8-101d7e2c1579","ios":"levelo://app?vid=81ceb094-938e-4473-9dd8-101d7e2c1579"},"vehicle_type_id":"4","last_reported":1736939252,"current_range_meters":12400,"station_id":"ce4bgqh2rcd13ifvqc5g","pricing_plan_id":"cebpf4jnsgd1na2vs0mg"},{"bike_id":"bbf6edbc-381c-4a68-a4a0-f5db91c88618","system_id":"levelo_inurba_marseille","lat":43.30316,"lon":5.36923,"is_reserved":false,"is_disabled":false,"rental_uris":{"android":"levelo://app?vid=bbf6edbc-381c-4a68-a4a0-f5db91c88618","ios":"levelo://app?vid=bbf6edbc-381c-4a68-a4a0-f5db91c88618"},"vehicle_type_id":"4","last_reported":1736939252,"current_range_meters":27200,"station_id":"ce4bgqh2rcd13ifvqc5g","pricing_plan_id":"cebpf4jnsgd1na2vs0mg"},{"bike_id":"528e2925-4afb-4ebd-bd04-007561013a42","system_id":"levelo_inurba_marseille","lat":43.29528,"lon":5.37504,"is_reserved":false,"is_disabled":false,"rental_uris":{"android":"levelo://app?vid=528e2925-4afb-4ebd-bd04-007561013a42","ios":"levelo://app?vid=528e2925-4afb-4ebd-bd04-007561013a42"},"vehicle_type_id":"4","last_reported":1736939252,"current_range_meters":14000,"station_id":"ce4bgkp2rcd13ifvqbmg","pricing_plan_id":"cebpf4jnsgd1na2vs0mg"},{"bike_id":"97903855-f25c-43cc-b88c-126a24e533ad","system_id":"levelo_inurba_marseille","lat":43.29004,"lon":5.35603,"is_reserved":false,"is_disabled":false,"rental_uris":{"android":"levelo://app?vid=97903855-f25c-43cc-b88c-126a24e533ad","ios":"levelo://app?vid=97903855-f25c-43cc-b88c-126a24e533ad"},"vehicle_type_id":"4","last_reported":1736939252,"current_range_meters":39200,"station_id":"ce4bhb92rcd13ifvqen0","pricing_plan_id":"cebpf4jnsgd1na2vs0mg"},{"bike_id":"5bb5758f-37be-496e-ac0a-3712e6b43125","system_id":"levelo_inurba_marseille","lat":43.26197,"lon":5.37924,"is_reserved":false,"is_disabled":false,"rental_uris":{"android":"levelo://app?vid=5bb5758f-37be-496e-ac0a-3712e6b43125","ios":"levelo://app?vid=5bb5758f-37be-496e-ac0a-3712e6b43125"},"vehicle_type_id":"4","last_reported":1736939252,"current_range_meters":38800,"station_id":"ce4bhjp2rcd13ifvqg90","pricing_plan_id":"cebpf4jnsgd1na2vs0mg"},{"bike_id":"4fa358ca-b741-467a-a03f-b8033021b471","system_id":"levelo_inurba_marseille","lat":43.337563,"lon":5.374621,"is_reserved":false,"is_disabled":false,"rental_uris":{"android":"levelo://app?vid=4fa358ca-b741-467a-a03f-b8033021b471","ios":"levelo://app?vid=4fa358ca-b741-467a-a03f-b8033021b471"},"vehicle_type_id":"4","last_reported":1736939252,"current_range_meters":38400,"station_id":"","pricing_plan_id":"cebpf4jnsgd1na2vs0mg"},{"bike_id":"6c72276d-8e89-4c2f-8150-2735b7561b95","system_id":"levelo_inurba_marseille","lat":43.274957,"lon":5.424617,"is_reserved":false,"is_disabled":true,"rental_uris":{"android":"levelo://app?vid=6c72276d-8e89-4c2f-8150-2735b7561b95","ios":"levelo://app?vid=6c72276d-8e89-4c2f-8150-2735b7561b95"},"vehicle_type_id":"4","last_reported":1736939252,"current_range_meters":0,"station_id":"ce4bhn92rcd13ifvqgrg","pricing_plan_id":"cebpf4jnsgd1na2vs0mg"},{"bike_id":"04ca7d58-6107-4c23-b020-0d87521c21e5","system_id":"levelo_inurba_marseille","lat":43.29193,"lon":5.35811,"is_reserved":false,"is_disabled":false,"rental_uris":{"android":"levelo://app?vid=04ca7d58-6107-4c23-b020-0d87521c21e5","ios":"levelo://app?vid=04ca7d58-6107-4c23-b020-0d87521c21e5"},"vehicle_type_id":"4","last_reported":1736939252,"current_range_meters":32400,"station_id":"ce4bhb12rcd13ifvqel0","pricing_plan_id":"cebpf4jnsgd1na2vs0mg"},{"bike_id":"6cf1ef65-b448-4034-8c81-a102abe157e0","system_id":"levelo_inurba_marseille","lat":43.29712,"lon":5.37709,"is_reserved":false,"is_disabled":false,"rental_uris":{"android":"levelo://app?vid=6cf1ef65-b448-4034-8c81-a102abe157e0","ios":"levelo://app?vid=6cf1ef65-b448-4034-8c81-a102abe157e0"},"vehicle_type_id":"4","last_reported":1736939252,"current_range_meters":34000,"station_id":"ce4bgkh2rcd13ifvqbl0","pricing_plan_id":"cebpf4jnsgd1na2vs0mg"},{"bike_id":"820401aa-6b5d-445d-88d7-5c01350bb21e","system_id":"levelo_inurba_marseille","lat":43.29731,"lon":5.37689,"is_reserved":false,"is_disabled":false,"rental_uris":{"android":"levelo://app?vid=820401aa-6b5d-445d-88d7-5c01350bb21e","ios":"levelo://app?vid=820401aa-6b5d-445d-88d7-5c01350bb21e"},"vehicle_type_id":"4","last_reported":1736939252,"current_range_meters":37600,"station_id":"ce4bgkh2rcd13ifvqbl0","pricing_plan_id":"cebpf4jnsgd1na2vs0mg"},{"bike_id":"b336eecc-71fb-4827-b601-9992e4d0e91e","system_id":"levelo_inurba_marseille","lat":43.30271,"lon":5.36926,"is_reserved":false,"is_disabled":false,"rental_uris":{"android":"levelo://app?vid=b336eecc-71fb-4827-b601-9992e4d0e91e","ios":"levelo://app?vid=b336eecc-71fb-4827-b601-9992e4d0e91e"},"vehicle_type_id":"4","last_reported":1736939252,"current_range_meters":38800,"station_id":"ce4bgqh2rcd13ifvqc5g","pricing_plan_id":"cebpf4jnsgd1na2vs0mg"},{"bike_id":"1546f697-d82b-4e5d-a850-a9023302096e","system_id":"levelo_inurba_marseille","lat":43.25023,"lon":5.38937,"is_reserved":false,"is_disabled":false,"rental_uris":{"android":"levelo://app?vid=1546f697-d82b-4e5d-a850-a9023302096e","ios":"levelo://app?vid=1546f697-d82b-4e5d-a850-a9023302096e"},"vehicle_type_id":"4","last_reported":1736939252,"current_range_meters":38800,"station_id":"ce4bhgp2rcd13ifvqfd0","pricing_plan_id":"cebpf4jnsgd1na2vs0mg"},{"bike_id":"a05bd889-5f47-4435-a653-f868055678ed","system_id":"levelo_inurba_marseille","lat":43.24991,"lon":5.3893,"is_reserved":false,"is_disabled":false,"rental_uris":{"android":"levelo://app?vid=a05bd889-5f47-4435-a653-f868055678ed","ios":"levelo://app?vid=a05bd889-5f47-4435-a653-f868055678ed"},"vehicle_type_id":"4","last_reported":1736939252,"current_range_meters":27600,"station_id":"ce4bhgp2rcd13ifvqfd0","pricing_plan_id":"cebpf4jnsgd1na2vs0mg"},{"bike_id":"5dc3dd3e-37d2-4dd0-b33d-d2f8ed1e3625","system_id":"levelo_inurba_marseille","lat":43.25932,"lon":5.40936,"is_reserved":false,"is_disabled":false,"rental_uris":{"android":"levelo://app?vid=5dc3dd3e-37d2-4dd0-b33d-d2f8ed1e3625","ios":"levelo://app?vid=5dc3dd3e-37d2-4dd0-b33d-d2f8ed1e3625"},"vehicle_type_id":"4","last_reported":1736939252,"current_range_meters":7200,"station_id":"ce4bhm92rcd13ifvqglg","pricing_plan_id":"cebpf4jnsgd1na2vs0mg"},{"bike_id":"88138fe4-5445-4726-a9ff-d1fe689ecd37","system_id":"levelo_inurba_marseille","lat":43.27984,"lon":5.41662,"is_reserved":false,"is_disabled":false,"rental_uris":{"android":"levelo://app?vid=88138fe4-5445-4726-a9ff-d1fe689ecd37","ios":"levelo://app?vid=88138fe4-5445-4726-a9ff-d1fe689ecd37"},"vehicle_type_id":"4","last_reported":1736939252,"current_range_meters":16000,"station_id":"ce4bho12rcd13ifvqh1g","pricing_plan_id":"cebpf4jnsgd1na2vs0mg"},{"bike_id":"8724c44b-7b2f-45e5-94d4-51af5c7f440d","system_id":"levelo_inurba_marseille","lat":43.25727,"lon":5.41109,"is_reserved":false,"is_disabled":false,"rental_uris":{"android":"levelo://app?vid=8724c44b-7b2f-45e5-94d4-51af5c7f440d","ios":"levelo://app?vid=8724c44b-7b2f-45e5-94d4-51af5c7f440d"},"vehicle_type_id":"4","last_reported":1736939252,"current_range_meters":38800,"station_id":"ce4bhkp2rcd13ifvqgd0","pricing_plan_id":"cebpf4jnsgd1na2vs0mg"},{"bike_id":"ae5947c9-e1d7-47d4-aa65-2a6be661e306","system_id":"levelo_inurba_marseille","lat":43.25922,"lon":5.40884,"is_reserved":false,"is_disabled":false,"rental_uris":{"android":"levelo://app?vid=ae5947c9-e1d7-47d4-aa65-2a6be661e306","ios":"levelo://app?vid=ae5947c9-e1d7-47d4-aa65-2a6be661e306"},"vehicle_type_id":"4","last_reported":1736939252,"current_range_meters":30400,"station_id":"ce4bhm92rcd13ifvqglg","pricing_plan_id":"cebpf4jnsgd1na2vs0mg"},{"bike_id":"f967ea00-b8c0-4496-9bc6-6ae713525aac","system_id":"levelo_inurba_marseille","lat":43.24977,"lon":5.38996,"is_reserved":false,"is_disabled":false,"rental_uris":{"android":"levelo://app?vid=f967ea00-b8c0-4496-9bc6-6ae713525aac","ios":"levelo://app?vid=f967ea00-b8c0-4496-9bc6-6ae713525aac"},"vehicle_type_id":"4","last_reported":1736939252,"current_range_meters":30400,"station_id":"ce4bhgp2rcd13ifvqfd0","pricing_plan_id":"cebpf4jnsgd1na2vs0mg"},{"bike_id":"1832846b-e5ca-407c-9303-1e73796aaf5d","system_id":"levelo_inurba_marseille","lat":43.29955,"lon":5.41312,"is_reserved":false,"is_disabled":false,"rental_uris":{"android":"levelo://app?vid=1832846b-e5ca-407c-9303-1e73796aaf5d","ios":"levelo://app?vid=1832846b-e5ca-407c-9303-1e73796aaf5d"},"vehicle_type_id":"4","last_reported":1736939252,"current_range_meters":32000,"station_id":"ce4bhp12rcd13ifvqh9g","pricing_plan_id":"cebpf4jnsgd1na2vs0mg"},{"bike_id":"cbdd97a4-499e-4a2f-9aef-de63b1e35fd4","system_id":"levelo_inurba_marseille","lat":43.23127,"lon":5.43735,"is_reserved":false,"is_disabled":false,"rental_uris":{"android":"levelo://app?vid=cbdd97a4-499e-4a2f-9aef-de63b1e35fd4","ios":"levelo://app?vid=cbdd97a4-499e-4a2f-9aef-de63b1e35fd4"},"vehicle_type_id":"4","last_reported":1736939252,"current_range_meters":8800,"station_id":"ce4bhmp2rcd13ifvqgog","pricing_plan_id":"cebpf4jnsgd1na2vs0mg"},{"bike_id":"f3bd38ac-eea2-480d-a878-4e088a2d97b2","system_id":"levelo_inurba_marseille","lat":43.27944,"lon":5.4106,"is_reserved":false,"is_disabled":false,"rental_uris":{"android":"levelo://app?vid=f3bd38ac-eea2-480d-a878-4e088a2d97b2","ios":"levelo://app?vid=f3bd38ac-eea2-480d-a878-4e088a2d97b2"},"vehicle_type_id":"4","last_reported":1736939252,"current_range_meters":7200,"station_id":"ce4bhnp2rcd13ifvqh0g","pricing_plan_id":"cebpf4jnsgd1na2vs0mg"},{"bike_id":"08956fb4-5437-4f39-a6d0-97d91183d02a","system_id":"levelo_inurba_marseille","lat":43.25944,"lon":5.40888,"is_reserved":false,"is_disabled":false,"rental_uris":{"android":"levelo://app?vid=08956fb4-5437-4f39-a6d0-97d91183d02a","ios":"levelo://app?vid=08956fb4-5437-4f39-a6d0-97d91183d02a"},"vehicle_type_id":"4","last_reported":1736939252,"current_range_meters":34800,"station_id":"ce4bhm92rcd13ifvqglg","pricing_plan_id":"cebpf4jnsgd1na2vs0mg"},{"bike_id":"b5b35795-e161-424f-b97b-0ae8d9b8c970","system_id":"levelo_inurba_marseille","lat":43.29564,"lon":5.42297,"is_reserved":false,"is_disabled":false,"rental_uris":{"android":"levelo://app?vid=b5b35795-e161-424f-b97b-0ae8d9b8c970","ios":"levelo://app?vid=b5b35795-e161-424f-b97b-0ae8d9b8c970"},"vehicle_type_id":"4","last_reported":1736939252,"current_range_meters":38000,"station_id":"ce4bhph2rcd13ifvqhdg","pricing_plan_id":"cebpf4jnsgd1na2vs0mg"},{"bike_id":"a402044d-1041-4786-a63f-9d18af3bc82f","system_id":"levelo_inurba_marseille","lat":43.2418,"lon":5.36397,"is_reserved":false,"is_disabled":false,"rental_uris":{"android":"levelo://app?vid=a402044d-1041-4786-a63f-9d18af3bc82f","ios":"levelo://app?vid=a402044d-1041-4786-a63f-9d18af3bc82f"},"vehicle_type_id":"4","last_reported":1736939252,"current_range_meters":36800,"station_id":"cpo36qri1sfpv3e86is0","pricing_plan_id":"cebpf4jnsgd1na2vs0mg"},{"bike_id":"14f19800-e66e-4ddf-982a-615ebbb5bf9e","system_id":"levelo_inurba_marseille","lat":43.32556,"lon":5.41429,"is_reserved":false,"is_disabled":false,"rental_uris":{"android":"levelo://app?vid=14f19800-e66e-4ddf-982a-615ebbb5bf9e","ios":"levelo://app?vid=14f19800-e66e-4ddf-982a-615ebbb5bf9e"},"vehicle_type_id":"4","last_reported":1736939252,"current_range_meters":22400,"station_id":"ce4bhq12rcd13ifvqhhg","pricing_plan_id":"cebpf4jnsgd1na2vs0mg"},{"bike_id":"902edfe6-251a-49fc-8548-2023567b8c62","system_id":"levelo_inurba_marseille","lat":43.30326,"lon":5.36875,"is_reserved":false,"is_disabled":false,"rental_uris":{"android":"levelo://app?vid=902edfe6-251a-49fc-8548-2023567b8c62","ios":"levelo://app?vid=902edfe6-251a-49fc-8548-2023567b8c62"},"vehicle_type_id":"4","last_reported":1736939252,"current_range_meters":32400,"station_id":"ce4bgqh2rcd13ifvqc5g","pricing_plan_id":"cebpf4jnsgd1na2vs0mg"},{"bike_id":"c59d8e01-448a-45bd-b30c-07d72b8d6b71","system_id":"levelo_inurba_marseille","lat":43.30261,"lon":5.37726,"is_reserved":false,"is_disabled":false,"rental_uris":{"android":"levelo://app?vid=c59d8e01-448a-45bd-b30c-07d72b8d6b71","ios":"levelo://app?vid=c59d8e01-448a-45bd-b30c-07d72b8d6b71"},"vehicle_type_id":"4","last_reported":1736939252,"current_range_meters":38800,"station_id":"ce4bguh2rcd13ifvqcj0","pricing_plan_id":"cebpf4jnsgd1na2vs0mg"},{"bike_id":"c8e997c0-8580-4d0f-8d9f-0766596381e1","system_id":"levelo_inurba_marseille","lat":43.33923,"lon":5.37592,"is_reserved":false,"is_disabled":true,"rental_uris":{"android":"levelo://app?vid=c8e997c0-8580-4d0f-8d9f-0766596381e1","ios":"levelo://app?vid=c8e997c0-8580-4d0f-8d9f-0766596381e1"},"vehicle_type_id":"4","last_reported":1736939252,"current_range_meters":0,"station_id":"","pricing_plan_id":"cebpf4jnsgd1na2vs0mg"},{"bike_id":"acc23c47-025b-4391-bcf7-d2065d1113b4","system_id":"levelo_inurba_marseille","lat":43.29774,"lon":5.37101,"is_reserved":false,"is_disabled":false,"rental_uris":{"android":"levelo://app?vid=acc23c47-025b-4391-bcf7-d2065d1113b4","ios":"levelo://app?vid=acc23c47-025b-4391-bcf7-d2065d1113b4"},"vehicle_type_id":"4","last_reported":1736939252,"current_range_meters":24400,"station_id":"ce4bgop2rcd13ifvqc1g","pricing_plan_id":"cebpf4jnsgd1na2vs0mg"},{"bike_id":"bf771a3b-5bf0-4592-a3f7-46aa2f4d2292","system_id":"levelo_inurba_marseille","lat":43.24173,"lon":5.39734,"is_reserved":false,"is_disabled":false,"rental_uris":{"android":"levelo://app?vid=bf771a3b-5bf0-4592-a3f7-46aa2f4d2292","ios":"levelo://app?vid=bf771a3b-5bf0-4592-a3f7-46aa2f4d2292"},"vehicle_type_id":"4","last_reported":1736939252,"current_range_meters":19600,"station_id":"ce4bhn12rcd13ifvqgpg","pricing_plan_id":"cebpf4jnsgd1na2vs0mg"},{"bike_id":"ec58978c-227c-4522-a9b6-9c182abb3733","system_id":"levelo_inurba_marseille","lat":43.30365,"lon":5.41899,"is_reserved":false,"is_disabled":false,"rental_uris":{"android":"levelo://app?vid=ec58978c-227c-4522-a9b6-9c182abb3733","ios":"levelo://app?vid=ec58978c-227c-4522-a9b6-9c182abb3733"},"vehicle_type_id":"4","last_reported":1736939252,"current_range_meters":24400,"station_id":"ce4bhop2rcd13ifvqh7g","pricing_plan_id":"cebpf4jnsgd1na2vs0mg"},{"bike_id":"74f9b094-c6d4-4e6c-a72f-fba11a45f8f1","system_id":"levelo_inurba_marseille","lat":43.31091,"lon":5.4247,"is_reserved":false,"is_disabled":false,"rental_uris":{"android":"levelo://app?vid=74f9b094-c6d4-4e6c-a72f-fba11a45f8f1","ios":"levelo://app?vid=74f9b094-c6d4-4e6c-a72f-fba11a45f8f1"},"vehicle_type_id":"4","last_reported":1736939252,"current_range_meters":38400,"station_id":"ce4bhp92rcd13ifvqhag","pricing_plan_id":"cebpf4jnsgd1na2vs0mg"},{"bike_id":"58e0dc58-6c67-46af-b966-6f216de1cdd4","system_id":"levelo_inurba_marseille","lat":43.30591,"lon":5.39361,"is_reserved":false,"is_disabled":false,"rental_uris":{"android":"levelo://app?vid=58e0dc58-6c67-46af-b966-6f216de1cdd4","ios":"levelo://app?vid=58e0dc58-6c67-46af-b966-6f216de1cdd4"},"vehicle_type_id":"4","last_reported":1736939252,"current_range_meters":24400,"station_id":"ce4bh0p2rcd13ifvqd80","pricing_plan_id":"cebpf4jnsgd1na2vs0mg"},{"bike_id":"4a481384-3c60-41b4-a6c8-1be965812989","system_id":"levelo_inurba_marseille","lat":43.29005,"lon":5.35623,"is_reserved":false,"is_disabled":false,"rental_uris":{"android":"levelo://app?vid=4a481384-3c60-41b4-a6c8-1be965812989","ios":"levelo://app?vid=4a481384-3c60-41b4-a6c8-1be965812989"},"vehicle_type_id":"4","last_reported":1736939252,"current_range_meters":34000,"station_id":"ce4bhb92rcd13ifvqen0","pricing_plan_id":"cebpf4jnsgd1na2vs0mg"},{"bike_id":"8931ba1d-a6be-4b57-a814-a8ba930f38b0","system_id":"levelo_inurba_marseille","lat":43.29627,"lon":5.40588,"is_reserved":false,"is_disabled":false,"rental_uris":{"android":"levelo://app?vid=8931ba1d-a6be-4b57-a814-a8ba930f38b0","ios":"levelo://app?vid=8931ba1d-a6be-4b57-a814-a8ba930f38b0"},"vehicle_type_id":"4","last_reported":1736939252,"current_range_meters":28000,"station_id":"ce4bh0h2rcd13ifvqd60","pricing_plan_id":"cebpf4jnsgd1na2vs0mg"},{"bike_id":"88bd68a3-540b-4837-8a9e-61cb6c90bf70","system_id":"levelo_inurba_marseille","lat":43.293065,"lon":5.37418,"is_reserved":false,"is_disabled":false,"rental_uris":{"android":"levelo://app?vid=88bd68a3-540b-4837-8a9e-61cb6c90bf70","ios":"levelo://app?vid=88bd68a3-540b-4837-8a9e-61cb6c90bf70"},"vehicle_type_id":"4","last_reported":1736939252,"current_range_meters":30000,"station_id":"ce4bgi12rcd13ifvqb70","pricing_plan_id":"cebpf4jnsgd1na2vs0mg"},{"bike_id":"a743eecd-8bd4-4a12-a7d8-76eb2de82f34","system_id":"levelo_inurba_marseille","lat":43.33763,"lon":5.37452,"is_reserved":false,"is_disabled":false,"rental_uris":{"android":"levelo://app?vid=a743eecd-8bd4-4a12-a7d8-76eb2de82f34","ios":"levelo://app?vid=a743eecd-8bd4-4a12-a7d8-76eb2de82f34"},"vehicle_type_id":"4","last_reported":1736939252,"current_range_meters":36000,"station_id":"","pricing_plan_id":"cebpf4jnsgd1na2vs0mg"},{"bike_id":"79aca3ba-7217-4ac6-9d0a-feee61115c75","system_id":"levelo_inurba_marseille","lat":43.27682,"lon":5.38893,"is_reserved":false,"is_disabled":false,"rental_uris":{"android":"levelo://app?vid=79aca3ba-7217-4ac6-9d0a-feee61115c75","ios":"levelo://app?vid=79aca3ba-7217-4ac6-9d0a-feee61115c75"},"vehicle_type_id":"4","last_reported":1736939252,"current_range_meters":38000,"station_id":"ce4bhi12rcd13ifvqfo0","pricing_plan_id":"cebpf4jnsgd1na2vs0mg"},{"bike_id":"46fa5cd6-1575-48a3-a0fc-d8146e5b5a4b","system_id":"levelo_inurba_marseille","lat":43.3361,"lon":5.41026,"is_reserved":false,"is_disabled":false,"rental_uris":{"android":"levelo://app?vid=46fa5cd6-1575-48a3-a0fc-d8146e5b5a4b","ios":"levelo://app?vid=46fa5cd6-1575-48a3-a0fc-d8146e5b5a4b"},"vehicle_type_id":"4","last_reported":1736939252,"current_range_meters":38800,"station_id":"ce4bhqh2rcd13ifvqhmg","pricing_plan_id":"cebpf4jnsgd1na2vs0mg"},{"bike_id":"e81ef256-d7a3-4c28-9bcc-58b1fdfe2d9d","system_id":"levelo_inurba_marseille","lat":43.2511,"lon":5.40346,"is_reserved":false,"is_disabled":false,"rental_uris":{"android":"levelo://app?vid=e81ef256-d7a3-4c28-9bcc-58b1fdfe2d9d","ios":"levelo://app?vid=e81ef256-d7a3-4c28-9bcc-58b1fdfe2d9d"},"vehicle_type_id":"4","last_reported":1736939252,"current_range_meters":38000,"station_id":"ce4bhlh2rcd13ifvqgig","pricing_plan_id":"cebpf4jnsgd1na2vs0mg"},{"bike_id":"db27b2af-171c-4aa7-b50e-e2ab13f4af0b","system_id":"levelo_inurba_marseille","lat":43.3055,"lon":5.36548,"is_reserved":false,"is_disabled":false,"rental_uris":{"android":"levelo://app?vid=db27b2af-171c-4aa7-b50e-e2ab13f4af0b","ios":"levelo://app?vid=db27b2af-171c-4aa7-b50e-e2ab13f4af0b"},"vehicle_type_id":"4","last_reported":1736939252,"current_range_meters":12400,"station_id":"ce4bgs12rcd13ifvqcag","pricing_plan_id":"cebpf4jnsgd1na2vs0mg"},{"bike_id":"a56bdbd1-df7d-41ba-9f3e-507b8a4b3e97","system_id":"levelo_inurba_marseille","lat":43.29624,"lon":5.37168,"is_reserved":false,"is_disabled":false,"rental_uris":{"android":"levelo://app?vid=a56bdbd1-df7d-41ba-9f3e-507b8a4b3e97","ios":"levelo://app?vid=a56bdbd1-df7d-41ba-9f3e-507b8a4b3e97"},"vehicle_type_id":"4","last_reported":1736939252,"current_range_meters":20400,"station_id":"ce4bgnh2rcd13ifvqc0g","pricing_plan_id":"cebpf4jnsgd1na2vs0mg"},{"bike_id":"f420f053-d26a-4b44-ab0c-8d6e9d169cb1","system_id":"levelo_inurba_marseille","lat":43.28693,"lon":5.37399,"is_reserved":false,"is_disabled":false,"rental_uris":{"android":"levelo://app?vid=f420f053-d26a-4b44-ab0c-8d6e9d169cb1","ios":"levelo://app?vid=f420f053-d26a-4b44-ab0c-8d6e9d169cb1"},"vehicle_type_id":"4","last_reported":1736939252,"current_range_meters":39200,"station_id":"ce4bh3p2rcd13ifvqdq0","pricing_plan_id":"cebpf4jnsgd1na2vs0mg"},{"bike_id":"f8800adc-29e9-47fc-86f1-25a46dbbb4db","system_id":"levelo_inurba_marseille","lat":43.30523,"lon":5.36543,"is_reserved":false,"is_disabled":false,"rental_uris":{"android":"levelo://app?vid=f8800adc-29e9-47fc-86f1-25a46dbbb4db","ios":"levelo://app?vid=f8800adc-29e9-47fc-86f1-25a46dbbb4db"},"vehicle_type_id":"4","last_reported":1736939252,"current_range_meters":11600,"station_id":"ce4bgs12rcd13ifvqcag","pricing_plan_id":"cebpf4jnsgd1na2vs0mg"},{"bike_id":"192943ff-6579-4067-8b54-834fbf6d8760","system_id":"levelo_inurba_marseille","lat":43.2763,"lon":5.36091,"is_reserved":false,"is_disabled":false,"rental_uris":{"android":"levelo://app?vid=192943ff-6579-4067-8b54-834fbf6d8760","ios":"levelo://app?vid=192943ff-6579-4067-8b54-834fbf6d8760"},"vehicle_type_id":"4","last_reported":1736939252,"current_range_meters":38000,"station_id":"ce4bgj92rcd13ifvqbe0","pricing_plan_id":"cebpf4jnsgd1na2vs0mg"},{"bike_id":"fea1b24d-bbfb-474a-b028-8645483cd7e6","system_id":"levelo_inurba_marseille","lat":43.27399,"lon":5.36217,"is_reserved":false,"is_disabled":false,"rental_uris":{"android":"levelo://app?vid=fea1b24d-bbfb-474a-b028-8645483cd7e6","ios":"levelo://app?vid=fea1b24d-bbfb-474a-b028-8645483cd7e6"},"vehicle_type_id":"4","last_reported":1736939252,"current_range_meters":38000,"station_id":"","pricing_plan_id":"cebpf4jnsgd1na2vs0mg"},{"bike_id":"1455126f-f41c-4f0c-a717-77bb0d641fab","system_id":"levelo_inurba_marseille","lat":43.28268,"lon":5.35081,"is_reserved":false,"is_disabled":false,"rental_uris":{"android":"levelo://app?vid=1455126f-f41c-4f0c-a717-77bb0d641fab","ios":"levelo://app?vid=1455126f-f41c-4f0c-a717-77bb0d641fab"},"vehicle_type_id":"4","last_reported":1736939252,"current_range_meters":39200,"station_id":"ce4bhbp2rcd13ifvqerg","pricing_plan_id":"cebpf4jnsgd1na2vs0mg"},{"bike_id":"98c9b57f-b727-44d5-ab39-539e4817921c","system_id":"levelo_inurba_marseille","lat":43.26687,"lon":5.38284,"is_reserved":false,"is_disabled":false,"rental_uris":{"android":"levelo://app?vid=98c9b57f-b727-44d5-ab39-539e4817921c","ios":"levelo://app?vid=98c9b57f-b727-44d5-ab39-539e4817921c"},"vehicle_type_id":"4","last_reported":1736939252,"current_range_meters":35200,"station_id":"ce4bhg92rcd13ifvqf90","pricing_plan_id":"cebpf4jnsgd1na2vs0mg"},{"bike_id":"eef6dc4b-7f43-4457-a154-1fbfcc0fa2e2","system_id":"levelo_inurba_marseille","lat":43.270697,"lon":5.422889,"is_reserved":false,"is_disabled":false,"rental_uris":{"android":"levelo://app?vid=eef6dc4b-7f43-4457-a154-1fbfcc0fa2e2","ios":"levelo://app?vid=eef6dc4b-7f43-4457-a154-1fbfcc0fa2e2"},"vehicle_type_id":"4","last_reported":1736939252,"current_range_meters":4400,"station_id":"ce4bhk92rcd13ifvqgb0","pricing_plan_id":"cebpf4jnsgd1na2vs0mg"},{"bike_id":"0ada6c01-b17d-4394-a9d3-60e5c6157127","system_id":"levelo_inurba_marseille","lat":43.31993,"lon":5.38161,"is_reserved":false,"is_disabled":false,"rental_uris":{"android":"levelo://app?vid=0ada6c01-b17d-4394-a9d3-60e5c6157127","ios":"levelo://app?vid=0ada6c01-b17d-4394-a9d3-60e5c6157127"},"vehicle_type_id":"4","last_reported":1736939252,"current_range_meters":38800,"station_id":"ce4bhr12rcd13ifvqhpg","pricing_plan_id":"cebpf4jnsgd1na2vs0mg"},{"bike_id":"1a17be76-21bf-4b83-aa07-9b2a2650f36d","system_id":"levelo_inurba_marseille","lat":43.27678,"lon":5.38877,"is_reserved":false,"is_disabled":false,"rental_uris":{"android":"levelo://app?vid=1a17be76-21bf-4b83-aa07-9b2a2650f36d","ios":"levelo://app?vid=1a17be76-21bf-4b83-aa07-9b2a2650f36d"},"vehicle_type_id":"4","last_reported":1736939252,"current_range_meters":34000,"station_id":"ce4bhi12rcd13ifvqfo0","pricing_plan_id":"cebpf4jnsgd1na2vs0mg"},{"bike_id":"73f1c851-1049-430e-8368-87296464dcce","system_id":"levelo_inurba_marseille","lat":43.32465,"lon":5.36596,"is_reserved":false,"is_disabled":false,"rental_uris":{"android":"levelo://app?vid=73f1c851-1049-430e-8368-87296464dcce","ios":"levelo://app?vid=73f1c851-1049-430e-8368-87296464dcce"},"vehicle_type_id":"4","last_reported":1736939252,"current_range_meters":33200,"station_id":"ce4bhs12rcd13ifvqhvg","pricing_plan_id":"cebpf4jnsgd1na2vs0mg"},{"bike_id":"00d06eb9-726f-4b57-9958-6a152662a00f","system_id":"levelo_inurba_marseille","lat":43.25859,"lon":5.39908,"is_reserved":false,"is_disabled":false,"rental_uris":{"android":"levelo://app?vid=00d06eb9-726f-4b57-9958-6a152662a00f","ios":"levelo://app?vid=00d06eb9-726f-4b57-9958-6a152662a00f"},"vehicle_type_id":"4","last_reported":1736939252,"current_range_meters":35600,"station_id":"ce4bhl92rcd13ifvqghg","pricing_plan_id":"cebpf4jnsgd1na2vs0mg"},{"bike_id":"ed33c7e6-7895-4822-9264-8cf66aa17029","system_id":"levelo_inurba_marseille","lat":43.29037,"lon":5.400143,"is_reserved":false,"is_disabled":true,"rental_uris":{"android":"levelo://app?vid=ed33c7e6-7895-4822-9264-8cf66aa17029","ios":"levelo://app?vid=ed33c7e6-7895-4822-9264-8cf66aa17029"},"vehicle_type_id":"4","last_reported":1736939252,"current_range_meters":2000,"station_id":"ce4bh392rcd13ifvqdm0","pricing_plan_id":"cebpf4jnsgd1na2vs0mg"},{"bike_id":"28402812-2437-4cb5-805b-4b740e765b45","system_id":"levelo_inurba_marseille","lat":43.30546,"lon":5.36552,"is_reserved":false,"is_disabled":false,"rental_uris":{"android":"levelo://app?vid=28402812-2437-4cb5-805b-4b740e765b45","ios":"levelo://app?vid=28402812-2437-4cb5-805b-4b740e765b45"},"vehicle_type_id":"4","last_reported":1736939252,"current_range_meters":30800,"station_id":"ce4bgs12rcd13ifvqcag","pricing_plan_id":"cebpf4jnsgd1na2vs0mg"},{"bike_id":"a1a925c1-025a-4e52-b724-c9c5776b8317","system_id":"levelo_inurba_marseille","lat":43.25114,"lon":5.40333,"is_reserved":false,"is_disabled":false,"rental_uris":{"android":"levelo://app?vid=a1a925c1-025a-4e52-b724-c9c5776b8317","ios":"levelo://app?vid=a1a925c1-025a-4e52-b724-c9c5776b8317"},"vehicle_type_id":"4","last_reported":1736939252,"current_range_meters":38800,"station_id":"ce4bhlh2rcd13ifvqgig","pricing_plan_id":"cebpf4jnsgd1na2vs0mg"},{"bike_id":"2f7f8f97-233b-49c1-a73b-02bd22f3a824","system_id":"levelo_inurba_marseille","lat":43.26684,"lon":5.3828,"is_reserved":false,"is_disabled":false,"rental_uris":{"android":"levelo://app?vid=2f7f8f97-233b-49c1-a73b-02bd22f3a824","ios":"levelo://app?vid=2f7f8f97-233b-49c1-a73b-02bd22f3a824"},"vehicle_type_id":"4","last_reported":1736939252,"current_range_meters":38800,"station_id":"ce4bhg92rcd13ifvqf90","pricing_plan_id":"cebpf4jnsgd1na2vs0mg"},{"bike_id":"2c839bfc-228b-4afd-9c45-0e54b8f36672","system_id":"levelo_inurba_marseille","lat":43.24649,"lon":5.38908,"is_reserved":false,"is_disabled":false,"rental_uris":{"android":"levelo://app?vid=2c839bfc-228b-4afd-9c45-0e54b8f36672","ios":"levelo://app?vid=2c839bfc-228b-4afd-9c45-0e54b8f36672"},"vehicle_type_id":"4","last_reported":1736939252,"current_range_meters":37600,"station_id":"ce4bhg12rcd13ifvqf60","pricing_plan_id":"cebpf4jnsgd1na2vs0mg"},{"bike_id":"f7e79d84-5de4-4c8b-b433-e0fffb166893","system_id":"levelo_inurba_marseille","lat":43.25115,"lon":5.40324,"is_reserved":false,"is_disabled":false,"rental_uris":{"android":"levelo://app?vid=f7e79d84-5de4-4c8b-b433-e0fffb166893","ios":"levelo://app?vid=f7e79d84-5de4-4c8b-b433-e0fffb166893"},"vehicle_type_id":"4","last_reported":1736939252,"current_range_meters":25200,"station_id":"ce4bhlh2rcd13ifvqgig","pricing_plan_id":"cebpf4jnsgd1na2vs0mg"},{"bike_id":"a78671fa-9ad0-4f65-8cb0-be6c7883e600","system_id":"levelo_inurba_marseille","lat":43.24387,"lon":5.37055,"is_reserved":false,"is_disabled":false,"rental_uris":{"android":"levelo://app?vid=a78671fa-9ad0-4f65-8cb0-be6c7883e600","ios":"levelo://app?vid=a78671fa-9ad0-4f65-8cb0-be6c7883e600"},"vehicle_type_id":"4","last_reported":1736939252,"current_range_meters":34000,"station_id":"ce4bhhh2rcd13ifvqfk0","pricing_plan_id":"cebpf4jnsgd1na2vs0mg"},{"bike_id":"755e5c0a-8de7-4ee5-9d4e-5ec609711170","system_id":"levelo_inurba_marseille","lat":43.29577,"lon":5.38138,"is_reserved":false,"is_disabled":true,"rental_uris":{"android":"levelo://app?vid=755e5c0a-8de7-4ee5-9d4e-5ec609711170","ios":"levelo://app?vid=755e5c0a-8de7-4ee5-9d4e-5ec609711170"},"vehicle_type_id":"4","last_reported":1736939252,"current_range_meters":27600,"station_id":"ce4bgl12rcd13ifvqbo0","pricing_plan_id":"cebpf4jnsgd1na2vs0mg"},{"bike_id":"96ccea46-02c2-4804-b27b-a98e43e1a3e5","system_id":"levelo_inurba_marseille","lat":43.3055,"lon":5.36523,"is_reserved":false,"is_disabled":false,"rental_uris":{"android":"levelo://app?vid=96ccea46-02c2-4804-b27b-a98e43e1a3e5","ios":"levelo://app?vid=96ccea46-02c2-4804-b27b-a98e43e1a3e5"},"vehicle_type_id":"4","last_reported":1736939252,"current_range_meters":22000,"station_id":"ce4bgs12rcd13ifvqcag","pricing_plan_id":"cebpf4jnsgd1na2vs0mg"},{"bike_id":"fa0f0594-5d1d-46eb-8344-bf961f94b942","system_id":"levelo_inurba_marseille","lat":43.30551,"lon":5.3654,"is_reserved":false,"is_disabled":false,"rental_uris":{"android":"levelo://app?vid=fa0f0594-5d1d-46eb-8344-bf961f94b942","ios":"levelo://app?vid=fa0f0594-5d1d-46eb-8344-bf961f94b942"},"vehicle_type_id":"4","last_reported":1736939252,"current_range_meters":17600,"station_id":"ce4bgs12rcd13ifvqcag","pricing_plan_id":"cebpf4jnsgd1na2vs0mg"},{"bike_id":"a15980ac-c225-4e68-8982-6cc8c4cbfd79","system_id":"levelo_inurba_marseille","lat":43.23193,"lon":5.3556,"is_reserved":false,"is_disabled":false,"rental_uris":{"android":"levelo://app?vid=a15980ac-c225-4e68-8982-6cc8c4cbfd79","ios":"levelo://app?vid=a15980ac-c225-4e68-8982-6cc8c4cbfd79"},"vehicle_type_id":"4","last_reported":1736939252,"current_range_meters":39200,"station_id":"ce4bhu92rcd13ifvqi70","pricing_plan_id":"cebpf4jnsgd1na2vs0mg"},{"bike_id":"c1e4c3f1-3e89-4762-b660-b562a1538ef0","system_id":"levelo_inurba_marseille","lat":43.25125,"lon":5.40329,"is_reserved":false,"is_disabled":false,"rental_uris":{"android":"levelo://app?vid=c1e4c3f1-3e89-4762-b660-b562a1538ef0","ios":"levelo://app?vid=c1e4c3f1-3e89-4762-b660-b562a1538ef0"},"vehicle_type_id":"4","last_reported":1736939252,"current_range_meters":38800,"station_id":"ce4bhlh2rcd13ifvqgig","pricing_plan_id":"cebpf4jnsgd1na2vs0mg"},{"bike_id":"d77489f3-9190-4bb2-96fe-bb0fc0868862","system_id":"levelo_inurba_marseille","lat":43.27946,"lon":5.41046,"is_reserved":false,"is_disabled":false,"rental_uris":{"android":"levelo://app?vid=d77489f3-9190-4bb2-96fe-bb0fc0868862","ios":"levelo://app?vid=d77489f3-9190-4bb2-96fe-bb0fc0868862"},"vehicle_type_id":"4","last_reported":1736939252,"current_range_meters":17600,"station_id":"ce4bhnp2rcd13ifvqh0g","pricing_plan_id":"cebpf4jnsgd1na2vs0mg"},{"bike_id":"9431dcd4-896d-4b12-951c-8ebd98c68f2b","system_id":"levelo_inurba_marseille","lat":43.3055,"lon":5.36548,"is_reserved":false,"is_disabled":false,"rental_uris":{"android":"levelo://app?vid=9431dcd4-896d-4b12-951c-8ebd98c68f2b","ios":"levelo://app?vid=9431dcd4-896d-4b12-951c-8ebd98c68f2b"},"vehicle_type_id":"4","last_reported":1736939252,"current_range_meters":18000,"station_id":"ce4bgs12rcd13ifvqcag","pricing_plan_id":"cebpf4jnsgd1na2vs0mg"},{"bike_id":"b3caa0af-057c-4262-b25c-f52359b900ed","system_id":"levelo_inurba_marseille","lat":43.27538,"lon":5.38441,"is_reserved":false,"is_disabled":false,"rental_uris":{"android":"levelo://app?vid=b3caa0af-057c-4262-b25c-f52359b900ed","ios":"levelo://app?vid=b3caa0af-057c-4262-b25c-f52359b900ed"},"vehicle_type_id":"4","last_reported":1736939252,"current_range_meters":22800,"station_id":"ce4bhh92rcd13ifvqfi0","pricing_plan_id":"cebpf4jnsgd1na2vs0mg"},{"bike_id":"5ff5140a-2a8f-4905-8712-eb67584199e2","system_id":"levelo_inurba_marseille","lat":43.23965,"lon":5.36636,"is_reserved":false,"is_disabled":false,"rental_uris":{"android":"levelo://app?vid=5ff5140a-2a8f-4905-8712-eb67584199e2","ios":"levelo://app?vid=5ff5140a-2a8f-4905-8712-eb67584199e2"},"vehicle_type_id":"4","last_reported":1736939252,"current_range_meters":25600,"station_id":"ce4bhi12rcd13ifvqfp0","pricing_plan_id":"cebpf4jnsgd1na2vs0mg"},{"bike_id":"b9eed55d-5ba6-4dc4-a632-72e01b758f7a","system_id":"levelo_inurba_marseille","lat":43.30542,"lon":5.36557,"is_reserved":false,"is_disabled":false,"rental_uris":{"android":"levelo://app?vid=b9eed55d-5ba6-4dc4-a632-72e01b758f7a","ios":"levelo://app?vid=b9eed55d-5ba6-4dc4-a632-72e01b758f7a"},"vehicle_type_id":"4","last_reported":1736939252,"current_range_meters":38800,"station_id":"ce4bgs12rcd13ifvqcag","pricing_plan_id":"cebpf4jnsgd1na2vs0mg"},{"bike_id":"51bb6953-dea8-4e82-96bf-52696267905f","system_id":"levelo_inurba_marseille","lat":43.23059,"lon":5.35496,"is_reserved":false,"is_disabled":false,"rental_uris":{"android":"levelo://app?vid=51bb6953-dea8-4e82-96bf-52696267905f","ios":"levelo://app?vid=51bb6953-dea8-4e82-96bf-52696267905f"},"vehicle_type_id":"4","last_reported":1736939252,"current_range_meters":38800,"station_id":"cpo3342slgdg3j2ifvpg","pricing_plan_id":"cebpf4jnsgd1na2vs0mg"},{"bike_id":"8c6739ac-fc4b-4446-93e5-573627213987","system_id":"levelo_inurba_marseille","lat":43.27931,"lon":5.41037,"is_reserved":false,"is_disabled":false,"rental_uris":{"android":"levelo://app?vid=8c6739ac-fc4b-4446-93e5-573627213987","ios":"levelo://app?vid=8c6739ac-fc4b-4446-93e5-573627213987"},"vehicle_type_id":"4","last_reported":1736939252,"current_range_meters":17200,"station_id":"ce4bhnp2rcd13ifvqh0g","pricing_plan_id":"cebpf4jnsgd1na2vs0mg"},{"bike_id":"0c4dc621-e525-4719-883f-96a7d84144cd","system_id":"levelo_inurba_marseille","lat":43.30247,"lon":5.37756,"is_reserved":false,"is_disabled":false,"rental_uris":{"android":"levelo://app?vid=0c4dc621-e525-4719-883f-96a7d84144cd","ios":"levelo://app?vid=0c4dc621-e525-4719-883f-96a7d84144cd"},"vehicle_type_id":"4","last_reported":1736939252,"current_range_meters":39200,"station_id":"ce4bguh2rcd13ifvqcj0","pricing_plan_id":"cebpf4jnsgd1na2vs0mg"},{"bike_id":"d7be02d2-8ee2-44da-9eab-4a852529345b","system_id":"levelo_inurba_marseille","lat":43.29796,"lon":5.40396,"is_reserved":false,"is_disabled":false,"rental_uris":{"android":"levelo://app?vid=d7be02d2-8ee2-44da-9eab-4a852529345b","ios":"levelo://app?vid=d7be02d2-8ee2-44da-9eab-4a852529345b"},"vehicle_type_id":"4","last_reported":1736939252,"current_range_meters":27600,"station_id":"ce4bh112rcd13ifvqd90","pricing_plan_id":"cebpf4jnsgd1na2vs0mg"},{"bike_id":"c3fd4a15-54c7-4bf7-8e92-aec52d2a8162","system_id":"levelo_inurba_marseille","lat":43.26696,"lon":5.38251,"is_reserved":false,"is_disabled":false,"rental_uris":{"android":"levelo://app?vid=c3fd4a15-54c7-4bf7-8e92-aec52d2a8162","ios":"levelo://app?vid=c3fd4a15-54c7-4bf7-8e92-aec52d2a8162"},"vehicle_type_id":"4","last_reported":1736939252,"current_range_meters":33200,"station_id":"ce4bhg92rcd13ifvqf90","pricing_plan_id":"cebpf4jnsgd1na2vs0mg"},{"bike_id":"fc358263-b9ec-4f48-997c-f4b0b95e9020","system_id":"levelo_inurba_marseille","lat":43.28281,"lon":5.35091,"is_reserved":false,"is_disabled":false,"rental_uris":{"android":"levelo://app?vid=fc358263-b9ec-4f48-997c-f4b0b95e9020","ios":"levelo://app?vid=fc358263-b9ec-4f48-997c-f4b0b95e9020"},"vehicle_type_id":"4","last_reported":1736939252,"current_range_meters":28000,"station_id":"ce4bhbp2rcd13ifvqerg","pricing_plan_id":"cebpf4jnsgd1na2vs0mg"},{"bike_id":"01763ae4-59e6-4b9d-bd4c-da8f8d608344","system_id":"levelo_inurba_marseille","lat":43.311153,"lon":5.388706,"is_reserved":false,"is_disabled":false,"rental_uris":{"android":"levelo://app?vid=01763ae4-59e6-4b9d-bd4c-da8f8d608344","ios":"levelo://app?vid=01763ae4-59e6-4b9d-bd4c-da8f8d608344"},"vehicle_type_id":"4","last_reported":1736939252,"current_range_meters":38800,"station_id":"ce4bgv12rcd13ifvqcp0","pricing_plan_id":"cebpf4jnsgd1na2vs0mg"},{"bike_id":"f577e6ec-d667-4c2e-973f-00402c9eb8d4","system_id":"levelo_inurba_marseille","lat":43.29613,"lon":5.3772,"is_reserved":false,"is_disabled":false,"rental_uris":{"android":"levelo://app?vid=f577e6ec-d667-4c2e-973f-00402c9eb8d4","ios":"levelo://app?vid=f577e6ec-d667-4c2e-973f-00402c9eb8d4"},"vehicle_type_id":"4","last_reported":1736939252,"current_range_meters":35200,"station_id":"ce4bgi92rcd13ifvqb90","pricing_plan_id":"cebpf4jnsgd1na2vs0mg"},{"bike_id":"1a88b36a-bdcc-4ab6-a257-59715f73d204","system_id":"levelo_inurba_marseille","lat":43.26707,"lon":5.3828,"is_reserved":false,"is_disabled":false,"rental_uris":{"android":"levelo://app?vid=1a88b36a-bdcc-4ab6-a257-59715f73d204","ios":"levelo://app?vid=1a88b36a-bdcc-4ab6-a257-59715f73d204"},"vehicle_type_id":"4","last_reported":1736939252,"current_range_meters":25600,"station_id":"ce4bhg92rcd13ifvqf90","pricing_plan_id":"cebpf4jnsgd1na2vs0mg"},{"bike_id":"f6b5a21b-caca-4bab-9767-62a516c88435","system_id":"levelo_inurba_marseille","lat":43.24642,"lon":5.38907,"is_reserved":false,"is_disabled":false,"rental_uris":{"android":"levelo://app?vid=f6b5a21b-caca-4bab-9767-62a516c88435","ios":"levelo://app?vid=f6b5a21b-caca-4bab-9767-62a516c88435"},"vehicle_type_id":"4","last_reported":1736939252,"current_range_meters":38800,"station_id":"ce4bhg12rcd13ifvqf60","pricing_plan_id":"cebpf4jnsgd1na2vs0mg"},{"bike_id":"1ab3f322-8e8f-40bf-b46a-ad736fdeffee","system_id":"levelo_inurba_marseille","lat":43.23147,"lon":5.43758,"is_reserved":false,"is_disabled":false,"rental_uris":{"android":"levelo://app?vid=1ab3f322-8e8f-40bf-b46a-ad736fdeffee","ios":"levelo://app?vid=1ab3f322-8e8f-40bf-b46a-ad736fdeffee"},"vehicle_type_id":"4","last_reported":1736939252,"current_range_meters":38000,"station_id":"","pricing_plan_id":"cebpf4jnsgd1na2vs0mg"},{"bike_id":"53206026-addf-4a65-8fa0-3fc174184ef4","system_id":"levelo_inurba_marseille","lat":43.317556,"lon":5.390249,"is_reserved":false,"is_disabled":false,"rental_uris":{"android":"levelo://app?vid=53206026-addf-4a65-8fa0-3fc174184ef4","ios":"levelo://app?vid=53206026-addf-4a65-8fa0-3fc174184ef4"},"vehicle_type_id":"4","last_reported":1736939252,"current_range_meters":28800,"station_id":"ce4bhqp2rcd13ifvqhng","pricing_plan_id":"cebpf4jnsgd1na2vs0mg"},{"bike_id":"9462dfc7-54be-4f52-bb4c-c62cc80d0037","system_id":"levelo_inurba_marseille","lat":43.30554,"lon":5.36543,"is_reserved":false,"is_disabled":false,"rental_uris":{"android":"levelo://app?vid=9462dfc7-54be-4f52-bb4c-c62cc80d0037","ios":"levelo://app?vid=9462dfc7-54be-4f52-bb4c-c62cc80d0037"},"vehicle_type_id":"4","last_reported":1736939252,"current_range_meters":38800,"station_id":"ce4bgs12rcd13ifvqcag","pricing_plan_id":"cebpf4jnsgd1na2vs0mg"},{"bike_id":"a56bdef2-14b8-4e02-b3bc-538917283971","system_id":"levelo_inurba_marseille","lat":43.2509,"lon":5.39519,"is_reserved":false,"is_disabled":false,"rental_uris":{"android":"levelo://app?vid=a56bdef2-14b8-4e02-b3bc-538917283971","ios":"levelo://app?vid=a56bdef2-14b8-4e02-b3bc-538917283971"},"vehicle_type_id":"4","last_reported":1736939252,"current_range_meters":28000,"station_id":"ce4bhm12rcd13ifvqgkg","pricing_plan_id":"cebpf4jnsgd1na2vs0mg"},{"bike_id":"595c43f9-e732-431c-b61a-7e3290289a54","system_id":"levelo_inurba_marseille","lat":43.30302,"lon":5.3769,"is_reserved":false,"is_disabled":false,"rental_uris":{"android":"levelo://app?vid=595c43f9-e732-431c-b61a-7e3290289a54","ios":"levelo://app?vid=595c43f9-e732-431c-b61a-7e3290289a54"},"vehicle_type_id":"4","last_reported":1736939252,"current_range_meters":37600,"station_id":"ce4bguh2rcd13ifvqcj0","pricing_plan_id":"cebpf4jnsgd1na2vs0mg"},{"bike_id":"f715cf70-da86-4eb8-be71-e08b36a5db0b","system_id":"levelo_inurba_marseille","lat":43.29045,"lon":5.39484,"is_reserved":false,"is_disabled":false,"rental_uris":{"android":"levelo://app?vid=f715cf70-da86-4eb8-be71-e08b36a5db0b","ios":"levelo://app?vid=f715cf70-da86-4eb8-be71-e08b36a5db0b"},"vehicle_type_id":"4","last_reported":1736939252,"current_range_meters":12000,"station_id":"","pricing_plan_id":"cebpf4jnsgd1na2vs0mg"},{"bike_id":"f91bbfd8-f8f4-4f9f-b2da-9f3d881d61fd","system_id":"levelo_inurba_marseille","lat":43.27815,"lon":5.40717,"is_reserved":false,"is_disabled":false,"rental_uris":{"android":"levelo://app?vid=f91bbfd8-f8f4-4f9f-b2da-9f3d881d61fd","ios":"levelo://app?vid=f91bbfd8-f8f4-4f9f-b2da-9f3d881d61fd"},"vehicle_type_id":"4","last_reported":1736939252,"current_range_meters":24800,"station_id":"ce4bhnh2rcd13ifvqgtg","pricing_plan_id":"cebpf4jnsgd1na2vs0mg"},{"bike_id":"4f75de10-6125-4af4-bfd6-57edf51f1f8a","system_id":"levelo_inurba_marseille","lat":43.29593,"lon":5.40643,"is_reserved":false,"is_disabled":false,"rental_uris":{"android":"levelo://app?vid=4f75de10-6125-4af4-bfd6-57edf51f1f8a","ios":"levelo://app?vid=4f75de10-6125-4af4-bfd6-57edf51f1f8a"},"vehicle_type_id":"4","last_reported":1736939252,"current_range_meters":13600,"station_id":"ce4bh0h2rcd13ifvqd60","pricing_plan_id":"cebpf4jnsgd1na2vs0mg"},{"bike_id":"e5b9252e-eebf-4c90-b028-b53cc4934330","system_id":"levelo_inurba_marseille","lat":43.303525,"lon":5.41898,"is_reserved":false,"is_disabled":true,"rental_uris":{"android":"levelo://app?vid=e5b9252e-eebf-4c90-b028-b53cc4934330","ios":"levelo://app?vid=e5b9252e-eebf-4c90-b028-b53cc4934330"},"vehicle_type_id":"4","last_reported":1736939252,"current_range_meters":17200,"station_id":"ce4bhop2rcd13ifvqh7g","pricing_plan_id":"cebpf4jnsgd1na2vs0mg"},{"bike_id":"89802624-8b08-4794-a572-497e05fbe666","system_id":"levelo_inurba_marseille","lat":43.29311,"lon":5.37145,"is_reserved":false,"is_disabled":false,"rental_uris":{"android":"levelo://app?vid=89802624-8b08-4794-a572-497e05fbe666","ios":"levelo://app?vid=89802624-8b08-4794-a572-497e05fbe666"},"vehicle_type_id":"4","last_reported":1736939252,"current_range_meters":38800,"station_id":"ce4bgh92rcd13ifvqb40","pricing_plan_id":"cebpf4jnsgd1na2vs0mg"},{"bike_id":"67bd9303-2476-4c24-8a03-ea63b405ba3f","system_id":"levelo_inurba_marseille","lat":43.2582,"lon":5.39431,"is_reserved":false,"is_disabled":false,"rental_uris":{"android":"levelo://app?vid=67bd9303-2476-4c24-8a03-ea63b405ba3f","ios":"levelo://app?vid=67bd9303-2476-4c24-8a03-ea63b405ba3f"},"vehicle_type_id":"4","last_reported":1736939252,"current_range_meters":33600,"station_id":"ce4bhip2rcd13ifvqft0","pricing_plan_id":"cebpf4jnsgd1na2vs0mg"},{"bike_id":"041b27fe-f947-45fe-8459-73eedb41d5f5","system_id":"levelo_inurba_marseille","lat":43.23142,"lon":5.43724,"is_reserved":false,"is_disabled":false,"rental_uris":{"android":"levelo://app?vid=041b27fe-f947-45fe-8459-73eedb41d5f5","ios":"levelo://app?vid=041b27fe-f947-45fe-8459-73eedb41d5f5"},"vehicle_type_id":"4","last_reported":1736939252,"current_range_meters":27200,"station_id":"ce4bhmp2rcd13ifvqgog","pricing_plan_id":"cebpf4jnsgd1na2vs0mg"},{"bike_id":"30cc888a-fdf7-41aa-8fb2-d46ec5802ae1","system_id":"levelo_inurba_marseille","lat":43.32854,"lon":5.40007,"is_reserved":false,"is_disabled":true,"rental_uris":{"android":"levelo://app?vid=30cc888a-fdf7-41aa-8fb2-d46ec5802ae1","ios":"levelo://app?vid=30cc888a-fdf7-41aa-8fb2-d46ec5802ae1"},"vehicle_type_id":"4","last_reported":1736939252,"current_range_meters":0,"station_id":"","pricing_plan_id":"cebpf4jnsgd1na2vs0mg"},{"bike_id":"b9208aad-92b3-49df-9852-56bf76c4b6c2","system_id":"levelo_inurba_marseille","lat":43.27917,"lon":5.39584,"is_reserved":false,"is_disabled":true,"rental_uris":{"android":"levelo://app?vid=b9208aad-92b3-49df-9852-56bf76c4b6c2","ios":"levelo://app?vid=b9208aad-92b3-49df-9852-56bf76c4b6c2"},"vehicle_type_id":"4","last_reported":1736939252,"current_range_meters":800,"station_id":"ce4bhf92rcd13ifvqf40","pricing_plan_id":"cebpf4jnsgd1na2vs0mg"},{"bike_id":"db11193f-e588-4a85-900e-70724fc8f9fe","system_id":"levelo_inurba_marseille","lat":43.29003,"lon":5.35605,"is_reserved":false,"is_disabled":false,"rental_uris":{"android":"levelo://app?vid=db11193f-e588-4a85-900e-70724fc8f9fe","ios":"levelo://app?vid=db11193f-e588-4a85-900e-70724fc8f9fe"},"vehicle_type_id":"4","last_reported":1736939252,"current_range_meters":22000,"station_id":"ce4bhb92rcd13ifvqen0","pricing_plan_id":"cebpf4jnsgd1na2vs0mg"},{"bike_id":"b2d2ecc8-c52c-447e-b74e-1b31694a0902","system_id":"levelo_inurba_marseille","lat":43.30428,"lon":5.37948,"is_reserved":false,"is_disabled":false,"rental_uris":{"android":"levelo://app?vid=b2d2ecc8-c52c-447e-b74e-1b31694a0902","ios":"levelo://app?vid=b2d2ecc8-c52c-447e-b74e-1b31694a0902"},"vehicle_type_id":"4","last_reported":1736939252,"current_range_meters":30000,"station_id":"","pricing_plan_id":"cebpf4jnsgd1na2vs0mg"},{"bike_id":"0adbfa65-465c-487a-8c44-6247250163c9","system_id":"levelo_inurba_marseille","lat":43.31207,"lon":5.36846,"is_reserved":false,"is_disabled":true,"rental_uris":{"android":"levelo://app?vid=0adbfa65-465c-487a-8c44-6247250163c9","ios":"levelo://app?vid=0adbfa65-465c-487a-8c44-6247250163c9"},"vehicle_type_id":"4","last_reported":1736939252,"current_range_meters":6400,"station_id":"ce4bgl92rcd13ifvqbq0","pricing_plan_id":"cebpf4jnsgd1na2vs0mg"},{"bike_id":"04deccb6-f313-44bf-8fcb-bffda4962049","system_id":"levelo_inurba_marseille","lat":43.27932,"lon":5.41057,"is_reserved":false,"is_disabled":false,"rental_uris":{"android":"levelo://app?vid=04deccb6-f313-44bf-8fcb-bffda4962049","ios":"levelo://app?vid=04deccb6-f313-44bf-8fcb-bffda4962049"},"vehicle_type_id":"4","last_reported":1736939252,"current_range_meters":26800,"station_id":"ce4bhnp2rcd13ifvqh0g","pricing_plan_id":"cebpf4jnsgd1na2vs0mg"},{"bike_id":"d8e3941b-0cae-4b8e-ae3c-c34a4b3b2c65","system_id":"levelo_inurba_marseille","lat":43.31983,"lon":5.38165,"is_reserved":false,"is_disabled":false,"rental_uris":{"android":"levelo://app?vid=d8e3941b-0cae-4b8e-ae3c-c34a4b3b2c65","ios":"levelo://app?vid=d8e3941b-0cae-4b8e-ae3c-c34a4b3b2c65"},"vehicle_type_id":"4","last_reported":1736939252,"current_range_meters":38800,"station_id":"ce4bhr12rcd13ifvqhpg","pricing_plan_id":"cebpf4jnsgd1na2vs0mg"},{"bike_id":"7c14d5c3-ce5a-4bd4-83e5-ff6c90da96df","system_id":"levelo_inurba_marseille","lat":43.2856,"lon":5.38369,"is_reserved":false,"is_disabled":true,"rental_uris":{"android":"levelo://app?vid=7c14d5c3-ce5a-4bd4-83e5-ff6c90da96df","ios":"levelo://app?vid=7c14d5c3-ce5a-4bd4-83e5-ff6c90da96df"},"vehicle_type_id":"4","last_reported":1736939252,"current_range_meters":400,"station_id":"","pricing_plan_id":"cebpf4jnsgd1na2vs0mg"},{"bike_id":"efdf5a0e-044e-4493-ac8c-4f862a5351cb","system_id":"levelo_inurba_marseille","lat":43.28105,"lon":5.37842,"is_reserved":false,"is_disabled":false,"rental_uris":{"android":"levelo://app?vid=efdf5a0e-044e-4493-ac8c-4f862a5351cb","ios":"levelo://app?vid=efdf5a0e-044e-4493-ac8c-4f862a5351cb"},"vehicle_type_id":"4","last_reported":1736939252,"current_range_meters":38800,"station_id":"ce4bha12rcd13ifvqee0","pricing_plan_id":"cebpf4jnsgd1na2vs0mg"},{"bike_id":"3126b473-1a7e-4204-9746-778c09bc7003","system_id":"levelo_inurba_marseille","lat":43.29618,"lon":5.37717,"is_reserved":false,"is_disabled":false,"rental_uris":{"android":"levelo://app?vid=3126b473-1a7e-4204-9746-778c09bc7003","ios":"levelo://app?vid=3126b473-1a7e-4204-9746-778c09bc7003"},"vehicle_type_id":"4","last_reported":1736939252,"current_range_meters":23200,"station_id":"ce4bgi92rcd13ifvqb90","pricing_plan_id":"cebpf4jnsgd1na2vs0mg"},{"bike_id":"6d6efd1d-5fec-4e49-911a-42400bc6ab1e","system_id":"levelo_inurba_marseille","lat":43.33024,"lon":5.39032,"is_reserved":false,"is_disabled":false,"rental_uris":{"android":"levelo://app?vid=6d6efd1d-5fec-4e49-911a-42400bc6ab1e","ios":"levelo://app?vid=6d6efd1d-5fec-4e49-911a-42400bc6ab1e"},"vehicle_type_id":"4","last_reported":1736939252,"current_range_meters":9600,"station_id":"ce4bhr92rcd13ifvqhrg","pricing_plan_id":"cebpf4jnsgd1na2vs0mg"},{"bike_id":"54562beb-d62d-45a9-aee6-6ac8321e0e4a","system_id":"levelo_inurba_marseille","lat":43.29794,"lon":5.40413,"is_reserved":false,"is_disabled":false,"rental_uris":{"android":"levelo://app?vid=54562beb-d62d-45a9-aee6-6ac8321e0e4a","ios":"levelo://app?vid=54562beb-d62d-45a9-aee6-6ac8321e0e4a"},"vehicle_type_id":"4","last_reported":1736939252,"current_range_meters":36800,"station_id":"ce4bh112rcd13ifvqd90","pricing_plan_id":"cebpf4jnsgd1na2vs0mg"},{"bike_id":"3d37008d-9667-4535-97a7-1309686a7364","system_id":"levelo_inurba_marseille","lat":43.30138,"lon":5.37417,"is_reserved":false,"is_disabled":false,"rental_uris":{"android":"levelo://app?vid=3d37008d-9667-4535-97a7-1309686a7364","ios":"levelo://app?vid=3d37008d-9667-4535-97a7-1309686a7364"},"vehicle_type_id":"4","last_reported":1736939252,"current_range_meters":34800,"station_id":"ce4bgs92rcd13ifvqcc0","pricing_plan_id":"cebpf4jnsgd1na2vs0mg"},{"bike_id":"a1cbf57f-0d37-4cde-a4f4-e53c7978be93","system_id":"levelo_inurba_marseille","lat":43.26059,"lon":5.39408,"is_reserved":false,"is_disabled":false,"rental_uris":{"android":"levelo://app?vid=a1cbf57f-0d37-4cde-a4f4-e53c7978be93","ios":"levelo://app?vid=a1cbf57f-0d37-4cde-a4f4-e53c7978be93"},"vehicle_type_id":"4","last_reported":1736939252,"current_range_meters":8000,"station_id":"ce4bhh92rcd13ifvqfj0","pricing_plan_id":"cebpf4jnsgd1na2vs0mg"},{"bike_id":"97556e75-7204-4b65-8a16-3a64c05240d6","system_id":"levelo_inurba_marseille","lat":43.30144,"lon":5.38084,"is_reserved":false,"is_disabled":false,"rental_uris":{"android":"levelo://app?vid=97556e75-7204-4b65-8a16-3a64c05240d6","ios":"levelo://app?vid=97556e75-7204-4b65-8a16-3a64c05240d6"},"vehicle_type_id":"4","last_reported":1736939252,"current_range_meters":23200,"station_id":"ce4bgjp2rcd13ifvqbh0","pricing_plan_id":"cebpf4jnsgd1na2vs0mg"},{"bike_id":"20b42ccb-0411-4ccb-9208-7ac954900656","system_id":"levelo_inurba_marseille","lat":43.31355,"lon":5.36708,"is_reserved":false,"is_disabled":false,"rental_uris":{"android":"levelo://app?vid=20b42ccb-0411-4ccb-9208-7ac954900656","ios":"levelo://app?vid=20b42ccb-0411-4ccb-9208-7ac954900656"},"vehicle_type_id":"4","last_reported":1736939252,"current_range_meters":8800,"station_id":"ce4bgr92rcd13ifvqc6g","pricing_plan_id":"cebpf4jnsgd1na2vs0mg"},{"bike_id":"7a26b63c-652f-4d2d-8353-1a9dfb4e945a","system_id":"levelo_inurba_marseille","lat":43.33724,"lon":5.39188,"is_reserved":false,"is_disabled":false,"rental_uris":{"android":"levelo://app?vid=7a26b63c-652f-4d2d-8353-1a9dfb4e945a","ios":"levelo://app?vid=7a26b63c-652f-4d2d-8353-1a9dfb4e945a"},"vehicle_type_id":"4","last_reported":1736939252,"current_range_meters":38000,"station_id":"ce4bhr92rcd13ifvqhsg","pricing_plan_id":"cebpf4jnsgd1na2vs0mg"},{"bike_id":"ea740cd7-5d51-4d4c-8ecc-d36ef5573155","system_id":"levelo_inurba_marseille","lat":43.255802,"lon":5.382298,"is_reserved":false,"is_disabled":false,"rental_uris":{"android":"levelo://app?vid=ea740cd7-5d51-4d4c-8ecc-d36ef5573155","ios":"levelo://app?vid=ea740cd7-5d51-4d4c-8ecc-d36ef5573155"},"vehicle_type_id":"4","last_reported":1736939252,"current_range_meters":12800,"station_id":"ce4bhih2rcd13ifvqfs0","pricing_plan_id":"cebpf4jnsgd1na2vs0mg"},{"bike_id":"beae90ea-de3b-4a50-b97e-d77bd8538a84","system_id":"levelo_inurba_marseille","lat":43.23152,"lon":5.43707,"is_reserved":false,"is_disabled":false,"rental_uris":{"android":"levelo://app?vid=beae90ea-de3b-4a50-b97e-d77bd8538a84","ios":"levelo://app?vid=beae90ea-de3b-4a50-b97e-d77bd8538a84"},"vehicle_type_id":"4","last_reported":1736939252,"current_range_meters":8400,"station_id":"ce4bhmp2rcd13ifvqgog","pricing_plan_id":"cebpf4jnsgd1na2vs0mg"},{"bike_id":"4c665b58-4bb1-465a-be17-57f1ed8dc420","system_id":"levelo_inurba_marseille","lat":43.2992,"lon":5.37452,"is_reserved":false,"is_disabled":false,"rental_uris":{"android":"levelo://app?vid=4c665b58-4bb1-465a-be17-57f1ed8dc420","ios":"levelo://app?vid=4c665b58-4bb1-465a-be17-57f1ed8dc420"},"vehicle_type_id":"4","last_reported":1736939252,"current_range_meters":27600,"station_id":"ce4bgjh2rcd13ifvqbg0","pricing_plan_id":"cebpf4jnsgd1na2vs0mg"},{"bike_id":"d6c4e32b-6ea9-4f17-90c5-f831deea104e","system_id":"levelo_inurba_marseille","lat":43.29698,"lon":5.37285,"is_reserved":false,"is_disabled":false,"rental_uris":{"android":"levelo://app?vid=d6c4e32b-6ea9-4f17-90c5-f831deea104e","ios":"levelo://app?vid=d6c4e32b-6ea9-4f17-90c5-f831deea104e"},"vehicle_type_id":"4","last_reported":1736939252,"current_range_meters":36800,"station_id":"ce4bgk12rcd13ifvqbj0","pricing_plan_id":"cebpf4jnsgd1na2vs0mg"},{"bike_id":"144d2cc5-c4bb-4060-a212-90e29cfa4705","system_id":"levelo_inurba_marseille","lat":43.28701,"lon":5.39985,"is_reserved":false,"is_disabled":true,"rental_uris":{"android":"levelo://app?vid=144d2cc5-c4bb-4060-a212-90e29cfa4705","ios":"levelo://app?vid=144d2cc5-c4bb-4060-a212-90e29cfa4705"},"vehicle_type_id":"4","last_reported":1736939252,"current_range_meters":8800,"station_id":"ce4bho92rcd13ifvqh3g","pricing_plan_id":"cebpf4jnsgd1na2vs0mg"},{"bike_id":"5f23a61a-7e7d-465e-942d-98e84a6e0f49","system_id":"levelo_inurba_marseille","lat":43.24822,"lon":5.3748,"is_reserved":false,"is_disabled":false,"rental_uris":{"android":"levelo://app?vid=5f23a61a-7e7d-465e-942d-98e84a6e0f49","ios":"levelo://app?vid=5f23a61a-7e7d-465e-942d-98e84a6e0f49"},"vehicle_type_id":"4","last_reported":1736939252,"current_range_meters":28800,"station_id":"ce4bhgh2rcd13ifvqfb0","pricing_plan_id":"cebpf4jnsgd1na2vs0mg"},{"bike_id":"198897f2-d98b-469d-9893-cf67a03acff7","system_id":"levelo_inurba_marseille","lat":43.251205,"lon":5.403207,"is_reserved":false,"is_disabled":false,"rental_uris":{"android":"levelo://app?vid=198897f2-d98b-469d-9893-cf67a03acff7","ios":"levelo://app?vid=198897f2-d98b-469d-9893-cf67a03acff7"},"vehicle_type_id":"4","last_reported":1736939252,"current_range_meters":39200,"station_id":"ce4bhlh2rcd13ifvqgig","pricing_plan_id":"cebpf4jnsgd1na2vs0mg"},{"bike_id":"36873f65-abbe-4638-992e-b57501931eb0","system_id":"levelo_inurba_marseille","lat":43.29902,"lon":5.37482,"is_reserved":false,"is_disabled":false,"rental_uris":{"android":"levelo://app?vid=36873f65-abbe-4638-992e-b57501931eb0","ios":"levelo://app?vid=36873f65-abbe-4638-992e-b57501931eb0"},"vehicle_type_id":"4","last_reported":1736939252,"current_range_meters":28400,"station_id":"ce4bgjh2rcd13ifvqbg0","pricing_plan_id":"cebpf4jnsgd1na2vs0mg"},{"bike_id":"701dfed4-da8a-492d-ab8b-26f7162d6cc2","system_id":"levelo_inurba_marseille","lat":43.29931,"lon":5.37472,"is_reserved":false,"is_disabled":false,"rental_uris":{"android":"levelo://app?vid=701dfed4-da8a-492d-ab8b-26f7162d6cc2","ios":"levelo://app?vid=701dfed4-da8a-492d-ab8b-26f7162d6cc2"},"vehicle_type_id":"4","last_reported":1736939252,"current_range_meters":38400,"station_id":"ce4bgjh2rcd13ifvqbg0","pricing_plan_id":"cebpf4jnsgd1na2vs0mg"},{"bike_id":"293537b8-faa4-4512-9781-add1f5857757","system_id":"levelo_inurba_marseille","lat":43.33729,"lon":5.37448,"is_reserved":false,"is_disabled":false,"rental_uris":{"android":"levelo://app?vid=293537b8-faa4-4512-9781-add1f5857757","ios":"levelo://app?vid=293537b8-faa4-4512-9781-add1f5857757"},"vehicle_type_id":"4","last_reported":1736939252,"current_range_meters":38800,"station_id":"","pricing_plan_id":"cebpf4jnsgd1na2vs0mg"},{"bike_id":"ae6a24c6-71f9-417a-adfe-c09c90280637","system_id":"levelo_inurba_marseille","lat":43.26545,"lon":5.37293,"is_reserved":false,"is_disabled":false,"rental_uris":{"android":"levelo://app?vid=ae6a24c6-71f9-417a-adfe-c09c90280637","ios":"levelo://app?vid=ae6a24c6-71f9-417a-adfe-c09c90280637"},"vehicle_type_id":"4","last_reported":1736939252,"current_range_meters":38000,"station_id":"ce4bhg12rcd13ifvqf70","pricing_plan_id":"cebpf4jnsgd1na2vs0mg"},{"bike_id":"150c175f-61aa-41e5-bc28-cfff0f11ca68","system_id":"levelo_inurba_marseille","lat":43.27927,"lon":5.39595,"is_reserved":false,"is_disabled":false,"rental_uris":{"android":"levelo://app?vid=150c175f-61aa-41e5-bc28-cfff0f11ca68","ios":"levelo://app?vid=150c175f-61aa-41e5-bc28-cfff0f11ca68"},"vehicle_type_id":"4","last_reported":1736939252,"current_range_meters":34800,"station_id":"ce4bhf92rcd13ifvqf40","pricing_plan_id":"cebpf4jnsgd1na2vs0mg"},{"bike_id":"31ca8b0e-c72e-47d4-a59b-a2766db72931","system_id":"levelo_inurba_marseille","lat":43.28418,"lon":5.40932,"is_reserved":false,"is_disabled":true,"rental_uris":{"android":"levelo://app?vid=31ca8b0e-c72e-47d4-a59b-a2766db72931","ios":"levelo://app?vid=31ca8b0e-c72e-47d4-a59b-a2766db72931"},"vehicle_type_id":"4","last_reported":1736939252,"current_range_meters":30800,"station_id":"","pricing_plan_id":"cebpf4jnsgd1na2vs0mg"},{"bike_id":"5af21288-6a78-4bf0-98f0-2634bd9f0280","system_id":"levelo_inurba_marseille","lat":43.29795,"lon":5.37094,"is_reserved":false,"is_disabled":false,"rental_uris":{"android":"levelo://app?vid=5af21288-6a78-4bf0-98f0-2634bd9f0280","ios":"levelo://app?vid=5af21288-6a78-4bf0-98f0-2634bd9f0280"},"vehicle_type_id":"4","last_reported":1736939252,"current_range_meters":36000,"station_id":"ce4bgop2rcd13ifvqc1g","pricing_plan_id":"cebpf4jnsgd1na2vs0mg"},{"bike_id":"60c48e84-151f-4edd-83cd-789ff87c7f63","system_id":"levelo_inurba_marseille","lat":43.28702,"lon":5.37384,"is_reserved":false,"is_disabled":true,"rental_uris":{"android":"levelo://app?vid=60c48e84-151f-4edd-83cd-789ff87c7f63","ios":"levelo://app?vid=60c48e84-151f-4edd-83cd-789ff87c7f63"},"vehicle_type_id":"4","last_reported":1736939252,"current_range_meters":28800,"station_id":"ce4bh3p2rcd13ifvqdq0","pricing_plan_id":"cebpf4jnsgd1na2vs0mg"},{"bike_id":"f86b0549-bc44-451e-9740-6d16d6928c58","system_id":"levelo_inurba_marseille","lat":43.30889,"lon":5.37213,"is_reserved":false,"is_disabled":false,"rental_uris":{"android":"levelo://app?vid=f86b0549-bc44-451e-9740-6d16d6928c58","ios":"levelo://app?vid=f86b0549-bc44-451e-9740-6d16d6928c58"},"vehicle_type_id":"4","last_reported":1736939252,"current_range_meters":34000,"station_id":"ce4bguh2rcd13ifvqckg","pricing_plan_id":"cebpf4jnsgd1na2vs0mg"},{"bike_id":"dc373159-b1bc-4866-873c-40aeed7bd691","system_id":"levelo_inurba_marseille","lat":43.32658,"lon":5.40997,"is_reserved":false,"is_disabled":false,"rental_uris":{"android":"levelo://app?vid=dc373159-b1bc-4866-873c-40aeed7bd691","ios":"levelo://app?vid=dc373159-b1bc-4866-873c-40aeed7bd691"},"vehicle_type_id":"4","last_reported":1736939252,"current_range_meters":34000,"station_id":"ce4bhpp2rcd13ifvqhgg","pricing_plan_id":"cebpf4jnsgd1na2vs0mg"},{"bike_id":"e05770dc-4ca5-42f6-8928-9e060772c93d","system_id":"levelo_inurba_marseille","lat":43.32347,"lon":5.38908,"is_reserved":false,"is_disabled":false,"rental_uris":{"android":"levelo://app?vid=e05770dc-4ca5-42f6-8928-9e060772c93d","ios":"levelo://app?vid=e05770dc-4ca5-42f6-8928-9e060772c93d"},"vehicle_type_id":"4","last_reported":1736939252,"current_range_meters":37600,"station_id":"ce4bhqp2rcd13ifvqhog","pricing_plan_id":"cebpf4jnsgd1na2vs0mg"},{"bike_id":"6e5a20f5-ea8f-4686-8cb5-8081591a55f8","system_id":"levelo_inurba_marseille","lat":43.27316,"lon":5.39089,"is_reserved":false,"is_disabled":false,"rental_uris":{"android":"levelo://app?vid=6e5a20f5-ea8f-4686-8cb5-8081591a55f8","ios":"levelo://app?vid=6e5a20f5-ea8f-4686-8cb5-8081591a55f8"},"vehicle_type_id":"4","last_reported":1736939252,"current_range_meters":23200,"station_id":"ce4bhgp2rcd13ifvqfe0","pricing_plan_id":"cebpf4jnsgd1na2vs0mg"},{"bike_id":"de05f028-7450-4792-8d5b-e268410faa9d","system_id":"levelo_inurba_marseille","lat":43.32062,"lon":5.36835,"is_reserved":false,"is_disabled":false,"rental_uris":{"android":"levelo://app?vid=de05f028-7450-4792-8d5b-e268410faa9d","ios":"levelo://app?vid=de05f028-7450-4792-8d5b-e268410faa9d"},"vehicle_type_id":"4","last_reported":1736939252,"current_range_meters":25600,"station_id":"","pricing_plan_id":"cebpf4jnsgd1na2vs0mg"},{"bike_id":"b354b3ea-f7ff-42ac-a645-9e5cbfe3e2e2","system_id":"levelo_inurba_marseille","lat":43.30521,"lon":5.36534,"is_reserved":false,"is_disabled":false,"rental_uris":{"android":"levelo://app?vid=b354b3ea-f7ff-42ac-a645-9e5cbfe3e2e2","ios":"levelo://app?vid=b354b3ea-f7ff-42ac-a645-9e5cbfe3e2e2"},"vehicle_type_id":"4","last_reported":1736939252,"current_range_meters":38800,"station_id":"ce4bgs12rcd13ifvqcag","pricing_plan_id":"cebpf4jnsgd1na2vs0mg"},{"bike_id":"cef1f805-e505-4850-808f-da5aac9ab77d","system_id":"levelo_inurba_marseille","lat":43.29003,"lon":5.3561,"is_reserved":false,"is_disabled":false,"rental_uris":{"android":"levelo://app?vid=cef1f805-e505-4850-808f-da5aac9ab77d","ios":"levelo://app?vid=cef1f805-e505-4850-808f-da5aac9ab77d"},"vehicle_type_id":"4","last_reported":1736939252,"current_range_meters":39200,"station_id":"ce4bhb92rcd13ifvqen0","pricing_plan_id":"cebpf4jnsgd1na2vs0mg"},{"bike_id":"e655cfa9-61b9-452e-9d35-ab9bb674cc6c","system_id":"levelo_inurba_marseille","lat":43.28928,"lon":5.36654,"is_reserved":false,"is_disabled":false,"rental_uris":{"android":"levelo://app?vid=e655cfa9-61b9-452e-9d35-ab9bb674cc6c","ios":"levelo://app?vid=e655cfa9-61b9-452e-9d35-ab9bb674cc6c"},"vehicle_type_id":"4","last_reported":1736939252,"current_range_meters":38800,"station_id":"ce4bhap2rcd13ifvqek0","pricing_plan_id":"cebpf4jnsgd1na2vs0mg"},{"bike_id":"02d44c0a-962d-4386-a061-0ad017a5041a","system_id":"levelo_inurba_marseille","lat":43.27562,"lon":5.3844,"is_reserved":false,"is_disabled":false,"rental_uris":{"android":"levelo://app?vid=02d44c0a-962d-4386-a061-0ad017a5041a","ios":"levelo://app?vid=02d44c0a-962d-4386-a061-0ad017a5041a"},"vehicle_type_id":"4","last_reported":1736939252,"current_range_meters":18000,"station_id":"ce4bhh92rcd13ifvqfi0","pricing_plan_id":"cebpf4jnsgd1na2vs0mg"},{"bike_id":"7d92d2f2-3148-4c08-bb98-1b0a4ddccb21","system_id":"levelo_inurba_marseille","lat":43.27812,"lon":5.40716,"is_reserved":false,"is_disabled":false,"rental_uris":{"android":"levelo://app?vid=7d92d2f2-3148-4c08-bb98-1b0a4ddccb21","ios":"levelo://app?vid=7d92d2f2-3148-4c08-bb98-1b0a4ddccb21"},"vehicle_type_id":"4","last_reported":1736939252,"current_range_meters":36000,"station_id":"ce4bhnh2rcd13ifvqgtg","pricing_plan_id":"cebpf4jnsgd1na2vs0mg"},{"bike_id":"e6842a28-eee2-4900-8592-83fcf62857f0","system_id":"levelo_inurba_marseille","lat":43.30266,"lon":5.3776,"is_reserved":false,"is_disabled":false,"rental_uris":{"android":"levelo://app?vid=e6842a28-eee2-4900-8592-83fcf62857f0","ios":"levelo://app?vid=e6842a28-eee2-4900-8592-83fcf62857f0"},"vehicle_type_id":"4","last_reported":1736939252,"current_range_meters":27600,"station_id":"ce4bguh2rcd13ifvqcj0","pricing_plan_id":"cebpf4jnsgd1na2vs0mg"},{"bike_id":"8851bf9b-bd7d-422e-9987-7a5244618c1a","system_id":"levelo_inurba_marseille","lat":43.2827,"lon":5.35077,"is_reserved":false,"is_disabled":false,"rental_uris":{"android":"levelo://app?vid=8851bf9b-bd7d-422e-9987-7a5244618c1a","ios":"levelo://app?vid=8851bf9b-bd7d-422e-9987-7a5244618c1a"},"vehicle_type_id":"4","last_reported":1736939252,"current_range_meters":36400,"station_id":"ce4bhbp2rcd13ifvqerg","pricing_plan_id":"cebpf4jnsgd1na2vs0mg"},{"bike_id":"2e15443c-43fb-4997-b0e8-55e6e515c4a5","system_id":"levelo_inurba_marseille","lat":43.29314,"lon":5.3718,"is_reserved":false,"is_disabled":false,"rental_uris":{"android":"levelo://app?vid=2e15443c-43fb-4997-b0e8-55e6e515c4a5","ios":"levelo://app?vid=2e15443c-43fb-4997-b0e8-55e6e515c4a5"},"vehicle_type_id":"4","last_reported":1736939252,"current_range_meters":23200,"station_id":"ce4bgh92rcd13ifvqb40","pricing_plan_id":"cebpf4jnsgd1na2vs0mg"},{"bike_id":"2d7f3353-743b-41e1-85f2-e32181d4ae48","system_id":"levelo_inurba_marseille","lat":43.31995,"lon":5.38155,"is_reserved":false,"is_disabled":false,"rental_uris":{"android":"levelo://app?vid=2d7f3353-743b-41e1-85f2-e32181d4ae48","ios":"levelo://app?vid=2d7f3353-743b-41e1-85f2-e32181d4ae48"},"vehicle_type_id":"4","last_reported":1736939252,"current_range_meters":38000,"station_id":"ce4bhr12rcd13ifvqhpg","pricing_plan_id":"cebpf4jnsgd1na2vs0mg"},{"bike_id":"511cb4a9-2f4b-4d3e-be2f-819d95791ee6","system_id":"levelo_inurba_marseille","lat":43.27971,"lon":5.41677,"is_reserved":false,"is_disabled":true,"rental_uris":{"android":"levelo://app?vid=511cb4a9-2f4b-4d3e-be2f-819d95791ee6","ios":"levelo://app?vid=511cb4a9-2f4b-4d3e-be2f-819d95791ee6"},"vehicle_type_id":"4","last_reported":1736939252,"current_range_meters":35200,"station_id":"ce4bho12rcd13ifvqh1g","pricing_plan_id":"cebpf4jnsgd1na2vs0mg"},{"bike_id":"10cf3f44-efc7-4ac0-9299-ce9e5eaff490","system_id":"levelo_inurba_marseille","lat":43.30272,"lon":5.37729,"is_reserved":false,"is_disabled":false,"rental_uris":{"android":"levelo://app?vid=10cf3f44-efc7-4ac0-9299-ce9e5eaff490","ios":"levelo://app?vid=10cf3f44-efc7-4ac0-9299-ce9e5eaff490"},"vehicle_type_id":"4","last_reported":1736939252,"current_range_meters":11200,"station_id":"ce4bguh2rcd13ifvqcj0","pricing_plan_id":"cebpf4jnsgd1na2vs0mg"},{"bike_id":"a2416806-79c7-43e5-806b-68ab3111f8b7","system_id":"levelo_inurba_marseille","lat":43.25931,"lon":5.40922,"is_reserved":false,"is_disabled":false,"rental_uris":{"android":"levelo://app?vid=a2416806-79c7-43e5-806b-68ab3111f8b7","ios":"levelo://app?vid=a2416806-79c7-43e5-806b-68ab3111f8b7"},"vehicle_type_id":"4","last_reported":1736939252,"current_range_meters":20400,"station_id":"ce4bhm92rcd13ifvqglg","pricing_plan_id":"cebpf4jnsgd1na2vs0mg"},{"bike_id":"e8791b23-1555-4a02-b085-d2254a7afa84","system_id":"levelo_inurba_marseille","lat":43.27985,"lon":5.40038,"is_reserved":false,"is_disabled":false,"rental_uris":{"android":"levelo://app?vid=e8791b23-1555-4a02-b085-d2254a7afa84","ios":"levelo://app?vid=e8791b23-1555-4a02-b085-d2254a7afa84"},"vehicle_type_id":"4","last_reported":1736939252,"current_range_meters":38400,"station_id":"ce4bho92rcd13ifvqh4g","pricing_plan_id":"cebpf4jnsgd1na2vs0mg"},{"bike_id":"42ad9691-4c6c-4318-adca-49de4591d0db","system_id":"levelo_inurba_marseille","lat":43.30222,"lon":5.37776,"is_reserved":false,"is_disabled":false,"rental_uris":{"android":"levelo://app?vid=42ad9691-4c6c-4318-adca-49de4591d0db","ios":"levelo://app?vid=42ad9691-4c6c-4318-adca-49de4591d0db"},"vehicle_type_id":"4","last_reported":1736939252,"current_range_meters":38800,"station_id":"ce4bguh2rcd13ifvqcj0","pricing_plan_id":"cebpf4jnsgd1na2vs0mg"},{"bike_id":"5b7d1c92-dc02-4f30-9ffe-85ba5225870b","system_id":"levelo_inurba_marseille","lat":43.281523,"lon":5.426399,"is_reserved":false,"is_disabled":false,"rental_uris":{"android":"levelo://app?vid=5b7d1c92-dc02-4f30-9ffe-85ba5225870b","ios":"levelo://app?vid=5b7d1c92-dc02-4f30-9ffe-85ba5225870b"},"vehicle_type_id":"4","last_reported":1736939252,"current_range_meters":36400,"station_id":"ce4bhnh2rcd13ifvqgug","pricing_plan_id":"cebpf4jnsgd1na2vs0mg"},{"bike_id":"b583689d-4b3b-4fec-a4c3-0358dd755494","system_id":"levelo_inurba_marseille","lat":43.26689,"lon":5.38286,"is_reserved":false,"is_disabled":false,"rental_uris":{"android":"levelo://app?vid=b583689d-4b3b-4fec-a4c3-0358dd755494","ios":"levelo://app?vid=b583689d-4b3b-4fec-a4c3-0358dd755494"},"vehicle_type_id":"4","last_reported":1736939252,"current_range_meters":28000,"station_id":"ce4bhg92rcd13ifvqf90","pricing_plan_id":"cebpf4jnsgd1na2vs0mg"},{"bike_id":"bdbd16f5-cde6-4c85-958e-8f9700189ae9","system_id":"levelo_inurba_marseille","lat":43.31371,"lon":5.36694,"is_reserved":false,"is_disabled":false,"rental_uris":{"android":"levelo://app?vid=bdbd16f5-cde6-4c85-958e-8f9700189ae9","ios":"levelo://app?vid=bdbd16f5-cde6-4c85-958e-8f9700189ae9"},"vehicle_type_id":"4","last_reported":1736939252,"current_range_meters":35600,"station_id":"ce4bgr92rcd13ifvqc6g","pricing_plan_id":"cebpf4jnsgd1na2vs0mg"},{"bike_id":"8534aaf4-535f-4db5-8998-0f97ef68ef36","system_id":"levelo_inurba_marseille","lat":43.24399,"lon":5.3707,"is_reserved":false,"is_disabled":false,"rental_uris":{"android":"levelo://app?vid=8534aaf4-535f-4db5-8998-0f97ef68ef36","ios":"levelo://app?vid=8534aaf4-535f-4db5-8998-0f97ef68ef36"},"vehicle_type_id":"4","last_reported":1736939252,"current_range_meters":16000,"station_id":"ce4bhhh2rcd13ifvqfk0","pricing_plan_id":"cebpf4jnsgd1na2vs0mg"},{"bike_id":"b2c33e7b-da8a-4cda-ab12-4bcf5000aca5","system_id":"levelo_inurba_marseille","lat":43.27576,"lon":5.36166,"is_reserved":false,"is_disabled":false,"rental_uris":{"android":"levelo://app?vid=b2c33e7b-da8a-4cda-ab12-4bcf5000aca5","ios":"levelo://app?vid=b2c33e7b-da8a-4cda-ab12-4bcf5000aca5"},"vehicle_type_id":"4","last_reported":1736939252,"current_range_meters":28400,"station_id":"","pricing_plan_id":"cebpf4jnsgd1na2vs0mg"},{"bike_id":"24f4a3c7-d4be-4ffa-8d9a-de7724acc46c","system_id":"levelo_inurba_marseille","lat":43.32093,"lon":5.36763,"is_reserved":false,"is_disabled":false,"rental_uris":{"android":"levelo://app?vid=24f4a3c7-d4be-4ffa-8d9a-de7724acc46c","ios":"levelo://app?vid=24f4a3c7-d4be-4ffa-8d9a-de7724acc46c"},"vehicle_type_id":"4","last_reported":1736939252,"current_range_meters":29600,"station_id":"ce4bhrh2rcd13ifvqhug","pricing_plan_id":"cebpf4jnsgd1na2vs0mg"},{"bike_id":"c9086e9d-943a-487e-8267-29c350ab5982","system_id":"levelo_inurba_marseille","lat":43.28704,"lon":5.39998,"is_reserved":false,"is_disabled":false,"rental_uris":{"android":"levelo://app?vid=c9086e9d-943a-487e-8267-29c350ab5982","ios":"levelo://app?vid=c9086e9d-943a-487e-8267-29c350ab5982"},"vehicle_type_id":"4","last_reported":1736939252,"current_range_meters":33200,"station_id":"ce4bho92rcd13ifvqh3g","pricing_plan_id":"cebpf4jnsgd1na2vs0mg"},{"bike_id":"6972ffb5-b91e-4711-9114-1e0ca2451244","system_id":"levelo_inurba_marseille","lat":43.3053,"lon":5.36725,"is_reserved":false,"is_disabled":false,"rental_uris":{"android":"levelo://app?vid=6972ffb5-b91e-4711-9114-1e0ca2451244","ios":"levelo://app?vid=6972ffb5-b91e-4711-9114-1e0ca2451244"},"vehicle_type_id":"4","last_reported":1736939252,"current_range_meters":22800,"station_id":"ce4bgrp2rcd13ifvqc9g","pricing_plan_id":"cebpf4jnsgd1na2vs0mg"},{"bike_id":"6c02ae22-4e33-4b73-a0d5-7fa499611cc2","system_id":"levelo_inurba_marseille","lat":43.23152,"lon":5.437,"is_reserved":false,"is_disabled":false,"rental_uris":{"android":"levelo://app?vid=6c02ae22-4e33-4b73-a0d5-7fa499611cc2","ios":"levelo://app?vid=6c02ae22-4e33-4b73-a0d5-7fa499611cc2"},"vehicle_type_id":"4","last_reported":1736939252,"current_range_meters":38000,"station_id":"ce4bhmp2rcd13ifvqgog","pricing_plan_id":"cebpf4jnsgd1na2vs0mg"},{"bike_id":"02908220-1c55-4c15-9a97-ca442f0ecb98","system_id":"levelo_inurba_marseille","lat":43.23159,"lon":5.43707,"is_reserved":false,"is_disabled":false,"rental_uris":{"android":"levelo://app?vid=02908220-1c55-4c15-9a97-ca442f0ecb98","ios":"levelo://app?vid=02908220-1c55-4c15-9a97-ca442f0ecb98"},"vehicle_type_id":"4","last_reported":1736939252,"current_range_meters":38800,"station_id":"ce4bhmp2rcd13ifvqgog","pricing_plan_id":"cebpf4jnsgd1na2vs0mg"},{"bike_id":"4d87784b-80bd-47fa-837a-8aabc30327b9","system_id":"levelo_inurba_marseille","lat":43.24654,"lon":5.38167,"is_reserved":false,"is_disabled":false,"rental_uris":{"android":"levelo://app?vid=4d87784b-80bd-47fa-837a-8aabc30327b9","ios":"levelo://app?vid=4d87784b-80bd-47fa-837a-8aabc30327b9"},"vehicle_type_id":"4","last_reported":1736939252,"current_range_meters":38800,"station_id":"ce4bhih2rcd13ifvqfr0","pricing_plan_id":"cebpf4jnsgd1na2vs0mg"},{"bike_id":"1ac66b2f-3713-43a8-bee1-1a7f413f5233","system_id":"levelo_inurba_marseille","lat":43.24166,"lon":5.39742,"is_reserved":false,"is_disabled":false,"rental_uris":{"android":"levelo://app?vid=1ac66b2f-3713-43a8-bee1-1a7f413f5233","ios":"levelo://app?vid=1ac66b2f-3713-43a8-bee1-1a7f413f5233"},"vehicle_type_id":"4","last_reported":1736939252,"current_range_meters":32400,"station_id":"ce4bhn12rcd13ifvqgpg","pricing_plan_id":"cebpf4jnsgd1na2vs0mg"},{"bike_id":"409a2ae4-ecd9-4fd0-8cc7-9e39b5e1e435","system_id":"levelo_inurba_marseille","lat":43.2766,"lon":5.38925,"is_reserved":false,"is_disabled":false,"rental_uris":{"android":"levelo://app?vid=409a2ae4-ecd9-4fd0-8cc7-9e39b5e1e435","ios":"levelo://app?vid=409a2ae4-ecd9-4fd0-8cc7-9e39b5e1e435"},"vehicle_type_id":"4","last_reported":1736939252,"current_range_meters":19600,"station_id":"ce4bhi12rcd13ifvqfo0","pricing_plan_id":"cebpf4jnsgd1na2vs0mg"},{"bike_id":"c15f24fd-270c-49ce-be5d-511315904b57","system_id":"levelo_inurba_marseille","lat":43.29899,"lon":5.43684,"is_reserved":false,"is_disabled":true,"rental_uris":{"android":"levelo://app?vid=c15f24fd-270c-49ce-be5d-511315904b57","ios":"levelo://app?vid=c15f24fd-270c-49ce-be5d-511315904b57"},"vehicle_type_id":"4","last_reported":1736939252,"current_range_meters":0,"station_id":"ce4bhpp2rcd13ifvqhfg","pricing_plan_id":"cebpf4jnsgd1na2vs0mg"},{"bike_id":"41922604-c7b8-4e93-9da5-3903771d7233","system_id":"levelo_inurba_marseille","lat":43.248027,"lon":5.37472,"is_reserved":false,"is_disabled":false,"rental_uris":{"android":"levelo://app?vid=41922604-c7b8-4e93-9da5-3903771d7233","ios":"levelo://app?vid=41922604-c7b8-4e93-9da5-3903771d7233"},"vehicle_type_id":"4","last_reported":1736939252,"current_range_meters":17200,"station_id":"ce4bhgh2rcd13ifvqfb0","pricing_plan_id":"cebpf4jnsgd1na2vs0mg"},{"bike_id":"556aa3e7-3822-450d-bd2e-317b360b4127","system_id":"levelo_inurba_marseille","lat":43.2979,"lon":5.38124,"is_reserved":false,"is_disabled":false,"rental_uris":{"android":"levelo://app?vid=556aa3e7-3822-450d-bd2e-317b360b4127","ios":"levelo://app?vid=556aa3e7-3822-450d-bd2e-317b360b4127"},"vehicle_type_id":"4","last_reported":1736939252,"current_range_meters":8400,"station_id":"ce4bgip2rcd13ifvqbb0","pricing_plan_id":"cebpf4jnsgd1na2vs0mg"},{"bike_id":"7257a8fe-38cd-4601-aa67-4532f538d662","system_id":"levelo_inurba_marseille","lat":43.26213,"lon":5.37442,"is_reserved":false,"is_disabled":false,"rental_uris":{"android":"levelo://app?vid=7257a8fe-38cd-4601-aa67-4532f538d662","ios":"levelo://app?vid=7257a8fe-38cd-4601-aa67-4532f538d662"},"vehicle_type_id":"4","last_reported":1736939252,"current_range_meters":24800,"station_id":"ce4bhgp2rcd13ifvqfc0","pricing_plan_id":"cebpf4jnsgd1na2vs0mg"},{"bike_id":"1a24d361-945b-4e24-8172-7ea80e5b47d0","system_id":"levelo_inurba_marseille","lat":43.33604,"lon":5.41021,"is_reserved":false,"is_disabled":false,"rental_uris":{"android":"levelo://app?vid=1a24d361-945b-4e24-8172-7ea80e5b47d0","ios":"levelo://app?vid=1a24d361-945b-4e24-8172-7ea80e5b47d0"},"vehicle_type_id":"4","last_reported":1736939252,"current_range_meters":30400,"station_id":"ce4bhqh2rcd13ifvqhmg","pricing_plan_id":"cebpf4jnsgd1na2vs0mg"},{"bike_id":"bb804e28-0607-493e-806c-37e58a339016","system_id":"levelo_inurba_marseille","lat":43.2581,"lon":5.39445,"is_reserved":false,"is_disabled":false,"rental_uris":{"android":"levelo://app?vid=bb804e28-0607-493e-806c-37e58a339016","ios":"levelo://app?vid=bb804e28-0607-493e-806c-37e58a339016"},"vehicle_type_id":"4","last_reported":1736939252,"current_range_meters":28000,"station_id":"ce4bhip2rcd13ifvqft0","pricing_plan_id":"cebpf4jnsgd1na2vs0mg"},{"bike_id":"b22d77c3-f37f-47b6-bfd3-17f35050e9db","system_id":"levelo_inurba_marseille","lat":43.276178,"lon":5.361166,"is_reserved":false,"is_disabled":false,"rental_uris":{"android":"levelo://app?vid=b22d77c3-f37f-47b6-bfd3-17f35050e9db","ios":"levelo://app?vid=b22d77c3-f37f-47b6-bfd3-17f35050e9db"},"vehicle_type_id":"4","last_reported":1736939252,"current_range_meters":3200,"station_id":"ce4bgj92rcd13ifvqbe0","pricing_plan_id":"cebpf4jnsgd1na2vs0mg"},{"bike_id":"c744ca31-159b-40e6-a6bf-a78cd1bd93f4","system_id":"levelo_inurba_marseille","lat":43.32548,"lon":5.41423,"is_reserved":false,"is_disabled":false,"rental_uris":{"android":"levelo://app?vid=c744ca31-159b-40e6-a6bf-a78cd1bd93f4","ios":"levelo://app?vid=c744ca31-159b-40e6-a6bf-a78cd1bd93f4"},"vehicle_type_id":"4","last_reported":1736939252,"current_range_meters":32800,"station_id":"ce4bhq12rcd13ifvqhhg","pricing_plan_id":"cebpf4jnsgd1na2vs0mg"},{"bike_id":"723a87a6-c757-4f09-83f9-72939447ff31","system_id":"levelo_inurba_marseille","lat":43.24178,"lon":5.39731,"is_reserved":false,"is_disabled":false,"rental_uris":{"android":"levelo://app?vid=723a87a6-c757-4f09-83f9-72939447ff31","ios":"levelo://app?vid=723a87a6-c757-4f09-83f9-72939447ff31"},"vehicle_type_id":"4","last_reported":1736939252,"current_range_meters":32400,"station_id":"ce4bhn12rcd13ifvqgpg","pricing_plan_id":"cebpf4jnsgd1na2vs0mg"},{"bike_id":"0f2cd407-ad89-405c-9be5-6fa1a6553c6b","system_id":"levelo_inurba_marseille","lat":43.29003,"lon":5.35619,"is_reserved":false,"is_disabled":false,"rental_uris":{"android":"levelo://app?vid=0f2cd407-ad89-405c-9be5-6fa1a6553c6b","ios":"levelo://app?vid=0f2cd407-ad89-405c-9be5-6fa1a6553c6b"},"vehicle_type_id":"4","last_reported":1736939252,"current_range_meters":38400,"station_id":"ce4bhb92rcd13ifvqen0","pricing_plan_id":"cebpf4jnsgd1na2vs0mg"},{"bike_id":"2f394649-0a72-46b5-badf-9698eae2d971","system_id":"levelo_inurba_marseille","lat":43.30561,"lon":5.37295,"is_reserved":false,"is_disabled":false,"rental_uris":{"android":"levelo://app?vid=2f394649-0a72-46b5-badf-9698eae2d971","ios":"levelo://app?vid=2f394649-0a72-46b5-badf-9698eae2d971"},"vehicle_type_id":"4","last_reported":1736939252,"current_range_meters":39200,"station_id":"ce4bgqh2rcd13ifvqc4g","pricing_plan_id":"cebpf4jnsgd1na2vs0mg"},{"bike_id":"17fbe066-9bc9-4967-80bc-cbe70e18d732","system_id":"levelo_inurba_marseille","lat":43.23187,"lon":5.4001,"is_reserved":false,"is_disabled":false,"rental_uris":{"android":"levelo://app?vid=17fbe066-9bc9-4967-80bc-cbe70e18d732","ios":"levelo://app?vid=17fbe066-9bc9-4967-80bc-cbe70e18d732"},"vehicle_type_id":"4","last_reported":1736939252,"current_range_meters":33600,"station_id":"ce4bhn12rcd13ifvqgqg","pricing_plan_id":"cebpf4jnsgd1na2vs0mg"},{"bike_id":"50434e67-9533-4a76-b193-31fac01668f6","system_id":"levelo_inurba_marseille","lat":43.27293,"lon":5.39161,"is_reserved":false,"is_disabled":false,"rental_uris":{"android":"levelo://app?vid=50434e67-9533-4a76-b193-31fac01668f6","ios":"levelo://app?vid=50434e67-9533-4a76-b193-31fac01668f6"},"vehicle_type_id":"4","last_reported":1736939252,"current_range_meters":39200,"station_id":"ce4bhgp2rcd13ifvqfe0","pricing_plan_id":"cebpf4jnsgd1na2vs0mg"},{"bike_id":"8ee1990f-924a-4bd0-a1c5-4a2148732998","system_id":"levelo_inurba_marseille","lat":43.23162,"lon":5.43699,"is_reserved":false,"is_disabled":false,"rental_uris":{"android":"levelo://app?vid=8ee1990f-924a-4bd0-a1c5-4a2148732998","ios":"levelo://app?vid=8ee1990f-924a-4bd0-a1c5-4a2148732998"},"vehicle_type_id":"4","last_reported":1736939252,"current_range_meters":22400,"station_id":"ce4bhmp2rcd13ifvqgog","pricing_plan_id":"cebpf4jnsgd1na2vs0mg"},{"bike_id":"dc49e1db-bead-444a-bbf8-a19de758039b","system_id":"levelo_inurba_marseille","lat":43.3311,"lon":5.38213,"is_reserved":false,"is_disabled":false,"rental_uris":{"android":"levelo://app?vid=dc49e1db-bead-444a-bbf8-a19de758039b","ios":"levelo://app?vid=dc49e1db-bead-444a-bbf8-a19de758039b"},"vehicle_type_id":"4","last_reported":1736939252,"current_range_meters":24400,"station_id":"","pricing_plan_id":"cebpf4jnsgd1na2vs0mg"},{"bike_id":"53fbd4a9-b7ba-4cbd-9368-b31aaad79b93","system_id":"levelo_inurba_marseille","lat":43.30298,"lon":5.37695,"is_reserved":false,"is_disabled":false,"rental_uris":{"android":"levelo://app?vid=53fbd4a9-b7ba-4cbd-9368-b31aaad79b93","ios":"levelo://app?vid=53fbd4a9-b7ba-4cbd-9368-b31aaad79b93"},"vehicle_type_id":"4","last_reported":1736939252,"current_range_meters":36400,"station_id":"ce4bguh2rcd13ifvqcj0","pricing_plan_id":"cebpf4jnsgd1na2vs0mg"},{"bike_id":"7f8416e5-69f0-4f44-8e6f-adf37be7a45f","system_id":"levelo_inurba_marseille","lat":43.28469,"lon":5.3843,"is_reserved":false,"is_disabled":false,"rental_uris":{"android":"levelo://app?vid=7f8416e5-69f0-4f44-8e6f-adf37be7a45f","ios":"levelo://app?vid=7f8416e5-69f0-4f44-8e6f-adf37be7a45f"},"vehicle_type_id":"4","last_reported":1736939252,"current_range_meters":36000,"station_id":"ce4bh512rcd13ifvqe3g","pricing_plan_id":"cebpf4jnsgd1na2vs0mg"},{"bike_id":"f15d55d3-6b0a-4ea3-b664-c2a77586c703","system_id":"levelo_inurba_marseille","lat":43.31232,"lon":5.36865,"is_reserved":false,"is_disabled":false,"rental_uris":{"android":"levelo://app?vid=f15d55d3-6b0a-4ea3-b664-c2a77586c703","ios":"levelo://app?vid=f15d55d3-6b0a-4ea3-b664-c2a77586c703"},"vehicle_type_id":"4","last_reported":1736939252,"current_range_meters":30800,"station_id":"ce4bgl92rcd13ifvqbq0","pricing_plan_id":"cebpf4jnsgd1na2vs0mg"},{"bike_id":"59e39e6e-07d2-4c0d-a96b-2eece172dc89","system_id":"levelo_inurba_marseille","lat":43.26209,"lon":5.37456,"is_reserved":false,"is_disabled":false,"rental_uris":{"android":"levelo://app?vid=59e39e6e-07d2-4c0d-a96b-2eece172dc89","ios":"levelo://app?vid=59e39e6e-07d2-4c0d-a96b-2eece172dc89"},"vehicle_type_id":"4","last_reported":1736939252,"current_range_meters":8800,"station_id":"ce4bhgp2rcd13ifvqfc0","pricing_plan_id":"cebpf4jnsgd1na2vs0mg"},{"bike_id":"84d068aa-4e56-4b4b-adec-2f2d20f5e5ca","system_id":"levelo_inurba_marseille","lat":43.29834,"lon":5.36297,"is_reserved":false,"is_disabled":false,"rental_uris":{"android":"levelo://app?vid=84d068aa-4e56-4b4b-adec-2f2d20f5e5ca","ios":"levelo://app?vid=84d068aa-4e56-4b4b-adec-2f2d20f5e5ca"},"vehicle_type_id":"4","last_reported":1736939252,"current_range_meters":38800,"station_id":"ce4bgpp2rcd13ifvqc3g","pricing_plan_id":"cebpf4jnsgd1na2vs0mg"},{"bike_id":"71ecee77-b8fc-4b04-b1f6-cea15de9e39d","system_id":"levelo_inurba_marseille","lat":43.2512,"lon":5.40316,"is_reserved":false,"is_disabled":false,"rental_uris":{"android":"levelo://app?vid=71ecee77-b8fc-4b04-b1f6-cea15de9e39d","ios":"levelo://app?vid=71ecee77-b8fc-4b04-b1f6-cea15de9e39d"},"vehicle_type_id":"4","last_reported":1736939252,"current_range_meters":18800,"station_id":"ce4bhlh2rcd13ifvqgig","pricing_plan_id":"cebpf4jnsgd1na2vs0mg"},{"bike_id":"e244918c-eee4-486c-8b77-df4ce1861dcd","system_id":"levelo_inurba_marseille","lat":43.27588,"lon":5.39007,"is_reserved":false,"is_disabled":false,"rental_uris":{"android":"levelo://app?vid=e244918c-eee4-486c-8b77-df4ce1861dcd","ios":"levelo://app?vid=e244918c-eee4-486c-8b77-df4ce1861dcd"},"vehicle_type_id":"4","last_reported":1736939252,"current_range_meters":4000,"station_id":"ce4bhi12rcd13ifvqfo0","pricing_plan_id":"cebpf4jnsgd1na2vs0mg"},{"bike_id":"2a4aab5f-ceee-4d73-9083-caf6b8383bd5","system_id":"levelo_inurba_marseille","lat":43.27941,"lon":5.41043,"is_reserved":false,"is_disabled":false,"rental_uris":{"android":"levelo://app?vid=2a4aab5f-ceee-4d73-9083-caf6b8383bd5","ios":"levelo://app?vid=2a4aab5f-ceee-4d73-9083-caf6b8383bd5"},"vehicle_type_id":"4","last_reported":1736939252,"current_range_meters":32800,"station_id":"ce4bhnp2rcd13ifvqh0g","pricing_plan_id":"cebpf4jnsgd1na2vs0mg"},{"bike_id":"a2acbd59-835d-49a5-be65-bf1391599127","system_id":"levelo_inurba_marseille","lat":43.2593,"lon":5.40902,"is_reserved":false,"is_disabled":false,"rental_uris":{"android":"levelo://app?vid=a2acbd59-835d-49a5-be65-bf1391599127","ios":"levelo://app?vid=a2acbd59-835d-49a5-be65-bf1391599127"},"vehicle_type_id":"4","last_reported":1736939252,"current_range_meters":17600,"station_id":"ce4bhm92rcd13ifvqglg","pricing_plan_id":"cebpf4jnsgd1na2vs0mg"},{"bike_id":"c0fd2063-31ae-4171-af17-771dbb4fa212","system_id":"levelo_inurba_marseille","lat":43.22925,"lon":5.35397,"is_reserved":false,"is_disabled":false,"rental_uris":{"android":"levelo://app?vid=c0fd2063-31ae-4171-af17-771dbb4fa212","ios":"levelo://app?vid=c0fd2063-31ae-4171-af17-771dbb4fa212"},"vehicle_type_id":"4","last_reported":1736939252,"current_range_meters":38800,"station_id":"cpo3532slgdg3j2ikp40","pricing_plan_id":"cebpf4jnsgd1na2vs0mg"},{"bike_id":"7b2751da-c371-44e2-98c9-6eeeee6b9d45","system_id":"levelo_inurba_marseille","lat":43.25934,"lon":5.40885,"is_reserved":false,"is_disabled":false,"rental_uris":{"android":"levelo://app?vid=7b2751da-c371-44e2-98c9-6eeeee6b9d45","ios":"levelo://app?vid=7b2751da-c371-44e2-98c9-6eeeee6b9d45"},"vehicle_type_id":"4","last_reported":1736939252,"current_range_meters":32400,"station_id":"ce4bhm92rcd13ifvqglg","pricing_plan_id":"cebpf4jnsgd1na2vs0mg"},{"bike_id":"fd787191-2367-4f95-850c-28fb67d49375","system_id":"levelo_inurba_marseille","lat":43.30191,"lon":5.366259,"is_reserved":false,"is_disabled":false,"rental_uris":{"android":"levelo://app?vid=fd787191-2367-4f95-850c-28fb67d49375","ios":"levelo://app?vid=fd787191-2367-4f95-850c-28fb67d49375"},"vehicle_type_id":"4","last_reported":1736939252,"current_range_meters":35200,"station_id":"ce4bgrh2rcd13ifvqc8g","pricing_plan_id":"cebpf4jnsgd1na2vs0mg"},{"bike_id":"73c49789-f682-4291-b183-cd469bff96fa","system_id":"levelo_inurba_marseille","lat":43.23155,"lon":5.4371,"is_reserved":false,"is_disabled":false,"rental_uris":{"android":"levelo://app?vid=73c49789-f682-4291-b183-cd469bff96fa","ios":"levelo://app?vid=73c49789-f682-4291-b183-cd469bff96fa"},"vehicle_type_id":"4","last_reported":1736939252,"current_range_meters":29600,"station_id":"ce4bhmp2rcd13ifvqgog","pricing_plan_id":"cebpf4jnsgd1na2vs0mg"},{"bike_id":"1ee4cfa5-4bb0-4d23-8a4a-5592b371ea00","system_id":"levelo_inurba_marseille","lat":43.27076,"lon":5.4229,"is_reserved":false,"is_disabled":false,"rental_uris":{"android":"levelo://app?vid=1ee4cfa5-4bb0-4d23-8a4a-5592b371ea00","ios":"levelo://app?vid=1ee4cfa5-4bb0-4d23-8a4a-5592b371ea00"},"vehicle_type_id":"4","last_reported":1736939252,"current_range_meters":24400,"station_id":"ce4bhk92rcd13ifvqgb0","pricing_plan_id":"cebpf4jnsgd1na2vs0mg"},{"bike_id":"1b22370e-68ef-49e7-8d36-f18a88671a32","system_id":"levelo_inurba_marseille","lat":43.31751,"lon":5.39044,"is_reserved":false,"is_disabled":false,"rental_uris":{"android":"levelo://app?vid=1b22370e-68ef-49e7-8d36-f18a88671a32","ios":"levelo://app?vid=1b22370e-68ef-49e7-8d36-f18a88671a32"},"vehicle_type_id":"4","last_reported":1736939252,"current_range_meters":14400,"station_id":"ce4bhqp2rcd13ifvqhng","pricing_plan_id":"cebpf4jnsgd1na2vs0mg"},{"bike_id":"66f4d1a8-bacd-47ee-bc10-fcbe4ea64cb9","system_id":"levelo_inurba_marseille","lat":43.29621,"lon":5.37171,"is_reserved":false,"is_disabled":false,"rental_uris":{"android":"levelo://app?vid=66f4d1a8-bacd-47ee-bc10-fcbe4ea64cb9","ios":"levelo://app?vid=66f4d1a8-bacd-47ee-bc10-fcbe4ea64cb9"},"vehicle_type_id":"4","last_reported":1736939252,"current_range_meters":32400,"station_id":"ce4bgnh2rcd13ifvqc0g","pricing_plan_id":"cebpf4jnsgd1na2vs0mg"},{"bike_id":"4fcc1908-dbb1-4637-a5c7-041abdcb6bdd","system_id":"levelo_inurba_marseille","lat":43.30598,"lon":5.36496,"is_reserved":false,"is_disabled":false,"rental_uris":{"android":"levelo://app?vid=4fcc1908-dbb1-4637-a5c7-041abdcb6bdd","ios":"levelo://app?vid=4fcc1908-dbb1-4637-a5c7-041abdcb6bdd"},"vehicle_type_id":"4","last_reported":1736939252,"current_range_meters":37600,"station_id":"ce4bgs12rcd13ifvqcag","pricing_plan_id":"cebpf4jnsgd1na2vs0mg"},{"bike_id":"8e1700e2-2825-47f3-9373-6fc227095b7d","system_id":"levelo_inurba_marseille","lat":43.241623,"lon":5.363973,"is_reserved":false,"is_disabled":false,"rental_uris":{"android":"levelo://app?vid=8e1700e2-2825-47f3-9373-6fc227095b7d","ios":"levelo://app?vid=8e1700e2-2825-47f3-9373-6fc227095b7d"},"vehicle_type_id":"4","last_reported":1736939252,"current_range_meters":36400,"station_id":"cpo36qri1sfpv3e86is0","pricing_plan_id":"cebpf4jnsgd1na2vs0mg"},{"bike_id":"7730b9cc-1f47-4fe1-9ce3-46d64e130888","system_id":"levelo_inurba_marseille","lat":43.29629,"lon":5.40605,"is_reserved":false,"is_disabled":false,"rental_uris":{"android":"levelo://app?vid=7730b9cc-1f47-4fe1-9ce3-46d64e130888","ios":"levelo://app?vid=7730b9cc-1f47-4fe1-9ce3-46d64e130888"},"vehicle_type_id":"4","last_reported":1736939252,"current_range_meters":39200,"station_id":"ce4bh0h2rcd13ifvqd60","pricing_plan_id":"cebpf4jnsgd1na2vs0mg"},{"bike_id":"f0a5246f-a04e-4913-a007-7b1de0fa333b","system_id":"levelo_inurba_marseille","lat":43.31212,"lon":5.36836,"is_reserved":false,"is_disabled":false,"rental_uris":{"android":"levelo://app?vid=f0a5246f-a04e-4913-a007-7b1de0fa333b","ios":"levelo://app?vid=f0a5246f-a04e-4913-a007-7b1de0fa333b"},"vehicle_type_id":"4","last_reported":1736939252,"current_range_meters":36800,"station_id":"ce4bgl92rcd13ifvqbq0","pricing_plan_id":"cebpf4jnsgd1na2vs0mg"},{"bike_id":"4227d04e-ee50-4c33-b4c5-f2ee5772724b","system_id":"levelo_inurba_marseille","lat":43.24794,"lon":5.37472,"is_reserved":false,"is_disabled":false,"rental_uris":{"android":"levelo://app?vid=4227d04e-ee50-4c33-b4c5-f2ee5772724b","ios":"levelo://app?vid=4227d04e-ee50-4c33-b4c5-f2ee5772724b"},"vehicle_type_id":"4","last_reported":1736939252,"current_range_meters":16800,"station_id":"ce4bhgh2rcd13ifvqfb0","pricing_plan_id":"cebpf4jnsgd1na2vs0mg"},{"bike_id":"4a4d296c-e71a-4d73-8515-0b49a9079d8d","system_id":"levelo_inurba_marseille","lat":43.2319,"lon":5.39973,"is_reserved":false,"is_disabled":false,"rental_uris":{"android":"levelo://app?vid=4a4d296c-e71a-4d73-8515-0b49a9079d8d","ios":"levelo://app?vid=4a4d296c-e71a-4d73-8515-0b49a9079d8d"},"vehicle_type_id":"4","last_reported":1736939252,"current_range_meters":32400,"station_id":"ce4bhn12rcd13ifvqgqg","pricing_plan_id":"cebpf4jnsgd1na2vs0mg"},{"bike_id":"b8e79c63-32ff-4e91-8cf6-f3207702e9aa","system_id":"levelo_inurba_marseille","lat":43.29004,"lon":5.35615,"is_reserved":false,"is_disabled":false,"rental_uris":{"android":"levelo://app?vid=b8e79c63-32ff-4e91-8cf6-f3207702e9aa","ios":"levelo://app?vid=b8e79c63-32ff-4e91-8cf6-f3207702e9aa"},"vehicle_type_id":"4","last_reported":1736939252,"current_range_meters":36800,"station_id":"ce4bhb92rcd13ifvqen0","pricing_plan_id":"cebpf4jnsgd1na2vs0mg"},{"bike_id":"d28c64db-672d-4dc2-9aa8-36d7327fadae","system_id":"levelo_inurba_marseille","lat":43.31409,"lon":5.37413,"is_reserved":false,"is_disabled":false,"rental_uris":{"android":"levelo://app?vid=d28c64db-672d-4dc2-9aa8-36d7327fadae","ios":"levelo://app?vid=d28c64db-672d-4dc2-9aa8-36d7327fadae"},"vehicle_type_id":"4","last_reported":1736939252,"current_range_meters":8000,"station_id":"","pricing_plan_id":"cebpf4jnsgd1na2vs0mg"},{"bike_id":"b438a536-2826-455d-89c2-219747efc24e","system_id":"levelo_inurba_marseille","lat":43.27365,"lon":5.36246,"is_reserved":false,"is_disabled":false,"rental_uris":{"android":"levelo://app?vid=b438a536-2826-455d-89c2-219747efc24e","ios":"levelo://app?vid=b438a536-2826-455d-89c2-219747efc24e"},"vehicle_type_id":"4","last_reported":1736939252,"current_range_meters":39200,"station_id":"ce4bhbh2rcd13ifvqeo0","pricing_plan_id":"cebpf4jnsgd1na2vs0mg"},{"bike_id":"6027163c-6e0b-44a2-bfed-3a477a83b455","system_id":"levelo_inurba_marseille","lat":43.31694,"lon":5.37782,"is_reserved":false,"is_disabled":true,"rental_uris":{"android":"levelo://app?vid=6027163c-6e0b-44a2-bfed-3a477a83b455","ios":"levelo://app?vid=6027163c-6e0b-44a2-bfed-3a477a83b455"},"vehicle_type_id":"4","last_reported":1736939252,"current_range_meters":38800,"station_id":"ce4bgth2rcd13ifvqch0","pricing_plan_id":"cebpf4jnsgd1na2vs0mg"},{"bike_id":"1521735d-8a49-41d0-aa58-2e03da387b7f","system_id":"levelo_inurba_marseille","lat":43.27175,"lon":5.41001,"is_reserved":false,"is_disabled":false,"rental_uris":{"android":"levelo://app?vid=1521735d-8a49-41d0-aa58-2e03da387b7f","ios":"levelo://app?vid=1521735d-8a49-41d0-aa58-2e03da387b7f"},"vehicle_type_id":"4","last_reported":1736939252,"current_range_meters":31200,"station_id":"ce4bhl12rcd13ifvqgf0","pricing_plan_id":"cebpf4jnsgd1na2vs0mg"},{"bike_id":"40a0ecf8-ec48-4450-9b88-89bf9485d500","system_id":"levelo_inurba_marseille","lat":43.27209,"lon":5.3919,"is_reserved":false,"is_disabled":false,"rental_uris":{"android":"levelo://app?vid=40a0ecf8-ec48-4450-9b88-89bf9485d500","ios":"levelo://app?vid=40a0ecf8-ec48-4450-9b88-89bf9485d500"},"vehicle_type_id":"4","last_reported":1736939252,"current_range_meters":16000,"station_id":"ce4bhhp2rcd13ifvqfm0","pricing_plan_id":"cebpf4jnsgd1na2vs0mg"},{"bike_id":"100ca39d-2ece-4755-a16f-6e08b6d46318","system_id":"levelo_inurba_marseille","lat":43.29552,"lon":5.4228,"is_reserved":false,"is_disabled":false,"rental_uris":{"android":"levelo://app?vid=100ca39d-2ece-4755-a16f-6e08b6d46318","ios":"levelo://app?vid=100ca39d-2ece-4755-a16f-6e08b6d46318"},"vehicle_type_id":"4","last_reported":1736939252,"current_range_meters":7200,"station_id":"ce4bhph2rcd13ifvqhdg","pricing_plan_id":"cebpf4jnsgd1na2vs0mg"},{"bike_id":"4725ae05-b600-47b7-ba70-7352c8181ea5","system_id":"levelo_inurba_marseille","lat":43.26787,"lon":5.39428,"is_reserved":false,"is_disabled":false,"rental_uris":{"android":"levelo://app?vid=4725ae05-b600-47b7-ba70-7352c8181ea5","ios":"levelo://app?vid=4725ae05-b600-47b7-ba70-7352c8181ea5"},"vehicle_type_id":"4","last_reported":1736939252,"current_range_meters":38800,"station_id":"ce4bhh12rcd13ifvqfg0","pricing_plan_id":"cebpf4jnsgd1na2vs0mg"},{"bike_id":"f9e853b1-ee09-43f8-96cf-32f80ce2f9a8","system_id":"levelo_inurba_marseille","lat":43.27286,"lon":5.39126,"is_reserved":false,"is_disabled":false,"rental_uris":{"android":"levelo://app?vid=f9e853b1-ee09-43f8-96cf-32f80ce2f9a8","ios":"levelo://app?vid=f9e853b1-ee09-43f8-96cf-32f80ce2f9a8"},"vehicle_type_id":"4","last_reported":1736939252,"current_range_meters":34000,"station_id":"","pricing_plan_id":"cebpf4jnsgd1na2vs0mg"},{"bike_id":"33dbaf2b-0f18-4fa2-bf11-95540a9fbc76","system_id":"levelo_inurba_marseille","lat":43.26038,"lon":5.37545,"is_reserved":false,"is_disabled":false,"rental_uris":{"android":"levelo://app?vid=33dbaf2b-0f18-4fa2-bf11-95540a9fbc76","ios":"levelo://app?vid=33dbaf2b-0f18-4fa2-bf11-95540a9fbc76"},"vehicle_type_id":"4","last_reported":1736939252,"current_range_meters":32400,"station_id":"ce4bhgh2rcd13ifvqfa0","pricing_plan_id":"cebpf4jnsgd1na2vs0mg"},{"bike_id":"d236adec-b1a7-4746-9b04-45b4093196bf","system_id":"levelo_inurba_marseille","lat":43.25114,"lon":5.40322,"is_reserved":false,"is_disabled":false,"rental_uris":{"android":"levelo://app?vid=d236adec-b1a7-4746-9b04-45b4093196bf","ios":"levelo://app?vid=d236adec-b1a7-4746-9b04-45b4093196bf"},"vehicle_type_id":"4","last_reported":1736939252,"current_range_meters":9600,"station_id":"ce4bhlh2rcd13ifvqgig","pricing_plan_id":"cebpf4jnsgd1na2vs0mg"},{"bike_id":"df1f997f-5dd3-4499-9559-a5d2d38cb8f5","system_id":"levelo_inurba_marseille","lat":43.3149,"lon":5.37301,"is_reserved":false,"is_disabled":false,"rental_uris":{"android":"levelo://app?vid=df1f997f-5dd3-4499-9559-a5d2d38cb8f5","ios":"levelo://app?vid=df1f997f-5dd3-4499-9559-a5d2d38cb8f5"},"vehicle_type_id":"4","last_reported":1736939252,"current_range_meters":38800,"station_id":"ce4bgt12rcd13ifvqcd0","pricing_plan_id":"cebpf4jnsgd1na2vs0mg"},{"bike_id":"60d4c354-e223-4871-b993-94eceb4df85b","system_id":"levelo_inurba_marseille","lat":43.26192,"lon":5.37464,"is_reserved":false,"is_disabled":false,"rental_uris":{"android":"levelo://app?vid=60d4c354-e223-4871-b993-94eceb4df85b","ios":"levelo://app?vid=60d4c354-e223-4871-b993-94eceb4df85b"},"vehicle_type_id":"4","last_reported":1736939252,"current_range_meters":30800,"station_id":"ce4bhgp2rcd13ifvqfc0","pricing_plan_id":"cebpf4jnsgd1na2vs0mg"},{"bike_id":"fc79b901-74ef-4a8e-9529-6af86f9e5e3a","system_id":"levelo_inurba_marseille","lat":43.27809,"lon":5.40715,"is_reserved":false,"is_disabled":false,"rental_uris":{"android":"levelo://app?vid=fc79b901-74ef-4a8e-9529-6af86f9e5e3a","ios":"levelo://app?vid=fc79b901-74ef-4a8e-9529-6af86f9e5e3a"},"vehicle_type_id":"4","last_reported":1736939252,"current_range_meters":35600,"station_id":"ce4bhnh2rcd13ifvqgtg","pricing_plan_id":"cebpf4jnsgd1na2vs0mg"},{"bike_id":"e1a64875-4d85-45c2-9f96-c2d45b5331b3","system_id":"levelo_inurba_marseille","lat":43.30133,"lon":5.37409,"is_reserved":false,"is_disabled":false,"rental_uris":{"android":"levelo://app?vid=e1a64875-4d85-45c2-9f96-c2d45b5331b3","ios":"levelo://app?vid=e1a64875-4d85-45c2-9f96-c2d45b5331b3"},"vehicle_type_id":"4","last_reported":1736939252,"current_range_meters":38000,"station_id":"ce4bgs92rcd13ifvqcc0","pricing_plan_id":"cebpf4jnsgd1na2vs0mg"},{"bike_id":"20f47a16-142e-4016-b800-916ad9b55947","system_id":"levelo_inurba_marseille","lat":43.27616,"lon":5.36133,"is_reserved":false,"is_disabled":false,"rental_uris":{"android":"levelo://app?vid=20f47a16-142e-4016-b800-916ad9b55947","ios":"levelo://app?vid=20f47a16-142e-4016-b800-916ad9b55947"},"vehicle_type_id":"4","last_reported":1736939252,"current_range_meters":38800,"station_id":"ce4bgj92rcd13ifvqbe0","pricing_plan_id":"cebpf4jnsgd1na2vs0mg"},{"bike_id":"5b8ab369-8d52-45f4-9fc5-94dd70055afe","system_id":"levelo_inurba_marseille","lat":43.26709,"lon":5.3825,"is_reserved":false,"is_disabled":false,"rental_uris":{"android":"levelo://app?vid=5b8ab369-8d52-45f4-9fc5-94dd70055afe","ios":"levelo://app?vid=5b8ab369-8d52-45f4-9fc5-94dd70055afe"},"vehicle_type_id":"4","last_reported":1736939252,"current_range_meters":30800,"station_id":"ce4bhg92rcd13ifvqf90","pricing_plan_id":"cebpf4jnsgd1na2vs0mg"},{"bike_id":"93091065-dea4-41c8-9ee3-50d99f6dcd39","system_id":"levelo_inurba_marseille","lat":43.29543,"lon":5.39021,"is_reserved":false,"is_disabled":false,"rental_uris":{"android":"levelo://app?vid=93091065-dea4-41c8-9ee3-50d99f6dcd39","ios":"levelo://app?vid=93091065-dea4-41c8-9ee3-50d99f6dcd39"},"vehicle_type_id":"4","last_reported":1736939252,"current_range_meters":38400,"station_id":"ce4bh3p2rcd13ifvqdp0","pricing_plan_id":"cebpf4jnsgd1na2vs0mg"},{"bike_id":"61a827c0-c64e-4471-b7c3-a271fc1ef410","system_id":"levelo_inurba_marseille","lat":43.25869,"lon":5.3991,"is_reserved":false,"is_disabled":false,"rental_uris":{"android":"levelo://app?vid=61a827c0-c64e-4471-b7c3-a271fc1ef410","ios":"levelo://app?vid=61a827c0-c64e-4471-b7c3-a271fc1ef410"},"vehicle_type_id":"4","last_reported":1736939252,"current_range_meters":22400,"station_id":"ce4bhl92rcd13ifvqghg","pricing_plan_id":"cebpf4jnsgd1na2vs0mg"},{"bike_id":"8e42d57b-37ed-4e63-8861-99d810c3b6c8","system_id":"levelo_inurba_marseille","lat":43.30959,"lon":5.39024,"is_reserved":false,"is_disabled":true,"rental_uris":{"android":"levelo://app?vid=8e42d57b-37ed-4e63-8861-99d810c3b6c8","ios":"levelo://app?vid=8e42d57b-37ed-4e63-8861-99d810c3b6c8"},"vehicle_type_id":"4","last_reported":1736939252,"current_range_meters":20400,"station_id":"ce4bgup2rcd13ifvqco0","pricing_plan_id":"cebpf4jnsgd1na2vs0mg"},{"bike_id":"5b63baa0-04cc-48a9-ad9d-ab4b1e8b083f","system_id":"levelo_inurba_marseille","lat":43.28262,"lon":5.35088,"is_reserved":false,"is_disabled":false,"rental_uris":{"android":"levelo://app?vid=5b63baa0-04cc-48a9-ad9d-ab4b1e8b083f","ios":"levelo://app?vid=5b63baa0-04cc-48a9-ad9d-ab4b1e8b083f"},"vehicle_type_id":"4","last_reported":1736939252,"current_range_meters":36800,"station_id":"ce4bhbp2rcd13ifvqerg","pricing_plan_id":"cebpf4jnsgd1na2vs0mg"},