{"last_updated":1747778979,"ttl":60,"version":"2.2","data":{"bikes":[{"bike_id":"1564514d-cc8e-42ef-8372-aa83ad864c8e","system_id":"levelo_inurba_marseille","lat":43.281172,"lon":5.406043,"is_reserved":false,"is_disabled":true,"rental_uris":{"android":"levelo://app?vid=1564514d-cc8e-42ef-8372-aa83ad864c8e","ios":"levelo://app?vid=1564514d-cc8e-42ef-8372-aa83ad864c8e"},"vehicle_type_id":"4","last_reported":1747778979,"current_range_meters":2800,"station_id":"","pricing_plan_id":"cebpf4jnsgd1na2vs0mg"},{"bike_id":"277fcc0a-ec5a-4057-a1c9-6504bece21f7","system_id":"levelo_inurba_marseille","lat":43.28482,"lon":5.38416,"is_reserved":false,"is_disabled":false,"rental_uris":{"android":"levelo://app?vid=277fcc0a-ec5a-4057-a1c9-6504bece21f7","ios":"levelo://app?vid=277fcc0a-ec5a-4057-a1c9-6504bece21f7"},"vehicle_type_id":"4","last_reported":1747778979,"current_range_meters":3600,"station_id":"ce4bh512rcd13ifvqe3g","pricing_plan_id":"cebpf4jnsgd1na2vs0mg"},{"bike_id":"e64e36d1-c3e7-4427-9260-70ac75fa0a1c","system_id":"levelo_inurba_marseille","lat":43.3377,"lon":5.37473,"is_reserved":false,"is_disabled":false,"rental_uris":{"android":"levelo://app?vid=e64e36d1-c3e7-4427-9260-70ac75fa0a1c","ios":"levelo://app?vid=e64e36d1-c3e7-4427-9260-70ac75fa0a1c"},"vehicle_type_id":"4","last_reported":1747778979,"current_range_meters":3600,"station_id":"","pricing_plan_id":"cebpf4jnsgd1na2vs0mg"},{"bike_id":"84c5433a-dbcb-4188-85ee-7650bc58c8e1","system_id":"levelo_inurba_marseille","lat":43.24179,"lon":5.363865,"is_reserved":false,"is_disabled":false,"rental_uris":{"android":"levelo://app?vid=84c5433a-dbcb-4188-85ee-7650bc58c8e1","ios":"levelo://app?vid=84c5433a-dbcb-4188-85ee-7650bc58c8e1"},"vehicle_type_id":"4","last_reported":1747778979,"current_range_meters":3600,"station_id":"cpo36qri1sfpv3e86is0","pricing_plan_id":"cebpf4jnsgd1na2vs0mg"},{"bike_id":"e40cc09c-dcef-4866-8b14-49847c612097","system_id":"levelo_inurba_marseille","lat":43.28035,"lon":5.36947,"is_reserved":false,"is_disabled":false,"rental_uris":{"android":"levelo://app?vid=e40cc09c-dcef-4866-8b14-49847c612097","ios":"levelo://app?vid=e40cc09c-dcef-4866-8b14-49847c612097"},"vehicle_type_id":"4","last_reported":1747778979,"current_range_meters":4000,"station_id":"ce4bha12rcd13ifvqef0","pricing_plan_id":"cebpf4jnsgd1na2vs0mg"},{"bike_id":"20bee342-4a3f-4f34-940d-bb6cf00d52ae","system_id":"levelo_inurba_marseille","lat":43.26687,"lon":5.38532,"is_reserved":false,"is_disabled":false,"rental_uris":{"android":"levelo://app?vid=20bee342-4a3f-4f34-940d-bb6cf00d52ae","ios":"levelo://app?vid=20bee342-4a3f-4f34-940d-bb6cf00d52ae"},"vehicle_type_id":"4","last_reported":1747778979,"current_range_meters":4000,"station_id":"","pricing_plan_id":"cebpf4jnsgd1na2vs0mg"},{"bike_id":"e86fb6eb-96d9-464f-9f10-9eeff6aeb520","system_id":"levelo_inurba_marseille","lat":43.30354,"lon":5.41882,"is_reserved":false,"is_disabled":false,"rental_uris":{"android":"levelo://app?vid=e86fb6eb-96d9-464f-9f10-9eeff6aeb520","ios":"levelo://app?vid=e86fb6eb-96d9-464f-9f10-9eeff6aeb520"},"vehicle_type_id":"4","last_reported":1747778979,"current_range_meters":4400,"station_id":"ce4bhop2rcd13ifvqh7g","pricing_plan_id":"cebpf4jnsgd1na2vs0mg"},{"bike_id":"c3169079-d302-48ad-9ad0-8e27822c8362","system_id":"levelo_inurba_marseille","lat":43.24673,"lon":5.38154,"is_reserved":false,"is_disabled":false,"rental_uris":{"android":"levelo://app?vid=c3169079-d302-48ad-9ad0-8e27822c8362","ios":"levelo://app?vid=c3169079-d302-48ad-9ad0-8e27822c8362"},"vehicle_type_id":"4","last_reported":1747778979,"current_range_meters":4400,"station_id":"ce4bhih2rcd13ifvqfr0","pricing_plan_id":"cebpf4jnsgd1na2vs0mg"},{"bike_id":"f6c6307e-7486-44a2-a186-3bf67c194150","system_id":"levelo_inurba_marseille","lat":43.32346,"lon":5.40624,"is_reserved":false,"is_disabled":true,"rental_uris":{"android":"levelo://app?vid=f6c6307e-7486-44a2-a186-3bf67c194150","ios":"levelo://app?vid=f6c6307e-7486-44a2-a186-3bf67c194150"},"vehicle_type_id":"4","last_reported":1747778979,"current_range_meters":4800,"station_id":"ce4bhq92rcd13ifvqhjg","pricing_plan_id":"cebpf4jnsgd1na2vs0mg"},{"bike_id":"ba59102a-6c47-4600-bcb9-76e5920c2815","system_id":"levelo_inurba_marseille","lat":43.31364,"lon":5.37178,"is_reserved":false,"is_disabled":true,"rental_uris":{"android":"levelo://app?vid=ba59102a-6c47-4600-bcb9-76e5920c2815","ios":"levelo://app?vid=ba59102a-6c47-4600-bcb9-76e5920c2815"},"vehicle_type_id":"4","last_reported":1747778979,"current_range_meters":4800,"station_id":"","pricing_plan_id":"cebpf4jnsgd1na2vs0mg"},{"bike_id":"db5106ab-2115-4bb4-98b8-95a13ecebbda","system_id":"levelo_inurba_marseille","lat":43.25001,"lon":5.38928,"is_reserved":false,"is_disabled":false,"rental_uris":{"android":"levelo://app?vid=db5106ab-2115-4bb4-98b8-95a13ecebbda","ios":"levelo://app?vid=db5106ab-2115-4bb4-98b8-95a13ecebbda"},"vehicle_type_id":"4","last_reported":1747778979,"current_range_meters":4800,"station_id":"ce4bhgp2rcd13ifvqfd0","pricing_plan_id":"cebpf4jnsgd1na2vs0mg"},{"bike_id":"e0520845-3030-4e54-a828-4ccedab5d518","system_id":"levelo_inurba_marseille","lat":43.217498,"lon":5.346014,"is_reserved":false,"is_disabled":false,"rental_uris":{"android":"levelo://app?vid=e0520845-3030-4e54-a828-4ccedab5d518","ios":"levelo://app?vid=e0520845-3030-4e54-a828-4ccedab5d518"},"vehicle_type_id":"4","last_reported":1747778979,"current_range_meters":5600,"station_id":"","pricing_plan_id":"cebpf4jnsgd1na2vs0mg"},{"bike_id":"c33da43f-c493-4fd8-af48-ec46bd34aec5","system_id":"levelo_inurba_marseille","lat":43.29866,"lon":5.39728,"is_reserved":false,"is_disabled":false,"rental_uris":{"android":"levelo://app?vid=c33da43f-c493-4fd8-af48-ec46bd34aec5","ios":"levelo://app?vid=c33da43f-c493-4fd8-af48-ec46bd34aec5"},"vehicle_type_id":"4","last_reported":1747778979,"current_range_meters":5600,"station_id":"ce4bh0h2rcd13ifvqd50","pricing_plan_id":"cebpf4jnsgd1na2vs0mg"},{"bike_id":"43a669de-adcd-42c3-8105-1febeebaa55c","system_id":"levelo_inurba_marseille","lat":43.27918,"lon":5.39592,"is_reserved":false,"is_disabled":false,"rental_uris":{"android":"levelo://app?vid=43a669de-adcd-42c3-8105-1febeebaa55c","ios":"levelo://app?vid=43a669de-adcd-42c3-8105-1febeebaa55c"},"vehicle_type_id":"4","last_reported":1747778979,"current_range_meters":5600,"station_id":"ce4bhf92rcd13ifvqf40","pricing_plan_id":"cebpf4jnsgd1na2vs0mg"},{"bike_id":"0b4c7494-d548-4b9e-aade-e9bca9fb8da0","system_id":"levelo_inurba_marseille","lat":43.25097,"lon":5.40343,"is_reserved":false,"is_disabled":false,"rental_uris":{"android":"levelo://app?vid=0b4c7494-d548-4b9e-aade-e9bca9fb8da0","ios":"levelo://app?vid=0b4c7494-d548-4b9e-aade-e9bca9fb8da0"},"vehicle_type_id":"4","last_reported":1747778979,"current_range_meters":5600,"station_id":"ce4bhlh2rcd13ifvqgig","pricing_plan_id":"cebpf4jnsgd1na2vs0mg"},{"bike_id":"182e2b91-3a4d-4d0a-a4e0-a29fac356d2f","system_id":"levelo_inurba_marseille","lat":43.24388,"lon":5.3706,"is_reserved":false,"is_disabled":false,"rental_uris":{"android":"levelo://app?vid=182e2b91-3a4d-4d0a-a4e0-a29fac356d2f","ios":"levelo://app?vid=182e2b91-3a4d-4d0a-a4e0-a29fac356d2f"},"vehicle_type_id":"4","last_reported":1747778979,"current_range_meters":6000,"station_id":"ce4bhhh2rcd13ifvqfk0","pricing_plan_id":"cebpf4jnsgd1na2vs0mg"},{"bike_id":"4b88fdea-9410-479b-abf3-7d2c52ae8721","system_id":"levelo_inurba_marseille","lat":43.251069,"lon":5.403246,"is_reserved":false,"is_disabled":false,"rental_uris":{"android":"levelo://app?vid=4b88fdea-9410-479b-abf3-7d2c52ae8721","ios":"levelo://app?vid=4b88fdea-9410-479b-abf3-7d2c52ae8721"},"vehicle_type_id":"4","last_reported":1747778979,"current_range_meters":6000,"station_id":"ce4bhlh2rcd13ifvqgig","pricing_plan_id":"cebpf4jnsgd1na2vs0mg"},{"bike_id":"bcbdbd69-7be8-42f8-a855-a4358565de8f","system_id":"levelo_inurba_marseille","lat":43.27721,"lon":5.41399,"is_reserved":false,"is_disabled":false,"rental_uris":{"android":"levelo://app?vid=bcbdbd69-7be8-42f8-a855-a4358565de8f","ios":"levelo://app?vid=bcbdbd69-7be8-42f8-a855-a4358565de8f"},"vehicle_type_id":"4","last_reported":1747778979,"current_range_meters":6000,"station_id":"","pricing_plan_id":"cebpf4jnsgd1na2vs0mg"},{"bike_id":"8290441f-2d5a-415e-acd6-5ecee4e1d193","system_id":"levelo_inurba_marseille","lat":43.24679,"lon":5.38172,"is_reserved":false,"is_disabled":false,"rental_uris":{"android":"levelo://app?vid=8290441f-2d5a-415e-acd6-5ecee4e1d193","ios":"levelo://app?vid=8290441f-2d5a-415e-acd6-5ecee4e1d193"},"vehicle_type_id":"4","last_reported":1747778979,"current_range_meters":6000,"station_id":"ce4bhih2rcd13ifvqfr0","pricing_plan_id":"cebpf4jnsgd1na2vs0mg"},{"bike_id":"d4312924-de74-48f7-8898-5673d6450af5","system_id":"levelo_inurba_marseille","lat":43.3191,"lon":5.43129,"is_reserved":false,"is_disabled":false,"rental_uris":{"android":"levelo://app?vid=d4312924-de74-48f7-8898-5673d6450af5","ios":"levelo://app?vid=d4312924-de74-48f7-8898-5673d6450af5"},"vehicle_type_id":"4","last_reported":1747778979,"current_range_meters":6400,"station_id":"","pricing_plan_id":"cebpf4jnsgd1na2vs0mg"},{"bike_id":"43c03801-dc54-42f6-a1de-277ec4aa4a5b","system_id":"levelo_inurba_marseille","lat":43.23188,"lon":5.39981,"is_reserved":false,"is_disabled":false,"rental_uris":{"android":"levelo://app?vid=43c03801-dc54-42f6-a1de-277ec4aa4a5b","ios":"levelo://app?vid=43c03801-dc54-42f6-a1de-277ec4aa4a5b"},"vehicle_type_id":"4","last_reported":1747778979,"current_range_meters":6400,"station_id":"ce4bhn12rcd13ifvqgqg","pricing_plan_id":"cebpf4jnsgd1na2vs0mg"},{"bike_id":"b5d7af4e-7d5c-464a-99ca-a69ec054d19f","system_id":"levelo_inurba_marseille","lat":43.30827,"lon":5.37941,"is_reserved":false,"is_disabled":false,"rental_uris":{"android":"levelo://app?vid=b5d7af4e-7d5c-464a-99ca-a69ec054d19f","ios":"levelo://app?vid=b5d7af4e-7d5c-464a-99ca-a69ec054d19f"},"vehicle_type_id":"4","last_reported":1747778979,"current_range_meters":6400,"station_id":"","pricing_plan_id":"cebpf4jnsgd1na2vs0mg"},{"bike_id":"1addcad7-d488-4e1c-b76c-777e91802e42","system_id":"levelo_inurba_marseille","lat":43.25115,"lon":5.39515,"is_reserved":false,"is_disabled":false,"rental_uris":{"android":"levelo://app?vid=1addcad7-d488-4e1c-b76c-777e91802e42","ios":"levelo://app?vid=1addcad7-d488-4e1c-b76c-777e91802e42"},"vehicle_type_id":"4","last_reported":1747778979,"current_range_meters":6800,"station_id":"ce4bhm12rcd13ifvqgkg","pricing_plan_id":"cebpf4jnsgd1na2vs0mg"},{"bike_id":"5acda340-4e64-4259-ac6a-4e7f71eef87b","system_id":"levelo_inurba_marseille","lat":43.24669,"lon":5.38141,"is_reserved":false,"is_disabled":false,"rental_uris":{"android":"levelo://app?vid=5acda340-4e64-4259-ac6a-4e7f71eef87b","ios":"levelo://app?vid=5acda340-4e64-4259-ac6a-4e7f71eef87b"},"vehicle_type_id":"4","last_reported":1747778979,"current_range_meters":6800,"station_id":"ce4bhih2rcd13ifvqfr0","pricing_plan_id":"cebpf4jnsgd1na2vs0mg"},{"bike_id":"8f0f531d-6a65-4647-8a6f-baa3d982f42f","system_id":"levelo_inurba_marseille","lat":43.28124,"lon":5.426,"is_reserved":false,"is_disabled":false,"rental_uris":{"android":"levelo://app?vid=8f0f531d-6a65-4647-8a6f-baa3d982f42f","ios":"levelo://app?vid=8f0f531d-6a65-4647-8a6f-baa3d982f42f"},"vehicle_type_id":"4","last_reported":1747778979,"current_range_meters":6800,"station_id":"ce4bhnh2rcd13ifvqgug","pricing_plan_id":"cebpf4jnsgd1na2vs0mg"},{"bike_id":"a86d588e-15d7-4bbc-a49c-a091c128c973","system_id":"levelo_inurba_marseille","lat":43.23194,"lon":5.35553,"is_reserved":false,"is_disabled":false,"rental_uris":{"android":"levelo://app?vid=a86d588e-15d7-4bbc-a49c-a091c128c973","ios":"levelo://app?vid=a86d588e-15d7-4bbc-a49c-a091c128c973"},"vehicle_type_id":"4","last_reported":1747778979,"current_range_meters":6800,"station_id":"ce4bhu92rcd13ifvqi70","pricing_plan_id":"cebpf4jnsgd1na2vs0mg"},{"bike_id":"a5bcf3ab-5daa-4dec-898b-27b2e944e103","system_id":"levelo_inurba_marseille","lat":43.27312,"lon":5.41005,"is_reserved":false,"is_disabled":false,"rental_uris":{"android":"levelo://app?vid=a5bcf3ab-5daa-4dec-898b-27b2e944e103","ios":"levelo://app?vid=a5bcf3ab-5daa-4dec-898b-27b2e944e103"},"vehicle_type_id":"4","last_reported":1747778979,"current_range_meters":6800,"station_id":"","pricing_plan_id":"cebpf4jnsgd1na2vs0mg"},{"bike_id":"a38254f2-ccf1-430a-9d02-b12464ba42d2","system_id":"levelo_inurba_marseille","lat":43.28352,"lon":5.38086,"is_reserved":false,"is_disabled":false,"rental_uris":{"android":"levelo://app?vid=a38254f2-ccf1-430a-9d02-b12464ba42d2","ios":"levelo://app?vid=a38254f2-ccf1-430a-9d02-b12464ba42d2"},"vehicle_type_id":"4","last_reported":1747778979,"current_range_meters":6800,"station_id":"ce4bh412rcd13ifvqdr0","pricing_plan_id":"cebpf4jnsgd1na2vs0mg"},{"bike_id":"cb3c14ba-8cfa-4515-9593-8d523c999148","system_id":"levelo_inurba_marseille","lat":43.2655,"lon":5.37287,"is_reserved":false,"is_disabled":false,"rental_uris":{"android":"levelo://app?vid=cb3c14ba-8cfa-4515-9593-8d523c999148","ios":"levelo://app?vid=cb3c14ba-8cfa-4515-9593-8d523c999148"},"vehicle_type_id":"4","last_reported":1747778979,"current_range_meters":6800,"station_id":"ce4bhg12rcd13ifvqf70","pricing_plan_id":"cebpf4jnsgd1na2vs0mg"},{"bike_id":"87181784-78d5-4e8c-9d87-d7f24a22c1b2","system_id":"levelo_inurba_marseille","lat":43.28483,"lon":5.38573,"is_reserved":false,"is_disabled":false,"rental_uris":{"android":"levelo://app?vid=87181784-78d5-4e8c-9d87-d7f24a22c1b2","ios":"levelo://app?vid=87181784-78d5-4e8c-9d87-d7f24a22c1b2"},"vehicle_type_id":"4","last_reported":1747778979,"current_range_meters":6800,"station_id":"ce4bh8p2rcd13ifvqeb0","pricing_plan_id":"cebpf4jnsgd1na2vs0mg"},{"bike_id":"9d144b18-6a81-4b91-bfba-b18f6949f8aa","system_id":"levelo_inurba_marseille","lat":43.301113,"lon":5.432117,"is_reserved":false,"is_disabled":false,"rental_uris":{"android":"levelo://app?vid=9d144b18-6a81-4b91-bfba-b18f6949f8aa","ios":"levelo://app?vid=9d144b18-6a81-4b91-bfba-b18f6949f8aa"},"vehicle_type_id":"4","last_reported":1747778979,"current_range_meters":6800,"station_id":"","pricing_plan_id":"cebpf4jnsgd1na2vs0mg"},{"bike_id":"8a77c670-a7af-4ac0-9918-4e6c1c91e962","system_id":"levelo_inurba_marseille","lat":43.25085,"lon":5.39488,"is_reserved":false,"is_disabled":false,"rental_uris":{"android":"levelo://app?vid=8a77c670-a7af-4ac0-9918-4e6c1c91e962","ios":"levelo://app?vid=8a77c670-a7af-4ac0-9918-4e6c1c91e962"},"vehicle_type_id":"4","last_reported":1747778979,"current_range_meters":7200,"station_id":"ce4bhm12rcd13ifvqgkg","pricing_plan_id":"cebpf4jnsgd1na2vs0mg"},{"bike_id":"85eaca89-9437-48d0-9bca-a254337b88db","system_id":"levelo_inurba_marseille","lat":43.274521,"lon":5.409659,"is_reserved":false,"is_disabled":false,"rental_uris":{"android":"levelo://app?vid=85eaca89-9437-48d0-9bca-a254337b88db","ios":"levelo://app?vid=85eaca89-9437-48d0-9bca-a254337b88db"},"vehicle_type_id":"4","last_reported":1747778979,"current_range_meters":7200,"station_id":"","pricing_plan_id":"cebpf4jnsgd1na2vs0mg"},{"bike_id":"2691747d-15ef-498c-b5c2-e5efa1517c66","system_id":"levelo_inurba_marseille","lat":43.26053,"lon":5.39401,"is_reserved":false,"is_disabled":false,"rental_uris":{"android":"levelo://app?vid=2691747d-15ef-498c-b5c2-e5efa1517c66","ios":"levelo://app?vid=2691747d-15ef-498c-b5c2-e5efa1517c66"},"vehicle_type_id":"4","last_reported":1747778979,"current_range_meters":7200,"station_id":"ce4bhh92rcd13ifvqfj0","pricing_plan_id":"cebpf4jnsgd1na2vs0mg"},{"bike_id":"31c1ff04-e93d-412a-91a0-7fe960525d6f","system_id":"levelo_inurba_marseille","lat":43.29512,"lon":5.42226,"is_reserved":false,"is_disabled":false,"rental_uris":{"android":"levelo://app?vid=31c1ff04-e93d-412a-91a0-7fe960525d6f","ios":"levelo://app?vid=31c1ff04-e93d-412a-91a0-7fe960525d6f"},"vehicle_type_id":"4","last_reported":1747778979,"current_range_meters":7200,"station_id":"","pricing_plan_id":"cebpf4jnsgd1na2vs0mg"},{"bike_id":"feadd485-e507-4070-a97d-b228f8e95bcb","system_id":"levelo_inurba_marseille","lat":43.295681,"lon":5.422735,"is_reserved":false,"is_disabled":false,"rental_uris":{"android":"levelo://app?vid=feadd485-e507-4070-a97d-b228f8e95bcb","ios":"levelo://app?vid=feadd485-e507-4070-a97d-b228f8e95bcb"},"vehicle_type_id":"4","last_reported":1747778979,"current_range_meters":7200,"station_id":"ce4bhph2rcd13ifvqhdg","pricing_plan_id":"cebpf4jnsgd1na2vs0mg"},{"bike_id":"e5914114-b910-455c-9ec7-1a63991c623f","system_id":"levelo_inurba_marseille","lat":43.25084,"lon":5.39524,"is_reserved":false,"is_disabled":false,"rental_uris":{"android":"levelo://app?vid=e5914114-b910-455c-9ec7-1a63991c623f","ios":"levelo://app?vid=e5914114-b910-455c-9ec7-1a63991c623f"},"vehicle_type_id":"4","last_reported":1747778979,"current_range_meters":8000,"station_id":"ce4bhm12rcd13ifvqgkg","pricing_plan_id":"cebpf4jnsgd1na2vs0mg"},{"bike_id":"a144abe2-95b8-4ba8-baa7-602e919fcf2c","system_id":"levelo_inurba_marseille","lat":43.31363,"lon":5.384888,"is_reserved":false,"is_disabled":false,"rental_uris":{"android":"levelo://app?vid=a144abe2-95b8-4ba8-baa7-602e919fcf2c","ios":"levelo://app?vid=a144abe2-95b8-4ba8-baa7-602e919fcf2c"},"vehicle_type_id":"4","last_reported":1747778979,"current_range_meters":8000,"station_id":"ce4bgt92rcd13ifvqcf0","pricing_plan_id":"cebpf4jnsgd1na2vs0mg"},{"bike_id":"ab1a4504-8ef4-479d-9f6f-c03977ae52cb","system_id":"levelo_inurba_marseille","lat":43.24805,"lon":5.37445,"is_reserved":false,"is_disabled":false,"rental_uris":{"android":"levelo://app?vid=ab1a4504-8ef4-479d-9f6f-c03977ae52cb","ios":"levelo://app?vid=ab1a4504-8ef4-479d-9f6f-c03977ae52cb"},"vehicle_type_id":"4","last_reported":1747778979,"current_range_meters":8000,"station_id":"ce4bhgh2rcd13ifvqfb0","pricing_plan_id":"cebpf4jnsgd1na2vs0mg"},{"bike_id":"25237339-253a-44e5-ab01-1cb4797f99d2","system_id":"levelo_inurba_marseille","lat":43.23154,"lon":5.43687,"is_reserved":false,"is_disabled":false,"rental_uris":{"android":"levelo://app?vid=25237339-253a-44e5-ab01-1cb4797f99d2","ios":"levelo://app?vid=25237339-253a-44e5-ab01-1cb4797f99d2"},"vehicle_type_id":"4","last_reported":1747778979,"current_range_meters":8000,"station_id":"ce4bhmp2rcd13ifvqgog","pricing_plan_id":"cebpf4jnsgd1na2vs0mg"},{"bike_id":"bcc938d8-2314-431f-89b0-e089a0362855","system_id":"levelo_inurba_marseille","lat":43.317,"lon":5.40466,"is_reserved":false,"is_disabled":false,"rental_uris":{"android":"levelo://app?vid=bcc938d8-2314-431f-89b0-e089a0362855","ios":"levelo://app?vid=bcc938d8-2314-431f-89b0-e089a0362855"},"vehicle_type_id":"4","last_reported":1747778979,"current_range_meters":8000,"station_id":"ce4bh012rcd13ifvqd00","pricing_plan_id":"cebpf4jnsgd1na2vs0mg"},{"bike_id":"4ab9b3ed-a9ed-4877-9a5d-facdce5179e1","system_id":"levelo_inurba_marseille","lat":43.31336,"lon":5.39711,"is_reserved":false,"is_disabled":false,"rental_uris":{"android":"levelo://app?vid=4ab9b3ed-a9ed-4877-9a5d-facdce5179e1","ios":"levelo://app?vid=4ab9b3ed-a9ed-4877-9a5d-facdce5179e1"},"vehicle_type_id":"4","last_reported":1747778979,"current_range_meters":8400,"station_id":"ce4bgvp2rcd13ifvqcu0","pricing_plan_id":"cebpf4jnsgd1na2vs0mg"},{"bike_id":"31c35cea-2d82-464a-b501-f1cf8878e220","system_id":"levelo_inurba_marseille","lat":43.29877,"lon":5.39735,"is_reserved":false,"is_disabled":false,"rental_uris":{"android":"levelo://app?vid=31c35cea-2d82-464a-b501-f1cf8878e220","ios":"levelo://app?vid=31c35cea-2d82-464a-b501-f1cf8878e220"},"vehicle_type_id":"4","last_reported":1747778979,"current_range_meters":8400,"station_id":"ce4bh0h2rcd13ifvqd50","pricing_plan_id":"cebpf4jnsgd1na2vs0mg"},{"bike_id":"cedb5090-53fc-4a1c-bcbc-bc6faf25b7a5","system_id":"levelo_inurba_marseille","lat":43.28576,"lon":5.39502,"is_reserved":false,"is_disabled":false,"rental_uris":{"android":"levelo://app?vid=cedb5090-53fc-4a1c-bcbc-bc6faf25b7a5","ios":"levelo://app?vid=cedb5090-53fc-4a1c-bcbc-bc6faf25b7a5"},"vehicle_type_id":"4","last_reported":1747778979,"current_range_meters":8400,"station_id":"ce4bh292rcd13ifvqdg0","pricing_plan_id":"cebpf4jnsgd1na2vs0mg"},{"bike_id":"bffbaf88-357a-4e87-a68c-a9a27a6e01e6","system_id":"levelo_inurba_marseille","lat":43.26232,"lon":5.42137,"is_reserved":false,"is_disabled":false,"rental_uris":{"android":"levelo://app?vid=bffbaf88-357a-4e87-a68c-a9a27a6e01e6","ios":"levelo://app?vid=bffbaf88-357a-4e87-a68c-a9a27a6e01e6"},"vehicle_type_id":"4","last_reported":1747778979,"current_range_meters":8400,"station_id":"","pricing_plan_id":"cebpf4jnsgd1na2vs0mg"},{"bike_id":"aad273d5-40f2-4aaa-a1df-09503b789c5f","system_id":"levelo_inurba_marseille","lat":43.303825,"lon":5.424845,"is_reserved":false,"is_disabled":false,"rental_uris":{"android":"levelo://app?vid=aad273d5-40f2-4aaa-a1df-09503b789c5f","ios":"levelo://app?vid=aad273d5-40f2-4aaa-a1df-09503b789c5f"},"vehicle_type_id":"4","last_reported":1747778979,"current_range_meters":8400,"station_id":"ce4bhoh2rcd13ifvqh6g","pricing_plan_id":"cebpf4jnsgd1na2vs0mg"},{"bike_id":"223d3c4f-46bc-46e7-90c4-a04705934e99","system_id":"levelo_inurba_marseille","lat":43.3108,"lon":5.42431,"is_reserved":false,"is_disabled":false,"rental_uris":{"android":"levelo://app?vid=223d3c4f-46bc-46e7-90c4-a04705934e99","ios":"levelo://app?vid=223d3c4f-46bc-46e7-90c4-a04705934e99"},"vehicle_type_id":"4","last_reported":1747778979,"current_range_meters":8400,"station_id":"ce4bhp92rcd13ifvqhag","pricing_plan_id":"cebpf4jnsgd1na2vs0mg"},{"bike_id":"41367722-a8d2-4483-a791-1e77bfe76323","system_id":"levelo_inurba_marseille","lat":43.30535,"lon":5.38426,"is_reserved":false,"is_disabled":true,"rental_uris":{"android":"levelo://app?vid=41367722-a8d2-4483-a791-1e77bfe76323","ios":"levelo://app?vid=41367722-a8d2-4483-a791-1e77bfe76323"},"vehicle_type_id":"4","last_reported":1747778979,"current_range_meters":8400,"station_id":"ce4bgg92rcd13ifvqb30","pricing_plan_id":"cebpf4jnsgd1na2vs0mg"},{"bike_id":"b58a0df7-e899-4f07-ad98-84f595c2580c","system_id":"levelo_inurba_marseille","lat":43.288404,"lon":5.39332,"is_reserved":false,"is_disabled":false,"rental_uris":{"android":"levelo://app?vid=b58a0df7-e899-4f07-ad98-84f595c2580c","ios":"levelo://app?vid=b58a0df7-e899-4f07-ad98-84f595c2580c"},"vehicle_type_id":"4","last_reported":1747778979,"current_range_meters":8400,"station_id":"ce4bh2p2rcd13ifvqdi0","pricing_plan_id":"cebpf4jnsgd1na2vs0mg"},{"bike_id":"e8d600eb-6bf3-4a15-ad22-ab92bdf24958","system_id":"levelo_inurba_marseille","lat":43.28938,"lon":5.36626,"is_reserved":false,"is_disabled":false,"rental_uris":{"android":"levelo://app?vid=e8d600eb-6bf3-4a15-ad22-ab92bdf24958","ios":"levelo://app?vid=e8d600eb-6bf3-4a15-ad22-ab92bdf24958"},"vehicle_type_id":"4","last_reported":1747778979,"current_range_meters":8400,"station_id":"ce4bhap2rcd13ifvqek0","pricing_plan_id":"cebpf4jnsgd1na2vs0mg"},{"bike_id":"ed74e204-cfb4-403a-bbab-1d7d7b05871b","system_id":"levelo_inurba_marseille","lat":43.286623,"lon":5.386658,"is_reserved":false,"is_disabled":false,"rental_uris":{"android":"levelo://app?vid=ed74e204-cfb4-403a-bbab-1d7d7b05871b","ios":"levelo://app?vid=ed74e204-cfb4-403a-bbab-1d7d7b05871b"},"vehicle_type_id":"4","last_reported":1747778979,"current_range_meters":8800,"station_id":"","pricing_plan_id":"cebpf4jnsgd1na2vs0mg"},{"bike_id":"48fde943-5a80-4e33-8514-c2528d9dab64","system_id":"levelo_inurba_marseille","lat":43.328991,"lon":5.433484,"is_reserved":false,"is_disabled":false,"rental_uris":{"android":"levelo://app?vid=48fde943-5a80-4e33-8514-c2528d9dab64","ios":"levelo://app?vid=48fde943-5a80-4e33-8514-c2528d9dab64"},"vehicle_type_id":"4","last_reported":1747778979,"current_range_meters":8800,"station_id":"","pricing_plan_id":"cebpf4jnsgd1na2vs0mg"},{"bike_id":"7f825377-8337-456e-ad6d-576acbcc68af","system_id":"levelo_inurba_marseille","lat":43.309423,"lon":5.40134,"is_reserved":false,"is_disabled":false,"rental_uris":{"android":"levelo://app?vid=7f825377-8337-456e-ad6d-576acbcc68af","ios":"levelo://app?vid=7f825377-8337-456e-ad6d-576acbcc68af"},"vehicle_type_id":"4","last_reported":1747778979,"current_range_meters":8800,"station_id":"ce4bgvp2rcd13ifvqct0","pricing_plan_id":"cebpf4jnsgd1na2vs0mg"},{"bike_id":"287d852c-af91-464e-844b-5477afe0337f","system_id":"levelo_inurba_marseille","lat":43.27834,"lon":5.40707,"is_reserved":false,"is_disabled":false,"rental_uris":{"android":"levelo://app?vid=287d852c-af91-464e-844b-5477afe0337f","ios":"levelo://app?vid=287d852c-af91-464e-844b-5477afe0337f"},"vehicle_type_id":"4","last_reported":1747778979,"current_range_meters":8800,"station_id":"ce4bhnh2rcd13ifvqgtg","pricing_plan_id":"cebpf4jnsgd1na2vs0mg"},{"bike_id":"ac4a8b8f-1e98-41d9-9945-439cee7e4613","system_id":"levelo_inurba_marseille","lat":43.28708,"lon":5.37379,"is_reserved":false,"is_disabled":false,"rental_uris":{"android":"levelo://app?vid=ac4a8b8f-1e98-41d9-9945-439cee7e4613","ios":"levelo://app?vid=ac4a8b8f-1e98-41d9-9945-439cee7e4613"},"vehicle_type_id":"4","last_reported":1747778979,"current_range_meters":8800,"station_id":"ce4bh3p2rcd13ifvqdq0","pricing_plan_id":"cebpf4jnsgd1na2vs0mg"},{"bike_id":"55c042dc-2a9b-4d32-a855-839789604d3a","system_id":"levelo_inurba_marseille","lat":43.29069,"lon":5.37172,"is_reserved":false,"is_disabled":false,"rental_uris":{"android":"levelo://app?vid=55c042dc-2a9b-4d32-a855-839789604d3a","ios":"levelo://app?vid=55c042dc-2a9b-4d32-a855-839789604d3a"},"vehicle_type_id":"4","last_reported":1747778979,"current_range_meters":8800,"station_id":"ce4bh5p2rcd13ifvqe4g","pricing_plan_id":"cebpf4jnsgd1na2vs0mg"},{"bike_id":"4a2a03d9-786b-4ec4-82be-136644993df6","system_id":"levelo_inurba_marseille","lat":43.28713,"lon":5.39968,"is_reserved":false,"is_disabled":false,"rental_uris":{"android":"levelo://app?vid=4a2a03d9-786b-4ec4-82be-136644993df6","ios":"levelo://app?vid=4a2a03d9-786b-4ec4-82be-136644993df6"},"vehicle_type_id":"4","last_reported":1747778979,"current_range_meters":9200,"station_id":"ce4bho92rcd13ifvqh3g","pricing_plan_id":"cebpf4jnsgd1na2vs0mg"},{"bike_id":"572c97ee-0da0-4be5-a2ce-28eff65f3ef1","system_id":"levelo_inurba_marseille","lat":43.337531,"lon":5.374636,"is_reserved":false,"is_disabled":false,"rental_uris":{"android":"levelo://app?vid=572c97ee-0da0-4be5-a2ce-28eff65f3ef1","ios":"levelo://app?vid=572c97ee-0da0-4be5-a2ce-28eff65f3ef1"},"vehicle_type_id":"4","last_reported":1747778979,"current_range_meters":9200,"station_id":"","pricing_plan_id":"cebpf4jnsgd1na2vs0mg"},{"bike_id":"e9727e39-b519-4508-9b82-c1a6359db80f","system_id":"levelo_inurba_marseille","lat":43.28909,"lon":5.37282,"is_reserved":false,"is_disabled":false,"rental_uris":{"android":"levelo://app?vid=e9727e39-b519-4508-9b82-c1a6359db80f","ios":"levelo://app?vid=e9727e39-b519-4508-9b82-c1a6359db80f"},"vehicle_type_id":"4","last_reported":1747778979,"current_range_meters":9200,"station_id":"","pricing_plan_id":"cebpf4jnsgd1na2vs0mg"},{"bike_id":"efa3d3ee-6ab6-4771-aa3d-1ec2742cd864","system_id":"levelo_inurba_marseille","lat":43.27822,"lon":5.40713,"is_reserved":false,"is_disabled":false,"rental_uris":{"android":"levelo://app?vid=efa3d3ee-6ab6-4771-aa3d-1ec2742cd864","ios":"levelo://app?vid=efa3d3ee-6ab6-4771-aa3d-1ec2742cd864"},"vehicle_type_id":"4","last_reported":1747778979,"current_range_meters":9600,"station_id":"ce4bhnh2rcd13ifvqgtg","pricing_plan_id":"cebpf4jnsgd1na2vs0mg"},{"bike_id":"e8162579-a5ad-485f-ad83-fec8a2ebe7e1","system_id":"levelo_inurba_marseille","lat":43.26826,"lon":5.39099,"is_reserved":false,"is_disabled":false,"rental_uris":{"android":"levelo://app?vid=e8162579-a5ad-485f-ad83-fec8a2ebe7e1","ios":"levelo://app?vid=e8162579-a5ad-485f-ad83-fec8a2ebe7e1"},"vehicle_type_id":"4","last_reported":1747778979,"current_range_meters":9600,"station_id":"","pricing_plan_id":"cebpf4jnsgd1na2vs0mg"},{"bike_id":"8c6e391d-6de7-4d45-b5f7-5ee9efc08a5a","system_id":"levelo_inurba_marseille","lat":43.314152,"lon":5.396688,"is_reserved":false,"is_disabled":false,"rental_uris":{"android":"levelo://app?vid=8c6e391d-6de7-4d45-b5f7-5ee9efc08a5a","ios":"levelo://app?vid=8c6e391d-6de7-4d45-b5f7-5ee9efc08a5a"},"vehicle_type_id":"4","last_reported":1747778979,"current_range_meters":9600,"station_id":"","pricing_plan_id":"cebpf4jnsgd1na2vs0mg"},{"bike_id":"8515e518-e6ae-4d30-823e-a81239625260","system_id":"levelo_inurba_marseille","lat":43.29689,"lon":5.36165,"is_reserved":false,"is_disabled":false,"rental_uris":{"android":"levelo://app?vid=8515e518-e6ae-4d30-823e-a81239625260","ios":"levelo://app?vid=8515e518-e6ae-4d30-823e-a81239625260"},"vehicle_type_id":"4","last_reported":1747778979,"current_range_meters":9600,"station_id":"","pricing_plan_id":"cebpf4jnsgd1na2vs0mg"},{"bike_id":"f579d7a6-5439-4e25-b6cc-db3661ce94f3","system_id":"levelo_inurba_marseille","lat":43.27655,"lon":5.389275,"is_reserved":false,"is_disabled":true,"rental_uris":{"android":"levelo://app?vid=f579d7a6-5439-4e25-b6cc-db3661ce94f3","ios":"levelo://app?vid=f579d7a6-5439-4e25-b6cc-db3661ce94f3"},"vehicle_type_id":"4","last_reported":1747778979,"current_range_meters":9600,"station_id":"ce4bhi12rcd13ifvqfo0","pricing_plan_id":"cebpf4jnsgd1na2vs0mg"},{"bike_id":"fe157d1c-2a9d-4107-a0c0-98e32db76177","system_id":"levelo_inurba_marseille","lat":43.309466,"lon":5.390423,"is_reserved":false,"is_disabled":true,"rental_uris":{"android":"levelo://app?vid=fe157d1c-2a9d-4107-a0c0-98e32db76177","ios":"levelo://app?vid=fe157d1c-2a9d-4107-a0c0-98e32db76177"},"vehicle_type_id":"4","last_reported":1747778979,"current_range_meters":9600,"station_id":"ce4bgup2rcd13ifvqco0","pricing_plan_id":"cebpf4jnsgd1na2vs0mg"},{"bike_id":"7c23fe65-fa85-4c48-9c23-31df76d24451","system_id":"levelo_inurba_marseille","lat":43.270563,"lon":5.402634,"is_reserved":false,"is_disabled":true,"rental_uris":{"android":"levelo://app?vid=7c23fe65-fa85-4c48-9c23-31df76d24451","ios":"levelo://app?vid=7c23fe65-fa85-4c48-9c23-31df76d24451"},"vehicle_type_id":"4","last_reported":1747778979,"current_range_meters":9600,"station_id":"ce4bhk92rcd13ifvqgc0","pricing_plan_id":"cebpf4jnsgd1na2vs0mg"},{"bike_id":"da78235f-8ade-4fc1-9c9a-538cbc7ecf7e","system_id":"levelo_inurba_marseille","lat":43.254967,"lon":5.376457,"is_reserved":false,"is_disabled":false,"rental_uris":{"android":"levelo://app?vid=da78235f-8ade-4fc1-9c9a-538cbc7ecf7e","ios":"levelo://app?vid=da78235f-8ade-4fc1-9c9a-538cbc7ecf7e"},"vehicle_type_id":"4","last_reported":1747778979,"current_range_meters":9600,"station_id":"ce4bhh12rcd13ifvqff0","pricing_plan_id":"cebpf4jnsgd1na2vs0mg"},{"bike_id":"03d651c2-0340-4ad3-aea1-72c57cc6da8f","system_id":"levelo_inurba_marseille","lat":43.27933,"lon":5.41039,"is_reserved":false,"is_disabled":false,"rental_uris":{"android":"levelo://app?vid=03d651c2-0340-4ad3-aea1-72c57cc6da8f","ios":"levelo://app?vid=03d651c2-0340-4ad3-aea1-72c57cc6da8f"},"vehicle_type_id":"4","last_reported":1747778979,"current_range_meters":9600,"station_id":"ce4bhnp2rcd13ifvqh0g","pricing_plan_id":"cebpf4jnsgd1na2vs0mg"},{"bike_id":"283403a0-596c-4a94-85e1-66d88d547369","system_id":"levelo_inurba_marseille","lat":43.29267,"lon":5.40936,"is_reserved":false,"is_disabled":false,"rental_uris":{"android":"levelo://app?vid=283403a0-596c-4a94-85e1-66d88d547369","ios":"levelo://app?vid=283403a0-596c-4a94-85e1-66d88d547369"},"vehicle_type_id":"4","last_reported":1747778979,"current_range_meters":10000,"station_id":"ce4bh192rcd13ifvqdc0","pricing_plan_id":"cebpf4jnsgd1na2vs0mg"},{"bike_id":"a3cf62f0-cc17-430d-ab91-701b469782f4","system_id":"levelo_inurba_marseille","lat":43.292672,"lon":5.401143,"is_reserved":false,"is_disabled":true,"rental_uris":{"android":"levelo://app?vid=a3cf62f0-cc17-430d-ab91-701b469782f4","ios":"levelo://app?vid=a3cf62f0-cc17-430d-ab91-701b469782f4"},"vehicle_type_id":"4","last_reported":1747778979,"current_range_meters":10000,"station_id":"ce4bh312rcd13ifvqdk0","pricing_plan_id":"cebpf4jnsgd1na2vs0mg"},{"bike_id":"71e146ad-5169-4dc5-a288-c7c746aad618","system_id":"levelo_inurba_marseille","lat":43.23203,"lon":5.39985,"is_reserved":false,"is_disabled":false,"rental_uris":{"android":"levelo://app?vid=71e146ad-5169-4dc5-a288-c7c746aad618","ios":"levelo://app?vid=71e146ad-5169-4dc5-a288-c7c746aad618"},"vehicle_type_id":"4","last_reported":1747778979,"current_range_meters":10000,"station_id":"ce4bhn12rcd13ifvqgqg","pricing_plan_id":"cebpf4jnsgd1na2vs0mg"},{"bike_id":"a16924b0-85a3-4203-b573-d79ce814304d","system_id":"levelo_inurba_marseille","lat":43.28334,"lon":5.38096,"is_reserved":false,"is_disabled":false,"rental_uris":{"android":"levelo://app?vid=a16924b0-85a3-4203-b573-d79ce814304d","ios":"levelo://app?vid=a16924b0-85a3-4203-b573-d79ce814304d"},"vehicle_type_id":"4","last_reported":1747778979,"current_range_meters":10000,"station_id":"ce4bh412rcd13ifvqdr0","pricing_plan_id":"cebpf4jnsgd1na2vs0mg"},{"bike_id":"3552fbf2-b43a-446f-93f5-d695fc251b73","system_id":"levelo_inurba_marseille","lat":43.25149,"lon":5.37557,"is_reserved":false,"is_disabled":false,"rental_uris":{"android":"levelo://app?vid=3552fbf2-b43a-446f-93f5-d695fc251b73","ios":"levelo://app?vid=3552fbf2-b43a-446f-93f5-d695fc251b73"},"vehicle_type_id":"4","last_reported":1747778979,"current_range_meters":10000,"station_id":"","pricing_plan_id":"cebpf4jnsgd1na2vs0mg"},{"bike_id":"a0aabdb9-5fa2-40e6-8b72-83f513b3ace8","system_id":"levelo_inurba_marseille","lat":43.23201,"lon":5.35548,"is_reserved":false,"is_disabled":false,"rental_uris":{"android":"levelo://app?vid=a0aabdb9-5fa2-40e6-8b72-83f513b3ace8","ios":"levelo://app?vid=a0aabdb9-5fa2-40e6-8b72-83f513b3ace8"},"vehicle_type_id":"4","last_reported":1747778979,"current_range_meters":10000,"station_id":"ce4bhu92rcd13ifvqi70","pricing_plan_id":"cebpf4jnsgd1na2vs0mg"},{"bike_id":"af06e515-da7f-49f3-a2f5-a078a63839d3","system_id":"levelo_inurba_marseille","lat":43.24659,"lon":5.38145,"is_reserved":false,"is_disabled":false,"rental_uris":{"android":"levelo://app?vid=af06e515-da7f-49f3-a2f5-a078a63839d3","ios":"levelo://app?vid=af06e515-da7f-49f3-a2f5-a078a63839d3"},"vehicle_type_id":"4","last_reported":1747778979,"current_range_meters":10000,"station_id":"ce4bhih2rcd13ifvqfr0","pricing_plan_id":"cebpf4jnsgd1na2vs0mg"},{"bike_id":"99af6b54-f624-460f-b60d-c893dd375f78","system_id":"levelo_inurba_marseille","lat":43.24664,"lon":5.38163,"is_reserved":false,"is_disabled":false,"rental_uris":{"android":"levelo://app?vid=99af6b54-f624-460f-b60d-c893dd375f78","ios":"levelo://app?vid=99af6b54-f624-460f-b60d-c893dd375f78"},"vehicle_type_id":"4","last_reported":1747778979,"current_range_meters":10000,"station_id":"ce4bhih2rcd13ifvqfr0","pricing_plan_id":"cebpf4jnsgd1na2vs0mg"},{"bike_id":"3f3c712c-4fe8-48cb-8cf8-591970e1a218","system_id":"levelo_inurba_marseille","lat":43.285951,"lon":5.370694,"is_reserved":false,"is_disabled":false,"rental_uris":{"android":"levelo://app?vid=3f3c712c-4fe8-48cb-8cf8-591970e1a218","ios":"levelo://app?vid=3f3c712c-4fe8-48cb-8cf8-591970e1a218"},"vehicle_type_id":"4","last_reported":1747778979,"current_range_meters":10000,"station_id":"ce4bht12rcd13ifvqi60","pricing_plan_id":"cebpf4jnsgd1na2vs0mg"},{"bike_id":"c1cca140-5a78-4fe6-bb83-0350a0a9afcb","system_id":"levelo_inurba_marseille","lat":43.30605,"lon":5.39349,"is_reserved":false,"is_disabled":false,"rental_uris":{"android":"levelo://app?vid=c1cca140-5a78-4fe6-bb83-0350a0a9afcb","ios":"levelo://app?vid=c1cca140-5a78-4fe6-bb83-0350a0a9afcb"},"vehicle_type_id":"4","last_reported":1747778979,"current_range_meters":10000,"station_id":"ce4bh0p2rcd13ifvqd80","pricing_plan_id":"cebpf4jnsgd1na2vs0mg"},{"bike_id":"49f05bcc-fd58-450f-908f-51a1dca2ea65","system_id":"levelo_inurba_marseille","lat":43.25078,"lon":5.39522,"is_reserved":false,"is_disabled":false,"rental_uris":{"android":"levelo://app?vid=49f05bcc-fd58-450f-908f-51a1dca2ea65","ios":"levelo://app?vid=49f05bcc-fd58-450f-908f-51a1dca2ea65"},"vehicle_type_id":"4","last_reported":1747778979,"current_range_meters":10000,"station_id":"ce4bhm12rcd13ifvqgkg","pricing_plan_id":"cebpf4jnsgd1na2vs0mg"},{"bike_id":"c143f3cf-b682-4338-8031-a534534edd1f","system_id":"levelo_inurba_marseille","lat":43.29281,"lon":5.40122,"is_reserved":false,"is_disabled":false,"rental_uris":{"android":"levelo://app?vid=c143f3cf-b682-4338-8031-a534534edd1f","ios":"levelo://app?vid=c143f3cf-b682-4338-8031-a534534edd1f"},"vehicle_type_id":"4","last_reported":1747778979,"current_range_meters":10800,"station_id":"ce4bh312rcd13ifvqdk0","pricing_plan_id":"cebpf4jnsgd1na2vs0mg"},{"bike_id":"48f27f29-5850-4f4f-b193-450032ac8cf8","system_id":"levelo_inurba_marseille","lat":43.26807,"lon":5.40265,"is_reserved":false,"is_disabled":false,"rental_uris":{"android":"levelo://app?vid=48f27f29-5850-4f4f-b193-450032ac8cf8","ios":"levelo://app?vid=48f27f29-5850-4f4f-b193-450032ac8cf8"},"vehicle_type_id":"4","last_reported":1747778979,"current_range_meters":10800,"station_id":"ce501612rcd8frsf0b60","pricing_plan_id":"cebpf4jnsgd1na2vs0mg"},{"bike_id":"1802cea5-8738-4946-9589-58e1c7c45ded","system_id":"levelo_inurba_marseille","lat":43.31174,"lon":5.38713,"is_reserved":false,"is_disabled":false,"rental_uris":{"android":"levelo://app?vid=1802cea5-8738-4946-9589-58e1c7c45ded","ios":"levelo://app?vid=1802cea5-8738-4946-9589-58e1c7c45ded"},"vehicle_type_id":"4","last_reported":1747778979,"current_range_meters":10800,"station_id":"ce4bgv12rcd13ifvqcp0","pricing_plan_id":"cebpf4jnsgd1na2vs0mg"},{"bike_id":"0c19fbeb-42ad-4f5a-a5a6-b82fca91ac12","system_id":"levelo_inurba_marseille","lat":43.28046,"lon":5.36917,"is_reserved":false,"is_disabled":true,"rental_uris":{"android":"levelo://app?vid=0c19fbeb-42ad-4f5a-a5a6-b82fca91ac12","ios":"levelo://app?vid=0c19fbeb-42ad-4f5a-a5a6-b82fca91ac12"},"vehicle_type_id":"4","last_reported":1747778979,"current_range_meters":10800,"station_id":"ce4bha12rcd13ifvqef0","pricing_plan_id":"cebpf4jnsgd1na2vs0mg"},{"bike_id":"6c7f0575-efb0-4e65-92ab-8fc191064eea","system_id":"levelo_inurba_marseille","lat":43.30417,"lon":5.41291,"is_reserved":false,"is_disabled":false,"rental_uris":{"android":"levelo://app?vid=6c7f0575-efb0-4e65-92ab-8fc191064eea","ios":"levelo://app?vid=6c7f0575-efb0-4e65-92ab-8fc191064eea"},"vehicle_type_id":"4","last_reported":1747778979,"current_range_meters":10800,"station_id":"ce4bhop2rcd13ifvqh8g","pricing_plan_id":"cebpf4jnsgd1na2vs0mg"},{"bike_id":"0033b096-04ee-4559-8771-5fc8beb5e9e8","system_id":"levelo_inurba_marseille","lat":43.28412,"lon":5.37513,"is_reserved":false,"is_disabled":false,"rental_uris":{"android":"levelo://app?vid=0033b096-04ee-4559-8771-5fc8beb5e9e8","ios":"levelo://app?vid=0033b096-04ee-4559-8771-5fc8beb5e9e8"},"vehicle_type_id":"4","last_reported":1747778979,"current_range_meters":10800,"station_id":"ce4bh412rcd13ifvqds0","pricing_plan_id":"cebpf4jnsgd1na2vs0mg"},{"bike_id":"1e5f1ec7-63e9-4cfe-848d-20c2ddebed97","system_id":"levelo_inurba_marseille","lat":43.27317,"lon":5.39078,"is_reserved":false,"is_disabled":false,"rental_uris":{"android":"levelo://app?vid=1e5f1ec7-63e9-4cfe-848d-20c2ddebed97","ios":"levelo://app?vid=1e5f1ec7-63e9-4cfe-848d-20c2ddebed97"},"vehicle_type_id":"4","last_reported":1747778979,"current_range_meters":10800,"station_id":"ce4bhgp2rcd13ifvqfe0","pricing_plan_id":"cebpf4jnsgd1na2vs0mg"},{"bike_id":"fb3e7d1b-0c5d-425e-9110-be28bd342226","system_id":"levelo_inurba_marseille","lat":43.28698,"lon":5.39974,"is_reserved":false,"is_disabled":false,"rental_uris":{"android":"levelo://app?vid=fb3e7d1b-0c5d-425e-9110-be28bd342226","ios":"levelo://app?vid=fb3e7d1b-0c5d-425e-9110-be28bd342226"},"vehicle_type_id":"4","last_reported":1747778979,"current_range_meters":10800,"station_id":"ce4bho92rcd13ifvqh3g","pricing_plan_id":"cebpf4jnsgd1na2vs0mg"},{"bike_id":"311bed19-06ca-4872-9475-1a0b5638a51d","system_id":"levelo_inurba_marseille","lat":43.24655,"lon":5.38892,"is_reserved":false,"is_disabled":false,"rental_uris":{"android":"levelo://app?vid=311bed19-06ca-4872-9475-1a0b5638a51d","ios":"levelo://app?vid=311bed19-06ca-4872-9475-1a0b5638a51d"},"vehicle_type_id":"4","last_reported":1747778979,"current_range_meters":11200,"station_id":"ce4bhg12rcd13ifvqf60","pricing_plan_id":"cebpf4jnsgd1na2vs0mg"},{"bike_id":"a4f87495-674a-4598-96c3-678f04fbaf3b","system_id":"levelo_inurba_marseille","lat":43.31882,"lon":5.40739,"is_reserved":false,"is_disabled":false,"rental_uris":{"android":"levelo://app?vid=a4f87495-674a-4598-96c3-678f04fbaf3b","ios":"levelo://app?vid=a4f87495-674a-4598-96c3-678f04fbaf3b"},"vehicle_type_id":"4","last_reported":1747778979,"current_range_meters":11200,"station_id":"ce4bhq12rcd13ifvqhig","pricing_plan_id":"cebpf4jnsgd1na2vs0mg"},{"bike_id":"0d65d2a1-b18d-4f6d-85a7-f213f0ff86ca","system_id":"levelo_inurba_marseille","lat":43.29226,"lon":5.36079,"is_reserved":false,"is_disabled":false,"rental_uris":{"android":"levelo://app?vid=0d65d2a1-b18d-4f6d-85a7-f213f0ff86ca","ios":"levelo://app?vid=0d65d2a1-b18d-4f6d-85a7-f213f0ff86ca"},"vehicle_type_id":"4","last_reported":1747778979,"current_range_meters":11200,"station_id":"ce4bhbh2rcd13ifvqeqg","pricing_plan_id":"cebpf4jnsgd1na2vs0mg"},{"bike_id":"1ff4dd87-bf56-4ab1-8365-aad71fcb827c","system_id":"levelo_inurba_marseille","lat":43.316076,"lon":5.423906,"is_reserved":false,"is_disabled":false,"rental_uris":{"android":"levelo://app?vid=1ff4dd87-bf56-4ab1-8365-aad71fcb827c","ios":"levelo://app?vid=1ff4dd87-bf56-4ab1-8365-aad71fcb827c"},"vehicle_type_id":"4","last_reported":1747778979,"current_range_meters":11200,"station_id":"ce4bhp92rcd13ifvqhbg","pricing_plan_id":"cebpf4jnsgd1na2vs0mg"},{"bike_id":"d9810c4e-48c0-4e14-80b6-de47514f6836","system_id":"levelo_inurba_marseille","lat":43.3136,"lon":5.3849,"is_reserved":false,"is_disabled":false,"rental_uris":{"android":"levelo://app?vid=d9810c4e-48c0-4e14-80b6-de47514f6836","ios":"levelo://app?vid=d9810c4e-48c0-4e14-80b6-de47514f6836"},"vehicle_type_id":"4","last_reported":1747778979,"current_range_meters":11200,"station_id":"ce4bgt92rcd13ifvqcf0","pricing_plan_id":"cebpf4jnsgd1na2vs0mg"},{"bike_id":"b126fc3b-f437-49d0-8f6b-dc7508e5d805","system_id":"levelo_inurba_marseille","lat":43.28672,"lon":5.36334,"is_reserved":false,"is_disabled":false,"rental_uris":{"android":"levelo://app?vid=b126fc3b-f437-49d0-8f6b-dc7508e5d805","ios":"levelo://app?vid=b126fc3b-f437-49d0-8f6b-dc7508e5d805"},"vehicle_type_id":"4","last_reported":1747778979,"current_range_meters":11200,"station_id":"ce4bhah2rcd13ifvqej0","pricing_plan_id":"cebpf4jnsgd1na2vs0mg"},{"bike_id":"c3c11b11-8507-45b4-bd48-1e3bdd46fbbe","system_id":"levelo_inurba_marseille","lat":43.2319,"lon":5.39983,"is_reserved":false,"is_disabled":false,"rental_uris":{"android":"levelo://app?vid=c3c11b11-8507-45b4-bd48-1e3bdd46fbbe","ios":"levelo://app?vid=c3c11b11-8507-45b4-bd48-1e3bdd46fbbe"},"vehicle_type_id":"4","last_reported":1747778979,"current_range_meters":11200,"station_id":"ce4bhn12rcd13ifvqgqg","pricing_plan_id":"cebpf4jnsgd1na2vs0mg"},{"bike_id":"d222c036-c02a-40db-bb80-83d7b7358871","system_id":"levelo_inurba_marseille","lat":43.33722,"lon":5.39191,"is_reserved":false,"is_disabled":false,"rental_uris":{"android":"levelo://app?vid=d222c036-c02a-40db-bb80-83d7b7358871","ios":"levelo://app?vid=d222c036-c02a-40db-bb80-83d7b7358871"},"vehicle_type_id":"4","last_reported":1747778979,"current_range_meters":11200,"station_id":"ce4bhr92rcd13ifvqhsg","pricing_plan_id":"cebpf4jnsgd1na2vs0mg"},{"bike_id":"a73ac738-d0bc-44c5-90a2-353b974f06f7","system_id":"levelo_inurba_marseille","lat":43.30093,"lon":5.39062,"is_reserved":false,"is_disabled":false,"rental_uris":{"android":"levelo://app?vid=a73ac738-d0bc-44c5-90a2-353b974f06f7","ios":"levelo://app?vid=a73ac738-d0bc-44c5-90a2-353b974f06f7"},"vehicle_type_id":"4","last_reported":1747778979,"current_range_meters":11200,"station_id":"ce4bh192rcd13ifvqdb0","pricing_plan_id":"cebpf4jnsgd1na2vs0mg"},{"bike_id":"ee50f661-6111-4d7a-acee-9f4a4c0791e5","system_id":"levelo_inurba_marseille","lat":43.27954,"lon":5.41027,"is_reserved":false,"is_disabled":false,"rental_uris":{"android":"levelo://app?vid=ee50f661-6111-4d7a-acee-9f4a4c0791e5","ios":"levelo://app?vid=ee50f661-6111-4d7a-acee-9f4a4c0791e5"},"vehicle_type_id":"4","last_reported":1747778979,"current_range_meters":11600,"station_id":"ce4bhnp2rcd13ifvqh0g","pricing_plan_id":"cebpf4jnsgd1na2vs0mg"},{"bike_id":"a108c6fe-fc59-467c-8bf3-782c2c64dc0a","system_id":"levelo_inurba_marseille","lat":43.28727,"lon":5.36086,"is_reserved":false,"is_disabled":false,"rental_uris":{"android":"levelo://app?vid=a108c6fe-fc59-467c-8bf3-782c2c64dc0a","ios":"levelo://app?vid=a108c6fe-fc59-467c-8bf3-782c2c64dc0a"},"vehicle_type_id":"4","last_reported":1747778979,"current_range_meters":11600,"station_id":"cki0cbj6b192h4jlfktg","pricing_plan_id":"cebpf4jnsgd1na2vs0mg"},{"bike_id":"e83faf28-7dfb-43a6-bafd-023a522d2106","system_id":"levelo_inurba_marseille","lat":43.302085,"lon":5.394685,"is_reserved":false,"is_disabled":false,"rental_uris":{"android":"levelo://app?vid=e83faf28-7dfb-43a6-bafd-023a522d2106","ios":"levelo://app?vid=e83faf28-7dfb-43a6-bafd-023a522d2106"},"vehicle_type_id":"4","last_reported":1747778979,"current_range_meters":11600,"station_id":"ce4bh0p2rcd13ifvqd70","pricing_plan_id":"cebpf4jnsgd1na2vs0mg"},{"bike_id":"811f2f0e-4eb2-4aa5-823f-6fa13bac68c5","system_id":"levelo_inurba_marseille","lat":43.28719,"lon":5.36061,"is_reserved":false,"is_disabled":false,"rental_uris":{"android":"levelo://app?vid=811f2f0e-4eb2-4aa5-823f-6fa13bac68c5","ios":"levelo://app?vid=811f2f0e-4eb2-4aa5-823f-6fa13bac68c5"},"vehicle_type_id":"4","last_reported":1747778979,"current_range_meters":11600,"station_id":"cki0cbj6b192h4jlfktg","pricing_plan_id":"cebpf4jnsgd1na2vs0mg"},{"bike_id":"552f8727-287a-4d65-9358-b1df0bcdc2ca","system_id":"levelo_inurba_marseille","lat":43.31496,"lon":5.3731,"is_reserved":false,"is_disabled":false,"rental_uris":{"android":"levelo://app?vid=552f8727-287a-4d65-9358-b1df0bcdc2ca","ios":"levelo://app?vid=552f8727-287a-4d65-9358-b1df0bcdc2ca"},"vehicle_type_id":"4","last_reported":1747778979,"current_range_meters":12000,"station_id":"ce4bgt12rcd13ifvqcd0","pricing_plan_id":"cebpf4jnsgd1na2vs0mg"},{"bike_id":"2fdf9f74-b105-438a-aeb4-b7a8e79388ef","system_id":"levelo_inurba_marseille","lat":43.31316,"lon":5.39691,"is_reserved":false,"is_disabled":false,"rental_uris":{"android":"levelo://app?vid=2fdf9f74-b105-438a-aeb4-b7a8e79388ef","ios":"levelo://app?vid=2fdf9f74-b105-438a-aeb4-b7a8e79388ef"},"vehicle_type_id":"4","last_reported":1747778979,"current_range_meters":12000,"station_id":"ce4bgvp2rcd13ifvqcu0","pricing_plan_id":"cebpf4jnsgd1na2vs0mg"},{"bike_id":"dc80936a-51b4-4ef9-b71e-e259b58f2ac3","system_id":"levelo_inurba_marseille","lat":43.2319,"lon":5.39992,"is_reserved":false,"is_disabled":false,"rental_uris":{"android":"levelo://app?vid=dc80936a-51b4-4ef9-b71e-e259b58f2ac3","ios":"levelo://app?vid=dc80936a-51b4-4ef9-b71e-e259b58f2ac3"},"vehicle_type_id":"4","last_reported":1747778979,"current_range_meters":12000,"station_id":"ce4bhn12rcd13ifvqgqg","pricing_plan_id":"cebpf4jnsgd1na2vs0mg"},{"bike_id":"bd6d7942-fe35-47f9-9314-0f83fb285e3d","system_id":"levelo_inurba_marseille","lat":43.28108,"lon":5.37838,"is_reserved":false,"is_disabled":false,"rental_uris":{"android":"levelo://app?vid=bd6d7942-fe35-47f9-9314-0f83fb285e3d","ios":"levelo://app?vid=bd6d7942-fe35-47f9-9314-0f83fb285e3d"},"vehicle_type_id":"4","last_reported":1747778979,"current_range_meters":12400,"station_id":"ce4bha12rcd13ifvqee0","pricing_plan_id":"cebpf4jnsgd1na2vs0mg"},{"bike_id":"01cb2e34-f8ae-4c99-bc04-8da7443e4644","system_id":"levelo_inurba_marseille","lat":43.304,"lon":5.41302,"is_reserved":false,"is_disabled":false,"rental_uris":{"android":"levelo://app?vid=01cb2e34-f8ae-4c99-bc04-8da7443e4644","ios":"levelo://app?vid=01cb2e34-f8ae-4c99-bc04-8da7443e4644"},"vehicle_type_id":"4","last_reported":1747778979,"current_range_meters":12400,"station_id":"ce4bhop2rcd13ifvqh8g","pricing_plan_id":"cebpf4jnsgd1na2vs0mg"},{"bike_id":"5eb68c04-da7f-4459-b57e-7fa15a1ceae4","system_id":"levelo_inurba_marseille","lat":43.30412,"lon":5.41267,"is_reserved":false,"is_disabled":false,"rental_uris":{"android":"levelo://app?vid=5eb68c04-da7f-4459-b57e-7fa15a1ceae4","ios":"levelo://app?vid=5eb68c04-da7f-4459-b57e-7fa15a1ceae4"},"vehicle_type_id":"4","last_reported":1747778979,"current_range_meters":12400,"station_id":"ce4bhop2rcd13ifvqh8g","pricing_plan_id":"cebpf4jnsgd1na2vs0mg"},{"bike_id":"d15cba6a-08ad-4d62-b5ed-6a43551fc3aa","system_id":"levelo_inurba_marseille","lat":43.31115,"lon":5.42405,"is_reserved":false,"is_disabled":false,"rental_uris":{"android":"levelo://app?vid=d15cba6a-08ad-4d62-b5ed-6a43551fc3aa","ios":"levelo://app?vid=d15cba6a-08ad-4d62-b5ed-6a43551fc3aa"},"vehicle_type_id":"4","last_reported":1747778979,"current_range_meters":12400,"station_id":"ce4bhp92rcd13ifvqhag","pricing_plan_id":"cebpf4jnsgd1na2vs0mg"},{"bike_id":"99d1eda0-e5d7-4556-a75c-74bc564c99a0","system_id":"levelo_inurba_marseille","lat":43.28937,"lon":5.36613,"is_reserved":false,"is_disabled":false,"rental_uris":{"android":"levelo://app?vid=99d1eda0-e5d7-4556-a75c-74bc564c99a0","ios":"levelo://app?vid=99d1eda0-e5d7-4556-a75c-74bc564c99a0"},"vehicle_type_id":"4","last_reported":1747778979,"current_range_meters":12400,"station_id":"ce4bhap2rcd13ifvqek0","pricing_plan_id":"cebpf4jnsgd1na2vs0mg"},{"bike_id":"485e929f-5618-4c68-b5f3-5216c2cf8a04","system_id":"levelo_inurba_marseille","lat":43.293809,"lon":5.378474,"is_reserved":false,"is_disabled":true,"rental_uris":{"android":"levelo://app?vid=485e929f-5618-4c68-b5f3-5216c2cf8a04","ios":"levelo://app?vid=485e929f-5618-4c68-b5f3-5216c2cf8a04"},"vehicle_type_id":"4","last_reported":1747778979,"current_range_meters":12400,"station_id":"ce4bgjh2rcd13ifvqbf0","pricing_plan_id":"cebpf4jnsgd1na2vs0mg"},{"bike_id":"6c10a434-bc8c-44bf-aea5-1f9ba2624fed","system_id":"levelo_inurba_marseille","lat":43.25083,"lon":5.39515,"is_reserved":false,"is_disabled":false,"rental_uris":{"android":"levelo://app?vid=6c10a434-bc8c-44bf-aea5-1f9ba2624fed","ios":"levelo://app?vid=6c10a434-bc8c-44bf-aea5-1f9ba2624fed"},"vehicle_type_id":"4","last_reported":1747778979,"current_range_meters":12800,"station_id":"ce4bhm12rcd13ifvqgkg","pricing_plan_id":"cebpf4jnsgd1na2vs0mg"},{"bike_id":"97e9fd1e-8136-4406-a1ea-a5a8831b7bd1","system_id":"levelo_inurba_marseille","lat":43.23192,"lon":5.39988,"is_reserved":false,"is_disabled":false,"rental_uris":{"android":"levelo://app?vid=97e9fd1e-8136-4406-a1ea-a5a8831b7bd1","ios":"levelo://app?vid=97e9fd1e-8136-4406-a1ea-a5a8831b7bd1"},"vehicle_type_id":"4","last_reported":1747778979,"current_range_meters":12800,"station_id":"ce4bhn12rcd13ifvqgqg","pricing_plan_id":"cebpf4jnsgd1na2vs0mg"},{"bike_id":"a0038a72-411b-40f0-8a6c-b327c1c37a7e","system_id":"levelo_inurba_marseille","lat":43.29608,"lon":5.38102,"is_reserved":false,"is_disabled":false,"rental_uris":{"android":"levelo://app?vid=a0038a72-411b-40f0-8a6c-b327c1c37a7e","ios":"levelo://app?vid=a0038a72-411b-40f0-8a6c-b327c1c37a7e"},"vehicle_type_id":"4","last_reported":1747778979,"current_range_meters":12800,"station_id":"ce4bgl12rcd13ifvqbo0","pricing_plan_id":"cebpf4jnsgd1na2vs0mg"},{"bike_id":"e21efbed-6b68-4f20-a527-52f777feb601","system_id":"levelo_inurba_marseille","lat":43.31123,"lon":5.37765,"is_reserved":false,"is_disabled":false,"rental_uris":{"android":"levelo://app?vid=e21efbed-6b68-4f20-a527-52f777feb601","ios":"levelo://app?vid=e21efbed-6b68-4f20-a527-52f777feb601"},"vehicle_type_id":"4","last_reported":1747778979,"current_range_meters":12800,"station_id":"ce4bgt92rcd13ifvqcg0","pricing_plan_id":"cebpf4jnsgd1na2vs0mg"},{"bike_id":"cec46056-b591-4b3b-9502-f451db58c856","system_id":"levelo_inurba_marseille","lat":43.2841,"lon":5.37531,"is_reserved":false,"is_disabled":false,"rental_uris":{"android":"levelo://app?vid=cec46056-b591-4b3b-9502-f451db58c856","ios":"levelo://app?vid=cec46056-b591-4b3b-9502-f451db58c856"},"vehicle_type_id":"4","last_reported":1747778979,"current_range_meters":12800,"station_id":"ce4bh412rcd13ifvqds0","pricing_plan_id":"cebpf4jnsgd1na2vs0mg"},{"bike_id":"1a61ea66-30b7-4395-bf29-66d534300305","system_id":"levelo_inurba_marseille","lat":43.28733,"lon":5.36075,"is_reserved":false,"is_disabled":false,"rental_uris":{"android":"levelo://app?vid=1a61ea66-30b7-4395-bf29-66d534300305","ios":"levelo://app?vid=1a61ea66-30b7-4395-bf29-66d534300305"},"vehicle_type_id":"4","last_reported":1747778979,"current_range_meters":13600,"station_id":"cki0cbj6b192h4jlfktg","pricing_plan_id":"cebpf4jnsgd1na2vs0mg"},{"bike_id":"774790b0-fd82-40fb-a7e2-c958965bc348","system_id":"levelo_inurba_marseille","lat":43.26816,"lon":5.40275,"is_reserved":false,"is_disabled":false,"rental_uris":{"android":"levelo://app?vid=774790b0-fd82-40fb-a7e2-c958965bc348","ios":"levelo://app?vid=774790b0-fd82-40fb-a7e2-c958965bc348"},"vehicle_type_id":"4","last_reported":1747778979,"current_range_meters":13600,"station_id":"ce501612rcd8frsf0b60","pricing_plan_id":"cebpf4jnsgd1na2vs0mg"},{"bike_id":"3727fc12-d6f7-4940-a601-2497cb1482e6","system_id":"levelo_inurba_marseille","lat":43.28075,"lon":5.39651,"is_reserved":false,"is_disabled":false,"rental_uris":{"android":"levelo://app?vid=3727fc12-d6f7-4940-a601-2497cb1482e6","ios":"levelo://app?vid=3727fc12-d6f7-4940-a601-2497cb1482e6"},"vehicle_type_id":"4","last_reported":1747778979,"current_range_meters":13600,"station_id":"ce4bho12rcd13ifvqh2g","pricing_plan_id":"cebpf4jnsgd1na2vs0mg"},{"bike_id":"b83b2343-06f9-483f-b080-59b5bec29c7c","system_id":"levelo_inurba_marseille","lat":43.30799,"lon":5.37641,"is_reserved":false,"is_disabled":false,"rental_uris":{"android":"levelo://app?vid=b83b2343-06f9-483f-b080-59b5bec29c7c","ios":"levelo://app?vid=b83b2343-06f9-483f-b080-59b5bec29c7c"},"vehicle_type_id":"4","last_reported":1747778979,"current_range_meters":13600,"station_id":"ce4bgv92rcd13ifvqcq0","pricing_plan_id":"cebpf4jnsgd1na2vs0mg"},{"bike_id":"546a3036-bff0-4db0-a4ff-79bb792d783d","system_id":"levelo_inurba_marseille","lat":43.30931,"lon":5.40155,"is_reserved":false,"is_disabled":false,"rental_uris":{"android":"levelo://app?vid=546a3036-bff0-4db0-a4ff-79bb792d783d","ios":"levelo://app?vid=546a3036-bff0-4db0-a4ff-79bb792d783d"},"vehicle_type_id":"4","last_reported":1747778979,"current_range_meters":13600,"station_id":"ce4bgvp2rcd13ifvqct0","pricing_plan_id":"cebpf4jnsgd1na2vs0mg"},{"bike_id":"42e754cc-4822-4641-8d38-f388a89d9264","system_id":"levelo_inurba_marseille","lat":43.30606,"lon":5.37228,"is_reserved":false,"is_disabled":false,"rental_uris":{"android":"levelo://app?vid=42e754cc-4822-4641-8d38-f388a89d9264","ios":"levelo://app?vid=42e754cc-4822-4641-8d38-f388a89d9264"},"vehicle_type_id":"4","last_reported":1747778979,"current_range_meters":14000,"station_id":"ce4bgqh2rcd13ifvqc4g","pricing_plan_id":"cebpf4jnsgd1na2vs0mg"},{"bike_id":"5765434c-77b5-41b5-8b14-b978e4d6dd10","system_id":"levelo_inurba_marseille","lat":43.21161,"lon":5.35137,"is_reserved":false,"is_disabled":false,"rental_uris":{"android":"levelo://app?vid=5765434c-77b5-41b5-8b14-b978e4d6dd10","ios":"levelo://app?vid=5765434c-77b5-41b5-8b14-b978e4d6dd10"},"vehicle_type_id":"4","last_reported":1747778979,"current_range_meters":14000,"station_id":"st_cvj6sg6p6f1abm77japg","pricing_plan_id":"cebpf4jnsgd1na2vs0mg"},{"bike_id":"d22b0fd0-78a6-46fc-aad8-ce2ca2a629e3","system_id":"levelo_inurba_marseille","lat":43.211949,"lon":5.350724,"is_reserved":false,"is_disabled":false,"rental_uris":{"android":"levelo://app?vid=d22b0fd0-78a6-46fc-aad8-ce2ca2a629e3","ios":"levelo://app?vid=d22b0fd0-78a6-46fc-aad8-ce2ca2a629e3"},"vehicle_type_id":"4","last_reported":1747778979,"current_range_meters":14000,"station_id":"st_cvj6sg6p6f1abm77japg","pricing_plan_id":"cebpf4jnsgd1na2vs0mg"},{"bike_id":"5d814b1f-1369-4138-9e5a-5c17a513eae1","system_id":"levelo_inurba_marseille","lat":43.31173,"lon":5.38709,"is_reserved":false,"is_disabled":false,"rental_uris":{"android":"levelo://app?vid=5d814b1f-1369-4138-9e5a-5c17a513eae1","ios":"levelo://app?vid=5d814b1f-1369-4138-9e5a-5c17a513eae1"},"vehicle_type_id":"4","last_reported":1747778979,"current_range_meters":14000,"station_id":"ce4bgv12rcd13ifvqcp0","pricing_plan_id":"cebpf4jnsgd1na2vs0mg"},{"bike_id":"25b93cff-d6a4-44e2-93bf-adadd73ecfd6","system_id":"levelo_inurba_marseille","lat":43.280311,"lon":5.36953,"is_reserved":false,"is_disabled":false,"rental_uris":{"android":"levelo://app?vid=25b93cff-d6a4-44e2-93bf-adadd73ecfd6","ios":"levelo://app?vid=25b93cff-d6a4-44e2-93bf-adadd73ecfd6"},"vehicle_type_id":"4","last_reported":1747778979,"current_range_meters":14400,"station_id":"ce4bha12rcd13ifvqef0","pricing_plan_id":"cebpf4jnsgd1na2vs0mg"},{"bike_id":"e1d316b5-1a5f-402b-bba2-7214273c69f4","system_id":"levelo_inurba_marseille","lat":43.26224,"lon":5.40447,"is_reserved":false,"is_disabled":false,"rental_uris":{"android":"levelo://app?vid=e1d316b5-1a5f-402b-bba2-7214273c69f4","ios":"levelo://app?vid=e1d316b5-1a5f-402b-bba2-7214273c69f4"},"vehicle_type_id":"4","last_reported":1747778979,"current_range_meters":14400,"station_id":"ce4bhmh2rcd13ifvqgmg","pricing_plan_id":"cebpf4jnsgd1na2vs0mg"},{"bike_id":"ead41031-a0d8-401d-aab8-73af20654661","system_id":"levelo_inurba_marseille","lat":43.29257,"lon":5.40906,"is_reserved":false,"is_disabled":false,"rental_uris":{"android":"levelo://app?vid=ead41031-a0d8-401d-aab8-73af20654661","ios":"levelo://app?vid=ead41031-a0d8-401d-aab8-73af20654661"},"vehicle_type_id":"4","last_reported":1747778979,"current_range_meters":14400,"station_id":"ce4bh192rcd13ifvqdc0","pricing_plan_id":"cebpf4jnsgd1na2vs0mg"},{"bike_id":"edffe597-6f79-49f9-8df7-4789a9f67718","system_id":"levelo_inurba_marseille","lat":43.32102,"lon":5.3679,"is_reserved":false,"is_disabled":false,"rental_uris":{"android":"levelo://app?vid=edffe597-6f79-49f9-8df7-4789a9f67718","ios":"levelo://app?vid=edffe597-6f79-49f9-8df7-4789a9f67718"},"vehicle_type_id":"4","last_reported":1747778979,"current_range_meters":14400,"station_id":"ce4bhrh2rcd13ifvqhug","pricing_plan_id":"cebpf4jnsgd1na2vs0mg"},{"bike_id":"1a340bac-8012-4c7c-b50a-247d19f083a9","system_id":"levelo_inurba_marseille","lat":43.21192,"lon":5.35076,"is_reserved":false,"is_disabled":false,"rental_uris":{"android":"levelo://app?vid=1a340bac-8012-4c7c-b50a-247d19f083a9","ios":"levelo://app?vid=1a340bac-8012-4c7c-b50a-247d19f083a9"},"vehicle_type_id":"4","last_reported":1747778979,"current_range_meters":15200,"station_id":"st_cvj6sg6p6f1abm77japg","pricing_plan_id":"cebpf4jnsgd1na2vs0mg"},{"bike_id":"d3794132-a70f-416f-8f79-15d73a23ca4b","system_id":"levelo_inurba_marseille","lat":43.24655,"lon":5.38888,"is_reserved":false,"is_disabled":false,"rental_uris":{"android":"levelo://app?vid=d3794132-a70f-416f-8f79-15d73a23ca4b","ios":"levelo://app?vid=d3794132-a70f-416f-8f79-15d73a23ca4b"},"vehicle_type_id":"4","last_reported":1747778979,"current_range_meters":14800,"station_id":"ce4bhg12rcd13ifvqf60","pricing_plan_id":"cebpf4jnsgd1na2vs0mg"},{"bike_id":"d1160015-b350-4030-b023-f45cab3fc65c","system_id":"levelo_inurba_marseille","lat":43.28365,"lon":5.38099,"is_reserved":false,"is_disabled":false,"rental_uris":{"android":"levelo://app?vid=d1160015-b350-4030-b023-f45cab3fc65c","ios":"levelo://app?vid=d1160015-b350-4030-b023-f45cab3fc65c"},"vehicle_type_id":"4","last_reported":1747778979,"current_range_meters":14800,"station_id":"ce4bh412rcd13ifvqdr0","pricing_plan_id":"cebpf4jnsgd1na2vs0mg"},{"bike_id":"56cf80a0-6e20-4517-b7ab-ff4ac3730a84","system_id":"levelo_inurba_marseille","lat":43.23187,"lon":5.39978,"is_reserved":false,"is_disabled":false,"rental_uris":{"android":"levelo://app?vid=56cf80a0-6e20-4517-b7ab-ff4ac3730a84","ios":"levelo://app?vid=56cf80a0-6e20-4517-b7ab-ff4ac3730a84"},"vehicle_type_id":"4","last_reported":1747778979,"current_range_meters":14800,"station_id":"ce4bhn12rcd13ifvqgqg","pricing_plan_id":"cebpf4jnsgd1na2vs0mg"},{"bike_id":"03012606-d32f-4ef5-b61d-8757920abdf4","system_id":"levelo_inurba_marseille","lat":43.28495,"lon":5.38543,"is_reserved":false,"is_disabled":true,"rental_uris":{"android":"levelo://app?vid=03012606-d32f-4ef5-b61d-8757920abdf4","ios":"levelo://app?vid=03012606-d32f-4ef5-b61d-8757920abdf4"},"vehicle_type_id":"4","last_reported":1747778979,"current_range_meters":14800,"station_id":"ce4bh8p2rcd13ifvqeb0","pricing_plan_id":"cebpf4jnsgd1na2vs0mg"},{"bike_id":"ec5191db-fdca-4abd-8771-b4443d0c9b5a","system_id":"levelo_inurba_marseille","lat":43.30883,"lon":5.39642,"is_reserved":false,"is_disabled":false,"rental_uris":{"android":"levelo://app?vid=ec5191db-fdca-4abd-8771-b4443d0c9b5a","ios":"levelo://app?vid=ec5191db-fdca-4abd-8771-b4443d0c9b5a"},"vehicle_type_id":"4","last_reported":1747778979,"current_range_meters":14800,"station_id":"ce4bh012rcd13ifvqcv0","pricing_plan_id":"cebpf4jnsgd1na2vs0mg"},{"bike_id":"d14cb34f-c088-4fce-8177-7d93d185cb84","system_id":"levelo_inurba_marseille","lat":43.28085,"lon":5.39659,"is_reserved":false,"is_disabled":false,"rental_uris":{"android":"levelo://app?vid=d14cb34f-c088-4fce-8177-7d93d185cb84","ios":"levelo://app?vid=d14cb34f-c088-4fce-8177-7d93d185cb84"},"vehicle_type_id":"4","last_reported":1747778979,"current_range_meters":14800,"station_id":"ce4bho12rcd13ifvqh2g","pricing_plan_id":"cebpf4jnsgd1na2vs0mg"},{"bike_id":"a420846c-1cf0-48f0-bdd5-c86b47a6bc90","system_id":"levelo_inurba_marseille","lat":43.24173,"lon":5.36393,"is_reserved":false,"is_disabled":false,"rental_uris":{"android":"levelo://app?vid=a420846c-1cf0-48f0-bdd5-c86b47a6bc90","ios":"levelo://app?vid=a420846c-1cf0-48f0-bdd5-c86b47a6bc90"},"vehicle_type_id":"4","last_reported":1747778979,"current_range_meters":14800,"station_id":"cpo36qri1sfpv3e86is0","pricing_plan_id":"cebpf4jnsgd1na2vs0mg"},{"bike_id":"e819b5be-166b-44a3-b3f8-fc23a89537f1","system_id":"levelo_inurba_marseille","lat":43.292787,"lon":5.401209,"is_reserved":false,"is_disabled":true,"rental_uris":{"android":"levelo://app?vid=e819b5be-166b-44a3-b3f8-fc23a89537f1","ios":"levelo://app?vid=e819b5be-166b-44a3-b3f8-fc23a89537f1"},"vehicle_type_id":"4","last_reported":1747778979,"current_range_meters":15200,"station_id":"ce4bh312rcd13ifvqdk0","pricing_plan_id":"cebpf4jnsgd1na2vs0mg"},{"bike_id":"9fa3e6fa-2c69-4cc5-8414-cf997f3bb965","system_id":"levelo_inurba_marseille","lat":43.26925,"lon":5.3891,"is_reserved":false,"is_disabled":false,"rental_uris":{"android":"levelo://app?vid=9fa3e6fa-2c69-4cc5-8414-cf997f3bb965","ios":"levelo://app?vid=9fa3e6fa-2c69-4cc5-8414-cf997f3bb965"},"vehicle_type_id":"4","last_reported":1747778979,"current_range_meters":15200,"station_id":"ce4bhhh2rcd13ifvqfl0","pricing_plan_id":"cebpf4jnsgd1na2vs0mg"},{"bike_id":"ee222a69-22c8-443a-9094-3b7c8c2d365a","system_id":"levelo_inurba_marseille","lat":43.2808,"lon":5.39641,"is_reserved":false,"is_disabled":false,"rental_uris":{"android":"levelo://app?vid=ee222a69-22c8-443a-9094-3b7c8c2d365a","ios":"levelo://app?vid=ee222a69-22c8-443a-9094-3b7c8c2d365a"},"vehicle_type_id":"4","last_reported":1747778979,"current_range_meters":15200,"station_id":"ce4bho12rcd13ifvqh2g","pricing_plan_id":"cebpf4jnsgd1na2vs0mg"},{"bike_id":"87e7bc5e-db0f-423c-8aff-9df688bbf3bc","system_id":"levelo_inurba_marseille","lat":43.24805,"lon":5.37457,"is_reserved":false,"is_disabled":false,"rental_uris":{"android":"levelo://app?vid=87e7bc5e-db0f-423c-8aff-9df688bbf3bc","ios":"levelo://app?vid=87e7bc5e-db0f-423c-8aff-9df688bbf3bc"},"vehicle_type_id":"4","last_reported":1747778979,"current_range_meters":15200,"station_id":"ce4bhgh2rcd13ifvqfb0","pricing_plan_id":"cebpf4jnsgd1na2vs0mg"},{"bike_id":"a253706b-1cb9-4ca4-9560-173eeb92ac1f","system_id":"levelo_inurba_marseille","lat":43.30801,"lon":5.43524,"is_reserved":false,"is_disabled":false,"rental_uris":{"android":"levelo://app?vid=a253706b-1cb9-4ca4-9560-173eeb92ac1f","ios":"levelo://app?vid=a253706b-1cb9-4ca4-9560-173eeb92ac1f"},"vehicle_type_id":"4","last_reported":1747778979,"current_range_meters":15200,"station_id":"ce4bhph2rcd13ifvqheg","pricing_plan_id":"cebpf4jnsgd1na2vs0mg"},{"bike_id":"49bc567a-e70b-46a1-938c-f9cf014a2c70","system_id":"levelo_inurba_marseille","lat":43.33605,"lon":5.41027,"is_reserved":false,"is_disabled":false,"rental_uris":{"android":"levelo://app?vid=49bc567a-e70b-46a1-938c-f9cf014a2c70","ios":"levelo://app?vid=49bc567a-e70b-46a1-938c-f9cf014a2c70"},"vehicle_type_id":"4","last_reported":1747778979,"current_range_meters":15200,"station_id":"ce4bhqh2rcd13ifvqhmg","pricing_plan_id":"cebpf4jnsgd1na2vs0mg"},{"bike_id":"9d97b5ff-aa10-45ae-bb7e-29f77c4c330d","system_id":"levelo_inurba_marseille","lat":43.31182,"lon":5.38713,"is_reserved":false,"is_disabled":false,"rental_uris":{"android":"levelo://app?vid=9d97b5ff-aa10-45ae-bb7e-29f77c4c330d","ios":"levelo://app?vid=9d97b5ff-aa10-45ae-bb7e-29f77c4c330d"},"vehicle_type_id":"4","last_reported":1747778979,"current_range_meters":15200,"station_id":"ce4bgv12rcd13ifvqcp0","pricing_plan_id":"cebpf4jnsgd1na2vs0mg"},{"bike_id":"a7a27268-a510-42aa-93d2-7ec0a604acd3","system_id":"levelo_inurba_marseille","lat":43.33726,"lon":5.39169,"is_reserved":false,"is_disabled":false,"rental_uris":{"android":"levelo://app?vid=a7a27268-a510-42aa-93d2-7ec0a604acd3","ios":"levelo://app?vid=a7a27268-a510-42aa-93d2-7ec0a604acd3"},"vehicle_type_id":"4","last_reported":1747778979,"current_range_meters":16000,"station_id":"ce4bhr92rcd13ifvqhsg","pricing_plan_id":"cebpf4jnsgd1na2vs0mg"},{"bike_id":"24dc12dd-e0a1-4ccc-b473-486d35ddca69","system_id":"levelo_inurba_marseille","lat":43.31715,"lon":5.43701,"is_reserved":false,"is_disabled":false,"rental_uris":{"android":"levelo://app?vid=24dc12dd-e0a1-4ccc-b473-486d35ddca69","ios":"levelo://app?vid=24dc12dd-e0a1-4ccc-b473-486d35ddca69"},"vehicle_type_id":"4","last_reported":1747778979,"current_range_meters":16000,"station_id":"ce4bhp92rcd13ifvqhcg","pricing_plan_id":"cebpf4jnsgd1na2vs0mg"},{"bike_id":"48a5de71-8e2d-402b-83b3-d8a3a18ddbb9","system_id":"levelo_inurba_marseille","lat":43.30548,"lon":5.3651,"is_reserved":false,"is_disabled":true,"rental_uris":{"android":"levelo://app?vid=48a5de71-8e2d-402b-83b3-d8a3a18ddbb9","ios":"levelo://app?vid=48a5de71-8e2d-402b-83b3-d8a3a18ddbb9"},"vehicle_type_id":"4","last_reported":1747778979,"current_range_meters":16000,"station_id":"ce4bgs12rcd13ifvqcag","pricing_plan_id":"cebpf4jnsgd1na2vs0mg"},{"bike_id":"b2098f36-3a4b-4364-a6b7-9bce689a500e","system_id":"levelo_inurba_marseille","lat":43.27819,"lon":5.40719,"is_reserved":false,"is_disabled":false,"rental_uris":{"android":"levelo://app?vid=b2098f36-3a4b-4364-a6b7-9bce689a500e","ios":"levelo://app?vid=b2098f36-3a4b-4364-a6b7-9bce689a500e"},"vehicle_type_id":"4","last_reported":1747778979,"current_range_meters":16000,"station_id":"ce4bhnh2rcd13ifvqgtg","pricing_plan_id":"cebpf4jnsgd1na2vs0mg"},{"bike_id":"5f45d7ac-e3e8-406a-8729-2760647ac9f7","system_id":"levelo_inurba_marseille","lat":43.27821,"lon":5.40686,"is_reserved":false,"is_disabled":false,"rental_uris":{"android":"levelo://app?vid=5f45d7ac-e3e8-406a-8729-2760647ac9f7","ios":"levelo://app?vid=5f45d7ac-e3e8-406a-8729-2760647ac9f7"},"vehicle_type_id":"4","last_reported":1747778979,"current_range_meters":16000,"station_id":"ce4bhnh2rcd13ifvqgtg","pricing_plan_id":"cebpf4jnsgd1na2vs0mg"},{"bike_id":"ec1e5af5-a2c9-40c7-8196-abeddc2c4e77","system_id":"levelo_inurba_marseille","lat":43.33611,"lon":5.41035,"is_reserved":false,"is_disabled":false,"rental_uris":{"android":"levelo://app?vid=ec1e5af5-a2c9-40c7-8196-abeddc2c4e77","ios":"levelo://app?vid=ec1e5af5-a2c9-40c7-8196-abeddc2c4e77"},"vehicle_type_id":"4","last_reported":1747778979,"current_range_meters":16000,"station_id":"ce4bhqh2rcd13ifvqhmg","pricing_plan_id":"cebpf4jnsgd1na2vs0mg"},{"bike_id":"c2b56efb-7bcb-4493-aa27-8acc1e7ef773","system_id":"levelo_inurba_marseille","lat":43.25891,"lon":5.39921,"is_reserved":false,"is_disabled":false,"rental_uris":{"android":"levelo://app?vid=c2b56efb-7bcb-4493-aa27-8acc1e7ef773","ios":"levelo://app?vid=c2b56efb-7bcb-4493-aa27-8acc1e7ef773"},"vehicle_type_id":"4","last_reported":1747778979,"current_range_meters":16000,"station_id":"ce4bhl92rcd13ifvqghg","pricing_plan_id":"cebpf4jnsgd1na2vs0mg"},{"bike_id":"e2438e45-de58-44ae-b62e-c924cf0e7151","system_id":"levelo_inurba_marseille","lat":43.29895,"lon":5.3975,"is_reserved":false,"is_disabled":false,"rental_uris":{"android":"levelo://app?vid=e2438e45-de58-44ae-b62e-c924cf0e7151","ios":"levelo://app?vid=e2438e45-de58-44ae-b62e-c924cf0e7151"},"vehicle_type_id":"4","last_reported":1747778979,"current_range_meters":16000,"station_id":"ce4bh0h2rcd13ifvqd50","pricing_plan_id":"cebpf4jnsgd1na2vs0mg"},{"bike_id":"41a63ad7-5271-4c92-a07b-12a7b1d342de","system_id":"levelo_inurba_marseille","lat":43.211986,"lon":5.35073,"is_reserved":false,"is_disabled":false,"rental_uris":{"android":"levelo://app?vid=41a63ad7-5271-4c92-a07b-12a7b1d342de","ios":"levelo://app?vid=41a63ad7-5271-4c92-a07b-12a7b1d342de"},"vehicle_type_id":"4","last_reported":1747778979,"current_range_meters":16000,"station_id":"st_cvj6sg6p6f1abm77japg","pricing_plan_id":"cebpf4jnsgd1na2vs0mg"},{"bike_id":"e4cf2a23-0f18-43b2-83e5-ee73af656d7a","system_id":"levelo_inurba_marseille","lat":43.27972,"lon":5.40025,"is_reserved":false,"is_disabled":false,"rental_uris":{"android":"levelo://app?vid=e4cf2a23-0f18-43b2-83e5-ee73af656d7a","ios":"levelo://app?vid=e4cf2a23-0f18-43b2-83e5-ee73af656d7a"},"vehicle_type_id":"4","last_reported":1747778979,"current_range_meters":16000,"station_id":"ce4bho92rcd13ifvqh4g","pricing_plan_id":"cebpf4jnsgd1na2vs0mg"},{"bike_id":"3e545a8f-ddf9-4006-9708-9ee86211f324","system_id":"levelo_inurba_marseille","lat":43.25112,"lon":5.40322,"is_reserved":false,"is_disabled":false,"rental_uris":{"android":"levelo://app?vid=3e545a8f-ddf9-4006-9708-9ee86211f324","ios":"levelo://app?vid=3e545a8f-ddf9-4006-9708-9ee86211f324"},"vehicle_type_id":"4","last_reported":1747778979,"current_range_meters":16000,"station_id":"ce4bhlh2rcd13ifvqgig","pricing_plan_id":"cebpf4jnsgd1na2vs0mg"},{"bike_id":"b0c62a54-2361-4efc-8382-c7c6d1cd6659","system_id":"levelo_inurba_marseille","lat":43.30538,"lon":5.38421,"is_reserved":false,"is_disabled":false,"rental_uris":{"android":"levelo://app?vid=b0c62a54-2361-4efc-8382-c7c6d1cd6659","ios":"levelo://app?vid=b0c62a54-2361-4efc-8382-c7c6d1cd6659"},"vehicle_type_id":"4","last_reported":1747778979,"current_range_meters":16400,"station_id":"ce4bgg92rcd13ifvqb30","pricing_plan_id":"cebpf4jnsgd1na2vs0mg"},{"bike_id":"20341d8a-5a7b-49d2-9f9d-dafcc3b6b254","system_id":"levelo_inurba_marseille","lat":43.31758,"lon":5.39009,"is_reserved":false,"is_disabled":false,"rental_uris":{"android":"levelo://app?vid=20341d8a-5a7b-49d2-9f9d-dafcc3b6b254","ios":"levelo://app?vid=20341d8a-5a7b-49d2-9f9d-dafcc3b6b254"},"vehicle_type_id":"4","last_reported":1747778979,"current_range_meters":16400,"station_id":"ce4bhqp2rcd13ifvqhng","pricing_plan_id":"cebpf4jnsgd1na2vs0mg"},{"bike_id":"ef7ebae2-0022-4f9f-8281-95975a86b024","system_id":"levelo_inurba_marseille","lat":43.29012,"lon":5.38125,"is_reserved":false,"is_disabled":false,"rental_uris":{"android":"levelo://app?vid=ef7ebae2-0022-4f9f-8281-95975a86b024","ios":"levelo://app?vid=ef7ebae2-0022-4f9f-8281-95975a86b024"},"vehicle_type_id":"4","last_reported":1747778979,"current_range_meters":16400,"station_id":"ce4bh4p2rcd13ifvqe1g","pricing_plan_id":"cebpf4jnsgd1na2vs0mg"},{"bike_id":"feb1b623-2f3a-4d8f-90b3-6dc09d08a2a9","system_id":"levelo_inurba_marseille","lat":43.29277,"lon":5.36847,"is_reserved":false,"is_disabled":false,"rental_uris":{"android":"levelo://app?vid=feb1b623-2f3a-4d8f-90b3-6dc09d08a2a9","ios":"levelo://app?vid=feb1b623-2f3a-4d8f-90b3-6dc09d08a2a9"},"vehicle_type_id":"4","last_reported":1747778979,"current_range_meters":16400,"station_id":"ce4bhbp2rcd13ifvqesg","pricing_plan_id":"cebpf4jnsgd1na2vs0mg"},{"bike_id":"d9b61f2d-7aab-43de-bfc5-6558a2b367e3","system_id":"levelo_inurba_marseille","lat":43.292506,"lon":5.409038,"is_reserved":false,"is_disabled":false,"rental_uris":{"android":"levelo://app?vid=d9b61f2d-7aab-43de-bfc5-6558a2b367e3","ios":"levelo://app?vid=d9b61f2d-7aab-43de-bfc5-6558a2b367e3"},"vehicle_type_id":"4","last_reported":1747778979,"current_range_meters":16800,"station_id":"ce4bh192rcd13ifvqdc0","pricing_plan_id":"cebpf4jnsgd1na2vs0mg"},{"bike_id":"d2243da5-46a4-4675-a166-c5959f727fa3","system_id":"levelo_inurba_marseille","lat":43.279447,"lon":5.410429,"is_reserved":false,"is_disabled":false,"rental_uris":{"android":"levelo://app?vid=d2243da5-46a4-4675-a166-c5959f727fa3","ios":"levelo://app?vid=d2243da5-46a4-4675-a166-c5959f727fa3"},"vehicle_type_id":"4","last_reported":1747778979,"current_range_meters":16800,"station_id":"ce4bhnp2rcd13ifvqh0g","pricing_plan_id":"cebpf4jnsgd1na2vs0mg"},{"bike_id":"bded63e5-ee1e-4b50-8e81-f721228dd28d","system_id":"levelo_inurba_marseille","lat":43.26682,"lon":5.38283,"is_reserved":false,"is_disabled":true,"rental_uris":{"android":"levelo://app?vid=bded63e5-ee1e-4b50-8e81-f721228dd28d","ios":"levelo://app?vid=bded63e5-ee1e-4b50-8e81-f721228dd28d"},"vehicle_type_id":"4","last_reported":1747778979,"current_range_meters":16800,"station_id":"ce4bhg92rcd13ifvqf90","pricing_plan_id":"cebpf4jnsgd1na2vs0mg"},{"bike_id":"9dfe11a9-ceaf-4299-a4f4-3f177d5b7602","system_id":"levelo_inurba_marseille","lat":43.29048,"lon":5.35925,"is_reserved":false,"is_disabled":true,"rental_uris":{"android":"levelo://app?vid=9dfe11a9-ceaf-4299-a4f4-3f177d5b7602","ios":"levelo://app?vid=9dfe11a9-ceaf-4299-a4f4-3f177d5b7602"},"vehicle_type_id":"4","last_reported":1747778979,"current_range_meters":16800,"station_id":"ce4bha92rcd13ifvqeg0","pricing_plan_id":"cebpf4jnsgd1na2vs0mg"},{"bike_id":"3e88c5e6-cd90-48df-9c41-9f096841819b","system_id":"levelo_inurba_marseille","lat":43.30591,"lon":5.39358,"is_reserved":false,"is_disabled":false,"rental_uris":{"android":"levelo://app?vid=3e88c5e6-cd90-48df-9c41-9f096841819b","ios":"levelo://app?vid=3e88c5e6-cd90-48df-9c41-9f096841819b"},"vehicle_type_id":"4","last_reported":1747778979,"current_range_meters":16800,"station_id":"ce4bh0p2rcd13ifvqd80","pricing_plan_id":"cebpf4jnsgd1na2vs0mg"},{"bike_id":"0e6bb125-ff93-4853-97e0-da4a593482f4","system_id":"levelo_inurba_marseille","lat":43.280809,"lon":5.396438,"is_reserved":false,"is_disabled":false,"rental_uris":{"android":"levelo://app?vid=0e6bb125-ff93-4853-97e0-da4a593482f4","ios":"levelo://app?vid=0e6bb125-ff93-4853-97e0-da4a593482f4"},"vehicle_type_id":"4","last_reported":1747778979,"current_range_meters":16800,"station_id":"ce4bho12rcd13ifvqh2g","pricing_plan_id":"cebpf4jnsgd1na2vs0mg"},{"bike_id":"d3787df1-b187-4674-a172-34b227ec7bf2","system_id":"levelo_inurba_marseille","lat":43.260593,"lon":5.393938,"is_reserved":false,"is_disabled":false,"rental_uris":{"android":"levelo://app?vid=d3787df1-b187-4674-a172-34b227ec7bf2","ios":"levelo://app?vid=d3787df1-b187-4674-a172-34b227ec7bf2"},"vehicle_type_id":"4","last_reported":1747778979,"current_range_meters":16800,"station_id":"ce4bhh92rcd13ifvqfj0","pricing_plan_id":"cebpf4jnsgd1na2vs0mg"},{"bike_id":"ac4574b5-d5fe-49f4-ad84-f9398de2ef96","system_id":"levelo_inurba_marseille","lat":43.2836,"lon":5.38625,"is_reserved":false,"is_disabled":false,"rental_uris":{"android":"levelo://app?vid=ac4574b5-d5fe-49f4-ad84-f9398de2ef96","ios":"levelo://app?vid=ac4574b5-d5fe-49f4-ad84-f9398de2ef96"},"vehicle_type_id":"4","last_reported":1747778979,"current_range_meters":16800,"station_id":"ce4bh492rcd13ifvqdvg","pricing_plan_id":"cebpf4jnsgd1na2vs0mg"},{"bike_id":"bac4a84b-8594-4d89-bfe1-94e8cf74d9ec","system_id":"levelo_inurba_marseille","lat":43.3133,"lon":5.39693,"is_reserved":false,"is_disabled":false,"rental_uris":{"android":"levelo://app?vid=bac4a84b-8594-4d89-bfe1-94e8cf74d9ec","ios":"levelo://app?vid=bac4a84b-8594-4d89-bfe1-94e8cf74d9ec"},"vehicle_type_id":"4","last_reported":1747778979,"current_range_meters":16800,"station_id":"ce4bgvp2rcd13ifvqcu0","pricing_plan_id":"cebpf4jnsgd1na2vs0mg"},{"bike_id":"60bd9881-5084-43e2-bd51-bf012147f24a","system_id":"levelo_inurba_marseille","lat":43.27071,"lon":5.42286,"is_reserved":false,"is_disabled":true,"rental_uris":{"android":"levelo://app?vid=60bd9881-5084-43e2-bd51-bf012147f24a","ios":"levelo://app?vid=60bd9881-5084-43e2-bd51-bf012147f24a"},"vehicle_type_id":"4","last_reported":1747778979,"current_range_meters":16800,"station_id":"ce4bhk92rcd13ifvqgb0","pricing_plan_id":"cebpf4jnsgd1na2vs0mg"},{"bike_id":"87500a7a-a178-4be3-b3ec-b7a0c6cc9462","system_id":"levelo_inurba_marseille","lat":43.28159,"lon":5.42634,"is_reserved":false,"is_disabled":false,"rental_uris":{"android":"levelo://app?vid=87500a7a-a178-4be3-b3ec-b7a0c6cc9462","ios":"levelo://app?vid=87500a7a-a178-4be3-b3ec-b7a0c6cc9462"},"vehicle_type_id":"4","last_reported":1747778979,"current_range_meters":16800,"station_id":"ce4bhnh2rcd13ifvqgug","pricing_plan_id":"cebpf4jnsgd1na2vs0mg"},{"bike_id":"9ca87aa6-027d-4e28-bd9d-073189ce94c1","system_id":"levelo_inurba_marseille","lat":43.29128,"lon":5.38072,"is_reserved":false,"is_disabled":false,"rental_uris":{"android":"levelo://app?vid=9ca87aa6-027d-4e28-bd9d-073189ce94c1","ios":"levelo://app?vid=9ca87aa6-027d-4e28-bd9d-073189ce94c1"},"vehicle_type_id":"4","last_reported":1747778979,"current_range_meters":16800,"station_id":"","pricing_plan_id":"cebpf4jnsgd1na2vs0mg"},{"bike_id":"df3eec4c-d465-424f-bef0-50bca13008c2","system_id":"levelo_inurba_marseille","lat":43.297926,"lon":5.393324,"is_reserved":false,"is_disabled":false,"rental_uris":{"android":"levelo://app?vid=df3eec4c-d465-424f-bef0-50bca13008c2","ios":"levelo://app?vid=df3eec4c-d465-424f-bef0-50bca13008c2"},"vehicle_type_id":"4","last_reported":1747778979,"current_range_meters":16800,"station_id":"chh1huq6cuj3fo74tm60","pricing_plan_id":"cebpf4jnsgd1na2vs0mg"},{"bike_id":"53379930-f65d-4002-a41b-c33b99b0951e","system_id":"levelo_inurba_marseille","lat":43.3053,"lon":5.38426,"is_reserved":false,"is_disabled":false,"rental_uris":{"android":"levelo://app?vid=53379930-f65d-4002-a41b-c33b99b0951e","ios":"levelo://app?vid=53379930-f65d-4002-a41b-c33b99b0951e"},"vehicle_type_id":"4","last_reported":1747778979,"current_range_meters":17200,"station_id":"ce4bgg92rcd13ifvqb30","pricing_plan_id":"cebpf4jnsgd1na2vs0mg"},{"bike_id":"1b6472a4-6239-410f-9292-d8d6d89573d5","system_id":"levelo_inurba_marseille","lat":43.31354,"lon":5.38501,"is_reserved":false,"is_disabled":false,"rental_uris":{"android":"levelo://app?vid=1b6472a4-6239-410f-9292-d8d6d89573d5","ios":"levelo://app?vid=1b6472a4-6239-410f-9292-d8d6d89573d5"},"vehicle_type_id":"4","last_reported":1747778979,"current_range_meters":17200,"station_id":"ce4bgt92rcd13ifvqcf0","pricing_plan_id":"cebpf4jnsgd1na2vs0mg"},{"bike_id":"9ab9a453-c610-4ee6-bfe9-c53b25fc7671","system_id":"levelo_inurba_marseille","lat":43.26679,"lon":5.39554,"is_reserved":false,"is_disabled":false,"rental_uris":{"android":"levelo://app?vid=9ab9a453-c610-4ee6-bfe9-c53b25fc7671","ios":"levelo://app?vid=9ab9a453-c610-4ee6-bfe9-c53b25fc7671"},"vehicle_type_id":"4","last_reported":1747778979,"current_range_meters":17200,"station_id":"","pricing_plan_id":"cebpf4jnsgd1na2vs0mg"},{"bike_id":"c5b13ce8-8399-487f-94c9-12a3ec0a2068","system_id":"levelo_inurba_marseille","lat":43.301281,"lon":5.373989,"is_reserved":false,"is_disabled":false,"rental_uris":{"android":"levelo://app?vid=c5b13ce8-8399-487f-94c9-12a3ec0a2068","ios":"levelo://app?vid=c5b13ce8-8399-487f-94c9-12a3ec0a2068"},"vehicle_type_id":"4","last_reported":1747778979,"current_range_meters":17200,"station_id":"ce4bgs92rcd13ifvqcc0","pricing_plan_id":"cebpf4jnsgd1na2vs0mg"},{"bike_id":"e14f8051-c4dc-4a0b-b14c-350193d1a56d","system_id":"levelo_inurba_marseille","lat":43.26557,"lon":5.37282,"is_reserved":false,"is_disabled":false,"rental_uris":{"android":"levelo://app?vid=e14f8051-c4dc-4a0b-b14c-350193d1a56d","ios":"levelo://app?vid=e14f8051-c4dc-4a0b-b14c-350193d1a56d"},"vehicle_type_id":"4","last_reported":1747778979,"current_range_meters":17200,"station_id":"ce4bhg12rcd13ifvqf70","pricing_plan_id":"cebpf4jnsgd1na2vs0mg"},{"bike_id":"5f670b2c-f3ff-4f35-8f16-84ecc20640d8","system_id":"levelo_inurba_marseille","lat":43.289548,"lon":5.396324,"is_reserved":false,"is_disabled":true,"rental_uris":{"android":"levelo://app?vid=5f670b2c-f3ff-4f35-8f16-84ecc20640d8","ios":"levelo://app?vid=5f670b2c-f3ff-4f35-8f16-84ecc20640d8"},"vehicle_type_id":"4","last_reported":1747778979,"current_range_meters":17200,"station_id":"ce4bh3h2rcd13ifvqdn0","pricing_plan_id":"cebpf4jnsgd1na2vs0mg"},{"bike_id":"65982177-9b82-425f-ba0a-af35f3660911","system_id":"levelo_inurba_marseille","lat":43.29783,"lon":5.39336,"is_reserved":false,"is_disabled":false,"rental_uris":{"android":"levelo://app?vid=65982177-9b82-425f-ba0a-af35f3660911","ios":"levelo://app?vid=65982177-9b82-425f-ba0a-af35f3660911"},"vehicle_type_id":"4","last_reported":1747778979,"current_range_meters":17200,"station_id":"chh1huq6cuj3fo74tm60","pricing_plan_id":"cebpf4jnsgd1na2vs0mg"},{"bike_id":"a7dd5f98-1109-4c9c-b9c4-482f6fc45105","system_id":"levelo_inurba_marseille","lat":43.31757,"lon":5.38987,"is_reserved":false,"is_disabled":false,"rental_uris":{"android":"levelo://app?vid=a7dd5f98-1109-4c9c-b9c4-482f6fc45105","ios":"levelo://app?vid=a7dd5f98-1109-4c9c-b9c4-482f6fc45105"},"vehicle_type_id":"4","last_reported":1747778979,"current_range_meters":17200,"station_id":"ce4bhqp2rcd13ifvqhng","pricing_plan_id":"cebpf4jnsgd1na2vs0mg"},{"bike_id":"e31833c9-3629-4b2f-810c-c09df0eb266c","system_id":"levelo_inurba_marseille","lat":43.33751,"lon":5.37509,"is_reserved":false,"is_disabled":false,"rental_uris":{"android":"levelo://app?vid=e31833c9-3629-4b2f-810c-c09df0eb266c","ios":"levelo://app?vid=e31833c9-3629-4b2f-810c-c09df0eb266c"},"vehicle_type_id":"4","last_reported":1747778979,"current_range_meters":17200,"station_id":"","pricing_plan_id":"cebpf4jnsgd1na2vs0mg"},{"bike_id":"509a7bc5-3ed4-44a0-83b3-6bbf477b3a61","system_id":"levelo_inurba_marseille","lat":43.21214,"lon":5.35089,"is_reserved":false,"is_disabled":false,"rental_uris":{"android":"levelo://app?vid=509a7bc5-3ed4-44a0-83b3-6bbf477b3a61","ios":"levelo://app?vid=509a7bc5-3ed4-44a0-83b3-6bbf477b3a61"},"vehicle_type_id":"4","last_reported":1747778979,"current_range_meters":17200,"station_id":"st_cvj6sg6p6f1abm77japg","pricing_plan_id":"cebpf4jnsgd1na2vs0mg"},{"bike_id":"f5667c52-8d8a-4771-a94a-90427e35a890","system_id":"levelo_inurba_marseille","lat":43.29602,"lon":5.37716,"is_reserved":false,"is_disabled":true,"rental_uris":{"android":"levelo://app?vid=f5667c52-8d8a-4771-a94a-90427e35a890","ios":"levelo://app?vid=f5667c52-8d8a-4771-a94a-90427e35a890"},"vehicle_type_id":"4","last_reported":1747778979,"current_range_meters":17600,"station_id":"ce4bgi92rcd13ifvqb90","pricing_plan_id":"cebpf4jnsgd1na2vs0mg"},{"bike_id":"e745ebc6-8f69-4d0b-a4e7-594822ba8625","system_id":"levelo_inurba_marseille","lat":43.24075,"lon":5.37759,"is_reserved":false,"is_disabled":false,"rental_uris":{"android":"levelo://app?vid=e745ebc6-8f69-4d0b-a4e7-594822ba8625","ios":"levelo://app?vid=e745ebc6-8f69-4d0b-a4e7-594822ba8625"},"vehicle_type_id":"4","last_reported":1747778979,"current_range_meters":17600,"station_id":"ce4bhnp2rcd13ifvqgvg","pricing_plan_id":"cebpf4jnsgd1na2vs0mg"},{"bike_id":"628c52ae-b897-4dca-953c-8475bb2941d3","system_id":"levelo_inurba_marseille","lat":43.21179,"lon":5.35041,"is_reserved":false,"is_disabled":false,"rental_uris":{"android":"levelo://app?vid=628c52ae-b897-4dca-953c-8475bb2941d3","ios":"levelo://app?vid=628c52ae-b897-4dca-953c-8475bb2941d3"},"vehicle_type_id":"4","last_reported":1747778979,"current_range_meters":17600,"station_id":"st_cvj6sg6p6f1abm77japg","pricing_plan_id":"cebpf4jnsgd1na2vs0mg"},{"bike_id":"798822ae-bb47-430f-bf7b-c059681a3cca","system_id":"levelo_inurba_marseille","lat":43.28694,"lon":5.37393,"is_reserved":false,"is_disabled":false,"rental_uris":{"android":"levelo://app?vid=798822ae-bb47-430f-bf7b-c059681a3cca","ios":"levelo://app?vid=798822ae-bb47-430f-bf7b-c059681a3cca"},"vehicle_type_id":"4","last_reported":1747778979,"current_range_meters":17600,"station_id":"ce4bh3p2rcd13ifvqdq0","pricing_plan_id":"cebpf4jnsgd1na2vs0mg"},{"bike_id":"d59764ed-1c25-4f14-8fb4-f9f5bdbcda8c","system_id":"levelo_inurba_marseille","lat":43.307873,"lon":5.381547,"is_reserved":false,"is_disabled":false,"rental_uris":{"android":"levelo://app?vid=d59764ed-1c25-4f14-8fb4-f9f5bdbcda8c","ios":"levelo://app?vid=d59764ed-1c25-4f14-8fb4-f9f5bdbcda8c"},"vehicle_type_id":"4","last_reported":1747778979,"current_range_meters":17600,"station_id":"ce4bgt12rcd13ifvqce0","pricing_plan_id":"cebpf4jnsgd1na2vs0mg"},{"bike_id":"c4f0ddbf-912f-4dc6-81b8-da7688e7978e","system_id":"levelo_inurba_marseille","lat":43.30807,"lon":5.43531,"is_reserved":false,"is_disabled":false,"rental_uris":{"android":"levelo://app?vid=c4f0ddbf-912f-4dc6-81b8-da7688e7978e","ios":"levelo://app?vid=c4f0ddbf-912f-4dc6-81b8-da7688e7978e"},"vehicle_type_id":"4","last_reported":1747778979,"current_range_meters":17600,"station_id":"ce4bhph2rcd13ifvqheg","pricing_plan_id":"cebpf4jnsgd1na2vs0mg"},{"bike_id":"511fe0c5-c8fb-4f63-8a00-d8b23c695b71","system_id":"levelo_inurba_marseille","lat":43.32433,"lon":5.428517,"is_reserved":false,"is_disabled":false,"rental_uris":{"android":"levelo://app?vid=511fe0c5-c8fb-4f63-8a00-d8b23c695b71","ios":"levelo://app?vid=511fe0c5-c8fb-4f63-8a00-d8b23c695b71"},"vehicle_type_id":"4","last_reported":1747778979,"current_range_meters":17600,"station_id":"","pricing_plan_id":"cebpf4jnsgd1na2vs0mg"},{"bike_id":"8660b6f6-b867-4559-bd28-88ff02eaa040","system_id":"levelo_inurba_marseille","lat":43.28735,"lon":5.36051,"is_reserved":false,"is_disabled":false,"rental_uris":{"android":"levelo://app?vid=8660b6f6-b867-4559-bd28-88ff02eaa040","ios":"levelo://app?vid=8660b6f6-b867-4559-bd28-88ff02eaa040"},"vehicle_type_id":"4","last_reported":1747778979,"current_range_meters":17600,"station_id":"cki0cbj6b192h4jlfktg","pricing_plan_id":"cebpf4jnsgd1na2vs0mg"},{"bike_id":"4c089b95-2d11-4e2f-9116-90d4de4101ea","system_id":"levelo_inurba_marseille","lat":43.29993,"lon":5.37373,"is_reserved":false,"is_disabled":false,"rental_uris":{"android":"levelo://app?vid=4c089b95-2d11-4e2f-9116-90d4de4101ea","ios":"levelo://app?vid=4c089b95-2d11-4e2f-9116-90d4de4101ea"},"vehicle_type_id":"4","last_reported":1747778979,"current_range_meters":17600,"station_id":"","pricing_plan_id":"cebpf4jnsgd1na2vs0mg"},{"bike_id":"05ee309d-ea32-460a-abec-d7dc6500781d","system_id":"levelo_inurba_marseille","lat":43.28941,"lon":5.36597,"is_reserved":false,"is_disabled":false,"rental_uris":{"android":"levelo://app?vid=05ee309d-ea32-460a-abec-d7dc6500781d","ios":"levelo://app?vid=05ee309d-ea32-460a-abec-d7dc6500781d"},"vehicle_type_id":"4","last_reported":1747778979,"current_range_meters":17600,"station_id":"ce4bhap2rcd13ifvqek0","pricing_plan_id":"cebpf4jnsgd1na2vs0mg"},{"bike_id":"dc46b6f4-159d-4884-a812-348e3c927471","system_id":"levelo_inurba_marseille","lat":43.25822,"lon":5.39427,"is_reserved":false,"is_disabled":false,"rental_uris":{"android":"levelo://app?vid=dc46b6f4-159d-4884-a812-348e3c927471","ios":"levelo://app?vid=dc46b6f4-159d-4884-a812-348e3c927471"},"vehicle_type_id":"4","last_reported":1747778979,"current_range_meters":18000,"station_id":"ce4bhip2rcd13ifvqft0","pricing_plan_id":"cebpf4jnsgd1na2vs0mg"},{"bike_id":"8f494aca-376e-425c-81d1-88a10948189b","system_id":"levelo_inurba_marseille","lat":43.26824,"lon":5.4025,"is_reserved":false,"is_disabled":false,"rental_uris":{"android":"levelo://app?vid=8f494aca-376e-425c-81d1-88a10948189b","ios":"levelo://app?vid=8f494aca-376e-425c-81d1-88a10948189b"},"vehicle_type_id":"4","last_reported":1747778979,"current_range_meters":18000,"station_id":"ce501612rcd8frsf0b60","pricing_plan_id":"cebpf4jnsgd1na2vs0mg"},{"bike_id":"230c268f-69d1-4b4c-ba03-463d6c764e64","system_id":"levelo_inurba_marseille","lat":43.26556,"lon":5.37294,"is_reserved":false,"is_disabled":false,"rental_uris":{"android":"levelo://app?vid=230c268f-69d1-4b4c-ba03-463d6c764e64","ios":"levelo://app?vid=230c268f-69d1-4b4c-ba03-463d6c764e64"},"vehicle_type_id":"4","last_reported":1747778979,"current_range_meters":18000,"station_id":"ce4bhg12rcd13ifvqf70","pricing_plan_id":"cebpf4jnsgd1na2vs0mg"},{"bike_id":"c9a00e74-029a-454e-8e85-1b3d994b9d78","system_id":"levelo_inurba_marseille","lat":43.211936,"lon":5.350742,"is_reserved":false,"is_disabled":false,"rental_uris":{"android":"levelo://app?vid=c9a00e74-029a-454e-8e85-1b3d994b9d78","ios":"levelo://app?vid=c9a00e74-029a-454e-8e85-1b3d994b9d78"},"vehicle_type_id":"4","last_reported":1747778979,"current_range_meters":18000,"station_id":"st_cvj6sg6p6f1abm77japg","pricing_plan_id":"cebpf4jnsgd1na2vs0mg"},{"bike_id":"ac54cb9d-c717-4084-9363-e0498a0029df","system_id":"levelo_inurba_marseille","lat":43.27938,"lon":5.41041,"is_reserved":false,"is_disabled":false,"rental_uris":{"android":"levelo://app?vid=ac54cb9d-c717-4084-9363-e0498a0029df","ios":"levelo://app?vid=ac54cb9d-c717-4084-9363-e0498a0029df"},"vehicle_type_id":"4","last_reported":1747778979,"current_range_meters":18000,"station_id":"ce4bhnp2rcd13ifvqh0g","pricing_plan_id":"cebpf4jnsgd1na2vs0mg"},{"bike_id":"8bb7d43c-e583-40c0-9a6a-a2f0c4f03243","system_id":"levelo_inurba_marseille","lat":43.29257,"lon":5.40904,"is_reserved":false,"is_disabled":false,"rental_uris":{"android":"levelo://app?vid=8bb7d43c-e583-40c0-9a6a-a2f0c4f03243","ios":"levelo://app?vid=8bb7d43c-e583-40c0-9a6a-a2f0c4f03243"},"vehicle_type_id":"4","last_reported":1747778979,"current_range_meters":18000,"station_id":"ce4bh192rcd13ifvqdc0","pricing_plan_id":"cebpf4jnsgd1na2vs0mg"},{"bike_id":"0d9733c9-e89c-4b51-8a90-a34035ee9378","system_id":"levelo_inurba_marseille","lat":43.28942,"lon":5.36394,"is_reserved":false,"is_disabled":false,"rental_uris":{"android":"levelo://app?vid=0d9733c9-e89c-4b51-8a90-a34035ee9378","ios":"levelo://app?vid=0d9733c9-e89c-4b51-8a90-a34035ee9378"},"vehicle_type_id":"4","last_reported":1747778979,"current_range_meters":18000,"station_id":"ce4bhc92rcd13ifvqetg","pricing_plan_id":"cebpf4jnsgd1na2vs0mg"},{"bike_id":"2505f6aa-e9e7-4e65-aa21-02355f5557a5","system_id":"levelo_inurba_marseille","lat":43.28862,"lon":5.39282,"is_reserved":false,"is_disabled":false,"rental_uris":{"android":"levelo://app?vid=2505f6aa-e9e7-4e65-aa21-02355f5557a5","ios":"levelo://app?vid=2505f6aa-e9e7-4e65-aa21-02355f5557a5"},"vehicle_type_id":"4","last_reported":1747778979,"current_range_meters":18000,"station_id":"ce4bh2p2rcd13ifvqdi0","pricing_plan_id":"cebpf4jnsgd1na2vs0mg"},{"bike_id":"a9fbf2cb-3696-4a3d-b4c4-b44de924bb0f","system_id":"levelo_inurba_marseille","lat":43.29036,"lon":5.39951,"is_reserved":false,"is_disabled":false,"rental_uris":{"android":"levelo://app?vid=a9fbf2cb-3696-4a3d-b4c4-b44de924bb0f","ios":"levelo://app?vid=a9fbf2cb-3696-4a3d-b4c4-b44de924bb0f"},"vehicle_type_id":"4","last_reported":1747778979,"current_range_meters":18800,"station_id":"ce4bh392rcd13ifvqdm0","pricing_plan_id":"cebpf4jnsgd1na2vs0mg"},{"bike_id":"f54e3731-aafb-4523-ae80-4690a4c65d29","system_id":"levelo_inurba_marseille","lat":43.32336,"lon":5.40619,"is_reserved":false,"is_disabled":false,"rental_uris":{"android":"levelo://app?vid=f54e3731-aafb-4523-ae80-4690a4c65d29","ios":"levelo://app?vid=f54e3731-aafb-4523-ae80-4690a4c65d29"},"vehicle_type_id":"4","last_reported":1747778979,"current_range_meters":18800,"station_id":"ce4bhq92rcd13ifvqhjg","pricing_plan_id":"cebpf4jnsgd1na2vs0mg"},{"bike_id":"d2bec294-4343-4dfb-afc5-6ff1bb15187e","system_id":"levelo_inurba_marseille","lat":43.24071,"lon":5.37753,"is_reserved":false,"is_disabled":false,"rental_uris":{"android":"levelo://app?vid=d2bec294-4343-4dfb-afc5-6ff1bb15187e","ios":"levelo://app?vid=d2bec294-4343-4dfb-afc5-6ff1bb15187e"},"vehicle_type_id":"4","last_reported":1747778979,"current_range_meters":18800,"station_id":"ce4bhnp2rcd13ifvqgvg","pricing_plan_id":"cebpf4jnsgd1na2vs0mg"},{"bike_id":"1a091a66-2e68-4ded-9fc5-3d6f9e9f6f62","system_id":"levelo_inurba_marseille","lat":43.32113,"lon":5.36771,"is_reserved":false,"is_disabled":false,"rental_uris":{"android":"levelo://app?vid=1a091a66-2e68-4ded-9fc5-3d6f9e9f6f62","ios":"levelo://app?vid=1a091a66-2e68-4ded-9fc5-3d6f9e9f6f62"},"vehicle_type_id":"4","last_reported":1747778979,"current_range_meters":18800,"station_id":"ce4bhrh2rcd13ifvqhug","pricing_plan_id":"cebpf4jnsgd1na2vs0mg"},{"bike_id":"71d0c9e9-f7bb-42cc-8b43-b520d422f434","system_id":"levelo_inurba_marseille","lat":43.31178,"lon":5.38704,"is_reserved":false,"is_disabled":false,"rental_uris":{"android":"levelo://app?vid=71d0c9e9-f7bb-42cc-8b43-b520d422f434","ios":"levelo://app?vid=71d0c9e9-f7bb-42cc-8b43-b520d422f434"},"vehicle_type_id":"4","last_reported":1747778979,"current_range_meters":18800,"station_id":"ce4bgv12rcd13ifvqcp0","pricing_plan_id":"cebpf4jnsgd1na2vs0mg"},{"bike_id":"f77a6f3c-0b9c-4c42-bd55-bf7bc2d3d671","system_id":"levelo_inurba_marseille","lat":43.28935,"lon":5.36616,"is_reserved":false,"is_disabled":false,"rental_uris":{"android":"levelo://app?vid=f77a6f3c-0b9c-4c42-bd55-bf7bc2d3d671","ios":"levelo://app?vid=f77a6f3c-0b9c-4c42-bd55-bf7bc2d3d671"},"vehicle_type_id":"4","last_reported":1747778979,"current_range_meters":18800,"station_id":"ce4bhap2rcd13ifvqek0","pricing_plan_id":"cebpf4jnsgd1na2vs0mg"},{"bike_id":"ed11f8f9-2a2d-4592-809e-e655bba14632","system_id":"levelo_inurba_marseille","lat":43.21747,"lon":5.34607,"is_reserved":false,"is_disabled":false,"rental_uris":{"android":"levelo://app?vid=ed11f8f9-2a2d-4592-809e-e655bba14632","ios":"levelo://app?vid=ed11f8f9-2a2d-4592-809e-e655bba14632"},"vehicle_type_id":"4","last_reported":1747778979,"current_range_meters":18800,"station_id":"","pricing_plan_id":"cebpf4jnsgd1na2vs0mg"},{"bike_id":"2dd295c8-b87d-4299-b96c-e55573da576c","system_id":"levelo_inurba_marseille","lat":43.28657,"lon":5.36363,"is_reserved":false,"is_disabled":false,"rental_uris":{"android":"levelo://app?vid=2dd295c8-b87d-4299-b96c-e55573da576c","ios":"levelo://app?vid=2dd295c8-b87d-4299-b96c-e55573da576c"},"vehicle_type_id":"4","last_reported":1747778979,"current_range_meters":18800,"station_id":"ce4bhah2rcd13ifvqej0","pricing_plan_id":"cebpf4jnsgd1na2vs0mg"},{"bike_id":"2301dada-ecca-4817-acbd-5773d65f7c07","system_id":"levelo_inurba_marseille","lat":43.30533,"lon":5.38422,"is_reserved":false,"is_disabled":false,"rental_uris":{"android":"levelo://app?vid=2301dada-ecca-4817-acbd-5773d65f7c07","ios":"levelo://app?vid=2301dada-ecca-4817-acbd-5773d65f7c07"},"vehicle_type_id":"4","last_reported":1747778979,"current_range_meters":18800,"station_id":"ce4bgg92rcd13ifvqb30","pricing_plan_id":"cebpf4jnsgd1na2vs0mg"},{"bike_id":"3aa335f5-2337-417e-9923-07d4840feb44","system_id":"levelo_inurba_marseille","lat":43.28088,"lon":5.39673,"is_reserved":false,"is_disabled":false,"rental_uris":{"android":"levelo://app?vid=3aa335f5-2337-417e-9923-07d4840feb44","ios":"levelo://app?vid=3aa335f5-2337-417e-9923-07d4840feb44"},"vehicle_type_id":"4","last_reported":1747778979,"current_range_meters":18800,"station_id":"ce4bho12rcd13ifvqh2g","pricing_plan_id":"cebpf4jnsgd1na2vs0mg"},{"bike_id":"8d73d6ca-3eb7-472c-a55e-3d8c259578ec","system_id":"levelo_inurba_marseille","lat":43.294185,"lon":5.386031,"is_reserved":false,"is_disabled":true,"rental_uris":{"android":"levelo://app?vid=8d73d6ca-3eb7-472c-a55e-3d8c259578ec","ios":"levelo://app?vid=8d73d6ca-3eb7-472c-a55e-3d8c259578ec"},"vehicle_type_id":"4","last_reported":1747778979,"current_range_meters":19200,"station_id":"ce4bh2h2rcd13ifvqdh0","pricing_plan_id":"cebpf4jnsgd1na2vs0mg"},{"bike_id":"0769c9c1-8f68-46b2-bcff-7e548177af2c","system_id":"levelo_inurba_marseille","lat":43.24807,"lon":5.37462,"is_reserved":false,"is_disabled":false,"rental_uris":{"android":"levelo://app?vid=0769c9c1-8f68-46b2-bcff-7e548177af2c","ios":"levelo://app?vid=0769c9c1-8f68-46b2-bcff-7e548177af2c"},"vehicle_type_id":"4","last_reported":1747778979,"current_range_meters":19200,"station_id":"ce4bhgh2rcd13ifvqfb0","pricing_plan_id":"cebpf4jnsgd1na2vs0mg"},{"bike_id":"6b3ad624-ea0f-4ee7-b272-2fd23816538a","system_id":"levelo_inurba_marseille","lat":43.30527,"lon":5.38436,"is_reserved":false,"is_disabled":false,"rental_uris":{"android":"levelo://app?vid=6b3ad624-ea0f-4ee7-b272-2fd23816538a","ios":"levelo://app?vid=6b3ad624-ea0f-4ee7-b272-2fd23816538a"},"vehicle_type_id":"4","last_reported":1747778979,"current_range_meters":19200,"station_id":"ce4bgg92rcd13ifvqb30","pricing_plan_id":"cebpf4jnsgd1na2vs0mg"},{"bike_id":"96e5bca4-67a8-4017-9ad3-4289b183195a","system_id":"levelo_inurba_marseille","lat":43.292757,"lon":5.36839,"is_reserved":false,"is_disabled":true,"rental_uris":{"android":"levelo://app?vid=96e5bca4-67a8-4017-9ad3-4289b183195a","ios":"levelo://app?vid=96e5bca4-67a8-4017-9ad3-4289b183195a"},"vehicle_type_id":"4","last_reported":1747778979,"current_range_meters":19200,"station_id":"ce4bhbp2rcd13ifvqesg","pricing_plan_id":"cebpf4jnsgd1na2vs0mg"},{"bike_id":"4566dff8-e611-4624-bb8f-6d25e097d0ee","system_id":"levelo_inurba_marseille","lat":43.28666,"lon":5.3633,"is_reserved":false,"is_disabled":false,"rental_uris":{"android":"levelo://app?vid=4566dff8-e611-4624-bb8f-6d25e097d0ee","ios":"levelo://app?vid=4566dff8-e611-4624-bb8f-6d25e097d0ee"},"vehicle_type_id":"4","last_reported":1747778979,"current_range_meters":19200,"station_id":"ce4bhah2rcd13ifvqej0","pricing_plan_id":"cebpf4jnsgd1na2vs0mg"},{"bike_id":"bd898b60-6e26-4c9e-bf46-1eb378c1d8fd","system_id":"levelo_inurba_marseille","lat":43.31333,"lon":5.3968,"is_reserved":false,"is_disabled":true,"rental_uris":{"android":"levelo://app?vid=bd898b60-6e26-4c9e-bf46-1eb378c1d8fd","ios":"levelo://app?vid=bd898b60-6e26-4c9e-bf46-1eb378c1d8fd"},"vehicle_type_id":"4","last_reported":1747778979,"current_range_meters":19200,"station_id":"ce4bgvp2rcd13ifvqcu0","pricing_plan_id":"cebpf4jnsgd1na2vs0mg"},{"bike_id":"95acae5b-e878-4aa8-b30d-17cfd3633bc7","system_id":"levelo_inurba_marseille","lat":43.293646,"lon":5.378603,"is_reserved":false,"is_disabled":true,"rental_uris":{"android":"levelo://app?vid=95acae5b-e878-4aa8-b30d-17cfd3633bc7","ios":"levelo://app?vid=95acae5b-e878-4aa8-b30d-17cfd3633bc7"},"vehicle_type_id":"4","last_reported":1747778979,"current_range_meters":19200,"station_id":"ce4bgjh2rcd13ifvqbf0","pricing_plan_id":"cebpf4jnsgd1na2vs0mg"},{"bike_id":"f43a4d91-02d7-4c54-a20f-a602fc68da56","system_id":"levelo_inurba_marseille","lat":43.25097,"lon":5.39509,"is_reserved":false,"is_disabled":false,"rental_uris":{"android":"levelo://app?vid=f43a4d91-02d7-4c54-a20f-a602fc68da56","ios":"levelo://app?vid=f43a4d91-02d7-4c54-a20f-a602fc68da56"},"vehicle_type_id":"4","last_reported":1747778979,"current_range_meters":19200,"station_id":"ce4bhm12rcd13ifvqgkg","pricing_plan_id":"cebpf4jnsgd1na2vs0mg"},{"bike_id":"7d90a350-9521-4882-9d76-cb6428ee4bfe","system_id":"levelo_inurba_marseille","lat":43.28665,"lon":5.36347,"is_reserved":false,"is_disabled":false,"rental_uris":{"android":"levelo://app?vid=7d90a350-9521-4882-9d76-cb6428ee4bfe","ios":"levelo://app?vid=7d90a350-9521-4882-9d76-cb6428ee4bfe"},"vehicle_type_id":"4","last_reported":1747778979,"current_range_meters":19200,"station_id":"ce4bhah2rcd13ifvqej0","pricing_plan_id":"cebpf4jnsgd1na2vs0mg"},{"bike_id":"c6fd99f2-ffa0-4e0e-a3f8-d426f44a2662","system_id":"levelo_inurba_marseille","lat":43.28462,"lon":5.35874,"is_reserved":false,"is_disabled":false,"rental_uris":{"android":"levelo://app?vid=c6fd99f2-ffa0-4e0e-a3f8-d426f44a2662","ios":"levelo://app?vid=c6fd99f2-ffa0-4e0e-a3f8-d426f44a2662"},"vehicle_type_id":"4","last_reported":1747778979,"current_range_meters":19200,"station_id":"ce4bhah2rcd13ifvqei0","pricing_plan_id":"cebpf4jnsgd1na2vs0mg"},{"bike_id":"adbd2b3c-0096-401a-990c-6d612f2506b4","system_id":"levelo_inurba_marseille","lat":43.24807,"lon":5.3745,"is_reserved":false,"is_disabled":false,"rental_uris":{"android":"levelo://app?vid=adbd2b3c-0096-401a-990c-6d612f2506b4","ios":"levelo://app?vid=adbd2b3c-0096-401a-990c-6d612f2506b4"},"vehicle_type_id":"4","last_reported":1747778979,"current_range_meters":19200,"station_id":"ce4bhgh2rcd13ifvqfb0","pricing_plan_id":"cebpf4jnsgd1na2vs0mg"},{"bike_id":"c4b013ba-bb5d-46c2-95bd-626d708e7e04","system_id":"levelo_inurba_marseille","lat":43.268024,"lon":5.402666,"is_reserved":false,"is_disabled":true,"rental_uris":{"android":"levelo://app?vid=c4b013ba-bb5d-46c2-95bd-626d708e7e04","ios":"levelo://app?vid=c4b013ba-bb5d-46c2-95bd-626d708e7e04"},