{"last_updated":1753121824,"ttl":60,"version":"2.2","data":{"bikes":[{"bike_id":"53b742a7-31ae-4272-9bba-7740339e2a2f","system_id":"levelo_inurba_marseille","lat":43.33747,"lon":5.37463,"is_reserved":false,"is_disabled":false,"rental_uris":{"android":"levelo://app?vid=53b742a7-31ae-4272-9bba-7740339e2a2f","ios":"levelo://app?vid=53b742a7-31ae-4272-9bba-7740339e2a2f"},"vehicle_type_id":"1","last_reported":1753121824,"current_range_meters":5600,"station_id":"","pricing_plan_id":"cebpf4jnsgd1na2vs0mg"},{"bike_id":"ac141403-2eff-454e-8bd1-3d400d40ed2b","system_id":"levelo_inurba_marseille","lat":43.33122,"lon":5.40001,"is_reserved":false,"is_disabled":false,"rental_uris":{"android":"levelo://app?vid=ac141403-2eff-454e-8bd1-3d400d40ed2b","ios":"levelo://app?vid=ac141403-2eff-454e-8bd1-3d400d40ed2b"},"vehicle_type_id":"4","last_reported":1753121824,"current_range_meters":2800,"station_id":"","pricing_plan_id":"cebpf4jnsgd1na2vs0mg"},{"bike_id":"c46ecfd4-070e-434a-a707-c52254efdf59","system_id":"levelo_inurba_marseille","lat":43.275982,"lon":5.360931,"is_reserved":false,"is_disabled":false,"rental_uris":{"android":"levelo://app?vid=c46ecfd4-070e-434a-a707-c52254efdf59","ios":"levelo://app?vid=c46ecfd4-070e-434a-a707-c52254efdf59"},"vehicle_type_id":"4","last_reported":1753121824,"current_range_meters":2800,"station_id":"ce4bgj92rcd13ifvqbe0","pricing_plan_id":"cebpf4jnsgd1na2vs0mg"},{"bike_id":"192c0fa5-c826-4847-bdd0-11edb7180ff9","system_id":"levelo_inurba_marseille","lat":43.30688,"lon":5.40066,"is_reserved":false,"is_disabled":true,"rental_uris":{"android":"levelo://app?vid=192c0fa5-c826-4847-bdd0-11edb7180ff9","ios":"levelo://app?vid=192c0fa5-c826-4847-bdd0-11edb7180ff9"},"vehicle_type_id":"4","last_reported":1753121824,"current_range_meters":2800,"station_id":"ce4bh112rcd13ifvqda0","pricing_plan_id":"cebpf4jnsgd1na2vs0mg"},{"bike_id":"370608ca-b180-4285-b747-c4fd650d0ea5","system_id":"levelo_inurba_marseille","lat":43.288773,"lon":5.395018,"is_reserved":false,"is_disabled":false,"rental_uris":{"android":"levelo://app?vid=370608ca-b180-4285-b747-c4fd650d0ea5","ios":"levelo://app?vid=370608ca-b180-4285-b747-c4fd650d0ea5"},"vehicle_type_id":"4","last_reported":1753121824,"current_range_meters":2800,"station_id":"ce4bh3h2rcd13ifvqdo0","pricing_plan_id":"cebpf4jnsgd1na2vs0mg"},{"bike_id":"433415c1-acea-4306-b3ad-c55437db8988","system_id":"levelo_inurba_marseille","lat":43.29497,"lon":5.38187,"is_reserved":false,"is_disabled":false,"rental_uris":{"android":"levelo://app?vid=433415c1-acea-4306-b3ad-c55437db8988","ios":"levelo://app?vid=433415c1-acea-4306-b3ad-c55437db8988"},"vehicle_type_id":"4","last_reported":1753121824,"current_range_meters":3200,"station_id":"","pricing_plan_id":"cebpf4jnsgd1na2vs0mg"},{"bike_id":"b26580ba-0c86-43d4-9e51-37b9bfdd272b","system_id":"levelo_inurba_marseille","lat":43.28266,"lon":5.35058,"is_reserved":false,"is_disabled":false,"rental_uris":{"android":"levelo://app?vid=b26580ba-0c86-43d4-9e51-37b9bfdd272b","ios":"levelo://app?vid=b26580ba-0c86-43d4-9e51-37b9bfdd272b"},"vehicle_type_id":"4","last_reported":1753121824,"current_range_meters":3200,"station_id":"ce4bhbp2rcd13ifvqerg","pricing_plan_id":"cebpf4jnsgd1na2vs0mg"},{"bike_id":"b62c7631-d2d7-4d84-9bda-b18b3d8bf1ad","system_id":"levelo_inurba_marseille","lat":43.25865,"lon":5.39895,"is_reserved":false,"is_disabled":false,"rental_uris":{"android":"levelo://app?vid=b62c7631-d2d7-4d84-9bda-b18b3d8bf1ad","ios":"levelo://app?vid=b62c7631-d2d7-4d84-9bda-b18b3d8bf1ad"},"vehicle_type_id":"4","last_reported":1753121824,"current_range_meters":3200,"station_id":"ce4bhl92rcd13ifvqghg","pricing_plan_id":"cebpf4jnsgd1na2vs0mg"},{"bike_id":"8cd8bd1b-bf35-4605-aed0-c9f57abf83ff","system_id":"levelo_inurba_marseille","lat":43.29983,"lon":5.37162,"is_reserved":false,"is_disabled":false,"rental_uris":{"android":"levelo://app?vid=8cd8bd1b-bf35-4605-aed0-c9f57abf83ff","ios":"levelo://app?vid=8cd8bd1b-bf35-4605-aed0-c9f57abf83ff"},"vehicle_type_id":"4","last_reported":1753121824,"current_range_meters":3200,"station_id":"ce4bgr92rcd13ifvqc7g","pricing_plan_id":"cebpf4jnsgd1na2vs0mg"},{"bike_id":"cfd8709c-763a-4ab9-89e4-b333b69d84c3","system_id":"levelo_inurba_marseille","lat":43.292713,"lon":5.368452,"is_reserved":false,"is_disabled":false,"rental_uris":{"android":"levelo://app?vid=cfd8709c-763a-4ab9-89e4-b333b69d84c3","ios":"levelo://app?vid=cfd8709c-763a-4ab9-89e4-b333b69d84c3"},"vehicle_type_id":"4","last_reported":1753121824,"current_range_meters":3600,"station_id":"ce4bhbp2rcd13ifvqesg","pricing_plan_id":"cebpf4jnsgd1na2vs0mg"},{"bike_id":"bff32c32-8ef0-4e19-b5e9-a29472ab5c80","system_id":"levelo_inurba_marseille","lat":43.297974,"lon":5.380994,"is_reserved":false,"is_disabled":false,"rental_uris":{"android":"levelo://app?vid=bff32c32-8ef0-4e19-b5e9-a29472ab5c80","ios":"levelo://app?vid=bff32c32-8ef0-4e19-b5e9-a29472ab5c80"},"vehicle_type_id":"4","last_reported":1753121824,"current_range_meters":3600,"station_id":"ce4bgip2rcd13ifvqbb0","pricing_plan_id":"cebpf4jnsgd1na2vs0mg"},{"bike_id":"1333b6b8-4f1c-41d4-9e56-a0f26552e4a3","system_id":"levelo_inurba_marseille","lat":43.30243,"lon":5.4009,"is_reserved":false,"is_disabled":false,"rental_uris":{"android":"levelo://app?vid=1333b6b8-4f1c-41d4-9e56-a0f26552e4a3","ios":"levelo://app?vid=1333b6b8-4f1c-41d4-9e56-a0f26552e4a3"},"vehicle_type_id":"4","last_reported":1753121824,"current_range_meters":3600,"station_id":"ce4bgvh2rcd13ifvqcs0","pricing_plan_id":"cebpf4jnsgd1na2vs0mg"},{"bike_id":"15b9693a-22b8-4d5b-85f4-e602f83c5c8d","system_id":"levelo_inurba_marseille","lat":43.25728,"lon":5.41108,"is_reserved":false,"is_disabled":false,"rental_uris":{"android":"levelo://app?vid=15b9693a-22b8-4d5b-85f4-e602f83c5c8d","ios":"levelo://app?vid=15b9693a-22b8-4d5b-85f4-e602f83c5c8d"},"vehicle_type_id":"4","last_reported":1753121824,"current_range_meters":4000,"station_id":"ce4bhkp2rcd13ifvqgd0","pricing_plan_id":"cebpf4jnsgd1na2vs0mg"},{"bike_id":"0fd02cf6-67fb-4589-807f-241dd50b7e1a","system_id":"levelo_inurba_marseille","lat":43.29902,"lon":5.43677,"is_reserved":false,"is_disabled":true,"rental_uris":{"android":"levelo://app?vid=0fd02cf6-67fb-4589-807f-241dd50b7e1a","ios":"levelo://app?vid=0fd02cf6-67fb-4589-807f-241dd50b7e1a"},"vehicle_type_id":"4","last_reported":1753121824,"current_range_meters":4400,"station_id":"ce4bhpp2rcd13ifvqhfg","pricing_plan_id":"cebpf4jnsgd1na2vs0mg"},{"bike_id":"9a72b89a-5f15-476f-ab8d-9b6370bfe9a2","system_id":"levelo_inurba_marseille","lat":43.32111,"lon":5.3677,"is_reserved":false,"is_disabled":false,"rental_uris":{"android":"levelo://app?vid=9a72b89a-5f15-476f-ab8d-9b6370bfe9a2","ios":"levelo://app?vid=9a72b89a-5f15-476f-ab8d-9b6370bfe9a2"},"vehicle_type_id":"4","last_reported":1753121824,"current_range_meters":4800,"station_id":"ce4bhrh2rcd13ifvqhug","pricing_plan_id":"cebpf4jnsgd1na2vs0mg"},{"bike_id":"3b6ac1c4-c481-40cc-a069-50a0d16493ac","system_id":"levelo_inurba_marseille","lat":43.29226,"lon":5.36072,"is_reserved":false,"is_disabled":false,"rental_uris":{"android":"levelo://app?vid=3b6ac1c4-c481-40cc-a069-50a0d16493ac","ios":"levelo://app?vid=3b6ac1c4-c481-40cc-a069-50a0d16493ac"},"vehicle_type_id":"4","last_reported":1753121824,"current_range_meters":4400,"station_id":"ce4bhbh2rcd13ifvqeqg","pricing_plan_id":"cebpf4jnsgd1na2vs0mg"},{"bike_id":"82a225ee-4a15-4cbf-b361-80abad8a8b3d","system_id":"levelo_inurba_marseille","lat":43.27573,"lon":5.38421,"is_reserved":false,"is_disabled":false,"rental_uris":{"android":"levelo://app?vid=82a225ee-4a15-4cbf-b361-80abad8a8b3d","ios":"levelo://app?vid=82a225ee-4a15-4cbf-b361-80abad8a8b3d"},"vehicle_type_id":"4","last_reported":1753121824,"current_range_meters":5600,"station_id":"ce4bhh92rcd13ifvqfi0","pricing_plan_id":"cebpf4jnsgd1na2vs0mg"},{"bike_id":"1e72c221-edd4-4b04-a8c9-5b22f243e679","system_id":"levelo_inurba_marseille","lat":43.3372,"lon":5.3918,"is_reserved":false,"is_disabled":false,"rental_uris":{"android":"levelo://app?vid=1e72c221-edd4-4b04-a8c9-5b22f243e679","ios":"levelo://app?vid=1e72c221-edd4-4b04-a8c9-5b22f243e679"},"vehicle_type_id":"4","last_reported":1753121824,"current_range_meters":4800,"station_id":"ce4bhr92rcd13ifvqhsg","pricing_plan_id":"cebpf4jnsgd1na2vs0mg"},{"bike_id":"ed415a14-b4b4-4caf-8a06-7fd1c907bac5","system_id":"levelo_inurba_marseille","lat":43.21525,"lon":5.34615,"is_reserved":false,"is_disabled":false,"rental_uris":{"android":"levelo://app?vid=ed415a14-b4b4-4caf-8a06-7fd1c907bac5","ios":"levelo://app?vid=ed415a14-b4b4-4caf-8a06-7fd1c907bac5"},"vehicle_type_id":"4","last_reported":1753121824,"current_range_meters":6000,"station_id":"","pricing_plan_id":"cebpf4jnsgd1na2vs0mg"},{"bike_id":"50126d66-92d3-4d92-81aa-88fae1921df8","system_id":"levelo_inurba_marseille","lat":43.28263,"lon":5.35059,"is_reserved":false,"is_disabled":false,"rental_uris":{"android":"levelo://app?vid=50126d66-92d3-4d92-81aa-88fae1921df8","ios":"levelo://app?vid=50126d66-92d3-4d92-81aa-88fae1921df8"},"vehicle_type_id":"4","last_reported":1753121824,"current_range_meters":6000,"station_id":"ce4bhbp2rcd13ifvqerg","pricing_plan_id":"cebpf4jnsgd1na2vs0mg"},{"bike_id":"8089f16a-82c4-4985-b277-f41a0776bfef","system_id":"levelo_inurba_marseille","lat":43.27383,"lon":5.3625,"is_reserved":false,"is_disabled":false,"rental_uris":{"android":"levelo://app?vid=8089f16a-82c4-4985-b277-f41a0776bfef","ios":"levelo://app?vid=8089f16a-82c4-4985-b277-f41a0776bfef"},"vehicle_type_id":"4","last_reported":1753121824,"current_range_meters":6000,"station_id":"ce4bhbh2rcd13ifvqeo0","pricing_plan_id":"cebpf4jnsgd1na2vs0mg"},{"bike_id":"94b9da24-f6a5-49db-a467-f3eebe585409","system_id":"levelo_inurba_marseille","lat":43.312732,"lon":5.401543,"is_reserved":false,"is_disabled":false,"rental_uris":{"android":"levelo://app?vid=94b9da24-f6a5-49db-a467-f3eebe585409","ios":"levelo://app?vid=94b9da24-f6a5-49db-a467-f3eebe585409"},"vehicle_type_id":"4","last_reported":1753121824,"current_range_meters":6000,"station_id":"ce4bh092rcd13ifvqd30","pricing_plan_id":"cebpf4jnsgd1na2vs0mg"},{"bike_id":"d92d5f96-b863-4f9e-b8d8-82281774848f","system_id":"levelo_inurba_marseille","lat":43.27059,"lon":5.40257,"is_reserved":false,"is_disabled":false,"rental_uris":{"android":"levelo://app?vid=d92d5f96-b863-4f9e-b8d8-82281774848f","ios":"levelo://app?vid=d92d5f96-b863-4f9e-b8d8-82281774848f"},"vehicle_type_id":"4","last_reported":1753121824,"current_range_meters":6000,"station_id":"ce4bhk92rcd13ifvqgc0","pricing_plan_id":"cebpf4jnsgd1na2vs0mg"},{"bike_id":"736c363b-3641-43dd-b890-bd43d8fd5283","system_id":"levelo_inurba_marseille","lat":43.33768,"lon":5.37475,"is_reserved":false,"is_disabled":false,"rental_uris":{"android":"levelo://app?vid=736c363b-3641-43dd-b890-bd43d8fd5283","ios":"levelo://app?vid=736c363b-3641-43dd-b890-bd43d8fd5283"},"vehicle_type_id":"4","last_reported":1753121824,"current_range_meters":6400,"station_id":"","pricing_plan_id":"cebpf4jnsgd1na2vs0mg"},{"bike_id":"a6de290b-5c15-427b-bc37-8301607e1735","system_id":"levelo_inurba_marseille","lat":43.337725,"lon":5.374294,"is_reserved":false,"is_disabled":false,"rental_uris":{"android":"levelo://app?vid=a6de290b-5c15-427b-bc37-8301607e1735","ios":"levelo://app?vid=a6de290b-5c15-427b-bc37-8301607e1735"},"vehicle_type_id":"4","last_reported":1753121824,"current_range_meters":6400,"station_id":"","pricing_plan_id":"cebpf4jnsgd1na2vs0mg"},{"bike_id":"4c249499-e986-4b2b-8773-fc2f29dbbfbd","system_id":"levelo_inurba_marseille","lat":43.28998,"lon":5.35607,"is_reserved":false,"is_disabled":false,"rental_uris":{"android":"levelo://app?vid=4c249499-e986-4b2b-8773-fc2f29dbbfbd","ios":"levelo://app?vid=4c249499-e986-4b2b-8773-fc2f29dbbfbd"},"vehicle_type_id":"4","last_reported":1753121824,"current_range_meters":7200,"station_id":"ce4bhb92rcd13ifvqen0","pricing_plan_id":"cebpf4jnsgd1na2vs0mg"},{"bike_id":"92c770cf-4ee3-4d92-9927-ba9972fc56c4","system_id":"levelo_inurba_marseille","lat":43.28435,"lon":5.39202,"is_reserved":false,"is_disabled":false,"rental_uris":{"android":"levelo://app?vid=92c770cf-4ee3-4d92-9927-ba9972fc56c4","ios":"levelo://app?vid=92c770cf-4ee3-4d92-9927-ba9972fc56c4"},"vehicle_type_id":"4","last_reported":1753121824,"current_range_meters":6800,"station_id":"ce4bhoh2rcd13ifvqh5g","pricing_plan_id":"cebpf4jnsgd1na2vs0mg"},{"bike_id":"84133b2c-54f7-40c0-9db6-ff896dc83184","system_id":"levelo_inurba_marseille","lat":43.3012,"lon":5.39876,"is_reserved":false,"is_disabled":true,"rental_uris":{"android":"levelo://app?vid=84133b2c-54f7-40c0-9db6-ff896dc83184","ios":"levelo://app?vid=84133b2c-54f7-40c0-9db6-ff896dc83184"},"vehicle_type_id":"4","last_reported":1753121824,"current_range_meters":6800,"station_id":"ce4bh0h2rcd13ifvqd40","pricing_plan_id":"cebpf4jnsgd1na2vs0mg"},{"bike_id":"e0970957-01ab-48d1-a9c0-d8f89b64ae56","system_id":"levelo_inurba_marseille","lat":43.27374,"lon":5.36244,"is_reserved":false,"is_disabled":true,"rental_uris":{"android":"levelo://app?vid=e0970957-01ab-48d1-a9c0-d8f89b64ae56","ios":"levelo://app?vid=e0970957-01ab-48d1-a9c0-d8f89b64ae56"},"vehicle_type_id":"4","last_reported":1753121824,"current_range_meters":6800,"station_id":"ce4bhbh2rcd13ifvqeo0","pricing_plan_id":"cebpf4jnsgd1na2vs0mg"},{"bike_id":"d0c38436-9d6b-4601-ab4a-22b98e4bc42e","system_id":"levelo_inurba_marseille","lat":43.265657,"lon":5.39014,"is_reserved":false,"is_disabled":false,"rental_uris":{"android":"levelo://app?vid=d0c38436-9d6b-4601-ab4a-22b98e4bc42e","ios":"levelo://app?vid=d0c38436-9d6b-4601-ab4a-22b98e4bc42e"},"vehicle_type_id":"4","last_reported":1753121824,"current_range_meters":6800,"station_id":"","pricing_plan_id":"cebpf4jnsgd1na2vs0mg"},{"bike_id":"6f2182d8-f622-4e54-bc9a-bdf7953e121e","system_id":"levelo_inurba_marseille","lat":43.28408,"lon":5.34975,"is_reserved":false,"is_disabled":false,"rental_uris":{"android":"levelo://app?vid=6f2182d8-f622-4e54-bc9a-bdf7953e121e","ios":"levelo://app?vid=6f2182d8-f622-4e54-bc9a-bdf7953e121e"},"vehicle_type_id":"4","last_reported":1753121824,"current_range_meters":6800,"station_id":"ce4bhbh2rcd13ifvqepg","pricing_plan_id":"cebpf4jnsgd1na2vs0mg"},{"bike_id":"51f7c33e-325e-4a73-ab66-bf71aec4d6c6","system_id":"levelo_inurba_marseille","lat":43.27077,"lon":5.4225,"is_reserved":false,"is_disabled":false,"rental_uris":{"android":"levelo://app?vid=51f7c33e-325e-4a73-ab66-bf71aec4d6c6","ios":"levelo://app?vid=51f7c33e-325e-4a73-ab66-bf71aec4d6c6"},"vehicle_type_id":"4","last_reported":1753121824,"current_range_meters":6800,"station_id":"ce4bhk92rcd13ifvqgb0","pricing_plan_id":"cebpf4jnsgd1na2vs0mg"},{"bike_id":"f18952d9-de72-4b00-ac50-ca46d1bc16b9","system_id":"levelo_inurba_marseille","lat":43.21188,"lon":5.35073,"is_reserved":false,"is_disabled":false,"rental_uris":{"android":"levelo://app?vid=f18952d9-de72-4b00-ac50-ca46d1bc16b9","ios":"levelo://app?vid=f18952d9-de72-4b00-ac50-ca46d1bc16b9"},"vehicle_type_id":"4","last_reported":1753121824,"current_range_meters":6800,"station_id":"st_cvj6sg6p6f1abm77japg","pricing_plan_id":"cebpf4jnsgd1na2vs0mg"},{"bike_id":"64053951-11ab-4c5b-afcd-bee1a35f84be","system_id":"levelo_inurba_marseille","lat":43.29191,"lon":5.35789,"is_reserved":false,"is_disabled":true,"rental_uris":{"android":"levelo://app?vid=64053951-11ab-4c5b-afcd-bee1a35f84be","ios":"levelo://app?vid=64053951-11ab-4c5b-afcd-bee1a35f84be"},"vehicle_type_id":"4","last_reported":1753121824,"current_range_meters":6800,"station_id":"ce4bhb12rcd13ifvqel0","pricing_plan_id":"cebpf4jnsgd1na2vs0mg"},{"bike_id":"ef5c1446-37bd-4830-b7b0-ea420576a56f","system_id":"levelo_inurba_marseille","lat":43.2681,"lon":5.40244,"is_reserved":false,"is_disabled":true,"rental_uris":{"android":"levelo://app?vid=ef5c1446-37bd-4830-b7b0-ea420576a56f","ios":"levelo://app?vid=ef5c1446-37bd-4830-b7b0-ea420576a56f"},"vehicle_type_id":"4","last_reported":1753121824,"current_range_meters":6800,"station_id":"ce501612rcd8frsf0b60","pricing_plan_id":"cebpf4jnsgd1na2vs0mg"},{"bike_id":"565e9de8-0866-499c-8f49-8a1c55ec2b4c","system_id":"levelo_inurba_marseille","lat":43.26956,"lon":5.38633,"is_reserved":false,"is_disabled":false,"rental_uris":{"android":"levelo://app?vid=565e9de8-0866-499c-8f49-8a1c55ec2b4c","ios":"levelo://app?vid=565e9de8-0866-499c-8f49-8a1c55ec2b4c"},"vehicle_type_id":"4","last_reported":1753121824,"current_range_meters":6400,"station_id":"ce4bhh92rcd13ifvqfh0","pricing_plan_id":"cebpf4jnsgd1na2vs0mg"},{"bike_id":"a36d5c65-e699-44f0-a6a7-133cf3de0e56","system_id":"levelo_inurba_marseille","lat":43.299385,"lon":5.365578,"is_reserved":false,"is_disabled":false,"rental_uris":{"android":"levelo://app?vid=a36d5c65-e699-44f0-a6a7-133cf3de0e56","ios":"levelo://app?vid=a36d5c65-e699-44f0-a6a7-133cf3de0e56"},"vehicle_type_id":"4","last_reported":1753121824,"current_range_meters":6800,"station_id":"ce4bgn12rcd13ifvqbt0","pricing_plan_id":"cebpf4jnsgd1na2vs0mg"},{"bike_id":"d1006dbf-4e53-4e14-a2e3-d7b25017f7ee","system_id":"levelo_inurba_marseille","lat":43.29021,"lon":5.3813,"is_reserved":false,"is_disabled":false,"rental_uris":{"android":"levelo://app?vid=d1006dbf-4e53-4e14-a2e3-d7b25017f7ee","ios":"levelo://app?vid=d1006dbf-4e53-4e14-a2e3-d7b25017f7ee"},"vehicle_type_id":"4","last_reported":1753121824,"current_range_meters":7200,"station_id":"ce4bh4p2rcd13ifvqe1g","pricing_plan_id":"cebpf4jnsgd1na2vs0mg"},{"bike_id":"8dd46ee5-1b2a-4b1a-836e-e30443cd41ca","system_id":"levelo_inurba_marseille","lat":43.28258,"lon":5.35063,"is_reserved":false,"is_disabled":false,"rental_uris":{"android":"levelo://app?vid=8dd46ee5-1b2a-4b1a-836e-e30443cd41ca","ios":"levelo://app?vid=8dd46ee5-1b2a-4b1a-836e-e30443cd41ca"},"vehicle_type_id":"4","last_reported":1753121824,"current_range_meters":7200,"station_id":"ce4bhbp2rcd13ifvqerg","pricing_plan_id":"cebpf4jnsgd1na2vs0mg"},{"bike_id":"be93d7cf-cda4-4e71-b1da-c0025aeb91c9","system_id":"levelo_inurba_marseille","lat":43.31485,"lon":5.37316,"is_reserved":false,"is_disabled":false,"rental_uris":{"android":"levelo://app?vid=be93d7cf-cda4-4e71-b1da-c0025aeb91c9","ios":"levelo://app?vid=be93d7cf-cda4-4e71-b1da-c0025aeb91c9"},"vehicle_type_id":"4","last_reported":1753121824,"current_range_meters":7200,"station_id":"ce4bgt12rcd13ifvqcd0","pricing_plan_id":"cebpf4jnsgd1na2vs0mg"},{"bike_id":"15d5309f-7bc6-475e-892b-405593549f1d","system_id":"levelo_inurba_marseille","lat":43.29533,"lon":5.38536,"is_reserved":false,"is_disabled":false,"rental_uris":{"android":"levelo://app?vid=15d5309f-7bc6-475e-892b-405593549f1d","ios":"levelo://app?vid=15d5309f-7bc6-475e-892b-405593549f1d"},"vehicle_type_id":"4","last_reported":1753121824,"current_range_meters":7200,"station_id":"ce4bgih2rcd13ifvqba0","pricing_plan_id":"cebpf4jnsgd1na2vs0mg"},{"bike_id":"58fc6d9f-6b8a-4d72-903e-28afb1e1a6e7","system_id":"levelo_inurba_marseille","lat":43.27811,"lon":5.40719,"is_reserved":false,"is_disabled":false,"rental_uris":{"android":"levelo://app?vid=58fc6d9f-6b8a-4d72-903e-28afb1e1a6e7","ios":"levelo://app?vid=58fc6d9f-6b8a-4d72-903e-28afb1e1a6e7"},"vehicle_type_id":"4","last_reported":1753121824,"current_range_meters":7200,"station_id":"ce4bhnh2rcd13ifvqgtg","pricing_plan_id":"cebpf4jnsgd1na2vs0mg"},{"bike_id":"a56be944-d126-401a-8ca6-f5d96d1e488c","system_id":"levelo_inurba_marseille","lat":43.25727,"lon":5.41112,"is_reserved":false,"is_disabled":false,"rental_uris":{"android":"levelo://app?vid=a56be944-d126-401a-8ca6-f5d96d1e488c","ios":"levelo://app?vid=a56be944-d126-401a-8ca6-f5d96d1e488c"},"vehicle_type_id":"4","last_reported":1753121824,"current_range_meters":7200,"station_id":"ce4bhkp2rcd13ifvqgd0","pricing_plan_id":"cebpf4jnsgd1na2vs0mg"},{"bike_id":"165fe8e4-79a3-43d9-bbfa-be79f6a1074d","system_id":"levelo_inurba_marseille","lat":43.30944,"lon":5.39032,"is_reserved":false,"is_disabled":false,"rental_uris":{"android":"levelo://app?vid=165fe8e4-79a3-43d9-bbfa-be79f6a1074d","ios":"levelo://app?vid=165fe8e4-79a3-43d9-bbfa-be79f6a1074d"},"vehicle_type_id":"4","last_reported":1753121824,"current_range_meters":8000,"station_id":"ce4bgup2rcd13ifvqco0","pricing_plan_id":"cebpf4jnsgd1na2vs0mg"},{"bike_id":"3423441d-6e3c-4eba-a1d5-1157326e62b8","system_id":"levelo_inurba_marseille","lat":43.28613,"lon":5.35103,"is_reserved":false,"is_disabled":false,"rental_uris":{"android":"levelo://app?vid=3423441d-6e3c-4eba-a1d5-1157326e62b8","ios":"levelo://app?vid=3423441d-6e3c-4eba-a1d5-1157326e62b8"},"vehicle_type_id":"4","last_reported":1753121824,"current_range_meters":8000,"station_id":"ce4bhch2rcd13ifvqeug","pricing_plan_id":"cebpf4jnsgd1na2vs0mg"},{"bike_id":"cc6ef575-0db4-46c4-8983-9a8508372375","system_id":"levelo_inurba_marseille","lat":43.29307,"lon":5.37177,"is_reserved":false,"is_disabled":false,"rental_uris":{"android":"levelo://app?vid=cc6ef575-0db4-46c4-8983-9a8508372375","ios":"levelo://app?vid=cc6ef575-0db4-46c4-8983-9a8508372375"},"vehicle_type_id":"4","last_reported":1753121824,"current_range_meters":8000,"station_id":"ce4bgh92rcd13ifvqb40","pricing_plan_id":"cebpf4jnsgd1na2vs0mg"},{"bike_id":"1f6939b7-339b-40ca-8ed8-ead7196b18ea","system_id":"levelo_inurba_marseille","lat":43.29223,"lon":5.36054,"is_reserved":false,"is_disabled":true,"rental_uris":{"android":"levelo://app?vid=1f6939b7-339b-40ca-8ed8-ead7196b18ea","ios":"levelo://app?vid=1f6939b7-339b-40ca-8ed8-ead7196b18ea"},"vehicle_type_id":"4","last_reported":1753121824,"current_range_meters":8000,"station_id":"ce4bhbh2rcd13ifvqeqg","pricing_plan_id":"cebpf4jnsgd1na2vs0mg"},{"bike_id":"54c62cfd-190d-4a0a-99a0-7a5cc5804e08","system_id":"levelo_inurba_marseille","lat":43.21185,"lon":5.35071,"is_reserved":false,"is_disabled":false,"rental_uris":{"android":"levelo://app?vid=54c62cfd-190d-4a0a-99a0-7a5cc5804e08","ios":"levelo://app?vid=54c62cfd-190d-4a0a-99a0-7a5cc5804e08"},"vehicle_type_id":"4","last_reported":1753121824,"current_range_meters":8400,"station_id":"st_cvj6sg6p6f1abm77japg","pricing_plan_id":"cebpf4jnsgd1na2vs0mg"},{"bike_id":"7e1d71f7-9c63-408f-b3e5-e69c0f8d7acb","system_id":"levelo_inurba_marseille","lat":43.24389,"lon":5.37068,"is_reserved":false,"is_disabled":false,"rental_uris":{"android":"levelo://app?vid=7e1d71f7-9c63-408f-b3e5-e69c0f8d7acb","ios":"levelo://app?vid=7e1d71f7-9c63-408f-b3e5-e69c0f8d7acb"},"vehicle_type_id":"4","last_reported":1753121824,"current_range_meters":8000,"station_id":"ce4bhhh2rcd13ifvqfk0","pricing_plan_id":"cebpf4jnsgd1na2vs0mg"},{"bike_id":"9036d315-4723-4cdd-9f68-856fe767f9c3","system_id":"levelo_inurba_marseille","lat":43.33147,"lon":5.38167,"is_reserved":false,"is_disabled":false,"rental_uris":{"android":"levelo://app?vid=9036d315-4723-4cdd-9f68-856fe767f9c3","ios":"levelo://app?vid=9036d315-4723-4cdd-9f68-856fe767f9c3"},"vehicle_type_id":"4","last_reported":1753121824,"current_range_meters":8400,"station_id":"","pricing_plan_id":"cebpf4jnsgd1na2vs0mg"},{"bike_id":"c9a6c8dc-710a-4103-81b0-85e59ceaa7ee","system_id":"levelo_inurba_marseille","lat":43.29768,"lon":5.37109,"is_reserved":false,"is_disabled":false,"rental_uris":{"android":"levelo://app?vid=c9a6c8dc-710a-4103-81b0-85e59ceaa7ee","ios":"levelo://app?vid=c9a6c8dc-710a-4103-81b0-85e59ceaa7ee"},"vehicle_type_id":"4","last_reported":1753121824,"current_range_meters":8400,"station_id":"ce4bgop2rcd13ifvqc1g","pricing_plan_id":"cebpf4jnsgd1na2vs0mg"},{"bike_id":"06333f60-d9ea-43c9-ba2a-80c3002c726d","system_id":"levelo_inurba_marseille","lat":43.21193,"lon":5.35072,"is_reserved":false,"is_disabled":false,"rental_uris":{"android":"levelo://app?vid=06333f60-d9ea-43c9-ba2a-80c3002c726d","ios":"levelo://app?vid=06333f60-d9ea-43c9-ba2a-80c3002c726d"},"vehicle_type_id":"4","last_reported":1753121824,"current_range_meters":8400,"station_id":"st_cvj6sg6p6f1abm77japg","pricing_plan_id":"cebpf4jnsgd1na2vs0mg"},{"bike_id":"2d5b8d2a-4bc9-4903-9a4e-7e2860e12b59","system_id":"levelo_inurba_marseille","lat":43.26199,"lon":5.37928,"is_reserved":false,"is_disabled":false,"rental_uris":{"android":"levelo://app?vid=2d5b8d2a-4bc9-4903-9a4e-7e2860e12b59","ios":"levelo://app?vid=2d5b8d2a-4bc9-4903-9a4e-7e2860e12b59"},"vehicle_type_id":"4","last_reported":1753121824,"current_range_meters":8800,"station_id":"ce4bhjp2rcd13ifvqg90","pricing_plan_id":"cebpf4jnsgd1na2vs0mg"},{"bike_id":"21a7be3f-7965-4406-b6a3-679b073e6b7a","system_id":"levelo_inurba_marseille","lat":43.292749,"lon":5.368376,"is_reserved":false,"is_disabled":false,"rental_uris":{"android":"levelo://app?vid=21a7be3f-7965-4406-b6a3-679b073e6b7a","ios":"levelo://app?vid=21a7be3f-7965-4406-b6a3-679b073e6b7a"},"vehicle_type_id":"4","last_reported":1753121824,"current_range_meters":8800,"station_id":"ce4bhbp2rcd13ifvqesg","pricing_plan_id":"cebpf4jnsgd1na2vs0mg"},{"bike_id":"33158063-5608-4f9d-be25-829030b52068","system_id":"levelo_inurba_marseille","lat":43.28865,"lon":5.35853,"is_reserved":false,"is_disabled":false,"rental_uris":{"android":"levelo://app?vid=33158063-5608-4f9d-be25-829030b52068","ios":"levelo://app?vid=33158063-5608-4f9d-be25-829030b52068"},"vehicle_type_id":"4","last_reported":1753121824,"current_range_meters":8800,"station_id":"ce4bhb12rcd13ifvqem0","pricing_plan_id":"cebpf4jnsgd1na2vs0mg"},{"bike_id":"590d8966-9ffd-48b1-970d-3e42357de687","system_id":"levelo_inurba_marseille","lat":43.28612,"lon":5.35107,"is_reserved":false,"is_disabled":false,"rental_uris":{"android":"levelo://app?vid=590d8966-9ffd-48b1-970d-3e42357de687","ios":"levelo://app?vid=590d8966-9ffd-48b1-970d-3e42357de687"},"vehicle_type_id":"4","last_reported":1753121824,"current_range_meters":8800,"station_id":"ce4bhch2rcd13ifvqeug","pricing_plan_id":"cebpf4jnsgd1na2vs0mg"},{"bike_id":"102d39a8-1eeb-4cae-921c-872092de9cfe","system_id":"levelo_inurba_marseille","lat":43.28341,"lon":5.38121,"is_reserved":false,"is_disabled":false,"rental_uris":{"android":"levelo://app?vid=102d39a8-1eeb-4cae-921c-872092de9cfe","ios":"levelo://app?vid=102d39a8-1eeb-4cae-921c-872092de9cfe"},"vehicle_type_id":"4","last_reported":1753121824,"current_range_meters":9200,"station_id":"ce4bh412rcd13ifvqdr0","pricing_plan_id":"cebpf4jnsgd1na2vs0mg"},{"bike_id":"37d8cb1b-1988-4390-9e4c-4eca73c82c19","system_id":"levelo_inurba_marseille","lat":43.26147,"lon":5.37544,"is_reserved":false,"is_disabled":true,"rental_uris":{"android":"levelo://app?vid=37d8cb1b-1988-4390-9e4c-4eca73c82c19","ios":"levelo://app?vid=37d8cb1b-1988-4390-9e4c-4eca73c82c19"},"vehicle_type_id":"4","last_reported":1753121824,"current_range_meters":9200,"station_id":"","pricing_plan_id":"cebpf4jnsgd1na2vs0mg"},{"bike_id":"428942ae-179c-4d5f-8592-8493a768c578","system_id":"levelo_inurba_marseille","lat":43.2396,"lon":5.36629,"is_reserved":false,"is_disabled":true,"rental_uris":{"android":"levelo://app?vid=428942ae-179c-4d5f-8592-8493a768c578","ios":"levelo://app?vid=428942ae-179c-4d5f-8592-8493a768c578"},"vehicle_type_id":"4","last_reported":1753121824,"current_range_meters":9200,"station_id":"ce4bhi12rcd13ifvqfp0","pricing_plan_id":"cebpf4jnsgd1na2vs0mg"},{"bike_id":"6c131c5c-9b83-47a6-8f13-c889f98d0fd6","system_id":"levelo_inurba_marseille","lat":43.25121,"lon":5.40322,"is_reserved":false,"is_disabled":false,"rental_uris":{"android":"levelo://app?vid=6c131c5c-9b83-47a6-8f13-c889f98d0fd6","ios":"levelo://app?vid=6c131c5c-9b83-47a6-8f13-c889f98d0fd6"},"vehicle_type_id":"4","last_reported":1753121824,"current_range_meters":9600,"station_id":"ce4bhlh2rcd13ifvqgig","pricing_plan_id":"cebpf4jnsgd1na2vs0mg"},{"bike_id":"48b29b0c-d05a-473d-a139-c64e81fff6c2","system_id":"levelo_inurba_marseille","lat":43.29972,"lon":5.38487,"is_reserved":false,"is_disabled":false,"rental_uris":{"android":"levelo://app?vid=48b29b0c-d05a-473d-a139-c64e81fff6c2","ios":"levelo://app?vid=48b29b0c-d05a-473d-a139-c64e81fff6c2"},"vehicle_type_id":"4","last_reported":1753121824,"current_range_meters":9600,"station_id":"ce4bgj92rcd13ifvqbd0","pricing_plan_id":"cebpf4jnsgd1na2vs0mg"},{"bike_id":"a93dde99-7b3b-4907-828c-2b796f672160","system_id":"levelo_inurba_marseille","lat":43.28421,"lon":5.34985,"is_reserved":false,"is_disabled":false,"rental_uris":{"android":"levelo://app?vid=a93dde99-7b3b-4907-828c-2b796f672160","ios":"levelo://app?vid=a93dde99-7b3b-4907-828c-2b796f672160"},"vehicle_type_id":"4","last_reported":1753121824,"current_range_meters":9600,"station_id":"ce4bhbh2rcd13ifvqepg","pricing_plan_id":"cebpf4jnsgd1na2vs0mg"},{"bike_id":"e022a396-1cda-41e1-a581-20bbc6133ccf","system_id":"levelo_inurba_marseille","lat":43.21191,"lon":5.35073,"is_reserved":false,"is_disabled":false,"rental_uris":{"android":"levelo://app?vid=e022a396-1cda-41e1-a581-20bbc6133ccf","ios":"levelo://app?vid=e022a396-1cda-41e1-a581-20bbc6133ccf"},"vehicle_type_id":"4","last_reported":1753121824,"current_range_meters":9600,"station_id":"st_cvj6sg6p6f1abm77japg","pricing_plan_id":"cebpf4jnsgd1na2vs0mg"},{"bike_id":"d39694e8-0b6d-4211-9e8a-53bcd17d271d","system_id":"levelo_inurba_marseille","lat":43.30317,"lon":5.40447,"is_reserved":false,"is_disabled":false,"rental_uris":{"android":"levelo://app?vid=d39694e8-0b6d-4211-9e8a-53bcd17d271d","ios":"levelo://app?vid=d39694e8-0b6d-4211-9e8a-53bcd17d271d"},"vehicle_type_id":"4","last_reported":1753121824,"current_range_meters":9600,"station_id":"ce4bh012rcd13ifvqd10","pricing_plan_id":"cebpf4jnsgd1na2vs0mg"},{"bike_id":"a05e5a0c-6862-4201-9295-ddca25063902","system_id":"levelo_inurba_marseille","lat":43.27371,"lon":5.36263,"is_reserved":false,"is_disabled":false,"rental_uris":{"android":"levelo://app?vid=a05e5a0c-6862-4201-9295-ddca25063902","ios":"levelo://app?vid=a05e5a0c-6862-4201-9295-ddca25063902"},"vehicle_type_id":"4","last_reported":1753121824,"current_range_meters":9600,"station_id":"ce4bhbh2rcd13ifvqeo0","pricing_plan_id":"cebpf4jnsgd1na2vs0mg"},{"bike_id":"ef6b57dc-4bbf-44d0-8c01-6dc35de2b1c4","system_id":"levelo_inurba_marseille","lat":43.33028,"lon":5.39042,"is_reserved":false,"is_disabled":false,"rental_uris":{"android":"levelo://app?vid=ef6b57dc-4bbf-44d0-8c01-6dc35de2b1c4","ios":"levelo://app?vid=ef6b57dc-4bbf-44d0-8c01-6dc35de2b1c4"},"vehicle_type_id":"4","last_reported":1753121824,"current_range_meters":9600,"station_id":"ce4bhr92rcd13ifvqhrg","pricing_plan_id":"cebpf4jnsgd1na2vs0mg"},{"bike_id":"6297c4ba-e168-4693-b378-e9b48a02423c","system_id":"levelo_inurba_marseille","lat":43.29525,"lon":5.39026,"is_reserved":false,"is_disabled":false,"rental_uris":{"android":"levelo://app?vid=6297c4ba-e168-4693-b378-e9b48a02423c","ios":"levelo://app?vid=6297c4ba-e168-4693-b378-e9b48a02423c"},"vehicle_type_id":"4","last_reported":1753121824,"current_range_meters":10000,"station_id":"ce4bh3p2rcd13ifvqdp0","pricing_plan_id":"cebpf4jnsgd1na2vs0mg"},{"bike_id":"0f8823ae-6503-4373-80cd-03b204344e20","system_id":"levelo_inurba_marseille","lat":43.29226,"lon":5.36075,"is_reserved":false,"is_disabled":false,"rental_uris":{"android":"levelo://app?vid=0f8823ae-6503-4373-80cd-03b204344e20","ios":"levelo://app?vid=0f8823ae-6503-4373-80cd-03b204344e20"},"vehicle_type_id":"4","last_reported":1753121824,"current_range_meters":10000,"station_id":"ce4bhbh2rcd13ifvqeqg","pricing_plan_id":"cebpf4jnsgd1na2vs0mg"},{"bike_id":"56594837-0e97-4f3c-95a1-c094e06b8218","system_id":"levelo_inurba_marseille","lat":43.30888,"lon":5.39643,"is_reserved":false,"is_disabled":false,"rental_uris":{"android":"levelo://app?vid=56594837-0e97-4f3c-95a1-c094e06b8218","ios":"levelo://app?vid=56594837-0e97-4f3c-95a1-c094e06b8218"},"vehicle_type_id":"4","last_reported":1753121824,"current_range_meters":10000,"station_id":"ce4bh012rcd13ifvqcv0","pricing_plan_id":"cebpf4jnsgd1na2vs0mg"},{"bike_id":"53cb4f43-b1af-4efe-9f40-e0338804f4d4","system_id":"levelo_inurba_marseille","lat":43.31291,"lon":5.39048,"is_reserved":false,"is_disabled":false,"rental_uris":{"android":"levelo://app?vid=53cb4f43-b1af-4efe-9f40-e0338804f4d4","ios":"levelo://app?vid=53cb4f43-b1af-4efe-9f40-e0338804f4d4"},"vehicle_type_id":"4","last_reported":1753121824,"current_range_meters":10000,"station_id":"","pricing_plan_id":"cebpf4jnsgd1na2vs0mg"},{"bike_id":"855ff30f-b854-4c36-b29e-04252bd93ae5","system_id":"levelo_inurba_marseille","lat":43.29021,"lon":5.38626,"is_reserved":false,"is_disabled":false,"rental_uris":{"android":"levelo://app?vid=855ff30f-b854-4c36-b29e-04252bd93ae5","ios":"levelo://app?vid=855ff30f-b854-4c36-b29e-04252bd93ae5"},"vehicle_type_id":"4","last_reported":1753121824,"current_range_meters":10000,"station_id":"ce4bh4p2rcd13ifvqe0g","pricing_plan_id":"cebpf4jnsgd1na2vs0mg"},{"bike_id":"b7082957-3a9f-4d91-9a0b-08d65eafeb7f","system_id":"levelo_inurba_marseille","lat":43.25011,"lon":5.38914,"is_reserved":false,"is_disabled":true,"rental_uris":{"android":"levelo://app?vid=b7082957-3a9f-4d91-9a0b-08d65eafeb7f","ios":"levelo://app?vid=b7082957-3a9f-4d91-9a0b-08d65eafeb7f"},"vehicle_type_id":"4","last_reported":1753121824,"current_range_meters":10000,"station_id":"ce4bhgp2rcd13ifvqfd0","pricing_plan_id":"cebpf4jnsgd1na2vs0mg"},{"bike_id":"0cb2c80a-7457-4a4a-ad92-f0361b5225d6","system_id":"levelo_inurba_marseille","lat":43.24413,"lon":5.37413,"is_reserved":false,"is_disabled":false,"rental_uris":{"android":"levelo://app?vid=0cb2c80a-7457-4a4a-ad92-f0361b5225d6","ios":"levelo://app?vid=0cb2c80a-7457-4a4a-ad92-f0361b5225d6"},"vehicle_type_id":"4","last_reported":1753121824,"current_range_meters":10000,"station_id":"","pricing_plan_id":"cebpf4jnsgd1na2vs0mg"},{"bike_id":"11b7b66e-d00d-4f3e-8f61-40e5ad9a8a78","system_id":"levelo_inurba_marseille","lat":43.258158,"lon":5.394416,"is_reserved":false,"is_disabled":false,"rental_uris":{"android":"levelo://app?vid=11b7b66e-d00d-4f3e-8f61-40e5ad9a8a78","ios":"levelo://app?vid=11b7b66e-d00d-4f3e-8f61-40e5ad9a8a78"},"vehicle_type_id":"4","last_reported":1753121824,"current_range_meters":10000,"station_id":"ce4bhip2rcd13ifvqft0","pricing_plan_id":"cebpf4jnsgd1na2vs0mg"},{"bike_id":"7545d585-9a74-44cc-95d4-9abf871dd4fc","system_id":"levelo_inurba_marseille","lat":43.24167,"lon":5.36393,"is_reserved":false,"is_disabled":false,"rental_uris":{"android":"levelo://app?vid=7545d585-9a74-44cc-95d4-9abf871dd4fc","ios":"levelo://app?vid=7545d585-9a74-44cc-95d4-9abf871dd4fc"},"vehicle_type_id":"4","last_reported":1753121824,"current_range_meters":10800,"station_id":"cpo36qri1sfpv3e86is0","pricing_plan_id":"cebpf4jnsgd1na2vs0mg"},{"bike_id":"75c71c46-8fab-404d-af31-6e99b1e74b4c","system_id":"levelo_inurba_marseille","lat":43.307964,"lon":5.381559,"is_reserved":false,"is_disabled":false,"rental_uris":{"android":"levelo://app?vid=75c71c46-8fab-404d-af31-6e99b1e74b4c","ios":"levelo://app?vid=75c71c46-8fab-404d-af31-6e99b1e74b4c"},"vehicle_type_id":"4","last_reported":1753121824,"current_range_meters":10800,"station_id":"ce4bgt12rcd13ifvqce0","pricing_plan_id":"cebpf4jnsgd1na2vs0mg"},{"bike_id":"03ca4fd3-9875-4a34-af89-07c820c85ea4","system_id":"levelo_inurba_marseille","lat":43.29052,"lon":5.37151,"is_reserved":false,"is_disabled":false,"rental_uris":{"android":"levelo://app?vid=03ca4fd3-9875-4a34-af89-07c820c85ea4","ios":"levelo://app?vid=03ca4fd3-9875-4a34-af89-07c820c85ea4"},"vehicle_type_id":"4","last_reported":1753121824,"current_range_meters":11200,"station_id":"ce4bh5p2rcd13ifvqe4g","pricing_plan_id":"cebpf4jnsgd1na2vs0mg"},{"bike_id":"b61a0182-ce03-4a9b-81b8-e5c3d84cdcdd","system_id":"levelo_inurba_marseille","lat":43.29193,"lon":5.35813,"is_reserved":false,"is_disabled":false,"rental_uris":{"android":"levelo://app?vid=b61a0182-ce03-4a9b-81b8-e5c3d84cdcdd","ios":"levelo://app?vid=b61a0182-ce03-4a9b-81b8-e5c3d84cdcdd"},"vehicle_type_id":"4","last_reported":1753121824,"current_range_meters":11200,"station_id":"ce4bhb12rcd13ifvqel0","pricing_plan_id":"cebpf4jnsgd1na2vs0mg"},{"bike_id":"c695f162-6b42-40d7-8780-ed224e75f8e8","system_id":"levelo_inurba_marseille","lat":43.33764,"lon":5.37479,"is_reserved":false,"is_disabled":false,"rental_uris":{"android":"levelo://app?vid=c695f162-6b42-40d7-8780-ed224e75f8e8","ios":"levelo://app?vid=c695f162-6b42-40d7-8780-ed224e75f8e8"},"vehicle_type_id":"4","last_reported":1753121824,"current_range_meters":11200,"station_id":"","pricing_plan_id":"cebpf4jnsgd1na2vs0mg"},{"bike_id":"523d528a-80ef-4c0a-986f-e24abf3cd641","system_id":"levelo_inurba_marseille","lat":43.27331,"lon":5.39074,"is_reserved":false,"is_disabled":true,"rental_uris":{"android":"levelo://app?vid=523d528a-80ef-4c0a-986f-e24abf3cd641","ios":"levelo://app?vid=523d528a-80ef-4c0a-986f-e24abf3cd641"},"vehicle_type_id":"4","last_reported":1753121824,"current_range_meters":11200,"station_id":"ce4bhgp2rcd13ifvqfe0","pricing_plan_id":"cebpf4jnsgd1na2vs0mg"},{"bike_id":"3669335c-51b8-4ef9-8bdd-2881dd86a0cf","system_id":"levelo_inurba_marseille","lat":43.28409,"lon":5.34981,"is_reserved":false,"is_disabled":false,"rental_uris":{"android":"levelo://app?vid=3669335c-51b8-4ef9-8bdd-2881dd86a0cf","ios":"levelo://app?vid=3669335c-51b8-4ef9-8bdd-2881dd86a0cf"},"vehicle_type_id":"4","last_reported":1753121824,"current_range_meters":11600,"station_id":"ce4bhbh2rcd13ifvqepg","pricing_plan_id":"cebpf4jnsgd1na2vs0mg"},{"bike_id":"b6e76832-b199-4086-875c-717f2f30f739","system_id":"levelo_inurba_marseille","lat":43.24167,"lon":5.36394,"is_reserved":false,"is_disabled":false,"rental_uris":{"android":"levelo://app?vid=b6e76832-b199-4086-875c-717f2f30f739","ios":"levelo://app?vid=b6e76832-b199-4086-875c-717f2f30f739"},"vehicle_type_id":"4","last_reported":1753121824,"current_range_meters":11600,"station_id":"cpo36qri1sfpv3e86is0","pricing_plan_id":"cebpf4jnsgd1na2vs0mg"},{"bike_id":"7230cb4d-8cd2-4957-9d99-c27265ab6ce1","system_id":"levelo_inurba_marseille","lat":43.29299,"lon":5.37168,"is_reserved":false,"is_disabled":true,"rental_uris":{"android":"levelo://app?vid=7230cb4d-8cd2-4957-9d99-c27265ab6ce1","ios":"levelo://app?vid=7230cb4d-8cd2-4957-9d99-c27265ab6ce1"},"vehicle_type_id":"4","last_reported":1753121824,"current_range_meters":11600,"station_id":"","pricing_plan_id":"cebpf4jnsgd1na2vs0mg"},{"bike_id":"39a86724-a560-4563-ab61-eca82b651066","system_id":"levelo_inurba_marseille","lat":43.29081,"lon":5.37198,"is_reserved":false,"is_disabled":false,"rental_uris":{"android":"levelo://app?vid=39a86724-a560-4563-ab61-eca82b651066","ios":"levelo://app?vid=39a86724-a560-4563-ab61-eca82b651066"},"vehicle_type_id":"4","last_reported":1753121824,"current_range_meters":11600,"station_id":"ce4bh5p2rcd13ifvqe4g","pricing_plan_id":"cebpf4jnsgd1na2vs0mg"},{"bike_id":"8ec3987c-4e5e-4f67-aba7-96e36709e826","system_id":"levelo_inurba_marseille","lat":43.32728,"lon":5.40891,"is_reserved":false,"is_disabled":false,"rental_uris":{"android":"levelo://app?vid=8ec3987c-4e5e-4f67-aba7-96e36709e826","ios":"levelo://app?vid=8ec3987c-4e5e-4f67-aba7-96e36709e826"},"vehicle_type_id":"4","last_reported":1753121824,"current_range_meters":11600,"station_id":"","pricing_plan_id":"cebpf4jnsgd1na2vs0mg"},{"bike_id":"38b2615b-ec83-4031-8199-8030f247a019","system_id":"levelo_inurba_marseille","lat":43.305147,"lon":5.391155,"is_reserved":false,"is_disabled":false,"rental_uris":{"android":"levelo://app?vid=38b2615b-ec83-4031-8199-8030f247a019","ios":"levelo://app?vid=38b2615b-ec83-4031-8199-8030f247a019"},"vehicle_type_id":"4","last_reported":1753121824,"current_range_meters":12000,"station_id":"ce4bgk12rcd13ifvqbi0","pricing_plan_id":"cebpf4jnsgd1na2vs0mg"},{"bike_id":"0921f7df-2f57-4078-aed8-d9e6f4afda21","system_id":"levelo_inurba_marseille","lat":43.24157,"lon":5.36389,"is_reserved":false,"is_disabled":false,"rental_uris":{"android":"levelo://app?vid=0921f7df-2f57-4078-aed8-d9e6f4afda21","ios":"levelo://app?vid=0921f7df-2f57-4078-aed8-d9e6f4afda21"},"vehicle_type_id":"4","last_reported":1753121824,"current_range_meters":12000,"station_id":"cpo36qri1sfpv3e86is0","pricing_plan_id":"cebpf4jnsgd1na2vs0mg"},{"bike_id":"7f4967d0-1ab9-4d58-a79f-394fef3c4842","system_id":"levelo_inurba_marseille","lat":43.28084,"lon":5.39657,"is_reserved":false,"is_disabled":false,"rental_uris":{"android":"levelo://app?vid=7f4967d0-1ab9-4d58-a79f-394fef3c4842","ios":"levelo://app?vid=7f4967d0-1ab9-4d58-a79f-394fef3c4842"},"vehicle_type_id":"4","last_reported":1753121824,"current_range_meters":12000,"station_id":"ce4bho12rcd13ifvqh2g","pricing_plan_id":"cebpf4jnsgd1na2vs0mg"},{"bike_id":"0c3bd9f9-b5a0-4342-a167-4afc3f2e6c73","system_id":"levelo_inurba_marseille","lat":43.301379,"lon":5.387818,"is_reserved":false,"is_disabled":false,"rental_uris":{"android":"levelo://app?vid=0c3bd9f9-b5a0-4342-a167-4afc3f2e6c73","ios":"levelo://app?vid=0c3bd9f9-b5a0-4342-a167-4afc3f2e6c73"},"vehicle_type_id":"4","last_reported":1753121824,"current_range_meters":12400,"station_id":"ce4bghh2rcd13ifvqb60","pricing_plan_id":"cebpf4jnsgd1na2vs0mg"},{"bike_id":"1bdc5e80-6d38-4620-9007-55ce514df051","system_id":"levelo_inurba_marseille","lat":43.2306,"lon":5.35498,"is_reserved":false,"is_disabled":false,"rental_uris":{"android":"levelo://app?vid=1bdc5e80-6d38-4620-9007-55ce514df051","ios":"levelo://app?vid=1bdc5e80-6d38-4620-9007-55ce514df051"},"vehicle_type_id":"4","last_reported":1753121824,"current_range_meters":12400,"station_id":"cpo3342slgdg3j2ifvpg","pricing_plan_id":"cebpf4jnsgd1na2vs0mg"},{"bike_id":"07481afa-6635-4dc1-8a31-8a97247e4afb","system_id":"levelo_inurba_marseille","lat":43.21189,"lon":5.35052,"is_reserved":false,"is_disabled":false,"rental_uris":{"android":"levelo://app?vid=07481afa-6635-4dc1-8a31-8a97247e4afb","ios":"levelo://app?vid=07481afa-6635-4dc1-8a31-8a97247e4afb"},"vehicle_type_id":"4","last_reported":1753121824,"current_range_meters":12400,"station_id":"st_cvj6sg6p6f1abm77japg","pricing_plan_id":"cebpf4jnsgd1na2vs0mg"},{"bike_id":"395b1e02-dcec-4c10-838f-0ebf9bffb552","system_id":"levelo_inurba_marseille","lat":43.290149,"lon":5.368245,"is_reserved":false,"is_disabled":false,"rental_uris":{"android":"levelo://app?vid=395b1e02-dcec-4c10-838f-0ebf9bffb552","ios":"levelo://app?vid=395b1e02-dcec-4c10-838f-0ebf9bffb552"},"vehicle_type_id":"4","last_reported":1753121824,"current_range_meters":12400,"station_id":"ce4bhap2rcd13ifvqek0","pricing_plan_id":"cebpf4jnsgd1na2vs0mg"},{"bike_id":"5181a7ee-4315-420c-87bd-a678d2870967","system_id":"levelo_inurba_marseille","lat":43.27375,"lon":5.3626,"is_reserved":false,"is_disabled":false,"rental_uris":{"android":"levelo://app?vid=5181a7ee-4315-420c-87bd-a678d2870967","ios":"levelo://app?vid=5181a7ee-4315-420c-87bd-a678d2870967"},"vehicle_type_id":"4","last_reported":1753121824,"current_range_meters":12400,"station_id":"ce4bhbh2rcd13ifvqeo0","pricing_plan_id":"cebpf4jnsgd1na2vs0mg"},{"bike_id":"b355686e-9711-4834-88a1-57b23f58ae4b","system_id":"levelo_inurba_marseille","lat":43.23176,"lon":5.35535,"is_reserved":false,"is_disabled":false,"rental_uris":{"android":"levelo://app?vid=b355686e-9711-4834-88a1-57b23f58ae4b","ios":"levelo://app?vid=b355686e-9711-4834-88a1-57b23f58ae4b"},"vehicle_type_id":"4","last_reported":1753121824,"current_range_meters":12400,"station_id":"ce4bhu92rcd13ifvqi70","pricing_plan_id":"cebpf4jnsgd1na2vs0mg"},{"bike_id":"3680ed43-5741-4af6-90af-f498f50f621f","system_id":"levelo_inurba_marseille","lat":43.28421,"lon":5.375028,"is_reserved":false,"is_disabled":false,"rental_uris":{"android":"levelo://app?vid=3680ed43-5741-4af6-90af-f498f50f621f","ios":"levelo://app?vid=3680ed43-5741-4af6-90af-f498f50f621f"},"vehicle_type_id":"4","last_reported":1753121824,"current_range_meters":12400,"station_id":"ce4bh412rcd13ifvqds0","pricing_plan_id":"cebpf4jnsgd1na2vs0mg"},{"bike_id":"5c4d228e-f1dc-4e50-9cfa-8fb802e4d124","system_id":"levelo_inurba_marseille","lat":43.28623,"lon":5.3822,"is_reserved":false,"is_disabled":false,"rental_uris":{"android":"levelo://app?vid=5c4d228e-f1dc-4e50-9cfa-8fb802e4d124","ios":"levelo://app?vid=5c4d228e-f1dc-4e50-9cfa-8fb802e4d124"},"vehicle_type_id":"4","last_reported":1753121824,"current_range_meters":12400,"station_id":"","pricing_plan_id":"cebpf4jnsgd1na2vs0mg"},{"bike_id":"ec883896-813e-4ab2-a618-ee6f2f53d3e1","system_id":"levelo_inurba_marseille","lat":43.26209,"lon":5.37441,"is_reserved":false,"is_disabled":false,"rental_uris":{"android":"levelo://app?vid=ec883896-813e-4ab2-a618-ee6f2f53d3e1","ios":"levelo://app?vid=ec883896-813e-4ab2-a618-ee6f2f53d3e1"},"vehicle_type_id":"4","last_reported":1753121824,"current_range_meters":12400,"station_id":"ce4bhgp2rcd13ifvqfc0","pricing_plan_id":"cebpf4jnsgd1na2vs0mg"},{"bike_id":"082bead9-81cd-445f-b749-08d2f0bd61d0","system_id":"levelo_inurba_marseille","lat":43.22926,"lon":5.35374,"is_reserved":false,"is_disabled":true,"rental_uris":{"android":"levelo://app?vid=082bead9-81cd-445f-b749-08d2f0bd61d0","ios":"levelo://app?vid=082bead9-81cd-445f-b749-08d2f0bd61d0"},"vehicle_type_id":"4","last_reported":1753121824,"current_range_meters":12800,"station_id":"cpo3532slgdg3j2ikp40","pricing_plan_id":"cebpf4jnsgd1na2vs0mg"},{"bike_id":"8ed8bfad-47b2-424f-b0b9-390c9410ae82","system_id":"levelo_inurba_marseille","lat":43.30133,"lon":5.39869,"is_reserved":false,"is_disabled":false,"rental_uris":{"android":"levelo://app?vid=8ed8bfad-47b2-424f-b0b9-390c9410ae82","ios":"levelo://app?vid=8ed8bfad-47b2-424f-b0b9-390c9410ae82"},"vehicle_type_id":"4","last_reported":1753121824,"current_range_meters":12800,"station_id":"ce4bh0h2rcd13ifvqd40","pricing_plan_id":"cebpf4jnsgd1na2vs0mg"},{"bike_id":"7feffdd6-76d7-4515-b894-1d32df6413e0","system_id":"levelo_inurba_marseille","lat":43.28475,"lon":5.35899,"is_reserved":false,"is_disabled":false,"rental_uris":{"android":"levelo://app?vid=7feffdd6-76d7-4515-b894-1d32df6413e0","ios":"levelo://app?vid=7feffdd6-76d7-4515-b894-1d32df6413e0"},"vehicle_type_id":"4","last_reported":1753121824,"current_range_meters":12800,"station_id":"ce4bhah2rcd13ifvqei0","pricing_plan_id":"cebpf4jnsgd1na2vs0mg"},{"bike_id":"ac49738a-4d4f-43d3-9c67-46980e61ae95","system_id":"levelo_inurba_marseille","lat":43.31738,"lon":5.37707,"is_reserved":false,"is_disabled":false,"rental_uris":{"android":"levelo://app?vid=ac49738a-4d4f-43d3-9c67-46980e61ae95","ios":"levelo://app?vid=ac49738a-4d4f-43d3-9c67-46980e61ae95"},"vehicle_type_id":"4","last_reported":1753121824,"current_range_meters":12800,"station_id":"ce4bgth2rcd13ifvqch0","pricing_plan_id":"cebpf4jnsgd1na2vs0mg"},{"bike_id":"829915d1-e486-4f77-a21a-1a0a65722b23","system_id":"levelo_inurba_marseille","lat":43.27069,"lon":5.42283,"is_reserved":false,"is_disabled":false,"rental_uris":{"android":"levelo://app?vid=829915d1-e486-4f77-a21a-1a0a65722b23","ios":"levelo://app?vid=829915d1-e486-4f77-a21a-1a0a65722b23"},"vehicle_type_id":"4","last_reported":1753121824,"current_range_meters":12800,"station_id":"ce4bhk92rcd13ifvqgb0","pricing_plan_id":"cebpf4jnsgd1na2vs0mg"},{"bike_id":"328e472f-5ae1-4ad9-833e-8bfd84d0df0a","system_id":"levelo_inurba_marseille","lat":43.27981,"lon":5.39974,"is_reserved":false,"is_disabled":false,"rental_uris":{"android":"levelo://app?vid=328e472f-5ae1-4ad9-833e-8bfd84d0df0a","ios":"levelo://app?vid=328e472f-5ae1-4ad9-833e-8bfd84d0df0a"},"vehicle_type_id":"4","last_reported":1753121824,"current_range_meters":13600,"station_id":"ce4bho92rcd13ifvqh4g","pricing_plan_id":"cebpf4jnsgd1na2vs0mg"},{"bike_id":"f4be8e36-3b18-4ac6-b106-b78977ae2b2a","system_id":"levelo_inurba_marseille","lat":43.25871,"lon":5.399,"is_reserved":false,"is_disabled":false,"rental_uris":{"android":"levelo://app?vid=f4be8e36-3b18-4ac6-b106-b78977ae2b2a","ios":"levelo://app?vid=f4be8e36-3b18-4ac6-b106-b78977ae2b2a"},"vehicle_type_id":"4","last_reported":1753121824,"current_range_meters":13600,"station_id":"ce4bhl92rcd13ifvqghg","pricing_plan_id":"cebpf4jnsgd1na2vs0mg"},{"bike_id":"7426b2db-783c-49c0-a03b-7a3917101b82","system_id":"levelo_inurba_marseille","lat":43.240749,"lon":5.377654,"is_reserved":false,"is_disabled":false,"rental_uris":{"android":"levelo://app?vid=7426b2db-783c-49c0-a03b-7a3917101b82","ios":"levelo://app?vid=7426b2db-783c-49c0-a03b-7a3917101b82"},"vehicle_type_id":"4","last_reported":1753121824,"current_range_meters":13600,"station_id":"ce4bhnp2rcd13ifvqgvg","pricing_plan_id":"cebpf4jnsgd1na2vs0mg"},{"bike_id":"03dba399-2748-4620-b1d2-f02b51aab3f9","system_id":"levelo_inurba_marseille","lat":43.255,"lon":5.376477,"is_reserved":false,"is_disabled":false,"rental_uris":{"android":"levelo://app?vid=03dba399-2748-4620-b1d2-f02b51aab3f9","ios":"levelo://app?vid=03dba399-2748-4620-b1d2-f02b51aab3f9"},"vehicle_type_id":"4","last_reported":1753121824,"current_range_meters":13600,"station_id":"ce4bhh12rcd13ifvqff0","pricing_plan_id":"cebpf4jnsgd1na2vs0mg"},{"bike_id":"3117258b-a0b2-4038-960e-7505313a6719","system_id":"levelo_inurba_marseille","lat":43.32113,"lon":5.36765,"is_reserved":false,"is_disabled":false,"rental_uris":{"android":"levelo://app?vid=3117258b-a0b2-4038-960e-7505313a6719","ios":"levelo://app?vid=3117258b-a0b2-4038-960e-7505313a6719"},"vehicle_type_id":"4","last_reported":1753121824,"current_range_meters":13600,"station_id":"ce4bhrh2rcd13ifvqhug","pricing_plan_id":"cebpf4jnsgd1na2vs0mg"},{"bike_id":"9c838529-2f8d-4cf1-ba58-27067ac84219","system_id":"levelo_inurba_marseille","lat":43.24177,"lon":5.36385,"is_reserved":false,"is_disabled":false,"rental_uris":{"android":"levelo://app?vid=9c838529-2f8d-4cf1-ba58-27067ac84219","ios":"levelo://app?vid=9c838529-2f8d-4cf1-ba58-27067ac84219"},"vehicle_type_id":"4","last_reported":1753121824,"current_range_meters":13600,"station_id":"cpo36qri1sfpv3e86is0","pricing_plan_id":"cebpf4jnsgd1na2vs0mg"},{"bike_id":"d485f597-db0c-4d03-a6b7-f0eec45f33b2","system_id":"levelo_inurba_marseille","lat":43.29271,"lon":5.36833,"is_reserved":false,"is_disabled":true,"rental_uris":{"android":"levelo://app?vid=d485f597-db0c-4d03-a6b7-f0eec45f33b2","ios":"levelo://app?vid=d485f597-db0c-4d03-a6b7-f0eec45f33b2"},"vehicle_type_id":"4","last_reported":1753121824,"current_range_meters":13600,"station_id":"ce4bhbp2rcd13ifvqesg","pricing_plan_id":"cebpf4jnsgd1na2vs0mg"},{"bike_id":"de2ee39c-ac95-4dfc-b7f1-30ec0831d68a","system_id":"levelo_inurba_marseille","lat":43.27374,"lon":5.36251,"is_reserved":false,"is_disabled":false,"rental_uris":{"android":"levelo://app?vid=de2ee39c-ac95-4dfc-b7f1-30ec0831d68a","ios":"levelo://app?vid=de2ee39c-ac95-4dfc-b7f1-30ec0831d68a"},"vehicle_type_id":"4","last_reported":1753121824,"current_range_meters":13600,"station_id":"ce4bhbh2rcd13ifvqeo0","pricing_plan_id":"cebpf4jnsgd1na2vs0mg"},{"bike_id":"42c6daca-a04f-4385-b335-d79919ebfbf3","system_id":"levelo_inurba_marseille","lat":43.32478,"lon":5.36574,"is_reserved":false,"is_disabled":false,"rental_uris":{"android":"levelo://app?vid=42c6daca-a04f-4385-b335-d79919ebfbf3","ios":"levelo://app?vid=42c6daca-a04f-4385-b335-d79919ebfbf3"},"vehicle_type_id":"4","last_reported":1753121824,"current_range_meters":13600,"station_id":"ce4bhs12rcd13ifvqhvg","pricing_plan_id":"cebpf4jnsgd1na2vs0mg"},{"bike_id":"ff27f3c6-d058-4310-aafc-ee3aecd18b32","system_id":"levelo_inurba_marseille","lat":43.27372,"lon":5.36263,"is_reserved":false,"is_disabled":false,"rental_uris":{"android":"levelo://app?vid=ff27f3c6-d058-4310-aafc-ee3aecd18b32","ios":"levelo://app?vid=ff27f3c6-d058-4310-aafc-ee3aecd18b32"},"vehicle_type_id":"4","last_reported":1753121824,"current_range_meters":13600,"station_id":"ce4bhbh2rcd13ifvqeo0","pricing_plan_id":"cebpf4jnsgd1na2vs0mg"},{"bike_id":"983d4263-f897-41cb-ada9-22b842710b92","system_id":"levelo_inurba_marseille","lat":43.28155,"lon":5.42641,"is_reserved":false,"is_disabled":false,"rental_uris":{"android":"levelo://app?vid=983d4263-f897-41cb-ada9-22b842710b92","ios":"levelo://app?vid=983d4263-f897-41cb-ada9-22b842710b92"},"vehicle_type_id":"4","last_reported":1753121824,"current_range_meters":14000,"station_id":"ce4bhnh2rcd13ifvqgug","pricing_plan_id":"cebpf4jnsgd1na2vs0mg"},{"bike_id":"71cbc4b9-db61-47db-848f-072b0a7e341e","system_id":"levelo_inurba_marseille","lat":43.28098,"lon":5.36803,"is_reserved":false,"is_disabled":false,"rental_uris":{"android":"levelo://app?vid=71cbc4b9-db61-47db-848f-072b0a7e341e","ios":"levelo://app?vid=71cbc4b9-db61-47db-848f-072b0a7e341e"},"vehicle_type_id":"4","last_reported":1753121824,"current_range_meters":14000,"station_id":"","pricing_plan_id":"cebpf4jnsgd1na2vs0mg"},{"bike_id":"c50f7388-ab20-464d-92b2-207d85c50d56","system_id":"levelo_inurba_marseille","lat":43.30802,"lon":5.38136,"is_reserved":false,"is_disabled":false,"rental_uris":{"android":"levelo://app?vid=c50f7388-ab20-464d-92b2-207d85c50d56","ios":"levelo://app?vid=c50f7388-ab20-464d-92b2-207d85c50d56"},"vehicle_type_id":"4","last_reported":1753121824,"current_range_meters":14400,"station_id":"ce4bgt12rcd13ifvqce0","pricing_plan_id":"cebpf4jnsgd1na2vs0mg"},{"bike_id":"14fa9f74-f17e-4c63-9553-16028c7ef947","system_id":"levelo_inurba_marseille","lat":43.29196,"lon":5.35792,"is_reserved":false,"is_disabled":false,"rental_uris":{"android":"levelo://app?vid=14fa9f74-f17e-4c63-9553-16028c7ef947","ios":"levelo://app?vid=14fa9f74-f17e-4c63-9553-16028c7ef947"},"vehicle_type_id":"4","last_reported":1753121824,"current_range_meters":14400,"station_id":"ce4bhb12rcd13ifvqel0","pricing_plan_id":"cebpf4jnsgd1na2vs0mg"},{"bike_id":"60ff37c8-42f3-497d-817f-7c79e1a6b41f","system_id":"levelo_inurba_marseille","lat":43.301342,"lon":5.398634,"is_reserved":false,"is_disabled":false,"rental_uris":{"android":"levelo://app?vid=60ff37c8-42f3-497d-817f-7c79e1a6b41f","ios":"levelo://app?vid=60ff37c8-42f3-497d-817f-7c79e1a6b41f"},"vehicle_type_id":"4","last_reported":1753121824,"current_range_meters":14400,"station_id":"ce4bh112rcd13ifvqda0","pricing_plan_id":"cebpf4jnsgd1na2vs0mg"},{"bike_id":"8538c297-db41-4be0-9a50-03795c90a3a3","system_id":"levelo_inurba_marseille","lat":43.27379,"lon":5.36256,"is_reserved":false,"is_disabled":false,"rental_uris":{"android":"levelo://app?vid=8538c297-db41-4be0-9a50-03795c90a3a3","ios":"levelo://app?vid=8538c297-db41-4be0-9a50-03795c90a3a3"},"vehicle_type_id":"4","last_reported":1753121824,"current_range_meters":14400,"station_id":"ce4bhbh2rcd13ifvqeo0","pricing_plan_id":"cebpf4jnsgd1na2vs0mg"},{"bike_id":"96e48d28-168f-4543-9328-a4bf44e820ec","system_id":"levelo_inurba_marseille","lat":43.26222,"lon":5.37431,"is_reserved":false,"is_disabled":false,"rental_uris":{"android":"levelo://app?vid=96e48d28-168f-4543-9328-a4bf44e820ec","ios":"levelo://app?vid=96e48d28-168f-4543-9328-a4bf44e820ec"},"vehicle_type_id":"4","last_reported":1753121824,"current_range_meters":14400,"station_id":"ce4bhgp2rcd13ifvqfc0","pricing_plan_id":"cebpf4jnsgd1na2vs0mg"},{"bike_id":"c387a661-d29a-4ff0-8747-a5b01675034b","system_id":"levelo_inurba_marseille","lat":43.2903,"lon":5.38135,"is_reserved":false,"is_disabled":false,"rental_uris":{"android":"levelo://app?vid=c387a661-d29a-4ff0-8747-a5b01675034b","ios":"levelo://app?vid=c387a661-d29a-4ff0-8747-a5b01675034b"},"vehicle_type_id":"4","last_reported":1753121824,"current_range_meters":14400,"station_id":"ce4bh4p2rcd13ifvqe1g","pricing_plan_id":"cebpf4jnsgd1na2vs0mg"},{"bike_id":"545d99d7-6f42-40ce-b244-1c2376ed3ebf","system_id":"levelo_inurba_marseille","lat":43.28416,"lon":5.34994,"is_reserved":false,"is_disabled":false,"rental_uris":{"android":"levelo://app?vid=545d99d7-6f42-40ce-b244-1c2376ed3ebf","ios":"levelo://app?vid=545d99d7-6f42-40ce-b244-1c2376ed3ebf"},"vehicle_type_id":"4","last_reported":1753121824,"current_range_meters":14400,"station_id":"ce4bhbh2rcd13ifvqepg","pricing_plan_id":"cebpf4jnsgd1na2vs0mg"},{"bike_id":"c11b054c-3328-4fb8-bc65-6382cb6a5d6f","system_id":"levelo_inurba_marseille","lat":43.29532,"lon":5.38552,"is_reserved":false,"is_disabled":false,"rental_uris":{"android":"levelo://app?vid=c11b054c-3328-4fb8-bc65-6382cb6a5d6f","ios":"levelo://app?vid=c11b054c-3328-4fb8-bc65-6382cb6a5d6f"},"vehicle_type_id":"4","last_reported":1753121824,"current_range_meters":14400,"station_id":"ce4bgih2rcd13ifvqba0","pricing_plan_id":"cebpf4jnsgd1na2vs0mg"},{"bike_id":"1c22819b-ef69-41c3-af80-068c7a58af48","system_id":"levelo_inurba_marseille","lat":43.321142,"lon":5.367678,"is_reserved":false,"is_disabled":false,"rental_uris":{"android":"levelo://app?vid=1c22819b-ef69-41c3-af80-068c7a58af48","ios":"levelo://app?vid=1c22819b-ef69-41c3-af80-068c7a58af48"},"vehicle_type_id":"4","last_reported":1753121824,"current_range_meters":14400,"station_id":"ce4bhrh2rcd13ifvqhug","pricing_plan_id":"cebpf4jnsgd1na2vs0mg"},{"bike_id":"ec84aa5c-77e8-4caf-b79f-8fd3d205d300","system_id":"levelo_inurba_marseille","lat":43.28273,"lon":5.35072,"is_reserved":false,"is_disabled":true,"rental_uris":{"android":"levelo://app?vid=ec84aa5c-77e8-4caf-b79f-8fd3d205d300","ios":"levelo://app?vid=ec84aa5c-77e8-4caf-b79f-8fd3d205d300"},"vehicle_type_id":"4","last_reported":1753121824,"current_range_meters":14400,"station_id":"ce4bhbp2rcd13ifvqerg","pricing_plan_id":"cebpf4jnsgd1na2vs0mg"},{"bike_id":"c4ddf749-008b-4a14-af16-f3a13a431402","system_id":"levelo_inurba_marseille","lat":43.21194,"lon":5.35039,"is_reserved":false,"is_disabled":false,"rental_uris":{"android":"levelo://app?vid=c4ddf749-008b-4a14-af16-f3a13a431402","ios":"levelo://app?vid=c4ddf749-008b-4a14-af16-f3a13a431402"},"vehicle_type_id":"4","last_reported":1753121824,"current_range_meters":14800,"station_id":"st_cvj6sg6p6f1abm77japg","pricing_plan_id":"cebpf4jnsgd1na2vs0mg"},{"bike_id":"7347599e-b85b-4370-902c-7d96e95ce228","system_id":"levelo_inurba_marseille","lat":43.28158,"lon":5.42621,"is_reserved":false,"is_disabled":false,"rental_uris":{"android":"levelo://app?vid=7347599e-b85b-4370-902c-7d96e95ce228","ios":"levelo://app?vid=7347599e-b85b-4370-902c-7d96e95ce228"},"vehicle_type_id":"4","last_reported":1753121824,"current_range_meters":14800,"station_id":"ce4bhnh2rcd13ifvqgug","pricing_plan_id":"cebpf4jnsgd1na2vs0mg"},{"bike_id":"65bb16ec-6b61-4c3f-a456-29205b3d8690","system_id":"levelo_inurba_marseille","lat":43.29005,"lon":5.35614,"is_reserved":false,"is_disabled":false,"rental_uris":{"android":"levelo://app?vid=65bb16ec-6b61-4c3f-a456-29205b3d8690","ios":"levelo://app?vid=65bb16ec-6b61-4c3f-a456-29205b3d8690"},"vehicle_type_id":"4","last_reported":1753121824,"current_range_meters":14800,"station_id":"ce4bhb92rcd13ifvqen0","pricing_plan_id":"cebpf4jnsgd1na2vs0mg"},{"bike_id":"6c7edc56-0dd2-425e-8068-97bd3e4f7034","system_id":"levelo_inurba_marseille","lat":43.29003,"lon":5.356125,"is_reserved":false,"is_disabled":false,"rental_uris":{"android":"levelo://app?vid=6c7edc56-0dd2-425e-8068-97bd3e4f7034","ios":"levelo://app?vid=6c7edc56-0dd2-425e-8068-97bd3e4f7034"},"vehicle_type_id":"4","last_reported":1753121824,"current_range_meters":14800,"station_id":"ce4bhb92rcd13ifvqen0","pricing_plan_id":"cebpf4jnsgd1na2vs0mg"},{"bike_id":"388133c3-e850-4faa-97d9-7f3a80dea77b","system_id":"levelo_inurba_marseille","lat":43.27497,"lon":5.4245,"is_reserved":false,"is_disabled":false,"rental_uris":{"android":"levelo://app?vid=388133c3-e850-4faa-97d9-7f3a80dea77b","ios":"levelo://app?vid=388133c3-e850-4faa-97d9-7f3a80dea77b"},"vehicle_type_id":"4","last_reported":1753121824,"current_range_meters":14800,"station_id":"ce4bhn92rcd13ifvqgrg","pricing_plan_id":"cebpf4jnsgd1na2vs0mg"},{"bike_id":"25e8648b-8080-4b4c-9f9d-4773eb034ce7","system_id":"levelo_inurba_marseille","lat":43.24169,"lon":5.36401,"is_reserved":false,"is_disabled":false,"rental_uris":{"android":"levelo://app?vid=25e8648b-8080-4b4c-9f9d-4773eb034ce7","ios":"levelo://app?vid=25e8648b-8080-4b4c-9f9d-4773eb034ce7"},"vehicle_type_id":"4","last_reported":1753121824,"current_range_meters":14800,"station_id":"cpo36qri1sfpv3e86is0","pricing_plan_id":"cebpf4jnsgd1na2vs0mg"},{"bike_id":"2e53d9f8-1df5-48f5-b763-5f8396a6577a","system_id":"levelo_inurba_marseille","lat":43.23193,"lon":5.3555,"is_reserved":false,"is_disabled":false,"rental_uris":{"android":"levelo://app?vid=2e53d9f8-1df5-48f5-b763-5f8396a6577a","ios":"levelo://app?vid=2e53d9f8-1df5-48f5-b763-5f8396a6577a"},"vehicle_type_id":"4","last_reported":1753121824,"current_range_meters":14800,"station_id":"ce4bhu92rcd13ifvqi70","pricing_plan_id":"cebpf4jnsgd1na2vs0mg"},{"bike_id":"99bfe000-ae17-4427-90e7-8b0ff56fc35b","system_id":"levelo_inurba_marseille","lat":43.25507,"lon":5.37661,"is_reserved":false,"is_disabled":false,"rental_uris":{"android":"levelo://app?vid=99bfe000-ae17-4427-90e7-8b0ff56fc35b","ios":"levelo://app?vid=99bfe000-ae17-4427-90e7-8b0ff56fc35b"},"vehicle_type_id":"4","last_reported":1753121824,"current_range_meters":14800,"station_id":"ce4bhh12rcd13ifvqff0","pricing_plan_id":"cebpf4jnsgd1na2vs0mg"},{"bike_id":"35e459ff-adb7-4cf8-b854-81494ef304bb","system_id":"levelo_inurba_marseille","lat":43.29261,"lon":5.38441,"is_reserved":false,"is_disabled":false,"rental_uris":{"android":"levelo://app?vid=35e459ff-adb7-4cf8-b854-81494ef304bb","ios":"levelo://app?vid=35e459ff-adb7-4cf8-b854-81494ef304bb"},"vehicle_type_id":"4","last_reported":1753121824,"current_range_meters":15200,"station_id":"ce4bh692rcd13ifvqea0","pricing_plan_id":"cebpf4jnsgd1na2vs0mg"},{"bike_id":"3930b98a-09f3-4a77-a461-bb23f300fb5a","system_id":"levelo_inurba_marseille","lat":43.29002,"lon":5.35611,"is_reserved":false,"is_disabled":false,"rental_uris":{"android":"levelo://app?vid=3930b98a-09f3-4a77-a461-bb23f300fb5a","ios":"levelo://app?vid=3930b98a-09f3-4a77-a461-bb23f300fb5a"},"vehicle_type_id":"4","last_reported":1753121824,"current_range_meters":15200,"station_id":"ce4bhb92rcd13ifvqen0","pricing_plan_id":"cebpf4jnsgd1na2vs0mg"},{"bike_id":"37eb163c-27b6-4f21-8e81-022abe2385c0","system_id":"levelo_inurba_marseille","lat":43.28419,"lon":5.34994,"is_reserved":false,"is_disabled":false,"rental_uris":{"android":"levelo://app?vid=37eb163c-27b6-4f21-8e81-022abe2385c0","ios":"levelo://app?vid=37eb163c-27b6-4f21-8e81-022abe2385c0"},"vehicle_type_id":"4","last_reported":1753121824,"current_range_meters":15200,"station_id":"ce4bhbh2rcd13ifvqepg","pricing_plan_id":"cebpf4jnsgd1na2vs0mg"},{"bike_id":"fcf79f6d-7293-41e5-900c-e843f52ecde7","system_id":"levelo_inurba_marseille","lat":43.2846,"lon":5.35885,"is_reserved":false,"is_disabled":false,"rental_uris":{"android":"levelo://app?vid=fcf79f6d-7293-41e5-900c-e843f52ecde7","ios":"levelo://app?vid=fcf79f6d-7293-41e5-900c-e843f52ecde7"},"vehicle_type_id":"4","last_reported":1753121824,"current_range_meters":14800,"station_id":"ce4bhah2rcd13ifvqei0","pricing_plan_id":"cebpf4jnsgd1na2vs0mg"},{"bike_id":"6eb19406-990e-413e-87de-604d976cb893","system_id":"levelo_inurba_marseille","lat":43.26299,"lon":5.40441,"is_reserved":false,"is_disabled":false,"rental_uris":{"android":"levelo://app?vid=6eb19406-990e-413e-87de-604d976cb893","ios":"levelo://app?vid=6eb19406-990e-413e-87de-604d976cb893"},"vehicle_type_id":"4","last_reported":1753121824,"current_range_meters":15200,"station_id":"","pricing_plan_id":"cebpf4jnsgd1na2vs0mg"},{"bike_id":"8bf3f61a-9baf-407d-95da-7233e0a994c9","system_id":"levelo_inurba_marseille","lat":43.30803,"lon":5.38144,"is_reserved":false,"is_disabled":false,"rental_uris":{"android":"levelo://app?vid=8bf3f61a-9baf-407d-95da-7233e0a994c9","ios":"levelo://app?vid=8bf3f61a-9baf-407d-95da-7233e0a994c9"},"vehicle_type_id":"4","last_reported":1753121824,"current_range_meters":15200,"station_id":"ce4bgt12rcd13ifvqce0","pricing_plan_id":"cebpf4jnsgd1na2vs0mg"},{"bike_id":"50d16da1-39af-48c8-9080-8fc1a2184959","system_id":"levelo_inurba_marseille","lat":43.212,"lon":5.35058,"is_reserved":false,"is_disabled":false,"rental_uris":{"android":"levelo://app?vid=50d16da1-39af-48c8-9080-8fc1a2184959","ios":"levelo://app?vid=50d16da1-39af-48c8-9080-8fc1a2184959"},"vehicle_type_id":"4","last_reported":1753121824,"current_range_meters":15200,"station_id":"st_cvj6sg6p6f1abm77japg","pricing_plan_id":"cebpf4jnsgd1na2vs0mg"},{"bike_id":"c4486243-3429-4ac3-9540-f23a1f9b93c5","system_id":"levelo_inurba_marseille","lat":43.23967,"lon":5.36631,"is_reserved":false,"is_disabled":false,"rental_uris":{"android":"levelo://app?vid=c4486243-3429-4ac3-9540-f23a1f9b93c5","ios":"levelo://app?vid=c4486243-3429-4ac3-9540-f23a1f9b93c5"},"vehicle_type_id":"4","last_reported":1753121824,"current_range_meters":16000,"station_id":"ce4bhi12rcd13ifvqfp0","pricing_plan_id":"cebpf4jnsgd1na2vs0mg"},{"bike_id":"8f3f5b93-18a0-4551-ae7b-6e1721200afc","system_id":"levelo_inurba_marseille","lat":43.30796,"lon":5.38154,"is_reserved":false,"is_disabled":false,"rental_uris":{"android":"levelo://app?vid=8f3f5b93-18a0-4551-ae7b-6e1721200afc","ios":"levelo://app?vid=8f3f5b93-18a0-4551-ae7b-6e1721200afc"},"vehicle_type_id":"4","last_reported":1753121824,"current_range_meters":16000,"station_id":"ce4bgt12rcd13ifvqce0","pricing_plan_id":"cebpf4jnsgd1na2vs0mg"},{"bike_id":"85b008dd-0f9f-4205-aa28-4f549082c3e6","system_id":"levelo_inurba_marseille","lat":43.2119,"lon":5.35062,"is_reserved":false,"is_disabled":false,"rental_uris":{"android":"levelo://app?vid=85b008dd-0f9f-4205-aa28-4f549082c3e6","ios":"levelo://app?vid=85b008dd-0f9f-4205-aa28-4f549082c3e6"},"vehicle_type_id":"4","last_reported":1753121824,"current_range_meters":16000,"station_id":"st_cvj6sg6p6f1abm77japg","pricing_plan_id":"cebpf4jnsgd1na2vs0mg"},{"bike_id":"ba2b3a99-8668-4f5d-bab3-0079c47bd454","system_id":"levelo_inurba_marseille","lat":43.32539,"lon":5.41495,"is_reserved":false,"is_disabled":true,"rental_uris":{"android":"levelo://app?vid=ba2b3a99-8668-4f5d-bab3-0079c47bd454","ios":"levelo://app?vid=ba2b3a99-8668-4f5d-bab3-0079c47bd454"},"vehicle_type_id":"4","last_reported":1753121824,"current_range_meters":16000,"station_id":"ce4bhq12rcd13ifvqhhg","pricing_plan_id":"cebpf4jnsgd1na2vs0mg"},{"bike_id":"e57606de-d549-4a50-8b75-91216215a181","system_id":"levelo_inurba_marseille","lat":43.274931,"lon":5.424486,"is_reserved":false,"is_disabled":true,"rental_uris":{"android":"levelo://app?vid=e57606de-d549-4a50-8b75-91216215a181","ios":"levelo://app?vid=e57606de-d549-4a50-8b75-91216215a181"},"vehicle_type_id":"4","last_reported":1753121824,"current_range_meters":16000,"station_id":"ce4bhn92rcd13ifvqgrg","pricing_plan_id":"cebpf4jnsgd1na2vs0mg"},{"bike_id":"458f2106-ace0-4bc4-850b-c4acdda59689","system_id":"levelo_inurba_marseille","lat":43.28261,"lon":5.35066,"is_reserved":false,"is_disabled":false,"rental_uris":{"android":"levelo://app?vid=458f2106-ace0-4bc4-850b-c4acdda59689","ios":"levelo://app?vid=458f2106-ace0-4bc4-850b-c4acdda59689"},"vehicle_type_id":"4","last_reported":1753121824,"current_range_meters":16000,"station_id":"ce4bhbp2rcd13ifvqerg","pricing_plan_id":"cebpf4jnsgd1na2vs0mg"},{"bike_id":"289b7b04-082d-4df4-bce3-77c2c7e6429a","system_id":"levelo_inurba_marseille","lat":43.23184,"lon":5.39976,"is_reserved":false,"is_disabled":false,"rental_uris":{"android":"levelo://app?vid=289b7b04-082d-4df4-bce3-77c2c7e6429a","ios":"levelo://app?vid=289b7b04-082d-4df4-bce3-77c2c7e6429a"},"vehicle_type_id":"4","last_reported":1753121824,"current_range_meters":16000,"station_id":"ce4bhn12rcd13ifvqgqg","pricing_plan_id":"cebpf4jnsgd1na2vs0mg"},{"bike_id":"8423e589-47bf-47a8-b90f-452fc938c46b","system_id":"levelo_inurba_marseille","lat":43.32355,"lon":5.36727,"is_reserved":false,"is_disabled":false,"rental_uris":{"android":"levelo://app?vid=8423e589-47bf-47a8-b90f-452fc938c46b","ios":"levelo://app?vid=8423e589-47bf-47a8-b90f-452fc938c46b"},"vehicle_type_id":"4","last_reported":1753121824,"current_range_meters":16000,"station_id":"ce4bhsh2rcd13ifvqi2g","pricing_plan_id":"cebpf4jnsgd1na2vs0mg"},{"bike_id":"33f61526-b640-47b6-9cd8-b7ab50aaf47b","system_id":"levelo_inurba_marseille","lat":43.23193,"lon":5.35564,"is_reserved":false,"is_disabled":false,"rental_uris":{"android":"levelo://app?vid=33f61526-b640-47b6-9cd8-b7ab50aaf47b","ios":"levelo://app?vid=33f61526-b640-47b6-9cd8-b7ab50aaf47b"},"vehicle_type_id":"4","last_reported":1753121824,"current_range_meters":16000,"station_id":"ce4bhu92rcd13ifvqi70","pricing_plan_id":"cebpf4jnsgd1na2vs0mg"},{"bike_id":"8f286a53-11b4-4d84-b9ef-1762d5ab74d4","system_id":"levelo_inurba_marseille","lat":43.28427,"lon":5.34988,"is_reserved":false,"is_disabled":false,"rental_uris":{"android":"levelo://app?vid=8f286a53-11b4-4d84-b9ef-1762d5ab74d4","ios":"levelo://app?vid=8f286a53-11b4-4d84-b9ef-1762d5ab74d4"},"vehicle_type_id":"4","last_reported":1753121824,"current_range_meters":16000,"station_id":"ce4bhbh2rcd13ifvqepg","pricing_plan_id":"cebpf4jnsgd1na2vs0mg"},{"bike_id":"6ecd5a2b-6dae-44b3-a162-e5286af43d43","system_id":"levelo_inurba_marseille","lat":43.22535,"lon":5.34785,"is_reserved":false,"is_disabled":false,"rental_uris":{"android":"levelo://app?vid=6ecd5a2b-6dae-44b3-a162-e5286af43d43","ios":"levelo://app?vid=6ecd5a2b-6dae-44b3-a162-e5286af43d43"},"vehicle_type_id":"4","last_reported":1753121824,"current_range_meters":16000,"station_id":"st_cvj5dfep6f1abm77gieg","pricing_plan_id":"cebpf4jnsgd1na2vs0mg"},{"bike_id":"8623e104-31b9-42b2-96cf-b9f1ba7058fc","system_id":"levelo_inurba_marseille","lat":43.21206,"lon":5.35052,"is_reserved":false,"is_disabled":false,"rental_uris":{"android":"levelo://app?vid=8623e104-31b9-42b2-96cf-b9f1ba7058fc","ios":"levelo://app?vid=8623e104-31b9-42b2-96cf-b9f1ba7058fc"},"vehicle_type_id":"4","last_reported":1753121824,"current_range_meters":16000,"station_id":"st_cvj6sg6p6f1abm77japg","pricing_plan_id":"cebpf4jnsgd1na2vs0mg"},{"bike_id":"68ad25bf-3ce4-4219-aae6-b4b4ca3df214","system_id":"levelo_inurba_marseille","lat":43.22507,"lon":5.34779,"is_reserved":false,"is_disabled":false,"rental_uris":{"android":"levelo://app?vid=68ad25bf-3ce4-4219-aae6-b4b4ca3df214","ios":"levelo://app?vid=68ad25bf-3ce4-4219-aae6-b4b4ca3df214"},"vehicle_type_id":"4","last_reported":1753121824,"current_range_meters":16400,"station_id":"st_cvj5dfep6f1abm77gieg","pricing_plan_id":"cebpf4jnsgd1na2vs0mg"},{"bike_id":"78bc8f6c-0689-4a90-8e35-b23c754ea4de","system_id":"levelo_inurba_marseille","lat":43.29525,"lon":5.39035,"is_reserved":false,"is_disabled":false,"rental_uris":{"android":"levelo://app?vid=78bc8f6c-0689-4a90-8e35-b23c754ea4de","ios":"levelo://app?vid=78bc8f6c-0689-4a90-8e35-b23c754ea4de"},"vehicle_type_id":"4","last_reported":1753121824,"current_range_meters":16400,"station_id":"ce4bh3p2rcd13ifvqdp0","pricing_plan_id":"cebpf4jnsgd1na2vs0mg"},{"bike_id":"c9001d50-135a-4a58-874e-9c3c29a0244d","system_id":"levelo_inurba_marseille","lat":43.29867,"lon":5.39728,"is_reserved":false,"is_disabled":false,"rental_uris":{"android":"levelo://app?vid=c9001d50-135a-4a58-874e-9c3c29a0244d","ios":"levelo://app?vid=c9001d50-135a-4a58-874e-9c3c29a0244d"},"vehicle_type_id":"4","last_reported":1753121824,"current_range_meters":16400,"station_id":"ce4bh0h2rcd13ifvqd50","pricing_plan_id":"cebpf4jnsgd1na2vs0mg"},{"bike_id":"a5d420c1-6f63-4560-9fe2-e08db2c4fecb","system_id":"levelo_inurba_marseille","lat":43.21193,"lon":5.35061,"is_reserved":false,"is_disabled":false,"rental_uris":{"android":"levelo://app?vid=a5d420c1-6f63-4560-9fe2-e08db2c4fecb","ios":"levelo://app?vid=a5d420c1-6f63-4560-9fe2-e08db2c4fecb"},"vehicle_type_id":"4","last_reported":1753121824,"current_range_meters":16400,"station_id":"st_cvj6sg6p6f1abm77japg","pricing_plan_id":"cebpf4jnsgd1na2vs0mg"},{"bike_id":"6940e707-2866-429c-af31-7f2bd9c2bc86","system_id":"levelo_inurba_marseille","lat":43.24163,"lon":5.36397,"is_reserved":false,"is_disabled":false,"rental_uris":{"android":"levelo://app?vid=6940e707-2866-429c-af31-7f2bd9c2bc86","ios":"levelo://app?vid=6940e707-2866-429c-af31-7f2bd9c2bc86"},"vehicle_type_id":"4","last_reported":1753121824,"current_range_meters":16400,"station_id":"cpo36qri1sfpv3e86is0","pricing_plan_id":"cebpf4jnsgd1na2vs0mg"},{"bike_id":"5c60ff00-8a7a-4c46-b539-0227854b2074","system_id":"levelo_inurba_marseille","lat":43.297777,"lon":5.381044,"is_reserved":false,"is_disabled":true,"rental_uris":{"android":"levelo://app?vid=5c60ff00-8a7a-4c46-b539-0227854b2074","ios":"levelo://app?vid=5c60ff00-8a7a-4c46-b539-0227854b2074"},"vehicle_type_id":"4","last_reported":1753121824,"current_range_meters":16400,"station_id":"ce4bgip2rcd13ifvqbb0","pricing_plan_id":"cebpf4jnsgd1na2vs0mg"},{"bike_id":"077cd4d1-b0ee-4524-ba03-f0ecffec75f3","system_id":"levelo_inurba_marseille","lat":43.2927,"lon":5.38446,"is_reserved":false,"is_disabled":false,"rental_uris":{"android":"levelo://app?vid=077cd4d1-b0ee-4524-ba03-f0ecffec75f3","ios":"levelo://app?vid=077cd4d1-b0ee-4524-ba03-f0ecffec75f3"},"vehicle_type_id":"4","last_reported":1753121824,"current_range_meters":16400,"station_id":"ce4bh692rcd13ifvqea0","pricing_plan_id":"cebpf4jnsgd1na2vs0mg"},{"bike_id":"0d04369e-f201-4daa-bf5d-cbf094f424a0","system_id":"levelo_inurba_marseille","lat":43.27497,"lon":5.42452,"is_reserved":false,"is_disabled":false,"rental_uris":{"android":"levelo://app?vid=0d04369e-f201-4daa-bf5d-cbf094f424a0","ios":"levelo://app?vid=0d04369e-f201-4daa-bf5d-cbf094f424a0"},"vehicle_type_id":"4","last_reported":1753121824,"current_range_meters":16400,"station_id":"ce4bhn92rcd13ifvqgrg","pricing_plan_id":"cebpf4jnsgd1na2vs0mg"},{"bike_id":"2d6095ea-f882-494d-a187-fa879408181e","system_id":"levelo_inurba_marseille","lat":43.25137,"lon":5.37351,"is_reserved":false,"is_disabled":false,"rental_uris":{"android":"levelo://app?vid=2d6095ea-f882-494d-a187-fa879408181e","ios":"levelo://app?vid=2d6095ea-f882-494d-a187-fa879408181e"},"vehicle_type_id":"4","last_reported":1753121824,"current_range_meters":16400,"station_id":"","pricing_plan_id":"cebpf4jnsgd1na2vs0mg"},{"bike_id":"298d7476-28c7-4c61-8302-df95a7d5d3d6","system_id":"levelo_inurba_marseille","lat":43.22504,"lon":5.34789,"is_reserved":false,"is_disabled":false,"rental_uris":{"android":"levelo://app?vid=298d7476-28c7-4c61-8302-df95a7d5d3d6","ios":"levelo://app?vid=298d7476-28c7-4c61-8302-df95a7d5d3d6"},"vehicle_type_id":"4","last_reported":1753121824,"current_range_meters":16800,"station_id":"st_cvj5dfep6f1abm77gieg","pricing_plan_id":"cebpf4jnsgd1na2vs0mg"},{"bike_id":"76e8a4c7-1966-4c02-a21a-c2d4f4e224d8","system_id":"levelo_inurba_marseille","lat":43.29274,"lon":5.37603,"is_reserved":false,"is_disabled":true,"rental_uris":{"android":"levelo://app?vid=76e8a4c7-1966-4c02-a21a-c2d4f4e224d8","ios":"levelo://app?vid=76e8a4c7-1966-4c02-a21a-c2d4f4e224d8"},"vehicle_type_id":"4","last_reported":1753121824,"current_range_meters":16800,"station_id":"ce4bgi12rcd13ifvqb80","pricing_plan_id":"cebpf4jnsgd1na2vs0mg"},{"bike_id":"b6191c96-af83-462f-a3cc-e4778a781fff","system_id":"levelo_inurba_marseille","lat":43.21178,"lon":5.35092,"is_reserved":false,"is_disabled":false,"rental_uris":{"android":"levelo://app?vid=b6191c96-af83-462f-a3cc-e4778a781fff","ios":"levelo://app?vid=b6191c96-af83-462f-a3cc-e4778a781fff"},"vehicle_type_id":"4","last_reported":1753121824,"current_range_meters":16800,"station_id":"st_cvj6sg6p6f1abm77japg","pricing_plan_id":"cebpf4jnsgd1na2vs0mg"},{"bike_id":"0cb19f5e-6a19-4fc0-9b18-698188d68bf4","system_id":"levelo_inurba_marseille","lat":43.29726,"lon":5.43265,"is_reserved":false,"is_disabled":false,"rental_uris":{"android":"levelo://app?vid=0cb19f5e-6a19-4fc0-9b18-698188d68bf4","ios":"levelo://app?vid=0cb19f5e-6a19-4fc0-9b18-698188d68bf4"},"vehicle_type_id":"4","last_reported":1753121824,"current_range_meters":16800,"station_id":"","pricing_plan_id":"cebpf4jnsgd1na2vs0mg"},{"bike_id":"3fb96fc8-d5fa-4cf5-a8ad-367ac5eda46c","system_id":"levelo_inurba_marseille","lat":43.32556,"lon":5.41439,"is_reserved":false,"is_disabled":false,"rental_uris":{"android":"levelo://app?vid=3fb96fc8-d5fa-4cf5-a8ad-367ac5eda46c","ios":"levelo://app?vid=3fb96fc8-d5fa-4cf5-a8ad-367ac5eda46c"},"vehicle_type_id":"4","last_reported":1753121824,"current_range_meters":16800,"station_id":"ce4bhq12rcd13ifvqhhg","pricing_plan_id":"cebpf4jnsgd1na2vs0mg"},{"bike_id":"91faf937-6768-4101-98da-411036d125c4","system_id":"levelo_inurba_marseille","lat":43.22955,"lon":5.35355,"is_reserved":false,"is_disabled":false,"rental_uris":{"android":"levelo://app?vid=91faf937-6768-4101-98da-411036d125c4","ios":"levelo://app?vid=91faf937-6768-4101-98da-411036d125c4"},"vehicle_type_id":"4","last_reported":1753121824,"current_range_meters":16800,"station_id":"cpo3532slgdg3j2ikp40","pricing_plan_id":"cebpf4jnsgd1na2vs0mg"},{"bike_id":"7f920b71-949a-4dda-afba-c766f67a057c","system_id":"levelo_inurba_marseille","lat":43.28663,"lon":5.36359,"is_reserved":false,"is_disabled":false,"rental_uris":{"android":"levelo://app?vid=7f920b71-949a-4dda-afba-c766f67a057c","ios":"levelo://app?vid=7f920b71-949a-4dda-afba-c766f67a057c"},"vehicle_type_id":"4","last_reported":1753121824,"current_range_meters":16400,"station_id":"ce4bhah2rcd13ifvqej0","pricing_plan_id":"cebpf4jnsgd1na2vs0mg"},{"bike_id":"7de8b846-26fa-455b-8bba-4b7966e75055","system_id":"levelo_inurba_marseille","lat":43.29877,"lon":5.38905,"is_reserved":false,"is_disabled":false,"rental_uris":{"android":"levelo://app?vid=7de8b846-26fa-455b-8bba-4b7966e75055","ios":"levelo://app?vid=7de8b846-26fa-455b-8bba-4b7966e75055"},"vehicle_type_id":"4","last_reported":1753121824,"current_range_meters":16800,"station_id":"ce4bh392rcd13ifvqdl0","pricing_plan_id":"cebpf4jnsgd1na2vs0mg"},{"bike_id":"fc0b215d-44fd-485c-b435-99baf63148f0","system_id":"levelo_inurba_marseille","lat":43.28672,"lon":5.36358,"is_reserved":false,"is_disabled":false,"rental_uris":{"android":"levelo://app?vid=fc0b215d-44fd-485c-b435-99baf63148f0","ios":"levelo://app?vid=fc0b215d-44fd-485c-b435-99baf63148f0"},"vehicle_type_id":"4","last_reported":1753121824,"current_range_meters":16800,"station_id":"ce4bhah2rcd13ifvqej0","pricing_plan_id":"cebpf4jnsgd1na2vs0mg"},{"bike_id":"a3331403-d62e-4db0-aa4d-97dc7efb90b4","system_id":"levelo_inurba_marseille","lat":43.28413,"lon":5.34975,"is_reserved":false,"is_disabled":false,"rental_uris":{"android":"levelo://app?vid=a3331403-d62e-4db0-aa4d-97dc7efb90b4","ios":"levelo://app?vid=a3331403-d62e-4db0-aa4d-97dc7efb90b4"},"vehicle_type_id":"4","last_reported":1753121824,"current_range_meters":17200,"station_id":"ce4bhbh2rcd13ifvqepg","pricing_plan_id":"cebpf4jnsgd1na2vs0mg"},{"bike_id":"cdba946f-3bab-4064-91a5-980de8d65fd8","system_id":"levelo_inurba_marseille","lat":43.30321,"lon":5.4045,"is_reserved":false,"is_disabled":false,"rental_uris":{"android":"levelo://app?vid=cdba946f-3bab-4064-91a5-980de8d65fd8","ios":"levelo://app?vid=cdba946f-3bab-4064-91a5-980de8d65fd8"},"vehicle_type_id":"4","last_reported":1753121824,"current_range_meters":16800,"station_id":"ce4bh012rcd13ifvqd10","pricing_plan_id":"cebpf4jnsgd1na2vs0mg"},{"bike_id":"4d2fb385-600a-460f-817d-c81c8838ad28","system_id":"levelo_inurba_marseille","lat":43.32362,"lon":5.36698,"is_reserved":false,"is_disabled":false,"rental_uris":{"android":"levelo://app?vid=4d2fb385-600a-460f-817d-c81c8838ad28","ios":"levelo://app?vid=4d2fb385-600a-460f-817d-c81c8838ad28"},"vehicle_type_id":"4","last_reported":1753121824,"current_range_meters":17200,"station_id":"ce4bhsh2rcd13ifvqi2g","pricing_plan_id":"cebpf4jnsgd1na2vs0mg"},{"bike_id":"617c222f-1367-4c6c-9a71-465ab7754439","system_id":"levelo_inurba_marseille","lat":43.29879,"lon":5.38914,"is_reserved":false,"is_disabled":false,"rental_uris":{"android":"levelo://app?vid=617c222f-1367-4c6c-9a71-465ab7754439","ios":"levelo://app?vid=617c222f-1367-4c6c-9a71-465ab7754439"},"vehicle_type_id":"4","last_reported":1753121824,"current_range_meters":16800,"station_id":"ce4bh392rcd13ifvqdl0","pricing_plan_id":"cebpf4jnsgd1na2vs0mg"},{"bike_id":"94fc0051-ffae-46fe-b515-a386fdd9f3df","system_id":"levelo_inurba_marseille","lat":43.33716,"lon":5.39186,"is_reserved":false,"is_disabled":false,"rental_uris":{"android":"levelo://app?vid=94fc0051-ffae-46fe-b515-a386fdd9f3df","ios":"levelo://app?vid=94fc0051-ffae-46fe-b515-a386fdd9f3df"},"vehicle_type_id":"4","last_reported":1753121824,"current_range_meters":16800,"station_id":"ce4bhr92rcd13ifvqhsg","pricing_plan_id":"cebpf4jnsgd1na2vs0mg"},{"bike_id":"5560516f-a919-4234-a1c4-306ef0990fc4","system_id":"levelo_inurba_marseille","lat":43.265575,"lon":5.372882,"is_reserved":false,"is_disabled":false,"rental_uris":{"android":"levelo://app?vid=5560516f-a919-4234-a1c4-306ef0990fc4","ios":"levelo://app?vid=5560516f-a919-4234-a1c4-306ef0990fc4"},"vehicle_type_id":"4","last_reported":1753121824,"current_range_meters":17200,"station_id":"ce4bhg12rcd13ifvqf70","pricing_plan_id":"cebpf4jnsgd1na2vs0mg"},{"bike_id":"32d0c7e9-7c33-41cd-ba8d-ff7f7bddac6f","system_id":"levelo_inurba_marseille","lat":43.29279,"lon":5.40123,"is_reserved":false,"is_disabled":false,"rental_uris":{"android":"levelo://app?vid=32d0c7e9-7c33-41cd-ba8d-ff7f7bddac6f","ios":"levelo://app?vid=32d0c7e9-7c33-41cd-ba8d-ff7f7bddac6f"},"vehicle_type_id":"4","last_reported":1753121824,"current_range_meters":17200,"station_id":"ce4bh312rcd13ifvqdk0","pricing_plan_id":"cebpf4jnsgd1na2vs0mg"},{"bike_id":"51931bf6-1eb4-445c-8f29-98888cfaefc7","system_id":"levelo_inurba_marseille","lat":43.29384,"lon":5.39877,"is_reserved":false,"is_disabled":false,"rental_uris":{"android":"levelo://app?vid=51931bf6-1eb4-445c-8f29-98888cfaefc7","ios":"levelo://app?vid=51931bf6-1eb4-445c-8f29-98888cfaefc7"},"vehicle_type_id":"4","last_reported":1753121824,"current_range_meters":17200,"station_id":"","pricing_plan_id":"cebpf4jnsgd1na2vs0mg"},{"bike_id":"1c6c01a2-926d-4000-be27-c98848fb5f46","system_id":"levelo_inurba_marseille","lat":43.28902,"lon":5.36668,"is_reserved":false,"is_disabled":false,"rental_uris":{"android":"levelo://app?vid=1c6c01a2-926d-4000-be27-c98848fb5f46","ios":"levelo://app?vid=1c6c01a2-926d-4000-be27-c98848fb5f46"},"vehicle_type_id":"4","last_reported":1753121824,"current_range_meters":17200,"station_id":"ce4bhap2rcd13ifvqek0","pricing_plan_id":"cebpf4jnsgd1na2vs0mg"},{"bike_id":"58cbfa7e-c704-4866-ba9b-204648f1391a","system_id":"levelo_inurba_marseille","lat":43.299579,"lon":5.380973,"is_reserved":false,"is_disabled":false,"rental_uris":{"android":"levelo://app?vid=58cbfa7e-c704-4866-ba9b-204648f1391a","ios":"levelo://app?vid=58cbfa7e-c704-4866-ba9b-204648f1391a"},"vehicle_type_id":"4","last_reported":1753121824,"current_range_meters":17200,"station_id":"","pricing_plan_id":"cebpf4jnsgd1na2vs0mg"},{"bike_id":"1f607ee0-edd1-42af-9168-bb965d81d823","system_id":"levelo_inurba_marseille","lat":43.26212,"lon":5.37442,"is_reserved":false,"is_disabled":false,"rental_uris":{"android":"levelo://app?vid=1f607ee0-edd1-42af-9168-bb965d81d823","ios":"levelo://app?vid=1f607ee0-edd1-42af-9168-bb965d81d823"},"vehicle_type_id":"4","last_reported":1753121824,"current_range_meters":17200,"station_id":"ce4bhgp2rcd13ifvqfc0","pricing_plan_id":"cebpf4jnsgd1na2vs0mg"},{"bike_id":"97aa2cec-abd2-4bb1-9cfc-35f925e52cee","system_id":"levelo_inurba_marseille","lat":43.22927,"lon":5.35375,"is_reserved":false,"is_disabled":false,"rental_uris":{"android":"levelo://app?vid=97aa2cec-abd2-4bb1-9cfc-35f925e52cee","ios":"levelo://app?vid=97aa2cec-abd2-4bb1-9cfc-35f925e52cee"},"vehicle_type_id":"4","last_reported":1753121824,"current_range_meters":17200,"station_id":"cpo3532slgdg3j2ikp40","pricing_plan_id":"cebpf4jnsgd1na2vs0mg"},{"bike_id":"6bfd3911-fb09-452a-a50f-ee94a67ad371","system_id":"levelo_inurba_marseille","lat":43.28077,"lon":5.39651,"is_reserved":false,"is_disabled":false,"rental_uris":{"android":"levelo://app?vid=6bfd3911-fb09-452a-a50f-ee94a67ad371","ios":"levelo://app?vid=6bfd3911-fb09-452a-a50f-ee94a67ad371"},"vehicle_type_id":"4","last_reported":1753121824,"current_range_meters":17600,"station_id":"ce4bho12rcd13ifvqh2g","pricing_plan_id":"cebpf4jnsgd1na2vs0mg"},{"bike_id":"42dd5d68-3180-43b4-877a-6144326e2dbd","system_id":"levelo_inurba_marseille","lat":43.28485,"lon":5.38536,"is_reserved":false,"is_disabled":false,"rental_uris":{"android":"levelo://app?vid=42dd5d68-3180-43b4-877a-6144326e2dbd","ios":"levelo://app?vid=42dd5d68-3180-43b4-877a-6144326e2dbd"},"vehicle_type_id":"4","last_reported":1753121824,"current_range_meters":17600,"station_id":"","pricing_plan_id":"cebpf4jnsgd1na2vs0mg"},{"bike_id":"dcf3708e-28f1-439c-a33c-3314b62f6374","system_id":"levelo_inurba_marseille","lat":43.28097,"lon":5.39655,"is_reserved":false,"is_disabled":false,"rental_uris":{"android":"levelo://app?vid=dcf3708e-28f1-439c-a33c-3314b62f6374","ios":"levelo://app?vid=dcf3708e-28f1-439c-a33c-3314b62f6374"},"vehicle_type_id":"4","last_reported":1753121824,"current_range_meters":17600,"station_id":"ce4bho12rcd13ifvqh2g","pricing_plan_id":"cebpf4jnsgd1na2vs0mg"},{"bike_id":"3e41a664-e04c-4981-8f39-4f02f0aea1e1","system_id":"levelo_inurba_marseille","lat":43.29535,"lon":5.38543,"is_reserved":false,"is_disabled":false,"rental_uris":{"android":"levelo://app?vid=3e41a664-e04c-4981-8f39-4f02f0aea1e1","ios":"levelo://app?vid=3e41a664-e04c-4981-8f39-4f02f0aea1e1"},"vehicle_type_id":"4","last_reported":1753121824,"current_range_meters":17600,"station_id":"ce4bgih2rcd13ifvqba0","pricing_plan_id":"cebpf4jnsgd1na2vs0mg"},{"bike_id":"62f48056-fa61-49af-b28d-084a822ce6a4","system_id":"levelo_inurba_marseille","lat":43.28412,"lon":5.34985,"is_reserved":false,"is_disabled":false,"rental_uris":{"android":"levelo://app?vid=62f48056-fa61-49af-b28d-084a822ce6a4","ios":"levelo://app?vid=62f48056-fa61-49af-b28d-084a822ce6a4"},"vehicle_type_id":"4","last_reported":1753121824,"current_range_meters":17600,"station_id":"ce4bhbh2rcd13ifvqepg","pricing_plan_id":"cebpf4jnsgd1na2vs0mg"},{"bike_id":"034fb144-e964-4bcb-aafe-c2009eb12513","system_id":"levelo_inurba_marseille","lat":43.2978,"lon":5.39351,"is_reserved":false,"is_disabled":false,"rental_uris":{"android":"levelo://app?vid=034fb144-e964-4bcb-aafe-c2009eb12513","ios":"levelo://app?vid=034fb144-e964-4bcb-aafe-c2009eb12513"},"vehicle_type_id":"4","last_reported":1753121824,"current_range_meters":17600,"station_id":"chh1huq6cuj3fo74tm60","pricing_plan_id":"cebpf4jnsgd1na2vs0mg"},{"bike_id":"422bb312-d142-4164-bfdd-c9adfa76133c","system_id":"levelo_inurba_marseille","lat":43.28838,"lon":5.38081,"is_reserved":false,"is_disabled":false,"rental_uris":{"android":"levelo://app?vid=422bb312-d142-4164-bfdd-c9adfa76133c","ios":"levelo://app?vid=422bb312-d142-4164-bfdd-c9adfa76133c"},"vehicle_type_id":"4","last_reported":1753121824,"current_range_meters":17600,"station_id":"","pricing_plan_id":"cebpf4jnsgd1na2vs0mg"},{"bike_id":"a352f45d-892b-465e-b0bd-8dcd84460708","system_id":"levelo_inurba_marseille","lat":43.29276,"lon":5.38438,"is_reserved":false,"is_disabled":false,"rental_uris":{"android":"levelo://app?vid=a352f45d-892b-465e-b0bd-8dcd84460708","ios":"levelo://app?vid=a352f45d-892b-465e-b0bd-8dcd84460708"},"vehicle_type_id":"4","last_reported":1753121824,"current_range_meters":17600,"station_id":"ce4bh692rcd13ifvqea0","pricing_plan_id":"cebpf4jnsgd1na2vs0mg"},{"bike_id":"fe732a6c-bff8-47cc-932a-3c976c2c7a76","system_id":"levelo_inurba_marseille","lat":43.280363,"lon":5.369555,"is_reserved":false,"is_disabled":true,"rental_uris":{"android":"levelo://app?vid=fe732a6c-bff8-47cc-932a-3c976c2c7a76","ios":"levelo://app?vid=fe732a6c-bff8-47cc-932a-3c976c2c7a76"},"vehicle_type_id":"4","last_reported":1753121824,"current_range_meters":18000,"station_id":"","pricing_plan_id":"cebpf4jnsgd1na2vs0mg"},{"bike_id":"de4e98c3-82ca-4c88-9379-c8eb99022426","system_id":"levelo_inurba_marseille","lat":43.22926,"lon":5.35344,"is_reserved":false,"is_disabled":true,"rental_uris":{"android":"levelo://app?vid=de4e98c3-82ca-4c88-9379-c8eb99022426","ios":"levelo://app?vid=de4e98c3-82ca-4c88-9379-c8eb99022426"},"vehicle_type_id":"4","last_reported":1753121824,"current_range_meters":18000,"station_id":"cpo3532slgdg3j2ikp40","pricing_plan_id":"cebpf4jnsgd1na2vs0mg"},{"bike_id":"d12fb07b-01f2-4c84-ae9f-a7e1d27d2e4b","system_id":"levelo_inurba_marseille","lat":43.29516,"lon":5.39394,"is_reserved":false,"is_disabled":false,"rental_uris":{"android":"levelo://app?vid=d12fb07b-01f2-4c84-ae9f-a7e1d27d2e4b","ios":"levelo://app?vid=d12fb07b-01f2-4c84-ae9f-a7e1d27d2e4b"},"vehicle_type_id":"4","last_reported":1753121824,"current_range_meters":18000,"station_id":"ce4bh292rcd13ifvqdf0","pricing_plan_id":"cebpf4jnsgd1na2vs0mg"},{"bike_id":"fcfcab21-c006-493e-b899-9601cd805b11","system_id":"levelo_inurba_marseille","lat":43.29033,"lon":5.38636,"is_reserved":false,"is_disabled":false,"rental_uris":{"android":"levelo://app?vid=fcfcab21-c006-493e-b899-9601cd805b11","ios":"levelo://app?vid=fcfcab21-c006-493e-b899-9601cd805b11"},"vehicle_type_id":"4","last_reported":1753121824,"current_range_meters":18000,"station_id":"ce4bh4p2rcd13ifvqe0g","pricing_plan_id":"cebpf4jnsgd1na2vs0mg"},{"bike_id":"13adf853-6ca7-4ebd-8c9f-f4512dd3a322","system_id":"levelo_inurba_marseille","lat":43.33225,"lon":5.39845,"is_reserved":false,"is_disabled":true,"rental_uris":{"android":"levelo://app?vid=13adf853-6ca7-4ebd-8c9f-f4512dd3a322","ios":"levelo://app?vid=13adf853-6ca7-4ebd-8c9f-f4512dd3a322"},"vehicle_type_id":"4","last_reported":1753121824,"current_range_meters":18000,"station_id":"","pricing_plan_id":"cebpf4jnsgd1na2vs0mg"},{"bike_id":"b050b2a0-6d4d-4d6b-b7de-6a89501ce2b7","system_id":"levelo_inurba_marseille","lat":43.28952,"lon":5.36385,"is_reserved":false,"is_disabled":true,"rental_uris":{"android":"levelo://app?vid=b050b2a0-6d4d-4d6b-b7de-6a89501ce2b7","ios":"levelo://app?vid=b050b2a0-6d4d-4d6b-b7de-6a89501ce2b7"},"vehicle_type_id":"4","last_reported":1753121824,"current_range_meters":18000,"station_id":"ce4bhc92rcd13ifvqetg","pricing_plan_id":"cebpf4jnsgd1na2vs0mg"},{"bike_id":"668bfa40-7ae0-42dd-a6b6-6631a40f0c0f","system_id":"levelo_inurba_marseille","lat":43.33134,"lon":5.38595,"is_reserved":false,"is_disabled":false,"rental_uris":{"android":"levelo://app?vid=668bfa40-7ae0-42dd-a6b6-6631a40f0c0f","ios":"levelo://app?vid=668bfa40-7ae0-42dd-a6b6-6631a40f0c0f"},"vehicle_type_id":"4","last_reported":1753121824,"current_range_meters":18000,"station_id":"","pricing_plan_id":"cebpf4jnsgd1na2vs0mg"},{"bike_id":"b52df7e2-ad75-4d6b-a395-f1eb700f2fd1","system_id":"levelo_inurba_marseille","lat":43.24175,"lon":5.36397,"is_reserved":false,"is_disabled":false,"rental_uris":{"android":"levelo://app?vid=b52df7e2-ad75-4d6b-a395-f1eb700f2fd1","ios":"levelo://app?vid=b52df7e2-ad75-4d6b-a395-f1eb700f2fd1"},"vehicle_type_id":"4","last_reported":1753121824,"current_range_meters":18000,"station_id":"cpo36qri1sfpv3e86is0","pricing_plan_id":"cebpf4jnsgd1na2vs0mg"},{"bike_id":"f91f6007-a44c-43f9-b7a9-2ce4146be819","system_id":"levelo_inurba_marseille","lat":43.30351,"lon":5.41875,"is_reserved":false,"is_disabled":false,"rental_uris":{"android":"levelo://app?vid=f91f6007-a44c-43f9-b7a9-2ce4146be819","ios":"levelo://app?vid=f91f6007-a44c-43f9-b7a9-2ce4146be819"},"vehicle_type_id":"4","last_reported":1753121824,"current_range_meters":17600,"station_id":"ce4bhop2rcd13ifvqh7g","pricing_plan_id":"cebpf4jnsgd1na2vs0mg"},{"bike_id":"d1f4a8d6-0a7e-4ba9-8d2a-f8f9155602fc","system_id":"levelo_inurba_marseille","lat":43.273536,"lon":5.362568,"is_reserved":false,"is_disabled":false,"rental_uris":{"android":"levelo://app?vid=d1f4a8d6-0a7e-4ba9-8d2a-f8f9155602fc","ios":"levelo://app?vid=d1f4a8d6-0a7e-4ba9-8d2a-f8f9155602fc"},"vehicle_type_id":"4","last_reported":1753121824,"current_range_meters":18800,"station_id":"ce4bhbh2rcd13ifvqeo0","pricing_plan_id":"cebpf4jnsgd1na2vs0mg"},{"bike_id":"b4c1aa2a-e931-4ce6-8816-30ad77bdd520","system_id":"levelo_inurba_marseille","lat":43.241448,"lon":5.363743,"is_reserved":false,"is_disabled":false,"rental_uris":{"android":"levelo://app?vid=b4c1aa2a-e931-4ce6-8816-30ad77bdd520","ios":"levelo://app?vid=b4c1aa2a-e931-4ce6-8816-30ad77bdd520"},"vehicle_type_id":"4","last_reported":1753121824,"current_range_meters":18800,"station_id":"","pricing_plan_id":"cebpf4jnsgd1na2vs0mg"},{"bike_id":"f0c2ba90-efe2-43b7-b3cf-8afac986802c","system_id":"levelo_inurba_marseille","lat":43.29866,"lon":5.39734,"is_reserved":false,"is_disabled":false,"rental_uris":{"android":"levelo://app?vid=f0c2ba90-efe2-43b7-b3cf-8afac986802c","ios":"levelo://app?vid=f0c2ba90-efe2-43b7-b3cf-8afac986802c"},"vehicle_type_id":"4","last_reported":1753121824,"current_range_meters":18800,"station_id":"ce4bh0h2rcd13ifvqd50","pricing_plan_id":"cebpf4jnsgd1na2vs0mg"},{"bike_id":"7227f2a0-48ac-47a6-aa2d-661ad6a7a763","system_id":"levelo_inurba_marseille","lat":43.29058,"lon":5.3717,"is_reserved":false,"is_disabled":true,"rental_uris":{"android":"levelo://app?vid=7227f2a0-48ac-47a6-aa2d-661ad6a7a763","ios":"levelo://app?vid=7227f2a0-48ac-47a6-aa2d-661ad6a7a763"},"vehicle_type_id":"4","last_reported":1753121824,"current_range_meters":18800,"station_id":"ce4bgh92rcd13ifvqb40","pricing_plan_id":"cebpf4jnsgd1na2vs0mg"},{"bike_id":"87bc9e6f-1d5b-4237-a1df-3b5cfd8a9777","system_id":"levelo_inurba_marseille","lat":43.21219,"lon":5.35079,"is_reserved":false,"is_disabled":false,"rental_uris":{"android":"levelo://app?vid=87bc9e6f-1d5b-4237-a1df-3b5cfd8a9777","ios":"levelo://app?vid=87bc9e6f-1d5b-4237-a1df-3b5cfd8a9777"},"vehicle_type_id":"4","last_reported":1753121824,"current_range_meters":18800,"station_id":"st_cvj6sg6p6f1abm77japg","pricing_plan_id":"cebpf4jnsgd1na2vs0mg"},{"bike_id":"51810feb-c9da-4f93-85f1-44fc0b989db6","system_id":"levelo_inurba_marseille","lat":43.22944,"lon":5.35351,"is_reserved":false,"is_disabled":false,"rental_uris":{"android":"levelo://app?vid=51810feb-c9da-4f93-85f1-44fc0b989db6","ios":"levelo://app?vid=51810feb-c9da-4f93-85f1-44fc0b989db6"},"vehicle_type_id":"4","last_reported":1753121824,"current_range_meters":18800,"station_id":"cpo3532slgdg3j2ikp40","pricing_plan_id":"cebpf4jnsgd1na2vs0mg"},{"bike_id":"548389e0-0bbf-4427-93a8-4d3d2fe88481","system_id":"levelo_inurba_marseille","lat":43.275108,"lon":5.399825,"is_reserved":false,"is_disabled":false,"rental_uris":{"android":"levelo://app?vid=548389e0-0bbf-4427-93a8-4d3d2fe88481","ios":"levelo://app?vid=548389e0-0bbf-4427-93a8-4d3d2fe88481"},"vehicle_type_id":"4","last_reported":1753121824,"current_range_meters":19200,"station_id":"ce4bhk92rcd13ifvqgc0","pricing_plan_id":"cebpf4jnsgd1na2vs0mg"},{"bike_id":"1563c7fc-59b6-4f9b-8706-c59fa293def4","system_id":"levelo_inurba_marseille","lat":43.31359,"lon":5.38483,"is_reserved":false,"is_disabled":false,"rental_uris":{"android":"levelo://app?vid=1563c7fc-59b6-4f9b-8706-c59fa293def4","ios":"levelo://app?vid=1563c7fc-59b6-4f9b-8706-c59fa293def4"},"vehicle_type_id":"4","last_reported":1753121824,"current_range_meters":18800,"station_id":"ce4bgt92rcd13ifvqcf0","pricing_plan_id":"cebpf4jnsgd1na2vs0mg"},{"bike_id":"0252eab3-c3f3-4486-b893-58cb3f957c57","system_id":"levelo_inurba_marseille","lat":43.31719,"lon":5.38502,"is_reserved":false,"is_disabled":false,"rental_uris":{"android":"levelo://app?vid=0252eab3-c3f3-4486-b893-58cb3f957c57","ios":"levelo://app?vid=0252eab3-c3f3-4486-b893-58cb3f957c57"},"vehicle_type_id":"4","last_reported":1753121824,"current_range_meters":19200,"station_id":"","pricing_plan_id":"cebpf4jnsgd1na2vs0mg"},{"bike_id":"ce77ed30-76a6-46cf-94f3-a626fe24a481","system_id":"levelo_inurba_marseille","lat":43.24169,"lon":5.364,"is_reserved":false,"is_disabled":false,"rental_uris":{"android":"levelo://app?vid=ce77ed30-76a6-46cf-94f3-a626fe24a481","ios":"levelo://app?vid=ce77ed30-76a6-46cf-94f3-a626fe24a481"},"vehicle_type_id":"4","last_reported":1753121824,"current_range_meters":19200,"station_id":"cpo36qri1sfpv3e86is0","pricing_plan_id":"cebpf4jnsgd1na2vs0mg"},{"bike_id":"02bda465-5730-4d42-a0d1-5ffc89217a3f","system_id":"levelo_inurba_marseille","lat":43.30658,"lon":5.38184,"is_reserved":false,"is_disabled":false,"rental_uris":{"android":"levelo://app?vid=02bda465-5730-4d42-a0d1-5ffc89217a3f","ios":"levelo://app?vid=02bda465-5730-4d42-a0d1-5ffc89217a3f"},"vehicle_type_id":"4","last_reported":1753121824,"current_range_meters":19200,"station_id":"","pricing_plan_id":"cebpf4jnsgd1na2vs0mg"},{"bike_id":"4e14a86a-2c37-4223-b71a-029b43ba80a3","system_id":"levelo_inurba_marseille","lat":43.28078,"lon":5.39652,"is_reserved":false,"is_disabled":false,"rental_uris":{"android":"levelo://app?vid=4e14a86a-2c37-4223-b71a-029b43ba80a3","ios":"levelo://app?vid=4e14a86a-2c37-4223-b71a-029b43ba80a3"},"vehicle_type_id":"4","last_reported":1753121824,"current_range_meters":19200,"station_id":"ce4bho12rcd13ifvqh2g","pricing_plan_id":"cebpf4jnsgd1na2vs0mg"},{"bike_id":"d05bc00b-7e16-4441-9e07-1ae48a2b4f5f","system_id":"levelo_inurba_marseille","lat":43.27493,"lon":5.42452,"is_reserved":false,"is_disabled":false,"rental_uris":{"android":"levelo://app?vid=d05bc00b-7e16-4441-9e07-1ae48a2b4f5f","ios":"levelo://app?vid=d05bc00b-7e16-4441-9e07-1ae48a2b4f5f"},"vehicle_type_id":"4","last_reported":1753121824,"current_range_meters":19200,"station_id":"ce4bhn92rcd13ifvqgrg","pricing_plan_id":"cebpf4jnsgd1na2vs0mg"},{"bike_id":"3c7f072f-3158-420f-bc51-68912fc0c6a8","system_id":"levelo_inurba_marseille","lat":43.290326,"lon":5.375621,"is_reserved":false,"is_disabled":true,"rental_uris":{"android":"levelo://app?vid=3c7f072f-3158-420f-bc51-68912fc0c6a8","ios":"levelo://app?vid=3c7f072f-3158-420f-bc51-68912fc0c6a8"},"vehicle_type_id":"4","last_reported":1753121824,"current_range_meters":19200,"station_id":"ce4bh692rcd13ifvqe90","pricing_plan_id":"cebpf4jnsgd1na2vs0mg"},{"bike_id":"de5426ba-ae67-47a4-bece-c11c7065cd1e","system_id":"levelo_inurba_marseille","lat":43.21209,"lon":5.35045,"is_reserved":false,"is_disabled":false,"rental_uris":{"android":"levelo://app?vid=de5426ba-ae67-47a4-bece-c11c7065cd1e","ios":"levelo://app?vid=de5426ba-ae67-47a4-bece-c11c7065cd1e"},"vehicle_type_id":"4","last_reported":1753121824,"current_range_meters":19200,"station_id":"st_cvj6sg6p6f1abm77japg","pricing_plan_id":"cebpf4jnsgd1na2vs0mg"},{"bike_id":"a31ea856-693e-4b3f-bb68-48da10419fc6","system_id":"levelo_inurba_marseille","lat":43.29013,"lon":5.35602,"is_reserved":false,"is_disabled":false,"rental_uris":{"android":"levelo://app?vid=a31ea856-693e-4b3f-bb68-48da10419fc6","ios":"levelo://app?vid=a31ea856-693e-4b3f-bb68-48da10419fc6"},"vehicle_type_id":"4","last_reported":1753121824,"current_range_meters":19200,"station_id":"ce4bhb92rcd13ifvqen0","pricing_plan_id":"cebpf4jnsgd1na2vs0mg"},{"bike_id":"8418f68e-09c1-4ddb-8abc-0ddb40364c07","system_id":"levelo_inurba_marseille","lat":43.27619,"lon":5.36116,"is_reserved":false,"is_disabled":false,"rental_uris":{"android":"levelo://app?vid=8418f68e-09c1-4ddb-8abc-0ddb40364c07","ios":"levelo://app?vid=8418f68e-09c1-4ddb-8abc-0ddb40364c07"},"vehicle_type_id":"4","last_reported":1753121824,"current_range_meters":19600,"station_id":"ce4bgj92rcd13ifvqbe0","pricing_plan_id":"cebpf4jnsgd1na2vs0mg"},{"bike_id":"857f1185-9ed5-4b3f-9500-01b243184030","system_id":"levelo_inurba_marseille","lat":43.28106,"lon":5.37832,"is_reserved":false,"is_disabled":false,"rental_uris":{"android":"levelo://app?vid=857f1185-9ed5-4b3f-9500-01b243184030","ios":"levelo://app?vid=857f1185-9ed5-4b3f-9500-01b243184030"},"vehicle_type_id":"4","last_reported":1753121824,"current_range_meters":19600,"station_id":"ce4bha12rcd13ifvqee0","pricing_plan_id":"cebpf4jnsgd1na2vs0mg"},{"bike_id":"dda96cde-9f78-4371-a72f-1d24145c396a","system_id":"levelo_inurba_marseille","lat":43.211861,"lon":5.35074,"is_reserved":false,"is_disabled":false,"rental_uris":{"android":"levelo://app?vid=dda96cde-9f78-4371-a72f-1d24145c396a","ios":"levelo://app?vid=dda96cde-9f78-4371-a72f-1d24145c396a"},"vehicle_type_id":"4","last_reported":1753121824,"current_range_meters":19600,"station_id":"st_cvj6sg6p6f1abm77japg","pricing_plan_id":"cebpf4jnsgd1na2vs0mg"},{"bike_id":"1d76d70f-2d5f-4bdb-8e77-059b3c40a824","system_id":"levelo_inurba_marseille","lat":43.295366,"lon":5.385616,"is_reserved":false,"is_disabled":false,"rental_uris":{"android":"levelo://app?vid=1d76d70f-2d5f-4bdb-8e77-059b3c40a824","ios":"levelo://app?vid=1d76d70f-2d5f-4bdb-8e77-059b3c40a824"},"vehicle_type_id":"4","last_reported":1753121824,"current_range_meters":19600,"station_id":"ce4bgih2rcd13ifvqba0","pricing_plan_id":"cebpf4jnsgd1na2vs0mg"},{"bike_id":"d05c3ecb-63a5-49e1-b44c-1e6bcb10c94a","system_id":"levelo_inurba_marseille","lat":43.28976,"lon":5.37829,"is_reserved":false,"is_disabled":false,"rental_uris":{"android":"levelo://app?vid=d05c3ecb-63a5-49e1-b44c-1e6bcb10c94a","ios":"levelo://app?vid=d05c3ecb-63a5-49e1-b44c-1e6bcb10c94a"},"vehicle_type_id":"4","last_reported":1753121824,"current_range_meters":19200,"station_id":"ce4bh9p2rcd13ifvqed0","pricing_plan_id":"cebpf4jnsgd1na2vs0mg"},{"bike_id":"63534ad4-7706-487f-a06e-ddd8c7f4d39c","system_id":"levelo_inurba_marseille","lat":43.28696,"lon":5.3999,"is_reserved":false,"is_disabled":false,"rental_uris":{"android":"levelo://app?vid=63534ad4-7706-487f-a06e-ddd8c7f4d39c","ios":"levelo://app?vid=63534ad4-7706-487f-a06e-ddd8c7f4d39c"},