{"last_updated":1723324123,"ttl":30,"version":"2.2","data":{"bikes":[{"bike_id":"f83b16bd-d544-4b12-aafb-c8ce5dad7c7a","system_id":"levelo_inurba_marseille","lat":43.313391,"lon":5.36706,"is_reserved":false,"is_disabled":false,"rental_uris":{"android":"levelo://app?vid=f83b16bd-d544-4b12-aafb-c8ce5dad7c7a","ios":"levelo://app?vid=f83b16bd-d544-4b12-aafb-c8ce5dad7c7a"},"vehicle_type_id":"4","last_reported":1723324123,"current_range_meters":14400,"station_id":"ce4bgr92rcd13ifvqc6g","pricing_plan_id":"cebpf4jnsgd1na2vs0mg"},{"bike_id":"5d13f50b-7863-4e38-be55-cb4804552c0b","system_id":"levelo_inurba_marseille","lat":43.313391,"lon":5.36706,"is_reserved":false,"is_disabled":false,"rental_uris":{"android":"levelo://app?vid=5d13f50b-7863-4e38-be55-cb4804552c0b","ios":"levelo://app?vid=5d13f50b-7863-4e38-be55-cb4804552c0b"},"vehicle_type_id":"4","last_reported":1723324123,"current_range_meters":4800,"station_id":"ce4bgr92rcd13ifvqc6g","pricing_plan_id":"cebpf4jnsgd1na2vs0mg"},{"bike_id":"1d8cd8ae-7f98-4be9-8378-a49954575452","system_id":"levelo_inurba_marseille","lat":43.31316,"lon":5.36908,"is_reserved":false,"is_disabled":false,"rental_uris":{"android":"levelo://app?vid=1d8cd8ae-7f98-4be9-8378-a49954575452","ios":"levelo://app?vid=1d8cd8ae-7f98-4be9-8378-a49954575452"},"vehicle_type_id":"4","last_reported":1723324123,"current_range_meters":10000,"station_id":"","pricing_plan_id":"cebpf4jnsgd1na2vs0mg"},{"bike_id":"fdd69383-e99b-4cbb-9c27-07a231ac5768","system_id":"levelo_inurba_marseille","lat":43.309076,"lon":5.368465,"is_reserved":false,"is_disabled":false,"rental_uris":{"android":"levelo://app?vid=fdd69383-e99b-4cbb-9c27-07a231ac5768","ios":"levelo://app?vid=fdd69383-e99b-4cbb-9c27-07a231ac5768"},"vehicle_type_id":"4","last_reported":1723324123,"current_range_meters":2000,"station_id":"ce4bgn92rcd13ifvqbvg","pricing_plan_id":"cebpf4jnsgd1na2vs0mg"},{"bike_id":"8c8a8d1e-7570-40f5-ab02-5142a2e2b83a","system_id":"levelo_inurba_marseille","lat":43.31497,"lon":5.373,"is_reserved":false,"is_disabled":false,"rental_uris":{"android":"levelo://app?vid=8c8a8d1e-7570-40f5-ab02-5142a2e2b83a","ios":"levelo://app?vid=8c8a8d1e-7570-40f5-ab02-5142a2e2b83a"},"vehicle_type_id":"4","last_reported":1723324123,"current_range_meters":31200,"station_id":"ce4bgt12rcd13ifvqcd0","pricing_plan_id":"cebpf4jnsgd1na2vs0mg"},{"bike_id":"04c6ac2f-47f1-48e4-ad8e-bea76f4b37e6","system_id":"levelo_inurba_marseille","lat":43.314811,"lon":5.373103,"is_reserved":false,"is_disabled":false,"rental_uris":{"android":"levelo://app?vid=04c6ac2f-47f1-48e4-ad8e-bea76f4b37e6","ios":"levelo://app?vid=04c6ac2f-47f1-48e4-ad8e-bea76f4b37e6"},"vehicle_type_id":"4","last_reported":1723324123,"current_range_meters":30000,"station_id":"ce4bgt12rcd13ifvqcd0","pricing_plan_id":"cebpf4jnsgd1na2vs0mg"},{"bike_id":"9f2c0050-6fe7-466b-88d0-f3425eba67db","system_id":"levelo_inurba_marseille","lat":43.314811,"lon":5.373103,"is_reserved":false,"is_disabled":false,"rental_uris":{"android":"levelo://app?vid=9f2c0050-6fe7-466b-88d0-f3425eba67db","ios":"levelo://app?vid=9f2c0050-6fe7-466b-88d0-f3425eba67db"},"vehicle_type_id":"4","last_reported":1723324123,"current_range_meters":18000,"station_id":"ce4bgt12rcd13ifvqcd0","pricing_plan_id":"cebpf4jnsgd1na2vs0mg"},{"bike_id":"de74bec8-6eaa-461a-8eeb-4cd4e6f9475c","system_id":"levelo_inurba_marseille","lat":43.314811,"lon":5.373103,"is_reserved":false,"is_disabled":false,"rental_uris":{"android":"levelo://app?vid=de74bec8-6eaa-461a-8eeb-4cd4e6f9475c","ios":"levelo://app?vid=de74bec8-6eaa-461a-8eeb-4cd4e6f9475c"},"vehicle_type_id":"4","last_reported":1723324123,"current_range_meters":6800,"station_id":"ce4bgt12rcd13ifvqcd0","pricing_plan_id":"cebpf4jnsgd1na2vs0mg"},{"bike_id":"eba21d1a-203e-4cdf-bf49-24779d8eabca","system_id":"levelo_inurba_marseille","lat":43.31501,"lon":5.37301,"is_reserved":false,"is_disabled":false,"rental_uris":{"android":"levelo://app?vid=eba21d1a-203e-4cdf-bf49-24779d8eabca","ios":"levelo://app?vid=eba21d1a-203e-4cdf-bf49-24779d8eabca"},"vehicle_type_id":"4","last_reported":1723324123,"current_range_meters":31200,"station_id":"ce4bgt12rcd13ifvqcd0","pricing_plan_id":"cebpf4jnsgd1na2vs0mg"},{"bike_id":"5a8e6765-e48d-4a4d-ba3b-7a721465e630","system_id":"levelo_inurba_marseille","lat":43.314811,"lon":5.373103,"is_reserved":false,"is_disabled":false,"rental_uris":{"android":"levelo://app?vid=5a8e6765-e48d-4a4d-ba3b-7a721465e630","ios":"levelo://app?vid=5a8e6765-e48d-4a4d-ba3b-7a721465e630"},"vehicle_type_id":"4","last_reported":1723324123,"current_range_meters":19200,"station_id":"ce4bgt12rcd13ifvqcd0","pricing_plan_id":"cebpf4jnsgd1na2vs0mg"},{"bike_id":"4e230b93-9c64-4703-8d27-ab4ec7c67c35","system_id":"levelo_inurba_marseille","lat":43.314811,"lon":5.373103,"is_reserved":false,"is_disabled":false,"rental_uris":{"android":"levelo://app?vid=4e230b93-9c64-4703-8d27-ab4ec7c67c35","ios":"levelo://app?vid=4e230b93-9c64-4703-8d27-ab4ec7c67c35"},"vehicle_type_id":"4","last_reported":1723324123,"current_range_meters":24800,"station_id":"ce4bgt12rcd13ifvqcd0","pricing_plan_id":"cebpf4jnsgd1na2vs0mg"},{"bike_id":"a6245f34-159d-4bbd-b335-137f48e09167","system_id":"levelo_inurba_marseille","lat":43.309039,"lon":5.371797,"is_reserved":false,"is_disabled":false,"rental_uris":{"android":"levelo://app?vid=a6245f34-159d-4bbd-b335-137f48e09167","ios":"levelo://app?vid=a6245f34-159d-4bbd-b335-137f48e09167"},"vehicle_type_id":"4","last_reported":1723324123,"current_range_meters":15200,"station_id":"ce4bguh2rcd13ifvqckg","pricing_plan_id":"cebpf4jnsgd1na2vs0mg"},{"bike_id":"087fae70-8afe-404d-b206-51d12336968b","system_id":"levelo_inurba_marseille","lat":43.30889,"lon":5.37201,"is_reserved":false,"is_disabled":false,"rental_uris":{"android":"levelo://app?vid=087fae70-8afe-404d-b206-51d12336968b","ios":"levelo://app?vid=087fae70-8afe-404d-b206-51d12336968b"},"vehicle_type_id":"4","last_reported":1723324123,"current_range_meters":14800,"station_id":"ce4bguh2rcd13ifvqckg","pricing_plan_id":"cebpf4jnsgd1na2vs0mg"},{"bike_id":"d844294d-3eae-417b-b98e-e119f1d12abf","system_id":"levelo_inurba_marseille","lat":43.30883,"lon":5.37197,"is_reserved":false,"is_disabled":false,"rental_uris":{"android":"levelo://app?vid=d844294d-3eae-417b-b98e-e119f1d12abf","ios":"levelo://app?vid=d844294d-3eae-417b-b98e-e119f1d12abf"},"vehicle_type_id":"4","last_reported":1723324123,"current_range_meters":0,"station_id":"ce4bguh2rcd13ifvqckg","pricing_plan_id":"cebpf4jnsgd1na2vs0mg"},{"bike_id":"edfe2f12-4ee7-4926-9ff4-b13c16478e48","system_id":"levelo_inurba_marseille","lat":43.3088,"lon":5.37201,"is_reserved":false,"is_disabled":false,"rental_uris":{"android":"levelo://app?vid=edfe2f12-4ee7-4926-9ff4-b13c16478e48","ios":"levelo://app?vid=edfe2f12-4ee7-4926-9ff4-b13c16478e48"},"vehicle_type_id":"4","last_reported":1723324123,"current_range_meters":0,"station_id":"ce4bguh2rcd13ifvqckg","pricing_plan_id":"cebpf4jnsgd1na2vs0mg"},{"bike_id":"ffa42529-b6dc-4629-83e2-3a244681fcf7","system_id":"levelo_inurba_marseille","lat":43.311125,"lon":5.377624,"is_reserved":false,"is_disabled":false,"rental_uris":{"android":"levelo://app?vid=ffa42529-b6dc-4629-83e2-3a244681fcf7","ios":"levelo://app?vid=ffa42529-b6dc-4629-83e2-3a244681fcf7"},"vehicle_type_id":"4","last_reported":1723324123,"current_range_meters":6800,"station_id":"ce4bgt92rcd13ifvqcg0","pricing_plan_id":"cebpf4jnsgd1na2vs0mg"},{"bike_id":"fe4f07e0-a3ee-43c2-b0b7-d0e6e8e43789","system_id":"levelo_inurba_marseille","lat":43.304909,"lon":5.369533,"is_reserved":false,"is_disabled":false,"rental_uris":{"android":"levelo://app?vid=fe4f07e0-a3ee-43c2-b0b7-d0e6e8e43789","ios":"levelo://app?vid=fe4f07e0-a3ee-43c2-b0b7-d0e6e8e43789"},"vehicle_type_id":"4","last_reported":1723324123,"current_range_meters":17600,"station_id":"","pricing_plan_id":"cebpf4jnsgd1na2vs0mg"},{"bike_id":"7d7b318c-5b06-49a7-b730-489b2d8109e7","system_id":"levelo_inurba_marseille","lat":43.307945,"lon":5.376487,"is_reserved":false,"is_disabled":false,"rental_uris":{"android":"levelo://app?vid=7d7b318c-5b06-49a7-b730-489b2d8109e7","ios":"levelo://app?vid=7d7b318c-5b06-49a7-b730-489b2d8109e7"},"vehicle_type_id":"4","last_reported":1723324123,"current_range_meters":2400,"station_id":"ce4bgv92rcd13ifvqcq0","pricing_plan_id":"cebpf4jnsgd1na2vs0mg"},{"bike_id":"11b1d668-a928-465f-aa42-b784e61b5b4d","system_id":"levelo_inurba_marseille","lat":43.307945,"lon":5.376487,"is_reserved":false,"is_disabled":false,"rental_uris":{"android":"levelo://app?vid=11b1d668-a928-465f-aa42-b784e61b5b4d","ios":"levelo://app?vid=11b1d668-a928-465f-aa42-b784e61b5b4d"},"vehicle_type_id":"4","last_reported":1723324123,"current_range_meters":17200,"station_id":"ce4bgv92rcd13ifvqcq0","pricing_plan_id":"cebpf4jnsgd1na2vs0mg"},{"bike_id":"d0a3ab1c-a08f-4ba4-806c-e71766fb2af5","system_id":"levelo_inurba_marseille","lat":43.307945,"lon":5.376487,"is_reserved":false,"is_disabled":false,"rental_uris":{"android":"levelo://app?vid=d0a3ab1c-a08f-4ba4-806c-e71766fb2af5","ios":"levelo://app?vid=d0a3ab1c-a08f-4ba4-806c-e71766fb2af5"},"vehicle_type_id":"4","last_reported":1723324123,"current_range_meters":1600,"station_id":"ce4bgv92rcd13ifvqcq0","pricing_plan_id":"cebpf4jnsgd1na2vs0mg"},{"bike_id":"93352def-8152-451c-a82f-97cf5235f06d","system_id":"levelo_inurba_marseille","lat":43.307945,"lon":5.376487,"is_reserved":false,"is_disabled":false,"rental_uris":{"android":"levelo://app?vid=93352def-8152-451c-a82f-97cf5235f06d","ios":"levelo://app?vid=93352def-8152-451c-a82f-97cf5235f06d"},"vehicle_type_id":"4","last_reported":1723324123,"current_range_meters":6000,"station_id":"ce4bgv92rcd13ifvqcq0","pricing_plan_id":"cebpf4jnsgd1na2vs0mg"},{"bike_id":"f0427ece-42a1-479c-95f3-63e91234fed4","system_id":"levelo_inurba_marseille","lat":43.315289,"lon":5.380349,"is_reserved":false,"is_disabled":false,"rental_uris":{"android":"levelo://app?vid=f0427ece-42a1-479c-95f3-63e91234fed4","ios":"levelo://app?vid=f0427ece-42a1-479c-95f3-63e91234fed4"},"vehicle_type_id":"4","last_reported":1723324123,"current_range_meters":18400,"station_id":"ce4bhsp2rcd13ifvqi50","pricing_plan_id":"cebpf4jnsgd1na2vs0mg"},{"bike_id":"68d76b6e-b8b0-437c-80a8-b0cc039d8bf2","system_id":"levelo_inurba_marseille","lat":43.30348,"lon":5.36506,"is_reserved":false,"is_disabled":false,"rental_uris":{"android":"levelo://app?vid=68d76b6e-b8b0-437c-80a8-b0cc039d8bf2","ios":"levelo://app?vid=68d76b6e-b8b0-437c-80a8-b0cc039d8bf2"},"vehicle_type_id":"4","last_reported":1723324123,"current_range_meters":0,"station_id":"","pricing_plan_id":"cebpf4jnsgd1na2vs0mg"},{"bike_id":"a5706079-3cf7-4f94-8f6a-17a023dc03dd","system_id":"levelo_inurba_marseille","lat":43.30314,"lon":5.36898,"is_reserved":false,"is_disabled":false,"rental_uris":{"android":"levelo://app?vid=a5706079-3cf7-4f94-8f6a-17a023dc03dd","ios":"levelo://app?vid=a5706079-3cf7-4f94-8f6a-17a023dc03dd"},"vehicle_type_id":"4","last_reported":1723324123,"current_range_meters":0,"station_id":"ce4bgqh2rcd13ifvqc5g","pricing_plan_id":"cebpf4jnsgd1na2vs0mg"},{"bike_id":"9728a36a-f25d-485f-884f-cb1171e64e99","system_id":"levelo_inurba_marseille","lat":43.30311,"lon":5.36901,"is_reserved":false,"is_disabled":false,"rental_uris":{"android":"levelo://app?vid=9728a36a-f25d-485f-884f-cb1171e64e99","ios":"levelo://app?vid=9728a36a-f25d-485f-884f-cb1171e64e99"},"vehicle_type_id":"4","last_reported":1723324123,"current_range_meters":0,"station_id":"ce4bgqh2rcd13ifvqc5g","pricing_plan_id":"cebpf4jnsgd1na2vs0mg"},{"bike_id":"192bc778-be1f-402d-b1df-16d7172e5519","system_id":"levelo_inurba_marseille","lat":43.31359,"lon":5.38283,"is_reserved":false,"is_disabled":false,"rental_uris":{"android":"levelo://app?vid=192bc778-be1f-402d-b1df-16d7172e5519","ios":"levelo://app?vid=192bc778-be1f-402d-b1df-16d7172e5519"},"vehicle_type_id":"4","last_reported":1723324123,"current_range_meters":0,"station_id":"","pricing_plan_id":"cebpf4jnsgd1na2vs0mg"},{"bike_id":"717ad590-270b-47cb-ad0b-54077cbf7e53","system_id":"levelo_inurba_marseille","lat":43.324771,"lon":5.36557,"is_reserved":false,"is_disabled":false,"rental_uris":{"android":"levelo://app?vid=717ad590-270b-47cb-ad0b-54077cbf7e53","ios":"levelo://app?vid=717ad590-270b-47cb-ad0b-54077cbf7e53"},"vehicle_type_id":"4","last_reported":1723324123,"current_range_meters":28400,"station_id":"ce4bhs12rcd13ifvqhvg","pricing_plan_id":"cebpf4jnsgd1na2vs0mg"},{"bike_id":"de0172e0-14ee-424b-bdd4-724ad8910281","system_id":"levelo_inurba_marseille","lat":43.304606,"lon":5.379026,"is_reserved":false,"is_disabled":false,"rental_uris":{"android":"levelo://app?vid=de0172e0-14ee-424b-bdd4-724ad8910281","ios":"levelo://app?vid=de0172e0-14ee-424b-bdd4-724ad8910281"},"vehicle_type_id":"4","last_reported":1723324123,"current_range_meters":28800,"station_id":"ce4bgup2rcd13ifvqcn0","pricing_plan_id":"cebpf4jnsgd1na2vs0mg"},{"bike_id":"618f2635-8f0f-432b-ade7-76a1444a5c7a","system_id":"levelo_inurba_marseille","lat":43.304606,"lon":5.379026,"is_reserved":false,"is_disabled":false,"rental_uris":{"android":"levelo://app?vid=618f2635-8f0f-432b-ade7-76a1444a5c7a","ios":"levelo://app?vid=618f2635-8f0f-432b-ade7-76a1444a5c7a"},"vehicle_type_id":"4","last_reported":1723324123,"current_range_meters":28000,"station_id":"ce4bgup2rcd13ifvqcn0","pricing_plan_id":"cebpf4jnsgd1na2vs0mg"},{"bike_id":"b7c7470e-d02c-4f72-8b9d-2fd75489c834","system_id":"levelo_inurba_marseille","lat":43.324771,"lon":5.36557,"is_reserved":false,"is_disabled":false,"rental_uris":{"android":"levelo://app?vid=b7c7470e-d02c-4f72-8b9d-2fd75489c834","ios":"levelo://app?vid=b7c7470e-d02c-4f72-8b9d-2fd75489c834"},"vehicle_type_id":"4","last_reported":1723324123,"current_range_meters":0,"station_id":"ce4bhs12rcd13ifvqhvg","pricing_plan_id":"cebpf4jnsgd1na2vs0mg"},{"bike_id":"fc590896-1ef2-4d20-aa58-87c2f9cc0567","system_id":"levelo_inurba_marseille","lat":43.324771,"lon":5.36557,"is_reserved":false,"is_disabled":false,"rental_uris":{"android":"levelo://app?vid=fc590896-1ef2-4d20-aa58-87c2f9cc0567","ios":"levelo://app?vid=fc590896-1ef2-4d20-aa58-87c2f9cc0567"},"vehicle_type_id":"4","last_reported":1723324123,"current_range_meters":2400,"station_id":"ce4bhs12rcd13ifvqhvg","pricing_plan_id":"cebpf4jnsgd1na2vs0mg"},{"bike_id":"f509acdd-4e2b-4412-ba87-b355900b35f8","system_id":"levelo_inurba_marseille","lat":43.324771,"lon":5.36557,"is_reserved":false,"is_disabled":false,"rental_uris":{"android":"levelo://app?vid=f509acdd-4e2b-4412-ba87-b355900b35f8","ios":"levelo://app?vid=f509acdd-4e2b-4412-ba87-b355900b35f8"},"vehicle_type_id":"4","last_reported":1723324123,"current_range_meters":1200,"station_id":"ce4bhs12rcd13ifvqhvg","pricing_plan_id":"cebpf4jnsgd1na2vs0mg"},{"bike_id":"e808a47c-f1ab-49c8-9868-162ce164be9e","system_id":"levelo_inurba_marseille","lat":43.324771,"lon":5.36557,"is_reserved":false,"is_disabled":false,"rental_uris":{"android":"levelo://app?vid=e808a47c-f1ab-49c8-9868-162ce164be9e","ios":"levelo://app?vid=e808a47c-f1ab-49c8-9868-162ce164be9e"},"vehicle_type_id":"4","last_reported":1723324123,"current_range_meters":12800,"station_id":"ce4bhs12rcd13ifvqhvg","pricing_plan_id":"cebpf4jnsgd1na2vs0mg"},{"bike_id":"a7107ef9-55f0-477a-b52b-a987c265ac12","system_id":"levelo_inurba_marseille","lat":43.324771,"lon":5.36557,"is_reserved":false,"is_disabled":false,"rental_uris":{"android":"levelo://app?vid=a7107ef9-55f0-477a-b52b-a987c265ac12","ios":"levelo://app?vid=a7107ef9-55f0-477a-b52b-a987c265ac12"},"vehicle_type_id":"4","last_reported":1723324123,"current_range_meters":14000,"station_id":"ce4bhs12rcd13ifvqhvg","pricing_plan_id":"cebpf4jnsgd1na2vs0mg"},{"bike_id":"e5000063-db07-4064-adf1-e6b77f0e18ee","system_id":"levelo_inurba_marseille","lat":43.324771,"lon":5.36557,"is_reserved":false,"is_disabled":false,"rental_uris":{"android":"levelo://app?vid=e5000063-db07-4064-adf1-e6b77f0e18ee","ios":"levelo://app?vid=e5000063-db07-4064-adf1-e6b77f0e18ee"},"vehicle_type_id":"4","last_reported":1723324123,"current_range_meters":11600,"station_id":"ce4bhs12rcd13ifvqhvg","pricing_plan_id":"cebpf4jnsgd1na2vs0mg"},{"bike_id":"8d62cf42-ded4-40b6-a339-928240cb973a","system_id":"levelo_inurba_marseille","lat":43.324771,"lon":5.36557,"is_reserved":false,"is_disabled":false,"rental_uris":{"android":"levelo://app?vid=8d62cf42-ded4-40b6-a339-928240cb973a","ios":"levelo://app?vid=8d62cf42-ded4-40b6-a339-928240cb973a"},"vehicle_type_id":"4","last_reported":1723324123,"current_range_meters":1200,"station_id":"ce4bhs12rcd13ifvqhvg","pricing_plan_id":"cebpf4jnsgd1na2vs0mg"},{"bike_id":"b1733948-b5b9-45d7-af58-2f52b42c90cd","system_id":"levelo_inurba_marseille","lat":43.32485,"lon":5.36564,"is_reserved":false,"is_disabled":false,"rental_uris":{"android":"levelo://app?vid=b1733948-b5b9-45d7-af58-2f52b42c90cd","ios":"levelo://app?vid=b1733948-b5b9-45d7-af58-2f52b42c90cd"},"vehicle_type_id":"4","last_reported":1723324123,"current_range_meters":14000,"station_id":"ce4bhs12rcd13ifvqhvg","pricing_plan_id":"cebpf4jnsgd1na2vs0mg"},{"bike_id":"0c46650d-acbb-452c-8551-83b678600d8e","system_id":"levelo_inurba_marseille","lat":43.324771,"lon":5.36557,"is_reserved":false,"is_disabled":false,"rental_uris":{"android":"levelo://app?vid=0c46650d-acbb-452c-8551-83b678600d8e","ios":"levelo://app?vid=0c46650d-acbb-452c-8551-83b678600d8e"},"vehicle_type_id":"4","last_reported":1723324123,"current_range_meters":21600,"station_id":"ce4bhs12rcd13ifvqhvg","pricing_plan_id":"cebpf4jnsgd1na2vs0mg"},{"bike_id":"76436274-bfb3-4ec8-ba78-d4d266a1eb0d","system_id":"levelo_inurba_marseille","lat":43.310804,"lon":5.38359,"is_reserved":false,"is_disabled":false,"rental_uris":{"android":"levelo://app?vid=76436274-bfb3-4ec8-ba78-d4d266a1eb0d","ios":"levelo://app?vid=76436274-bfb3-4ec8-ba78-d4d266a1eb0d"},"vehicle_type_id":"4","last_reported":1723324123,"current_range_meters":12400,"station_id":"ce4bgv92rcd13ifvqcr0","pricing_plan_id":"cebpf4jnsgd1na2vs0mg"},{"bike_id":"620cf760-93c2-46b1-88bb-9a12e066140d","system_id":"levelo_inurba_marseille","lat":43.310804,"lon":5.38359,"is_reserved":false,"is_disabled":false,"rental_uris":{"android":"levelo://app?vid=620cf760-93c2-46b1-88bb-9a12e066140d","ios":"levelo://app?vid=620cf760-93c2-46b1-88bb-9a12e066140d"},"vehicle_type_id":"4","last_reported":1723324123,"current_range_meters":11600,"station_id":"ce4bgv92rcd13ifvqcr0","pricing_plan_id":"cebpf4jnsgd1na2vs0mg"},{"bike_id":"cfad4716-e765-4ee9-b6a2-9e1c5a05f3f9","system_id":"levelo_inurba_marseille","lat":43.302784,"lon":5.377158,"is_reserved":false,"is_disabled":false,"rental_uris":{"android":"levelo://app?vid=cfad4716-e765-4ee9-b6a2-9e1c5a05f3f9","ios":"levelo://app?vid=cfad4716-e765-4ee9-b6a2-9e1c5a05f3f9"},"vehicle_type_id":"4","last_reported":1723324123,"current_range_meters":31600,"station_id":"ce4bguh2rcd13ifvqcj0","pricing_plan_id":"cebpf4jnsgd1na2vs0mg"},{"bike_id":"f9e5303c-7ddd-4fcb-9fca-b3ae6c975122","system_id":"levelo_inurba_marseille","lat":43.310804,"lon":5.38359,"is_reserved":false,"is_disabled":false,"rental_uris":{"android":"levelo://app?vid=f9e5303c-7ddd-4fcb-9fca-b3ae6c975122","ios":"levelo://app?vid=f9e5303c-7ddd-4fcb-9fca-b3ae6c975122"},"vehicle_type_id":"4","last_reported":1723324123,"current_range_meters":16400,"station_id":"ce4bgv92rcd13ifvqcr0","pricing_plan_id":"cebpf4jnsgd1na2vs0mg"},{"bike_id":"64582c2e-2fc3-4b20-be43-133275bdacf5","system_id":"levelo_inurba_marseille","lat":43.302784,"lon":5.377158,"is_reserved":false,"is_disabled":false,"rental_uris":{"android":"levelo://app?vid=64582c2e-2fc3-4b20-be43-133275bdacf5","ios":"levelo://app?vid=64582c2e-2fc3-4b20-be43-133275bdacf5"},"vehicle_type_id":"4","last_reported":1723324123,"current_range_meters":13600,"station_id":"ce4bguh2rcd13ifvqcj0","pricing_plan_id":"cebpf4jnsgd1na2vs0mg"},{"bike_id":"e2836f76-1dc2-47a1-9a7f-71f09c51f57d","system_id":"levelo_inurba_marseille","lat":43.302784,"lon":5.377158,"is_reserved":false,"is_disabled":false,"rental_uris":{"android":"levelo://app?vid=e2836f76-1dc2-47a1-9a7f-71f09c51f57d","ios":"levelo://app?vid=e2836f76-1dc2-47a1-9a7f-71f09c51f57d"},"vehicle_type_id":"4","last_reported":1723324123,"current_range_meters":11200,"station_id":"ce4bguh2rcd13ifvqcj0","pricing_plan_id":"cebpf4jnsgd1na2vs0mg"},{"bike_id":"98297881-a12d-45e8-b0ef-c2e5bbb8de01","system_id":"levelo_inurba_marseille","lat":43.301429,"lon":5.37413,"is_reserved":false,"is_disabled":false,"rental_uris":{"android":"levelo://app?vid=98297881-a12d-45e8-b0ef-c2e5bbb8de01","ios":"levelo://app?vid=98297881-a12d-45e8-b0ef-c2e5bbb8de01"},"vehicle_type_id":"4","last_reported":1723324123,"current_range_meters":29200,"station_id":"ce4bgs92rcd13ifvqcc0","pricing_plan_id":"cebpf4jnsgd1na2vs0mg"},{"bike_id":"9051bfe8-b681-4a8c-8a37-223670435e76","system_id":"levelo_inurba_marseille","lat":43.301429,"lon":5.37413,"is_reserved":false,"is_disabled":false,"rental_uris":{"android":"levelo://app?vid=9051bfe8-b681-4a8c-8a37-223670435e76","ios":"levelo://app?vid=9051bfe8-b681-4a8c-8a37-223670435e76"},"vehicle_type_id":"4","last_reported":1723324123,"current_range_meters":25200,"station_id":"ce4bgs92rcd13ifvqcc0","pricing_plan_id":"cebpf4jnsgd1na2vs0mg"},{"bike_id":"8c79c022-8c18-41a4-8907-6b170d277d74","system_id":"levelo_inurba_marseille","lat":43.319891,"lon":5.381474,"is_reserved":false,"is_disabled":false,"rental_uris":{"android":"levelo://app?vid=8c79c022-8c18-41a4-8907-6b170d277d74","ios":"levelo://app?vid=8c79c022-8c18-41a4-8907-6b170d277d74"},"vehicle_type_id":"4","last_reported":1723324123,"current_range_meters":0,"station_id":"ce4bhr12rcd13ifvqhpg","pricing_plan_id":"cebpf4jnsgd1na2vs0mg"},{"bike_id":"41598aff-7486-4b78-b5b0-f67a76fc3110","system_id":"levelo_inurba_marseille","lat":43.319935,"lon":5.381699,"is_reserved":false,"is_disabled":false,"rental_uris":{"android":"levelo://app?vid=41598aff-7486-4b78-b5b0-f67a76fc3110","ios":"levelo://app?vid=41598aff-7486-4b78-b5b0-f67a76fc3110"},"vehicle_type_id":"4","last_reported":1723324123,"current_range_meters":27600,"station_id":"ce4bhr12rcd13ifvqhpg","pricing_plan_id":"cebpf4jnsgd1na2vs0mg"},{"bike_id":"b4a9172d-27bb-47be-9892-5fca7a05f397","system_id":"levelo_inurba_marseille","lat":43.319935,"lon":5.381699,"is_reserved":false,"is_disabled":false,"rental_uris":{"android":"levelo://app?vid=b4a9172d-27bb-47be-9892-5fca7a05f397","ios":"levelo://app?vid=b4a9172d-27bb-47be-9892-5fca7a05f397"},"vehicle_type_id":"4","last_reported":1723324123,"current_range_meters":18400,"station_id":"ce4bhr12rcd13ifvqhpg","pricing_plan_id":"cebpf4jnsgd1na2vs0mg"},{"bike_id":"ff39d0c8-ba61-4ae1-abef-c721ee1fd9c8","system_id":"levelo_inurba_marseille","lat":43.313802,"lon":5.384556,"is_reserved":false,"is_disabled":false,"rental_uris":{"android":"levelo://app?vid=ff39d0c8-ba61-4ae1-abef-c721ee1fd9c8","ios":"levelo://app?vid=ff39d0c8-ba61-4ae1-abef-c721ee1fd9c8"},"vehicle_type_id":"4","last_reported":1723324123,"current_range_meters":12000,"station_id":"ce4bgt92rcd13ifvqcf0","pricing_plan_id":"cebpf4jnsgd1na2vs0mg"},{"bike_id":"6a70f459-275d-46f9-be50-7836023741f7","system_id":"levelo_inurba_marseille","lat":43.313571,"lon":5.384829,"is_reserved":false,"is_disabled":false,"rental_uris":{"android":"levelo://app?vid=6a70f459-275d-46f9-be50-7836023741f7","ios":"levelo://app?vid=6a70f459-275d-46f9-be50-7836023741f7"},"vehicle_type_id":"4","last_reported":1723324123,"current_range_meters":8400,"station_id":"ce4bgt92rcd13ifvqcf0","pricing_plan_id":"cebpf4jnsgd1na2vs0mg"},{"bike_id":"bae7336f-900f-42a9-b73f-7a711ddd5b3d","system_id":"levelo_inurba_marseille","lat":43.313571,"lon":5.384829,"is_reserved":false,"is_disabled":false,"rental_uris":{"android":"levelo://app?vid=bae7336f-900f-42a9-b73f-7a711ddd5b3d","ios":"levelo://app?vid=bae7336f-900f-42a9-b73f-7a711ddd5b3d"},"vehicle_type_id":"4","last_reported":1723324123,"current_range_meters":7200,"station_id":"ce4bgt92rcd13ifvqcf0","pricing_plan_id":"cebpf4jnsgd1na2vs0mg"},{"bike_id":"61dd1e01-45a0-479d-8707-eeb45b4c44c7","system_id":"levelo_inurba_marseille","lat":43.313571,"lon":5.384829,"is_reserved":false,"is_disabled":false,"rental_uris":{"android":"levelo://app?vid=61dd1e01-45a0-479d-8707-eeb45b4c44c7","ios":"levelo://app?vid=61dd1e01-45a0-479d-8707-eeb45b4c44c7"},"vehicle_type_id":"4","last_reported":1723324123,"current_range_meters":400,"station_id":"ce4bgt92rcd13ifvqcf0","pricing_plan_id":"cebpf4jnsgd1na2vs0mg"},{"bike_id":"f92012bf-bce4-4d65-8433-63d31e698228","system_id":"levelo_inurba_marseille","lat":43.313571,"lon":5.384829,"is_reserved":false,"is_disabled":false,"rental_uris":{"android":"levelo://app?vid=f92012bf-bce4-4d65-8433-63d31e698228","ios":"levelo://app?vid=f92012bf-bce4-4d65-8433-63d31e698228"},"vehicle_type_id":"4","last_reported":1723324123,"current_range_meters":8400,"station_id":"ce4bgt92rcd13ifvqcf0","pricing_plan_id":"cebpf4jnsgd1na2vs0mg"},{"bike_id":"e0b2aa96-9397-469d-8381-b36a766aff71","system_id":"levelo_inurba_marseille","lat":43.313558,"lon":5.385032,"is_reserved":false,"is_disabled":false,"rental_uris":{"android":"levelo://app?vid=e0b2aa96-9397-469d-8381-b36a766aff71","ios":"levelo://app?vid=e0b2aa96-9397-469d-8381-b36a766aff71"},"vehicle_type_id":"4","last_reported":1723324123,"current_range_meters":0,"station_id":"ce4bgt92rcd13ifvqcf0","pricing_plan_id":"cebpf4jnsgd1na2vs0mg"},{"bike_id":"5a4eee09-da0c-4a63-af74-134208aa88ad","system_id":"levelo_inurba_marseille","lat":43.313571,"lon":5.384829,"is_reserved":false,"is_disabled":false,"rental_uris":{"android":"levelo://app?vid=5a4eee09-da0c-4a63-af74-134208aa88ad","ios":"levelo://app?vid=5a4eee09-da0c-4a63-af74-134208aa88ad"},"vehicle_type_id":"4","last_reported":1723324123,"current_range_meters":11600,"station_id":"ce4bgt92rcd13ifvqcf0","pricing_plan_id":"cebpf4jnsgd1na2vs0mg"},{"bike_id":"b6029766-c172-4f90-be72-9155db8598db","system_id":"levelo_inurba_marseille","lat":43.313571,"lon":5.384829,"is_reserved":false,"is_disabled":false,"rental_uris":{"android":"levelo://app?vid=b6029766-c172-4f90-be72-9155db8598db","ios":"levelo://app?vid=b6029766-c172-4f90-be72-9155db8598db"},"vehicle_type_id":"4","last_reported":1723324123,"current_range_meters":7200,"station_id":"ce4bgt92rcd13ifvqcf0","pricing_plan_id":"cebpf4jnsgd1na2vs0mg"},{"bike_id":"d71d7963-4df7-439d-b8dd-a466c5a2f717","system_id":"levelo_inurba_marseille","lat":43.299724,"lon":5.371829,"is_reserved":false,"is_disabled":false,"rental_uris":{"android":"levelo://app?vid=d71d7963-4df7-439d-b8dd-a466c5a2f717","ios":"levelo://app?vid=d71d7963-4df7-439d-b8dd-a466c5a2f717"},"vehicle_type_id":"4","last_reported":1723324123,"current_range_meters":400,"station_id":"ce4bgr92rcd13ifvqc7g","pricing_plan_id":"cebpf4jnsgd1na2vs0mg"},{"bike_id":"f9730bd7-7a30-43ad-ae78-630160f2106d","system_id":"levelo_inurba_marseille","lat":43.305364,"lon":5.384119,"is_reserved":false,"is_disabled":false,"rental_uris":{"android":"levelo://app?vid=f9730bd7-7a30-43ad-ae78-630160f2106d","ios":"levelo://app?vid=f9730bd7-7a30-43ad-ae78-630160f2106d"},"vehicle_type_id":"4","last_reported":1723324123,"current_range_meters":19200,"station_id":"ce4bgg92rcd13ifvqb30","pricing_plan_id":"cebpf4jnsgd1na2vs0mg"},{"bike_id":"17704ecf-e7e4-4762-99a2-378b2435849d","system_id":"levelo_inurba_marseille","lat":43.305364,"lon":5.384119,"is_reserved":false,"is_disabled":false,"rental_uris":{"android":"levelo://app?vid=17704ecf-e7e4-4762-99a2-378b2435849d","ios":"levelo://app?vid=17704ecf-e7e4-4762-99a2-378b2435849d"},"vehicle_type_id":"4","last_reported":1723324123,"current_range_meters":6800,"station_id":"ce4bgg92rcd13ifvqb30","pricing_plan_id":"cebpf4jnsgd1na2vs0mg"},{"bike_id":"9e2a96cc-1e15-42e7-9e60-1038b0274af4","system_id":"levelo_inurba_marseille","lat":43.299243,"lon":5.374807,"is_reserved":false,"is_disabled":false,"rental_uris":{"android":"levelo://app?vid=9e2a96cc-1e15-42e7-9e60-1038b0274af4","ios":"levelo://app?vid=9e2a96cc-1e15-42e7-9e60-1038b0274af4"},"vehicle_type_id":"4","last_reported":1723324123,"current_range_meters":5600,"station_id":"ce4bgjh2rcd13ifvqbg0","pricing_plan_id":"cebpf4jnsgd1na2vs0mg"},{"bike_id":"78256b02-d3fe-482f-afca-c0f206d70968","system_id":"levelo_inurba_marseille","lat":43.311722,"lon":5.387247,"is_reserved":false,"is_disabled":false,"rental_uris":{"android":"levelo://app?vid=78256b02-d3fe-482f-afca-c0f206d70968","ios":"levelo://app?vid=78256b02-d3fe-482f-afca-c0f206d70968"},"vehicle_type_id":"4","last_reported":1723324123,"current_range_meters":11600,"station_id":"ce4bgv12rcd13ifvqcp0","pricing_plan_id":"cebpf4jnsgd1na2vs0mg"},{"bike_id":"64bd34df-070b-47e5-bb81-8d0798f1330b","system_id":"levelo_inurba_marseille","lat":43.311722,"lon":5.387247,"is_reserved":false,"is_disabled":false,"rental_uris":{"android":"levelo://app?vid=64bd34df-070b-47e5-bb81-8d0798f1330b","ios":"levelo://app?vid=64bd34df-070b-47e5-bb81-8d0798f1330b"},"vehicle_type_id":"4","last_reported":1723324123,"current_range_meters":26000,"station_id":"ce4bgv12rcd13ifvqcp0","pricing_plan_id":"cebpf4jnsgd1na2vs0mg"},{"bike_id":"216240ef-238f-48ba-bd26-5d1c9cf540df","system_id":"levelo_inurba_marseille","lat":43.31456,"lon":5.38784,"is_reserved":false,"is_disabled":false,"rental_uris":{"android":"levelo://app?vid=216240ef-238f-48ba-bd26-5d1c9cf540df","ios":"levelo://app?vid=216240ef-238f-48ba-bd26-5d1c9cf540df"},"vehicle_type_id":"4","last_reported":1723324123,"current_range_meters":0,"station_id":"","pricing_plan_id":"cebpf4jnsgd1na2vs0mg"},{"bike_id":"d85fec1c-13db-4162-b3bf-7bdd55edc450","system_id":"levelo_inurba_marseille","lat":43.29872,"lon":5.3757,"is_reserved":false,"is_disabled":false,"rental_uris":{"android":"levelo://app?vid=d85fec1c-13db-4162-b3bf-7bdd55edc450","ios":"levelo://app?vid=d85fec1c-13db-4162-b3bf-7bdd55edc450"},"vehicle_type_id":"4","last_reported":1723324123,"current_range_meters":22000,"station_id":"","pricing_plan_id":"cebpf4jnsgd1na2vs0mg"},{"bike_id":"fca8f9ab-58aa-4269-b24a-9c4279f6bc8c","system_id":"levelo_inurba_marseille","lat":43.323062,"lon":5.382811,"is_reserved":false,"is_disabled":false,"rental_uris":{"android":"levelo://app?vid=fca8f9ab-58aa-4269-b24a-9c4279f6bc8c","ios":"levelo://app?vid=fca8f9ab-58aa-4269-b24a-9c4279f6bc8c"},"vehicle_type_id":"4","last_reported":1723324123,"current_range_meters":31200,"station_id":"","pricing_plan_id":"cebpf4jnsgd1na2vs0mg"},{"bike_id":"a659f617-881a-4dea-bdf9-9402f49a203e","system_id":"levelo_inurba_marseille","lat":43.29745,"lon":5.37101,"is_reserved":false,"is_disabled":false,"rental_uris":{"android":"levelo://app?vid=a659f617-881a-4dea-bdf9-9402f49a203e","ios":"levelo://app?vid=a659f617-881a-4dea-bdf9-9402f49a203e"},"vehicle_type_id":"4","last_reported":1723324123,"current_range_meters":0,"station_id":"ce4bgop2rcd13ifvqc1g","pricing_plan_id":"cebpf4jnsgd1na2vs0mg"},{"bike_id":"ff55fae6-8f09-4728-a89b-8b84e665ff47","system_id":"levelo_inurba_marseille","lat":43.297163,"lon":5.365866,"is_reserved":false,"is_disabled":false,"rental_uris":{"android":"levelo://app?vid=ff55fae6-8f09-4728-a89b-8b84e665ff47","ios":"levelo://app?vid=ff55fae6-8f09-4728-a89b-8b84e665ff47"},"vehicle_type_id":"4","last_reported":1723324123,"current_range_meters":5200,"station_id":"ce4bgn12rcd13ifvqbt0","pricing_plan_id":"cebpf4jnsgd1na2vs0mg"},{"bike_id":"96ae0c71-4e8b-4ae9-a0cf-e6e58cc5b156","system_id":"levelo_inurba_marseille","lat":43.29705,"lon":5.3658,"is_reserved":false,"is_disabled":false,"rental_uris":{"android":"levelo://app?vid=96ae0c71-4e8b-4ae9-a0cf-e6e58cc5b156","ios":"levelo://app?vid=96ae0c71-4e8b-4ae9-a0cf-e6e58cc5b156"},"vehicle_type_id":"4","last_reported":1723324123,"current_range_meters":0,"station_id":"ce4bgn12rcd13ifvqbt0","pricing_plan_id":"cebpf4jnsgd1na2vs0mg"},{"bike_id":"09e5d79b-31ea-46c7-be26-3ef693448c5b","system_id":"levelo_inurba_marseille","lat":43.3257,"lon":5.379205,"is_reserved":false,"is_disabled":false,"rental_uris":{"android":"levelo://app?vid=09e5d79b-31ea-46c7-be26-3ef693448c5b","ios":"levelo://app?vid=09e5d79b-31ea-46c7-be26-3ef693448c5b"},"vehicle_type_id":"4","last_reported":1723324123,"current_range_meters":18400,"station_id":"","pricing_plan_id":"cebpf4jnsgd1na2vs0mg"},{"bike_id":"9a7d3b8c-8b70-4438-bb57-535ab22c79ad","system_id":"levelo_inurba_marseille","lat":43.297163,"lon":5.365866,"is_reserved":false,"is_disabled":false,"rental_uris":{"android":"levelo://app?vid=9a7d3b8c-8b70-4438-bb57-535ab22c79ad","ios":"levelo://app?vid=9a7d3b8c-8b70-4438-bb57-535ab22c79ad"},"vehicle_type_id":"4","last_reported":1723324123,"current_range_meters":25600,"station_id":"ce4bgn12rcd13ifvqbt0","pricing_plan_id":"cebpf4jnsgd1na2vs0mg"},{"bike_id":"1328f1ea-03c5-4c13-a668-21e74583960b","system_id":"levelo_inurba_marseille","lat":43.29699,"lon":5.370843,"is_reserved":false,"is_disabled":false,"rental_uris":{"android":"levelo://app?vid=1328f1ea-03c5-4c13-a668-21e74583960b","ios":"levelo://app?vid=1328f1ea-03c5-4c13-a668-21e74583960b"},"vehicle_type_id":"4","last_reported":1723324123,"current_range_meters":1200,"station_id":"","pricing_plan_id":"cebpf4jnsgd1na2vs0mg"},{"bike_id":"bb638abd-b28c-4e31-8abb-16586fc41539","system_id":"levelo_inurba_marseille","lat":43.296131,"lon":5.370791,"is_reserved":false,"is_disabled":false,"rental_uris":{"android":"levelo://app?vid=bb638abd-b28c-4e31-8abb-16586fc41539","ios":"levelo://app?vid=bb638abd-b28c-4e31-8abb-16586fc41539"},"vehicle_type_id":"4","last_reported":1723324123,"current_range_meters":19200,"station_id":"ce4bgnh2rcd13ifvqc0g","pricing_plan_id":"cebpf4jnsgd1na2vs0mg"},{"bike_id":"55debc5a-7d9f-4b36-927c-50b1f84da9fc","system_id":"levelo_inurba_marseille","lat":43.296131,"lon":5.370791,"is_reserved":false,"is_disabled":false,"rental_uris":{"android":"levelo://app?vid=55debc5a-7d9f-4b36-927c-50b1f84da9fc","ios":"levelo://app?vid=55debc5a-7d9f-4b36-927c-50b1f84da9fc"},"vehicle_type_id":"4","last_reported":1723324123,"current_range_meters":22800,"station_id":"ce4bgnh2rcd13ifvqc0g","pricing_plan_id":"cebpf4jnsgd1na2vs0mg"},{"bike_id":"f3b0066a-05c0-4eed-a120-6a0e1c42a3c7","system_id":"levelo_inurba_marseille","lat":43.296131,"lon":5.370773,"is_reserved":false,"is_disabled":false,"rental_uris":{"android":"levelo://app?vid=f3b0066a-05c0-4eed-a120-6a0e1c42a3c7","ios":"levelo://app?vid=f3b0066a-05c0-4eed-a120-6a0e1c42a3c7"},"vehicle_type_id":"4","last_reported":1723324123,"current_range_meters":22800,"station_id":"ce4bgnh2rcd13ifvqc0g","pricing_plan_id":"cebpf4jnsgd1na2vs0mg"},{"bike_id":"e7a8bdf3-9ae4-43ab-b81e-f01bedfae5cb","system_id":"levelo_inurba_marseille","lat":43.296131,"lon":5.370773,"is_reserved":false,"is_disabled":false,"rental_uris":{"android":"levelo://app?vid=e7a8bdf3-9ae4-43ab-b81e-f01bedfae5cb","ios":"levelo://app?vid=e7a8bdf3-9ae4-43ab-b81e-f01bedfae5cb"},"vehicle_type_id":"4","last_reported":1723324123,"current_range_meters":10400,"station_id":"ce4bgnh2rcd13ifvqc0g","pricing_plan_id":"cebpf4jnsgd1na2vs0mg"},{"bike_id":"2a86115d-6e3a-4ab7-8bf1-3241a84f6549","system_id":"levelo_inurba_marseille","lat":43.32319,"lon":5.38523,"is_reserved":false,"is_disabled":false,"rental_uris":{"android":"levelo://app?vid=2a86115d-6e3a-4ab7-8bf1-3241a84f6549","ios":"levelo://app?vid=2a86115d-6e3a-4ab7-8bf1-3241a84f6549"},"vehicle_type_id":"4","last_reported":1723324123,"current_range_meters":0,"station_id":"","pricing_plan_id":"cebpf4jnsgd1na2vs0mg"},{"bike_id":"bc1a773d-9347-4ac3-af73-7f8c1522566a","system_id":"levelo_inurba_marseille","lat":43.309808,"lon":5.38999,"is_reserved":false,"is_disabled":false,"rental_uris":{"android":"levelo://app?vid=bc1a773d-9347-4ac3-af73-7f8c1522566a","ios":"levelo://app?vid=bc1a773d-9347-4ac3-af73-7f8c1522566a"},"vehicle_type_id":"4","last_reported":1723324123,"current_range_meters":7600,"station_id":"ce4bgup2rcd13ifvqco0","pricing_plan_id":"cebpf4jnsgd1na2vs0mg"},{"bike_id":"c568f253-f437-40d7-91e0-8a0c20115011","system_id":"levelo_inurba_marseille","lat":43.321493,"lon":5.387207,"is_reserved":false,"is_disabled":false,"rental_uris":{"android":"levelo://app?vid=c568f253-f437-40d7-91e0-8a0c20115011","ios":"levelo://app?vid=c568f253-f437-40d7-91e0-8a0c20115011"},"vehicle_type_id":"4","last_reported":1723324123,"current_range_meters":13600,"station_id":"","pricing_plan_id":"cebpf4jnsgd1na2vs0mg"},{"bike_id":"ecf580c6-ead8-4d16-9528-bafb7ec92035","system_id":"levelo_inurba_marseille","lat":43.30954,"lon":5.3902,"is_reserved":false,"is_disabled":false,"rental_uris":{"android":"levelo://app?vid=ecf580c6-ead8-4d16-9528-bafb7ec92035","ios":"levelo://app?vid=ecf580c6-ead8-4d16-9528-bafb7ec92035"},"vehicle_type_id":"4","last_reported":1723324123,"current_range_meters":8000,"station_id":"ce4bgup2rcd13ifvqco0","pricing_plan_id":"cebpf4jnsgd1na2vs0mg"},{"bike_id":"b232543e-a4b8-4e2b-b2c7-279cd9f0ca71","system_id":"levelo_inurba_marseille","lat":43.30953,"lon":5.39022,"is_reserved":false,"is_disabled":false,"rental_uris":{"android":"levelo://app?vid=b232543e-a4b8-4e2b-b2c7-279cd9f0ca71","ios":"levelo://app?vid=b232543e-a4b8-4e2b-b2c7-279cd9f0ca71"},"vehicle_type_id":"4","last_reported":1723324123,"current_range_meters":23600,"station_id":"ce4bgup2rcd13ifvqco0","pricing_plan_id":"cebpf4jnsgd1na2vs0mg"},{"bike_id":"12e21662-12f1-4f1e-bfa0-78d34d11c1d1","system_id":"levelo_inurba_marseille","lat":43.296714,"lon":5.375723,"is_reserved":false,"is_disabled":false,"rental_uris":{"android":"levelo://app?vid=12e21662-12f1-4f1e-bfa0-78d34d11c1d1","ios":"levelo://app?vid=12e21662-12f1-4f1e-bfa0-78d34d11c1d1"},"vehicle_type_id":"4","last_reported":1723324123,"current_range_meters":31200,"station_id":"","pricing_plan_id":"cebpf4jnsgd1na2vs0mg"},{"bike_id":"948e5691-3cf0-437c-af78-1947151b242b","system_id":"levelo_inurba_marseille","lat":43.30952,"lon":5.39024,"is_reserved":false,"is_disabled":false,"rental_uris":{"android":"levelo://app?vid=948e5691-3cf0-437c-af78-1947151b242b","ios":"levelo://app?vid=948e5691-3cf0-437c-af78-1947151b242b"},"vehicle_type_id":"4","last_reported":1723324123,"current_range_meters":31200,"station_id":"ce4bgup2rcd13ifvqco0","pricing_plan_id":"cebpf4jnsgd1na2vs0mg"},{"bike_id":"96a57412-a3bf-4b68-8145-cabfc03bac73","system_id":"levelo_inurba_marseille","lat":43.309564,"lon":5.390257,"is_reserved":false,"is_disabled":false,"rental_uris":{"android":"levelo://app?vid=96a57412-a3bf-4b68-8145-cabfc03bac73","ios":"levelo://app?vid=96a57412-a3bf-4b68-8145-cabfc03bac73"},"vehicle_type_id":"4","last_reported":1723324123,"current_range_meters":15600,"station_id":"ce4bgup2rcd13ifvqco0","pricing_plan_id":"cebpf4jnsgd1na2vs0mg"},{"bike_id":"32283629-2c7c-49b4-abce-03b0ef181c15","system_id":"levelo_inurba_marseille","lat":43.3095,"lon":5.39025,"is_reserved":false,"is_disabled":false,"rental_uris":{"android":"levelo://app?vid=32283629-2c7c-49b4-abce-03b0ef181c15","ios":"levelo://app?vid=32283629-2c7c-49b4-abce-03b0ef181c15"},"vehicle_type_id":"4","last_reported":1723324123,"current_range_meters":26000,"station_id":"ce4bgup2rcd13ifvqco0","pricing_plan_id":"cebpf4jnsgd1na2vs0mg"},{"bike_id":"610c238a-bb4e-4fd7-b23f-da1954e1f5d1","system_id":"levelo_inurba_marseille","lat":43.309595,"lon":5.390295,"is_reserved":false,"is_disabled":false,"rental_uris":{"android":"levelo://app?vid=610c238a-bb4e-4fd7-b23f-da1954e1f5d1","ios":"levelo://app?vid=610c238a-bb4e-4fd7-b23f-da1954e1f5d1"},"vehicle_type_id":"4","last_reported":1723324123,"current_range_meters":3200,"station_id":"ce4bgup2rcd13ifvqco0","pricing_plan_id":"cebpf4jnsgd1na2vs0mg"},{"bike_id":"66f98e29-af60-4414-9e02-61b0e77e4c5b","system_id":"levelo_inurba_marseille","lat":43.30947,"lon":5.39028,"is_reserved":false,"is_disabled":false,"rental_uris":{"android":"levelo://app?vid=66f98e29-af60-4414-9e02-61b0e77e4c5b","ios":"levelo://app?vid=66f98e29-af60-4414-9e02-61b0e77e4c5b"},"vehicle_type_id":"4","last_reported":1723324123,"current_range_meters":15200,"station_id":"ce4bgup2rcd13ifvqco0","pricing_plan_id":"cebpf4jnsgd1na2vs0mg"},{"bike_id":"9948ce3d-96cf-4a3d-94a1-3208624e7d76","system_id":"levelo_inurba_marseille","lat":43.3095,"lon":5.3903,"is_reserved":false,"is_disabled":false,"rental_uris":{"android":"levelo://app?vid=9948ce3d-96cf-4a3d-94a1-3208624e7d76","ios":"levelo://app?vid=9948ce3d-96cf-4a3d-94a1-3208624e7d76"},"vehicle_type_id":"4","last_reported":1723324123,"current_range_meters":25600,"station_id":"ce4bgup2rcd13ifvqco0","pricing_plan_id":"cebpf4jnsgd1na2vs0mg"},{"bike_id":"0468fece-c4e4-415c-af3e-20f42222372b","system_id":"levelo_inurba_marseille","lat":43.309589,"lon":5.390258,"is_reserved":false,"is_disabled":false,"rental_uris":{"android":"levelo://app?vid=0468fece-c4e4-415c-af3e-20f42222372b","ios":"levelo://app?vid=0468fece-c4e4-415c-af3e-20f42222372b"},"vehicle_type_id":"4","last_reported":1723324123,"current_range_meters":8000,"station_id":"ce4bgup2rcd13ifvqco0","pricing_plan_id":"cebpf4jnsgd1na2vs0mg"},{"bike_id":"9bc8238c-df9c-415b-9e36-6c9bb28e536b","system_id":"levelo_inurba_marseille","lat":43.30942,"lon":5.39031,"is_reserved":false,"is_disabled":false,"rental_uris":{"android":"levelo://app?vid=9bc8238c-df9c-415b-9e36-6c9bb28e536b","ios":"levelo://app?vid=9bc8238c-df9c-415b-9e36-6c9bb28e536b"},"vehicle_type_id":"4","last_reported":1723324123,"current_range_meters":10000,"station_id":"ce4bgup2rcd13ifvqco0","pricing_plan_id":"cebpf4jnsgd1na2vs0mg"},{"bike_id":"1bd6cec9-a5bd-42cf-9a92-c94500ae6fff","system_id":"levelo_inurba_marseille","lat":43.309555,"lon":5.390346,"is_reserved":false,"is_disabled":false,"rental_uris":{"android":"levelo://app?vid=1bd6cec9-a5bd-42cf-9a92-c94500ae6fff","ios":"levelo://app?vid=1bd6cec9-a5bd-42cf-9a92-c94500ae6fff"},"vehicle_type_id":"4","last_reported":1723324123,"current_range_meters":22800,"station_id":"","pricing_plan_id":"cebpf4jnsgd1na2vs0mg"},{"bike_id":"c8eb1942-67a9-4a2d-8723-2ab8682ba668","system_id":"levelo_inurba_marseille","lat":43.30945,"lon":5.39032,"is_reserved":false,"is_disabled":false,"rental_uris":{"android":"levelo://app?vid=c8eb1942-67a9-4a2d-8723-2ab8682ba668","ios":"levelo://app?vid=c8eb1942-67a9-4a2d-8723-2ab8682ba668"},"vehicle_type_id":"4","last_reported":1723324123,"current_range_meters":4000,"station_id":"ce4bgup2rcd13ifvqco0","pricing_plan_id":"cebpf4jnsgd1na2vs0mg"},{"bike_id":"0d241242-189e-46f1-9bd1-e6d72d0b83d6","system_id":"levelo_inurba_marseille","lat":43.309589,"lon":5.390258,"is_reserved":false,"is_disabled":false,"rental_uris":{"android":"levelo://app?vid=0d241242-189e-46f1-9bd1-e6d72d0b83d6","ios":"levelo://app?vid=0d241242-189e-46f1-9bd1-e6d72d0b83d6"},"vehicle_type_id":"4","last_reported":1723324123,"current_range_meters":6400,"station_id":"ce4bgup2rcd13ifvqco0","pricing_plan_id":"cebpf4jnsgd1na2vs0mg"},{"bike_id":"0d3c71ef-0be9-447c-a6a1-2b4997f30cdf","system_id":"levelo_inurba_marseille","lat":43.309589,"lon":5.390258,"is_reserved":false,"is_disabled":false,"rental_uris":{"android":"levelo://app?vid=0d3c71ef-0be9-447c-a6a1-2b4997f30cdf","ios":"levelo://app?vid=0d3c71ef-0be9-447c-a6a1-2b4997f30cdf"},"vehicle_type_id":"4","last_reported":1723324123,"current_range_meters":18400,"station_id":"ce4bgup2rcd13ifvqco0","pricing_plan_id":"cebpf4jnsgd1na2vs0mg"},{"bike_id":"b10dc069-4cd5-425c-9513-46d273477fcc","system_id":"levelo_inurba_marseille","lat":43.30953,"lon":5.39036,"is_reserved":false,"is_disabled":false,"rental_uris":{"android":"levelo://app?vid=b10dc069-4cd5-425c-9513-46d273477fcc","ios":"levelo://app?vid=b10dc069-4cd5-425c-9513-46d273477fcc"},"vehicle_type_id":"4","last_reported":1723324123,"current_range_meters":25200,"station_id":"ce4bgup2rcd13ifvqco0","pricing_plan_id":"cebpf4jnsgd1na2vs0mg"},{"bike_id":"974a6123-35f6-42a1-b92e-05d23f5cd3ac","system_id":"levelo_inurba_marseille","lat":43.30947,"lon":5.39035,"is_reserved":false,"is_disabled":false,"rental_uris":{"android":"levelo://app?vid=974a6123-35f6-42a1-b92e-05d23f5cd3ac","ios":"levelo://app?vid=974a6123-35f6-42a1-b92e-05d23f5cd3ac"},"vehicle_type_id":"4","last_reported":1723324123,"current_range_meters":12000,"station_id":"ce4bgup2rcd13ifvqco0","pricing_plan_id":"cebpf4jnsgd1na2vs0mg"},{"bike_id":"85e9f77e-b8c8-4c14-bf95-d82b01dd6649","system_id":"levelo_inurba_marseille","lat":43.309589,"lon":5.390258,"is_reserved":false,"is_disabled":false,"rental_uris":{"android":"levelo://app?vid=85e9f77e-b8c8-4c14-bf95-d82b01dd6649","ios":"levelo://app?vid=85e9f77e-b8c8-4c14-bf95-d82b01dd6649"},"vehicle_type_id":"4","last_reported":1723324123,"current_range_meters":9600,"station_id":"ce4bgup2rcd13ifvqco0","pricing_plan_id":"cebpf4jnsgd1na2vs0mg"},{"bike_id":"57c91da2-bb34-4db4-af1d-1224ca1804eb","system_id":"levelo_inurba_marseille","lat":43.30948,"lon":5.39036,"is_reserved":false,"is_disabled":false,"rental_uris":{"android":"levelo://app?vid=57c91da2-bb34-4db4-af1d-1224ca1804eb","ios":"levelo://app?vid=57c91da2-bb34-4db4-af1d-1224ca1804eb"},"vehicle_type_id":"4","last_reported":1723324123,"current_range_meters":5200,"station_id":"ce4bgup2rcd13ifvqco0","pricing_plan_id":"cebpf4jnsgd1na2vs0mg"},{"bike_id":"88c0b240-a931-476f-aaf4-232e8ac025de","system_id":"levelo_inurba_marseille","lat":43.30953,"lon":5.39039,"is_reserved":false,"is_disabled":false,"rental_uris":{"android":"levelo://app?vid=88c0b240-a931-476f-aaf4-232e8ac025de","ios":"levelo://app?vid=88c0b240-a931-476f-aaf4-232e8ac025de"},"vehicle_type_id":"4","last_reported":1723324123,"current_range_meters":26000,"station_id":"ce4bgup2rcd13ifvqco0","pricing_plan_id":"cebpf4jnsgd1na2vs0mg"},{"bike_id":"eb1d0521-656d-4b1b-978a-a22f4569eac7","system_id":"levelo_inurba_marseille","lat":43.30952,"lon":5.39039,"is_reserved":false,"is_disabled":false,"rental_uris":{"android":"levelo://app?vid=eb1d0521-656d-4b1b-978a-a22f4569eac7","ios":"levelo://app?vid=eb1d0521-656d-4b1b-978a-a22f4569eac7"},"vehicle_type_id":"4","last_reported":1723324123,"current_range_meters":2400,"station_id":"ce4bgup2rcd13ifvqco0","pricing_plan_id":"cebpf4jnsgd1na2vs0mg"},{"bike_id":"f1ba7006-d661-491b-a650-cfd559029535","system_id":"levelo_inurba_marseille","lat":43.309589,"lon":5.390258,"is_reserved":false,"is_disabled":false,"rental_uris":{"android":"levelo://app?vid=f1ba7006-d661-491b-a650-cfd559029535","ios":"levelo://app?vid=f1ba7006-d661-491b-a650-cfd559029535"},"vehicle_type_id":"4","last_reported":1723324123,"current_range_meters":26000,"station_id":"ce4bgup2rcd13ifvqco0","pricing_plan_id":"cebpf4jnsgd1na2vs0mg"},{"bike_id":"00d43f39-f556-4d50-bbb5-dbbfdd456128","system_id":"levelo_inurba_marseille","lat":43.30947,"lon":5.39039,"is_reserved":false,"is_disabled":false,"rental_uris":{"android":"levelo://app?vid=00d43f39-f556-4d50-bbb5-dbbfdd456128","ios":"levelo://app?vid=00d43f39-f556-4d50-bbb5-dbbfdd456128"},"vehicle_type_id":"4","last_reported":1723324123,"current_range_meters":6400,"station_id":"ce4bgup2rcd13ifvqco0","pricing_plan_id":"cebpf4jnsgd1na2vs0mg"},{"bike_id":"e27af61c-1206-404b-bfb0-89883265b888","system_id":"levelo_inurba_marseille","lat":43.309589,"lon":5.390258,"is_reserved":false,"is_disabled":false,"rental_uris":{"android":"levelo://app?vid=e27af61c-1206-404b-bfb0-89883265b888","ios":"levelo://app?vid=e27af61c-1206-404b-bfb0-89883265b888"},"vehicle_type_id":"4","last_reported":1723324123,"current_range_meters":30800,"station_id":"ce4bgup2rcd13ifvqco0","pricing_plan_id":"cebpf4jnsgd1na2vs0mg"},{"bike_id":"3e640bb9-30bf-403f-8104-ba204cbbfe09","system_id":"levelo_inurba_marseille","lat":43.309432,"lon":5.390387,"is_reserved":false,"is_disabled":false,"rental_uris":{"android":"levelo://app?vid=3e640bb9-30bf-403f-8104-ba204cbbfe09","ios":"levelo://app?vid=3e640bb9-30bf-403f-8104-ba204cbbfe09"},"vehicle_type_id":"4","last_reported":1723324123,"current_range_meters":31200,"station_id":"ce4bgup2rcd13ifvqco0","pricing_plan_id":"cebpf4jnsgd1na2vs0mg"},{"bike_id":"619a7538-8d3b-4716-b49b-095264d17479","system_id":"levelo_inurba_marseille","lat":43.309589,"lon":5.390258,"is_reserved":false,"is_disabled":false,"rental_uris":{"android":"levelo://app?vid=619a7538-8d3b-4716-b49b-095264d17479","ios":"levelo://app?vid=619a7538-8d3b-4716-b49b-095264d17479"},"vehicle_type_id":"4","last_reported":1723324123,"current_range_meters":3600,"station_id":"ce4bgup2rcd13ifvqco0","pricing_plan_id":"cebpf4jnsgd1na2vs0mg"},{"bike_id":"874df5fe-0f22-4516-ac2f-cf69452bccce","system_id":"levelo_inurba_marseille","lat":43.309589,"lon":5.390258,"is_reserved":false,"is_disabled":false,"rental_uris":{"android":"levelo://app?vid=874df5fe-0f22-4516-ac2f-cf69452bccce","ios":"levelo://app?vid=874df5fe-0f22-4516-ac2f-cf69452bccce"},"vehicle_type_id":"4","last_reported":1723324123,"current_range_meters":31600,"station_id":"ce4bgup2rcd13ifvqco0","pricing_plan_id":"cebpf4jnsgd1na2vs0mg"},{"bike_id":"814e183f-633f-43af-b00e-ee683b7891da","system_id":"levelo_inurba_marseille","lat":43.309589,"lon":5.390258,"is_reserved":false,"is_disabled":false,"rental_uris":{"android":"levelo://app?vid=814e183f-633f-43af-b00e-ee683b7891da","ios":"levelo://app?vid=814e183f-633f-43af-b00e-ee683b7891da"},"vehicle_type_id":"4","last_reported":1723324123,"current_range_meters":11200,"station_id":"ce4bgup2rcd13ifvqco0","pricing_plan_id":"cebpf4jnsgd1na2vs0mg"},{"bike_id":"8edfdc0a-fab1-49cb-9cb6-e0142a389875","system_id":"levelo_inurba_marseille","lat":43.309589,"lon":5.390258,"is_reserved":false,"is_disabled":false,"rental_uris":{"android":"levelo://app?vid=8edfdc0a-fab1-49cb-9cb6-e0142a389875","ios":"levelo://app?vid=8edfdc0a-fab1-49cb-9cb6-e0142a389875"},"vehicle_type_id":"4","last_reported":1723324123,"current_range_meters":23600,"station_id":"ce4bgup2rcd13ifvqco0","pricing_plan_id":"cebpf4jnsgd1na2vs0mg"},{"bike_id":"f2336081-fd25-448b-b99a-f748ebd509b7","system_id":"levelo_inurba_marseille","lat":43.309589,"lon":5.390258,"is_reserved":false,"is_disabled":false,"rental_uris":{"android":"levelo://app?vid=f2336081-fd25-448b-b99a-f748ebd509b7","ios":"levelo://app?vid=f2336081-fd25-448b-b99a-f748ebd509b7"},"vehicle_type_id":"4","last_reported":1723324123,"current_range_meters":31200,"station_id":"ce4bgup2rcd13ifvqco0","pricing_plan_id":"cebpf4jnsgd1na2vs0mg"},{"bike_id":"c5812d42-172c-43c9-bce8-a67683fe85f4","system_id":"levelo_inurba_marseille","lat":43.309436,"lon":5.390447,"is_reserved":false,"is_disabled":false,"rental_uris":{"android":"levelo://app?vid=c5812d42-172c-43c9-bce8-a67683fe85f4","ios":"levelo://app?vid=c5812d42-172c-43c9-bce8-a67683fe85f4"},"vehicle_type_id":"4","last_reported":1723324123,"current_range_meters":23200,"station_id":"ce4bgup2rcd13ifvqco0","pricing_plan_id":"cebpf4jnsgd1na2vs0mg"},{"bike_id":"733439db-a626-41bb-98be-e40640bbf691","system_id":"levelo_inurba_marseille","lat":43.309456,"lon":5.390456,"is_reserved":false,"is_disabled":false,"rental_uris":{"android":"levelo://app?vid=733439db-a626-41bb-98be-e40640bbf691","ios":"levelo://app?vid=733439db-a626-41bb-98be-e40640bbf691"},"vehicle_type_id":"4","last_reported":1723324123,"current_range_meters":23600,"station_id":"ce4bgup2rcd13ifvqco0","pricing_plan_id":"cebpf4jnsgd1na2vs0mg"},{"bike_id":"4ce94e67-70a1-4867-96a1-41d82b3dcfc8","system_id":"levelo_inurba_marseille","lat":43.317557,"lon":5.390173,"is_reserved":false,"is_disabled":false,"rental_uris":{"android":"levelo://app?vid=4ce94e67-70a1-4867-96a1-41d82b3dcfc8","ios":"levelo://app?vid=4ce94e67-70a1-4867-96a1-41d82b3dcfc8"},"vehicle_type_id":"4","last_reported":1723324123,"current_range_meters":19600,"station_id":"ce4bhqp2rcd13ifvqhng","pricing_plan_id":"cebpf4jnsgd1na2vs0mg"},{"bike_id":"23122c95-2c84-47e9-b652-836c29f900a0","system_id":"levelo_inurba_marseille","lat":43.31752,"lon":5.39017,"is_reserved":false,"is_disabled":false,"rental_uris":{"android":"levelo://app?vid=23122c95-2c84-47e9-b652-836c29f900a0","ios":"levelo://app?vid=23122c95-2c84-47e9-b652-836c29f900a0"},"vehicle_type_id":"4","last_reported":1723324123,"current_range_meters":16000,"station_id":"ce4bhqp2rcd13ifvqhng","pricing_plan_id":"cebpf4jnsgd1na2vs0mg"},{"bike_id":"f88410b2-73f2-44e7-b18b-d730703cd0a7","system_id":"levelo_inurba_marseille","lat":43.31762,"lon":5.39018,"is_reserved":false,"is_disabled":false,"rental_uris":{"android":"levelo://app?vid=f88410b2-73f2-44e7-b18b-d730703cd0a7","ios":"levelo://app?vid=f88410b2-73f2-44e7-b18b-d730703cd0a7"},"vehicle_type_id":"4","last_reported":1723324123,"current_range_meters":30000,"station_id":"ce4bhqp2rcd13ifvqhng","pricing_plan_id":"cebpf4jnsgd1na2vs0mg"},{"bike_id":"d9faa51d-af3f-48d1-afe0-33dd9c83e762","system_id":"levelo_inurba_marseille","lat":43.298037,"lon":5.381066,"is_reserved":false,"is_disabled":false,"rental_uris":{"android":"levelo://app?vid=d9faa51d-af3f-48d1-afe0-33dd9c83e762","ios":"levelo://app?vid=d9faa51d-af3f-48d1-afe0-33dd9c83e762"},"vehicle_type_id":"4","last_reported":1723324123,"current_range_meters":26000,"station_id":"ce4bgip2rcd13ifvqbb0","pricing_plan_id":"cebpf4jnsgd1na2vs0mg"},{"bike_id":"80f9f110-4ffc-4297-bf57-2bf2a710da39","system_id":"levelo_inurba_marseille","lat":43.321618,"lon":5.388313,"is_reserved":false,"is_disabled":false,"rental_uris":{"android":"levelo://app?vid=80f9f110-4ffc-4297-bf57-2bf2a710da39","ios":"levelo://app?vid=80f9f110-4ffc-4297-bf57-2bf2a710da39"},"vehicle_type_id":"4","last_reported":1723324123,"current_range_meters":14000,"station_id":"","pricing_plan_id":"cebpf4jnsgd1na2vs0mg"},{"bike_id":"4f26f61b-081c-4173-8d1b-4de74b6d3817","system_id":"levelo_inurba_marseille","lat":43.29795,"lon":5.38091,"is_reserved":false,"is_disabled":false,"rental_uris":{"android":"levelo://app?vid=4f26f61b-081c-4173-8d1b-4de74b6d3817","ios":"levelo://app?vid=4f26f61b-081c-4173-8d1b-4de74b6d3817"},"vehicle_type_id":"4","last_reported":1723324123,"current_range_meters":5600,"station_id":"ce4bgip2rcd13ifvqbb0","pricing_plan_id":"cebpf4jnsgd1na2vs0mg"},{"bike_id":"f7c6ff18-cf87-416e-a91f-ec08029652cc","system_id":"levelo_inurba_marseille","lat":43.298037,"lon":5.381066,"is_reserved":false,"is_disabled":false,"rental_uris":{"android":"levelo://app?vid=f7c6ff18-cf87-416e-a91f-ec08029652cc","ios":"levelo://app?vid=f7c6ff18-cf87-416e-a91f-ec08029652cc"},"vehicle_type_id":"4","last_reported":1723324123,"current_range_meters":22000,"station_id":"ce4bgip2rcd13ifvqbb0","pricing_plan_id":"cebpf4jnsgd1na2vs0mg"},{"bike_id":"43bc3cf5-39e8-40a3-94eb-8995e23f6724","system_id":"levelo_inurba_marseille","lat":43.298037,"lon":5.381066,"is_reserved":false,"is_disabled":false,"rental_uris":{"android":"levelo://app?vid=43bc3cf5-39e8-40a3-94eb-8995e23f6724","ios":"levelo://app?vid=43bc3cf5-39e8-40a3-94eb-8995e23f6724"},"vehicle_type_id":"4","last_reported":1723324123,"current_range_meters":800,"station_id":"ce4bgip2rcd13ifvqbb0","pricing_plan_id":"cebpf4jnsgd1na2vs0mg"},{"bike_id":"250dba8d-d2a9-4728-b7d6-7610219f1f1e","system_id":"levelo_inurba_marseille","lat":43.296263,"lon":5.377094,"is_reserved":false,"is_disabled":false,"rental_uris":{"android":"levelo://app?vid=250dba8d-d2a9-4728-b7d6-7610219f1f1e","ios":"levelo://app?vid=250dba8d-d2a9-4728-b7d6-7610219f1f1e"},"vehicle_type_id":"4","last_reported":1723324123,"current_range_meters":11600,"station_id":"ce4bgi92rcd13ifvqb90","pricing_plan_id":"cebpf4jnsgd1na2vs0mg"},{"bike_id":"2359b088-c6c0-4e6f-b7b4-7df730edaa20","system_id":"levelo_inurba_marseille","lat":43.29495,"lon":5.36175,"is_reserved":false,"is_disabled":false,"rental_uris":{"android":"levelo://app?vid=2359b088-c6c0-4e6f-b7b4-7df730edaa20","ios":"levelo://app?vid=2359b088-c6c0-4e6f-b7b4-7df730edaa20"},"vehicle_type_id":"4","last_reported":1723324123,"current_range_meters":5600,"station_id":"","pricing_plan_id":"cebpf4jnsgd1na2vs0mg"},{"bike_id":"1bc14485-594b-4869-a03c-4acbaf5ec0fd","system_id":"levelo_inurba_marseille","lat":43.298764,"lon":5.388973,"is_reserved":false,"is_disabled":false,"rental_uris":{"android":"levelo://app?vid=1bc14485-594b-4869-a03c-4acbaf5ec0fd","ios":"levelo://app?vid=1bc14485-594b-4869-a03c-4acbaf5ec0fd"},"vehicle_type_id":"4","last_reported":1723324123,"current_range_meters":8000,"station_id":"ce4bh392rcd13ifvqdl0","pricing_plan_id":"cebpf4jnsgd1na2vs0mg"},{"bike_id":"8c0466e8-b1b6-4dba-acbc-fe8816b78ee7","system_id":"levelo_inurba_marseille","lat":43.29608,"lon":5.37713,"is_reserved":false,"is_disabled":false,"rental_uris":{"android":"levelo://app?vid=8c0466e8-b1b6-4dba-acbc-fe8816b78ee7","ios":"levelo://app?vid=8c0466e8-b1b6-4dba-acbc-fe8816b78ee7"},"vehicle_type_id":"4","last_reported":1723324123,"current_range_meters":26400,"station_id":"ce4bgi92rcd13ifvqb90","pricing_plan_id":"cebpf4jnsgd1na2vs0mg"},{"bike_id":"a998cebb-867c-4b39-a8a4-534b5b44af20","system_id":"levelo_inurba_marseille","lat":43.299707,"lon":5.384859,"is_reserved":false,"is_disabled":false,"rental_uris":{"android":"levelo://app?vid=a998cebb-867c-4b39-a8a4-534b5b44af20","ios":"levelo://app?vid=a998cebb-867c-4b39-a8a4-534b5b44af20"},"vehicle_type_id":"4","last_reported":1723324123,"current_range_meters":25200,"station_id":"ce4bgj92rcd13ifvqbd0","pricing_plan_id":"cebpf4jnsgd1na2vs0mg"},{"bike_id":"ba64ef78-6434-4451-9563-da5d93839f6f","system_id":"levelo_inurba_marseille","lat":43.299707,"lon":5.384859,"is_reserved":false,"is_disabled":false,"rental_uris":{"android":"levelo://app?vid=ba64ef78-6434-4451-9563-da5d93839f6f","ios":"levelo://app?vid=ba64ef78-6434-4451-9563-da5d93839f6f"},"vehicle_type_id":"4","last_reported":1723324123,"current_range_meters":30000,"station_id":"ce4bgj92rcd13ifvqbd0","pricing_plan_id":"cebpf4jnsgd1na2vs0mg"},{"bike_id":"7c62064a-c617-47e6-9257-528d8e1f0bca","system_id":"levelo_inurba_marseille","lat":43.299707,"lon":5.384859,"is_reserved":false,"is_disabled":false,"rental_uris":{"android":"levelo://app?vid=7c62064a-c617-47e6-9257-528d8e1f0bca","ios":"levelo://app?vid=7c62064a-c617-47e6-9257-528d8e1f0bca"},"vehicle_type_id":"4","last_reported":1723324123,"current_range_meters":28000,"station_id":"ce4bgj92rcd13ifvqbd0","pricing_plan_id":"cebpf4jnsgd1na2vs0mg"},{"bike_id":"caced4ee-311b-410c-906e-80aeb9d602fc","system_id":"levelo_inurba_marseille","lat":43.295107,"lon":5.37515,"is_reserved":false,"is_disabled":false,"rental_uris":{"android":"levelo://app?vid=caced4ee-311b-410c-906e-80aeb9d602fc","ios":"levelo://app?vid=caced4ee-311b-410c-906e-80aeb9d602fc"},"vehicle_type_id":"4","last_reported":1723324123,"current_range_meters":31200,"station_id":"ce4bgkp2rcd13ifvqbmg","pricing_plan_id":"cebpf4jnsgd1na2vs0mg"},{"bike_id":"0f55fd69-8eb6-4a0e-b42c-4f3dee433f32","system_id":"levelo_inurba_marseille","lat":43.30139,"lon":5.38771,"is_reserved":false,"is_disabled":false,"rental_uris":{"android":"levelo://app?vid=0f55fd69-8eb6-4a0e-b42c-4f3dee433f32","ios":"levelo://app?vid=0f55fd69-8eb6-4a0e-b42c-4f3dee433f32"},"vehicle_type_id":"4","last_reported":1723324123,"current_range_meters":16800,"station_id":"ce4bghh2rcd13ifvqb60","pricing_plan_id":"cebpf4jnsgd1na2vs0mg"},{"bike_id":"0592eff6-3d19-4ffa-8681-a8f203aa5f8e","system_id":"levelo_inurba_marseille","lat":43.301396,"lon":5.387812,"is_reserved":false,"is_disabled":false,"rental_uris":{"android":"levelo://app?vid=0592eff6-3d19-4ffa-8681-a8f203aa5f8e","ios":"levelo://app?vid=0592eff6-3d19-4ffa-8681-a8f203aa5f8e"},"vehicle_type_id":"4","last_reported":1723324123,"current_range_meters":16800,"station_id":"ce4bghh2rcd13ifvqb60","pricing_plan_id":"cebpf4jnsgd1na2vs0mg"},{"bike_id":"d642d38e-4465-4a72-9cf0-0d58e19c5821","system_id":"levelo_inurba_marseille","lat":43.30132,"lon":5.3878,"is_reserved":false,"is_disabled":false,"rental_uris":{"android":"levelo://app?vid=d642d38e-4465-4a72-9cf0-0d58e19c5821","ios":"levelo://app?vid=d642d38e-4465-4a72-9cf0-0d58e19c5821"},"vehicle_type_id":"4","last_reported":1723324123,"current_range_meters":12800,"station_id":"ce4bghh2rcd13ifvqb60","pricing_plan_id":"cebpf4jnsgd1na2vs0mg"},{"bike_id":"d6a44bd9-7950-4256-aff3-2c0cd9fd32d5","system_id":"levelo_inurba_marseille","lat":43.30136,"lon":5.38785,"is_reserved":false,"is_disabled":false,"rental_uris":{"android":"levelo://app?vid=d6a44bd9-7950-4256-aff3-2c0cd9fd32d5","ios":"levelo://app?vid=d6a44bd9-7950-4256-aff3-2c0cd9fd32d5"},"vehicle_type_id":"4","last_reported":1723324123,"current_range_meters":20000,"station_id":"ce4bghh2rcd13ifvqb60","pricing_plan_id":"cebpf4jnsgd1na2vs0mg"},{"bike_id":"4c4470d2-f679-4f7c-acf2-3da1cc246e51","system_id":"levelo_inurba_marseille","lat":43.301396,"lon":5.387812,"is_reserved":false,"is_disabled":false,"rental_uris":{"android":"levelo://app?vid=4c4470d2-f679-4f7c-acf2-3da1cc246e51","ios":"levelo://app?vid=4c4470d2-f679-4f7c-acf2-3da1cc246e51"},"vehicle_type_id":"4","last_reported":1723324123,"current_range_meters":21200,"station_id":"ce4bghh2rcd13ifvqb60","pricing_plan_id":"cebpf4jnsgd1na2vs0mg"},{"bike_id":"6bd81adb-4b53-47da-a831-cd22035fd03a","system_id":"levelo_inurba_marseille","lat":43.301396,"lon":5.387812,"is_reserved":false,"is_disabled":false,"rental_uris":{"android":"levelo://app?vid=6bd81adb-4b53-47da-a831-cd22035fd03a","ios":"levelo://app?vid=6bd81adb-4b53-47da-a831-cd22035fd03a"},"vehicle_type_id":"4","last_reported":1723324123,"current_range_meters":1200,"station_id":"ce4bghh2rcd13ifvqb60","pricing_plan_id":"cebpf4jnsgd1na2vs0mg"},{"bike_id":"c1604f82-1130-41b9-84f9-d1c2742e05ec","system_id":"levelo_inurba_marseille","lat":43.3236,"lon":5.38881,"is_reserved":false,"is_disabled":false,"rental_uris":{"android":"levelo://app?vid=c1604f82-1130-41b9-84f9-d1c2742e05ec","ios":"levelo://app?vid=c1604f82-1130-41b9-84f9-d1c2742e05ec"},"vehicle_type_id":"4","last_reported":1723324123,"current_range_meters":12800,"station_id":"ce4bhqp2rcd13ifvqhog","pricing_plan_id":"cebpf4jnsgd1na2vs0mg"},{"bike_id":"f205115c-b575-4ec7-a015-b0d8b8a7195e","system_id":"levelo_inurba_marseille","lat":43.32367,"lon":5.388836,"is_reserved":false,"is_disabled":false,"rental_uris":{"android":"levelo://app?vid=f205115c-b575-4ec7-a015-b0d8b8a7195e","ios":"levelo://app?vid=f205115c-b575-4ec7-a015-b0d8b8a7195e"},"vehicle_type_id":"4","last_reported":1723324123,"current_range_meters":21200,"station_id":"ce4bhqp2rcd13ifvqhog","pricing_plan_id":"cebpf4jnsgd1na2vs0mg"},{"bike_id":"2ec82b18-e46d-42e1-97b1-716e5677c559","system_id":"levelo_inurba_marseille","lat":43.32367,"lon":5.388836,"is_reserved":false,"is_disabled":false,"rental_uris":{"android":"levelo://app?vid=2ec82b18-e46d-42e1-97b1-716e5677c559","ios":"levelo://app?vid=2ec82b18-e46d-42e1-97b1-716e5677c559"},"vehicle_type_id":"4","last_reported":1723324123,"current_range_meters":18000,"station_id":"ce4bhqp2rcd13ifvqhog","pricing_plan_id":"cebpf4jnsgd1na2vs0mg"},{"bike_id":"df7496e0-21de-4f25-b3a0-35095825935c","system_id":"levelo_inurba_marseille","lat":43.32367,"lon":5.388836,"is_reserved":false,"is_disabled":false,"rental_uris":{"android":"levelo://app?vid=df7496e0-21de-4f25-b3a0-35095825935c","ios":"levelo://app?vid=df7496e0-21de-4f25-b3a0-35095825935c"},"vehicle_type_id":"4","last_reported":1723324123,"current_range_meters":3600,"station_id":"ce4bhqp2rcd13ifvqhog","pricing_plan_id":"cebpf4jnsgd1na2vs0mg"},{"bike_id":"a8d13e85-871a-46d6-b4f0-82eb10bacbd1","system_id":"levelo_inurba_marseille","lat":43.32367,"lon":5.388836,"is_reserved":false,"is_disabled":false,"rental_uris":{"android":"levelo://app?vid=a8d13e85-871a-46d6-b4f0-82eb10bacbd1","ios":"levelo://app?vid=a8d13e85-871a-46d6-b4f0-82eb10bacbd1"},"vehicle_type_id":"4","last_reported":1723324123,"current_range_meters":800,"station_id":"ce4bhqp2rcd13ifvqhog","pricing_plan_id":"cebpf4jnsgd1na2vs0mg"},{"bike_id":"8608956f-5b58-4586-aed9-edf9b4ef9256","system_id":"levelo_inurba_marseille","lat":43.29602,"lon":5.38103,"is_reserved":false,"is_disabled":false,"rental_uris":{"android":"levelo://app?vid=8608956f-5b58-4586-aed9-edf9b4ef9256","ios":"levelo://app?vid=8608956f-5b58-4586-aed9-edf9b4ef9256"},"vehicle_type_id":"4","last_reported":1723324123,"current_range_meters":26800,"station_id":"ce4bgl12rcd13ifvqbo0","pricing_plan_id":"cebpf4jnsgd1na2vs0mg"},{"bike_id":"f8f3221f-16af-4a5b-9298-39750ad31489","system_id":"levelo_inurba_marseille","lat":43.29602,"lon":5.381084,"is_reserved":false,"is_disabled":false,"rental_uris":{"android":"levelo://app?vid=f8f3221f-16af-4a5b-9298-39750ad31489","ios":"levelo://app?vid=f8f3221f-16af-4a5b-9298-39750ad31489"},"vehicle_type_id":"4","last_reported":1723324123,"current_range_meters":24800,"station_id":"ce4bgl12rcd13ifvqbo0","pricing_plan_id":"cebpf4jnsgd1na2vs0mg"},{"bike_id":"120e425f-368e-4444-bb0e-1564f439f5b0","system_id":"levelo_inurba_marseille","lat":43.29602,"lon":5.381084,"is_reserved":false,"is_disabled":false,"rental_uris":{"android":"levelo://app?vid=120e425f-368e-4444-bb0e-1564f439f5b0","ios":"levelo://app?vid=120e425f-368e-4444-bb0e-1564f439f5b0"},"vehicle_type_id":"4","last_reported":1723324123,"current_range_meters":23200,"station_id":"ce4bgl12rcd13ifvqbo0","pricing_plan_id":"cebpf4jnsgd1na2vs0mg"},{"bike_id":"436ef830-520f-4223-afdb-86c32b121336","system_id":"levelo_inurba_marseille","lat":43.29602,"lon":5.381084,"is_reserved":false,"is_disabled":false,"rental_uris":{"android":"levelo://app?vid=436ef830-520f-4223-afdb-86c32b121336","ios":"levelo://app?vid=436ef830-520f-4223-afdb-86c32b121336"},"vehicle_type_id":"4","last_reported":1723324123,"current_range_meters":6800,"station_id":"ce4bgl12rcd13ifvqbo0","pricing_plan_id":"cebpf4jnsgd1na2vs0mg"},{"bike_id":"23949995-c082-4641-b949-9d2000457f7a","system_id":"levelo_inurba_marseille","lat":43.32385,"lon":5.38923,"is_reserved":false,"is_disabled":false,"rental_uris":{"android":"levelo://app?vid=23949995-c082-4641-b949-9d2000457f7a","ios":"levelo://app?vid=23949995-c082-4641-b949-9d2000457f7a"},"vehicle_type_id":"4","last_reported":1723324123,"current_range_meters":0,"station_id":"ce4bhqp2rcd13ifvqhog","pricing_plan_id":"cebpf4jnsgd1na2vs0mg"},{"bike_id":"ce51ddf6-749e-47de-bd55-cf8af7718b2b","system_id":"levelo_inurba_marseille","lat":43.29602,"lon":5.381084,"is_reserved":false,"is_disabled":false,"rental_uris":{"android":"levelo://app?vid=ce51ddf6-749e-47de-bd55-cf8af7718b2b","ios":"levelo://app?vid=ce51ddf6-749e-47de-bd55-cf8af7718b2b"},"vehicle_type_id":"4","last_reported":1723324123,"current_range_meters":17200,"station_id":"ce4bgl12rcd13ifvqbo0","pricing_plan_id":"cebpf4jnsgd1na2vs0mg"},{"bike_id":"6976cc5f-a770-4979-86d9-62b7b1c2c0cf","system_id":"levelo_inurba_marseille","lat":43.31858,"lon":5.39339,"is_reserved":false,"is_disabled":false,"rental_uris":{"android":"levelo://app?vid=6976cc5f-a770-4979-86d9-62b7b1c2c0cf","ios":"levelo://app?vid=6976cc5f-a770-4979-86d9-62b7b1c2c0cf"},"vehicle_type_id":"4","last_reported":1723324123,"current_range_meters":13200,"station_id":"","pricing_plan_id":"cebpf4jnsgd1na2vs0mg"},{"bike_id":"36b773ad-4272-42e7-b558-784338efa1ec","system_id":"levelo_inurba_marseille","lat":43.319,"lon":5.39346,"is_reserved":false,"is_disabled":false,"rental_uris":{"android":"levelo://app?vid=36b773ad-4272-42e7-b558-784338efa1ec","ios":"levelo://app?vid=36b773ad-4272-42e7-b558-784338efa1ec"},"vehicle_type_id":"4","last_reported":1723324123,"current_range_meters":14000,"station_id":"","pricing_plan_id":"cebpf4jnsgd1na2vs0mg"},{"bike_id":"0899054b-300d-49b2-9e49-cdcca61583e7","system_id":"levelo_inurba_marseille","lat":43.293009,"lon":5.374584,"is_reserved":false,"is_disabled":false,"rental_uris":{"android":"levelo://app?vid=0899054b-300d-49b2-9e49-cdcca61583e7","ios":"levelo://app?vid=0899054b-300d-49b2-9e49-cdcca61583e7"},"vehicle_type_id":"4","last_reported":1723324123,"current_range_meters":12400,"station_id":"ce4bgi12rcd13ifvqb70","pricing_plan_id":"cebpf4jnsgd1na2vs0mg"},{"bike_id":"8d37495d-9961-45f8-ba67-ee81725ae3ae","system_id":"levelo_inurba_marseille","lat":43.29228,"lon":5.36363,"is_reserved":false,"is_disabled":false,"rental_uris":{"android":"levelo://app?vid=8d37495d-9961-45f8-ba67-ee81725ae3ae","ios":"levelo://app?vid=8d37495d-9961-45f8-ba67-ee81725ae3ae"},"vehicle_type_id":"4","last_reported":1723324123,"current_range_meters":7600,"station_id":"","pricing_plan_id":"cebpf4jnsgd1na2vs0mg"},{"bike_id":"11fcc961-0ce1-45ca-9703-348dfbc5fafd","system_id":"levelo_inurba_marseille","lat":43.273613,"lon":5.362705,"is_reserved":false,"is_disabled":false,"rental_uris":{"android":"levelo://app?vid=11fcc961-0ce1-45ca-9703-348dfbc5fafd","ios":"levelo://app?vid=11fcc961-0ce1-45ca-9703-348dfbc5fafd"},"vehicle_type_id":"4","last_reported":1723324123,"current_range_meters":22000,"station_id":"ce4bhbh2rcd13ifvqeo0","pricing_plan_id":"cebpf4jnsgd1na2vs0mg"},{"bike_id":"540c807e-b6dd-48a7-a04c-1f955edab9e1","system_id":"levelo_inurba_marseille","lat":43.302992,"lon":5.392136,"is_reserved":false,"is_disabled":false,"rental_uris":{"android":"levelo://app?vid=540c807e-b6dd-48a7-a04c-1f955edab9e1","ios":"levelo://app?vid=540c807e-b6dd-48a7-a04c-1f955edab9e1"},"vehicle_type_id":"4","last_reported":1723324123,"current_range_meters":5600,"station_id":"ce4bgkh2rcd13ifvqbk0","pricing_plan_id":"cebpf4jnsgd1na2vs0mg"},{"bike_id":"5f874036-636d-4db0-9da4-86a65c56aea3","system_id":"levelo_inurba_marseille","lat":43.303002,"lon":5.392142,"is_reserved":false,"is_disabled":false,"rental_uris":{"android":"levelo://app?vid=5f874036-636d-4db0-9da4-86a65c56aea3","ios":"levelo://app?vid=5f874036-636d-4db0-9da4-86a65c56aea3"},"vehicle_type_id":"4","last_reported":1723324123,"current_range_meters":20800,"station_id":"ce4bgkh2rcd13ifvqbk0","pricing_plan_id":"cebpf4jnsgd1na2vs0mg"},{"bike_id":"f4f0d6c3-3e9d-4496-acfe-e943c1cdb90e","system_id":"levelo_inurba_marseille","lat":43.2936,"lon":5.37835,"is_reserved":false,"is_disabled":false,"rental_uris":{"android":"levelo://app?vid=f4f0d6c3-3e9d-4496-acfe-e943c1cdb90e","ios":"levelo://app?vid=f4f0d6c3-3e9d-4496-acfe-e943c1cdb90e"},"vehicle_type_id":"4","last_reported":1723324123,"current_range_meters":800,"station_id":"ce4bgjh2rcd13ifvqbf0","pricing_plan_id":"cebpf4jnsgd1na2vs0mg"},{"bike_id":"c0e8760f-0d5d-4668-9b22-111f63c5a29d","system_id":"levelo_inurba_marseille","lat":43.303002,"lon":5.392142,"is_reserved":false,"is_disabled":false,"rental_uris":{"android":"levelo://app?vid=c0e8760f-0d5d-4668-9b22-111f63c5a29d","ios":"levelo://app?vid=c0e8760f-0d5d-4668-9b22-111f63c5a29d"},"vehicle_type_id":"4","last_reported":1723324123,"current_range_meters":17200,"station_id":"ce4bgkh2rcd13ifvqbk0","pricing_plan_id":"cebpf4jnsgd1na2vs0mg"},{"bike_id":"0e467b66-cac5-4e24-90b1-9cb72bd53d74","system_id":"levelo_inurba_marseille","lat":43.302992,"lon":5.392136,"is_reserved":false,"is_disabled":false,"rental_uris":{"android":"levelo://app?vid=0e467b66-cac5-4e24-90b1-9cb72bd53d74","ios":"levelo://app?vid=0e467b66-cac5-4e24-90b1-9cb72bd53d74"},"vehicle_type_id":"4","last_reported":1723324123,"current_range_meters":17200,"station_id":"ce4bgkh2rcd13ifvqbk0","pricing_plan_id":"cebpf4jnsgd1na2vs0mg"},{"bike_id":"2f5b0ee0-e92c-403f-bd97-c029780b2ca6","system_id":"levelo_inurba_marseille","lat":43.30085,"lon":5.390856,"is_reserved":false,"is_disabled":false,"rental_uris":{"android":"levelo://app?vid=2f5b0ee0-e92c-403f-bd97-c029780b2ca6","ios":"levelo://app?vid=2f5b0ee0-e92c-403f-bd97-c029780b2ca6"},"vehicle_type_id":"4","last_reported":1723324123,"current_range_meters":23600,"station_id":"ce4bh192rcd13ifvqdb0","pricing_plan_id":"cebpf4jnsgd1na2vs0mg"},{"bike_id":"3389fc22-df83-4db2-9eb3-f6f84ba503d0","system_id":"levelo_inurba_marseille","lat":43.30093,"lon":5.39073,"is_reserved":false,"is_disabled":false,"rental_uris":{"android":"levelo://app?vid=3389fc22-df83-4db2-9eb3-f6f84ba503d0","ios":"levelo://app?vid=3389fc22-df83-4db2-9eb3-f6f84ba503d0"},"vehicle_type_id":"4","last_reported":1723324123,"current_range_meters":28800,"station_id":"ce4bh192rcd13ifvqdb0","pricing_plan_id":"cebpf4jnsgd1na2vs0mg"},{"bike_id":"c309af1b-33e7-43f1-bf6e-09ab2dbfa983","system_id":"levelo_inurba_marseille","lat":43.298764,"lon":5.388973,"is_reserved":false,"is_disabled":false,"rental_uris":{"android":"levelo://app?vid=c309af1b-33e7-43f1-bf6e-09ab2dbfa983","ios":"levelo://app?vid=c309af1b-33e7-43f1-bf6e-09ab2dbfa983"},"vehicle_type_id":"4","last_reported":1723324123,"current_range_meters":31600,"station_id":"ce4bh392rcd13ifvqdl0","pricing_plan_id":"cebpf4jnsgd1na2vs0mg"},{"bike_id":"16c4a809-31c6-43a1-bbb5-a818cb71fc1d","system_id":"levelo_inurba_marseille","lat":43.298764,"lon":5.388973,"is_reserved":false,"is_disabled":false,"rental_uris":{"android":"levelo://app?vid=16c4a809-31c6-43a1-bbb5-a818cb71fc1d","ios":"levelo://app?vid=16c4a809-31c6-43a1-bbb5-a818cb71fc1d"},"vehicle_type_id":"4","last_reported":1723324123,"current_range_meters":29200,"station_id":"ce4bh392rcd13ifvqdl0","pricing_plan_id":"cebpf4jnsgd1na2vs0mg"},{"bike_id":"7de71c17-1272-4591-9e12-606f8849e3a5","system_id":"levelo_inurba_marseille","lat":43.298764,"lon":5.388973,"is_reserved":false,"is_disabled":false,"rental_uris":{"android":"levelo://app?vid=7de71c17-1272-4591-9e12-606f8849e3a5","ios":"levelo://app?vid=7de71c17-1272-4591-9e12-606f8849e3a5"},"vehicle_type_id":"4","last_reported":1723324123,"current_range_meters":15600,"station_id":"ce4bh392rcd13ifvqdl0","pricing_plan_id":"cebpf4jnsgd1na2vs0mg"},{"bike_id":"89772762-2021-4f7b-92e8-60efef0fdb02","system_id":"levelo_inurba_marseille","lat":43.298764,"lon":5.388973,"is_reserved":false,"is_disabled":false,"rental_uris":{"android":"levelo://app?vid=89772762-2021-4f7b-92e8-60efef0fdb02","ios":"levelo://app?vid=89772762-2021-4f7b-92e8-60efef0fdb02"},"vehicle_type_id":"4","last_reported":1723324123,"current_range_meters":28800,"station_id":"ce4bh392rcd13ifvqdl0","pricing_plan_id":"cebpf4jnsgd1na2vs0mg"},{"bike_id":"8978b305-65e9-4bc0-87bf-d387c27ea192","system_id":"levelo_inurba_marseille","lat":43.298764,"lon":5.388973,"is_reserved":false,"is_disabled":false,"rental_uris":{"android":"levelo://app?vid=8978b305-65e9-4bc0-87bf-d387c27ea192","ios":"levelo://app?vid=8978b305-65e9-4bc0-87bf-d387c27ea192"},"vehicle_type_id":"4","last_reported":1723324123,"current_range_meters":26800,"station_id":"ce4bh392rcd13ifvqdl0","pricing_plan_id":"cebpf4jnsgd1na2vs0mg"},{"bike_id":"8669c215-f64f-4991-918a-38e605b47e3d","system_id":"levelo_inurba_marseille","lat":43.29286,"lon":5.35552,"is_reserved":false,"is_disabled":false,"rental_uris":{"android":"levelo://app?vid=8669c215-f64f-4991-918a-38e605b47e3d","ios":"levelo://app?vid=8669c215-f64f-4991-918a-38e605b47e3d"},"vehicle_type_id":"4","last_reported":1723324123,"current_range_meters":6400,"station_id":"","pricing_plan_id":"cebpf4jnsgd1na2vs0mg"},{"bike_id":"615cd313-a418-4b30-86b8-f4314460f88a","system_id":"levelo_inurba_marseille","lat":43.309038,"lon":5.396546,"is_reserved":false,"is_disabled":false,"rental_uris":{"android":"levelo://app?vid=615cd313-a418-4b30-86b8-f4314460f88a","ios":"levelo://app?vid=615cd313-a418-4b30-86b8-f4314460f88a"},"vehicle_type_id":"4","last_reported":1723324123,"current_range_meters":22400,"station_id":"ce4bh012rcd13ifvqcv0","pricing_plan_id":"cebpf4jnsgd1na2vs0mg"},{"bike_id":"4ff34ef7-ea1d-4a4c-bc84-77db934606fc","system_id":"levelo_inurba_marseille","lat":43.3133,"lon":5.39686,"is_reserved":false,"is_disabled":false,"rental_uris":{"android":"levelo://app?vid=4ff34ef7-ea1d-4a4c-bc84-77db934606fc","ios":"levelo://app?vid=4ff34ef7-ea1d-4a4c-bc84-77db934606fc"},"vehicle_type_id":"4","last_reported":1723324123,"current_range_meters":0,"station_id":"ce4bgvp2rcd13ifvqcu0","pricing_plan_id":"cebpf4jnsgd1na2vs0mg"},{"bike_id":"9d4b68a5-c93f-4844-a235-5ff4a055b660","system_id":"levelo_inurba_marseille","lat":43.292385,"lon":5.37767,"is_reserved":false,"is_disabled":false,"rental_uris":{"android":"levelo://app?vid=9d4b68a5-c93f-4844-a235-5ff4a055b660","ios":"levelo://app?vid=9d4b68a5-c93f-4844-a235-5ff4a055b660"},"vehicle_type_id":"4","last_reported":1723324123,"current_range_meters":10400,"station_id":"","pricing_plan_id":"cebpf4jnsgd1na2vs0mg"},{"bike_id":"cb065c9b-a672-4326-8da4-0c43ffb5581a","system_id":"levelo_inurba_marseille","lat":43.313291,"lon":5.396838,"is_reserved":false,"is_disabled":false,"rental_uris":{"android":"levelo://app?vid=cb065c9b-a672-4326-8da4-0c43ffb5581a","ios":"levelo://app?vid=cb065c9b-a672-4326-8da4-0c43ffb5581a"},"vehicle_type_id":"4","last_reported":1723324123,"current_range_meters":12800,"station_id":"ce4bgvp2rcd13ifvqcu0","pricing_plan_id":"cebpf4jnsgd1na2vs0mg"},{"bike_id":"d4ac3923-1187-4ae8-9e37-511671f1157e","system_id":"levelo_inurba_marseille","lat":43.31329,"lon":5.397,"is_reserved":false,"is_disabled":false,"rental_uris":{"android":"levelo://app?vid=d4ac3923-1187-4ae8-9e37-511671f1157e","ios":"levelo://app?vid=d4ac3923-1187-4ae8-9e37-511671f1157e"},"vehicle_type_id":"4","last_reported":1723324123,"current_range_meters":0,"station_id":"ce4bgvp2rcd13ifvqcu0","pricing_plan_id":"cebpf4jnsgd1na2vs0mg"},{"bike_id":"b03b65e4-fa4f-412f-8e9b-bb81673e96f0","system_id":"levelo_inurba_marseille","lat":43.313291,"lon":5.396838,"is_reserved":false,"is_disabled":false,"rental_uris":{"android":"levelo://app?vid=b03b65e4-fa4f-412f-8e9b-bb81673e96f0","ios":"levelo://app?vid=b03b65e4-fa4f-412f-8e9b-bb81673e96f0"},"vehicle_type_id":"4","last_reported":1723324123,"current_range_meters":13600,"station_id":"ce4bgvp2rcd13ifvqcu0","pricing_plan_id":"cebpf4jnsgd1na2vs0mg"},{"bike_id":"76901cd5-eb50-4b2e-9494-9f3e358667a0","system_id":"levelo_inurba_marseille","lat":43.313291,"lon":5.396838,"is_reserved":false,"is_disabled":false,"rental_uris":{"android":"levelo://app?vid=76901cd5-eb50-4b2e-9494-9f3e358667a0","ios":"levelo://app?vid=76901cd5-eb50-4b2e-9494-9f3e358667a0"},"vehicle_type_id":"4","last_reported":1723324123,"current_range_meters":30000,"station_id":"ce4bgvp2rcd13ifvqcu0","pricing_plan_id":"cebpf4jnsgd1na2vs0mg"},{"bike_id":"63debba0-ec96-4f7f-b18c-3ac5d5f0a293","system_id":"levelo_inurba_marseille","lat":43.29529,"lon":5.385581,"is_reserved":false,"is_disabled":false,"rental_uris":{"android":"levelo://app?vid=63debba0-ec96-4f7f-b18c-3ac5d5f0a293","ios":"levelo://app?vid=63debba0-ec96-4f7f-b18c-3ac5d5f0a293"},"vehicle_type_id":"4","last_reported":1723324123,"current_range_meters":27200,"station_id":"ce4bgih2rcd13ifvqba0","pricing_plan_id":"cebpf4jnsgd1na2vs0mg"},{"bike_id":"820db865-dffe-49dc-a927-23ff323d1217","system_id":"levelo_inurba_marseille","lat":43.29529,"lon":5.385581,"is_reserved":false,"is_disabled":false,"rental_uris":{"android":"levelo://app?vid=820db865-dffe-49dc-a927-23ff323d1217","ios":"levelo://app?vid=820db865-dffe-49dc-a927-23ff323d1217"},"vehicle_type_id":"4","last_reported":1723324123,"current_range_meters":29200,"station_id":"ce4bgih2rcd13ifvqba0","pricing_plan_id":"cebpf4jnsgd1na2vs0mg"},{"bike_id":"2d58a3f7-3bf3-4924-bb07-ddf046378da2","system_id":"levelo_inurba_marseille","lat":43.29529,"lon":5.385581,"is_reserved":false,"is_disabled":false,"rental_uris":{"android":"levelo://app?vid=2d58a3f7-3bf3-4924-bb07-ddf046378da2","ios":"levelo://app?vid=2d58a3f7-3bf3-4924-bb07-ddf046378da2"},"vehicle_type_id":"4","last_reported":1723324123,"current_range_meters":23200,"station_id":"ce4bgih2rcd13ifvqba0","pricing_plan_id":"cebpf4jnsgd1na2vs0mg"},{"bike_id":"fbd14c53-7e8d-4320-8fc3-fb7bde9d80da","system_id":"levelo_inurba_marseille","lat":43.29529,"lon":5.385581,"is_reserved":false,"is_disabled":false,"rental_uris":{"android":"levelo://app?vid=fbd14c53-7e8d-4320-8fc3-fb7bde9d80da","ios":"levelo://app?vid=fbd14c53-7e8d-4320-8fc3-fb7bde9d80da"},"vehicle_type_id":"4","last_reported":1723324123,"current_range_meters":11600,"station_id":"ce4bgih2rcd13ifvqba0","pricing_plan_id":"cebpf4jnsgd1na2vs0mg"},{"bike_id":"5928b10f-bf12-441d-b003-65c0a9b6baec","system_id":"levelo_inurba_marseille","lat":43.29529,"lon":5.385581,"is_reserved":false,"is_disabled":false,"rental_uris":{"android":"levelo://app?vid=5928b10f-bf12-441d-b003-65c0a9b6baec","ios":"levelo://app?vid=5928b10f-bf12-441d-b003-65c0a9b6baec"},"vehicle_type_id":"4","last_reported":1723324123,"current_range_meters":9600,"station_id":"ce4bgih2rcd13ifvqba0","pricing_plan_id":"cebpf4jnsgd1na2vs0mg"},{"bike_id":"06924bce-00f6-4e27-966a-cae17345fda4","system_id":"levelo_inurba_marseille","lat":43.29529,"lon":5.385581,"is_reserved":false,"is_disabled":false,"rental_uris":{"android":"levelo://app?vid=06924bce-00f6-4e27-966a-cae17345fda4","ios":"levelo://app?vid=06924bce-00f6-4e27-966a-cae17345fda4"},"vehicle_type_id":"4","last_reported":1723324123,"current_range_meters":6400,"station_id":"ce4bgih2rcd13ifvqba0","pricing_plan_id":"cebpf4jnsgd1na2vs0mg"},{"bike_id":"d2bd1f7b-5c3e-4eb3-b0f1-f73520e1ceee","system_id":"levelo_inurba_marseille","lat":43.29529,"lon":5.385581,"is_reserved":false,"is_disabled":false,"rental_uris":{"android":"levelo://app?vid=d2bd1f7b-5c3e-4eb3-b0f1-f73520e1ceee","ios":"levelo://app?vid=d2bd1f7b-5c3e-4eb3-b0f1-f73520e1ceee"},"vehicle_type_id":"4","last_reported":1723324123,"current_range_meters":15600,"station_id":"ce4bgih2rcd13ifvqba0","pricing_plan_id":"cebpf4jnsgd1na2vs0mg"},{"bike_id":"3ca9859a-c7ac-47df-bc47-b3dffecdaf18","system_id":"levelo_inurba_marseille","lat":43.29529,"lon":5.385581,"is_reserved":false,"is_disabled":false,"rental_uris":{"android":"levelo://app?vid=3ca9859a-c7ac-47df-bc47-b3dffecdaf18","ios":"levelo://app?vid=3ca9859a-c7ac-47df-bc47-b3dffecdaf18"},"vehicle_type_id":"4","last_reported":1723324123,"current_range_meters":28800,"station_id":"ce4bgih2rcd13ifvqba0","pricing_plan_id":"cebpf4jnsgd1na2vs0mg"},{"bike_id":"f9ad4c09-c305-436a-9878-0551b4d9706f","system_id":"levelo_inurba_marseille","lat":43.29529,"lon":5.385581,"is_reserved":false,"is_disabled":false,"rental_uris":{"android":"levelo://app?vid=f9ad4c09-c305-436a-9878-0551b4d9706f","ios":"levelo://app?vid=f9ad4c09-c305-436a-9878-0551b4d9706f"},"vehicle_type_id":"4","last_reported":1723324123,"current_range_meters":15600,"station_id":"ce4bgih2rcd13ifvqba0","pricing_plan_id":"cebpf4jnsgd1na2vs0mg"},{"bike_id":"81cb5f60-2455-4299-91c3-8e31f59c3c60","system_id":"levelo_inurba_marseille","lat":43.295291,"lon":5.385445,"is_reserved":false,"is_disabled":false,"rental_uris":{"android":"levelo://app?vid=81cb5f60-2455-4299-91c3-8e31f59c3c60","ios":"levelo://app?vid=81cb5f60-2455-4299-91c3-8e31f59c3c60"},"vehicle_type_id":"4","last_reported":1723324123,"current_range_meters":12000,"station_id":"","pricing_plan_id":"cebpf4jnsgd1na2vs0mg"},{"bike_id":"276d3d0d-09bc-4264-9650-8540285f06ea","system_id":"levelo_inurba_marseille","lat":43.29529,"lon":5.385581,"is_reserved":false,"is_disabled":false,"rental_uris":{"android":"levelo://app?vid=276d3d0d-09bc-4264-9650-8540285f06ea","ios":"levelo://app?vid=276d3d0d-09bc-4264-9650-8540285f06ea"},"vehicle_type_id":"4","last_reported":1723324123,"current_range_meters":25200,"station_id":"ce4bgih2rcd13ifvqba0","pricing_plan_id":"cebpf4jnsgd1na2vs0mg"},{"bike_id":"8e761b22-bad0-4f1e-8580-0afc22693b9f","system_id":"levelo_inurba_marseille","lat":43.29529,"lon":5.385581,"is_reserved":false,"is_disabled":false,"rental_uris":{"android":"levelo://app?vid=8e761b22-bad0-4f1e-8580-0afc22693b9f","ios":"levelo://app?vid=8e761b22-bad0-4f1e-8580-0afc22693b9f"},"vehicle_type_id":"4","last_reported":1723324123,"current_range_meters":27600,"station_id":"ce4bgih2rcd13ifvqba0","pricing_plan_id":"cebpf4jnsgd1na2vs0mg"},{"bike_id":"bcc5b254-41c2-4ae4-a9fa-99e4b1bf7bad","system_id":"levelo_inurba_marseille","lat":43.290779,"lon":5.371482,"is_reserved":false,"is_disabled":false,"rental_uris":{"android":"levelo://app?vid=bcc5b254-41c2-4ae4-a9fa-99e4b1bf7bad","ios":"levelo://app?vid=bcc5b254-41c2-4ae4-a9fa-99e4b1bf7bad"},"vehicle_type_id":"4","last_reported":1723324123,"current_range_meters":12800,"station_id":"ce4bh5p2rcd13ifvqe4g","pricing_plan_id":"cebpf4jnsgd1na2vs0mg"},{"bike_id":"f7bad830-3104-4a4a-989a-c8574c08de5c","system_id":"levelo_inurba_marseille","lat":43.29529,"lon":5.385581,"is_reserved":false,"is_disabled":false,"rental_uris":{"android":"levelo://app?vid=f7bad830-3104-4a4a-989a-c8574c08de5c","ios":"levelo://app?vid=f7bad830-3104-4a4a-989a-c8574c08de5c"},"vehicle_type_id":"4","last_reported":1723324123,"current_range_meters":22000,"station_id":"ce4bgih2rcd13ifvqba0","pricing_plan_id":"cebpf4jnsgd1na2vs0mg"},{"bike_id":"90db2387-2b93-4909-b5c0-36f1e7662b31","system_id":"levelo_inurba_marseille","lat":43.29529,"lon":5.385581,"is_reserved":false,"is_disabled":false,"rental_uris":{"android":"levelo://app?vid=90db2387-2b93-4909-b5c0-36f1e7662b31","ios":"levelo://app?vid=90db2387-2b93-4909-b5c0-36f1e7662b31"},"vehicle_type_id":"4","last_reported":1723324123,"current_range_meters":6400,"station_id":"ce4bgih2rcd13ifvqba0","pricing_plan_id":"cebpf4jnsgd1na2vs0mg"},{"bike_id":"24857a27-c0e1-451b-871f-3c32c4b9a383","system_id":"levelo_inurba_marseille","lat":43.29529,"lon":5.385581,"is_reserved":false,"is_disabled":false,"rental_uris":{"android":"levelo://app?vid=24857a27-c0e1-451b-871f-3c32c4b9a383","ios":"levelo://app?vid=24857a27-c0e1-451b-871f-3c32c4b9a383"},"vehicle_type_id":"4","last_reported":1723324123,"current_range_meters":27200,"station_id":"ce4bgih2rcd13ifvqba0","pricing_plan_id":"cebpf4jnsgd1na2vs0mg"},{"bike_id":"48844f95-429a-4414-9bc4-ebdaf58c869a","system_id":"levelo_inurba_marseille","lat":43.290779,"lon":5.371482,"is_reserved":false,"is_disabled":false,"rental_uris":{"android":"levelo://app?vid=48844f95-429a-4414-9bc4-ebdaf58c869a","ios":"levelo://app?vid=48844f95-429a-4414-9bc4-ebdaf58c869a"},"vehicle_type_id":"4","last_reported":1723324123,"current_range_meters":0,"station_id":"ce4bh5p2rcd13ifvqe4g","pricing_plan_id":"cebpf4jnsgd1na2vs0mg"},{"bike_id":"90db0fb5-67b1-4afa-9614-825bbdb7e90d","system_id":"levelo_inurba_marseille","lat":43.302008,"lon":5.394694,"is_reserved":false,"is_disabled":false,"rental_uris":{"android":"levelo://app?vid=90db0fb5-67b1-4afa-9614-825bbdb7e90d","ios":"levelo://app?vid=90db0fb5-67b1-4afa-9614-825bbdb7e90d"},"vehicle_type_id":"4","last_reported":1723324123,"current_range_meters":24000,"station_id":"ce4bh0p2rcd13ifvqd70","pricing_plan_id":"cebpf4jnsgd1na2vs0mg"},{"bike_id":"e778852b-0269-4b78-a8e5-dec7ec3a7e92","system_id":"levelo_inurba_marseille","lat":43.29421,"lon":5.38619,"is_reserved":false,"is_disabled":false,"rental_uris":{"android":"levelo://app?vid=e778852b-0269-4b78-a8e5-dec7ec3a7e92","ios":"levelo://app?vid=e778852b-0269-4b78-a8e5-dec7ec3a7e92"},"vehicle_type_id":"4","last_reported":1723324123,"current_range_meters":31200,"station_id":"ce4bh2h2rcd13ifvqdh0","pricing_plan_id":"cebpf4jnsgd1na2vs0mg"},{"bike_id":"5099a49f-6626-4071-884e-6c16c0cba3b3","system_id":"levelo_inurba_marseille","lat":43.294153,"lon":5.386305,"is_reserved":false,"is_disabled":false,"rental_uris":{"android":"levelo://app?vid=5099a49f-6626-4071-884e-6c16c0cba3b3","ios":"levelo://app?vid=5099a49f-6626-4071-884e-6c16c0cba3b3"},"vehicle_type_id":"4","last_reported":1723324123,"current_range_meters":21200,"station_id":"ce4bh2h2rcd13ifvqdh0","pricing_plan_id":"cebpf4jnsgd1na2vs0mg"},{"bike_id":"a2e3a267-004d-4988-8ede-1ad63a3259a4","system_id":"levelo_inurba_marseille","lat":43.2942,"lon":5.38619,"is_reserved":false,"is_disabled":false,"rental_uris":{"android":"levelo://app?vid=a2e3a267-004d-4988-8ede-1ad63a3259a4","ios":"levelo://app?vid=a2e3a267-004d-4988-8ede-1ad63a3259a4"},"vehicle_type_id":"4","last_reported":1723324123,"current_range_meters":26800,"station_id":"ce4bh2h2rcd13ifvqdh0","pricing_plan_id":"cebpf4jnsgd1na2vs0mg"},{"bike_id":"6a7c18c8-3992-4960-9b6e-73ef9a096b93","system_id":"levelo_inurba_marseille","lat":43.294153,"lon":5.386305,"is_reserved":false,"is_disabled":false,"rental_uris":{"android":"levelo://app?vid=6a7c18c8-3992-4960-9b6e-73ef9a096b93","ios":"levelo://app?vid=6a7c18c8-3992-4960-9b6e-73ef9a096b93"},"vehicle_type_id":"4","last_reported":1723324123,"current_range_meters":27600,"station_id":"ce4bh2h2rcd13ifvqdh0","pricing_plan_id":"cebpf4jnsgd1na2vs0mg"},{"bike_id":"dffb12ba-45dd-4a31-8215-c65a48e9e988","system_id":"levelo_inurba_marseille","lat":43.29417,"lon":5.38616,"is_reserved":false,"is_disabled":false,"rental_uris":{"android":"levelo://app?vid=dffb12ba-45dd-4a31-8215-c65a48e9e988","ios":"levelo://app?vid=dffb12ba-45dd-4a31-8215-c65a48e9e988"},"vehicle_type_id":"4","last_reported":1723324123,"current_range_meters":6800,"station_id":"ce4bh2h2rcd13ifvqdh0","pricing_plan_id":"cebpf4jnsgd1na2vs0mg"},{"bike_id":"dd9b929c-6356-464f-9c64-9e3e4e4bdc9c","system_id":"levelo_inurba_marseille","lat":43.29419,"lon":5.38621,"is_reserved":false,"is_disabled":false,"rental_uris":{"android":"levelo://app?vid=dd9b929c-6356-464f-9c64-9e3e4e4bdc9c","ios":"levelo://app?vid=dd9b929c-6356-464f-9c64-9e3e4e4bdc9c"},"vehicle_type_id":"4","last_reported":1723324123,"current_range_meters":25600,"station_id":"ce4bh2h2rcd13ifvqdh0","pricing_plan_id":"cebpf4jnsgd1na2vs0mg"},{"bike_id":"35e137c3-1ab6-4203-8f13-0e73cdc3872c","system_id":"levelo_inurba_marseille","lat":43.2942,"lon":5.38625,"is_reserved":false,"is_disabled":false,"rental_uris":{"android":"levelo://app?vid=35e137c3-1ab6-4203-8f13-0e73cdc3872c","ios":"levelo://app?vid=35e137c3-1ab6-4203-8f13-0e73cdc3872c"},"vehicle_type_id":"4","last_reported":1723324123,"current_range_meters":28800,"station_id":"ce4bh2h2rcd13ifvqdh0","pricing_plan_id":"cebpf4jnsgd1na2vs0mg"},{"bike_id":"d6796064-85b9-4b59-baa3-dbb174745834","system_id":"levelo_inurba_marseille","lat":43.294153,"lon":5.386305,"is_reserved":false,"is_disabled":false,"rental_uris":{"android":"levelo://app?vid=d6796064-85b9-4b59-baa3-dbb174745834","ios":"levelo://app?vid=d6796064-85b9-4b59-baa3-dbb174745834"},"vehicle_type_id":"4","last_reported":1723324123,"current_range_meters":31200,"station_id":"ce4bh2h2rcd13ifvqdh0","pricing_plan_id":"cebpf4jnsgd1na2vs0mg"},{"bike_id":"3a478198-fd45-4405-a686-092aa68cf9d1","system_id":"levelo_inurba_marseille","lat":43.29417,"lon":5.38625,"is_reserved":false,"is_disabled":false,"rental_uris":{"android":"levelo://app?vid=3a478198-fd45-4405-a686-092aa68cf9d1","ios":"levelo://app?vid=3a478198-fd45-4405-a686-092aa68cf9d1"},"vehicle_type_id":"4","last_reported":1723324123,"current_range_meters":4800,"station_id":"ce4bh2h2rcd13ifvqdh0","pricing_plan_id":"cebpf4jnsgd1na2vs0mg"},{"bike_id":"ab1f41af-0803-44e5-8700-3a662eb2888b","system_id":"levelo_inurba_marseille","lat":43.294171,"lon":5.386262,"is_reserved":false,"is_disabled":false,"rental_uris":{"android":"levelo://app?vid=ab1f41af-0803-44e5-8700-3a662eb2888b","ios":"levelo://app?vid=ab1f41af-0803-44e5-8700-3a662eb2888b"},"vehicle_type_id":"4","last_reported":1723324123,"current_range_meters":0,"station_id":"ce4bh2h2rcd13ifvqdh0","pricing_plan_id":"cebpf4jnsgd1na2vs0mg"},{"bike_id":"a82650da-1068-4ace-aa16-43944d054ba7","system_id":"levelo_inurba_marseille","lat":43.29413,"lon":5.38619,"is_reserved":false,"is_disabled":false,"rental_uris":{"android":"levelo://app?vid=a82650da-1068-4ace-aa16-43944d054ba7","ios":"levelo://app?vid=a82650da-1068-4ace-aa16-43944d054ba7"},"vehicle_type_id":"4","last_reported":1723324123,"current_range_meters":31200,"station_id":"ce4bh2h2rcd13ifvqdh0","pricing_plan_id":"cebpf4jnsgd1na2vs0mg"},{"bike_id":"a04bd3a2-fd1a-4283-8630-fcabf3bcdfa3","system_id":"levelo_inurba_marseille","lat":43.29417,"lon":5.38627,"is_reserved":false,"is_disabled":false,"rental_uris":{"android":"levelo://app?vid=a04bd3a2-fd1a-4283-8630-fcabf3bcdfa3","ios":"levelo://app?vid=a04bd3a2-fd1a-4283-8630-fcabf3bcdfa3"},"vehicle_type_id":"4","last_reported":1723324123,"current_range_meters":31200,"station_id":"ce4bh2h2rcd13ifvqdh0","pricing_plan_id":"cebpf4jnsgd1na2vs0mg"},{"bike_id":"3618cb30-1307-441f-b8f8-4e279ccbac4c","system_id":"levelo_inurba_marseille","lat":43.294162,"lon":5.386292,"is_reserved":false,"is_disabled":false,"rental_uris":{"android":"levelo://app?vid=3618cb30-1307-441f-b8f8-4e279ccbac4c","ios":"levelo://app?vid=3618cb30-1307-441f-b8f8-4e279ccbac4c"},"vehicle_type_id":"4","last_reported":1723324123,"current_range_meters":31600,"station_id":"ce4bh2h2rcd13ifvqdh0","pricing_plan_id":"cebpf4jnsgd1na2vs0mg"},{"bike_id":"ebeb33ab-16c3-4870-8f37-7408576deb98","system_id":"levelo_inurba_marseille","lat":43.294163,"lon":5.38627,"is_reserved":false,"is_disabled":false,"rental_uris":{"android":"levelo://app?vid=ebeb33ab-16c3-4870-8f37-7408576deb98","ios":"levelo://app?vid=ebeb33ab-16c3-4870-8f37-7408576deb98"},"vehicle_type_id":"4","last_reported":1723324123,"current_range_meters":800,"station_id":"ce4bh2h2rcd13ifvqdh0","pricing_plan_id":"cebpf4jnsgd1na2vs0mg"},{"bike_id":"26e2568d-d1de-4209-bbbb-1d353a588e59","system_id":"levelo_inurba_marseille","lat":43.294173,"lon":5.38629,"is_reserved":false,"is_disabled":false,"rental_uris":{"android":"levelo://app?vid=26e2568d-d1de-4209-bbbb-1d353a588e59","ios":"levelo://app?vid=26e2568d-d1de-4209-bbbb-1d353a588e59"},"vehicle_type_id":"4","last_reported":1723324123,"current_range_meters":31200,"station_id":"ce4bh2h2rcd13ifvqdh0","pricing_plan_id":"cebpf4jnsgd1na2vs0mg"},{"bike_id":"1e9bc708-2006-4aab-9428-276eb52e53d8","system_id":"levelo_inurba_marseille","lat":43.29416,"lon":5.38627,"is_reserved":false,"is_disabled":false,"rental_uris":{"android":"levelo://app?vid=1e9bc708-2006-4aab-9428-276eb52e53d8","ios":"levelo://app?vid=1e9bc708-2006-4aab-9428-276eb52e53d8"},"vehicle_type_id":"4","last_reported":1723324123,"current_range_meters":24000,"station_id":"ce4bh2h2rcd13ifvqdh0","pricing_plan_id":"cebpf4jnsgd1na2vs0mg"},{"bike_id":"dd88faf2-044b-4538-989b-77ea14df83d8","system_id":"levelo_inurba_marseille","lat":43.29417,"lon":5.38629,"is_reserved":false,"is_disabled":false,"rental_uris":{"android":"levelo://app?vid=dd88faf2-044b-4538-989b-77ea14df83d8","ios":"levelo://app?vid=dd88faf2-044b-4538-989b-77ea14df83d8"},"vehicle_type_id":"4","last_reported":1723324123,"current_range_meters":31200,"station_id":"ce4bh2h2rcd13ifvqdh0","pricing_plan_id":"cebpf4jnsgd1na2vs0mg"},{"bike_id":"9441cf63-7cfe-42e9-91eb-d0c78deab587","system_id":"levelo_inurba_marseille","lat":43.29417,"lon":5.3863,"is_reserved":false,"is_disabled":false,"rental_uris":{"android":"levelo://app?vid=9441cf63-7cfe-42e9-91eb-d0c78deab587","ios":"levelo://app?vid=9441cf63-7cfe-42e9-91eb-d0c78deab587"},"vehicle_type_id":"4","last_reported":1723324123,"current_range_meters":9600,"station_id":"ce4bh2h2rcd13ifvqdh0","pricing_plan_id":"cebpf4jnsgd1na2vs0mg"},{"bike_id":"a95c6aa1-f896-4df8-afb5-bf7a58a86146","system_id":"levelo_inurba_marseille","lat":43.29413,"lon":5.38626,"is_reserved":false,"is_disabled":false,"rental_uris":{"android":"levelo://app?vid=a95c6aa1-f896-4df8-afb5-bf7a58a86146","ios":"levelo://app?vid=a95c6aa1-f896-4df8-afb5-bf7a58a86146"},"vehicle_type_id":"4","last_reported":1723324123,"current_range_meters":24800,"station_id":"ce4bh2h2rcd13ifvqdh0","pricing_plan_id":"cebpf4jnsgd1na2vs0mg"},{"bike_id":"d9c07568-4a5c-4721-abf0-a280d1ed5138","system_id":"levelo_inurba_marseille","lat":43.29414,"lon":5.38629,"is_reserved":false,"is_disabled":false,"rental_uris":{"android":"levelo://app?vid=d9c07568-4a5c-4721-abf0-a280d1ed5138","ios":"levelo://app?vid=d9c07568-4a5c-4721-abf0-a280d1ed5138"},"vehicle_type_id":"4","last_reported":1723324123,"current_range_meters":31200,"station_id":"ce4bh2h2rcd13ifvqdh0","pricing_plan_id":"cebpf4jnsgd1na2vs0mg"},{"bike_id":"25caa885-6113-48b7-84d0-311226d80c8d","system_id":"levelo_inurba_marseille","lat":43.29415,"lon":5.38632,"is_reserved":false,"is_disabled":false,"rental_uris":{"android":"levelo://app?vid=25caa885-6113-48b7-84d0-311226d80c8d","ios":"levelo://app?vid=25caa885-6113-48b7-84d0-311226d80c8d"},"vehicle_type_id":"4","last_reported":1723324123,"current_range_meters":27600,"station_id":"ce4bh2h2rcd13ifvqdh0","pricing_plan_id":"cebpf4jnsgd1na2vs0mg"},{"bike_id":"dbf6bdf8-c65d-412d-ba0b-2d61b53445b6","system_id":"levelo_inurba_marseille","lat":43.29415,"lon":5.38632,"is_reserved":false,"is_disabled":false,"rental_uris":{"android":"levelo://app?vid=dbf6bdf8-c65d-412d-ba0b-2d61b53445b6","ios":"levelo://app?vid=dbf6bdf8-c65d-412d-ba0b-2d61b53445b6"},"vehicle_type_id":"4","last_reported":1723324123,"current_range_meters":12000,"station_id":"ce4bh2h2rcd13ifvqdh0","pricing_plan_id":"cebpf4jnsgd1na2vs0mg"},{"bike_id":"817b4545-09f6-41e9-a62d-4bfd38c921f1","system_id":"levelo_inurba_marseille","lat":43.29417,"lon":5.38637,"is_reserved":false,"is_disabled":false,"rental_uris":{"android":"levelo://app?vid=817b4545-09f6-41e9-a62d-4bfd38c921f1","ios":"levelo://app?vid=817b4545-09f6-41e9-a62d-4bfd38c921f1"},"vehicle_type_id":"4","last_reported":1723324123,"current_range_meters":3200,"station_id":"ce4bh2h2rcd13ifvqdh0","pricing_plan_id":"cebpf4jnsgd1na2vs0mg"},{"bike_id":"5fc82e47-f41f-42ec-b91b-5116bf99d017","system_id":"levelo_inurba_marseille","lat":43.294153,"lon":5.38635,"is_reserved":false,"is_disabled":false,"rental_uris":{"android":"levelo://app?vid=5fc82e47-f41f-42ec-b91b-5116bf99d017","ios":"levelo://app?vid=5fc82e47-f41f-42ec-b91b-5116bf99d017"},"vehicle_type_id":"4","last_reported":1723324123,"current_range_meters":0,"station_id":"ce4bh2h2rcd13ifvqdh0","pricing_plan_id":"cebpf4jnsgd1na2vs0mg"},{"bike_id":"d346bfcf-7676-4e97-bfcf-db273faf7ee5","system_id":"levelo_inurba_marseille","lat":43.294162,"lon":5.386292,"is_reserved":false,"is_disabled":false,"rental_uris":{"android":"levelo://app?vid=d346bfcf-7676-4e97-bfcf-db273faf7ee5","ios":"levelo://app?vid=d346bfcf-7676-4e97-bfcf-db273faf7ee5"},"vehicle_type_id":"4","last_reported":1723324123,"current_range_meters":31600,"station_id":"ce4bh2h2rcd13ifvqdh0","pricing_plan_id":"cebpf4jnsgd1na2vs0mg"},{"bike_id":"cece2f88-2820-410e-bf33-1c5176c12f71","system_id":"levelo_inurba_marseille","lat":43.29411,"lon":5.38635,"is_reserved":false,"is_disabled":false,"rental_uris":{"android":"levelo://app?vid=cece2f88-2820-410e-bf33-1c5176c12f71","ios":"levelo://app?vid=cece2f88-2820-410e-bf33-1c5176c12f71"},"vehicle_type_id":"4","last_reported":1723324123,"current_range_meters":12400,"station_id":"ce4bh2h2rcd13ifvqdh0","pricing_plan_id":"cebpf4jnsgd1na2vs0mg"},{"bike_id":"10ea9d6a-0c63-4c79-8f81-1104a4b392d9","system_id":"levelo_inurba_marseille","lat":43.28942,"lon":5.36399,"is_reserved":false,"is_disabled":false,"rental_uris":{"android":"levelo://app?vid=10ea9d6a-0c63-4c79-8f81-1104a4b392d9","ios":"levelo://app?vid=10ea9d6a-0c63-4c79-8f81-1104a4b392d9"},"vehicle_type_id":"4","last_reported":1723324123,"current_range_meters":0,"station_id":"ce4bhc92rcd13ifvqetg","pricing_plan_id":"cebpf4jnsgd1na2vs0mg"},{"bike_id":"3b81fdc1-db8e-46dd-bba9-e1cc044d2b83","system_id":"levelo_inurba_marseille","lat":43.289468,"lon":5.363719,"is_reserved":false,"is_disabled":false,"rental_uris":{"android":"levelo://app?vid=3b81fdc1-db8e-46dd-bba9-e1cc044d2b83","ios":"levelo://app?vid=3b81fdc1-db8e-46dd-bba9-e1cc044d2b83"},"vehicle_type_id":"4","last_reported":1723324123,"current_range_meters":13200,"station_id":"ce4bhc92rcd13ifvqetg","pricing_plan_id":"cebpf4jnsgd1na2vs0mg"},{"bike_id":"e638efaa-b60b-40c0-8403-bd105912109c","system_id":"levelo_inurba_marseille","lat":43.29273,"lon":5.3844,"is_reserved":false,"is_disabled":false,"rental_uris":{"android":"levelo://app?vid=e638efaa-b60b-40c0-8403-bd105912109c","ios":"levelo://app?vid=e638efaa-b60b-40c0-8403-bd105912109c"},"vehicle_type_id":"4","last_reported":1723324123,"current_range_meters":26800,"station_id":"ce4bh692rcd13ifvqea0","pricing_plan_id":"cebpf4jnsgd1na2vs0mg"},{"bike_id":"6c6c6406-df13-4c2d-9078-4610c60d4028","system_id":"levelo_inurba_marseille","lat":43.292644,"lon":5.384257,"is_reserved":false,"is_disabled":false,"rental_uris":{"android":"levelo://app?vid=6c6c6406-df13-4c2d-9078-4610c60d4028","ios":"levelo://app?vid=6c6c6406-df13-4c2d-9078-4610c60d4028"},"vehicle_type_id":"4","last_reported":1723324123,"current_range_meters":24400,"station_id":"ce4bh692rcd13ifvqea0","pricing_plan_id":"cebpf4jnsgd1na2vs0mg"},{"bike_id":"08f45ed0-42e1-4661-b001-e05589f69627","system_id":"levelo_inurba_marseille","lat":43.29267,"lon":5.38436,"is_reserved":false,"is_disabled":false,"rental_uris":{"android":"levelo://app?vid=08f45ed0-42e1-4661-b001-e05589f69627","ios":"levelo://app?vid=08f45ed0-42e1-4661-b001-e05589f69627"},"vehicle_type_id":"4","last_reported":1723324123,"current_range_meters":18400,"station_id":"ce4bh692rcd13ifvqea0","pricing_plan_id":"cebpf4jnsgd1na2vs0mg"},{"bike_id":"bc477b82-2592-4d68-9460-a09636e1bc30","system_id":"levelo_inurba_marseille","lat":43.292642,"lon":5.384254,"is_reserved":false,"is_disabled":false,"rental_uris":{"android":"levelo://app?vid=bc477b82-2592-4d68-9460-a09636e1bc30","ios":"levelo://app?vid=bc477b82-2592-4d68-9460-a09636e1bc30"},"vehicle_type_id":"4","last_reported":1723324123,"current_range_meters":10800,"station_id":"ce4bh692rcd13ifvqea0","pricing_plan_id":"cebpf4jnsgd1na2vs0mg"},