{"last_updated":1753179153,"ttl":60,"version":"2.2","data":{"bikes":[{"bike_id":"f18952d9-de72-4b00-ac50-ca46d1bc16b9","system_id":"levelo_inurba_marseille","lat":43.211936,"lon":5.35081,"is_reserved":false,"is_disabled":false,"rental_uris":{"android":"levelo://app?vid=f18952d9-de72-4b00-ac50-ca46d1bc16b9","ios":"levelo://app?vid=f18952d9-de72-4b00-ac50-ca46d1bc16b9"},"vehicle_type_id":"4","last_reported":1753179154,"current_range_meters":2800,"station_id":"st_cvj6sg6p6f1abm77japg","pricing_plan_id":"cebpf4jnsgd1na2vs0mg"},{"bike_id":"433415c1-acea-4306-b3ad-c55437db8988","system_id":"levelo_inurba_marseille","lat":43.29497,"lon":5.38174,"is_reserved":false,"is_disabled":false,"rental_uris":{"android":"levelo://app?vid=433415c1-acea-4306-b3ad-c55437db8988","ios":"levelo://app?vid=433415c1-acea-4306-b3ad-c55437db8988"},"vehicle_type_id":"4","last_reported":1753179154,"current_range_meters":3200,"station_id":"","pricing_plan_id":"cebpf4jnsgd1na2vs0mg"},{"bike_id":"a6de290b-5c15-427b-bc37-8301607e1735","system_id":"levelo_inurba_marseille","lat":43.337725,"lon":5.374294,"is_reserved":false,"is_disabled":false,"rental_uris":{"android":"levelo://app?vid=a6de290b-5c15-427b-bc37-8301607e1735","ios":"levelo://app?vid=a6de290b-5c15-427b-bc37-8301607e1735"},"vehicle_type_id":"4","last_reported":1753179154,"current_range_meters":3200,"station_id":"","pricing_plan_id":"cebpf4jnsgd1na2vs0mg"},{"bike_id":"8494bb32-deca-42fd-a119-1b67dfa50ec0","system_id":"levelo_inurba_marseille","lat":43.28679,"lon":5.38655,"is_reserved":false,"is_disabled":false,"rental_uris":{"android":"levelo://app?vid=8494bb32-deca-42fd-a119-1b67dfa50ec0","ios":"levelo://app?vid=8494bb32-deca-42fd-a119-1b67dfa50ec0"},"vehicle_type_id":"4","last_reported":1753179154,"current_range_meters":3200,"station_id":"ce4bh492rcd13ifvqdug","pricing_plan_id":"cebpf4jnsgd1na2vs0mg"},{"bike_id":"e1f46236-400b-4e4a-8d19-33304575b93c","system_id":"levelo_inurba_marseille","lat":43.22938,"lon":5.35374,"is_reserved":false,"is_disabled":false,"rental_uris":{"android":"levelo://app?vid=e1f46236-400b-4e4a-8d19-33304575b93c","ios":"levelo://app?vid=e1f46236-400b-4e4a-8d19-33304575b93c"},"vehicle_type_id":"4","last_reported":1753179154,"current_range_meters":3200,"station_id":"cpo3532slgdg3j2ikp40","pricing_plan_id":"cebpf4jnsgd1na2vs0mg"},{"bike_id":"7d43e5c6-e54a-4e2a-b0c8-9ee0ce162317","system_id":"levelo_inurba_marseille","lat":43.30328,"lon":5.40435,"is_reserved":false,"is_disabled":false,"rental_uris":{"android":"levelo://app?vid=7d43e5c6-e54a-4e2a-b0c8-9ee0ce162317","ios":"levelo://app?vid=7d43e5c6-e54a-4e2a-b0c8-9ee0ce162317"},"vehicle_type_id":"4","last_reported":1753179154,"current_range_meters":4400,"station_id":"ce4bh012rcd13ifvqd10","pricing_plan_id":"cebpf4jnsgd1na2vs0mg"},{"bike_id":"e8ce8dd1-b38e-43f0-bb3f-9d0dab4d78d2","system_id":"levelo_inurba_marseille","lat":43.29603,"lon":5.38099,"is_reserved":false,"is_disabled":false,"rental_uris":{"android":"levelo://app?vid=e8ce8dd1-b38e-43f0-bb3f-9d0dab4d78d2","ios":"levelo://app?vid=e8ce8dd1-b38e-43f0-bb3f-9d0dab4d78d2"},"vehicle_type_id":"4","last_reported":1753179154,"current_range_meters":4400,"station_id":"ce4bgl12rcd13ifvqbo0","pricing_plan_id":"cebpf4jnsgd1na2vs0mg"},{"bike_id":"4827c3ac-24f5-4b49-9306-7aab3dc266a1","system_id":"levelo_inurba_marseille","lat":43.30641,"lon":5.40102,"is_reserved":false,"is_disabled":false,"rental_uris":{"android":"levelo://app?vid=4827c3ac-24f5-4b49-9306-7aab3dc266a1","ios":"levelo://app?vid=4827c3ac-24f5-4b49-9306-7aab3dc266a1"},"vehicle_type_id":"4","last_reported":1753179154,"current_range_meters":4000,"station_id":"ce4bh112rcd13ifvqda0","pricing_plan_id":"cebpf4jnsgd1na2vs0mg"},{"bike_id":"ba5cb0e5-9f50-4396-bc70-452876ef54d2","system_id":"levelo_inurba_marseille","lat":43.2621,"lon":5.3744,"is_reserved":false,"is_disabled":false,"rental_uris":{"android":"levelo://app?vid=ba5cb0e5-9f50-4396-bc70-452876ef54d2","ios":"levelo://app?vid=ba5cb0e5-9f50-4396-bc70-452876ef54d2"},"vehicle_type_id":"4","last_reported":1753179154,"current_range_meters":5600,"station_id":"ce4bhgp2rcd13ifvqfc0","pricing_plan_id":"cebpf4jnsgd1na2vs0mg"},{"bike_id":"40a8f93b-bb72-4ebe-adbd-6e13622724e0","system_id":"levelo_inurba_marseille","lat":43.292761,"lon":5.368437,"is_reserved":false,"is_disabled":false,"rental_uris":{"android":"levelo://app?vid=40a8f93b-bb72-4ebe-adbd-6e13622724e0","ios":"levelo://app?vid=40a8f93b-bb72-4ebe-adbd-6e13622724e0"},"vehicle_type_id":"4","last_reported":1753179154,"current_range_meters":6800,"station_id":"ce4bhbp2rcd13ifvqesg","pricing_plan_id":"cebpf4jnsgd1na2vs0mg"},{"bike_id":"8cac8672-6209-4b19-bca2-e64fa9998d3d","system_id":"levelo_inurba_marseille","lat":43.27803,"lon":5.35505,"is_reserved":false,"is_disabled":false,"rental_uris":{"android":"levelo://app?vid=8cac8672-6209-4b19-bca2-e64fa9998d3d","ios":"levelo://app?vid=8cac8672-6209-4b19-bca2-e64fa9998d3d"},"vehicle_type_id":"4","last_reported":1753179154,"current_range_meters":7200,"station_id":"","pricing_plan_id":"cebpf4jnsgd1na2vs0mg"},{"bike_id":"2fd64fe7-20bd-4e76-980e-eecd3a55b83c","system_id":"levelo_inurba_marseille","lat":43.29192,"lon":5.35809,"is_reserved":false,"is_disabled":false,"rental_uris":{"android":"levelo://app?vid=2fd64fe7-20bd-4e76-980e-eecd3a55b83c","ios":"levelo://app?vid=2fd64fe7-20bd-4e76-980e-eecd3a55b83c"},"vehicle_type_id":"4","last_reported":1753179154,"current_range_meters":8000,"station_id":"ce4bhb12rcd13ifvqel0","pricing_plan_id":"cebpf4jnsgd1na2vs0mg"},{"bike_id":"d43f1b0c-0918-4475-ae09-84d0d0414a63","system_id":"levelo_inurba_marseille","lat":43.31369,"lon":5.38497,"is_reserved":false,"is_disabled":false,"rental_uris":{"android":"levelo://app?vid=d43f1b0c-0918-4475-ae09-84d0d0414a63","ios":"levelo://app?vid=d43f1b0c-0918-4475-ae09-84d0d0414a63"},"vehicle_type_id":"4","last_reported":1753179154,"current_range_meters":8000,"station_id":"ce4bgt92rcd13ifvqcf0","pricing_plan_id":"cebpf4jnsgd1na2vs0mg"},{"bike_id":"5055dc7d-5db2-448f-80b0-5cf84b130fec","system_id":"levelo_inurba_marseille","lat":43.25491,"lon":5.37646,"is_reserved":false,"is_disabled":false,"rental_uris":{"android":"levelo://app?vid=5055dc7d-5db2-448f-80b0-5cf84b130fec","ios":"levelo://app?vid=5055dc7d-5db2-448f-80b0-5cf84b130fec"},"vehicle_type_id":"4","last_reported":1753179154,"current_range_meters":8400,"station_id":"ce4bhh12rcd13ifvqff0","pricing_plan_id":"cebpf4jnsgd1na2vs0mg"},{"bike_id":"44be4a2f-b012-43e4-ad0e-4da3c7f705fe","system_id":"levelo_inurba_marseille","lat":43.31234,"lon":5.36871,"is_reserved":false,"is_disabled":false,"rental_uris":{"android":"levelo://app?vid=44be4a2f-b012-43e4-ad0e-4da3c7f705fe","ios":"levelo://app?vid=44be4a2f-b012-43e4-ad0e-4da3c7f705fe"},"vehicle_type_id":"4","last_reported":1753179154,"current_range_meters":8400,"station_id":"ce4bgl92rcd13ifvqbq0","pricing_plan_id":"cebpf4jnsgd1na2vs0mg"},{"bike_id":"88fec725-e2b6-4366-be2b-4c89051d5756","system_id":"levelo_inurba_marseille","lat":43.3125,"lon":5.36857,"is_reserved":false,"is_disabled":false,"rental_uris":{"android":"levelo://app?vid=88fec725-e2b6-4366-be2b-4c89051d5756","ios":"levelo://app?vid=88fec725-e2b6-4366-be2b-4c89051d5756"},"vehicle_type_id":"4","last_reported":1753179154,"current_range_meters":8800,"station_id":"ce4bgl92rcd13ifvqbq0","pricing_plan_id":"cebpf4jnsgd1na2vs0mg"},{"bike_id":"59e6f825-9668-4d59-9baf-f47ddb742e11","system_id":"levelo_inurba_marseille","lat":43.31358,"lon":5.38491,"is_reserved":false,"is_disabled":false,"rental_uris":{"android":"levelo://app?vid=59e6f825-9668-4d59-9baf-f47ddb742e11","ios":"levelo://app?vid=59e6f825-9668-4d59-9baf-f47ddb742e11"},"vehicle_type_id":"4","last_reported":1753179154,"current_range_meters":8800,"station_id":"ce4bgt92rcd13ifvqcf0","pricing_plan_id":"cebpf4jnsgd1na2vs0mg"},{"bike_id":"72a49f3e-d8e6-4483-bcf5-e3b6e75f469f","system_id":"levelo_inurba_marseille","lat":43.31211,"lon":5.36871,"is_reserved":false,"is_disabled":true,"rental_uris":{"android":"levelo://app?vid=72a49f3e-d8e6-4483-bcf5-e3b6e75f469f","ios":"levelo://app?vid=72a49f3e-d8e6-4483-bcf5-e3b6e75f469f"},"vehicle_type_id":"4","last_reported":1753179154,"current_range_meters":8800,"station_id":"ce4bgl92rcd13ifvqbq0","pricing_plan_id":"cebpf4jnsgd1na2vs0mg"},{"bike_id":"f84890bc-754a-41f9-a196-bbed78f3433f","system_id":"levelo_inurba_marseille","lat":43.28612,"lon":5.35105,"is_reserved":false,"is_disabled":false,"rental_uris":{"android":"levelo://app?vid=f84890bc-754a-41f9-a196-bbed78f3433f","ios":"levelo://app?vid=f84890bc-754a-41f9-a196-bbed78f3433f"},"vehicle_type_id":"4","last_reported":1753179154,"current_range_meters":9200,"station_id":"ce4bhch2rcd13ifvqeug","pricing_plan_id":"cebpf4jnsgd1na2vs0mg"},{"bike_id":"695bee27-0090-437f-9f4d-42a99d0aa637","system_id":"levelo_inurba_marseille","lat":43.24069,"lon":5.37775,"is_reserved":false,"is_disabled":false,"rental_uris":{"android":"levelo://app?vid=695bee27-0090-437f-9f4d-42a99d0aa637","ios":"levelo://app?vid=695bee27-0090-437f-9f4d-42a99d0aa637"},"vehicle_type_id":"4","last_reported":1753179154,"current_range_meters":9600,"station_id":"ce4bhnp2rcd13ifvqgvg","pricing_plan_id":"cebpf4jnsgd1na2vs0mg"},{"bike_id":"ac49738a-4d4f-43d3-9c67-46980e61ae95","system_id":"levelo_inurba_marseille","lat":43.31702,"lon":5.37677,"is_reserved":false,"is_disabled":false,"rental_uris":{"android":"levelo://app?vid=ac49738a-4d4f-43d3-9c67-46980e61ae95","ios":"levelo://app?vid=ac49738a-4d4f-43d3-9c67-46980e61ae95"},"vehicle_type_id":"4","last_reported":1753179154,"current_range_meters":9600,"station_id":"ce4bgth2rcd13ifvqch0","pricing_plan_id":"cebpf4jnsgd1na2vs0mg"},{"bike_id":"328e472f-5ae1-4ad9-833e-8bfd84d0df0a","system_id":"levelo_inurba_marseille","lat":43.279908,"lon":5.39947,"is_reserved":false,"is_disabled":false,"rental_uris":{"android":"levelo://app?vid=328e472f-5ae1-4ad9-833e-8bfd84d0df0a","ios":"levelo://app?vid=328e472f-5ae1-4ad9-833e-8bfd84d0df0a"},"vehicle_type_id":"4","last_reported":1753179154,"current_range_meters":10000,"station_id":"ce4bho92rcd13ifvqh4g","pricing_plan_id":"cebpf4jnsgd1na2vs0mg"},{"bike_id":"3117258b-a0b2-4038-960e-7505313a6719","system_id":"levelo_inurba_marseille","lat":43.321109,"lon":5.367794,"is_reserved":false,"is_disabled":false,"rental_uris":{"android":"levelo://app?vid=3117258b-a0b2-4038-960e-7505313a6719","ios":"levelo://app?vid=3117258b-a0b2-4038-960e-7505313a6719"},"vehicle_type_id":"4","last_reported":1753179154,"current_range_meters":10000,"station_id":"ce4bhrh2rcd13ifvqhug","pricing_plan_id":"cebpf4jnsgd1na2vs0mg"},{"bike_id":"d485f597-db0c-4d03-a6b7-f0eec45f33b2","system_id":"levelo_inurba_marseille","lat":43.29267,"lon":5.36845,"is_reserved":false,"is_disabled":false,"rental_uris":{"android":"levelo://app?vid=d485f597-db0c-4d03-a6b7-f0eec45f33b2","ios":"levelo://app?vid=d485f597-db0c-4d03-a6b7-f0eec45f33b2"},"vehicle_type_id":"4","last_reported":1753179154,"current_range_meters":10000,"station_id":"ce4bhbp2rcd13ifvqesg","pricing_plan_id":"cebpf4jnsgd1na2vs0mg"},{"bike_id":"e301f9a0-beba-449a-a05b-e2d0a6a3e801","system_id":"levelo_inurba_marseille","lat":43.270486,"lon":5.402499,"is_reserved":false,"is_disabled":false,"rental_uris":{"android":"levelo://app?vid=e301f9a0-beba-449a-a05b-e2d0a6a3e801","ios":"levelo://app?vid=e301f9a0-beba-449a-a05b-e2d0a6a3e801"},"vehicle_type_id":"4","last_reported":1753179154,"current_range_meters":10000,"station_id":"ce4bhk92rcd13ifvqgc0","pricing_plan_id":"cebpf4jnsgd1na2vs0mg"},{"bike_id":"1acd4a96-372c-4f1e-bcaf-9ab1ad9efb02","system_id":"levelo_inurba_marseille","lat":43.23082,"lon":5.35461,"is_reserved":false,"is_disabled":false,"rental_uris":{"android":"levelo://app?vid=1acd4a96-372c-4f1e-bcaf-9ab1ad9efb02","ios":"levelo://app?vid=1acd4a96-372c-4f1e-bcaf-9ab1ad9efb02"},"vehicle_type_id":"4","last_reported":1753179154,"current_range_meters":10800,"station_id":"cpo3342slgdg3j2ifvpg","pricing_plan_id":"cebpf4jnsgd1na2vs0mg"},{"bike_id":"de4c0587-fe8d-4d40-84e8-4dac5dbef233","system_id":"levelo_inurba_marseille","lat":43.26943,"lon":5.40248,"is_reserved":false,"is_disabled":false,"rental_uris":{"android":"levelo://app?vid=de4c0587-fe8d-4d40-84e8-4dac5dbef233","ios":"levelo://app?vid=de4c0587-fe8d-4d40-84e8-4dac5dbef233"},"vehicle_type_id":"4","last_reported":1753179154,"current_range_meters":10000,"station_id":"cjm6bp8fraef2m0cb0m0","pricing_plan_id":"cebpf4jnsgd1na2vs0mg"},{"bike_id":"21427e62-22bf-47dd-9b4b-c2510b72cf88","system_id":"levelo_inurba_marseille","lat":43.313446,"lon":5.367134,"is_reserved":false,"is_disabled":false,"rental_uris":{"android":"levelo://app?vid=21427e62-22bf-47dd-9b4b-c2510b72cf88","ios":"levelo://app?vid=21427e62-22bf-47dd-9b4b-c2510b72cf88"},"vehicle_type_id":"4","last_reported":1753179154,"current_range_meters":10800,"station_id":"","pricing_plan_id":"cebpf4jnsgd1na2vs0mg"},{"bike_id":"1c22819b-ef69-41c3-af80-068c7a58af48","system_id":"levelo_inurba_marseille","lat":43.321056,"lon":5.367842,"is_reserved":false,"is_disabled":false,"rental_uris":{"android":"levelo://app?vid=1c22819b-ef69-41c3-af80-068c7a58af48","ios":"levelo://app?vid=1c22819b-ef69-41c3-af80-068c7a58af48"},"vehicle_type_id":"4","last_reported":1753179154,"current_range_meters":10800,"station_id":"ce4bhrh2rcd13ifvqhug","pricing_plan_id":"cebpf4jnsgd1na2vs0mg"},{"bike_id":"91d08a97-f4ec-47ae-aba7-eb40d08db0f5","system_id":"levelo_inurba_marseille","lat":43.212,"lon":5.35079,"is_reserved":false,"is_disabled":false,"rental_uris":{"android":"levelo://app?vid=91d08a97-f4ec-47ae-aba7-eb40d08db0f5","ios":"levelo://app?vid=91d08a97-f4ec-47ae-aba7-eb40d08db0f5"},"vehicle_type_id":"4","last_reported":1753179154,"current_range_meters":11200,"station_id":"st_cvj6sg6p6f1abm77japg","pricing_plan_id":"cebpf4jnsgd1na2vs0mg"},{"bike_id":"5313526a-16df-44d5-a01d-18a44f4bc80f","system_id":"levelo_inurba_marseille","lat":43.29273,"lon":5.36841,"is_reserved":false,"is_disabled":false,"rental_uris":{"android":"levelo://app?vid=5313526a-16df-44d5-a01d-18a44f4bc80f","ios":"levelo://app?vid=5313526a-16df-44d5-a01d-18a44f4bc80f"},"vehicle_type_id":"4","last_reported":1753179154,"current_range_meters":11200,"station_id":"ce4bhbp2rcd13ifvqesg","pricing_plan_id":"cebpf4jnsgd1na2vs0mg"},{"bike_id":"6ecd5a2b-6dae-44b3-a162-e5286af43d43","system_id":"levelo_inurba_marseille","lat":43.225013,"lon":5.347906,"is_reserved":false,"is_disabled":false,"rental_uris":{"android":"levelo://app?vid=6ecd5a2b-6dae-44b3-a162-e5286af43d43","ios":"levelo://app?vid=6ecd5a2b-6dae-44b3-a162-e5286af43d43"},"vehicle_type_id":"4","last_reported":1753179154,"current_range_meters":11200,"station_id":"st_cvj5dfep6f1abm77gieg","pricing_plan_id":"cebpf4jnsgd1na2vs0mg"},{"bike_id":"a2559ce4-aa90-4467-91f0-d1b2f7dbc0a4","system_id":"levelo_inurba_marseille","lat":43.303081,"lon":5.4009,"is_reserved":false,"is_disabled":true,"rental_uris":{"android":"levelo://app?vid=a2559ce4-aa90-4467-91f0-d1b2f7dbc0a4","ios":"levelo://app?vid=a2559ce4-aa90-4467-91f0-d1b2f7dbc0a4"},"vehicle_type_id":"4","last_reported":1753179154,"current_range_meters":11600,"station_id":"ce4bh112rcd13ifvqda0","pricing_plan_id":"cebpf4jnsgd1na2vs0mg"},{"bike_id":"ba2b3a99-8668-4f5d-bab3-0079c47bd454","system_id":"levelo_inurba_marseille","lat":43.32557,"lon":5.41476,"is_reserved":false,"is_disabled":false,"rental_uris":{"android":"levelo://app?vid=ba2b3a99-8668-4f5d-bab3-0079c47bd454","ios":"levelo://app?vid=ba2b3a99-8668-4f5d-bab3-0079c47bd454"},"vehicle_type_id":"4","last_reported":1753179154,"current_range_meters":12000,"station_id":"ce4bhq12rcd13ifvqhhg","pricing_plan_id":"cebpf4jnsgd1na2vs0mg"},{"bike_id":"8423e589-47bf-47a8-b90f-452fc938c46b","system_id":"levelo_inurba_marseille","lat":43.32365,"lon":5.36794,"is_reserved":false,"is_disabled":false,"rental_uris":{"android":"levelo://app?vid=8423e589-47bf-47a8-b90f-452fc938c46b","ios":"levelo://app?vid=8423e589-47bf-47a8-b90f-452fc938c46b"},"vehicle_type_id":"4","last_reported":1753179154,"current_range_meters":12000,"station_id":"ce4bhsh2rcd13ifvqi2g","pricing_plan_id":"cebpf4jnsgd1na2vs0mg"},{"bike_id":"fb0bd549-e8fc-4767-99bd-b67f7f9a54d0","system_id":"levelo_inurba_marseille","lat":43.312384,"lon":5.368695,"is_reserved":false,"is_disabled":false,"rental_uris":{"android":"levelo://app?vid=fb0bd549-e8fc-4767-99bd-b67f7f9a54d0","ios":"levelo://app?vid=fb0bd549-e8fc-4767-99bd-b67f7f9a54d0"},"vehicle_type_id":"4","last_reported":1753179154,"current_range_meters":12000,"station_id":"ce4bgl92rcd13ifvqbq0","pricing_plan_id":"cebpf4jnsgd1na2vs0mg"},{"bike_id":"e483114c-d1c2-4253-8064-1a327e320a43","system_id":"levelo_inurba_marseille","lat":43.29981,"lon":5.37173,"is_reserved":false,"is_disabled":false,"rental_uris":{"android":"levelo://app?vid=e483114c-d1c2-4253-8064-1a327e320a43","ios":"levelo://app?vid=e483114c-d1c2-4253-8064-1a327e320a43"},"vehicle_type_id":"4","last_reported":1753179154,"current_range_meters":12400,"station_id":"ce4bgr92rcd13ifvqc7g","pricing_plan_id":"cebpf4jnsgd1na2vs0mg"},{"bike_id":"fecfaf8a-63d2-446e-b3d9-5317ba22c059","system_id":"levelo_inurba_marseille","lat":43.2847,"lon":5.3855,"is_reserved":false,"is_disabled":false,"rental_uris":{"android":"levelo://app?vid=fecfaf8a-63d2-446e-b3d9-5317ba22c059","ios":"levelo://app?vid=fecfaf8a-63d2-446e-b3d9-5317ba22c059"},"vehicle_type_id":"4","last_reported":1753179154,"current_range_meters":12400,"station_id":"ce4bh8p2rcd13ifvqeb0","pricing_plan_id":"cebpf4jnsgd1na2vs0mg"},{"bike_id":"b62c52b2-2598-4d60-b21c-78470ede2285","system_id":"levelo_inurba_marseille","lat":43.30557,"lon":5.36538,"is_reserved":false,"is_disabled":false,"rental_uris":{"android":"levelo://app?vid=b62c52b2-2598-4d60-b21c-78470ede2285","ios":"levelo://app?vid=b62c52b2-2598-4d60-b21c-78470ede2285"},"vehicle_type_id":"4","last_reported":1753179154,"current_range_meters":12400,"station_id":"ce4bgs12rcd13ifvqcag","pricing_plan_id":"cebpf4jnsgd1na2vs0mg"},{"bike_id":"1eef45c2-ccdc-4d31-8643-6312bbf498a1","system_id":"levelo_inurba_marseille","lat":43.33048,"lon":5.37826,"is_reserved":false,"is_disabled":true,"rental_uris":{"android":"levelo://app?vid=1eef45c2-ccdc-4d31-8643-6312bbf498a1","ios":"levelo://app?vid=1eef45c2-ccdc-4d31-8643-6312bbf498a1"},"vehicle_type_id":"4","last_reported":1753179154,"current_range_meters":12400,"station_id":"","pricing_plan_id":"cebpf4jnsgd1na2vs0mg"},{"bike_id":"634013d6-f119-4c3a-89a6-0c8bdbe06ee5","system_id":"levelo_inurba_marseille","lat":43.30426,"lon":5.39749,"is_reserved":false,"is_disabled":false,"rental_uris":{"android":"levelo://app?vid=634013d6-f119-4c3a-89a6-0c8bdbe06ee5","ios":"levelo://app?vid=634013d6-f119-4c3a-89a6-0c8bdbe06ee5"},"vehicle_type_id":"4","last_reported":1753179154,"current_range_meters":12400,"station_id":"ce4bh092rcd13ifvqd20","pricing_plan_id":"cebpf4jnsgd1na2vs0mg"},{"bike_id":"7fbebc5a-1015-4a14-a6cc-20c312269ed4","system_id":"levelo_inurba_marseille","lat":43.28421,"lon":5.34988,"is_reserved":false,"is_disabled":false,"rental_uris":{"android":"levelo://app?vid=7fbebc5a-1015-4a14-a6cc-20c312269ed4","ios":"levelo://app?vid=7fbebc5a-1015-4a14-a6cc-20c312269ed4"},"vehicle_type_id":"4","last_reported":1753179154,"current_range_meters":12800,"station_id":"ce4bhbh2rcd13ifvqepg","pricing_plan_id":"cebpf4jnsgd1na2vs0mg"},{"bike_id":"2d6095ea-f882-494d-a187-fa879408181e","system_id":"levelo_inurba_marseille","lat":43.25153,"lon":5.37304,"is_reserved":false,"is_disabled":false,"rental_uris":{"android":"levelo://app?vid=2d6095ea-f882-494d-a187-fa879408181e","ios":"levelo://app?vid=2d6095ea-f882-494d-a187-fa879408181e"},"vehicle_type_id":"4","last_reported":1753179154,"current_range_meters":12800,"station_id":"","pricing_plan_id":"cebpf4jnsgd1na2vs0mg"},{"bike_id":"1a00fa42-f0d2-4bb8-84a5-9a9523cf1d7b","system_id":"levelo_inurba_marseille","lat":43.30188,"lon":5.36637,"is_reserved":false,"is_disabled":false,"rental_uris":{"android":"levelo://app?vid=1a00fa42-f0d2-4bb8-84a5-9a9523cf1d7b","ios":"levelo://app?vid=1a00fa42-f0d2-4bb8-84a5-9a9523cf1d7b"},"vehicle_type_id":"4","last_reported":1753179154,"current_range_meters":13600,"station_id":"ce4bgrh2rcd13ifvqc8g","pricing_plan_id":"cebpf4jnsgd1na2vs0mg"},{"bike_id":"6940e707-2866-429c-af31-7f2bd9c2bc86","system_id":"levelo_inurba_marseille","lat":43.24163,"lon":5.36421,"is_reserved":false,"is_disabled":false,"rental_uris":{"android":"levelo://app?vid=6940e707-2866-429c-af31-7f2bd9c2bc86","ios":"levelo://app?vid=6940e707-2866-429c-af31-7f2bd9c2bc86"},"vehicle_type_id":"4","last_reported":1753179154,"current_range_meters":13600,"station_id":"cpo36qri1sfpv3e86is0","pricing_plan_id":"cebpf4jnsgd1na2vs0mg"},{"bike_id":"8a99c27e-1248-4e59-b1f4-15b56f313a6c","system_id":"levelo_inurba_marseille","lat":43.26223,"lon":5.374972,"is_reserved":false,"is_disabled":false,"rental_uris":{"android":"levelo://app?vid=8a99c27e-1248-4e59-b1f4-15b56f313a6c","ios":"levelo://app?vid=8a99c27e-1248-4e59-b1f4-15b56f313a6c"},"vehicle_type_id":"4","last_reported":1753179154,"current_range_meters":13600,"station_id":"ce4bhgp2rcd13ifvqfc0","pricing_plan_id":"cebpf4jnsgd1na2vs0mg"},{"bike_id":"06f0e7b5-15a0-4c85-a421-381e139dc51e","system_id":"levelo_inurba_marseille","lat":43.29917,"lon":5.4367,"is_reserved":false,"is_disabled":false,"rental_uris":{"android":"levelo://app?vid=06f0e7b5-15a0-4c85-a421-381e139dc51e","ios":"levelo://app?vid=06f0e7b5-15a0-4c85-a421-381e139dc51e"},"vehicle_type_id":"4","last_reported":1753179154,"current_range_meters":14000,"station_id":"ce4bhpp2rcd13ifvqhfg","pricing_plan_id":"cebpf4jnsgd1na2vs0mg"},{"bike_id":"4d2fb385-600a-460f-817d-c81c8838ad28","system_id":"levelo_inurba_marseille","lat":43.32372,"lon":5.36753,"is_reserved":false,"is_disabled":false,"rental_uris":{"android":"levelo://app?vid=4d2fb385-600a-460f-817d-c81c8838ad28","ios":"levelo://app?vid=4d2fb385-600a-460f-817d-c81c8838ad28"},"vehicle_type_id":"4","last_reported":1753179154,"current_range_meters":14000,"station_id":"ce4bhsh2rcd13ifvqi2g","pricing_plan_id":"cebpf4jnsgd1na2vs0mg"},{"bike_id":"cb36d06a-87d4-4130-8799-cb61c31cb026","system_id":"levelo_inurba_marseille","lat":43.26194,"lon":5.37446,"is_reserved":false,"is_disabled":false,"rental_uris":{"android":"levelo://app?vid=cb36d06a-87d4-4130-8799-cb61c31cb026","ios":"levelo://app?vid=cb36d06a-87d4-4130-8799-cb61c31cb026"},"vehicle_type_id":"4","last_reported":1753179154,"current_range_meters":14000,"station_id":"ce4bhgp2rcd13ifvqfc0","pricing_plan_id":"cebpf4jnsgd1na2vs0mg"},{"bike_id":"0cb19f5e-6a19-4fc0-9b18-698188d68bf4","system_id":"levelo_inurba_marseille","lat":43.29726,"lon":5.43265,"is_reserved":false,"is_disabled":false,"rental_uris":{"android":"levelo://app?vid=0cb19f5e-6a19-4fc0-9b18-698188d68bf4","ios":"levelo://app?vid=0cb19f5e-6a19-4fc0-9b18-698188d68bf4"},"vehicle_type_id":"4","last_reported":1753179154,"current_range_meters":14000,"station_id":"","pricing_plan_id":"cebpf4jnsgd1na2vs0mg"},{"bike_id":"13db0b13-22ee-419a-9b6c-f8b34890fb46","system_id":"levelo_inurba_marseille","lat":43.30153,"lon":5.38097,"is_reserved":false,"is_disabled":false,"rental_uris":{"android":"levelo://app?vid=13db0b13-22ee-419a-9b6c-f8b34890fb46","ios":"levelo://app?vid=13db0b13-22ee-419a-9b6c-f8b34890fb46"},"vehicle_type_id":"4","last_reported":1753179154,"current_range_meters":14000,"station_id":"ce4bgjp2rcd13ifvqbh0","pricing_plan_id":"cebpf4jnsgd1na2vs0mg"},{"bike_id":"418dda29-32a9-4edb-9427-1bc2dc60c1c0","system_id":"levelo_inurba_marseille","lat":43.24629,"lon":5.43738,"is_reserved":false,"is_disabled":true,"rental_uris":{"android":"levelo://app?vid=418dda29-32a9-4edb-9427-1bc2dc60c1c0","ios":"levelo://app?vid=418dda29-32a9-4edb-9427-1bc2dc60c1c0"},"vehicle_type_id":"4","last_reported":1753179154,"current_range_meters":14000,"station_id":"","pricing_plan_id":"cebpf4jnsgd1na2vs0mg"},{"bike_id":"f4647d5e-9ea2-4f15-a604-84b1bbed6272","system_id":"levelo_inurba_marseille","lat":43.29922,"lon":5.43685,"is_reserved":false,"is_disabled":false,"rental_uris":{"android":"levelo://app?vid=f4647d5e-9ea2-4f15-a604-84b1bbed6272","ios":"levelo://app?vid=f4647d5e-9ea2-4f15-a604-84b1bbed6272"},"vehicle_type_id":"4","last_reported":1753179154,"current_range_meters":14400,"station_id":"","pricing_plan_id":"cebpf4jnsgd1na2vs0mg"},{"bike_id":"ab1970ef-89b5-409e-b573-cb2943b42e78","system_id":"levelo_inurba_marseille","lat":43.28485,"lon":5.38536,"is_reserved":false,"is_disabled":false,"rental_uris":{"android":"levelo://app?vid=ab1970ef-89b5-409e-b573-cb2943b42e78","ios":"levelo://app?vid=ab1970ef-89b5-409e-b573-cb2943b42e78"},"vehicle_type_id":"4","last_reported":1753179154,"current_range_meters":14400,"station_id":"","pricing_plan_id":"cebpf4jnsgd1na2vs0mg"},{"bike_id":"a521607d-1c0a-4b41-a0f1-43c2608320f8","system_id":"levelo_inurba_marseille","lat":43.28201,"lon":5.39456,"is_reserved":false,"is_disabled":false,"rental_uris":{"android":"levelo://app?vid=a521607d-1c0a-4b41-a0f1-43c2608320f8","ios":"levelo://app?vid=a521607d-1c0a-4b41-a0f1-43c2608320f8"},"vehicle_type_id":"4","last_reported":1753179154,"current_range_meters":14400,"station_id":"","pricing_plan_id":"cebpf4jnsgd1na2vs0mg"},{"bike_id":"94cd5dff-e6f8-423f-a340-9d6b8a3e701b","system_id":"levelo_inurba_marseille","lat":43.25937,"lon":5.409,"is_reserved":false,"is_disabled":false,"rental_uris":{"android":"levelo://app?vid=94cd5dff-e6f8-423f-a340-9d6b8a3e701b","ios":"levelo://app?vid=94cd5dff-e6f8-423f-a340-9d6b8a3e701b"},"vehicle_type_id":"4","last_reported":1753179154,"current_range_meters":14400,"station_id":"ce4bhm92rcd13ifvqglg","pricing_plan_id":"cebpf4jnsgd1na2vs0mg"},{"bike_id":"9c367911-3a34-4b92-9b72-c7816f28d393","system_id":"levelo_inurba_marseille","lat":43.29791,"lon":5.38103,"is_reserved":false,"is_disabled":false,"rental_uris":{"android":"levelo://app?vid=9c367911-3a34-4b92-9b72-c7816f28d393","ios":"levelo://app?vid=9c367911-3a34-4b92-9b72-c7816f28d393"},"vehicle_type_id":"4","last_reported":1753179154,"current_range_meters":14400,"station_id":"ce4bgip2rcd13ifvqbb0","pricing_plan_id":"cebpf4jnsgd1na2vs0mg"},{"bike_id":"99d829c3-58cd-4dfe-a587-5d0fe4447522","system_id":"levelo_inurba_marseille","lat":43.3266,"lon":5.4099,"is_reserved":false,"is_disabled":false,"rental_uris":{"android":"levelo://app?vid=99d829c3-58cd-4dfe-a587-5d0fe4447522","ios":"levelo://app?vid=99d829c3-58cd-4dfe-a587-5d0fe4447522"},"vehicle_type_id":"4","last_reported":1753179154,"current_range_meters":14400,"station_id":"ce4bhpp2rcd13ifvqhgg","pricing_plan_id":"cebpf4jnsgd1na2vs0mg"},{"bike_id":"117247f7-a4c7-432a-86ee-400fecf425dc","system_id":"levelo_inurba_marseille","lat":43.303745,"lon":5.424825,"is_reserved":false,"is_disabled":false,"rental_uris":{"android":"levelo://app?vid=117247f7-a4c7-432a-86ee-400fecf425dc","ios":"levelo://app?vid=117247f7-a4c7-432a-86ee-400fecf425dc"},"vehicle_type_id":"4","last_reported":1753179154,"current_range_meters":15200,"station_id":"ce4bhoh2rcd13ifvqh6g","pricing_plan_id":"cebpf4jnsgd1na2vs0mg"},{"bike_id":"e0e16dbe-230d-4103-a8f5-adf8189611a7","system_id":"levelo_inurba_marseille","lat":43.326575,"lon":5.409934,"is_reserved":false,"is_disabled":false,"rental_uris":{"android":"levelo://app?vid=e0e16dbe-230d-4103-a8f5-adf8189611a7","ios":"levelo://app?vid=e0e16dbe-230d-4103-a8f5-adf8189611a7"},"vehicle_type_id":"4","last_reported":1753179154,"current_range_meters":15200,"station_id":"ce4bhpp2rcd13ifvqhgg","pricing_plan_id":"cebpf4jnsgd1na2vs0mg"},{"bike_id":"416ae426-400a-43b5-b8b1-e2fceb9acf44","system_id":"levelo_inurba_marseille","lat":43.305264,"lon":5.367035,"is_reserved":false,"is_disabled":false,"rental_uris":{"android":"levelo://app?vid=416ae426-400a-43b5-b8b1-e2fceb9acf44","ios":"levelo://app?vid=416ae426-400a-43b5-b8b1-e2fceb9acf44"},"vehicle_type_id":"4","last_reported":1753179154,"current_range_meters":15200,"station_id":"","pricing_plan_id":"cebpf4jnsgd1na2vs0mg"},{"bike_id":"f63f1008-77c6-4072-95a4-ddba055831ce","system_id":"levelo_inurba_marseille","lat":43.29309,"lon":5.37469,"is_reserved":false,"is_disabled":false,"rental_uris":{"android":"levelo://app?vid=f63f1008-77c6-4072-95a4-ddba055831ce","ios":"levelo://app?vid=f63f1008-77c6-4072-95a4-ddba055831ce"},"vehicle_type_id":"4","last_reported":1753179154,"current_range_meters":16000,"station_id":"ce4bgi12rcd13ifvqb70","pricing_plan_id":"cebpf4jnsgd1na2vs0mg"},{"bike_id":"5757d1c1-1a47-4bc1-b4ad-f12008d76d15","system_id":"levelo_inurba_marseille","lat":43.31236,"lon":5.36859,"is_reserved":false,"is_disabled":false,"rental_uris":{"android":"levelo://app?vid=5757d1c1-1a47-4bc1-b4ad-f12008d76d15","ios":"levelo://app?vid=5757d1c1-1a47-4bc1-b4ad-f12008d76d15"},"vehicle_type_id":"4","last_reported":1753179154,"current_range_meters":16000,"station_id":"ce4bgl92rcd13ifvqbq0","pricing_plan_id":"cebpf4jnsgd1na2vs0mg"},{"bike_id":"e9b8c87e-db14-4020-aea2-466c8dbe1c1e","system_id":"levelo_inurba_marseille","lat":43.305465,"lon":5.365426,"is_reserved":false,"is_disabled":false,"rental_uris":{"android":"levelo://app?vid=e9b8c87e-db14-4020-aea2-466c8dbe1c1e","ios":"levelo://app?vid=e9b8c87e-db14-4020-aea2-466c8dbe1c1e"},"vehicle_type_id":"4","last_reported":1753179154,"current_range_meters":16000,"station_id":"ce4bgs12rcd13ifvqcag","pricing_plan_id":"cebpf4jnsgd1na2vs0mg"},{"bike_id":"de4e98c3-82ca-4c88-9379-c8eb99022426","system_id":"levelo_inurba_marseille","lat":43.22917,"lon":5.35409,"is_reserved":false,"is_disabled":false,"rental_uris":{"android":"levelo://app?vid=de4e98c3-82ca-4c88-9379-c8eb99022426","ios":"levelo://app?vid=de4e98c3-82ca-4c88-9379-c8eb99022426"},"vehicle_type_id":"4","last_reported":1753179154,"current_range_meters":16000,"station_id":"cpo3532slgdg3j2ikp40","pricing_plan_id":"cebpf4jnsgd1na2vs0mg"},{"bike_id":"0252eab3-c3f3-4486-b893-58cb3f957c57","system_id":"levelo_inurba_marseille","lat":43.31722,"lon":5.38446,"is_reserved":false,"is_disabled":false,"rental_uris":{"android":"levelo://app?vid=0252eab3-c3f3-4486-b893-58cb3f957c57","ios":"levelo://app?vid=0252eab3-c3f3-4486-b893-58cb3f957c57"},"vehicle_type_id":"4","last_reported":1753179154,"current_range_meters":16000,"station_id":"","pricing_plan_id":"cebpf4jnsgd1na2vs0mg"},{"bike_id":"b4c1aa2a-e931-4ce6-8816-30ad77bdd520","system_id":"levelo_inurba_marseille","lat":43.241448,"lon":5.363743,"is_reserved":false,"is_disabled":false,"rental_uris":{"android":"levelo://app?vid=b4c1aa2a-e931-4ce6-8816-30ad77bdd520","ios":"levelo://app?vid=b4c1aa2a-e931-4ce6-8816-30ad77bdd520"},"vehicle_type_id":"4","last_reported":1753179154,"current_range_meters":16000,"station_id":"","pricing_plan_id":"cebpf4jnsgd1na2vs0mg"},{"bike_id":"7227f2a0-48ac-47a6-aa2d-661ad6a7a763","system_id":"levelo_inurba_marseille","lat":43.29058,"lon":5.3717,"is_reserved":false,"is_disabled":false,"rental_uris":{"android":"levelo://app?vid=7227f2a0-48ac-47a6-aa2d-661ad6a7a763","ios":"levelo://app?vid=7227f2a0-48ac-47a6-aa2d-661ad6a7a763"},"vehicle_type_id":"4","last_reported":1753179154,"current_range_meters":16000,"station_id":"ce4bgh92rcd13ifvqb40","pricing_plan_id":"cebpf4jnsgd1na2vs0mg"},{"bike_id":"abc5489a-f823-4dc4-b736-76f0b8370bbd","system_id":"levelo_inurba_marseille","lat":43.2418,"lon":5.36437,"is_reserved":false,"is_disabled":false,"rental_uris":{"android":"levelo://app?vid=abc5489a-f823-4dc4-b736-76f0b8370bbd","ios":"levelo://app?vid=abc5489a-f823-4dc4-b736-76f0b8370bbd"},"vehicle_type_id":"4","last_reported":1753179154,"current_range_meters":16000,"station_id":"cpo36qri1sfpv3e86is0","pricing_plan_id":"cebpf4jnsgd1na2vs0mg"},{"bike_id":"668bfa40-7ae0-42dd-a6b6-6631a40f0c0f","system_id":"levelo_inurba_marseille","lat":43.331398,"lon":5.385964,"is_reserved":false,"is_disabled":false,"rental_uris":{"android":"levelo://app?vid=668bfa40-7ae0-42dd-a6b6-6631a40f0c0f","ios":"levelo://app?vid=668bfa40-7ae0-42dd-a6b6-6631a40f0c0f"},"vehicle_type_id":"4","last_reported":1753179154,"current_range_meters":16000,"station_id":"","pricing_plan_id":"cebpf4jnsgd1na2vs0mg"},{"bike_id":"c5445fa5-9221-4e5d-b2bc-b87ec0aac921","system_id":"levelo_inurba_marseille","lat":43.22935,"lon":5.35386,"is_reserved":false,"is_disabled":false,"rental_uris":{"android":"levelo://app?vid=c5445fa5-9221-4e5d-b2bc-b87ec0aac921","ios":"levelo://app?vid=c5445fa5-9221-4e5d-b2bc-b87ec0aac921"},"vehicle_type_id":"4","last_reported":1753179154,"current_range_meters":16000,"station_id":"cpo3532slgdg3j2ikp40","pricing_plan_id":"cebpf4jnsgd1na2vs0mg"},{"bike_id":"b52df7e2-ad75-4d6b-a395-f1eb700f2fd1","system_id":"levelo_inurba_marseille","lat":43.24173,"lon":5.36413,"is_reserved":false,"is_disabled":false,"rental_uris":{"android":"levelo://app?vid=b52df7e2-ad75-4d6b-a395-f1eb700f2fd1","ios":"levelo://app?vid=b52df7e2-ad75-4d6b-a395-f1eb700f2fd1"},"vehicle_type_id":"4","last_reported":1753179154,"current_range_meters":16000,"station_id":"cpo36qri1sfpv3e86is0","pricing_plan_id":"cebpf4jnsgd1na2vs0mg"},{"bike_id":"2c59fb44-8b37-440a-bec1-4e746d1d2da6","system_id":"levelo_inurba_marseille","lat":43.2582,"lon":5.39438,"is_reserved":false,"is_disabled":false,"rental_uris":{"android":"levelo://app?vid=2c59fb44-8b37-440a-bec1-4e746d1d2da6","ios":"levelo://app?vid=2c59fb44-8b37-440a-bec1-4e746d1d2da6"},"vehicle_type_id":"4","last_reported":1753179154,"current_range_meters":16000,"station_id":"ce4bhip2rcd13ifvqft0","pricing_plan_id":"cebpf4jnsgd1na2vs0mg"},{"bike_id":"7755cac1-a73f-4ba2-b8d2-5f999eb5e06f","system_id":"levelo_inurba_marseille","lat":43.24082,"lon":5.37751,"is_reserved":false,"is_disabled":false,"rental_uris":{"android":"levelo://app?vid=7755cac1-a73f-4ba2-b8d2-5f999eb5e06f","ios":"levelo://app?vid=7755cac1-a73f-4ba2-b8d2-5f999eb5e06f"},"vehicle_type_id":"4","last_reported":1753179154,"current_range_meters":16000,"station_id":"ce4bhnp2rcd13ifvqgvg","pricing_plan_id":"cebpf4jnsgd1na2vs0mg"},{"bike_id":"2c63e874-b1a9-4c67-b628-c51dba7b1b5d","system_id":"levelo_inurba_marseille","lat":43.3055,"lon":5.36699,"is_reserved":false,"is_disabled":false,"rental_uris":{"android":"levelo://app?vid=2c63e874-b1a9-4c67-b628-c51dba7b1b5d","ios":"levelo://app?vid=2c63e874-b1a9-4c67-b628-c51dba7b1b5d"},"vehicle_type_id":"4","last_reported":1753179154,"current_range_meters":16400,"station_id":"ce4bgrp2rcd13ifvqc9g","pricing_plan_id":"cebpf4jnsgd1na2vs0mg"},{"bike_id":"68ad25bf-3ce4-4219-aae6-b4b4ca3df214","system_id":"levelo_inurba_marseille","lat":43.22504,"lon":5.3477,"is_reserved":false,"is_disabled":false,"rental_uris":{"android":"levelo://app?vid=68ad25bf-3ce4-4219-aae6-b4b4ca3df214","ios":"levelo://app?vid=68ad25bf-3ce4-4219-aae6-b4b4ca3df214"},"vehicle_type_id":"4","last_reported":1753179154,"current_range_meters":16400,"station_id":"st_cvj5dfep6f1abm77gieg","pricing_plan_id":"cebpf4jnsgd1na2vs0mg"},{"bike_id":"2e5ed9f2-4fe8-47eb-91fc-0f6f8088016a","system_id":"levelo_inurba_marseille","lat":43.25014,"lon":5.38912,"is_reserved":false,"is_disabled":false,"rental_uris":{"android":"levelo://app?vid=2e5ed9f2-4fe8-47eb-91fc-0f6f8088016a","ios":"levelo://app?vid=2e5ed9f2-4fe8-47eb-91fc-0f6f8088016a"},"vehicle_type_id":"4","last_reported":1753179154,"current_range_meters":16400,"station_id":"ce4bhgp2rcd13ifvqfd0","pricing_plan_id":"cebpf4jnsgd1na2vs0mg"},{"bike_id":"02bda465-5730-4d42-a0d1-5ffc89217a3f","system_id":"levelo_inurba_marseille","lat":43.30658,"lon":5.38184,"is_reserved":false,"is_disabled":false,"rental_uris":{"android":"levelo://app?vid=02bda465-5730-4d42-a0d1-5ffc89217a3f","ios":"levelo://app?vid=02bda465-5730-4d42-a0d1-5ffc89217a3f"},"vehicle_type_id":"4","last_reported":1753179154,"current_range_meters":16400,"station_id":"","pricing_plan_id":"cebpf4jnsgd1na2vs0mg"},{"bike_id":"54106a54-0a9c-43c5-9fa6-decf82823146","system_id":"levelo_inurba_marseille","lat":43.29099,"lon":5.3812,"is_reserved":false,"is_disabled":false,"rental_uris":{"android":"levelo://app?vid=54106a54-0a9c-43c5-9fa6-decf82823146","ios":"levelo://app?vid=54106a54-0a9c-43c5-9fa6-decf82823146"},"vehicle_type_id":"4","last_reported":1753179154,"current_range_meters":16400,"station_id":"ce4bh512rcd13ifvqe2g","pricing_plan_id":"cebpf4jnsgd1na2vs0mg"},{"bike_id":"50975a3d-315e-466e-a8e1-4de66829cb75","system_id":"levelo_inurba_marseille","lat":43.32483,"lon":5.36555,"is_reserved":false,"is_disabled":false,"rental_uris":{"android":"levelo://app?vid=50975a3d-315e-466e-a8e1-4de66829cb75","ios":"levelo://app?vid=50975a3d-315e-466e-a8e1-4de66829cb75"},"vehicle_type_id":"4","last_reported":1753179154,"current_range_meters":16400,"station_id":"ce4bhs12rcd13ifvqhvg","pricing_plan_id":"cebpf4jnsgd1na2vs0mg"},{"bike_id":"6270388c-e1bf-41b4-83eb-3d2f1008ca14","system_id":"levelo_inurba_marseille","lat":43.327638,"lon":5.377426,"is_reserved":false,"is_disabled":false,"rental_uris":{"android":"levelo://app?vid=6270388c-e1bf-41b4-83eb-3d2f1008ca14","ios":"levelo://app?vid=6270388c-e1bf-41b4-83eb-3d2f1008ca14"},"vehicle_type_id":"4","last_reported":1753179154,"current_range_meters":16400,"station_id":"","pricing_plan_id":"cebpf4jnsgd1na2vs0mg"},{"bike_id":"64a2f514-4942-458d-b3fc-7d7fd0dfd1b1","system_id":"levelo_inurba_marseille","lat":43.21196,"lon":5.35076,"is_reserved":false,"is_disabled":false,"rental_uris":{"android":"levelo://app?vid=64a2f514-4942-458d-b3fc-7d7fd0dfd1b1","ios":"levelo://app?vid=64a2f514-4942-458d-b3fc-7d7fd0dfd1b1"},"vehicle_type_id":"4","last_reported":1753179154,"current_range_meters":16400,"station_id":"st_cvj6sg6p6f1abm77japg","pricing_plan_id":"cebpf4jnsgd1na2vs0mg"},{"bike_id":"79326a13-cde9-4cb8-becd-ff105cdb3360","system_id":"levelo_inurba_marseille","lat":43.24665,"lon":5.38174,"is_reserved":false,"is_disabled":false,"rental_uris":{"android":"levelo://app?vid=79326a13-cde9-4cb8-becd-ff105cdb3360","ios":"levelo://app?vid=79326a13-cde9-4cb8-becd-ff105cdb3360"},"vehicle_type_id":"4","last_reported":1753179154,"current_range_meters":16800,"station_id":"ce4bhih2rcd13ifvqfr0","pricing_plan_id":"cebpf4jnsgd1na2vs0mg"},{"bike_id":"065ecae4-408e-4701-ae91-75b20387bde6","system_id":"levelo_inurba_marseille","lat":43.25023,"lon":5.38903,"is_reserved":false,"is_disabled":false,"rental_uris":{"android":"levelo://app?vid=065ecae4-408e-4701-ae91-75b20387bde6","ios":"levelo://app?vid=065ecae4-408e-4701-ae91-75b20387bde6"},"vehicle_type_id":"4","last_reported":1753179154,"current_range_meters":16800,"station_id":"ce4bhgp2rcd13ifvqfd0","pricing_plan_id":"cebpf4jnsgd1na2vs0mg"},{"bike_id":"f5767321-03ff-4c6c-8a78-ad57e022e0a0","system_id":"levelo_inurba_marseille","lat":43.29033,"lon":5.38142,"is_reserved":false,"is_disabled":false,"rental_uris":{"android":"levelo://app?vid=f5767321-03ff-4c6c-8a78-ad57e022e0a0","ios":"levelo://app?vid=f5767321-03ff-4c6c-8a78-ad57e022e0a0"},"vehicle_type_id":"4","last_reported":1753179154,"current_range_meters":16800,"station_id":"ce4bh4p2rcd13ifvqe1g","pricing_plan_id":"cebpf4jnsgd1na2vs0mg"},{"bike_id":"5153e984-1abc-4d5b-91ef-21249865a3e6","system_id":"levelo_inurba_marseille","lat":43.21199,"lon":5.35065,"is_reserved":false,"is_disabled":false,"rental_uris":{"android":"levelo://app?vid=5153e984-1abc-4d5b-91ef-21249865a3e6","ios":"levelo://app?vid=5153e984-1abc-4d5b-91ef-21249865a3e6"},"vehicle_type_id":"4","last_reported":1753179154,"current_range_meters":16800,"station_id":"st_cvj6sg6p6f1abm77japg","pricing_plan_id":"cebpf4jnsgd1na2vs0mg"},{"bike_id":"4034af88-45bc-41c2-927f-06184589ab26","system_id":"levelo_inurba_marseille","lat":43.25942,"lon":5.40921,"is_reserved":false,"is_disabled":false,"rental_uris":{"android":"levelo://app?vid=4034af88-45bc-41c2-927f-06184589ab26","ios":"levelo://app?vid=4034af88-45bc-41c2-927f-06184589ab26"},"vehicle_type_id":"4","last_reported":1753179154,"current_range_meters":16800,"station_id":"ce4bhm92rcd13ifvqglg","pricing_plan_id":"cebpf4jnsgd1na2vs0mg"},{"bike_id":"3c7f072f-3158-420f-bc51-68912fc0c6a8","system_id":"levelo_inurba_marseille","lat":43.290243,"lon":5.375529,"is_reserved":false,"is_disabled":true,"rental_uris":{"android":"levelo://app?vid=3c7f072f-3158-420f-bc51-68912fc0c6a8","ios":"levelo://app?vid=3c7f072f-3158-420f-bc51-68912fc0c6a8"},"vehicle_type_id":"4","last_reported":1753179154,"current_range_meters":16800,"station_id":"ce4bh692rcd13ifvqe90","pricing_plan_id":"cebpf4jnsgd1na2vs0mg"},{"bike_id":"de5426ba-ae67-47a4-bece-c11c7065cd1e","system_id":"levelo_inurba_marseille","lat":43.21214,"lon":5.35074,"is_reserved":false,"is_disabled":false,"rental_uris":{"android":"levelo://app?vid=de5426ba-ae67-47a4-bece-c11c7065cd1e","ios":"levelo://app?vid=de5426ba-ae67-47a4-bece-c11c7065cd1e"},"vehicle_type_id":"4","last_reported":1753179154,"current_range_meters":16800,"station_id":"st_cvj6sg6p6f1abm77japg","pricing_plan_id":"cebpf4jnsgd1na2vs0mg"},{"bike_id":"c7197ba9-6455-4072-b2a3-777ce26a88c8","system_id":"levelo_inurba_marseille","lat":43.27413,"lon":5.39416,"is_reserved":false,"is_disabled":false,"rental_uris":{"android":"levelo://app?vid=c7197ba9-6455-4072-b2a3-777ce26a88c8","ios":"levelo://app?vid=c7197ba9-6455-4072-b2a3-777ce26a88c8"},"vehicle_type_id":"4","last_reported":1753179154,"current_range_meters":16800,"station_id":"ce4bhgp2rcd13ifvqfe0","pricing_plan_id":"cebpf4jnsgd1na2vs0mg"},{"bike_id":"fd678af6-c39f-4009-9cd4-36a5e361e94e","system_id":"levelo_inurba_marseille","lat":43.29179,"lon":5.35811,"is_reserved":false,"is_disabled":false,"rental_uris":{"android":"levelo://app?vid=fd678af6-c39f-4009-9cd4-36a5e361e94e","ios":"levelo://app?vid=fd678af6-c39f-4009-9cd4-36a5e361e94e"},"vehicle_type_id":"4","last_reported":1753179154,"current_range_meters":16800,"station_id":"ce4bhb12rcd13ifvqel0","pricing_plan_id":"cebpf4jnsgd1na2vs0mg"},{"bike_id":"080acd18-9baa-4736-beb6-5e98e18d315c","system_id":"levelo_inurba_marseille","lat":43.24071,"lon":5.37788,"is_reserved":false,"is_disabled":false,"rental_uris":{"android":"levelo://app?vid=080acd18-9baa-4736-beb6-5e98e18d315c","ios":"levelo://app?vid=080acd18-9baa-4736-beb6-5e98e18d315c"},"vehicle_type_id":"4","last_reported":1753179154,"current_range_meters":16800,"station_id":"ce4bhnp2rcd13ifvqgvg","pricing_plan_id":"cebpf4jnsgd1na2vs0mg"},{"bike_id":"38cbbc2f-2178-4d0e-8130-6cf5abd60741","system_id":"levelo_inurba_marseille","lat":43.26031,"lon":5.37565,"is_reserved":false,"is_disabled":false,"rental_uris":{"android":"levelo://app?vid=38cbbc2f-2178-4d0e-8130-6cf5abd60741","ios":"levelo://app?vid=38cbbc2f-2178-4d0e-8130-6cf5abd60741"},"vehicle_type_id":"4","last_reported":1753179154,"current_range_meters":17200,"station_id":"ce4bhgh2rcd13ifvqfa0","pricing_plan_id":"cebpf4jnsgd1na2vs0mg"},{"bike_id":"dda96cde-9f78-4371-a72f-1d24145c396a","system_id":"levelo_inurba_marseille","lat":43.21189,"lon":5.35078,"is_reserved":false,"is_disabled":false,"rental_uris":{"android":"levelo://app?vid=dda96cde-9f78-4371-a72f-1d24145c396a","ios":"levelo://app?vid=dda96cde-9f78-4371-a72f-1d24145c396a"},"vehicle_type_id":"4","last_reported":1753179154,"current_range_meters":17200,"station_id":"st_cvj6sg6p6f1abm77japg","pricing_plan_id":"cebpf4jnsgd1na2vs0mg"},{"bike_id":"4b209779-1337-48e1-8017-72986ee6ccac","system_id":"levelo_inurba_marseille","lat":43.24184,"lon":5.36367,"is_reserved":false,"is_disabled":false,"rental_uris":{"android":"levelo://app?vid=4b209779-1337-48e1-8017-72986ee6ccac","ios":"levelo://app?vid=4b209779-1337-48e1-8017-72986ee6ccac"},"vehicle_type_id":"4","last_reported":1753179154,"current_range_meters":17200,"station_id":"cpo36qri1sfpv3e86is0","pricing_plan_id":"cebpf4jnsgd1na2vs0mg"},{"bike_id":"dab13bb5-fd3b-4ee9-a69b-af793299687d","system_id":"levelo_inurba_marseille","lat":43.31463,"lon":5.36757,"is_reserved":false,"is_disabled":false,"rental_uris":{"android":"levelo://app?vid=dab13bb5-fd3b-4ee9-a69b-af793299687d","ios":"levelo://app?vid=dab13bb5-fd3b-4ee9-a69b-af793299687d"},"vehicle_type_id":"4","last_reported":1753179154,"current_range_meters":17200,"station_id":"","pricing_plan_id":"cebpf4jnsgd1na2vs0mg"},{"bike_id":"0738f9d2-c52c-46dd-abef-2a1d358f9ae0","system_id":"levelo_inurba_marseille","lat":43.302743,"lon":5.400745,"is_reserved":false,"is_disabled":false,"rental_uris":{"android":"levelo://app?vid=0738f9d2-c52c-46dd-abef-2a1d358f9ae0","ios":"levelo://app?vid=0738f9d2-c52c-46dd-abef-2a1d358f9ae0"},"vehicle_type_id":"4","last_reported":1753179154,"current_range_meters":24000,"station_id":"ce4bgvh2rcd13ifvqcs0","pricing_plan_id":"cebpf4jnsgd1na2vs0mg"},{"bike_id":"ac4e9fda-4086-43d7-9dc4-afe6942bea08","system_id":"levelo_inurba_marseille","lat":43.23055,"lon":5.355,"is_reserved":false,"is_disabled":false,"rental_uris":{"android":"levelo://app?vid=ac4e9fda-4086-43d7-9dc4-afe6942bea08","ios":"levelo://app?vid=ac4e9fda-4086-43d7-9dc4-afe6942bea08"},"vehicle_type_id":"4","last_reported":1753179154,"current_range_meters":17200,"station_id":"cpo3342slgdg3j2ifvpg","pricing_plan_id":"cebpf4jnsgd1na2vs0mg"},{"bike_id":"7a3e8286-d23a-436c-a229-6ffa0c627ba2","system_id":"levelo_inurba_marseille","lat":43.21205,"lon":5.35088,"is_reserved":false,"is_disabled":false,"rental_uris":{"android":"levelo://app?vid=7a3e8286-d23a-436c-a229-6ffa0c627ba2","ios":"levelo://app?vid=7a3e8286-d23a-436c-a229-6ffa0c627ba2"},"vehicle_type_id":"4","last_reported":1753179154,"current_range_meters":17200,"station_id":"st_cvj6sg6p6f1abm77japg","pricing_plan_id":"cebpf4jnsgd1na2vs0mg"},{"bike_id":"df8880aa-6830-48b6-a55c-9b535ddb2ece","system_id":"levelo_inurba_marseille","lat":43.30549,"lon":5.3671,"is_reserved":false,"is_disabled":false,"rental_uris":{"android":"levelo://app?vid=df8880aa-6830-48b6-a55c-9b535ddb2ece","ios":"levelo://app?vid=df8880aa-6830-48b6-a55c-9b535ddb2ece"},"vehicle_type_id":"4","last_reported":1753179154,"current_range_meters":17200,"station_id":"ce4bgrp2rcd13ifvqc9g","pricing_plan_id":"cebpf4jnsgd1na2vs0mg"},{"bike_id":"0c18c21b-8232-4709-94a5-191396b3881b","system_id":"levelo_inurba_marseille","lat":43.27501,"lon":5.42459,"is_reserved":false,"is_disabled":false,"rental_uris":{"android":"levelo://app?vid=0c18c21b-8232-4709-94a5-191396b3881b","ios":"levelo://app?vid=0c18c21b-8232-4709-94a5-191396b3881b"},"vehicle_type_id":"4","last_reported":1753179154,"current_range_meters":17200,"station_id":"ce4bhn92rcd13ifvqgrg","pricing_plan_id":"cebpf4jnsgd1na2vs0mg"},{"bike_id":"1669fb7c-9f0b-4bec-966d-0be5eb50803a","system_id":"levelo_inurba_marseille","lat":43.30643,"lon":5.40094,"is_reserved":false,"is_disabled":false,"rental_uris":{"android":"levelo://app?vid=1669fb7c-9f0b-4bec-966d-0be5eb50803a","ios":"levelo://app?vid=1669fb7c-9f0b-4bec-966d-0be5eb50803a"},"vehicle_type_id":"4","last_reported":1753179154,"current_range_meters":17200,"station_id":"ce4bh112rcd13ifvqda0","pricing_plan_id":"cebpf4jnsgd1na2vs0mg"},{"bike_id":"e730d36a-13f0-49bb-86fb-4a20da2e6767","system_id":"levelo_inurba_marseille","lat":43.241615,"lon":5.364073,"is_reserved":false,"is_disabled":false,"rental_uris":{"android":"levelo://app?vid=e730d36a-13f0-49bb-86fb-4a20da2e6767","ios":"levelo://app?vid=e730d36a-13f0-49bb-86fb-4a20da2e6767"},"vehicle_type_id":"4","last_reported":1753179154,"current_range_meters":17600,"station_id":"cpo36qri1sfpv3e86is0","pricing_plan_id":"cebpf4jnsgd1na2vs0mg"},{"bike_id":"09ce1f37-5b07-45c4-a76c-7ba0d0176051","system_id":"levelo_inurba_marseille","lat":43.32366,"lon":5.36776,"is_reserved":false,"is_disabled":false,"rental_uris":{"android":"levelo://app?vid=09ce1f37-5b07-45c4-a76c-7ba0d0176051","ios":"levelo://app?vid=09ce1f37-5b07-45c4-a76c-7ba0d0176051"},"vehicle_type_id":"4","last_reported":1753179154,"current_range_meters":17600,"station_id":"ce4bhsh2rcd13ifvqi2g","pricing_plan_id":"cebpf4jnsgd1na2vs0mg"},{"bike_id":"90c57fb5-de46-4bd9-9c03-5e2ce4e1b560","system_id":"levelo_inurba_marseille","lat":43.292155,"lon":5.380029,"is_reserved":false,"is_disabled":false,"rental_uris":{"android":"levelo://app?vid=90c57fb5-de46-4bd9-9c03-5e2ce4e1b560","ios":"levelo://app?vid=90c57fb5-de46-4bd9-9c03-5e2ce4e1b560"},"vehicle_type_id":"4","last_reported":1753179154,"current_range_meters":17600,"station_id":"ce4bh512rcd13ifvqe2g","pricing_plan_id":"cebpf4jnsgd1na2vs0mg"},{"bike_id":"85747136-66f7-4d2d-9f2a-e140b1a97f37","system_id":"levelo_inurba_marseille","lat":43.254944,"lon":5.376454,"is_reserved":false,"is_disabled":false,"rental_uris":{"android":"levelo://app?vid=85747136-66f7-4d2d-9f2a-e140b1a97f37","ios":"levelo://app?vid=85747136-66f7-4d2d-9f2a-e140b1a97f37"},"vehicle_type_id":"4","last_reported":1753179154,"current_range_meters":17600,"station_id":"ce4bhh12rcd13ifvqff0","pricing_plan_id":"cebpf4jnsgd1na2vs0mg"},{"bike_id":"43e2c1ba-be3c-448f-9ad6-21df8a2b4eb4","system_id":"levelo_inurba_marseille","lat":43.31348,"lon":5.36734,"is_reserved":false,"is_disabled":false,"rental_uris":{"android":"levelo://app?vid=43e2c1ba-be3c-448f-9ad6-21df8a2b4eb4","ios":"levelo://app?vid=43e2c1ba-be3c-448f-9ad6-21df8a2b4eb4"},"vehicle_type_id":"4","last_reported":1753179154,"current_range_meters":17600,"station_id":"ce4bgr92rcd13ifvqc6g","pricing_plan_id":"cebpf4jnsgd1na2vs0mg"},{"bike_id":"3876af6e-a868-4aa6-afbb-deb3bffdb10a","system_id":"levelo_inurba_marseille","lat":43.22941,"lon":5.35364,"is_reserved":false,"is_disabled":false,"rental_uris":{"android":"levelo://app?vid=3876af6e-a868-4aa6-afbb-deb3bffdb10a","ios":"levelo://app?vid=3876af6e-a868-4aa6-afbb-deb3bffdb10a"},"vehicle_type_id":"4","last_reported":1753179154,"current_range_meters":18000,"station_id":"cpo3532slgdg3j2ikp40","pricing_plan_id":"cebpf4jnsgd1na2vs0mg"},{"bike_id":"81fba013-909e-4f1c-8dc3-8911f0a1441d","system_id":"levelo_inurba_marseille","lat":43.28391,"lon":5.35006,"is_reserved":false,"is_disabled":true,"rental_uris":{"android":"levelo://app?vid=81fba013-909e-4f1c-8dc3-8911f0a1441d","ios":"levelo://app?vid=81fba013-909e-4f1c-8dc3-8911f0a1441d"},"vehicle_type_id":"4","last_reported":1753179154,"current_range_meters":18000,"station_id":"ce4bhbh2rcd13ifvqepg","pricing_plan_id":"cebpf4jnsgd1na2vs0mg"},{"bike_id":"9a484d5d-9a75-4a28-b29d-75e371b4bc63","system_id":"levelo_inurba_marseille","lat":43.30526,"lon":5.36719,"is_reserved":false,"is_disabled":false,"rental_uris":{"android":"levelo://app?vid=9a484d5d-9a75-4a28-b29d-75e371b4bc63","ios":"levelo://app?vid=9a484d5d-9a75-4a28-b29d-75e371b4bc63"},"vehicle_type_id":"4","last_reported":1753179154,"current_range_meters":18000,"station_id":"ce4bgrp2rcd13ifvqc9g","pricing_plan_id":"cebpf4jnsgd1na2vs0mg"},{"bike_id":"637884bb-9846-4799-a992-2713ef1b78cd","system_id":"levelo_inurba_marseille","lat":43.29586,"lon":5.36727,"is_reserved":false,"is_disabled":false,"rental_uris":{"android":"levelo://app?vid=637884bb-9846-4799-a992-2713ef1b78cd","ios":"levelo://app?vid=637884bb-9846-4799-a992-2713ef1b78cd"},"vehicle_type_id":"4","last_reported":1753179154,"current_range_meters":18000,"station_id":"ce4bgph2rcd13ifvqc2g","pricing_plan_id":"cebpf4jnsgd1na2vs0mg"},{"bike_id":"04bb8e0c-b1ab-47fd-8929-da5088119fe8","system_id":"levelo_inurba_marseille","lat":43.26571,"lon":5.372879,"is_reserved":false,"is_disabled":false,"rental_uris":{"android":"levelo://app?vid=04bb8e0c-b1ab-47fd-8929-da5088119fe8","ios":"levelo://app?vid=04bb8e0c-b1ab-47fd-8929-da5088119fe8"},"vehicle_type_id":"4","last_reported":1753179154,"current_range_meters":18000,"station_id":"","pricing_plan_id":"cebpf4jnsgd1na2vs0mg"},{"bike_id":"9cd06355-63ab-47e1-934e-5b4c5c63c9e6","system_id":"levelo_inurba_marseille","lat":43.27208,"lon":5.39192,"is_reserved":false,"is_disabled":false,"rental_uris":{"android":"levelo://app?vid=9cd06355-63ab-47e1-934e-5b4c5c63c9e6","ios":"levelo://app?vid=9cd06355-63ab-47e1-934e-5b4c5c63c9e6"},"vehicle_type_id":"4","last_reported":1753179154,"current_range_meters":18000,"station_id":"ce4bhhp2rcd13ifvqfm0","pricing_plan_id":"cebpf4jnsgd1na2vs0mg"},{"bike_id":"d22f048d-1a2a-462a-ba7c-6ff7d5208baa","system_id":"levelo_inurba_marseille","lat":43.29776,"lon":5.39338,"is_reserved":false,"is_disabled":false,"rental_uris":{"android":"levelo://app?vid=d22f048d-1a2a-462a-ba7c-6ff7d5208baa","ios":"levelo://app?vid=d22f048d-1a2a-462a-ba7c-6ff7d5208baa"},"vehicle_type_id":"4","last_reported":1753179154,"current_range_meters":18000,"station_id":"chh1huq6cuj3fo74tm60","pricing_plan_id":"cebpf4jnsgd1na2vs0mg"},{"bike_id":"0be4e3e6-36c2-4d58-8a95-24712bebb5a8","system_id":"levelo_inurba_marseille","lat":43.24392,"lon":5.37058,"is_reserved":false,"is_disabled":false,"rental_uris":{"android":"levelo://app?vid=0be4e3e6-36c2-4d58-8a95-24712bebb5a8","ios":"levelo://app?vid=0be4e3e6-36c2-4d58-8a95-24712bebb5a8"},"vehicle_type_id":"4","last_reported":1753179154,"current_range_meters":18000,"station_id":"ce4bhhh2rcd13ifvqfk0","pricing_plan_id":"cebpf4jnsgd1na2vs0mg"},{"bike_id":"e6ea20ee-51b5-48d4-8586-e5d7b0441963","system_id":"levelo_inurba_marseille","lat":43.283483,"lon":5.381,"is_reserved":false,"is_disabled":false,"rental_uris":{"android":"levelo://app?vid=e6ea20ee-51b5-48d4-8586-e5d7b0441963","ios":"levelo://app?vid=e6ea20ee-51b5-48d4-8586-e5d7b0441963"},"vehicle_type_id":"4","last_reported":1753179154,"current_range_meters":18000,"station_id":"ce4bh412rcd13ifvqdr0","pricing_plan_id":"cebpf4jnsgd1na2vs0mg"},{"bike_id":"ffffbebf-b502-463d-aa88-6205cc33d88d","system_id":"levelo_inurba_marseille","lat":43.280995,"lon":5.378303,"is_reserved":false,"is_disabled":false,"rental_uris":{"android":"levelo://app?vid=ffffbebf-b502-463d-aa88-6205cc33d88d","ios":"levelo://app?vid=ffffbebf-b502-463d-aa88-6205cc33d88d"},"vehicle_type_id":"4","last_reported":1753179154,"current_range_meters":18800,"station_id":"ce4bha12rcd13ifvqee0","pricing_plan_id":"cebpf4jnsgd1na2vs0mg"},{"bike_id":"d3efef1e-0fec-4541-87fb-6df6ecce6f21","system_id":"levelo_inurba_marseille","lat":43.23203,"lon":5.35531,"is_reserved":false,"is_disabled":false,"rental_uris":{"android":"levelo://app?vid=d3efef1e-0fec-4541-87fb-6df6ecce6f21","ios":"levelo://app?vid=d3efef1e-0fec-4541-87fb-6df6ecce6f21"},"vehicle_type_id":"4","last_reported":1753179154,"current_range_meters":18800,"station_id":"ce4bhu92rcd13ifvqi70","pricing_plan_id":"cebpf4jnsgd1na2vs0mg"},{"bike_id":"b0814be2-3228-42a3-8f14-9e3ad3e47b21","system_id":"levelo_inurba_marseille","lat":43.25014,"lon":5.38919,"is_reserved":false,"is_disabled":false,"rental_uris":{"android":"levelo://app?vid=b0814be2-3228-42a3-8f14-9e3ad3e47b21","ios":"levelo://app?vid=b0814be2-3228-42a3-8f14-9e3ad3e47b21"},"vehicle_type_id":"4","last_reported":1753179154,"current_range_meters":18800,"station_id":"ce4bhgp2rcd13ifvqfd0","pricing_plan_id":"cebpf4jnsgd1na2vs0mg"},{"bike_id":"6d23e765-24be-402c-b4de-ff24cb318e32","system_id":"levelo_inurba_marseille","lat":43.22937,"lon":5.35357,"is_reserved":false,"is_disabled":false,"rental_uris":{"android":"levelo://app?vid=6d23e765-24be-402c-b4de-ff24cb318e32","ios":"levelo://app?vid=6d23e765-24be-402c-b4de-ff24cb318e32"},"vehicle_type_id":"4","last_reported":1753179154,"current_range_meters":19200,"station_id":"cpo3532slgdg3j2ikp40","pricing_plan_id":"cebpf4jnsgd1na2vs0mg"},{"bike_id":"f7ef73af-f80a-439a-a97b-09e967d24687","system_id":"levelo_inurba_marseille","lat":43.29623,"lon":5.37718,"is_reserved":false,"is_disabled":false,"rental_uris":{"android":"levelo://app?vid=f7ef73af-f80a-439a-a97b-09e967d24687","ios":"levelo://app?vid=f7ef73af-f80a-439a-a97b-09e967d24687"},"vehicle_type_id":"4","last_reported":1753179154,"current_range_meters":18800,"station_id":"ce4bgi92rcd13ifvqb90","pricing_plan_id":"cebpf4jnsgd1na2vs0mg"},{"bike_id":"99e496ea-71ef-4bdb-b20d-08851d51893c","system_id":"levelo_inurba_marseille","lat":43.26557,"lon":5.37291,"is_reserved":false,"is_disabled":false,"rental_uris":{"android":"levelo://app?vid=99e496ea-71ef-4bdb-b20d-08851d51893c","ios":"levelo://app?vid=99e496ea-71ef-4bdb-b20d-08851d51893c"},"vehicle_type_id":"4","last_reported":1753179154,"current_range_meters":19200,"station_id":"ce4bhg12rcd13ifvqf70","pricing_plan_id":"cebpf4jnsgd1na2vs0mg"},{"bike_id":"5cd570b3-5ede-4c04-957b-bd2e249463fd","system_id":"levelo_inurba_marseille","lat":43.21199,"lon":5.35071,"is_reserved":false,"is_disabled":false,"rental_uris":{"android":"levelo://app?vid=5cd570b3-5ede-4c04-957b-bd2e249463fd","ios":"levelo://app?vid=5cd570b3-5ede-4c04-957b-bd2e249463fd"},"vehicle_type_id":"4","last_reported":1753179154,"current_range_meters":19200,"station_id":"st_cvj6sg6p6f1abm77japg","pricing_plan_id":"cebpf4jnsgd1na2vs0mg"},{"bike_id":"29b14e23-f4d2-4fd7-9c3b-1f5dde7b2e61","system_id":"levelo_inurba_marseille","lat":43.286064,"lon":5.370673,"is_reserved":false,"is_disabled":true,"rental_uris":{"android":"levelo://app?vid=29b14e23-f4d2-4fd7-9c3b-1f5dde7b2e61","ios":"levelo://app?vid=29b14e23-f4d2-4fd7-9c3b-1f5dde7b2e61"},"vehicle_type_id":"4","last_reported":1753179154,"current_range_meters":19200,"station_id":"ce4bht12rcd13ifvqi60","pricing_plan_id":"cebpf4jnsgd1na2vs0mg"},{"bike_id":"6f9ed535-f844-410c-b278-ab4ee6eb9b3c","system_id":"levelo_inurba_marseille","lat":43.26214,"lon":5.37442,"is_reserved":false,"is_disabled":false,"rental_uris":{"android":"levelo://app?vid=6f9ed535-f844-410c-b278-ab4ee6eb9b3c","ios":"levelo://app?vid=6f9ed535-f844-410c-b278-ab4ee6eb9b3c"},"vehicle_type_id":"4","last_reported":1753179154,"current_range_meters":19200,"station_id":"ce4bhgp2rcd13ifvqfc0","pricing_plan_id":"cebpf4jnsgd1na2vs0mg"},{"bike_id":"ab2576ba-3498-47f6-959d-8cf2fbd2103d","system_id":"levelo_inurba_marseille","lat":43.28399,"lon":5.37537,"is_reserved":false,"is_disabled":false,"rental_uris":{"android":"levelo://app?vid=ab2576ba-3498-47f6-959d-8cf2fbd2103d","ios":"levelo://app?vid=ab2576ba-3498-47f6-959d-8cf2fbd2103d"},"vehicle_type_id":"4","last_reported":1753179154,"current_range_meters":19200,"station_id":"ce4bh412rcd13ifvqds0","pricing_plan_id":"cebpf4jnsgd1na2vs0mg"},{"bike_id":"005b1758-b217-47ee-b6da-37711cec6e16","system_id":"levelo_inurba_marseille","lat":43.24171,"lon":5.36399,"is_reserved":false,"is_disabled":false,"rental_uris":{"android":"levelo://app?vid=005b1758-b217-47ee-b6da-37711cec6e16","ios":"levelo://app?vid=005b1758-b217-47ee-b6da-37711cec6e16"},"vehicle_type_id":"4","last_reported":1753179154,"current_range_meters":19600,"station_id":"cpo36qri1sfpv3e86is0","pricing_plan_id":"cebpf4jnsgd1na2vs0mg"},{"bike_id":"5ea1e0b3-e596-45e6-88e9-c65da10bd3b4","system_id":"levelo_inurba_marseille","lat":43.29999,"lon":5.37465,"is_reserved":false,"is_disabled":false,"rental_uris":{"android":"levelo://app?vid=5ea1e0b3-e596-45e6-88e9-c65da10bd3b4","ios":"levelo://app?vid=5ea1e0b3-e596-45e6-88e9-c65da10bd3b4"},"vehicle_type_id":"4","last_reported":1753179154,"current_range_meters":19600,"station_id":"","pricing_plan_id":"cebpf4jnsgd1na2vs0mg"},{"bike_id":"dc6fc453-9812-4d99-8dd4-5c70596d59ce","system_id":"levelo_inurba_marseille","lat":43.337534,"lon":5.374547,"is_reserved":false,"is_disabled":false,"rental_uris":{"android":"levelo://app?vid=dc6fc453-9812-4d99-8dd4-5c70596d59ce","ios":"levelo://app?vid=dc6fc453-9812-4d99-8dd4-5c70596d59ce"},"vehicle_type_id":"4","last_reported":1753179154,"current_range_meters":19600,"station_id":"","pricing_plan_id":"cebpf4jnsgd1na2vs0mg"},{"bike_id":"14e42d40-214d-4eca-afd4-64e6b0f4d797","system_id":"levelo_inurba_marseille","lat":43.29256,"lon":5.3763,"is_reserved":false,"is_disabled":false,"rental_uris":{"android":"levelo://app?vid=14e42d40-214d-4eca-afd4-64e6b0f4d797","ios":"levelo://app?vid=14e42d40-214d-4eca-afd4-64e6b0f4d797"},"vehicle_type_id":"4","last_reported":1753179154,"current_range_meters":19600,"station_id":"ce4bgi12rcd13ifvqb80","pricing_plan_id":"cebpf4jnsgd1na2vs0mg"},{"bike_id":"14ff57e9-df81-436a-97c8-6f0e1a67e809","system_id":"levelo_inurba_marseille","lat":43.32132,"lon":5.36796,"is_reserved":false,"is_disabled":false,"rental_uris":{"android":"levelo://app?vid=14ff57e9-df81-436a-97c8-6f0e1a67e809","ios":"levelo://app?vid=14ff57e9-df81-436a-97c8-6f0e1a67e809"},"vehicle_type_id":"4","last_reported":1753179154,"current_range_meters":19600,"station_id":"ce4bhrh2rcd13ifvqhug","pricing_plan_id":"cebpf4jnsgd1na2vs0mg"},{"bike_id":"b28a147f-d577-4929-94a5-ddd14fa1da4d","system_id":"levelo_inurba_marseille","lat":43.29866,"lon":5.39744,"is_reserved":false,"is_disabled":false,"rental_uris":{"android":"levelo://app?vid=b28a147f-d577-4929-94a5-ddd14fa1da4d","ios":"levelo://app?vid=b28a147f-d577-4929-94a5-ddd14fa1da4d"},"vehicle_type_id":"4","last_reported":1753179154,"current_range_meters":19600,"station_id":"ce4bh0h2rcd13ifvqd50","pricing_plan_id":"cebpf4jnsgd1na2vs0mg"},{"bike_id":"ee87f1ea-d80a-4b4b-bd90-7c7d797ba635","system_id":"levelo_inurba_marseille","lat":43.27986,"lon":5.38722,"is_reserved":false,"is_disabled":false,"rental_uris":{"android":"levelo://app?vid=ee87f1ea-d80a-4b4b-bd90-7c7d797ba635","ios":"levelo://app?vid=ee87f1ea-d80a-4b4b-bd90-7c7d797ba635"},"vehicle_type_id":"4","last_reported":1753179154,"current_range_meters":19600,"station_id":"ce4bhg12rcd13ifvqf80","pricing_plan_id":"cebpf4jnsgd1na2vs0mg"},{"bike_id":"129e0ca3-9e86-41c1-b136-0d6b50ac82c8","system_id":"levelo_inurba_marseille","lat":43.28474,"lon":5.38452,"is_reserved":false,"is_disabled":false,"rental_uris":{"android":"levelo://app?vid=129e0ca3-9e86-41c1-b136-0d6b50ac82c8","ios":"levelo://app?vid=129e0ca3-9e86-41c1-b136-0d6b50ac82c8"},"vehicle_type_id":"4","last_reported":1753179154,"current_range_meters":19600,"station_id":"ce4bh512rcd13ifvqe3g","pricing_plan_id":"cebpf4jnsgd1na2vs0mg"},{"bike_id":"4baedf4b-88b8-4b2a-9c18-0b9777edb979","system_id":"levelo_inurba_marseille","lat":43.27057,"lon":5.40266,"is_reserved":false,"is_disabled":false,"rental_uris":{"android":"levelo://app?vid=4baedf4b-88b8-4b2a-9c18-0b9777edb979","ios":"levelo://app?vid=4baedf4b-88b8-4b2a-9c18-0b9777edb979"},"vehicle_type_id":"4","last_reported":1753179154,"current_range_meters":20000,"station_id":"ce4bhk92rcd13ifvqgc0","pricing_plan_id":"cebpf4jnsgd1na2vs0mg"},{"bike_id":"c4f10c42-444b-440d-a739-b37c12b0c6fa","system_id":"levelo_inurba_marseille","lat":43.276176,"lon":5.361005,"is_reserved":false,"is_disabled":false,"rental_uris":{"android":"levelo://app?vid=c4f10c42-444b-440d-a739-b37c12b0c6fa","ios":"levelo://app?vid=c4f10c42-444b-440d-a739-b37c12b0c6fa"},"vehicle_type_id":"4","last_reported":1753179154,"current_range_meters":20000,"station_id":"","pricing_plan_id":"cebpf4jnsgd1na2vs0mg"},{"bike_id":"16bf226b-0ae5-4242-8837-d05c48de897f","system_id":"levelo_inurba_marseille","lat":43.24662,"lon":5.38177,"is_reserved":false,"is_disabled":false,"rental_uris":{"android":"levelo://app?vid=16bf226b-0ae5-4242-8837-d05c48de897f","ios":"levelo://app?vid=16bf226b-0ae5-4242-8837-d05c48de897f"},"vehicle_type_id":"4","last_reported":1753179154,"current_range_meters":20000,"station_id":"ce4bhih2rcd13ifvqfr0","pricing_plan_id":"cebpf4jnsgd1na2vs0mg"},{"bike_id":"2c47db04-15df-4a2a-8459-a941650094eb","system_id":"levelo_inurba_marseille","lat":43.21761,"lon":5.34584,"is_reserved":false,"is_disabled":false,"rental_uris":{"android":"levelo://app?vid=2c47db04-15df-4a2a-8459-a941650094eb","ios":"levelo://app?vid=2c47db04-15df-4a2a-8459-a941650094eb"},"vehicle_type_id":"4","last_reported":1753179154,"current_range_meters":20000,"station_id":"st_cvj6r9ubvosntc0bgbag","pricing_plan_id":"cebpf4jnsgd1na2vs0mg"},{"bike_id":"23e269f7-79f4-4533-ac77-e5ddb7d5785e","system_id":"levelo_inurba_marseille","lat":43.30467,"lon":5.37909,"is_reserved":false,"is_disabled":false,"rental_uris":{"android":"levelo://app?vid=23e269f7-79f4-4533-ac77-e5ddb7d5785e","ios":"levelo://app?vid=23e269f7-79f4-4533-ac77-e5ddb7d5785e"},"vehicle_type_id":"4","last_reported":1753179154,"current_range_meters":20000,"station_id":"ce4bgup2rcd13ifvqcn0","pricing_plan_id":"cebpf4jnsgd1na2vs0mg"},{"bike_id":"60b45928-e7a8-45f4-b207-023988da4a55","system_id":"levelo_inurba_marseille","lat":43.23177,"lon":5.39986,"is_reserved":false,"is_disabled":false,"rental_uris":{"android":"levelo://app?vid=60b45928-e7a8-45f4-b207-023988da4a55","ios":"levelo://app?vid=60b45928-e7a8-45f4-b207-023988da4a55"},"vehicle_type_id":"4","last_reported":1753179154,"current_range_meters":20000,"station_id":"ce4bhn12rcd13ifvqgqg","pricing_plan_id":"cebpf4jnsgd1na2vs0mg"},{"bike_id":"61db9a4a-0ff7-46f3-8e1f-0994dbc8326b","system_id":"levelo_inurba_marseille","lat":43.31862,"lon":5.36773,"is_reserved":false,"is_disabled":false,"rental_uris":{"android":"levelo://app?vid=61db9a4a-0ff7-46f3-8e1f-0994dbc8326b","ios":"levelo://app?vid=61db9a4a-0ff7-46f3-8e1f-0994dbc8326b"},"vehicle_type_id":"4","last_reported":1753179154,"current_range_meters":20000,"station_id":"","pricing_plan_id":"cebpf4jnsgd1na2vs0mg"},{"bike_id":"95071475-f0ee-47d5-acde-31c438d445db","system_id":"levelo_inurba_marseille","lat":43.26787,"lon":5.39424,"is_reserved":false,"is_disabled":false,"rental_uris":{"android":"levelo://app?vid=95071475-f0ee-47d5-acde-31c438d445db","ios":"levelo://app?vid=95071475-f0ee-47d5-acde-31c438d445db"},"vehicle_type_id":"4","last_reported":1753179154,"current_range_meters":20400,"station_id":"ce4bhh12rcd13ifvqfg0","pricing_plan_id":"cebpf4jnsgd1na2vs0mg"},{"bike_id":"2e29f8ac-7376-4213-979e-085b4ee40d9c","system_id":"levelo_inurba_marseille","lat":43.25736,"lon":5.41123,"is_reserved":false,"is_disabled":false,"rental_uris":{"android":"levelo://app?vid=2e29f8ac-7376-4213-979e-085b4ee40d9c","ios":"levelo://app?vid=2e29f8ac-7376-4213-979e-085b4ee40d9c"},"vehicle_type_id":"4","last_reported":1753179154,"current_range_meters":20400,"station_id":"ce4bhkp2rcd13ifvqgd0","pricing_plan_id":"cebpf4jnsgd1na2vs0mg"},{"bike_id":"11c9588a-e122-4ee6-991f-f37585087ee9","system_id":"levelo_inurba_marseille","lat":43.30582,"lon":5.36725,"is_reserved":false,"is_disabled":false,"rental_uris":{"android":"levelo://app?vid=11c9588a-e122-4ee6-991f-f37585087ee9","ios":"levelo://app?vid=11c9588a-e122-4ee6-991f-f37585087ee9"},"vehicle_type_id":"4","last_reported":1753179154,"current_range_meters":20400,"station_id":"ce4bgrp2rcd13ifvqc9g","pricing_plan_id":"cebpf4jnsgd1na2vs0mg"},{"bike_id":"ec82385f-ea68-46ee-9627-f1c80cc01e6c","system_id":"levelo_inurba_marseille","lat":43.30554,"lon":5.3671,"is_reserved":false,"is_disabled":false,"rental_uris":{"android":"levelo://app?vid=ec82385f-ea68-46ee-9627-f1c80cc01e6c","ios":"levelo://app?vid=ec82385f-ea68-46ee-9627-f1c80cc01e6c"},"vehicle_type_id":"4","last_reported":1753179154,"current_range_meters":20400,"station_id":"ce4bgrp2rcd13ifvqc9g","pricing_plan_id":"cebpf4jnsgd1na2vs0mg"},{"bike_id":"eb39f0d6-2f37-46c1-ab5c-f53ed31350a1","system_id":"levelo_inurba_marseille","lat":43.321144,"lon":5.36784,"is_reserved":false,"is_disabled":false,"rental_uris":{"android":"levelo://app?vid=eb39f0d6-2f37-46c1-ab5c-f53ed31350a1","ios":"levelo://app?vid=eb39f0d6-2f37-46c1-ab5c-f53ed31350a1"},"vehicle_type_id":"4","last_reported":1753179154,"current_range_meters":20400,"station_id":"ce4bhrh2rcd13ifvqhug","pricing_plan_id":"cebpf4jnsgd1na2vs0mg"},{"bike_id":"cf11f61d-83d8-4e56-9503-0282553d7be7","system_id":"levelo_inurba_marseille","lat":43.25956,"lon":5.4091,"is_reserved":false,"is_disabled":false,"rental_uris":{"android":"levelo://app?vid=cf11f61d-83d8-4e56-9503-0282553d7be7","ios":"levelo://app?vid=cf11f61d-83d8-4e56-9503-0282553d7be7"},"vehicle_type_id":"4","last_reported":1753179154,"current_range_meters":20400,"station_id":"ce4bhm92rcd13ifvqglg","pricing_plan_id":"cebpf4jnsgd1na2vs0mg"},{"bike_id":"87ff85ae-3559-47d0-9d53-052116c56a7f","system_id":"levelo_inurba_marseille","lat":43.2177,"lon":5.34643,"is_reserved":false,"is_disabled":false,"rental_uris":{"android":"levelo://app?vid=87ff85ae-3559-47d0-9d53-052116c56a7f","ios":"levelo://app?vid=87ff85ae-3559-47d0-9d53-052116c56a7f"},"vehicle_type_id":"4","last_reported":1753179154,"current_range_meters":20400,"station_id":"st_cvj6r9ubvosntc0bgbag","pricing_plan_id":"cebpf4jnsgd1na2vs0mg"},{"bike_id":"4c33e117-309c-4ff6-93a7-46afa9fe6644","system_id":"levelo_inurba_marseille","lat":43.25935,"lon":5.40918,"is_reserved":false,"is_disabled":false,"rental_uris":{"android":"levelo://app?vid=4c33e117-309c-4ff6-93a7-46afa9fe6644","ios":"levelo://app?vid=4c33e117-309c-4ff6-93a7-46afa9fe6644"},"vehicle_type_id":"4","last_reported":1753179154,"current_range_meters":20400,"station_id":"ce4bhm92rcd13ifvqglg","pricing_plan_id":"cebpf4jnsgd1na2vs0mg"},{"bike_id":"ff7c318c-5e6b-43ad-b16d-834f6b8b4d96","system_id":"levelo_inurba_marseille","lat":43.32362,"lon":5.3677,"is_reserved":false,"is_disabled":false,"rental_uris":{"android":"levelo://app?vid=ff7c318c-5e6b-43ad-b16d-834f6b8b4d96","ios":"levelo://app?vid=ff7c318c-5e6b-43ad-b16d-834f6b8b4d96"},"vehicle_type_id":"4","last_reported":1753179154,"current_range_meters":20400,"station_id":"ce4bhsh2rcd13ifvqi2g","pricing_plan_id":"cebpf4jnsgd1na2vs0mg"},{"bike_id":"2975a10e-052a-4ed4-8afb-b52549159b49","system_id":"levelo_inurba_marseille","lat":43.32896,"lon":5.3748,"is_reserved":false,"is_disabled":false,"rental_uris":{"android":"levelo://app?vid=2975a10e-052a-4ed4-8afb-b52549159b49","ios":"levelo://app?vid=2975a10e-052a-4ed4-8afb-b52549159b49"},"vehicle_type_id":"4","last_reported":1753179154,"current_range_meters":20400,"station_id":"","pricing_plan_id":"cebpf4jnsgd1na2vs0mg"},{"bike_id":"1cfdb136-be0c-48c4-9f06-9585de182920","system_id":"levelo_inurba_marseille","lat":43.30797,"lon":5.37653,"is_reserved":false,"is_disabled":false,"rental_uris":{"android":"levelo://app?vid=1cfdb136-be0c-48c4-9f06-9585de182920","ios":"levelo://app?vid=1cfdb136-be0c-48c4-9f06-9585de182920"},"vehicle_type_id":"4","last_reported":1753179154,"current_range_meters":20800,"station_id":"ce4bgv92rcd13ifvqcq0","pricing_plan_id":"cebpf4jnsgd1na2vs0mg"},{"bike_id":"c5a0dbf1-71dc-4d88-b89a-d9fc6eb048de","system_id":"levelo_inurba_marseille","lat":43.23149,"lon":5.43713,"is_reserved":false,"is_disabled":false,"rental_uris":{"android":"levelo://app?vid=c5a0dbf1-71dc-4d88-b89a-d9fc6eb048de","ios":"levelo://app?vid=c5a0dbf1-71dc-4d88-b89a-d9fc6eb048de"},"vehicle_type_id":"4","last_reported":1753179154,"current_range_meters":20800,"station_id":"ce4bhmp2rcd13ifvqgog","pricing_plan_id":"cebpf4jnsgd1na2vs0mg"},{"bike_id":"7a4bda36-e79e-471c-b16b-2175c8805ebf","system_id":"levelo_inurba_marseille","lat":43.27063,"lon":5.4026,"is_reserved":false,"is_disabled":false,"rental_uris":{"android":"levelo://app?vid=7a4bda36-e79e-471c-b16b-2175c8805ebf","ios":"levelo://app?vid=7a4bda36-e79e-471c-b16b-2175c8805ebf"},"vehicle_type_id":"4","last_reported":1753179154,"current_range_meters":20800,"station_id":"ce4bhk92rcd13ifvqgc0","pricing_plan_id":"cebpf4jnsgd1na2vs0mg"},{"bike_id":"6c2dab93-e61e-4a12-9c2e-c4f75abf8827","system_id":"levelo_inurba_marseille","lat":43.30541,"lon":5.36702,"is_reserved":false,"is_disabled":false,"rental_uris":{"android":"levelo://app?vid=6c2dab93-e61e-4a12-9c2e-c4f75abf8827","ios":"levelo://app?vid=6c2dab93-e61e-4a12-9c2e-c4f75abf8827"},"vehicle_type_id":"4","last_reported":1753179154,"current_range_meters":20800,"station_id":"ce4bgrp2rcd13ifvqc9g","pricing_plan_id":"cebpf4jnsgd1na2vs0mg"},{"bike_id":"a7b2df1f-8f74-4cf4-8111-6912bc55506a","system_id":"levelo_inurba_marseille","lat":43.29974,"lon":5.371631,"is_reserved":false,"is_disabled":true,"rental_uris":{"android":"levelo://app?vid=a7b2df1f-8f74-4cf4-8111-6912bc55506a","ios":"levelo://app?vid=a7b2df1f-8f74-4cf4-8111-6912bc55506a"},"vehicle_type_id":"4","last_reported":1753179154,"current_range_meters":20800,"station_id":"","pricing_plan_id":"cebpf4jnsgd1na2vs0mg"},{"bike_id":"0974d7c1-43d0-4aa5-8973-cd258e094466","system_id":"levelo_inurba_marseille","lat":43.337444,"lon":5.374475,"is_reserved":false,"is_disabled":false,"rental_uris":{"android":"levelo://app?vid=0974d7c1-43d0-4aa5-8973-cd258e094466","ios":"levelo://app?vid=0974d7c1-43d0-4aa5-8973-cd258e094466"},"vehicle_type_id":"4","last_reported":1753179154,"current_range_meters":20800,"station_id":"","pricing_plan_id":"cebpf4jnsgd1na2vs0mg"},{"bike_id":"5f4e6fdc-be58-4a44-98d8-4d64a7235268","system_id":"levelo_inurba_marseille","lat":43.24362,"lon":5.37059,"is_reserved":false,"is_disabled":false,"rental_uris":{"android":"levelo://app?vid=5f4e6fdc-be58-4a44-98d8-4d64a7235268","ios":"levelo://app?vid=5f4e6fdc-be58-4a44-98d8-4d64a7235268"},"vehicle_type_id":"4","last_reported":1753179154,"current_range_meters":20800,"station_id":"ce4bhhh2rcd13ifvqfk0","pricing_plan_id":"cebpf4jnsgd1na2vs0mg"},{"bike_id":"a0f434db-7223-4202-9f20-f7d0df8860be","system_id":"levelo_inurba_marseille","lat":43.27069,"lon":5.40258,"is_reserved":false,"is_disabled":false,"rental_uris":{"android":"levelo://app?vid=a0f434db-7223-4202-9f20-f7d0df8860be","ios":"levelo://app?vid=a0f434db-7223-4202-9f20-f7d0df8860be"},"vehicle_type_id":"4","last_reported":1753179154,"current_range_meters":20800,"station_id":"ce4bhk92rcd13ifvqgc0","pricing_plan_id":"cebpf4jnsgd1na2vs0mg"},{"bike_id":"f6546c0f-1b1f-4b2d-a6fd-92e583837130","system_id":"levelo_inurba_marseille","lat":43.305437,"lon":5.367028,"is_reserved":false,"is_disabled":false,"rental_uris":{"android":"levelo://app?vid=f6546c0f-1b1f-4b2d-a6fd-92e583837130","ios":"levelo://app?vid=f6546c0f-1b1f-4b2d-a6fd-92e583837130"},"vehicle_type_id":"4","last_reported":1753179154,"current_range_meters":20800,"station_id":"ce4bgrp2rcd13ifvqc9g","pricing_plan_id":"cebpf4jnsgd1na2vs0mg"},{"bike_id":"608af552-2c0c-47ee-afc1-325b1d965497","system_id":"levelo_inurba_marseille","lat":43.23195,"lon":5.35549,"is_reserved":false,"is_disabled":false,"rental_uris":{"android":"levelo://app?vid=608af552-2c0c-47ee-afc1-325b1d965497","ios":"levelo://app?vid=608af552-2c0c-47ee-afc1-325b1d965497"},"vehicle_type_id":"4","last_reported":1753179154,"current_range_meters":20800,"station_id":"ce4bhu92rcd13ifvqi70","pricing_plan_id":"cebpf4jnsgd1na2vs0mg"},{"bike_id":"efd63e28-5ae3-4089-82a7-7ab32be6e870","system_id":"levelo_inurba_marseille","lat":43.28469,"lon":5.38547,"is_reserved":false,"is_disabled":false,"rental_uris":{"android":"levelo://app?vid=efd63e28-5ae3-4089-82a7-7ab32be6e870","ios":"levelo://app?vid=efd63e28-5ae3-4089-82a7-7ab32be6e870"},"vehicle_type_id":"4","last_reported":1753179154,"current_range_meters":20800,"station_id":"ce4bh8p2rcd13ifvqeb0","pricing_plan_id":"cebpf4jnsgd1na2vs0mg"},{"bike_id":"3161be77-2c0d-41b5-9825-5f188d4540da","system_id":"levelo_inurba_marseille","lat":43.2251,"lon":5.34763,"is_reserved":false,"is_disabled":false,"rental_uris":{"android":"levelo://app?vid=3161be77-2c0d-41b5-9825-5f188d4540da","ios":"levelo://app?vid=3161be77-2c0d-41b5-9825-5f188d4540da"},"vehicle_type_id":"4","last_reported":1753179154,"current_range_meters":20800,"station_id":"st_cvj5dfep6f1abm77gieg","pricing_plan_id":"cebpf4jnsgd1na2vs0mg"},{"bike_id":"7ff4fc28-cadd-40d7-90f6-f685780a72ea","system_id":"levelo_inurba_marseille","lat":43.2439,"lon":5.37052,"is_reserved":false,"is_disabled":false,"rental_uris":{"android":"levelo://app?vid=7ff4fc28-cadd-40d7-90f6-f685780a72ea","ios":"levelo://app?vid=7ff4fc28-cadd-40d7-90f6-f685780a72ea"},"vehicle_type_id":"4","last_reported":1753179154,"current_range_meters":21600,"station_id":"ce4bhhh2rcd13ifvqfk0","pricing_plan_id":"cebpf4jnsgd1na2vs0mg"},{"bike_id":"887294b3-d175-4a22-869a-5bbbdd96c881","system_id":"levelo_inurba_marseille","lat":43.25493,"lon":5.37659,"is_reserved":false,"is_disabled":false,"rental_uris":{"android":"levelo://app?vid=887294b3-d175-4a22-869a-5bbbdd96c881","ios":"levelo://app?vid=887294b3-d175-4a22-869a-5bbbdd96c881"},"vehicle_type_id":"4","last_reported":1753179154,"current_range_meters":21600,"station_id":"ce4bhh12rcd13ifvqff0","pricing_plan_id":"cebpf4jnsgd1na2vs0mg"},{"bike_id":"8bcf3582-b68c-42f0-8af3-a56991e37b87","system_id":"levelo_inurba_marseille","lat":43.211927,"lon":5.350739,"is_reserved":false,"is_disabled":false,"rental_uris":{"android":"levelo://app?vid=8bcf3582-b68c-42f0-8af3-a56991e37b87","ios":"levelo://app?vid=8bcf3582-b68c-42f0-8af3-a56991e37b87"},"vehicle_type_id":"4","last_reported":1753179154,"current_range_meters":21600,"station_id":"st_cvj6sg6p6f1abm77japg","pricing_plan_id":"cebpf4jnsgd1na2vs0mg"},{"bike_id":"e3f895f1-9d9e-4b9d-b0bd-844ebaa97f6f","system_id":"levelo_inurba_marseille","lat":43.31459,"lon":5.37309,"is_reserved":false,"is_disabled":false,"rental_uris":{"android":"levelo://app?vid=e3f895f1-9d9e-4b9d-b0bd-844ebaa97f6f","ios":"levelo://app?vid=e3f895f1-9d9e-4b9d-b0bd-844ebaa97f6f"},"vehicle_type_id":"4","last_reported":1753179154,"current_range_meters":21600,"station_id":"ce4bgt12rcd13ifvqcd0","pricing_plan_id":"cebpf4jnsgd1na2vs0mg"},{"bike_id":"fcf79c8c-3c6e-4f22-9cad-a4e181134489","system_id":"levelo_inurba_marseille","lat":43.30542,"lon":5.36714,"is_reserved":false,"is_disabled":false,"rental_uris":{"android":"levelo://app?vid=fcf79c8c-3c6e-4f22-9cad-a4e181134489","ios":"levelo://app?vid=fcf79c8c-3c6e-4f22-9cad-a4e181134489"},"vehicle_type_id":"4","last_reported":1753179154,"current_range_meters":21600,"station_id":"ce4bgrp2rcd13ifvqc9g","pricing_plan_id":"cebpf4jnsgd1na2vs0mg"},{"bike_id":"4bf301d2-cede-458d-94ae-e49de6f21bad","system_id":"levelo_inurba_marseille","lat":43.2925,"lon":5.37631,"is_reserved":false,"is_disabled":false,"rental_uris":{"android":"levelo://app?vid=4bf301d2-cede-458d-94ae-e49de6f21bad","ios":"levelo://app?vid=4bf301d2-cede-458d-94ae-e49de6f21bad"},"vehicle_type_id":"4","last_reported":1753179154,"current_range_meters":21600,"station_id":"ce4bgi12rcd13ifvqb80","pricing_plan_id":"cebpf4jnsgd1na2vs0mg"},{"bike_id":"41dace92-f86c-4b55-b489-828601ec639c","system_id":"levelo_inurba_marseille","lat":43.30177,"lon":5.36663,"is_reserved":false,"is_disabled":false,"rental_uris":{"android":"levelo://app?vid=41dace92-f86c-4b55-b489-828601ec639c","ios":"levelo://app?vid=41dace92-f86c-4b55-b489-828601ec639c"},"vehicle_type_id":"4","last_reported":1753179154,"current_range_meters":21600,"station_id":"ce4bgrh2rcd13ifvqc8g","pricing_plan_id":"cebpf4jnsgd1na2vs0mg"},{"bike_id":"d70b0704-dccd-488f-b57c-42076c60bdc5","system_id":"levelo_inurba_marseille","lat":43.24159,"lon":5.36408,"is_reserved":false,"is_disabled":false,"rental_uris":{"android":"levelo://app?vid=d70b0704-dccd-488f-b57c-42076c60bdc5","ios":"levelo://app?vid=d70b0704-dccd-488f-b57c-42076c60bdc5"},"vehicle_type_id":"4","last_reported":1753179154,"current_range_meters":21600,"station_id":"cpo36qri1sfpv3e86is0","pricing_plan_id":"cebpf4jnsgd1na2vs0mg"},{"bike_id":"5d61b1ff-530d-43ff-9efa-ef3afa0cee92","system_id":"levelo_inurba_marseille","lat":43.21205,"lon":5.35095,"is_reserved":false,"is_disabled":false,"rental_uris":{"android":"levelo://app?vid=5d61b1ff-530d-43ff-9efa-ef3afa0cee92","ios":"levelo://app?vid=5d61b1ff-530d-43ff-9efa-ef3afa0cee92"},"vehicle_type_id":"4","last_reported":1753179154,"current_range_meters":21600,"station_id":"st_cvj6sg6p6f1abm77japg","pricing_plan_id":"cebpf4jnsgd1na2vs0mg"},{"bike_id":"f71084eb-f4f9-4a38-8a43-d9891fd056fc","system_id":"levelo_inurba_marseille","lat":43.25741,"lon":5.41133,"is_reserved":false,"is_disabled":false,"rental_uris":{"android":"levelo://app?vid=f71084eb-f4f9-4a38-8a43-d9891fd056fc","ios":"levelo://app?vid=f71084eb-f4f9-4a38-8a43-d9891fd056fc"},"vehicle_type_id":"4","last_reported":1753179154,"current_range_meters":21600,"station_id":"ce4bhkp2rcd13ifvqgd0","pricing_plan_id":"cebpf4jnsgd1na2vs0mg"},{"bike_id":"8f872d9f-ebef-425b-9697-d1fd4d6c6580","system_id":"levelo_inurba_marseille","lat":43.28627,"lon":5.35105,"is_reserved":false,"is_disabled":false,"rental_uris":{"android":"levelo://app?vid=8f872d9f-ebef-425b-9697-d1fd4d6c6580","ios":"levelo://app?vid=8f872d9f-ebef-425b-9697-d1fd4d6c6580"},"vehicle_type_id":"4","last_reported":1753179154,"current_range_meters":21600,"station_id":"ce4bhch2rcd13ifvqeug","pricing_plan_id":"cebpf4jnsgd1na2vs0mg"},{"bike_id":"4e60112d-0cb6-4d65-b1c1-ae445663dc82","system_id":"levelo_inurba_marseille","lat":43.23189,"lon":5.35576,"is_reserved":false,"is_disabled":false,"rental_uris":{"android":"levelo://app?vid=4e60112d-0cb6-4d65-b1c1-ae445663dc82","ios":"levelo://app?vid=4e60112d-0cb6-4d65-b1c1-ae445663dc82"},"vehicle_type_id":"4","last_reported":1753179154,"current_range_meters":22000,"station_id":"ce4bhu92rcd13ifvqi70","pricing_plan_id":"cebpf4jnsgd1na2vs0mg"},{"bike_id":"a500a999-7108-4981-ad31-aac980df6535","system_id":"levelo_inurba_marseille","lat":43.3362,"lon":5.40992,"is_reserved":false,"is_disabled":false,"rental_uris":{"android":"levelo://app?vid=a500a999-7108-4981-ad31-aac980df6535","ios":"levelo://app?vid=a500a999-7108-4981-ad31-aac980df6535"},"vehicle_type_id":"4","last_reported":1753179154,"current_range_meters":22000,"station_id":"ce4bhqh2rcd13ifvqhmg","pricing_plan_id":"cebpf4jnsgd1na2vs0mg"},{"bike_id":"9b6d898a-f91d-4656-b86a-5309f3176e70","system_id":"levelo_inurba_marseille","lat":43.29974,"lon":5.37182,"is_reserved":false,"is_disabled":false,"rental_uris":{"android":"levelo://app?vid=9b6d898a-f91d-4656-b86a-5309f3176e70","ios":"levelo://app?vid=9b6d898a-f91d-4656-b86a-5309f3176e70"},"vehicle_type_id":"4","last_reported":1753179154,"current_range_meters":22000,"station_id":"ce4bgr92rcd13ifvqc7g","pricing_plan_id":"cebpf4jnsgd1na2vs0mg"},{"bike_id":"34a08318-b2e9-441b-8de4-fa1a4efefe24","system_id":"levelo_inurba_marseille","lat":43.286689,"lon":5.386663,"is_reserved":false,"is_disabled":true,"rental_uris":{"android":"levelo://app?vid=34a08318-b2e9-441b-8de4-fa1a4efefe24","ios":"levelo://app?vid=34a08318-b2e9-441b-8de4-fa1a4efefe24"},"vehicle_type_id":"4","last_reported":1753179154,"current_range_meters":22000,"station_id":"ce4bh492rcd13ifvqdug","pricing_plan_id":"cebpf4jnsgd1na2vs0mg"},{"bike_id":"acf3b621-ab9d-4fb0-9443-ea3137d1bb95","system_id":"levelo_inurba_marseille","lat":43.32351,"lon":5.36761,"is_reserved":false,"is_disabled":false,"rental_uris":{"android":"levelo://app?vid=acf3b621-ab9d-4fb0-9443-ea3137d1bb95","ios":"levelo://app?vid=acf3b621-ab9d-4fb0-9443-ea3137d1bb95"},"vehicle_type_id":"4","last_reported":1753179154,"current_range_meters":22000,"station_id":"ce4bhsh2rcd13ifvqi2g","pricing_plan_id":"cebpf4jnsgd1na2vs0mg"},{"bike_id":"47b9b5df-a6f8-4ca6-9059-ddcd4dbd859f","system_id":"levelo_inurba_marseille","lat":43.29946,"lon":5.36539,"is_reserved":false,"is_disabled":false,"rental_uris":{"android":"levelo://app?vid=47b9b5df-a6f8-4ca6-9059-ddcd4dbd859f","ios":"levelo://app?vid=47b9b5df-a6f8-4ca6-9059-ddcd4dbd859f"},"vehicle_type_id":"4","last_reported":1753179154,"current_range_meters":22000,"station_id":"ce4bgm92rcd13ifvqbr0","pricing_plan_id":"cebpf4jnsgd1na2vs0mg"},{"bike_id":"39de1728-6a8f-448a-8239-4baab59eadd5","system_id":"levelo_inurba_marseille","lat":43.290758,"lon":5.371575,"is_reserved":false,"is_disabled":false,"rental_uris":{"android":"levelo://app?vid=39de1728-6a8f-448a-8239-4baab59eadd5","ios":"levelo://app?vid=39de1728-6a8f-448a-8239-4baab59eadd5"},"vehicle_type_id":"4","last_reported":1753179154,"current_range_meters":22000,"station_id":"ce4bhap2rcd13ifvqek0","pricing_plan_id":"cebpf4jnsgd1na2vs0mg"},{"bike_id":"ea69fc86-66cd-4fb6-862e-3c62c7c76cde","system_id":"levelo_inurba_marseille","lat":43.2417,"lon":5.36405,"is_reserved":false,"is_disabled":false,"rental_uris":{"android":"levelo://app?vid=ea69fc86-66cd-4fb6-862e-3c62c7c76cde","ios":"levelo://app?vid=ea69fc86-66cd-4fb6-862e-3c62c7c76cde"},"vehicle_type_id":"4","last_reported":1753179154,"current_range_meters":22000,"station_id":"cpo36qri1sfpv3e86is0","pricing_plan_id":"cebpf4jnsgd1na2vs0mg"},{"bike_id":"5c2188ff-1734-4846-b150-6f703eac995a","system_id":"levelo_inurba_marseille","lat":43.25026,"lon":5.3889,"is_reserved":false,"is_disabled":false,"rental_uris":{"android":"levelo://app?vid=5c2188ff-1734-4846-b150-6f703eac995a","ios":"levelo://app?vid=5c2188ff-1734-4846-b150-6f703eac995a"},"vehicle_type_id":"4","last_reported":1753179154,"current_range_meters":22000,"station_id":"ce4bhgp2rcd13ifvqfd0","pricing_plan_id":"cebpf4jnsgd1na2vs0mg"},{"bike_id":"054a0695-1a7c-4d33-9e52-6083ff9039c1","system_id":"levelo_inurba_marseille","lat":43.24647,"lon":5.38209,"is_reserved":false,"is_disabled":false,"rental_uris":{"android":"levelo://app?vid=054a0695-1a7c-4d33-9e52-6083ff9039c1","ios":"levelo://app?vid=054a0695-1a7c-4d33-9e52-6083ff9039c1"},"vehicle_type_id":"4","last_reported":1753179154,"current_range_meters":22400,"station_id":"ce4bhih2rcd13ifvqfr0","pricing_plan_id":"cebpf4jnsgd1na2vs0mg"},{"bike_id":"84393d17-fd90-41ad-bfaa-13472a598857","system_id":"levelo_inurba_marseille","lat":43.272098,"lon":5.391819,"is_reserved":false,"is_disabled":false,"rental_uris":{"android":"levelo://app?vid=84393d17-fd90-41ad-bfaa-13472a598857","ios":"levelo://app?vid=84393d17-fd90-41ad-bfaa-13472a598857"},"vehicle_type_id":"4","last_reported":1753179154,"current_range_meters":22400,"station_id":"ce4bhhp2rcd13ifvqfm0","pricing_plan_id":"cebpf4jnsgd1na2vs0mg"},{"bike_id":"573ed9d9-373b-4f50-85e1-fdf28cc77d92","system_id":"levelo_inurba_marseille","lat":43.24172,"lon":5.39733,"is_reserved":false,"is_disabled":false,"rental_uris":{"android":"levelo://app?vid=573ed9d9-373b-4f50-85e1-fdf28cc77d92","ios":"levelo://app?vid=573ed9d9-373b-4f50-85e1-fdf28cc77d92"},"vehicle_type_id":"4","last_reported":1753179154,"current_range_meters":22400,"station_id":"ce4bhn12rcd13ifvqgpg","pricing_plan_id":"cebpf4jnsgd1na2vs0mg"},{"bike_id":"93717ded-abdb-4962-8634-a9b6c5da95f3","system_id":"levelo_inurba_marseille","lat":43.31674,"lon":5.388,"is_reserved":false,"is_disabled":false,"rental_uris":{"android":"levelo://app?vid=93717ded-abdb-4962-8634-a9b6c5da95f3","ios":"levelo://app?vid=93717ded-abdb-4962-8634-a9b6c5da95f3"},"vehicle_type_id":"4","last_reported":1753179154,"current_range_meters":22400,"station_id":"","pricing_plan_id":"cebpf4jnsgd1na2vs0mg"},{"bike_id":"b64e1836-ca8e-49eb-aabd-ca99962a56ce","system_id":"levelo_inurba_marseille","lat":43.2731,"lon":5.390785,"is_reserved":false,"is_disabled":false,"rental_uris":{"android":"levelo://app?vid=b64e1836-ca8e-49eb-aabd-ca99962a56ce","ios":"levelo://app?vid=b64e1836-ca8e-49eb-aabd-ca99962a56ce"},"vehicle_type_id":"4","last_reported":1753179154,"current_range_meters":22400,"station_id":"ce4bhgp2rcd13ifvqfe0","pricing_plan_id":"cebpf4jnsgd1na2vs0mg"},{"bike_id":"e93cab78-355f-4a9d-b1d8-d43c0cae8299","system_id":"levelo_inurba_marseille","lat":43.22929,"lon":5.35382,"is_reserved":false,"is_disabled":false,"rental_uris":{"android":"levelo://app?vid=e93cab78-355f-4a9d-b1d8-d43c0cae8299","ios":"levelo://app?vid=e93cab78-355f-4a9d-b1d8-d43c0cae8299"},"vehicle_type_id":"4","last_reported":1753179154,"current_range_meters":22400,"station_id":"cpo3532slgdg3j2ikp40","pricing_plan_id":"cebpf4jnsgd1na2vs0mg"},{"bike_id":"fbb3a883-397e-4e60-843c-8745ff439959","system_id":"levelo_inurba_marseille","lat":43.29157,"lon":5.37168,"is_reserved":false,"is_disabled":false,"rental_uris":{"android":"levelo://app?vid=fbb3a883-397e-4e60-843c-8745ff439959","ios":"levelo://app?vid=fbb3a883-397e-4e60-843c-8745ff439959"},"vehicle_type_id":"4","last_reported":1753179154,"current_range_meters":22400,"station_id":"ce4bha92rcd13ifvqeh0","pricing_plan_id":"cebpf4jnsgd1na2vs0mg"},{"bike_id":"18e8b51c-66c7-417b-8787-00150df04c5f","system_id":"levelo_inurba_marseille","lat":43.30194,"lon":5.36624,"is_reserved":false,"is_disabled":false,"rental_uris":{"android":"levelo://app?vid=18e8b51c-66c7-417b-8787-00150df04c5f","ios":"levelo://app?vid=18e8b51c-66c7-417b-8787-00150df04c5f"},"vehicle_type_id":"4","last_reported":1753179154,"current_range_meters":22400,"station_id":"ce4bgrh2rcd13ifvqc8g","pricing_plan_id":"cebpf4jnsgd1na2vs0mg"},{"bike_id":"5a06512c-6fcf-4e96-b295-c62d5ce91983","system_id":"levelo_inurba_marseille","lat":43.27911,"lon":5.38021,"is_reserved":false,"is_disabled":false,"rental_uris":{"android":"levelo://app?vid=5a06512c-6fcf-4e96-b295-c62d5ce91983","ios":"levelo://app?vid=5a06512c-6fcf-4e96-b295-c62d5ce91983"},"vehicle_type_id":"4","last_reported":1753179154,"current_range_meters":22800,"station_id":"ce4bhf92rcd13ifvqf50","pricing_plan_id":"cebpf4jnsgd1na2vs0mg"},{"bike_id":"a2fc5150-2d2c-4f85-a189-d6d44ff4ee42","system_id":"levelo_inurba_marseille","lat":43.30374,"lon":5.42469,"is_reserved":false,"is_disabled":false,"rental_uris":{"android":"levelo://app?vid=a2fc5150-2d2c-4f85-a189-d6d44ff4ee42","ios":"levelo://app?vid=a2fc5150-2d2c-4f85-a189-d6d44ff4ee42"},"vehicle_type_id":"4","last_reported":1753179154,"current_range_meters":22800,"station_id":"ce4bhoh2rcd13ifvqh6g","pricing_plan_id":"cebpf4jnsgd1na2vs0mg"},{"bike_id":"356afe53-3cfe-4b2d-bce1-13626d113287","system_id":"levelo_inurba_marseille","lat":43.284213,"lon":5.349742,"is_reserved":false,"is_disabled":false,"rental_uris":{"android":"levelo://app?vid=356afe53-3cfe-4b2d-bce1-13626d113287","ios":"levelo://app?vid=356afe53-3cfe-4b2d-bce1-13626d113287"},"vehicle_type_id":"4","last_reported":1753179154,"current_range_meters":22800,"station_id":"ce4bhbh2rcd13ifvqepg","pricing_plan_id":"cebpf4jnsgd1na2vs0mg"},{"bike_id":"34e4ca42-1b5c-4571-b23d-0b30e3b69a01","system_id":"levelo_inurba_marseille","lat":43.3091,"lon":5.36853,"is_reserved":false,"is_disabled":false,"rental_uris":{"android":"levelo://app?vid=34e4ca42-1b5c-4571-b23d-0b30e3b69a01","ios":"levelo://app?vid=34e4ca42-1b5c-4571-b23d-0b30e3b69a01"},"vehicle_type_id":"4","last_reported":1753179154,"current_range_meters":22800,"station_id":"ce4bgn92rcd13ifvqbvg","pricing_plan_id":"cebpf4jnsgd1na2vs0mg"},{"bike_id":"a5dcb760-4fd6-4979-9e79-640b05cd29f7","system_id":"levelo_inurba_marseille","lat":43.302758,"lon":5.381938,"is_reserved":false,"is_disabled":false,"rental_uris":{"android":"levelo://app?vid=a5dcb760-4fd6-4979-9e79-640b05cd29f7","ios":"levelo://app?vid=a5dcb760-4fd6-4979-9e79-640b05cd29f7"},"vehicle_type_id":"4","last_reported":1753179154,"current_range_meters":22800,"station_id":"ce4bgh92rcd13ifvqb50","pricing_plan_id":"cebpf4jnsgd1na2vs0mg"},{"bike_id":"eaff56b1-d219-42d3-ad41-870cb8ed5924","system_id":"levelo_inurba_marseille","lat":43.27915,"lon":5.37995,"is_reserved":false,"is_disabled":false,"rental_uris":{"android":"levelo://app?vid=eaff56b1-d219-42d3-ad41-870cb8ed5924","ios":"levelo://app?vid=eaff56b1-d219-42d3-ad41-870cb8ed5924"},"vehicle_type_id":"4","last_reported":1753179154,"current_range_meters":22800,"station_id":"ce4bhf92rcd13ifvqf50","pricing_plan_id":"cebpf4jnsgd1na2vs0mg"},{"bike_id":"83951220-4a1f-46e3-900f-7f2b2c75074f","system_id":"levelo_inurba_marseille","lat":43.27306,"lon":5.39102,"is_reserved":false,"is_disabled":false,"rental_uris":{"android":"levelo://app?vid=83951220-4a1f-46e3-900f-7f2b2c75074f","ios":"levelo://app?vid=83951220-4a1f-46e3-900f-7f2b2c75074f"},"vehicle_type_id":"4","last_reported":1753179154,"current_range_meters":22800,"station_id":"ce4bhgp2rcd13ifvqfe0","pricing_plan_id":"cebpf4jnsgd1na2vs0mg"},{"bike_id":"b4e18d3a-78bf-450b-84e7-aa32f5e69fd0","system_id":"levelo_inurba_marseille","lat":43.28418,"lon":5.34993,"is_reserved":false,"is_disabled":false,"rental_uris":{"android":"levelo://app?vid=b4e18d3a-78bf-450b-84e7-aa32f5e69fd0","ios":"levelo://app?vid=b4e18d3a-78bf-450b-84e7-aa32f5e69fd0"},"vehicle_type_id":"4","last_reported":1753179154,"current_range_meters":22800,"station_id":"ce4bhbh2rcd13ifvqepg","pricing_plan_id":"cebpf4jnsgd1na2vs0mg"},{"bike_id":"9223c1a7-0974-4713-b4dc-1d35509f4ba9","system_id":"levelo_inurba_marseille","lat":43.27623,"lon":5.36142,"is_reserved":false,"is_disabled":false,"rental_uris":{"android":"levelo://app?vid=9223c1a7-0974-4713-b4dc-1d35509f4ba9","ios":"levelo://app?vid=9223c1a7-0974-4713-b4dc-1d35509f4ba9"},"vehicle_type_id":"4","last_reported":1753179154,"current_range_meters":23200,"station_id":"ce4bgj92rcd13ifvqbe0","pricing_plan_id":"cebpf4jnsgd1na2vs0mg"},{"bike_id":"21e622b4-7329-4437-8024-059a7e344147","system_id":"levelo_inurba_marseille","lat":43.3054,"lon":5.36708,"is_reserved":false,"is_disabled":false,"rental_uris":{"android":"levelo://app?vid=21e622b4-7329-4437-8024-059a7e344147","ios":"levelo://app?vid=21e622b4-7329-4437-8024-059a7e344147"},"vehicle_type_id":"4","last_reported":1753179154,"current_range_meters":23200,"station_id":"ce4bgrp2rcd13ifvqc9g","pricing_plan_id":"cebpf4jnsgd1na2vs0mg"},{"bike_id":"ec45af89-1b95-40d3-86c5-f29e217c9584","system_id":"levelo_inurba_marseille","lat":43.26782,"lon":5.39416,"is_reserved":false,"is_disabled":false,"rental_uris":{"android":"levelo://app?vid=ec45af89-1b95-40d3-86c5-f29e217c9584","ios":"levelo://app?vid=ec45af89-1b95-40d3-86c5-f29e217c9584"},"vehicle_type_id":"4","last_reported":1753179154,"current_range_meters":22800,"station_id":"ce4bhh12rcd13ifvqfg0","pricing_plan_id":"cebpf4jnsgd1na2vs0mg"},{"bike_id":"089ccd0c-30e7-4004-8a5e-46e0231321ab","system_id":"levelo_inurba_marseille","lat":43.33287,"lon":5.42015,"is_reserved":false,"is_disabled":false,"rental_uris":{"android":"levelo://app?vid=089ccd0c-30e7-4004-8a5e-46e0231321ab","ios":"levelo://app?vid=089ccd0c-30e7-4004-8a5e-46e0231321ab"},"vehicle_type_id":"4","last_reported":1753179154,"current_range_meters":23200,"station_id":"","pricing_plan_id":"cebpf4jnsgd1na2vs0mg"},{"bike_id":"9fd98f98-8a7b-4681-ae73-334ceda1fbbd","system_id":"levelo_inurba_marseille","lat":43.31609,"lon":5.38962,"is_reserved":false,"is_disabled":false,"rental_uris":{"android":"levelo://app?vid=9fd98f98-8a7b-4681-ae73-334ceda1fbbd","ios":"levelo://app?vid=9fd98f98-8a7b-4681-ae73-334ceda1fbbd"},"vehicle_type_id":"4","last_reported":1753179154,"current_range_meters":23200,"station_id":"","pricing_plan_id":"cebpf4jnsgd1na2vs0mg"},{"bike_id":"ac418c50-a96f-4f2f-b870-5e9b984d2a44","system_id":"levelo_inurba_marseille","lat":43.30375,"lon":5.41931,"is_reserved":false,"is_disabled":false,"rental_uris":{"android":"levelo://app?vid=ac418c50-a96f-4f2f-b870-5e9b984d2a44","ios":"levelo://app?vid=ac418c50-a96f-4f2f-b870-5e9b984d2a44"},"vehicle_type_id":"4","last_reported":1753179154,"current_range_meters":23200,"station_id":"","pricing_plan_id":"cebpf4jnsgd1na2vs0mg"},{"bike_id":"b465f4ec-08f6-4e76-99c4-bdb4567ff50d","system_id":"levelo_inurba_marseille","lat":43.30379,"lon":5.42482,"is_reserved":false,"is_disabled":false,"rental_uris":{"android":"levelo://app?vid=b465f4ec-08f6-4e76-99c4-bdb4567ff50d","ios":"levelo://app?vid=b465f4ec-08f6-4e76-99c4-bdb4567ff50d"},"vehicle_type_id":"4","last_reported":1753179154,"current_range_meters":23200,"station_id":"ce4bhoh2rcd13ifvqh6g","pricing_plan_id":"cebpf4jnsgd1na2vs0mg"},{"bike_id":"39c8aeb0-50c7-4cb5-8b39-5d8019dea0a3","system_id":"levelo_inurba_marseille","lat":43.30538,"lon":5.365718,"is_reserved":false,"is_disabled":false,"rental_uris":{"android":"levelo://app?vid=39c8aeb0-50c7-4cb5-8b39-5d8019dea0a3","ios":"levelo://app?vid=39c8aeb0-50c7-4cb5-8b39-5d8019dea0a3"},"vehicle_type_id":"4","last_reported":1753179154,"current_range_meters":23200,"station_id":"ce4bgs12rcd13ifvqcag","pricing_plan_id":"cebpf4jnsgd1na2vs0mg"},{"bike_id":"ce853904-5f50-4c78-b8aa-98d8bb17bbc2","system_id":"levelo_inurba_marseille","lat":43.305331,"lon":5.365325,"is_reserved":false,"is_disabled":false,"rental_uris":{"android":"levelo://app?vid=ce853904-5f50-4c78-b8aa-98d8bb17bbc2","ios":"levelo://app?vid=ce853904-5f50-4c78-b8aa-98d8bb17bbc2"},"vehicle_type_id":"4","last_reported":1753179154,"current_range_meters":23200,"station_id":"ce4bgs12rcd13ifvqcag","pricing_plan_id":"cebpf4jnsgd1na2vs0mg"},{"bike_id":"80b9a039-b969-4f0b-81c2-1cd2ba19e73d","system_id":"levelo_inurba_marseille","lat":43.26685,"lon":5.38253,"is_reserved":false,"is_disabled":false,"rental_uris":{"android":"levelo://app?vid=80b9a039-b969-4f0b-81c2-1cd2ba19e73d","ios":"levelo://app?vid=80b9a039-b969-4f0b-81c2-1cd2ba19e73d"},"vehicle_type_id":"4","last_reported":1753179154,"current_range_meters":23200,"station_id":"ce4bhg92rcd13ifvqf90","pricing_plan_id":"cebpf4jnsgd1na2vs0mg"},{"bike_id":"2907c836-9e2f-46c8-a7d2-c646e78e5190","system_id":"levelo_inurba_marseille","lat":43.21755,"lon":5.34598,"is_reserved":false,"is_disabled":false,"rental_uris":{"android":"levelo://app?vid=2907c836-9e2f-46c8-a7d2-c646e78e5190","ios":"levelo://app?vid=2907c836-9e2f-46c8-a7d2-c646e78e5190"},"vehicle_type_id":"4","last_reported":1753179154,"current_range_meters":23200,"station_id":"st_cvj6r9ubvosntc0bgbag","pricing_plan_id":"cebpf4jnsgd1na2vs0mg"},{"bike_id":"821647b9-1c8f-430a-9be3-c4fb1ca3a892","system_id":"levelo_inurba_marseille","lat":43.284135,"lon":5.349839,"is_reserved":false,"is_disabled":false,"rental_uris":{"android":"levelo://app?vid=821647b9-1c8f-430a-9be3-c4fb1ca3a892","ios":"levelo://app?vid=821647b9-1c8f-430a-9be3-c4fb1ca3a892"},"vehicle_type_id":"4","last_reported":1753179154,"current_range_meters":24000,"station_id":"ce4bhbh2rcd13ifvqepg","pricing_plan_id":"cebpf4jnsgd1na2vs0mg"},{"bike_id":"ebffe955-be23-4126-820a-faa29eb150c5","system_id":"levelo_inurba_marseille","lat":43.2657,"lon":5.39008,"is_reserved":false,"is_disabled":false,"rental_uris":{"android":"levelo://app?vid=ebffe955-be23-4126-820a-faa29eb150c5","ios":"levelo://app?vid=ebffe955-be23-4126-820a-faa29eb150c5"},"vehicle_type_id":"4","last_reported":1753179154,"current_range_meters":24000,"station_id":"ce4bhe12rcd13ifvqf30","pricing_plan_id":"cebpf4jnsgd1na2vs0mg"},{"bike_id":"49dc5c29-e898-41b7-9709-cf0442fc1e0d","system_id":"levelo_inurba_marseille","lat":43.30568,"lon":5.36529,"is_reserved":false,"is_disabled":false,"rental_uris":{"android":"levelo://app?vid=49dc5c29-e898-41b7-9709-cf0442fc1e0d","ios":"levelo://app?vid=49dc5c29-e898-41b7-9709-cf0442fc1e0d"},"vehicle_type_id":"4","last_reported":1753179154,"current_range_meters":24000,"station_id":"ce4bgs12rcd13ifvqcag","pricing_plan_id":"cebpf4jnsgd1na2vs0mg"},{"bike_id":"6f31a7fb-bc63-4a68-b226-5d3c23f0d0e0","system_id":"levelo_inurba_marseille","lat":43.2964,"lon":5.40594,"is_reserved":false,"is_disabled":false,"rental_uris":{"android":"levelo://app?vid=6f31a7fb-bc63-4a68-b226-5d3c23f0d0e0","ios":"levelo://app?vid=6f31a7fb-bc63-4a68-b226-5d3c23f0d0e0"},"vehicle_type_id":"4","last_reported":1753179154,"current_range_meters":24000,"station_id":"ce4bh0h2rcd13ifvqd60","pricing_plan_id":"cebpf4jnsgd1na2vs0mg"},{"bike_id":"89e71dce-998d-45ce-b8c2-90e7911426a3","system_id":"levelo_inurba_marseille","lat":43.24665,"lon":5.38155,"is_reserved":false,"is_disabled":false,"rental_uris":{"android":"levelo://app?vid=89e71dce-998d-45ce-b8c2-90e7911426a3","ios":"levelo://app?vid=89e71dce-998d-45ce-b8c2-90e7911426a3"},"vehicle_type_id":"4","last_reported":1753179154,"current_range_meters":24000,"station_id":"ce4bhih2rcd13ifvqfr0","pricing_plan_id":"cebpf4jnsgd1na2vs0mg"},{"bike_id":"b3894e90-3454-46f0-abaf-4f33ab0f2bae","system_id":"levelo_inurba_marseille","lat":43.31221,"lon":5.38198,"is_reserved":false,"is_disabled":false,"rental_uris":{"android":"levelo://app?vid=b3894e90-3454-46f0-abaf-4f33ab0f2bae","ios":"levelo://app?vid=b3894e90-3454-46f0-abaf-4f33ab0f2bae"},"vehicle_type_id":"4","last_reported":1753179154,"current_range_meters":24000,"station_id":"","pricing_plan_id":"cebpf4jnsgd1na2vs0mg"},{"bike_id":"4c38286a-37a0-4196-b8da-55cd53149000","system_id":"levelo_inurba_marseille","lat":43.26208,"lon":5.37916,"is_reserved":false,"is_disabled":false,"rental_uris":{"android":"levelo://app?vid=4c38286a-37a0-4196-b8da-55cd53149000","ios":"levelo://app?vid=4c38286a-37a0-4196-b8da-55cd53149000"},"vehicle_type_id":"4","last_reported":1753179154,"current_range_meters":24000,"station_id":"ce4bhjp2rcd13ifvqg90","pricing_plan_id":"cebpf4jnsgd1na2vs0mg"},{"bike_id":"88b2ddb6-b81f-4eeb-8dbb-78fd40857ed2","system_id":"levelo_inurba_marseille","lat":43.32482,"lon":5.36613,"is_reserved":false,"is_disabled":false,"rental_uris":{"android":"levelo://app?vid=88b2ddb6-b81f-4eeb-8dbb-78fd40857ed2","ios":"levelo://app?vid=88b2ddb6-b81f-4eeb-8dbb-78fd40857ed2"},"vehicle_type_id":"4","last_reported":1753179154,"current_range_meters":24000,"station_id":"ce4bhs12rcd13ifvqhvg","pricing_plan_id":"cebpf4jnsgd1na2vs0mg"},{"bike_id":"f95aa378-f3d2-40ca-98e3-455ebf3c937c","system_id":"levelo_inurba_marseille","lat":43.25089,"lon":5.39527,"is_reserved":false,"is_disabled":false,"rental_uris":{"android":"levelo://app?vid=f95aa378-f3d2-40ca-98e3-455ebf3c937c","ios":"levelo://app?vid=f95aa378-f3d2-40ca-98e3-455ebf3c937c"},"vehicle_type_id":"4","last_reported":1753179154,"current_range_meters":24000,"station_id":"ce4bhm12rcd13ifvqgkg","pricing_plan_id":"cebpf4jnsgd1na2vs0mg"},{"bike_id":"8b274185-0ab0-406b-8a56-8b82d3ac781e","system_id":"levelo_inurba_marseille","lat":43.337444,"lon":5.374475,"is_reserved":false,"is_disabled":false,"rental_uris":{"android":"levelo://app?vid=8b274185-0ab0-406b-8a56-8b82d3ac781e","ios":"levelo://app?vid=8b274185-0ab0-406b-8a56-8b82d3ac781e"},