{"last_updated":1700240770,"ttl":30,"version":"2.2","data":{"bikes":[{"bike_id":"ef613b37-5def-4151-b82e-c222cc6ad90d","system_id":"levelo_inurba_marseille","lat":43.312239,"lon":5.368562,"is_reserved":false,"is_disabled":false,"rental_uris":{"android":"levelo://app?vid=ef613b37-5def-4151-b82e-c222cc6ad90d","ios":"levelo://app?vid=ef613b37-5def-4151-b82e-c222cc6ad90d"},"vehicle_type_id":"4","last_reported":1700240770,"current_range_meters":29200,"station_id":"ce4bgl92rcd13ifvqbq0","pricing_plan_id":"free"},{"bike_id":"8344f39c-0f61-4c61-b2cf-549f45ac831e","system_id":"levelo_inurba_marseille","lat":43.312239,"lon":5.368562,"is_reserved":false,"is_disabled":false,"rental_uris":{"android":"levelo://app?vid=8344f39c-0f61-4c61-b2cf-549f45ac831e","ios":"levelo://app?vid=8344f39c-0f61-4c61-b2cf-549f45ac831e"},"vehicle_type_id":"4","last_reported":1700240770,"current_range_meters":25600,"station_id":"ce4bgl92rcd13ifvqbq0","pricing_plan_id":"free"},{"bike_id":"2cf6e265-3337-44e5-9406-b9e03fe2921c","system_id":"levelo_inurba_marseille","lat":43.312239,"lon":5.368562,"is_reserved":false,"is_disabled":false,"rental_uris":{"android":"levelo://app?vid=2cf6e265-3337-44e5-9406-b9e03fe2921c","ios":"levelo://app?vid=2cf6e265-3337-44e5-9406-b9e03fe2921c"},"vehicle_type_id":"4","last_reported":1700240770,"current_range_meters":1600,"station_id":"ce4bgl92rcd13ifvqbq0","pricing_plan_id":"free"},{"bike_id":"1e5139b1-df54-42d6-984e-4ab3793a23f4","system_id":"levelo_inurba_marseille","lat":43.312239,"lon":5.368562,"is_reserved":false,"is_disabled":false,"rental_uris":{"android":"levelo://app?vid=1e5139b1-df54-42d6-984e-4ab3793a23f4","ios":"levelo://app?vid=1e5139b1-df54-42d6-984e-4ab3793a23f4"},"vehicle_type_id":"4","last_reported":1700240770,"current_range_meters":20000,"station_id":"ce4bgl92rcd13ifvqbq0","pricing_plan_id":"free"},{"bike_id":"943dfc2f-eec4-44b8-ae3a-bf8f278b58c3","system_id":"levelo_inurba_marseille","lat":43.311509,"lon":5.368939,"is_reserved":false,"is_disabled":false,"rental_uris":{"android":"levelo://app?vid=943dfc2f-eec4-44b8-ae3a-bf8f278b58c3","ios":"levelo://app?vid=943dfc2f-eec4-44b8-ae3a-bf8f278b58c3"},"vehicle_type_id":"4","last_reported":1700240770,"current_range_meters":4400,"station_id":"","pricing_plan_id":"free"},{"bike_id":"ab39bf09-93af-4045-a11d-8edfdacb45cd","system_id":"levelo_inurba_marseille","lat":43.309076,"lon":5.368465,"is_reserved":false,"is_disabled":false,"rental_uris":{"android":"levelo://app?vid=ab39bf09-93af-4045-a11d-8edfdacb45cd","ios":"levelo://app?vid=ab39bf09-93af-4045-a11d-8edfdacb45cd"},"vehicle_type_id":"4","last_reported":1700240770,"current_range_meters":26000,"station_id":"ce4bgn92rcd13ifvqbvg","pricing_plan_id":"free"},{"bike_id":"9bf4dedf-8b35-4a58-bb9a-b4d6b3916560","system_id":"levelo_inurba_marseille","lat":43.309076,"lon":5.368465,"is_reserved":false,"is_disabled":false,"rental_uris":{"android":"levelo://app?vid=9bf4dedf-8b35-4a58-bb9a-b4d6b3916560","ios":"levelo://app?vid=9bf4dedf-8b35-4a58-bb9a-b4d6b3916560"},"vehicle_type_id":"4","last_reported":1700240770,"current_range_meters":1200,"station_id":"ce4bgn92rcd13ifvqbvg","pricing_plan_id":"free"},{"bike_id":"636a0f57-3f17-44ca-bed3-5a8d94f7945d","system_id":"levelo_inurba_marseille","lat":43.309076,"lon":5.368465,"is_reserved":false,"is_disabled":false,"rental_uris":{"android":"levelo://app?vid=636a0f57-3f17-44ca-bed3-5a8d94f7945d","ios":"levelo://app?vid=636a0f57-3f17-44ca-bed3-5a8d94f7945d"},"vehicle_type_id":"4","last_reported":1700240770,"current_range_meters":28800,"station_id":"ce4bgn92rcd13ifvqbvg","pricing_plan_id":"free"},{"bike_id":"2c1eb45d-507a-464d-8c08-4e72e111df37","system_id":"levelo_inurba_marseille","lat":43.31494,"lon":5.37314,"is_reserved":false,"is_disabled":false,"rental_uris":{"android":"levelo://app?vid=2c1eb45d-507a-464d-8c08-4e72e111df37","ios":"levelo://app?vid=2c1eb45d-507a-464d-8c08-4e72e111df37"},"vehicle_type_id":"4","last_reported":1700240770,"current_range_meters":0,"station_id":"ce4bgt12rcd13ifvqcd0","pricing_plan_id":"free"},{"bike_id":"981dd138-ade2-4320-ae3d-8e3fe29bb2de","system_id":"levelo_inurba_marseille","lat":43.31493,"lon":5.37315,"is_reserved":false,"is_disabled":false,"rental_uris":{"android":"levelo://app?vid=981dd138-ade2-4320-ae3d-8e3fe29bb2de","ios":"levelo://app?vid=981dd138-ade2-4320-ae3d-8e3fe29bb2de"},"vehicle_type_id":"4","last_reported":1700240770,"current_range_meters":0,"station_id":"","pricing_plan_id":"free"},{"bike_id":"fa307a40-195c-4bf5-8e10-b7031a4979bf","system_id":"levelo_inurba_marseille","lat":43.309039,"lon":5.371797,"is_reserved":false,"is_disabled":false,"rental_uris":{"android":"levelo://app?vid=fa307a40-195c-4bf5-8e10-b7031a4979bf","ios":"levelo://app?vid=fa307a40-195c-4bf5-8e10-b7031a4979bf"},"vehicle_type_id":"4","last_reported":1700240770,"current_range_meters":31200,"station_id":"ce4bguh2rcd13ifvqckg","pricing_plan_id":"free"},{"bike_id":"3475d204-43b6-43d9-b615-ca1d0d58200e","system_id":"levelo_inurba_marseille","lat":43.30679,"lon":5.3679,"is_reserved":false,"is_disabled":false,"rental_uris":{"android":"levelo://app?vid=3475d204-43b6-43d9-b615-ca1d0d58200e","ios":"levelo://app?vid=3475d204-43b6-43d9-b615-ca1d0d58200e"},"vehicle_type_id":"4","last_reported":1700240770,"current_range_meters":18000,"station_id":"","pricing_plan_id":"free"},{"bike_id":"011c4587-e336-4835-b1e1-41c446a2feb2","system_id":"levelo_inurba_marseille","lat":43.31398,"lon":5.37522,"is_reserved":false,"is_disabled":false,"rental_uris":{"android":"levelo://app?vid=011c4587-e336-4835-b1e1-41c446a2feb2","ios":"levelo://app?vid=011c4587-e336-4835-b1e1-41c446a2feb2"},"vehicle_type_id":"4","last_reported":1700240770,"current_range_meters":17600,"station_id":"","pricing_plan_id":"free"},{"bike_id":"59f35461-4401-4453-8377-fc9668d38c72","system_id":"levelo_inurba_marseille","lat":43.305712,"lon":5.365641,"is_reserved":false,"is_disabled":false,"rental_uris":{"android":"levelo://app?vid=59f35461-4401-4453-8377-fc9668d38c72","ios":"levelo://app?vid=59f35461-4401-4453-8377-fc9668d38c72"},"vehicle_type_id":"4","last_reported":1700240770,"current_range_meters":15600,"station_id":"ce4bgs12rcd13ifvqcag","pricing_plan_id":"free"},{"bike_id":"1c693592-d0eb-4bb8-ac90-e427b3873a11","system_id":"levelo_inurba_marseille","lat":43.305368,"lon":5.367343,"is_reserved":false,"is_disabled":false,"rental_uris":{"android":"levelo://app?vid=1c693592-d0eb-4bb8-ac90-e427b3873a11","ios":"levelo://app?vid=1c693592-d0eb-4bb8-ac90-e427b3873a11"},"vehicle_type_id":"4","last_reported":1700240770,"current_range_meters":23200,"station_id":"ce4bgrp2rcd13ifvqc9g","pricing_plan_id":"free"},{"bike_id":"93bb2c36-0b3e-4fff-8299-14c394742ef5","system_id":"levelo_inurba_marseille","lat":43.305989,"lon":5.37225,"is_reserved":false,"is_disabled":false,"rental_uris":{"android":"levelo://app?vid=93bb2c36-0b3e-4fff-8299-14c394742ef5","ios":"levelo://app?vid=93bb2c36-0b3e-4fff-8299-14c394742ef5"},"vehicle_type_id":"4","last_reported":1700240770,"current_range_meters":4400,"station_id":"ce4bgqh2rcd13ifvqc4g","pricing_plan_id":"free"},{"bike_id":"cd670016-7dc6-4e27-a3d9-eecec8c2a920","system_id":"levelo_inurba_marseille","lat":43.311131,"lon":5.377651,"is_reserved":false,"is_disabled":false,"rental_uris":{"android":"levelo://app?vid=cd670016-7dc6-4e27-a3d9-eecec8c2a920","ios":"levelo://app?vid=cd670016-7dc6-4e27-a3d9-eecec8c2a920"},"vehicle_type_id":"4","last_reported":1700240770,"current_range_meters":8800,"station_id":"ce4bgt92rcd13ifvqcg0","pricing_plan_id":"free"},{"bike_id":"dcbf9c93-0758-41cf-8699-4ede01d69428","system_id":"levelo_inurba_marseille","lat":43.308173,"lon":5.376554,"is_reserved":false,"is_disabled":false,"rental_uris":{"android":"levelo://app?vid=dcbf9c93-0758-41cf-8699-4ede01d69428","ios":"levelo://app?vid=dcbf9c93-0758-41cf-8699-4ede01d69428"},"vehicle_type_id":"4","last_reported":1700240770,"current_range_meters":20000,"station_id":"ce4bgv92rcd13ifvqcq0","pricing_plan_id":"free"},{"bike_id":"550a8815-100b-42ed-a8d3-d917841e3ee5","system_id":"levelo_inurba_marseille","lat":43.31246,"lon":5.37864,"is_reserved":false,"is_disabled":false,"rental_uris":{"android":"levelo://app?vid=550a8815-100b-42ed-a8d3-d917841e3ee5","ios":"levelo://app?vid=550a8815-100b-42ed-a8d3-d917841e3ee5"},"vehicle_type_id":"4","last_reported":1700240770,"current_range_meters":29600,"station_id":"","pricing_plan_id":"free"},{"bike_id":"57053367-5328-4d78-8951-737f56b37ed9","system_id":"levelo_inurba_marseille","lat":43.319924,"lon":5.373389,"is_reserved":false,"is_disabled":false,"rental_uris":{"android":"levelo://app?vid=57053367-5328-4d78-8951-737f56b37ed9","ios":"levelo://app?vid=57053367-5328-4d78-8951-737f56b37ed9"},"vehicle_type_id":"4","last_reported":1700240770,"current_range_meters":0,"station_id":"","pricing_plan_id":"free"},{"bike_id":"14453bc6-820b-496a-91c5-bd1a7f559527","system_id":"levelo_inurba_marseille","lat":43.307867,"lon":5.376683,"is_reserved":false,"is_disabled":false,"rental_uris":{"android":"levelo://app?vid=14453bc6-820b-496a-91c5-bd1a7f559527","ios":"levelo://app?vid=14453bc6-820b-496a-91c5-bd1a7f559527"},"vehicle_type_id":"4","last_reported":1700240770,"current_range_meters":15200,"station_id":"ce4bgv92rcd13ifvqcq0","pricing_plan_id":"free"},{"bike_id":"9662496e-a4e8-47f3-8bbf-9aefa8c231cd","system_id":"levelo_inurba_marseille","lat":43.30304,"lon":5.368987,"is_reserved":false,"is_disabled":false,"rental_uris":{"android":"levelo://app?vid=9662496e-a4e8-47f3-8bbf-9aefa8c231cd","ios":"levelo://app?vid=9662496e-a4e8-47f3-8bbf-9aefa8c231cd"},"vehicle_type_id":"4","last_reported":1700240770,"current_range_meters":0,"station_id":"ce4bgqh2rcd13ifvqc5g","pricing_plan_id":"free"},{"bike_id":"f8ce9abc-cde1-4627-af7f-479ae283301e","system_id":"levelo_inurba_marseille","lat":43.321804,"lon":5.375006,"is_reserved":false,"is_disabled":false,"rental_uris":{"android":"levelo://app?vid=f8ce9abc-cde1-4627-af7f-479ae283301e","ios":"levelo://app?vid=f8ce9abc-cde1-4627-af7f-479ae283301e"},"vehicle_type_id":"4","last_reported":1700240770,"current_range_meters":27200,"station_id":"","pricing_plan_id":"free"},{"bike_id":"e47d6bab-f27b-474f-af4f-758f98605269","system_id":"levelo_inurba_marseille","lat":43.324771,"lon":5.36557,"is_reserved":false,"is_disabled":false,"rental_uris":{"android":"levelo://app?vid=e47d6bab-f27b-474f-af4f-758f98605269","ios":"levelo://app?vid=e47d6bab-f27b-474f-af4f-758f98605269"},"vehicle_type_id":"4","last_reported":1700240770,"current_range_meters":13200,"station_id":"ce4bhs12rcd13ifvqhvg","pricing_plan_id":"free"},{"bike_id":"ef22b23f-d487-4fec-956a-406b6bb23775","system_id":"levelo_inurba_marseille","lat":43.301429,"lon":5.37413,"is_reserved":false,"is_disabled":false,"rental_uris":{"android":"levelo://app?vid=ef22b23f-d487-4fec-956a-406b6bb23775","ios":"levelo://app?vid=ef22b23f-d487-4fec-956a-406b6bb23775"},"vehicle_type_id":"4","last_reported":1700240770,"current_range_meters":22000,"station_id":"ce4bgs92rcd13ifvqcc0","pricing_plan_id":"free"},{"bike_id":"a23f70d2-6c9c-4262-b611-fe097408e277","system_id":"levelo_inurba_marseille","lat":43.301429,"lon":5.37413,"is_reserved":false,"is_disabled":false,"rental_uris":{"android":"levelo://app?vid=a23f70d2-6c9c-4262-b611-fe097408e277","ios":"levelo://app?vid=a23f70d2-6c9c-4262-b611-fe097408e277"},"vehicle_type_id":"4","last_reported":1700240770,"current_range_meters":0,"station_id":"ce4bgs92rcd13ifvqcc0","pricing_plan_id":"free"},{"bike_id":"b2ac0036-0e42-43e3-8104-c2e024406b33","system_id":"levelo_inurba_marseille","lat":43.31639,"lon":5.38337,"is_reserved":false,"is_disabled":false,"rental_uris":{"android":"levelo://app?vid=b2ac0036-0e42-43e3-8104-c2e024406b33","ios":"levelo://app?vid=b2ac0036-0e42-43e3-8104-c2e024406b33"},"vehicle_type_id":"4","last_reported":1700240770,"current_range_meters":30000,"station_id":"","pricing_plan_id":"free"},{"bike_id":"a51fb8ce-e727-4240-99ff-68c162480733","system_id":"levelo_inurba_marseille","lat":43.31988,"lon":5.38144,"is_reserved":false,"is_disabled":false,"rental_uris":{"android":"levelo://app?vid=a51fb8ce-e727-4240-99ff-68c162480733","ios":"levelo://app?vid=a51fb8ce-e727-4240-99ff-68c162480733"},"vehicle_type_id":"4","last_reported":1700240770,"current_range_meters":19200,"station_id":"ce4bhr12rcd13ifvqhpg","pricing_plan_id":"free"},{"bike_id":"5a978e94-138b-4f32-a9ff-dcfee9fe3b81","system_id":"levelo_inurba_marseille","lat":43.319877,"lon":5.381563,"is_reserved":false,"is_disabled":false,"rental_uris":{"android":"levelo://app?vid=5a978e94-138b-4f32-a9ff-dcfee9fe3b81","ios":"levelo://app?vid=5a978e94-138b-4f32-a9ff-dcfee9fe3b81"},"vehicle_type_id":"4","last_reported":1700240770,"current_range_meters":28800,"station_id":"ce4bhr12rcd13ifvqhpg","pricing_plan_id":"free"},{"bike_id":"f13d199b-85d1-49e6-9d75-7bc9a83a5af7","system_id":"levelo_inurba_marseille","lat":43.31145,"lon":5.3847,"is_reserved":false,"is_disabled":false,"rental_uris":{"android":"levelo://app?vid=f13d199b-85d1-49e6-9d75-7bc9a83a5af7","ios":"levelo://app?vid=f13d199b-85d1-49e6-9d75-7bc9a83a5af7"},"vehicle_type_id":"4","last_reported":1700240770,"current_range_meters":21200,"station_id":"","pricing_plan_id":"free"},{"bike_id":"11754276-88a6-43af-a931-81bf0ac1e44f","system_id":"levelo_inurba_marseille","lat":43.313637,"lon":5.384947,"is_reserved":false,"is_disabled":false,"rental_uris":{"android":"levelo://app?vid=11754276-88a6-43af-a931-81bf0ac1e44f","ios":"levelo://app?vid=11754276-88a6-43af-a931-81bf0ac1e44f"},"vehicle_type_id":"4","last_reported":1700240770,"current_range_meters":5600,"station_id":"ce4bgt92rcd13ifvqcf0","pricing_plan_id":"free"},{"bike_id":"59b19799-4a79-4327-86a8-3842cb4dd662","system_id":"levelo_inurba_marseille","lat":43.314303,"lon":5.385559,"is_reserved":false,"is_disabled":false,"rental_uris":{"android":"levelo://app?vid=59b19799-4a79-4327-86a8-3842cb4dd662","ios":"levelo://app?vid=59b19799-4a79-4327-86a8-3842cb4dd662"},"vehicle_type_id":"4","last_reported":1700240770,"current_range_meters":24400,"station_id":"","pricing_plan_id":"free"},{"bike_id":"b9ad49ef-8556-48e5-9663-b30470bab2b3","system_id":"levelo_inurba_marseille","lat":43.301939,"lon":5.366286,"is_reserved":false,"is_disabled":false,"rental_uris":{"android":"levelo://app?vid=b9ad49ef-8556-48e5-9663-b30470bab2b3","ios":"levelo://app?vid=b9ad49ef-8556-48e5-9663-b30470bab2b3"},"vehicle_type_id":"4","last_reported":1700240770,"current_range_meters":18400,"station_id":"ce4bgrh2rcd13ifvqc8g","pricing_plan_id":"free"},{"bike_id":"66963c79-9023-4e40-bef4-709c1b04f449","system_id":"levelo_inurba_marseille","lat":43.311455,"lon":5.38677,"is_reserved":false,"is_disabled":false,"rental_uris":{"android":"levelo://app?vid=66963c79-9023-4e40-bef4-709c1b04f449","ios":"levelo://app?vid=66963c79-9023-4e40-bef4-709c1b04f449"},"vehicle_type_id":"4","last_reported":1700240770,"current_range_meters":7200,"station_id":"ce4bgv12rcd13ifvqcp0","pricing_plan_id":"free"},{"bike_id":"c2692934-8033-4d7f-820b-4c672e5954bc","system_id":"levelo_inurba_marseille","lat":43.305364,"lon":5.384119,"is_reserved":false,"is_disabled":false,"rental_uris":{"android":"levelo://app?vid=c2692934-8033-4d7f-820b-4c672e5954bc","ios":"levelo://app?vid=c2692934-8033-4d7f-820b-4c672e5954bc"},"vehicle_type_id":"4","last_reported":1700240770,"current_range_meters":0,"station_id":"ce4bgg92rcd13ifvqb30","pricing_plan_id":"free"},{"bike_id":"5da9dea2-bd9f-4746-b637-56e44ea9e587","system_id":"levelo_inurba_marseille","lat":43.298489,"lon":5.362942,"is_reserved":false,"is_disabled":false,"rental_uris":{"android":"levelo://app?vid=5da9dea2-bd9f-4746-b637-56e44ea9e587","ios":"levelo://app?vid=5da9dea2-bd9f-4746-b637-56e44ea9e587"},"vehicle_type_id":"4","last_reported":1700240770,"current_range_meters":800,"station_id":"","pricing_plan_id":"free"},{"bike_id":"b5c01249-7a0e-41ac-b381-9e2efa52ef8f","system_id":"levelo_inurba_marseille","lat":43.322872,"lon":5.382756,"is_reserved":false,"is_disabled":false,"rental_uris":{"android":"levelo://app?vid=b5c01249-7a0e-41ac-b381-9e2efa52ef8f","ios":"levelo://app?vid=b5c01249-7a0e-41ac-b381-9e2efa52ef8f"},"vehicle_type_id":"4","last_reported":1700240770,"current_range_meters":6800,"station_id":"ce4bhr12rcd13ifvqhqg","pricing_plan_id":"free"},{"bike_id":"105414c5-6e50-41a2-a49a-9ea50ceafc15","system_id":"levelo_inurba_marseille","lat":43.298753,"lon":5.375763,"is_reserved":false,"is_disabled":false,"rental_uris":{"android":"levelo://app?vid=105414c5-6e50-41a2-a49a-9ea50ceafc15","ios":"levelo://app?vid=105414c5-6e50-41a2-a49a-9ea50ceafc15"},"vehicle_type_id":"4","last_reported":1700240770,"current_range_meters":24800,"station_id":"","pricing_plan_id":"free"},{"bike_id":"6c692390-e9ac-47ff-99e3-ab5d50c12c3f","system_id":"levelo_inurba_marseille","lat":43.328371,"lon":5.366909,"is_reserved":false,"is_disabled":false,"rental_uris":{"android":"levelo://app?vid=6c692390-e9ac-47ff-99e3-ab5d50c12c3f","ios":"levelo://app?vid=6c692390-e9ac-47ff-99e3-ab5d50c12c3f"},"vehicle_type_id":"4","last_reported":1700240770,"current_range_meters":16400,"station_id":"ce4bhs92rcd13ifvqi0g","pricing_plan_id":"free"},{"bike_id":"49316c64-f33b-4a7a-bb29-990ea4b6fccf","system_id":"levelo_inurba_marseille","lat":43.328371,"lon":5.366909,"is_reserved":false,"is_disabled":false,"rental_uris":{"android":"levelo://app?vid=49316c64-f33b-4a7a-bb29-990ea4b6fccf","ios":"levelo://app?vid=49316c64-f33b-4a7a-bb29-990ea4b6fccf"},"vehicle_type_id":"4","last_reported":1700240770,"current_range_meters":23600,"station_id":"ce4bhs92rcd13ifvqi0g","pricing_plan_id":"free"},{"bike_id":"c168a343-ff43-4b39-8fec-c30fcd57f6b8","system_id":"levelo_inurba_marseille","lat":43.32829,"lon":5.36689,"is_reserved":false,"is_disabled":false,"rental_uris":{"android":"levelo://app?vid=c168a343-ff43-4b39-8fec-c30fcd57f6b8","ios":"levelo://app?vid=c168a343-ff43-4b39-8fec-c30fcd57f6b8"},"vehicle_type_id":"4","last_reported":1700240770,"current_range_meters":7200,"station_id":"","pricing_plan_id":"free"},{"bike_id":"b7204335-84b6-423a-8ada-ae0bda25339c","system_id":"levelo_inurba_marseille","lat":43.29708,"lon":5.36597,"is_reserved":false,"is_disabled":false,"rental_uris":{"android":"levelo://app?vid=b7204335-84b6-423a-8ada-ae0bda25339c","ios":"levelo://app?vid=b7204335-84b6-423a-8ada-ae0bda25339c"},"vehicle_type_id":"4","last_reported":1700240770,"current_range_meters":0,"station_id":"ce4bgn12rcd13ifvqbt0","pricing_plan_id":"free"},{"bike_id":"0e0ce45e-f9bb-4f2a-a3b6-86be428901b6","system_id":"levelo_inurba_marseille","lat":43.316541,"lon":5.387867,"is_reserved":false,"is_disabled":false,"rental_uris":{"android":"levelo://app?vid=0e0ce45e-f9bb-4f2a-a3b6-86be428901b6","ios":"levelo://app?vid=0e0ce45e-f9bb-4f2a-a3b6-86be428901b6"},"vehicle_type_id":"4","last_reported":1700240770,"current_range_meters":21600,"station_id":"","pricing_plan_id":"free"},{"bike_id":"d447991a-59b4-4778-a190-7d2b0920a414","system_id":"levelo_inurba_marseille","lat":43.32215,"lon":5.38613,"is_reserved":false,"is_disabled":false,"rental_uris":{"android":"levelo://app?vid=d447991a-59b4-4778-a190-7d2b0920a414","ios":"levelo://app?vid=d447991a-59b4-4778-a190-7d2b0920a414"},"vehicle_type_id":"4","last_reported":1700240770,"current_range_meters":0,"station_id":"","pricing_plan_id":"free"},{"bike_id":"bdfd8ca1-c220-4701-9c07-18fd1e419c0b","system_id":"levelo_inurba_marseille","lat":43.299028,"lon":5.381509,"is_reserved":false,"is_disabled":false,"rental_uris":{"android":"levelo://app?vid=bdfd8ca1-c220-4701-9c07-18fd1e419c0b","ios":"levelo://app?vid=bdfd8ca1-c220-4701-9c07-18fd1e419c0b"},"vehicle_type_id":"4","last_reported":1700240770,"current_range_meters":18400,"station_id":"ce4bgj12rcd13ifvqbc0","pricing_plan_id":"free"},{"bike_id":"31bed334-922c-4e80-85d0-7299dd9b717b","system_id":"levelo_inurba_marseille","lat":43.309589,"lon":5.390258,"is_reserved":false,"is_disabled":false,"rental_uris":{"android":"levelo://app?vid=31bed334-922c-4e80-85d0-7299dd9b717b","ios":"levelo://app?vid=31bed334-922c-4e80-85d0-7299dd9b717b"},"vehicle_type_id":"4","last_reported":1700240770,"current_range_meters":0,"station_id":"ce4bgup2rcd13ifvqco0","pricing_plan_id":"free"},{"bike_id":"a51b13ed-8703-45c2-853e-43dc99dc5aa9","system_id":"levelo_inurba_marseille","lat":43.29718,"lon":5.37745,"is_reserved":false,"is_disabled":false,"rental_uris":{"android":"levelo://app?vid=a51b13ed-8703-45c2-853e-43dc99dc5aa9","ios":"levelo://app?vid=a51b13ed-8703-45c2-853e-43dc99dc5aa9"},"vehicle_type_id":"4","last_reported":1700240770,"current_range_meters":5600,"station_id":"","pricing_plan_id":"free"},{"bike_id":"d2dced52-b7fb-4d11-ad33-56be009e3364","system_id":"levelo_inurba_marseille","lat":43.321847,"lon":5.388263,"is_reserved":false,"is_disabled":false,"rental_uris":{"android":"levelo://app?vid=d2dced52-b7fb-4d11-ad33-56be009e3364","ios":"levelo://app?vid=d2dced52-b7fb-4d11-ad33-56be009e3364"},"vehicle_type_id":"4","last_reported":1700240770,"current_range_meters":22000,"station_id":"","pricing_plan_id":"free"},{"bike_id":"69ed195e-e9c8-4d5c-a184-9b9c3362f8f2","system_id":"levelo_inurba_marseille","lat":43.30441,"lon":5.38889,"is_reserved":false,"is_disabled":false,"rental_uris":{"android":"levelo://app?vid=69ed195e-e9c8-4d5c-a184-9b9c3362f8f2","ios":"levelo://app?vid=69ed195e-e9c8-4d5c-a184-9b9c3362f8f2"},"vehicle_type_id":"4","last_reported":1700240770,"current_range_meters":26400,"station_id":"ce4bgk12rcd13ifvqbi0","pricing_plan_id":"free"},{"bike_id":"67ffd28a-0325-489b-a10f-d90500122751","system_id":"levelo_inurba_marseille","lat":43.295748,"lon":5.37522,"is_reserved":false,"is_disabled":false,"rental_uris":{"android":"levelo://app?vid=67ffd28a-0325-489b-a10f-d90500122751","ios":"levelo://app?vid=67ffd28a-0325-489b-a10f-d90500122751"},"vehicle_type_id":"4","last_reported":1700240770,"current_range_meters":31200,"station_id":"ce4bgh92rcd13ifvqb50","pricing_plan_id":"free"},{"bike_id":"e10ff6f0-a841-47a4-af5b-3f2c196482f7","system_id":"levelo_inurba_marseille","lat":43.304278,"lon":5.388868,"is_reserved":false,"is_disabled":false,"rental_uris":{"android":"levelo://app?vid=e10ff6f0-a841-47a4-af5b-3f2c196482f7","ios":"levelo://app?vid=e10ff6f0-a841-47a4-af5b-3f2c196482f7"},"vehicle_type_id":"4","last_reported":1700240770,"current_range_meters":2400,"station_id":"ce4bgk12rcd13ifvqbi0","pricing_plan_id":"free"},{"bike_id":"ae244c78-9405-422f-8663-85aa63777249","system_id":"levelo_inurba_marseille","lat":43.296263,"lon":5.377094,"is_reserved":false,"is_disabled":false,"rental_uris":{"android":"levelo://app?vid=ae244c78-9405-422f-8663-85aa63777249","ios":"levelo://app?vid=ae244c78-9405-422f-8663-85aa63777249"},"vehicle_type_id":"4","last_reported":1700240770,"current_range_meters":29600,"station_id":"ce4bgi92rcd13ifvqb90","pricing_plan_id":"free"},{"bike_id":"3e3e92fe-39b7-4933-99ff-3747b28b5d69","system_id":"levelo_inurba_marseille","lat":43.328154,"lon":5.380034,"is_reserved":false,"is_disabled":false,"rental_uris":{"android":"levelo://app?vid=3e3e92fe-39b7-4933-99ff-3747b28b5d69","ios":"levelo://app?vid=3e3e92fe-39b7-4933-99ff-3747b28b5d69"},"vehicle_type_id":"4","last_reported":1700240770,"current_range_meters":13200,"station_id":"","pricing_plan_id":"free"},{"bike_id":"cffc87ac-53a6-40b5-ac72-1beb841b608a","system_id":"levelo_inurba_marseille","lat":43.299707,"lon":5.384859,"is_reserved":false,"is_disabled":false,"rental_uris":{"android":"levelo://app?vid=cffc87ac-53a6-40b5-ac72-1beb841b608a","ios":"levelo://app?vid=cffc87ac-53a6-40b5-ac72-1beb841b608a"},"vehicle_type_id":"4","last_reported":1700240770,"current_range_meters":0,"station_id":"ce4bgj92rcd13ifvqbd0","pricing_plan_id":"free"},{"bike_id":"610a85ac-79d5-4aec-8fc6-31f0780ab701","system_id":"levelo_inurba_marseille","lat":43.29602,"lon":5.381084,"is_reserved":false,"is_disabled":false,"rental_uris":{"android":"levelo://app?vid=610a85ac-79d5-4aec-8fc6-31f0780ab701","ios":"levelo://app?vid=610a85ac-79d5-4aec-8fc6-31f0780ab701"},"vehicle_type_id":"4","last_reported":1700240770,"current_range_meters":0,"station_id":"ce4bgl12rcd13ifvqbo0","pricing_plan_id":"free"},{"bike_id":"024be787-f5fe-4168-af1c-ad5975a9f7dc","system_id":"levelo_inurba_marseille","lat":43.29601,"lon":5.381084,"is_reserved":false,"is_disabled":false,"rental_uris":{"android":"levelo://app?vid=024be787-f5fe-4168-af1c-ad5975a9f7dc","ios":"levelo://app?vid=024be787-f5fe-4168-af1c-ad5975a9f7dc"},"vehicle_type_id":"4","last_reported":1700240770,"current_range_meters":2000,"station_id":"ce4bgl12rcd13ifvqbo0","pricing_plan_id":"free"},{"bike_id":"40245ab3-6b70-4783-a92a-7879ab9be879","system_id":"levelo_inurba_marseille","lat":43.293259,"lon":5.371586,"is_reserved":false,"is_disabled":false,"rental_uris":{"android":"levelo://app?vid=40245ab3-6b70-4783-a92a-7879ab9be879","ios":"levelo://app?vid=40245ab3-6b70-4783-a92a-7879ab9be879"},"vehicle_type_id":"4","last_reported":1700240770,"current_range_meters":0,"station_id":"ce4bgh92rcd13ifvqb40","pricing_plan_id":"free"},{"bike_id":"250eb35b-59b7-419c-b08c-682d91694cf8","system_id":"levelo_inurba_marseille","lat":43.293259,"lon":5.371586,"is_reserved":false,"is_disabled":false,"rental_uris":{"android":"levelo://app?vid=250eb35b-59b7-419c-b08c-682d91694cf8","ios":"levelo://app?vid=250eb35b-59b7-419c-b08c-682d91694cf8"},"vehicle_type_id":"4","last_reported":1700240770,"current_range_meters":0,"station_id":"ce4bgh92rcd13ifvqb40","pricing_plan_id":"free"},{"bike_id":"72790c6d-13d4-4507-9225-e0e21609d353","system_id":"levelo_inurba_marseille","lat":43.299857,"lon":5.388027,"is_reserved":false,"is_disabled":false,"rental_uris":{"android":"levelo://app?vid=72790c6d-13d4-4507-9225-e0e21609d353","ios":"levelo://app?vid=72790c6d-13d4-4507-9225-e0e21609d353"},"vehicle_type_id":"4","last_reported":1700240770,"current_range_meters":0,"station_id":"","pricing_plan_id":"free"},{"bike_id":"1116d971-ede0-42be-998f-5b50db75d513","system_id":"levelo_inurba_marseille","lat":43.292749,"lon":5.368402,"is_reserved":false,"is_disabled":false,"rental_uris":{"android":"levelo://app?vid=1116d971-ede0-42be-998f-5b50db75d513","ios":"levelo://app?vid=1116d971-ede0-42be-998f-5b50db75d513"},"vehicle_type_id":"4","last_reported":1700240770,"current_range_meters":0,"station_id":"ce4bhbp2rcd13ifvqesg","pricing_plan_id":"free"},{"bike_id":"e145a3f7-00ac-4f8f-bfe5-435bc38ccaf7","system_id":"levelo_inurba_marseille","lat":43.29236,"lon":5.36507,"is_reserved":false,"is_disabled":false,"rental_uris":{"android":"levelo://app?vid=e145a3f7-00ac-4f8f-bfe5-435bc38ccaf7","ios":"levelo://app?vid=e145a3f7-00ac-4f8f-bfe5-435bc38ccaf7"},"vehicle_type_id":"4","last_reported":1700240770,"current_range_meters":26800,"station_id":"","pricing_plan_id":"free"},{"bike_id":"26476f94-fe1a-4e6c-be59-b10e05733c36","system_id":"levelo_inurba_marseille","lat":43.29218,"lon":5.3605,"is_reserved":false,"is_disabled":false,"rental_uris":{"android":"levelo://app?vid=26476f94-fe1a-4e6c-be59-b10e05733c36","ios":"levelo://app?vid=26476f94-fe1a-4e6c-be59-b10e05733c36"},"vehicle_type_id":"4","last_reported":1700240770,"current_range_meters":30000,"station_id":"ce4bhbh2rcd13ifvqeqg","pricing_plan_id":"free"},{"bike_id":"4eef38cc-64cf-4f4d-8d5b-99bd9d3b1b37","system_id":"levelo_inurba_marseille","lat":43.291671,"lon":5.371575,"is_reserved":false,"is_disabled":false,"rental_uris":{"android":"levelo://app?vid=4eef38cc-64cf-4f4d-8d5b-99bd9d3b1b37","ios":"levelo://app?vid=4eef38cc-64cf-4f4d-8d5b-99bd9d3b1b37"},"vehicle_type_id":"4","last_reported":1700240770,"current_range_meters":27600,"station_id":"ce4bha92rcd13ifvqeh0","pricing_plan_id":"free"},{"bike_id":"e10c90ee-ad88-45c5-bff9-8abb5bc738d3","system_id":"levelo_inurba_marseille","lat":43.309047,"lon":5.396551,"is_reserved":false,"is_disabled":false,"rental_uris":{"android":"levelo://app?vid=e10c90ee-ad88-45c5-bff9-8abb5bc738d3","ios":"levelo://app?vid=e10c90ee-ad88-45c5-bff9-8abb5bc738d3"},"vehicle_type_id":"4","last_reported":1700240770,"current_range_meters":8800,"station_id":"ce4bh012rcd13ifvqcv0","pricing_plan_id":"free"},{"bike_id":"0672f667-a52e-4583-b4fd-b7b24af5bd11","system_id":"levelo_inurba_marseille","lat":43.313291,"lon":5.396939,"is_reserved":false,"is_disabled":false,"rental_uris":{"android":"levelo://app?vid=0672f667-a52e-4583-b4fd-b7b24af5bd11","ios":"levelo://app?vid=0672f667-a52e-4583-b4fd-b7b24af5bd11"},"vehicle_type_id":"4","last_reported":1700240770,"current_range_meters":30000,"station_id":"ce4bgvp2rcd13ifvqcu0","pricing_plan_id":"free"},{"bike_id":"9e2e4a8b-43d9-4b6d-afd5-654728f4635c","system_id":"levelo_inurba_marseille","lat":43.29187,"lon":5.35805,"is_reserved":false,"is_disabled":false,"rental_uris":{"android":"levelo://app?vid=9e2e4a8b-43d9-4b6d-afd5-654728f4635c","ios":"levelo://app?vid=9e2e4a8b-43d9-4b6d-afd5-654728f4635c"},"vehicle_type_id":"4","last_reported":1700240770,"current_range_meters":24400,"station_id":"ce4bhb12rcd13ifvqel0","pricing_plan_id":"free"},{"bike_id":"8fa36aa5-933f-4810-9ae6-641aabc2eeb6","system_id":"levelo_inurba_marseille","lat":43.313268,"lon":5.396958,"is_reserved":false,"is_disabled":false,"rental_uris":{"android":"levelo://app?vid=8fa36aa5-933f-4810-9ae6-641aabc2eeb6","ios":"levelo://app?vid=8fa36aa5-933f-4810-9ae6-641aabc2eeb6"},"vehicle_type_id":"4","last_reported":1700240770,"current_range_meters":29600,"station_id":"ce4bgvp2rcd13ifvqcu0","pricing_plan_id":"free"},{"bike_id":"19b93e76-43b5-4b8e-beaa-724f5504be1a","system_id":"levelo_inurba_marseille","lat":43.29186,"lon":5.358,"is_reserved":false,"is_disabled":false,"rental_uris":{"android":"levelo://app?vid=19b93e76-43b5-4b8e-beaa-724f5504be1a","ios":"levelo://app?vid=19b93e76-43b5-4b8e-beaa-724f5504be1a"},"vehicle_type_id":"4","last_reported":1700240770,"current_range_meters":0,"station_id":"ce4bhb12rcd13ifvqel0","pricing_plan_id":"free"},{"bike_id":"8411641c-3cef-4163-8c11-e1127e30a33d","system_id":"levelo_inurba_marseille","lat":43.29529,"lon":5.385581,"is_reserved":false,"is_disabled":false,"rental_uris":{"android":"levelo://app?vid=8411641c-3cef-4163-8c11-e1127e30a33d","ios":"levelo://app?vid=8411641c-3cef-4163-8c11-e1127e30a33d"},"vehicle_type_id":"4","last_reported":1700240770,"current_range_meters":23200,"station_id":"ce4bgih2rcd13ifvqba0","pricing_plan_id":"free"},{"bike_id":"7bcc3d0c-f33a-4f0a-b2fa-52ab065fa205","system_id":"levelo_inurba_marseille","lat":43.29529,"lon":5.385581,"is_reserved":false,"is_disabled":false,"rental_uris":{"android":"levelo://app?vid=7bcc3d0c-f33a-4f0a-b2fa-52ab065fa205","ios":"levelo://app?vid=7bcc3d0c-f33a-4f0a-b2fa-52ab065fa205"},"vehicle_type_id":"4","last_reported":1700240770,"current_range_meters":8400,"station_id":"ce4bgih2rcd13ifvqba0","pricing_plan_id":"free"},{"bike_id":"a18182ec-bef4-4084-b118-761ab587aab7","system_id":"levelo_inurba_marseille","lat":43.29529,"lon":5.385581,"is_reserved":false,"is_disabled":false,"rental_uris":{"android":"levelo://app?vid=a18182ec-bef4-4084-b118-761ab587aab7","ios":"levelo://app?vid=a18182ec-bef4-4084-b118-761ab587aab7"},"vehicle_type_id":"4","last_reported":1700240770,"current_range_meters":18800,"station_id":"ce4bgih2rcd13ifvqba0","pricing_plan_id":"free"},{"bike_id":"f4c806dc-4648-4179-b209-8e60edef2951","system_id":"levelo_inurba_marseille","lat":43.29529,"lon":5.385581,"is_reserved":false,"is_disabled":false,"rental_uris":{"android":"levelo://app?vid=f4c806dc-4648-4179-b209-8e60edef2951","ios":"levelo://app?vid=f4c806dc-4648-4179-b209-8e60edef2951"},"vehicle_type_id":"4","last_reported":1700240770,"current_range_meters":26800,"station_id":"ce4bgih2rcd13ifvqba0","pricing_plan_id":"free"},{"bike_id":"18aca5f7-8640-44d7-929b-f888953fe8a8","system_id":"levelo_inurba_marseille","lat":43.29529,"lon":5.385581,"is_reserved":false,"is_disabled":false,"rental_uris":{"android":"levelo://app?vid=18aca5f7-8640-44d7-929b-f888953fe8a8","ios":"levelo://app?vid=18aca5f7-8640-44d7-929b-f888953fe8a8"},"vehicle_type_id":"4","last_reported":1700240770,"current_range_meters":0,"station_id":"ce4bgih2rcd13ifvqba0","pricing_plan_id":"free"},{"bike_id":"6a62d98c-3105-4983-a30d-0425c768e515","system_id":"levelo_inurba_marseille","lat":43.29529,"lon":5.385581,"is_reserved":false,"is_disabled":false,"rental_uris":{"android":"levelo://app?vid=6a62d98c-3105-4983-a30d-0425c768e515","ios":"levelo://app?vid=6a62d98c-3105-4983-a30d-0425c768e515"},"vehicle_type_id":"4","last_reported":1700240770,"current_range_meters":25600,"station_id":"ce4bgih2rcd13ifvqba0","pricing_plan_id":"free"},{"bike_id":"6e846891-3cdd-4f61-850f-340f32bc7141","system_id":"levelo_inurba_marseille","lat":43.290779,"lon":5.371482,"is_reserved":false,"is_disabled":false,"rental_uris":{"android":"levelo://app?vid=6e846891-3cdd-4f61-850f-340f32bc7141","ios":"levelo://app?vid=6e846891-3cdd-4f61-850f-340f32bc7141"},"vehicle_type_id":"4","last_reported":1700240770,"current_range_meters":17600,"station_id":"ce4bh5p2rcd13ifvqe4g","pricing_plan_id":"free"},{"bike_id":"9ad5f645-e708-4624-9a58-c054450b187c","system_id":"levelo_inurba_marseille","lat":43.294403,"lon":5.385057,"is_reserved":false,"is_disabled":false,"rental_uris":{"android":"levelo://app?vid=9ad5f645-e708-4624-9a58-c054450b187c","ios":"levelo://app?vid=9ad5f645-e708-4624-9a58-c054450b187c"},"vehicle_type_id":"4","last_reported":1700240770,"current_range_meters":15600,"station_id":"","pricing_plan_id":"free"},{"bike_id":"32ec3be2-e3f4-4c79-a2fa-1914d276dd1c","system_id":"levelo_inurba_marseille","lat":43.302008,"lon":5.394694,"is_reserved":false,"is_disabled":false,"rental_uris":{"android":"levelo://app?vid=32ec3be2-e3f4-4c79-a2fa-1914d276dd1c","ios":"levelo://app?vid=32ec3be2-e3f4-4c79-a2fa-1914d276dd1c"},"vehicle_type_id":"4","last_reported":1700240770,"current_range_meters":12800,"station_id":"ce4bh0p2rcd13ifvqd70","pricing_plan_id":"free"},{"bike_id":"3bf453f1-0bb4-4337-9a34-5984b632ffc2","system_id":"levelo_inurba_marseille","lat":43.302008,"lon":5.394694,"is_reserved":false,"is_disabled":false,"rental_uris":{"android":"levelo://app?vid=3bf453f1-0bb4-4337-9a34-5984b632ffc2","ios":"levelo://app?vid=3bf453f1-0bb4-4337-9a34-5984b632ffc2"},"vehicle_type_id":"4","last_reported":1700240770,"current_range_meters":22000,"station_id":"ce4bh0p2rcd13ifvqd70","pricing_plan_id":"free"},{"bike_id":"85210cfa-7798-4cfa-aea4-fcecb35afb24","system_id":"levelo_inurba_marseille","lat":43.290624,"lon":5.359245,"is_reserved":false,"is_disabled":false,"rental_uris":{"android":"levelo://app?vid=85210cfa-7798-4cfa-aea4-fcecb35afb24","ios":"levelo://app?vid=85210cfa-7798-4cfa-aea4-fcecb35afb24"},"vehicle_type_id":"4","last_reported":1700240770,"current_range_meters":17200,"station_id":"ce4bha92rcd13ifvqeg0","pricing_plan_id":"free"},{"bike_id":"0fa45ff1-132f-4bd8-bd61-c82bd0509924","system_id":"levelo_inurba_marseille","lat":43.294153,"lon":5.386305,"is_reserved":false,"is_disabled":false,"rental_uris":{"android":"levelo://app?vid=0fa45ff1-132f-4bd8-bd61-c82bd0509924","ios":"levelo://app?vid=0fa45ff1-132f-4bd8-bd61-c82bd0509924"},"vehicle_type_id":"4","last_reported":1700240770,"current_range_meters":31200,"station_id":"ce4bh2h2rcd13ifvqdh0","pricing_plan_id":"free"},{"bike_id":"9abc8846-566e-41d3-9fbf-ebf4339db3f0","system_id":"levelo_inurba_marseille","lat":43.29422,"lon":5.38627,"is_reserved":false,"is_disabled":false,"rental_uris":{"android":"levelo://app?vid=9abc8846-566e-41d3-9fbf-ebf4339db3f0","ios":"levelo://app?vid=9abc8846-566e-41d3-9fbf-ebf4339db3f0"},"vehicle_type_id":"4","last_reported":1700240770,"current_range_meters":29600,"station_id":"ce4bh2h2rcd13ifvqdh0","pricing_plan_id":"free"},{"bike_id":"0551271a-8b3b-44d2-aeca-4db05eecc141","system_id":"levelo_inurba_marseille","lat":43.289184,"lon":5.366408,"is_reserved":false,"is_disabled":false,"rental_uris":{"android":"levelo://app?vid=0551271a-8b3b-44d2-aeca-4db05eecc141","ios":"levelo://app?vid=0551271a-8b3b-44d2-aeca-4db05eecc141"},"vehicle_type_id":"4","last_reported":1700240770,"current_range_meters":25200,"station_id":"ce4bhap2rcd13ifvqek0","pricing_plan_id":"free"},{"bike_id":"41679423-ba1f-4c90-91a5-d7dda9808359","system_id":"levelo_inurba_marseille","lat":43.289184,"lon":5.366408,"is_reserved":false,"is_disabled":false,"rental_uris":{"android":"levelo://app?vid=41679423-ba1f-4c90-91a5-d7dda9808359","ios":"levelo://app?vid=41679423-ba1f-4c90-91a5-d7dda9808359"},"vehicle_type_id":"4","last_reported":1700240770,"current_range_meters":6400,"station_id":"ce4bhap2rcd13ifvqek0","pricing_plan_id":"free"},{"bike_id":"b6a41e74-4102-4ab3-9944-feafcbd22807","system_id":"levelo_inurba_marseille","lat":43.289184,"lon":5.366408,"is_reserved":false,"is_disabled":false,"rental_uris":{"android":"levelo://app?vid=b6a41e74-4102-4ab3-9944-feafcbd22807","ios":"levelo://app?vid=b6a41e74-4102-4ab3-9944-feafcbd22807"},"vehicle_type_id":"4","last_reported":1700240770,"current_range_meters":16800,"station_id":"ce4bhap2rcd13ifvqek0","pricing_plan_id":"free"},{"bike_id":"bc02d7b5-6d76-4c68-b12a-2e1e675ddc0b","system_id":"levelo_inurba_marseille","lat":43.289184,"lon":5.366408,"is_reserved":false,"is_disabled":false,"rental_uris":{"android":"levelo://app?vid=bc02d7b5-6d76-4c68-b12a-2e1e675ddc0b","ios":"levelo://app?vid=bc02d7b5-6d76-4c68-b12a-2e1e675ddc0b"},"vehicle_type_id":"4","last_reported":1700240770,"current_range_meters":3200,"station_id":"ce4bhap2rcd13ifvqek0","pricing_plan_id":"free"},{"bike_id":"b7aa1bac-915b-460c-8f96-a0fe55e79e63","system_id":"levelo_inurba_marseille","lat":43.292642,"lon":5.384254,"is_reserved":false,"is_disabled":false,"rental_uris":{"android":"levelo://app?vid=b7aa1bac-915b-460c-8f96-a0fe55e79e63","ios":"levelo://app?vid=b7aa1bac-915b-460c-8f96-a0fe55e79e63"},"vehicle_type_id":"4","last_reported":1700240770,"current_range_meters":2000,"station_id":"ce4bh692rcd13ifvqea0","pricing_plan_id":"free"},{"bike_id":"8523ebd4-03e4-4f00-8007-5a2e5795733e","system_id":"levelo_inurba_marseille","lat":43.290103,"lon":5.356114,"is_reserved":false,"is_disabled":false,"rental_uris":{"android":"levelo://app?vid=8523ebd4-03e4-4f00-8007-5a2e5795733e","ios":"levelo://app?vid=8523ebd4-03e4-4f00-8007-5a2e5795733e"},"vehicle_type_id":"4","last_reported":1700240770,"current_range_meters":800,"station_id":"ce4bhb92rcd13ifvqen0","pricing_plan_id":"free"},{"bike_id":"841bd8d6-92b7-496b-8968-74e2b20feef1","system_id":"levelo_inurba_marseille","lat":43.330402,"lon":5.389196,"is_reserved":false,"is_disabled":false,"rental_uris":{"android":"levelo://app?vid=841bd8d6-92b7-496b-8968-74e2b20feef1","ios":"levelo://app?vid=841bd8d6-92b7-496b-8968-74e2b20feef1"},"vehicle_type_id":"4","last_reported":1700240770,"current_range_meters":1600,"station_id":"ce4bhr92rcd13ifvqhrg","pricing_plan_id":"free"},{"bike_id":"abab76d1-9d86-4a19-b466-05aac9bd46a8","system_id":"levelo_inurba_marseille","lat":43.3304,"lon":5.3892,"is_reserved":false,"is_disabled":false,"rental_uris":{"android":"levelo://app?vid=abab76d1-9d86-4a19-b466-05aac9bd46a8","ios":"levelo://app?vid=abab76d1-9d86-4a19-b466-05aac9bd46a8"},"vehicle_type_id":"4","last_reported":1700240770,"current_range_meters":8000,"station_id":"ce4bhr92rcd13ifvqhrg","pricing_plan_id":"free"},{"bike_id":"927251ad-4476-4160-a7fb-1a1c7df89708","system_id":"levelo_inurba_marseille","lat":43.290103,"lon":5.356114,"is_reserved":false,"is_disabled":false,"rental_uris":{"android":"levelo://app?vid=927251ad-4476-4160-a7fb-1a1c7df89708","ios":"levelo://app?vid=927251ad-4476-4160-a7fb-1a1c7df89708"},"vehicle_type_id":"4","last_reported":1700240770,"current_range_meters":31200,"station_id":"ce4bhb92rcd13ifvqen0","pricing_plan_id":"free"},{"bike_id":"bb393dbe-4257-4ec1-abba-a29b6e51dfa9","system_id":"levelo_inurba_marseille","lat":43.33069,"lon":5.389,"is_reserved":false,"is_disabled":false,"rental_uris":{"android":"levelo://app?vid=bb393dbe-4257-4ec1-abba-a29b6e51dfa9","ios":"levelo://app?vid=bb393dbe-4257-4ec1-abba-a29b6e51dfa9"},"vehicle_type_id":"4","last_reported":1700240770,"current_range_meters":10000,"station_id":"ce4bhr92rcd13ifvqhrg","pricing_plan_id":"free"},{"bike_id":"72fc0a64-3fb6-4627-be58-0144fa63d3c6","system_id":"levelo_inurba_marseille","lat":43.29787,"lon":5.39328,"is_reserved":false,"is_disabled":false,"rental_uris":{"android":"levelo://app?vid=72fc0a64-3fb6-4627-be58-0144fa63d3c6","ios":"levelo://app?vid=72fc0a64-3fb6-4627-be58-0144fa63d3c6"},"vehicle_type_id":"4","last_reported":1700240770,"current_range_meters":20800,"station_id":"chh1huq6cuj3fo74tm60","pricing_plan_id":"free"},{"bike_id":"7114d640-f87e-42a9-afb2-3f2cd508054a","system_id":"levelo_inurba_marseille","lat":43.290995,"lon":5.381361,"is_reserved":false,"is_disabled":false,"rental_uris":{"android":"levelo://app?vid=7114d640-f87e-42a9-afb2-3f2cd508054a","ios":"levelo://app?vid=7114d640-f87e-42a9-afb2-3f2cd508054a"},"vehicle_type_id":"4","last_reported":1700240770,"current_range_meters":0,"station_id":"ce4bh512rcd13ifvqe2g","pricing_plan_id":"free"},{"bike_id":"e7bc6122-b49a-44bd-9925-704558e7aa1b","system_id":"levelo_inurba_marseille","lat":43.28856,"lon":5.358371,"is_reserved":false,"is_disabled":false,"rental_uris":{"android":"levelo://app?vid=e7bc6122-b49a-44bd-9925-704558e7aa1b","ios":"levelo://app?vid=e7bc6122-b49a-44bd-9925-704558e7aa1b"},"vehicle_type_id":"4","last_reported":1700240770,"current_range_meters":19600,"station_id":"ce4bhb12rcd13ifvqem0","pricing_plan_id":"free"},{"bike_id":"07202f70-50d7-46f0-a5bd-59712659d6a0","system_id":"levelo_inurba_marseille","lat":43.31251,"lon":5.40162,"is_reserved":false,"is_disabled":false,"rental_uris":{"android":"levelo://app?vid=07202f70-50d7-46f0-a5bd-59712659d6a0","ios":"levelo://app?vid=07202f70-50d7-46f0-a5bd-59712659d6a0"},"vehicle_type_id":"4","last_reported":1700240770,"current_range_meters":18000,"station_id":"","pricing_plan_id":"free"},{"bike_id":"25705fb5-dda7-40ba-b18d-ff6558664a8b","system_id":"levelo_inurba_marseille","lat":43.30934,"lon":5.40146,"is_reserved":false,"is_disabled":false,"rental_uris":{"android":"levelo://app?vid=25705fb5-dda7-40ba-b18d-ff6558664a8b","ios":"levelo://app?vid=25705fb5-dda7-40ba-b18d-ff6558664a8b"},"vehicle_type_id":"4","last_reported":1700240770,"current_range_meters":18800,"station_id":"ce4bgvp2rcd13ifvqct0","pricing_plan_id":"free"},{"bike_id":"84488263-aa7c-405e-8d8c-e71da78cffe4","system_id":"levelo_inurba_marseille","lat":43.312679,"lon":5.401806,"is_reserved":false,"is_disabled":false,"rental_uris":{"android":"levelo://app?vid=84488263-aa7c-405e-8d8c-e71da78cffe4","ios":"levelo://app?vid=84488263-aa7c-405e-8d8c-e71da78cffe4"},"vehicle_type_id":"4","last_reported":1700240770,"current_range_meters":31200,"station_id":"ce4bh092rcd13ifvqd30","pricing_plan_id":"free"},{"bike_id":"48e47ee2-867a-4d41-a7af-46fb1a875349","system_id":"levelo_inurba_marseille","lat":43.33756,"lon":5.37456,"is_reserved":false,"is_disabled":false,"rental_uris":{"android":"levelo://app?vid=48e47ee2-867a-4d41-a7af-46fb1a875349","ios":"levelo://app?vid=48e47ee2-867a-4d41-a7af-46fb1a875349"},"vehicle_type_id":"4","last_reported":1700240770,"current_range_meters":21600,"station_id":"","pricing_plan_id":"free"},{"bike_id":"a53040f7-9a40-4425-ba5c-44368075ca88","system_id":"levelo_inurba_marseille","lat":43.30646,"lon":5.40092,"is_reserved":false,"is_disabled":false,"rental_uris":{"android":"levelo://app?vid=a53040f7-9a40-4425-ba5c-44368075ca88","ios":"levelo://app?vid=a53040f7-9a40-4425-ba5c-44368075ca88"},"vehicle_type_id":"4","last_reported":1700240770,"current_range_meters":17200,"station_id":"ce4bh112rcd13ifvqda0","pricing_plan_id":"free"},{"bike_id":"3608a782-7201-41f9-8dfc-66926836a210","system_id":"levelo_inurba_marseille","lat":43.30513,"lon":5.40077,"is_reserved":false,"is_disabled":false,"rental_uris":{"android":"levelo://app?vid=3608a782-7201-41f9-8dfc-66926836a210","ios":"levelo://app?vid=3608a782-7201-41f9-8dfc-66926836a210"},"vehicle_type_id":"4","last_reported":1700240770,"current_range_meters":0,"station_id":"","pricing_plan_id":"free"},{"bike_id":"65b08a72-15d4-4602-85b1-cccad8f32584","system_id":"levelo_inurba_marseille","lat":43.28727,"lon":5.36078,"is_reserved":false,"is_disabled":false,"rental_uris":{"android":"levelo://app?vid=65b08a72-15d4-4602-85b1-cccad8f32584","ios":"levelo://app?vid=65b08a72-15d4-4602-85b1-cccad8f32584"},"vehicle_type_id":"4","last_reported":1700240770,"current_range_meters":16000,"station_id":"cki0cbj6b192h4jlfktg","pricing_plan_id":"free"},{"bike_id":"99819cd4-1138-4987-8806-11f8880551cc","system_id":"levelo_inurba_marseille","lat":43.286591,"lon":5.363346,"is_reserved":false,"is_disabled":false,"rental_uris":{"android":"levelo://app?vid=99819cd4-1138-4987-8806-11f8880551cc","ios":"levelo://app?vid=99819cd4-1138-4987-8806-11f8880551cc"},"vehicle_type_id":"4","last_reported":1700240770,"current_range_meters":12800,"station_id":"ce4bhah2rcd13ifvqej0","pricing_plan_id":"free"},{"bike_id":"8950bb3d-4bf5-4da0-81a0-c3f3378d2459","system_id":"levelo_inurba_marseille","lat":43.29879,"lon":5.39746,"is_reserved":false,"is_disabled":false,"rental_uris":{"android":"levelo://app?vid=8950bb3d-4bf5-4da0-81a0-c3f3378d2459","ios":"levelo://app?vid=8950bb3d-4bf5-4da0-81a0-c3f3378d2459"},"vehicle_type_id":"4","last_reported":1700240770,"current_range_meters":0,"station_id":"ce4bh0h2rcd13ifvqd50","pricing_plan_id":"free"},{"bike_id":"97c36786-34bf-473e-8809-97c5ff67d305","system_id":"levelo_inurba_marseille","lat":43.286591,"lon":5.363346,"is_reserved":false,"is_disabled":false,"rental_uris":{"android":"levelo://app?vid=97c36786-34bf-473e-8809-97c5ff67d305","ios":"levelo://app?vid=97c36786-34bf-473e-8809-97c5ff67d305"},"vehicle_type_id":"4","last_reported":1700240770,"current_range_meters":22000,"station_id":"ce4bhah2rcd13ifvqej0","pricing_plan_id":"free"},{"bike_id":"3ebd311f-5daa-4335-8caf-47ee34aef987","system_id":"levelo_inurba_marseille","lat":43.286593,"lon":5.363346,"is_reserved":false,"is_disabled":false,"rental_uris":{"android":"levelo://app?vid=3ebd311f-5daa-4335-8caf-47ee34aef987","ios":"levelo://app?vid=3ebd311f-5daa-4335-8caf-47ee34aef987"},"vehicle_type_id":"4","last_reported":1700240770,"current_range_meters":18800,"station_id":"ce4bhah2rcd13ifvqej0","pricing_plan_id":"free"},{"bike_id":"ee266ecc-2025-40d7-a5dc-1539d5031f82","system_id":"levelo_inurba_marseille","lat":43.29034,"lon":5.38642,"is_reserved":false,"is_disabled":false,"rental_uris":{"android":"levelo://app?vid=ee266ecc-2025-40d7-a5dc-1539d5031f82","ios":"levelo://app?vid=ee266ecc-2025-40d7-a5dc-1539d5031f82"},"vehicle_type_id":"4","last_reported":1700240770,"current_range_meters":16400,"station_id":"ce4bh4p2rcd13ifvqe0g","pricing_plan_id":"free"},{"bike_id":"e1623cf5-c65a-4f26-8592-cad2b4fae1a8","system_id":"levelo_inurba_marseille","lat":43.28933,"lon":5.38404,"is_reserved":false,"is_disabled":false,"rental_uris":{"android":"levelo://app?vid=e1623cf5-c65a-4f26-8592-cad2b4fae1a8","ios":"levelo://app?vid=e1623cf5-c65a-4f26-8592-cad2b4fae1a8"},"vehicle_type_id":"4","last_reported":1700240770,"current_range_meters":23600,"station_id":"ce4bh612rcd13ifvqe6g","pricing_plan_id":"free"},{"bike_id":"ecc4966b-d82d-4421-a333-1416475eb7eb","system_id":"levelo_inurba_marseille","lat":43.29039,"lon":5.38675,"is_reserved":false,"is_disabled":false,"rental_uris":{"android":"levelo://app?vid=ecc4966b-d82d-4421-a333-1416475eb7eb","ios":"levelo://app?vid=ecc4966b-d82d-4421-a333-1416475eb7eb"},"vehicle_type_id":"4","last_reported":1700240770,"current_range_meters":5600,"station_id":"ce4bh4p2rcd13ifvqe0g","pricing_plan_id":"free"},{"bike_id":"a6813ef2-a996-4b9d-9ded-309484645a02","system_id":"levelo_inurba_marseille","lat":43.302759,"lon":5.400793,"is_reserved":false,"is_disabled":false,"rental_uris":{"android":"levelo://app?vid=a6813ef2-a996-4b9d-9ded-309484645a02","ios":"levelo://app?vid=a6813ef2-a996-4b9d-9ded-309484645a02"},"vehicle_type_id":"4","last_reported":1700240770,"current_range_meters":2000,"station_id":"ce4bgvh2rcd13ifvqcs0","pricing_plan_id":"free"},{"bike_id":"e5a07348-6de7-4b84-9a89-f16dfbe2e4e1","system_id":"levelo_inurba_marseille","lat":43.287185,"lon":5.379373,"is_reserved":false,"is_disabled":false,"rental_uris":{"android":"levelo://app?vid=e5a07348-6de7-4b84-9a89-f16dfbe2e4e1","ios":"levelo://app?vid=e5a07348-6de7-4b84-9a89-f16dfbe2e4e1"},"vehicle_type_id":"4","last_reported":1700240770,"current_range_meters":2800,"station_id":"ce4bh9p2rcd13ifvqec0","pricing_plan_id":"free"},{"bike_id":"7a4b5990-0ead-4e23-a95c-b01149da8f8f","system_id":"levelo_inurba_marseille","lat":43.287184,"lon":5.37937,"is_reserved":false,"is_disabled":false,"rental_uris":{"android":"levelo://app?vid=7a4b5990-0ead-4e23-a95c-b01149da8f8f","ios":"levelo://app?vid=7a4b5990-0ead-4e23-a95c-b01149da8f8f"},"vehicle_type_id":"4","last_reported":1700240770,"current_range_meters":2000,"station_id":"ce4bh9p2rcd13ifvqec0","pricing_plan_id":"free"},{"bike_id":"a63bb96c-deef-46d3-8e40-bb4621200774","system_id":"levelo_inurba_marseille","lat":43.291994,"lon":5.392907,"is_reserved":false,"is_disabled":false,"rental_uris":{"android":"levelo://app?vid=a63bb96c-deef-46d3-8e40-bb4621200774","ios":"levelo://app?vid=a63bb96c-deef-46d3-8e40-bb4621200774"},"vehicle_type_id":"4","last_reported":1700240770,"current_range_meters":11600,"station_id":"ce4bh192rcd13ifvqdd0","pricing_plan_id":"free"},{"bike_id":"b310d6fe-3a40-41ec-8547-ebe69b604f48","system_id":"levelo_inurba_marseille","lat":43.28465,"lon":5.35897,"is_reserved":false,"is_disabled":false,"rental_uris":{"android":"levelo://app?vid=b310d6fe-3a40-41ec-8547-ebe69b604f48","ios":"levelo://app?vid=b310d6fe-3a40-41ec-8547-ebe69b604f48"},"vehicle_type_id":"4","last_reported":1700240770,"current_range_meters":12800,"station_id":"ce4bhah2rcd13ifvqei0","pricing_plan_id":"free"},{"bike_id":"ecc77a3e-5765-4027-be30-b16aa22d4235","system_id":"levelo_inurba_marseille","lat":43.284538,"lon":5.358657,"is_reserved":false,"is_disabled":false,"rental_uris":{"android":"levelo://app?vid=ecc77a3e-5765-4027-be30-b16aa22d4235","ios":"levelo://app?vid=ecc77a3e-5765-4027-be30-b16aa22d4235"},"vehicle_type_id":"4","last_reported":1700240770,"current_range_meters":31200,"station_id":"ce4bhah2rcd13ifvqei0","pricing_plan_id":"free"},{"bike_id":"7b491945-bc40-423e-9932-3ddcf321b358","system_id":"levelo_inurba_marseille","lat":43.284538,"lon":5.358657,"is_reserved":false,"is_disabled":false,"rental_uris":{"android":"levelo://app?vid=7b491945-bc40-423e-9932-3ddcf321b358","ios":"levelo://app?vid=7b491945-bc40-423e-9932-3ddcf321b358"},"vehicle_type_id":"4","last_reported":1700240770,"current_range_meters":23200,"station_id":"ce4bhah2rcd13ifvqei0","pricing_plan_id":"free"},{"bike_id":"265e0fd0-6b8b-4a96-a5d3-c50442ccc8ea","system_id":"levelo_inurba_marseille","lat":43.2846,"lon":5.358838,"is_reserved":false,"is_disabled":false,"rental_uris":{"android":"levelo://app?vid=265e0fd0-6b8b-4a96-a5d3-c50442ccc8ea","ios":"levelo://app?vid=265e0fd0-6b8b-4a96-a5d3-c50442ccc8ea"},"vehicle_type_id":"4","last_reported":1700240770,"current_range_meters":22000,"station_id":"","pricing_plan_id":"free"},{"bike_id":"078bba85-978f-4e88-a1e6-0f2d1454ef31","system_id":"levelo_inurba_marseille","lat":43.284538,"lon":5.358657,"is_reserved":false,"is_disabled":false,"rental_uris":{"android":"levelo://app?vid=078bba85-978f-4e88-a1e6-0f2d1454ef31","ios":"levelo://app?vid=078bba85-978f-4e88-a1e6-0f2d1454ef31"},"vehicle_type_id":"4","last_reported":1700240770,"current_range_meters":31200,"station_id":"ce4bhah2rcd13ifvqei0","pricing_plan_id":"free"},{"bike_id":"9f334197-b873-4095-8604-86cecfec99d1","system_id":"levelo_inurba_marseille","lat":43.284538,"lon":5.358657,"is_reserved":false,"is_disabled":false,"rental_uris":{"android":"levelo://app?vid=9f334197-b873-4095-8604-86cecfec99d1","ios":"levelo://app?vid=9f334197-b873-4095-8604-86cecfec99d1"},"vehicle_type_id":"4","last_reported":1700240770,"current_range_meters":22400,"station_id":"ce4bhah2rcd13ifvqei0","pricing_plan_id":"free"},{"bike_id":"820a6cd7-1dc6-4d75-bf9d-e3d53e9a18b9","system_id":"levelo_inurba_marseille","lat":43.284538,"lon":5.358657,"is_reserved":false,"is_disabled":false,"rental_uris":{"android":"levelo://app?vid=820a6cd7-1dc6-4d75-bf9d-e3d53e9a18b9","ios":"levelo://app?vid=820a6cd7-1dc6-4d75-bf9d-e3d53e9a18b9"},"vehicle_type_id":"4","last_reported":1700240770,"current_range_meters":30800,"station_id":"ce4bhah2rcd13ifvqei0","pricing_plan_id":"free"},{"bike_id":"28e5b3a0-0fcf-4e19-bc9f-42ab34a8f356","system_id":"levelo_inurba_marseille","lat":43.284561,"lon":5.358893,"is_reserved":false,"is_disabled":false,"rental_uris":{"android":"levelo://app?vid=28e5b3a0-0fcf-4e19-bc9f-42ab34a8f356","ios":"levelo://app?vid=28e5b3a0-0fcf-4e19-bc9f-42ab34a8f356"},"vehicle_type_id":"4","last_reported":1700240770,"current_range_meters":30800,"station_id":"","pricing_plan_id":"free"},{"bike_id":"217d9ff3-72d2-481a-85c1-503905c1f996","system_id":"levelo_inurba_marseille","lat":43.284534,"lon":5.358662,"is_reserved":false,"is_disabled":false,"rental_uris":{"android":"levelo://app?vid=217d9ff3-72d2-481a-85c1-503905c1f996","ios":"levelo://app?vid=217d9ff3-72d2-481a-85c1-503905c1f996"},"vehicle_type_id":"4","last_reported":1700240770,"current_range_meters":31200,"station_id":"ce4bhah2rcd13ifvqei0","pricing_plan_id":"free"},{"bike_id":"88075fd9-26b9-4205-bfbd-8e0ebb0f60c9","system_id":"levelo_inurba_marseille","lat":43.284538,"lon":5.358657,"is_reserved":false,"is_disabled":false,"rental_uris":{"android":"levelo://app?vid=88075fd9-26b9-4205-bfbd-8e0ebb0f60c9","ios":"levelo://app?vid=88075fd9-26b9-4205-bfbd-8e0ebb0f60c9"},"vehicle_type_id":"4","last_reported":1700240770,"current_range_meters":31200,"station_id":"ce4bhah2rcd13ifvqei0","pricing_plan_id":"free"},{"bike_id":"515d44ac-aac1-4338-b0c4-4adaca257caf","system_id":"levelo_inurba_marseille","lat":43.294314,"lon":5.397498,"is_reserved":false,"is_disabled":false,"rental_uris":{"android":"levelo://app?vid=515d44ac-aac1-4338-b0c4-4adaca257caf","ios":"levelo://app?vid=515d44ac-aac1-4338-b0c4-4adaca257caf"},"vehicle_type_id":"4","last_reported":1700240770,"current_range_meters":24800,"station_id":"ce4bh3h2rcd13ifvqdo0","pricing_plan_id":"free"},{"bike_id":"8b789bc1-770d-4095-a484-160e7b5e205a","system_id":"levelo_inurba_marseille","lat":43.28621,"lon":5.35109,"is_reserved":false,"is_disabled":false,"rental_uris":{"android":"levelo://app?vid=8b789bc1-770d-4095-a484-160e7b5e205a","ios":"levelo://app?vid=8b789bc1-770d-4095-a484-160e7b5e205a"},"vehicle_type_id":"4","last_reported":1700240770,"current_range_meters":30400,"station_id":"ce4bhch2rcd13ifvqeug","pricing_plan_id":"free"},{"bike_id":"7858125c-e36f-43b2-a567-b0b98baae196","system_id":"levelo_inurba_marseille","lat":43.286152,"lon":5.351037,"is_reserved":false,"is_disabled":false,"rental_uris":{"android":"levelo://app?vid=7858125c-e36f-43b2-a567-b0b98baae196","ios":"levelo://app?vid=7858125c-e36f-43b2-a567-b0b98baae196"},"vehicle_type_id":"4","last_reported":1700240770,"current_range_meters":1600,"station_id":"ce4bhch2rcd13ifvqeug","pricing_plan_id":"free"},{"bike_id":"1f0cbd02-f653-44a1-b199-cb8251c75309","system_id":"levelo_inurba_marseille","lat":43.28613,"lon":5.35106,"is_reserved":false,"is_disabled":false,"rental_uris":{"android":"levelo://app?vid=1f0cbd02-f653-44a1-b199-cb8251c75309","ios":"levelo://app?vid=1f0cbd02-f653-44a1-b199-cb8251c75309"},"vehicle_type_id":"4","last_reported":1700240770,"current_range_meters":25600,"station_id":"ce4bhch2rcd13ifvqeug","pricing_plan_id":"free"},{"bike_id":"22806ae2-89f6-4ce7-8738-4bdc3c445a86","system_id":"levelo_inurba_marseille","lat":43.28613,"lon":5.35103,"is_reserved":false,"is_disabled":false,"rental_uris":{"android":"levelo://app?vid=22806ae2-89f6-4ce7-8738-4bdc3c445a86","ios":"levelo://app?vid=22806ae2-89f6-4ce7-8738-4bdc3c445a86"},"vehicle_type_id":"4","last_reported":1700240770,"current_range_meters":31200,"station_id":"ce4bhch2rcd13ifvqeug","pricing_plan_id":"free"},{"bike_id":"70b8888a-c4f8-469f-af83-511f79a662e6","system_id":"levelo_inurba_marseille","lat":43.285848,"lon":5.350787,"is_reserved":false,"is_disabled":false,"rental_uris":{"android":"levelo://app?vid=70b8888a-c4f8-469f-af83-511f79a662e6","ios":"levelo://app?vid=70b8888a-c4f8-469f-af83-511f79a662e6"},"vehicle_type_id":"4","last_reported":1700240770,"current_range_meters":22400,"station_id":"ce4bhch2rcd13ifvqeug","pricing_plan_id":"free"},{"bike_id":"83430088-e83f-4535-9d1e-569d2e9f09a4","system_id":"levelo_inurba_marseille","lat":43.295717,"lon":5.399697,"is_reserved":false,"is_disabled":false,"rental_uris":{"android":"levelo://app?vid=83430088-e83f-4535-9d1e-569d2e9f09a4","ios":"levelo://app?vid=83430088-e83f-4535-9d1e-569d2e9f09a4"},"vehicle_type_id":"4","last_reported":1700240770,"current_range_meters":17200,"station_id":"","pricing_plan_id":"free"},{"bike_id":"ad18300e-a3ea-4e84-a073-8eb07c543223","system_id":"levelo_inurba_marseille","lat":43.295713,"lon":5.399639,"is_reserved":false,"is_disabled":false,"rental_uris":{"android":"levelo://app?vid=ad18300e-a3ea-4e84-a073-8eb07c543223","ios":"levelo://app?vid=ad18300e-a3ea-4e84-a073-8eb07c543223"},"vehicle_type_id":"4","last_reported":1700240770,"current_range_meters":16000,"station_id":"ce4bh312rcd13ifvqdj0","pricing_plan_id":"free"},{"bike_id":"e98cfb6e-cfbb-4803-b1f3-233da04a0f28","system_id":"levelo_inurba_marseille","lat":43.325053,"lon":5.404263,"is_reserved":false,"is_disabled":false,"rental_uris":{"android":"levelo://app?vid=e98cfb6e-cfbb-4803-b1f3-233da04a0f28","ios":"levelo://app?vid=e98cfb6e-cfbb-4803-b1f3-233da04a0f28"},"vehicle_type_id":"4","last_reported":1700240770,"current_range_meters":0,"station_id":"","pricing_plan_id":"free"},{"bike_id":"5974ad3b-da81-42ca-a08b-1b3632a47afa","system_id":"levelo_inurba_marseille","lat":43.33237,"lon":5.3985,"is_reserved":false,"is_disabled":false,"rental_uris":{"android":"levelo://app?vid=5974ad3b-da81-42ca-a08b-1b3632a47afa","ios":"levelo://app?vid=5974ad3b-da81-42ca-a08b-1b3632a47afa"},"vehicle_type_id":"4","last_reported":1700240770,"current_range_meters":8400,"station_id":"","pricing_plan_id":"free"},{"bike_id":"024ad9a7-ef70-459c-b1af-f42c87b238c9","system_id":"levelo_inurba_marseille","lat":43.32577,"lon":5.40483,"is_reserved":false,"is_disabled":false,"rental_uris":{"android":"levelo://app?vid=024ad9a7-ef70-459c-b1af-f42c87b238c9","ios":"levelo://app?vid=024ad9a7-ef70-459c-b1af-f42c87b238c9"},"vehicle_type_id":"4","last_reported":1700240770,"current_range_meters":8400,"station_id":"","pricing_plan_id":"free"},{"bike_id":"cc720bb2-8afe-44ad-b69a-579fedb17166","system_id":"levelo_inurba_marseille","lat":43.284726,"lon":5.384568,"is_reserved":false,"is_disabled":false,"rental_uris":{"android":"levelo://app?vid=cc720bb2-8afe-44ad-b69a-579fedb17166","ios":"levelo://app?vid=cc720bb2-8afe-44ad-b69a-579fedb17166"},"vehicle_type_id":"4","last_reported":1700240770,"current_range_meters":18400,"station_id":"ce4bh512rcd13ifvqe3g","pricing_plan_id":"free"},{"bike_id":"d3dd3e3d-57b0-4c9e-949f-fddd56c2349c","system_id":"levelo_inurba_marseille","lat":43.32521,"lon":5.40575,"is_reserved":false,"is_disabled":false,"rental_uris":{"android":"levelo://app?vid=d3dd3e3d-57b0-4c9e-949f-fddd56c2349c","ios":"levelo://app?vid=d3dd3e3d-57b0-4c9e-949f-fddd56c2349c"},"vehicle_type_id":"4","last_reported":1700240770,"current_range_meters":5600,"station_id":"","pricing_plan_id":"free"},{"bike_id":"9463e57c-8220-4c1b-83fb-66b383292091","system_id":"levelo_inurba_marseille","lat":43.292724,"lon":5.401131,"is_reserved":false,"is_disabled":false,"rental_uris":{"android":"levelo://app?vid=9463e57c-8220-4c1b-83fb-66b383292091","ios":"levelo://app?vid=9463e57c-8220-4c1b-83fb-66b383292091"},"vehicle_type_id":"4","last_reported":1700240770,"current_range_meters":2800,"station_id":"ce4bh312rcd13ifvqdk0","pricing_plan_id":"free"},{"bike_id":"2683996f-a7e4-43b0-855f-d7b1cb9074c5","system_id":"levelo_inurba_marseille","lat":43.292724,"lon":5.401131,"is_reserved":false,"is_disabled":false,"rental_uris":{"android":"levelo://app?vid=2683996f-a7e4-43b0-855f-d7b1cb9074c5","ios":"levelo://app?vid=2683996f-a7e4-43b0-855f-d7b1cb9074c5"},"vehicle_type_id":"4","last_reported":1700240770,"current_range_meters":4400,"station_id":"ce4bh312rcd13ifvqdk0","pricing_plan_id":"free"},{"bike_id":"085093ea-3478-4a0e-911e-ee88ec0a3525","system_id":"levelo_inurba_marseille","lat":43.282754,"lon":5.350519,"is_reserved":false,"is_disabled":false,"rental_uris":{"android":"levelo://app?vid=085093ea-3478-4a0e-911e-ee88ec0a3525","ios":"levelo://app?vid=085093ea-3478-4a0e-911e-ee88ec0a3525"},"vehicle_type_id":"4","last_reported":1700240770,"current_range_meters":17200,"station_id":"ce4bhbp2rcd13ifvqerg","pricing_plan_id":"free"},{"bike_id":"9fbe2e1f-8f11-4ebc-9b6a-eb0ba233a374","system_id":"levelo_inurba_marseille","lat":43.282687,"lon":5.350817,"is_reserved":false,"is_disabled":false,"rental_uris":{"android":"levelo://app?vid=9fbe2e1f-8f11-4ebc-9b6a-eb0ba233a374","ios":"levelo://app?vid=9fbe2e1f-8f11-4ebc-9b6a-eb0ba233a374"},"vehicle_type_id":"4","last_reported":1700240770,"current_range_meters":30000,"station_id":"ce4bhbp2rcd13ifvqerg","pricing_plan_id":"free"},{"bike_id":"e0416858-4f12-42fc-b1e3-8dde4b3a73ed","system_id":"levelo_inurba_marseille","lat":43.283502,"lon":5.386471,"is_reserved":false,"is_disabled":false,"rental_uris":{"android":"levelo://app?vid=e0416858-4f12-42fc-b1e3-8dde4b3a73ed","ios":"levelo://app?vid=e0416858-4f12-42fc-b1e3-8dde4b3a73ed"},"vehicle_type_id":"4","last_reported":1700240770,"current_range_meters":25200,"station_id":"ce4bh492rcd13ifvqdvg","pricing_plan_id":"free"},{"bike_id":"506496be-8e7f-4fca-be0f-ef8b33fb6b16","system_id":"levelo_inurba_marseille","lat":43.282754,"lon":5.350519,"is_reserved":false,"is_disabled":false,"rental_uris":{"android":"levelo://app?vid=506496be-8e7f-4fca-be0f-ef8b33fb6b16","ios":"levelo://app?vid=506496be-8e7f-4fca-be0f-ef8b33fb6b16"},"vehicle_type_id":"4","last_reported":1700240770,"current_range_meters":20400,"station_id":"ce4bhbp2rcd13ifvqerg","pricing_plan_id":"free"},{"bike_id":"0baa57d6-8a96-4c8b-9d75-97640c99fb2a","system_id":"levelo_inurba_marseille","lat":43.283502,"lon":5.386471,"is_reserved":false,"is_disabled":false,"rental_uris":{"android":"levelo://app?vid=0baa57d6-8a96-4c8b-9d75-97640c99fb2a","ios":"levelo://app?vid=0baa57d6-8a96-4c8b-9d75-97640c99fb2a"},"vehicle_type_id":"4","last_reported":1700240770,"current_range_meters":8400,"station_id":"ce4bh492rcd13ifvqdvg","pricing_plan_id":"free"},{"bike_id":"3a4a65a6-c8f8-4452-b335-0ad4b6acfcd8","system_id":"levelo_inurba_marseille","lat":43.283502,"lon":5.386471,"is_reserved":false,"is_disabled":false,"rental_uris":{"android":"levelo://app?vid=3a4a65a6-c8f8-4452-b335-0ad4b6acfcd8","ios":"levelo://app?vid=3a4a65a6-c8f8-4452-b335-0ad4b6acfcd8"},"vehicle_type_id":"4","last_reported":1700240770,"current_range_meters":19200,"station_id":"ce4bh492rcd13ifvqdvg","pricing_plan_id":"free"},{"bike_id":"e033abd1-ad76-4ea9-a23a-e0c70ce95c78","system_id":"levelo_inurba_marseille","lat":43.284462,"lon":5.392121,"is_reserved":false,"is_disabled":false,"rental_uris":{"android":"levelo://app?vid=e033abd1-ad76-4ea9-a23a-e0c70ce95c78","ios":"levelo://app?vid=e033abd1-ad76-4ea9-a23a-e0c70ce95c78"},"vehicle_type_id":"4","last_reported":1700240770,"current_range_meters":20400,"station_id":"ce4bhoh2rcd13ifvqh5g","pricing_plan_id":"free"},{"bike_id":"ccf9b17e-2fb6-47d5-b5cb-73ea08fcb6e5","system_id":"levelo_inurba_marseille","lat":43.28575,"lon":5.39498,"is_reserved":false,"is_disabled":false,"rental_uris":{"android":"levelo://app?vid=ccf9b17e-2fb6-47d5-b5cb-73ea08fcb6e5","ios":"levelo://app?vid=ccf9b17e-2fb6-47d5-b5cb-73ea08fcb6e5"},"vehicle_type_id":"4","last_reported":1700240770,"current_range_meters":4400,"station_id":"ce4bh292rcd13ifvqdg0","pricing_plan_id":"free"},{"bike_id":"4ea4af05-a71a-4c9d-91c8-99554ef6d840","system_id":"levelo_inurba_marseille","lat":43.285742,"lon":5.395004,"is_reserved":false,"is_disabled":false,"rental_uris":{"android":"levelo://app?vid=4ea4af05-a71a-4c9d-91c8-99554ef6d840","ios":"levelo://app?vid=4ea4af05-a71a-4c9d-91c8-99554ef6d840"},"vehicle_type_id":"4","last_reported":1700240770,"current_range_meters":18000,"station_id":"ce4bh292rcd13ifvqdg0","pricing_plan_id":"free"},{"bike_id":"f0ef042d-6ae6-4c35-aa7c-5c69c60b8bb2","system_id":"levelo_inurba_marseille","lat":43.32663,"lon":5.40952,"is_reserved":false,"is_disabled":false,"rental_uris":{"android":"levelo://app?vid=f0ef042d-6ae6-4c35-aa7c-5c69c60b8bb2","ios":"levelo://app?vid=f0ef042d-6ae6-4c35-aa7c-5c69c60b8bb2"},"vehicle_type_id":"4","last_reported":1700240770,"current_range_meters":400,"station_id":"ce4bhpp2rcd13ifvqhgg","pricing_plan_id":"free"},{"bike_id":"d02d0a2a-c647-4a90-9f0b-431f08560bc4","system_id":"levelo_inurba_marseille","lat":43.284462,"lon":5.392121,"is_reserved":false,"is_disabled":false,"rental_uris":{"android":"levelo://app?vid=d02d0a2a-c647-4a90-9f0b-431f08560bc4","ios":"levelo://app?vid=d02d0a2a-c647-4a90-9f0b-431f08560bc4"},"vehicle_type_id":"4","last_reported":1700240770,"current_range_meters":20400,"station_id":"ce4bhoh2rcd13ifvqh5g","pricing_plan_id":"free"},{"bike_id":"848d1be3-d577-47e5-9903-a320bd11477a","system_id":"levelo_inurba_marseille","lat":43.30414,"lon":5.41288,"is_reserved":false,"is_disabled":false,"rental_uris":{"android":"levelo://app?vid=848d1be3-d577-47e5-9903-a320bd11477a","ios":"levelo://app?vid=848d1be3-d577-47e5-9903-a320bd11477a"},"vehicle_type_id":"4","last_reported":1700240770,"current_range_meters":20000,"station_id":"ce4bhop2rcd13ifvqh8g","pricing_plan_id":"free"},{"bike_id":"d15d5372-b01a-4896-b73d-e5b43795cf36","system_id":"levelo_inurba_marseille","lat":43.304188,"lon":5.412904,"is_reserved":false,"is_disabled":false,"rental_uris":{"android":"levelo://app?vid=d15d5372-b01a-4896-b73d-e5b43795cf36","ios":"levelo://app?vid=d15d5372-b01a-4896-b73d-e5b43795cf36"},"vehicle_type_id":"4","last_reported":1700240770,"current_range_meters":27200,"station_id":"ce4bhop2rcd13ifvqh8g","pricing_plan_id":"free"},{"bike_id":"9984ffd2-a686-45b9-98ec-c0e01a09db74","system_id":"levelo_inurba_marseille","lat":43.304188,"lon":5.412904,"is_reserved":false,"is_disabled":false,"rental_uris":{"android":"levelo://app?vid=9984ffd2-a686-45b9-98ec-c0e01a09db74","ios":"levelo://app?vid=9984ffd2-a686-45b9-98ec-c0e01a09db74"},"vehicle_type_id":"4","last_reported":1700240770,"current_range_meters":1600,"station_id":"ce4bhop2rcd13ifvqh8g","pricing_plan_id":"free"},{"bike_id":"0ae07831-3568-4f31-aad7-820100296a64","system_id":"levelo_inurba_marseille","lat":43.32049,"lon":5.414082,"is_reserved":false,"is_disabled":false,"rental_uris":{"android":"levelo://app?vid=0ae07831-3568-4f31-aad7-820100296a64","ios":"levelo://app?vid=0ae07831-3568-4f31-aad7-820100296a64"},"vehicle_type_id":"4","last_reported":1700240770,"current_range_meters":2000,"station_id":"ce4bhq92rcd13ifvqhkg","pricing_plan_id":"free"},{"bike_id":"3cb3b61c-339e-47e1-9875-71e22e370819","system_id":"levelo_inurba_marseille","lat":43.2787,"lon":5.38227,"is_reserved":false,"is_disabled":false,"rental_uris":{"android":"levelo://app?vid=3cb3b61c-339e-47e1-9875-71e22e370819","ios":"levelo://app?vid=3cb3b61c-339e-47e1-9875-71e22e370819"},"vehicle_type_id":"4","last_reported":1700240770,"current_range_meters":0,"station_id":"ce4bhih2rcd13ifvqfs0","pricing_plan_id":"free"},{"bike_id":"feca28d2-7019-4e39-96be-d7938cc29597","system_id":"levelo_inurba_marseille","lat":43.32435,"lon":5.4137,"is_reserved":false,"is_disabled":false,"rental_uris":{"android":"levelo://app?vid=feca28d2-7019-4e39-96be-d7938cc29597","ios":"levelo://app?vid=feca28d2-7019-4e39-96be-d7938cc29597"},"vehicle_type_id":"4","last_reported":1700240770,"current_range_meters":0,"station_id":"","pricing_plan_id":"free"},{"bike_id":"4708c0d8-dca2-4e79-9a80-47bc137b851e","system_id":"levelo_inurba_marseille","lat":43.284534,"lon":5.358662,"is_reserved":false,"is_disabled":false,"rental_uris":{"android":"levelo://app?vid=4708c0d8-dca2-4e79-9a80-47bc137b851e","ios":"levelo://app?vid=4708c0d8-dca2-4e79-9a80-47bc137b851e"},"vehicle_type_id":"4","last_reported":1700240770,"current_range_meters":31600,"station_id":"ce4bhah2rcd13ifvqei0","pricing_plan_id":"free"},{"bike_id":"bf4a4f11-6379-4660-b7b8-bc752dcfe1a4","system_id":"levelo_inurba_marseille","lat":43.303837,"lon":5.418724,"is_reserved":false,"is_disabled":false,"rental_uris":{"android":"levelo://app?vid=bf4a4f11-6379-4660-b7b8-bc752dcfe1a4","ios":"levelo://app?vid=bf4a4f11-6379-4660-b7b8-bc752dcfe1a4"},"vehicle_type_id":"4","last_reported":1700240770,"current_range_meters":28800,"station_id":"ce4bhop2rcd13ifvqh7g","pricing_plan_id":"free"},{"bike_id":"79172852-fd17-4a2e-b68f-4588cc5548a8","system_id":"levelo_inurba_marseille","lat":43.275625,"lon":5.384392,"is_reserved":false,"is_disabled":false,"rental_uris":{"android":"levelo://app?vid=79172852-fd17-4a2e-b68f-4588cc5548a8","ios":"levelo://app?vid=79172852-fd17-4a2e-b68f-4588cc5548a8"},"vehicle_type_id":"4","last_reported":1700240770,"current_range_meters":26800,"station_id":"ce4bhh92rcd13ifvqfi0","pricing_plan_id":"free"},{"bike_id":"a43a088b-8dcf-4264-be5b-f67fa7fa0705","system_id":"levelo_inurba_marseille","lat":43.273609,"lon":5.362708,"is_reserved":false,"is_disabled":false,"rental_uris":{"android":"levelo://app?vid=a43a088b-8dcf-4264-be5b-f67fa7fa0705","ios":"levelo://app?vid=a43a088b-8dcf-4264-be5b-f67fa7fa0705"},"vehicle_type_id":"4","last_reported":1700240770,"current_range_meters":12800,"station_id":"ce4bhbh2rcd13ifvqeo0","pricing_plan_id":"free"},{"bike_id":"275354d1-efab-42db-8c0b-0cc33941cf6d","system_id":"levelo_inurba_marseille","lat":43.275625,"lon":5.384392,"is_reserved":false,"is_disabled":false,"rental_uris":{"android":"levelo://app?vid=275354d1-efab-42db-8c0b-0cc33941cf6d","ios":"levelo://app?vid=275354d1-efab-42db-8c0b-0cc33941cf6d"},"vehicle_type_id":"4","last_reported":1700240770,"current_range_meters":12800,"station_id":"ce4bhh92rcd13ifvqfi0","pricing_plan_id":"free"},{"bike_id":"0dc094a1-e683-4360-a0b8-0a0a932f8421","system_id":"levelo_inurba_marseille","lat":43.28004,"lon":5.40011,"is_reserved":false,"is_disabled":false,"rental_uris":{"android":"levelo://app?vid=0dc094a1-e683-4360-a0b8-0a0a932f8421","ios":"levelo://app?vid=0dc094a1-e683-4360-a0b8-0a0a932f8421"},"vehicle_type_id":"4","last_reported":1700240770,"current_range_meters":0,"station_id":"ce4bho92rcd13ifvqh4g","pricing_plan_id":"free"},{"bike_id":"c1382a79-1223-41e6-a2a7-af972f572752","system_id":"levelo_inurba_marseille","lat":43.279952,"lon":5.400085,"is_reserved":false,"is_disabled":false,"rental_uris":{"android":"levelo://app?vid=c1382a79-1223-41e6-a2a7-af972f572752","ios":"levelo://app?vid=c1382a79-1223-41e6-a2a7-af972f572752"},"vehicle_type_id":"4","last_reported":1700240770,"current_range_meters":28000,"station_id":"ce4bho92rcd13ifvqh4g","pricing_plan_id":"free"},{"bike_id":"928b6e0e-40eb-4739-b8e5-8ff81b50929f","system_id":"levelo_inurba_marseille","lat":43.279952,"lon":5.400085,"is_reserved":false,"is_disabled":false,"rental_uris":{"android":"levelo://app?vid=928b6e0e-40eb-4739-b8e5-8ff81b50929f","ios":"levelo://app?vid=928b6e0e-40eb-4739-b8e5-8ff81b50929f"},"vehicle_type_id":"4","last_reported":1700240770,"current_range_meters":31600,"station_id":"ce4bho92rcd13ifvqh4g","pricing_plan_id":"free"},{"bike_id":"67a90b89-3153-4f9a-8b1a-af0c5cd9ae4c","system_id":"levelo_inurba_marseille","lat":43.27989,"lon":5.40025,"is_reserved":false,"is_disabled":false,"rental_uris":{"android":"levelo://app?vid=67a90b89-3153-4f9a-8b1a-af0c5cd9ae4c","ios":"levelo://app?vid=67a90b89-3153-4f9a-8b1a-af0c5cd9ae4c"},"vehicle_type_id":"4","last_reported":1700240770,"current_range_meters":29600,"station_id":"ce4bho92rcd13ifvqh4g","pricing_plan_id":"free"},{"bike_id":"00a8f92a-4508-4492-b23c-a088f1c0bc01","system_id":"levelo_inurba_marseille","lat":43.317121,"lon":5.423936,"is_reserved":false,"is_disabled":false,"rental_uris":{"android":"levelo://app?vid=00a8f92a-4508-4492-b23c-a088f1c0bc01","ios":"levelo://app?vid=00a8f92a-4508-4492-b23c-a088f1c0bc01"},"vehicle_type_id":"4","last_reported":1700240770,"current_range_meters":21200,"station_id":"ce4bhp92rcd13ifvqhbg","pricing_plan_id":"free"},{"bike_id":"24aa0a88-1dd8-4b76-9f73-aed843f88dc7","system_id":"levelo_inurba_marseille","lat":43.31721,"lon":5.42397,"is_reserved":false,"is_disabled":false,"rental_uris":{"android":"levelo://app?vid=24aa0a88-1dd8-4b76-9f73-aed843f88dc7","ios":"levelo://app?vid=24aa0a88-1dd8-4b76-9f73-aed843f88dc7"},"vehicle_type_id":"4","last_reported":1700240770,"current_range_meters":6000,"station_id":"ce4bhp92rcd13ifvqhbg","pricing_plan_id":"free"},{"bike_id":"10cba5e8-18f0-4d14-8d2e-081a5251cbf3","system_id":"levelo_inurba_marseille","lat":43.317121,"lon":5.423936,"is_reserved":false,"is_disabled":false,"rental_uris":{"android":"levelo://app?vid=10cba5e8-18f0-4d14-8d2e-081a5251cbf3","ios":"levelo://app?vid=10cba5e8-18f0-4d14-8d2e-081a5251cbf3"},"vehicle_type_id":"4","last_reported":1700240770,"current_range_meters":2800,"station_id":"ce4bhp92rcd13ifvqhbg","pricing_plan_id":"free"},{"bike_id":"fb22bd50-f0d2-4147-96d1-15b1701477ba","system_id":"levelo_inurba_marseille","lat":43.317121,"lon":5.423936,"is_reserved":false,"is_disabled":false,"rental_uris":{"android":"levelo://app?vid=fb22bd50-f0d2-4147-96d1-15b1701477ba","ios":"levelo://app?vid=fb22bd50-f0d2-4147-96d1-15b1701477ba"},"vehicle_type_id":"4","last_reported":1700240770,"current_range_meters":10800,"station_id":"ce4bhp92rcd13ifvqhbg","pricing_plan_id":"free"},{"bike_id":"fb3504da-13bc-4e4b-8bbf-76e751be555a","system_id":"levelo_inurba_marseille","lat":43.317121,"lon":5.423936,"is_reserved":false,"is_disabled":false,"rental_uris":{"android":"levelo://app?vid=fb3504da-13bc-4e4b-8bbf-76e751be555a","ios":"levelo://app?vid=fb3504da-13bc-4e4b-8bbf-76e751be555a"},"vehicle_type_id":"4","last_reported":1700240770,"current_range_meters":26800,"station_id":"ce4bhp92rcd13ifvqhbg","pricing_plan_id":"free"},{"bike_id":"28eb2950-647d-44d2-a49b-6ada0aac509a","system_id":"levelo_inurba_marseille","lat":43.317121,"lon":5.423936,"is_reserved":false,"is_disabled":false,"rental_uris":{"android":"levelo://app?vid=28eb2950-647d-44d2-a49b-6ada0aac509a","ios":"levelo://app?vid=28eb2950-647d-44d2-a49b-6ada0aac509a"},"vehicle_type_id":"4","last_reported":1700240770,"current_range_meters":31200,"station_id":"ce4bhp92rcd13ifvqhbg","pricing_plan_id":"free"},{"bike_id":"1cdf8db3-01b1-4282-aaff-b8687a45a5be","system_id":"levelo_inurba_marseille","lat":43.310785,"lon":5.424305,"is_reserved":false,"is_disabled":false,"rental_uris":{"android":"levelo://app?vid=1cdf8db3-01b1-4282-aaff-b8687a45a5be","ios":"levelo://app?vid=1cdf8db3-01b1-4282-aaff-b8687a45a5be"},"vehicle_type_id":"4","last_reported":1700240770,"current_range_meters":12000,"station_id":"ce4bhp92rcd13ifvqhag","pricing_plan_id":"free"},{"bike_id":"c17c797d-9654-4386-9415-5acfda46f9b8","system_id":"levelo_inurba_marseille","lat":43.310785,"lon":5.424305,"is_reserved":false,"is_disabled":false,"rental_uris":{"android":"levelo://app?vid=c17c797d-9654-4386-9415-5acfda46f9b8","ios":"levelo://app?vid=c17c797d-9654-4386-9415-5acfda46f9b8"},"vehicle_type_id":"4","last_reported":1700240770,"current_range_meters":29600,"station_id":"ce4bhp92rcd13ifvqhag","pricing_plan_id":"free"},{"bike_id":"2eb9c8ea-eafc-4114-96e5-18995d764647","system_id":"levelo_inurba_marseille","lat":43.310785,"lon":5.424305,"is_reserved":false,"is_disabled":false,"rental_uris":{"android":"levelo://app?vid=2eb9c8ea-eafc-4114-96e5-18995d764647","ios":"levelo://app?vid=2eb9c8ea-eafc-4114-96e5-18995d764647"},"vehicle_type_id":"4","last_reported":1700240770,"current_range_meters":2800,"station_id":"ce4bhp92rcd13ifvqhag","pricing_plan_id":"free"},{"bike_id":"19fb1fc1-cf11-46a9-9654-435388c83a65","system_id":"levelo_inurba_marseille","lat":43.310785,"lon":5.424305,"is_reserved":false,"is_disabled":false,"rental_uris":{"android":"levelo://app?vid=19fb1fc1-cf11-46a9-9654-435388c83a65","ios":"levelo://app?vid=19fb1fc1-cf11-46a9-9654-435388c83a65"},"vehicle_type_id":"4","last_reported":1700240770,"current_range_meters":5600,"station_id":"ce4bhp92rcd13ifvqhag","pricing_plan_id":"free"},{"bike_id":"d1228e13-93fe-4c14-9fcc-4c506b408998","system_id":"levelo_inurba_marseille","lat":43.284538,"lon":5.358657,"is_reserved":false,"is_disabled":false,"rental_uris":{"android":"levelo://app?vid=d1228e13-93fe-4c14-9fcc-4c506b408998","ios":"levelo://app?vid=d1228e13-93fe-4c14-9fcc-4c506b408998"},"vehicle_type_id":"4","last_reported":1700240770,"current_range_meters":27200,"station_id":"ce4bhah2rcd13ifvqei0","pricing_plan_id":"free"},{"bike_id":"bdc5e661-df37-486c-886f-2762ae170d1a","system_id":"levelo_inurba_marseille","lat":43.273125,"lon":5.390731,"is_reserved":false,"is_disabled":false,"rental_uris":{"android":"levelo://app?vid=bdc5e661-df37-486c-886f-2762ae170d1a","ios":"levelo://app?vid=bdc5e661-df37-486c-886f-2762ae170d1a"},"vehicle_type_id":"4","last_reported":1700240770,"current_range_meters":21200,"station_id":"ce4bhgp2rcd13ifvqfe0","pricing_plan_id":"free"},{"bike_id":"5c0fb329-8b06-4073-962a-47260450517e","system_id":"levelo_inurba_marseille","lat":43.274099,"lon":5.394019,"is_reserved":false,"is_disabled":false,"rental_uris":{"android":"levelo://app?vid=5c0fb329-8b06-4073-962a-47260450517e","ios":"levelo://app?vid=5c0fb329-8b06-4073-962a-47260450517e"},"vehicle_type_id":"4","last_reported":1700240770,"current_range_meters":2800,"station_id":"ce4bhdp2rcd13ifvqf20","pricing_plan_id":"free"},{"bike_id":"b48ca7a8-d3b5-4cf0-a174-7172577466a5","system_id":"levelo_inurba_marseille","lat":43.273129,"lon":5.390725,"is_reserved":false,"is_disabled":false,"rental_uris":{"android":"levelo://app?vid=b48ca7a8-d3b5-4cf0-a174-7172577466a5","ios":"levelo://app?vid=b48ca7a8-d3b5-4cf0-a174-7172577466a5"},"vehicle_type_id":"4","last_reported":1700240770,"current_range_meters":17200,"station_id":"ce4bhgp2rcd13ifvqfe0","pricing_plan_id":"free"},{"bike_id":"13252d73-707d-4199-ab20-428c81784b6b","system_id":"levelo_inurba_marseille","lat":43.295511,"lon":5.422926,"is_reserved":false,"is_disabled":false,"rental_uris":{"android":"levelo://app?vid=13252d73-707d-4199-ab20-428c81784b6b","ios":"levelo://app?vid=13252d73-707d-4199-ab20-428c81784b6b"},"vehicle_type_id":"4","last_reported":1700240770,"current_range_meters":30400,"station_id":"ce4bhph2rcd13ifvqhdg","pricing_plan_id":"free"},{"bike_id":"69f31537-69cb-488a-afba-d300c458573e","system_id":"levelo_inurba_marseille","lat":43.29549,"lon":5.42277,"is_reserved":false,"is_disabled":false,"rental_uris":{"android":"levelo://app?vid=69f31537-69cb-488a-afba-d300c458573e","ios":"levelo://app?vid=69f31537-69cb-488a-afba-d300c458573e"},"vehicle_type_id":"4","last_reported":1700240770,"current_range_meters":29200,"station_id":"ce4bhph2rcd13ifvqhdg","pricing_plan_id":"free"},{"bike_id":"b3b330a1-4516-44af-aced-f7c4cb0814b3","system_id":"levelo_inurba_marseille","lat":43.27201,"lon":5.39193,"is_reserved":false,"is_disabled":false,"rental_uris":{"android":"levelo://app?vid=b3b330a1-4516-44af-aced-f7c4cb0814b3","ios":"levelo://app?vid=b3b330a1-4516-44af-aced-f7c4cb0814b3"},"vehicle_type_id":"4","last_reported":1700240770,"current_range_meters":11200,"station_id":"ce4bhhp2rcd13ifvqfm0","pricing_plan_id":"free"},{"bike_id":"139753b1-0b83-4c3a-80f1-5052bac15461","system_id":"levelo_inurba_marseille","lat":43.27217,"lon":5.39262,"is_reserved":false,"is_disabled":false,"rental_uris":{"android":"levelo://app?vid=139753b1-0b83-4c3a-80f1-5052bac15461","ios":"levelo://app?vid=139753b1-0b83-4c3a-80f1-5052bac15461"},"vehicle_type_id":"4","last_reported":1700240770,"current_range_meters":9600,"station_id":"","pricing_plan_id":"free"},{"bike_id":"fe139271-7817-4645-9ec4-f7eee743e805","system_id":"levelo_inurba_marseille","lat":43.271896,"lon":5.392307,"is_reserved":false,"is_disabled":false,"rental_uris":{"android":"levelo://app?vid=fe139271-7817-4645-9ec4-f7eee743e805","ios":"levelo://app?vid=fe139271-7817-4645-9ec4-f7eee743e805"},"vehicle_type_id":"4","last_reported":1700240770,"current_range_meters":400,"station_id":"ce4bhhp2rcd13ifvqfm0","pricing_plan_id":"free"},{"bike_id":"f0ed4531-078e-42fb-a007-3ed80505eb54","system_id":"levelo_inurba_marseille","lat":43.271891,"lon":5.392412,"is_reserved":false,"is_disabled":false,"rental_uris":{"android":"levelo://app?vid=f0ed4531-078e-42fb-a007-3ed80505eb54","ios":"levelo://app?vid=f0ed4531-078e-42fb-a007-3ed80505eb54"},"vehicle_type_id":"4","last_reported":1700240770,"current_range_meters":10400,"station_id":"","pricing_plan_id":"free"},{"bike_id":"fe75077d-42bf-43ae-8fa2-44109df3d40a","system_id":"levelo_inurba_marseille","lat":43.27203,"lon":5.39295,"is_reserved":false,"is_disabled":false,"rental_uris":{"android":"levelo://app?vid=fe75077d-42bf-43ae-8fa2-44109df3d40a","ios":"levelo://app?vid=fe75077d-42bf-43ae-8fa2-44109df3d40a"},"vehicle_type_id":"4","last_reported":1700240770,"current_range_meters":0,"station_id":"","pricing_plan_id":"free"},{"bike_id":"2d1af1cb-1841-488f-a049-188741a7a8db","system_id":"levelo_inurba_marseille","lat":43.278128,"lon":5.407195,"is_reserved":false,"is_disabled":false,"rental_uris":{"android":"levelo://app?vid=2d1af1cb-1841-488f-a049-188741a7a8db","ios":"levelo://app?vid=2d1af1cb-1841-488f-a049-188741a7a8db"},"vehicle_type_id":"4","last_reported":1700240770,"current_range_meters":30800,"station_id":"ce4bhnh2rcd13ifvqgtg","pricing_plan_id":"free"},{"bike_id":"ae23b3fc-c8b5-4116-961c-e88654b02004","system_id":"levelo_inurba_marseille","lat":43.278076,"lon":5.407109,"is_reserved":false,"is_disabled":false,"rental_uris":{"android":"levelo://app?vid=ae23b3fc-c8b5-4116-961c-e88654b02004","ios":"levelo://app?vid=ae23b3fc-c8b5-4116-961c-e88654b02004"},"vehicle_type_id":"4","last_reported":1700240770,"current_range_meters":6000,"station_id":"ce4bhnh2rcd13ifvqgtg","pricing_plan_id":"free"},{"bike_id":"d9978e5c-d9f9-4673-9e33-b317f3e8029f","system_id":"levelo_inurba_marseille","lat":43.278128,"lon":5.407195,"is_reserved":false,"is_disabled":false,"rental_uris":{"android":"levelo://app?vid=d9978e5c-d9f9-4673-9e33-b317f3e8029f","ios":"levelo://app?vid=d9978e5c-d9f9-4673-9e33-b317f3e8029f"},"vehicle_type_id":"4","last_reported":1700240770,"current_range_meters":6800,"station_id":"ce4bhnh2rcd13ifvqgtg","pricing_plan_id":"free"},{"bike_id":"afb5d5ed-9eb2-4479-91c7-6b491c8ef436","system_id":"levelo_inurba_marseille","lat":43.278128,"lon":5.407195,"is_reserved":false,"is_disabled":false,"rental_uris":{"android":"levelo://app?vid=afb5d5ed-9eb2-4479-91c7-6b491c8ef436","ios":"levelo://app?vid=afb5d5ed-9eb2-4479-91c7-6b491c8ef436"},"vehicle_type_id":"4","last_reported":1700240770,"current_range_meters":22000,"station_id":"ce4bhnh2rcd13ifvqgtg","pricing_plan_id":"free"},{"bike_id":"534bd104-fd6a-45d5-a844-9aaca2037e4c","system_id":"levelo_inurba_marseille","lat":43.279465,"lon":5.410561,"is_reserved":false,"is_disabled":false,"rental_uris":{"android":"levelo://app?vid=534bd104-fd6a-45d5-a844-9aaca2037e4c","ios":"levelo://app?vid=534bd104-fd6a-45d5-a844-9aaca2037e4c"},"vehicle_type_id":"4","last_reported":1700240770,"current_range_meters":6400,"station_id":"ce4bhnp2rcd13ifvqh0g","pricing_plan_id":"free"},{"bike_id":"879daae8-a3fe-4f9b-ba88-26203e5654d5","system_id":"levelo_inurba_marseille","lat":43.26554,"lon":5.37306,"is_reserved":false,"is_disabled":false,"rental_uris":{"android":"levelo://app?vid=879daae8-a3fe-4f9b-ba88-26203e5654d5","ios":"levelo://app?vid=879daae8-a3fe-4f9b-ba88-26203e5654d5"},"vehicle_type_id":"4","last_reported":1700240770,"current_range_meters":30800,"station_id":"ce4bhg12rcd13ifvqf70","pricing_plan_id":"free"},{"bike_id":"c7758cb2-2a45-4f89-aa5c-0e391d845c76","system_id":"levelo_inurba_marseille","lat":43.326053,"lon":5.429943,"is_reserved":false,"is_disabled":false,"rental_uris":{"android":"levelo://app?vid=c7758cb2-2a45-4f89-aa5c-0e391d845c76","ios":"levelo://app?vid=c7758cb2-2a45-4f89-aa5c-0e391d845c76"},"vehicle_type_id":"4","last_reported":1700240770,"current_range_meters":4000,"station_id":"","pricing_plan_id":"free"},{"bike_id":"d2dbf6f3-c049-4ef3-9c06-ce23a9629d4d","system_id":"levelo_inurba_marseille","lat":43.27996,"lon":5.416624,"is_reserved":false,"is_disabled":false,"rental_uris":{"android":"levelo://app?vid=d2dbf6f3-c049-4ef3-9c06-ce23a9629d4d","ios":"levelo://app?vid=d2dbf6f3-c049-4ef3-9c06-ce23a9629d4d"},"vehicle_type_id":"4","last_reported":1700240770,"current_range_meters":11600,"station_id":"ce4bho12rcd13ifvqh1g","pricing_plan_id":"free"},{"bike_id":"29b614c2-a846-4184-a1bc-46261d03da3f","system_id":"levelo_inurba_marseille","lat":43.27996,"lon":5.416624,"is_reserved":false,"is_disabled":false,"rental_uris":{"android":"levelo://app?vid=29b614c2-a846-4184-a1bc-46261d03da3f","ios":"levelo://app?vid=29b614c2-a846-4184-a1bc-46261d03da3f"},"vehicle_type_id":"4","last_reported":1700240770,"current_range_meters":26400,"station_id":"ce4bho12rcd13ifvqh1g","pricing_plan_id":"free"},{"bike_id":"8b1489e9-922a-4416-82b6-f6b7e59ca02f","system_id":"levelo_inurba_marseille","lat":43.2657,"lon":5.39008,"is_reserved":false,"is_disabled":false,"rental_uris":{"android":"levelo://app?vid=8b1489e9-922a-4416-82b6-f6b7e59ca02f","ios":"levelo://app?vid=8b1489e9-922a-4416-82b6-f6b7e59ca02f"},"vehicle_type_id":"4","last_reported":1700240770,"current_range_meters":24800,"station_id":"ce4bhe12rcd13ifvqf30","pricing_plan_id":"free"},{"bike_id":"4f1a8672-1ec6-4130-9acf-8c25440f03dd","system_id":"levelo_inurba_marseille","lat":43.308051,"lon":5.43527,"is_reserved":false,"is_disabled":false,"rental_uris":{"android":"levelo://app?vid=4f1a8672-1ec6-4130-9acf-8c25440f03dd","ios":"levelo://app?vid=4f1a8672-1ec6-4130-9acf-8c25440f03dd"},"vehicle_type_id":"4","last_reported":1700240770,"current_range_meters":27200,"station_id":"ce4bhph2rcd13ifvqheg","pricing_plan_id":"free"},{"bike_id":"891e87dd-2257-478e-bba5-106a7e6f7b10","system_id":"levelo_inurba_marseille","lat":43.26949,"lon":5.40262,"is_reserved":false,"is_disabled":false,"rental_uris":{"android":"levelo://app?vid=891e87dd-2257-478e-bba5-106a7e6f7b10","ios":"levelo://app?vid=891e87dd-2257-478e-bba5-106a7e6f7b10"},"vehicle_type_id":"4","last_reported":1700240770,"current_range_meters":8800,"station_id":"cjm6bp8fraef2m0cb0m0","pricing_plan_id":"free"},{"bike_id":"827de441-b4ea-4062-92de-0b8a8dd71123","system_id":"levelo_inurba_marseille","lat":43.26946,"lon":5.40258,"is_reserved":false,"is_disabled":false,"rental_uris":{"android":"levelo://app?vid=827de441-b4ea-4062-92de-0b8a8dd71123","ios":"levelo://app?vid=827de441-b4ea-4062-92de-0b8a8dd71123"},"vehicle_type_id":"4","last_reported":1700240770,"current_range_meters":10000,"station_id":"cjm6bp8fraef2m0cb0m0","pricing_plan_id":"free"},{"bike_id":"20622fa2-97ee-420d-a67c-4bd7e78f66a2","system_id":"levelo_inurba_marseille","lat":43.26947,"lon":5.40262,"is_reserved":false,"is_disabled":false,"rental_uris":{"android":"levelo://app?vid=20622fa2-97ee-420d-a67c-4bd7e78f66a2","ios":"levelo://app?vid=20622fa2-97ee-420d-a67c-4bd7e78f66a2"},"vehicle_type_id":"4","last_reported":1700240770,"current_range_meters":2000,"station_id":"cjm6bp8fraef2m0cb0m0","pricing_plan_id":"free"},{"bike_id":"9953984e-2d3e-48e6-962e-cee12fca28d9","system_id":"levelo_inurba_marseille","lat":43.26949,"lon":5.40262,"is_reserved":false,"is_disabled":false,"rental_uris":{"android":"levelo://app?vid=9953984e-2d3e-48e6-962e-cee12fca28d9","ios":"levelo://app?vid=9953984e-2d3e-48e6-962e-cee12fca28d9"},"vehicle_type_id":"4","last_reported":1700240770,"current_range_meters":22800,"station_id":"cjm6bp8fraef2m0cb0m0","pricing_plan_id":"free"},{"bike_id":"5b88a6b2-e633-44fa-ac8e-61d68eccb3ee","system_id":"levelo_inurba_marseille","lat":43.26941,"lon":5.40263,"is_reserved":false,"is_disabled":false,"rental_uris":{"android":"levelo://app?vid=5b88a6b2-e633-44fa-ac8e-61d68eccb3ee","ios":"levelo://app?vid=5b88a6b2-e633-44fa-ac8e-61d68eccb3ee"},"vehicle_type_id":"4","last_reported":1700240770,"current_range_meters":14000,"station_id":"cjm6bp8fraef2m0cb0m0","pricing_plan_id":"free"},{"bike_id":"d88b6a73-531b-425a-9e55-b97c354f59a2","system_id":"levelo_inurba_marseille","lat":43.31745,"lon":5.436423,"is_reserved":false,"is_disabled":false,"rental_uris":{"android":"levelo://app?vid=d88b6a73-531b-425a-9e55-b97c354f59a2","ios":"levelo://app?vid=d88b6a73-531b-425a-9e55-b97c354f59a2"},"vehicle_type_id":"4","last_reported":1700240770,"current_range_meters":31200,"station_id":"","pricing_plan_id":"free"},{"bike_id":"eb32cd17-d404-4080-abee-8a333af4189d","system_id":"levelo_inurba_marseille","lat":43.317188,"lon":5.436473,"is_reserved":false,"is_disabled":false,"rental_uris":{"android":"levelo://app?vid=eb32cd17-d404-4080-abee-8a333af4189d","ios":"levelo://app?vid=eb32cd17-d404-4080-abee-8a333af4189d"},"vehicle_type_id":"4","last_reported":1700240770,"current_range_meters":30000,"station_id":"","pricing_plan_id":"free"},{"bike_id":"6e89b142-513c-4425-8346-9bf321974646","system_id":"levelo_inurba_marseille","lat":43.26202,"lon":5.379299,"is_reserved":false,"is_disabled":false,"rental_uris":{"android":"levelo://app?vid=6e89b142-513c-4425-8346-9bf321974646","ios":"levelo://app?vid=6e89b142-513c-4425-8346-9bf321974646"},"vehicle_type_id":"4","last_reported":1700240770,"current_range_meters":24000,"station_id":"ce4bhjp2rcd13ifvqg90","pricing_plan_id":"free"},{"bike_id":"fff0eab7-685e-4614-a72b-7d46b76cb096","system_id":"levelo_inurba_marseille","lat":43.271368,"lon":5.40928,"is_reserved":false,"is_disabled":false,"rental_uris":{"android":"levelo://app?vid=fff0eab7-685e-4614-a72b-7d46b76cb096","ios":"levelo://app?vid=fff0eab7-685e-4614-a72b-7d46b76cb096"},"vehicle_type_id":"4","last_reported":1700240770,"current_range_meters":10000,"station_id":"ce4bhl12rcd13ifvqgf0","pricing_plan_id":"free"},{"bike_id":"8bf3e159-fb7c-443a-a3a7-f368cd4d7216","system_id":"levelo_inurba_marseille","lat":43.267959,"lon":5.402685,"is_reserved":false,"is_disabled":false,"rental_uris":{"android":"levelo://app?vid=8bf3e159-fb7c-443a-a3a7-f368cd4d7216","ios":"levelo://app?vid=8bf3e159-fb7c-443a-a3a7-f368cd4d7216"},"vehicle_type_id":"4","last_reported":1700240770,"current_range_meters":21200,"station_id":"ce501612rcd8frsf0b60","pricing_plan_id":"free"},{"bike_id":"66b85ea0-dbcf-4da0-9a6f-818f1011b0e9","system_id":"levelo_inurba_marseille","lat":43.267959,"lon":5.402687,"is_reserved":false,"is_disabled":false,"rental_uris":{"android":"levelo://app?vid=66b85ea0-dbcf-4da0-9a6f-818f1011b0e9","ios":"levelo://app?vid=66b85ea0-dbcf-4da0-9a6f-818f1011b0e9"},"vehicle_type_id":"4","last_reported":1700240770,"current_range_meters":14800,"station_id":"ce501612rcd8frsf0b60","pricing_plan_id":"free"},{"bike_id":"c197ab5b-7f5f-4daa-adc2-3e2ff5ad2020","system_id":"levelo_inurba_marseille","lat":43.267959,"lon":5.402687,"is_reserved":false,"is_disabled":false,"rental_uris":{"android":"levelo://app?vid=c197ab5b-7f5f-4daa-adc2-3e2ff5ad2020","ios":"levelo://app?vid=c197ab5b-7f5f-4daa-adc2-3e2ff5ad2020"},"vehicle_type_id":"4","last_reported":1700240770,"current_range_meters":26400,"station_id":"ce501612rcd8frsf0b60","pricing_plan_id":"free"},{"bike_id":"16641c4b-3b24-48ea-9ac4-2fe332282d5e","system_id":"levelo_inurba_marseille","lat":43.29897,"lon":5.4366,"is_reserved":false,"is_disabled":false,"rental_uris":{"android":"levelo://app?vid=16641c4b-3b24-48ea-9ac4-2fe332282d5e","ios":"levelo://app?vid=16641c4b-3b24-48ea-9ac4-2fe332282d5e"},"vehicle_type_id":"4","last_reported":1700240770,"current_range_meters":22800,"station_id":"ce4bhpp2rcd13ifvqhfg","pricing_plan_id":"free"},{"bike_id":"da0791da-9f06-49f2-9588-28c95573d080","system_id":"levelo_inurba_marseille","lat":43.298768,"lon":5.43643,"is_reserved":false,"is_disabled":false,"rental_uris":{"android":"levelo://app?vid=da0791da-9f06-49f2-9588-28c95573d080","ios":"levelo://app?vid=da0791da-9f06-49f2-9588-28c95573d080"},"vehicle_type_id":"4","last_reported":1700240770,"current_range_meters":30400,"station_id":"ce4bhpp2rcd13ifvqhfg","pricing_plan_id":"free"},{"bike_id":"e88d10aa-0a6f-4a17-81b5-35d623f608c7","system_id":"levelo_inurba_marseille","lat":43.29893,"lon":5.43673,"is_reserved":false,"is_disabled":false,"rental_uris":{"android":"levelo://app?vid=e88d10aa-0a6f-4a17-81b5-35d623f608c7","ios":"levelo://app?vid=e88d10aa-0a6f-4a17-81b5-35d623f608c7"},"vehicle_type_id":"4","last_reported":1700240770,"current_range_meters":6400,"station_id":"ce4bhpp2rcd13ifvqhfg","pricing_plan_id":"free"},{"bike_id":"6024b76e-8d77-4e2b-a82b-92224e06d484","system_id":"levelo_inurba_marseille","lat":43.260225,"lon":5.375455,"is_reserved":false,"is_disabled":false,"rental_uris":{"android":"levelo://app?vid=6024b76e-8d77-4e2b-a82b-92224e06d484","ios":"levelo://app?vid=6024b76e-8d77-4e2b-a82b-92224e06d484"},"vehicle_type_id":"4","last_reported":1700240770,"current_range_meters":31600,"station_id":"ce4bhgh2rcd13ifvqfa0","pricing_plan_id":"free"},{"bike_id":"6571c96e-003a-478d-a5ad-9f32b76827a9","system_id":"levelo_inurba_marseille","lat":43.260225,"lon":5.375455,"is_reserved":false,"is_disabled":false,"rental_uris":{"android":"levelo://app?vid=6571c96e-003a-478d-a5ad-9f32b76827a9","ios":"levelo://app?vid=6571c96e-003a-478d-a5ad-9f32b76827a9"},"vehicle_type_id":"4","last_reported":1700240770,"current_range_meters":400,"station_id":"ce4bhgh2rcd13ifvqfa0","pricing_plan_id":"free"},{"bike_id":"dad4e9ee-3237-42fa-b5f0-5fe8fcad1526","system_id":"levelo_inurba_marseille","lat":43.260219,"lon":5.37546,"is_reserved":false,"is_disabled":false,"rental_uris":{"android":"levelo://app?vid=dad4e9ee-3237-42fa-b5f0-5fe8fcad1526","ios":"levelo://app?vid=dad4e9ee-3237-42fa-b5f0-5fe8fcad1526"},"vehicle_type_id":"4","last_reported":1700240770,"current_range_meters":24000,"station_id":"ce4bhgh2rcd13ifvqfa0","pricing_plan_id":"free"},{"bike_id":"4f6880f4-3164-4fc2-9cf7-3c1358040f10","system_id":"levelo_inurba_marseille","lat":43.290501,"lon":5.433305,"is_reserved":false,"is_disabled":false,"rental_uris":{"android":"levelo://app?vid=4f6880f4-3164-4fc2-9cf7-3c1358040f10","ios":"levelo://app?vid=4f6880f4-3164-4fc2-9cf7-3c1358040f10"},"vehicle_type_id":"4","last_reported":1700240770,"current_range_meters":0,"station_id":"","pricing_plan_id":"free"},{"bike_id":"2eacb89a-3083-4e7e-8fa8-70e7d36e5b59","system_id":"levelo_inurba_marseille","lat":43.281555,"lon":5.426315,"is_reserved":false,"is_disabled":false,"rental_uris":{"android":"levelo://app?vid=2eacb89a-3083-4e7e-8fa8-70e7d36e5b59","ios":"levelo://app?vid=2eacb89a-3083-4e7e-8fa8-70e7d36e5b59"},"vehicle_type_id":"4","last_reported":1700240770,"current_range_meters":9200,"station_id":"ce4bhnh2rcd13ifvqgug","pricing_plan_id":"free"},{"bike_id":"20e5dfb6-6ef4-4944-a082-f1b39d8cfa06","system_id":"levelo_inurba_marseille","lat":43.281548,"lon":5.42643,"is_reserved":false,"is_disabled":false,"rental_uris":{"android":"levelo://app?vid=20e5dfb6-6ef4-4944-a082-f1b39d8cfa06","ios":"levelo://app?vid=20e5dfb6-6ef4-4944-a082-f1b39d8cfa06"},"vehicle_type_id":"4","last_reported":1700240770,"current_range_meters":19200,"station_id":"ce4bhnh2rcd13ifvqgug","pricing_plan_id":"free"},{"bike_id":"ed624338-52e3-462d-962c-40fab89105c5","system_id":"levelo_inurba_marseille","lat":43.281548,"lon":5.42643,"is_reserved":false,"is_disabled":false,"rental_uris":{"android":"levelo://app?vid=ed624338-52e3-462d-962c-40fab89105c5","ios":"levelo://app?vid=ed624338-52e3-462d-962c-40fab89105c5"},"vehicle_type_id":"4","last_reported":1700240770,"current_range_meters":4000,"station_id":"ce4bhnh2rcd13ifvqgug","pricing_plan_id":"free"},{"bike_id":"8d8e9e0c-679a-4bc9-b90e-f83672f4e91b","system_id":"levelo_inurba_marseille","lat":43.281548,"lon":5.42643,"is_reserved":false,"is_disabled":false,"rental_uris":{"android":"levelo://app?vid=8d8e9e0c-679a-4bc9-b90e-f83672f4e91b","ios":"levelo://app?vid=8d8e9e0c-679a-4bc9-b90e-f83672f4e91b"},"vehicle_type_id":"4","last_reported":1700240770,"current_range_meters":0,"station_id":"ce4bhnh2rcd13ifvqgug","pricing_plan_id":"free"},{"bike_id":"acaf9569-8143-4abd-8d1d-fcef1a3914e5","system_id":"levelo_inurba_marseille","lat":43.281548,"lon":5.42643,"is_reserved":false,"is_disabled":false,"rental_uris":{"android":"levelo://app?vid=acaf9569-8143-4abd-8d1d-fcef1a3914e5","ios":"levelo://app?vid=acaf9569-8143-4abd-8d1d-fcef1a3914e5"},"vehicle_type_id":"4","last_reported":1700240770,"current_range_meters":3200,"station_id":"ce4bhnh2rcd13ifvqgug","pricing_plan_id":"free"},{"bike_id":"52c2449e-ba19-42b2-a2b7-5e9532985598","system_id":"levelo_inurba_marseille","lat":43.322702,"lon":5.439293,"is_reserved":false,"is_disabled":false,"rental_uris":{"android":"levelo://app?vid=52c2449e-ba19-42b2-a2b7-5e9532985598","ios":"levelo://app?vid=52c2449e-ba19-42b2-a2b7-5e9532985598"},"vehicle_type_id":"4","last_reported":1700240770,"current_range_meters":18000,"station_id":"","pricing_plan_id":"free"},{"bike_id":"fba0b421-6c0f-46f4-a329-1b3f0467319c","system_id":"levelo_inurba_marseille","lat":43.275028,"lon":5.424534,"is_reserved":false,"is_disabled":false,"rental_uris":{"android":"levelo://app?vid=fba0b421-6c0f-46f4-a329-1b3f0467319c","ios":"levelo://app?vid=fba0b421-6c0f-46f4-a329-1b3f0467319c"},"vehicle_type_id":"4","last_reported":1700240770,"current_range_meters":24000,"station_id":"ce4bhn92rcd13ifvqgrg","pricing_plan_id":"free"},{"bike_id":"3df3565e-6cd8-42fa-812c-09c8f9939733","system_id":"levelo_inurba_marseille","lat":43.260869,"lon":5.397675,"is_reserved":false,"is_disabled":false,"rental_uris":{"android":"levelo://app?vid=3df3565e-6cd8-42fa-812c-09c8f9939733","ios":"levelo://app?vid=3df3565e-6cd8-42fa-812c-09c8f9939733"},"vehicle_type_id":"4","last_reported":1700240770,"current_range_meters":14400,"station_id":"ce4bhi12rcd13ifvqfq0","pricing_plan_id":"free"},{"bike_id":"1c1e29dd-f7c9-4394-8aaa-a94a3cbd839e","system_id":"levelo_inurba_marseille","lat":43.255744,"lon":5.382347,"is_reserved":false,"is_disabled":false,"rental_uris":{"android":"levelo://app?vid=1c1e29dd-f7c9-4394-8aaa-a94a3cbd839e","ios":"levelo://app?vid=1c1e29dd-f7c9-4394-8aaa-a94a3cbd839e"},"vehicle_type_id":"4","last_reported":1700240770,"current_range_meters":0,"station_id":"ce4bhih2rcd13ifvqfs0","pricing_plan_id":"free"},{"bike_id":"76f4ccf5-c314-4250-ba3a-4de78517a4ac","system_id":"levelo_inurba_marseille","lat":43.241782,"lon":5.397261,"is_reserved":false,"is_disabled":false,"rental_uris":{"android":"levelo://app?vid=76f4ccf5-c314-4250-ba3a-4de78517a4ac","ios":"levelo://app?vid=76f4ccf5-c314-4250-ba3a-4de78517a4ac"},"vehicle_type_id":"4","last_reported":1700240770,"current_range_meters":20800,"station_id":"ce4bhn12rcd13ifvqgpg","pricing_plan_id":"free"},{"bike_id":"23ae9097-d716-40b3-98d8-e0dc198feaef","system_id":"levelo_inurba_marseille","lat":43.270721,"lon":5.422764,"is_reserved":false,"is_disabled":false,"rental_uris":{"android":"levelo://app?vid=23ae9097-d716-40b3-98d8-e0dc198feaef","ios":"levelo://app?vid=23ae9097-d716-40b3-98d8-e0dc198feaef"},"vehicle_type_id":"4","last_reported":1700240770,"current_range_meters":4000,"station_id":"ce4bhk92rcd13ifvqgb0","pricing_plan_id":"free"},{"bike_id":"2aa6c4b1-a67d-43b7-9eb1-fe5b5bec91bf","system_id":"levelo_inurba_marseille","lat":43.33404,"lon":5.44209,"is_reserved":false,"is_disabled":false,"rental_uris":{"android":"levelo://app?vid=2aa6c4b1-a67d-43b7-9eb1-fe5b5bec91bf","ios":"levelo://app?vid=2aa6c4b1-a67d-43b7-9eb1-fe5b5bec91bf"},"vehicle_type_id":"4","last_reported":1700240770,"current_range_meters":0,"station_id":"","pricing_plan_id":"free"},{"bike_id":"b25578cd-da7b-433f-9053-2b8ded3fedbd","system_id":"levelo_inurba_marseille","lat":43.258658,"lon":5.398935,"is_reserved":false,"is_disabled":false,"rental_uris":{"android":"levelo://app?vid=b25578cd-da7b-433f-9053-2b8ded3fedbd","ios":"levelo://app?vid=b25578cd-da7b-433f-9053-2b8ded3fedbd"},"vehicle_type_id":"4","last_reported":1700240770,"current_range_meters":20800,"station_id":"ce4bhl92rcd13ifvqghg","pricing_plan_id":"free"},{"bike_id":"54ff844f-28d0-4131-b583-3e715c30f1eb","system_id":"levelo_inurba_marseille","lat":43.24811,"lon":5.37461,"is_reserved":false,"is_disabled":false,"rental_uris":{"android":"levelo://app?vid=54ff844f-28d0-4131-b583-3e715c30f1eb","ios":"levelo://app?vid=54ff844f-28d0-4131-b583-3e715c30f1eb"},"vehicle_type_id":"4","last_reported":1700240770,"current_range_meters":1200,"station_id":"ce4bhgh2rcd13ifvqfb0","pricing_plan_id":"free"},