{"last_updated":1746080137,"ttl":60,"version":"2.2","data":{"bikes":[{"bike_id":"5862d793-8af5-4231-8310-25d2f6e51ddf","system_id":"levelo_inurba_marseille","lat":43.30798,"lon":5.38154,"is_reserved":false,"is_disabled":false,"rental_uris":{"android":"levelo://app?vid=5862d793-8af5-4231-8310-25d2f6e51ddf","ios":"levelo://app?vid=5862d793-8af5-4231-8310-25d2f6e51ddf"},"vehicle_type_id":"4","last_reported":1746080137,"current_range_meters":2800,"station_id":"ce4bgt12rcd13ifvqce0","pricing_plan_id":"cebpf4jnsgd1na2vs0mg"},{"bike_id":"659010c1-a953-4673-9702-52974f087c4b","system_id":"levelo_inurba_marseille","lat":43.29291,"lon":5.37431,"is_reserved":false,"is_disabled":false,"rental_uris":{"android":"levelo://app?vid=659010c1-a953-4673-9702-52974f087c4b","ios":"levelo://app?vid=659010c1-a953-4673-9702-52974f087c4b"},"vehicle_type_id":"4","last_reported":1746080137,"current_range_meters":2800,"station_id":"ce4bgi12rcd13ifvqb70","pricing_plan_id":"cebpf4jnsgd1na2vs0mg"},{"bike_id":"dba26e3c-b130-48aa-a52a-b7f8eb3dfe8c","system_id":"levelo_inurba_marseille","lat":43.29046,"lon":5.3998,"is_reserved":false,"is_disabled":false,"rental_uris":{"android":"levelo://app?vid=dba26e3c-b130-48aa-a52a-b7f8eb3dfe8c","ios":"levelo://app?vid=dba26e3c-b130-48aa-a52a-b7f8eb3dfe8c"},"vehicle_type_id":"4","last_reported":1746080137,"current_range_meters":3200,"station_id":"ce4bh392rcd13ifvqdm0","pricing_plan_id":"cebpf4jnsgd1na2vs0mg"},{"bike_id":"7277521c-6e81-4afa-8525-ce183bafa14d","system_id":"levelo_inurba_marseille","lat":43.29252,"lon":5.40919,"is_reserved":false,"is_disabled":false,"rental_uris":{"android":"levelo://app?vid=7277521c-6e81-4afa-8525-ce183bafa14d","ios":"levelo://app?vid=7277521c-6e81-4afa-8525-ce183bafa14d"},"vehicle_type_id":"4","last_reported":1746080137,"current_range_meters":3200,"station_id":"ce4bh192rcd13ifvqdc0","pricing_plan_id":"cebpf4jnsgd1na2vs0mg"},{"bike_id":"00efbeb5-872a-4078-9994-9640cb88c828","system_id":"levelo_inurba_marseille","lat":43.25696,"lon":5.41125,"is_reserved":false,"is_disabled":false,"rental_uris":{"android":"levelo://app?vid=00efbeb5-872a-4078-9994-9640cb88c828","ios":"levelo://app?vid=00efbeb5-872a-4078-9994-9640cb88c828"},"vehicle_type_id":"4","last_reported":1746080137,"current_range_meters":3600,"station_id":"ce4bhkp2rcd13ifvqgd0","pricing_plan_id":"cebpf4jnsgd1na2vs0mg"},{"bike_id":"e3676e90-152e-48a7-80da-6baae6b20546","system_id":"levelo_inurba_marseille","lat":43.302819,"lon":5.37712,"is_reserved":false,"is_disabled":false,"rental_uris":{"android":"levelo://app?vid=e3676e90-152e-48a7-80da-6baae6b20546","ios":"levelo://app?vid=e3676e90-152e-48a7-80da-6baae6b20546"},"vehicle_type_id":"4","last_reported":1746080137,"current_range_meters":3600,"station_id":"ce4bguh2rcd13ifvqcj0","pricing_plan_id":"cebpf4jnsgd1na2vs0mg"},{"bike_id":"4cf4dd17-8933-4015-85f9-46541bb00e54","system_id":"levelo_inurba_marseille","lat":43.25121,"lon":5.40355,"is_reserved":false,"is_disabled":false,"rental_uris":{"android":"levelo://app?vid=4cf4dd17-8933-4015-85f9-46541bb00e54","ios":"levelo://app?vid=4cf4dd17-8933-4015-85f9-46541bb00e54"},"vehicle_type_id":"4","last_reported":1746080137,"current_range_meters":4000,"station_id":"ce4bhlh2rcd13ifvqgig","pricing_plan_id":"cebpf4jnsgd1na2vs0mg"},{"bike_id":"673a0c3f-8ece-48df-a2aa-4780ac191d8f","system_id":"levelo_inurba_marseille","lat":43.32027,"lon":5.41596,"is_reserved":false,"is_disabled":false,"rental_uris":{"android":"levelo://app?vid=673a0c3f-8ece-48df-a2aa-4780ac191d8f","ios":"levelo://app?vid=673a0c3f-8ece-48df-a2aa-4780ac191d8f"},"vehicle_type_id":"4","last_reported":1746080137,"current_range_meters":4000,"station_id":"ce4bhq92rcd13ifvqhkg","pricing_plan_id":"cebpf4jnsgd1na2vs0mg"},{"bike_id":"33722a74-7ad9-4139-b900-057c3a36cf5c","system_id":"levelo_inurba_marseille","lat":43.30151,"lon":5.38082,"is_reserved":false,"is_disabled":false,"rental_uris":{"android":"levelo://app?vid=33722a74-7ad9-4139-b900-057c3a36cf5c","ios":"levelo://app?vid=33722a74-7ad9-4139-b900-057c3a36cf5c"},"vehicle_type_id":"4","last_reported":1746080137,"current_range_meters":4000,"station_id":"ce4bgjp2rcd13ifvqbh0","pricing_plan_id":"cebpf4jnsgd1na2vs0mg"},{"bike_id":"abbaab27-89eb-406d-9f60-0fafede2ff71","system_id":"levelo_inurba_marseille","lat":43.30631,"lon":5.40071,"is_reserved":false,"is_disabled":false,"rental_uris":{"android":"levelo://app?vid=abbaab27-89eb-406d-9f60-0fafede2ff71","ios":"levelo://app?vid=abbaab27-89eb-406d-9f60-0fafede2ff71"},"vehicle_type_id":"4","last_reported":1746080137,"current_range_meters":4400,"station_id":"ce4bh112rcd13ifvqda0","pricing_plan_id":"cebpf4jnsgd1na2vs0mg"},{"bike_id":"e06e3ad6-0e5a-49f2-98bb-d0b7ffaaf745","system_id":"levelo_inurba_marseille","lat":43.23379,"lon":5.36127,"is_reserved":false,"is_disabled":false,"rental_uris":{"android":"levelo://app?vid=e06e3ad6-0e5a-49f2-98bb-d0b7ffaaf745","ios":"levelo://app?vid=e06e3ad6-0e5a-49f2-98bb-d0b7ffaaf745"},"vehicle_type_id":"4","last_reported":1746080137,"current_range_meters":4400,"station_id":"","pricing_plan_id":"cebpf4jnsgd1na2vs0mg"},{"bike_id":"2d0fea3e-041c-4d20-aeb7-63739e3d5c27","system_id":"levelo_inurba_marseille","lat":43.306442,"lon":5.366063,"is_reserved":false,"is_disabled":false,"rental_uris":{"android":"levelo://app?vid=2d0fea3e-041c-4d20-aeb7-63739e3d5c27","ios":"levelo://app?vid=2d0fea3e-041c-4d20-aeb7-63739e3d5c27"},"vehicle_type_id":"4","last_reported":1746080137,"current_range_meters":4800,"station_id":"","pricing_plan_id":"cebpf4jnsgd1na2vs0mg"},{"bike_id":"387bc5ea-7c2b-41e1-a1e6-3b4cc71c9638","system_id":"levelo_inurba_marseille","lat":43.24172,"lon":5.39738,"is_reserved":false,"is_disabled":false,"rental_uris":{"android":"levelo://app?vid=387bc5ea-7c2b-41e1-a1e6-3b4cc71c9638","ios":"levelo://app?vid=387bc5ea-7c2b-41e1-a1e6-3b4cc71c9638"},"vehicle_type_id":"4","last_reported":1746080137,"current_range_meters":4800,"station_id":"ce4bhn12rcd13ifvqgpg","pricing_plan_id":"cebpf4jnsgd1na2vs0mg"},{"bike_id":"29004581-500e-4cc8-8d9f-f7ba87082b36","system_id":"levelo_inurba_marseille","lat":43.308064,"lon":5.38162,"is_reserved":false,"is_disabled":false,"rental_uris":{"android":"levelo://app?vid=29004581-500e-4cc8-8d9f-f7ba87082b36","ios":"levelo://app?vid=29004581-500e-4cc8-8d9f-f7ba87082b36"},"vehicle_type_id":"4","last_reported":1746080137,"current_range_meters":5600,"station_id":"ce4bgt12rcd13ifvqce0","pricing_plan_id":"cebpf4jnsgd1na2vs0mg"},{"bike_id":"97d372a4-7499-4980-ad60-515b98299387","system_id":"levelo_inurba_marseille","lat":43.3052,"lon":5.38456,"is_reserved":false,"is_disabled":false,"rental_uris":{"android":"levelo://app?vid=97d372a4-7499-4980-ad60-515b98299387","ios":"levelo://app?vid=97d372a4-7499-4980-ad60-515b98299387"},"vehicle_type_id":"4","last_reported":1746080137,"current_range_meters":6000,"station_id":"ce4bgg92rcd13ifvqb30","pricing_plan_id":"cebpf4jnsgd1na2vs0mg"},{"bike_id":"ed01b2d3-e777-4cde-b001-4acf8ff4f995","system_id":"levelo_inurba_marseille","lat":43.33613,"lon":5.41031,"is_reserved":false,"is_disabled":false,"rental_uris":{"android":"levelo://app?vid=ed01b2d3-e777-4cde-b001-4acf8ff4f995","ios":"levelo://app?vid=ed01b2d3-e777-4cde-b001-4acf8ff4f995"},"vehicle_type_id":"4","last_reported":1746080137,"current_range_meters":6000,"station_id":"ce4bhqh2rcd13ifvqhmg","pricing_plan_id":"cebpf4jnsgd1na2vs0mg"},{"bike_id":"0ad3bba1-4bc4-479c-8461-1db3bb0761ed","system_id":"levelo_inurba_marseille","lat":43.313282,"lon":5.396978,"is_reserved":false,"is_disabled":false,"rental_uris":{"android":"levelo://app?vid=0ad3bba1-4bc4-479c-8461-1db3bb0761ed","ios":"levelo://app?vid=0ad3bba1-4bc4-479c-8461-1db3bb0761ed"},"vehicle_type_id":"4","last_reported":1746080137,"current_range_meters":6000,"station_id":"ce4bgvp2rcd13ifvqcu0","pricing_plan_id":"cebpf4jnsgd1na2vs0mg"},{"bike_id":"55532a5d-9be9-45df-84ce-f3e982772f76","system_id":"levelo_inurba_marseille","lat":43.28561,"lon":5.37753,"is_reserved":false,"is_disabled":false,"rental_uris":{"android":"levelo://app?vid=55532a5d-9be9-45df-84ce-f3e982772f76","ios":"levelo://app?vid=55532a5d-9be9-45df-84ce-f3e982772f76"},"vehicle_type_id":"4","last_reported":1746080137,"current_range_meters":6400,"station_id":"","pricing_plan_id":"cebpf4jnsgd1na2vs0mg"},{"bike_id":"f21cf64a-05bf-4c5e-8721-251d72789145","system_id":"levelo_inurba_marseille","lat":43.30144,"lon":5.38088,"is_reserved":false,"is_disabled":false,"rental_uris":{"android":"levelo://app?vid=f21cf64a-05bf-4c5e-8721-251d72789145","ios":"levelo://app?vid=f21cf64a-05bf-4c5e-8721-251d72789145"},"vehicle_type_id":"4","last_reported":1746080137,"current_range_meters":6400,"station_id":"ce4bgjp2rcd13ifvqbh0","pricing_plan_id":"cebpf4jnsgd1na2vs0mg"},{"bike_id":"2f3b16e5-1506-48f4-8507-b6d411b6bed5","system_id":"levelo_inurba_marseille","lat":43.25723,"lon":5.41116,"is_reserved":false,"is_disabled":false,"rental_uris":{"android":"levelo://app?vid=2f3b16e5-1506-48f4-8507-b6d411b6bed5","ios":"levelo://app?vid=2f3b16e5-1506-48f4-8507-b6d411b6bed5"},"vehicle_type_id":"4","last_reported":1746080137,"current_range_meters":6400,"station_id":"ce4bhkp2rcd13ifvqgd0","pricing_plan_id":"cebpf4jnsgd1na2vs0mg"},{"bike_id":"af45928f-99f5-4c10-8488-a1690bf972d2","system_id":"levelo_inurba_marseille","lat":43.29455,"lon":5.39779,"is_reserved":false,"is_disabled":true,"rental_uris":{"android":"levelo://app?vid=af45928f-99f5-4c10-8488-a1690bf972d2","ios":"levelo://app?vid=af45928f-99f5-4c10-8488-a1690bf972d2"},"vehicle_type_id":"4","last_reported":1746080137,"current_range_meters":6400,"station_id":"ce4bh3h2rcd13ifvqdo0","pricing_plan_id":"cebpf4jnsgd1na2vs0mg"},{"bike_id":"00d6f668-ccb9-47ae-b8ce-c39b1f313b6e","system_id":"levelo_inurba_marseille","lat":43.29314,"lon":5.37176,"is_reserved":false,"is_disabled":true,"rental_uris":{"android":"levelo://app?vid=00d6f668-ccb9-47ae-b8ce-c39b1f313b6e","ios":"levelo://app?vid=00d6f668-ccb9-47ae-b8ce-c39b1f313b6e"},"vehicle_type_id":"4","last_reported":1746080137,"current_range_meters":6400,"station_id":"ce4bgh92rcd13ifvqb40","pricing_plan_id":"cebpf4jnsgd1na2vs0mg"},{"bike_id":"4441e734-dc78-4371-80f0-82ca88aaf54d","system_id":"levelo_inurba_marseille","lat":43.30463,"lon":5.37908,"is_reserved":false,"is_disabled":false,"rental_uris":{"android":"levelo://app?vid=4441e734-dc78-4371-80f0-82ca88aaf54d","ios":"levelo://app?vid=4441e734-dc78-4371-80f0-82ca88aaf54d"},"vehicle_type_id":"4","last_reported":1746080137,"current_range_meters":6400,"station_id":"ce4bgup2rcd13ifvqcn0","pricing_plan_id":"cebpf4jnsgd1na2vs0mg"},{"bike_id":"c04da574-a2d9-4d7b-aaa5-47e6514ce6b0","system_id":"levelo_inurba_marseille","lat":43.24386,"lon":5.37055,"is_reserved":false,"is_disabled":false,"rental_uris":{"android":"levelo://app?vid=c04da574-a2d9-4d7b-aaa5-47e6514ce6b0","ios":"levelo://app?vid=c04da574-a2d9-4d7b-aaa5-47e6514ce6b0"},"vehicle_type_id":"4","last_reported":1746080137,"current_range_meters":6400,"station_id":"ce4bhhh2rcd13ifvqfk0","pricing_plan_id":"cebpf4jnsgd1na2vs0mg"},{"bike_id":"3c51200c-0f23-499c-aef9-9d47e698a558","system_id":"levelo_inurba_marseille","lat":43.276768,"lon":5.357328,"is_reserved":false,"is_disabled":false,"rental_uris":{"android":"levelo://app?vid=3c51200c-0f23-499c-aef9-9d47e698a558","ios":"levelo://app?vid=3c51200c-0f23-499c-aef9-9d47e698a558"},"vehicle_type_id":"4","last_reported":1746080137,"current_range_meters":6400,"station_id":"","pricing_plan_id":"cebpf4jnsgd1na2vs0mg"},{"bike_id":"d6831b15-be9f-4572-b4e0-abd8063d90fc","system_id":"levelo_inurba_marseille","lat":43.31762,"lon":5.39012,"is_reserved":false,"is_disabled":false,"rental_uris":{"android":"levelo://app?vid=d6831b15-be9f-4572-b4e0-abd8063d90fc","ios":"levelo://app?vid=d6831b15-be9f-4572-b4e0-abd8063d90fc"},"vehicle_type_id":"4","last_reported":1746080137,"current_range_meters":6400,"station_id":"ce4bhqp2rcd13ifvqhng","pricing_plan_id":"cebpf4jnsgd1na2vs0mg"},{"bike_id":"76a9cd10-fdd4-4a05-acce-121be760d6db","system_id":"levelo_inurba_marseille","lat":43.27337,"lon":5.3913,"is_reserved":false,"is_disabled":true,"rental_uris":{"android":"levelo://app?vid=76a9cd10-fdd4-4a05-acce-121be760d6db","ios":"levelo://app?vid=76a9cd10-fdd4-4a05-acce-121be760d6db"},"vehicle_type_id":"4","last_reported":1746080137,"current_range_meters":6400,"station_id":"ce4bhgp2rcd13ifvqfe0","pricing_plan_id":"cebpf4jnsgd1na2vs0mg"},{"bike_id":"38888685-ecee-457f-b7f2-6a456f769de8","system_id":"levelo_inurba_marseille","lat":43.32364,"lon":5.38887,"is_reserved":false,"is_disabled":false,"rental_uris":{"android":"levelo://app?vid=38888685-ecee-457f-b7f2-6a456f769de8","ios":"levelo://app?vid=38888685-ecee-457f-b7f2-6a456f769de8"},"vehicle_type_id":"4","last_reported":1746080137,"current_range_meters":6800,"station_id":"ce4bhqp2rcd13ifvqhog","pricing_plan_id":"cebpf4jnsgd1na2vs0mg"},{"bike_id":"5824506f-80f6-4578-b8d9-963493773cb7","system_id":"levelo_inurba_marseille","lat":43.25573,"lon":5.41136,"is_reserved":false,"is_disabled":false,"rental_uris":{"android":"levelo://app?vid=5824506f-80f6-4578-b8d9-963493773cb7","ios":"levelo://app?vid=5824506f-80f6-4578-b8d9-963493773cb7"},"vehicle_type_id":"4","last_reported":1746080137,"current_range_meters":6800,"station_id":"","pricing_plan_id":"cebpf4jnsgd1na2vs0mg"},{"bike_id":"489415b8-9254-45c1-b00c-e7554d56755c","system_id":"levelo_inurba_marseille","lat":43.245206,"lon":5.412188,"is_reserved":false,"is_disabled":false,"rental_uris":{"android":"levelo://app?vid=489415b8-9254-45c1-b00c-e7554d56755c","ios":"levelo://app?vid=489415b8-9254-45c1-b00c-e7554d56755c"},"vehicle_type_id":"4","last_reported":1746080137,"current_range_meters":6800,"station_id":"","pricing_plan_id":"cebpf4jnsgd1na2vs0mg"},{"bike_id":"fb3b8183-90cd-43f4-8e49-d95b7778732d","system_id":"levelo_inurba_marseille","lat":43.25608,"lon":5.40518,"is_reserved":false,"is_disabled":false,"rental_uris":{"android":"levelo://app?vid=fb3b8183-90cd-43f4-8e49-d95b7778732d","ios":"levelo://app?vid=fb3b8183-90cd-43f4-8e49-d95b7778732d"},"vehicle_type_id":"4","last_reported":1746080137,"current_range_meters":6800,"station_id":"","pricing_plan_id":"cebpf4jnsgd1na2vs0mg"},{"bike_id":"a0dd5fc2-8200-4cab-bced-de20e33f9788","system_id":"levelo_inurba_marseille","lat":43.3015,"lon":5.38092,"is_reserved":false,"is_disabled":false,"rental_uris":{"android":"levelo://app?vid=a0dd5fc2-8200-4cab-bced-de20e33f9788","ios":"levelo://app?vid=a0dd5fc2-8200-4cab-bced-de20e33f9788"},"vehicle_type_id":"4","last_reported":1746080137,"current_range_meters":6800,"station_id":"ce4bgjp2rcd13ifvqbh0","pricing_plan_id":"cebpf4jnsgd1na2vs0mg"},{"bike_id":"6f9efe46-94a4-44a8-924b-b257b20fbbb9","system_id":"levelo_inurba_marseille","lat":43.30648,"lon":5.400872,"is_reserved":false,"is_disabled":false,"rental_uris":{"android":"levelo://app?vid=6f9efe46-94a4-44a8-924b-b257b20fbbb9","ios":"levelo://app?vid=6f9efe46-94a4-44a8-924b-b257b20fbbb9"},"vehicle_type_id":"4","last_reported":1746080137,"current_range_meters":6800,"station_id":"ce4bh112rcd13ifvqda0","pricing_plan_id":"cebpf4jnsgd1na2vs0mg"},{"bike_id":"9965e496-e128-48a0-9487-d7af7b498698","system_id":"levelo_inurba_marseille","lat":43.29186,"lon":5.39314,"is_reserved":false,"is_disabled":true,"rental_uris":{"android":"levelo://app?vid=9965e496-e128-48a0-9487-d7af7b498698","ios":"levelo://app?vid=9965e496-e128-48a0-9487-d7af7b498698"},"vehicle_type_id":"4","last_reported":1746080137,"current_range_meters":6800,"station_id":"ce4bh192rcd13ifvqdd0","pricing_plan_id":"cebpf4jnsgd1na2vs0mg"},{"bike_id":"06d4aaca-eadb-4fef-91cf-7d39ca5b048c","system_id":"levelo_inurba_marseille","lat":43.32332,"lon":5.406229,"is_reserved":false,"is_disabled":false,"rental_uris":{"android":"levelo://app?vid=06d4aaca-eadb-4fef-91cf-7d39ca5b048c","ios":"levelo://app?vid=06d4aaca-eadb-4fef-91cf-7d39ca5b048c"},"vehicle_type_id":"4","last_reported":1746080137,"current_range_meters":6800,"station_id":"ce4bhq92rcd13ifvqhjg","pricing_plan_id":"cebpf4jnsgd1na2vs0mg"},{"bike_id":"05bc1beb-7322-4b6e-ac33-cb496e469d14","system_id":"levelo_inurba_marseille","lat":43.29861,"lon":5.39763,"is_reserved":false,"is_disabled":false,"rental_uris":{"android":"levelo://app?vid=05bc1beb-7322-4b6e-ac33-cb496e469d14","ios":"levelo://app?vid=05bc1beb-7322-4b6e-ac33-cb496e469d14"},"vehicle_type_id":"4","last_reported":1746080137,"current_range_meters":7200,"station_id":"ce4bh0h2rcd13ifvqd50","pricing_plan_id":"cebpf4jnsgd1na2vs0mg"},{"bike_id":"be72c957-5086-45b5-b164-09f800df4fff","system_id":"levelo_inurba_marseille","lat":43.267918,"lon":5.402743,"is_reserved":false,"is_disabled":false,"rental_uris":{"android":"levelo://app?vid=be72c957-5086-45b5-b164-09f800df4fff","ios":"levelo://app?vid=be72c957-5086-45b5-b164-09f800df4fff"},"vehicle_type_id":"4","last_reported":1746080137,"current_range_meters":7200,"station_id":"ce501612rcd8frsf0b60","pricing_plan_id":"cebpf4jnsgd1na2vs0mg"},{"bike_id":"07dff2d5-6427-47b1-9ee0-7640f70ec94f","system_id":"levelo_inurba_marseille","lat":43.30156,"lon":5.38091,"is_reserved":false,"is_disabled":false,"rental_uris":{"android":"levelo://app?vid=07dff2d5-6427-47b1-9ee0-7640f70ec94f","ios":"levelo://app?vid=07dff2d5-6427-47b1-9ee0-7640f70ec94f"},"vehicle_type_id":"4","last_reported":1746080137,"current_range_meters":7200,"station_id":"ce4bgjp2rcd13ifvqbh0","pricing_plan_id":"cebpf4jnsgd1na2vs0mg"},{"bike_id":"53bc3881-c633-4861-9438-ccb75330ab22","system_id":"levelo_inurba_marseille","lat":43.3046,"lon":5.37904,"is_reserved":false,"is_disabled":false,"rental_uris":{"android":"levelo://app?vid=53bc3881-c633-4861-9438-ccb75330ab22","ios":"levelo://app?vid=53bc3881-c633-4861-9438-ccb75330ab22"},"vehicle_type_id":"4","last_reported":1746080137,"current_range_meters":7200,"station_id":"ce4bgup2rcd13ifvqcn0","pricing_plan_id":"cebpf4jnsgd1na2vs0mg"},{"bike_id":"07edfd45-c3fa-4b57-b865-cf1bf9963264","system_id":"levelo_inurba_marseille","lat":43.23388,"lon":5.364196,"is_reserved":false,"is_disabled":false,"rental_uris":{"android":"levelo://app?vid=07edfd45-c3fa-4b57-b865-cf1bf9963264","ios":"levelo://app?vid=07edfd45-c3fa-4b57-b865-cf1bf9963264"},"vehicle_type_id":"4","last_reported":1746080137,"current_range_meters":7200,"station_id":"","pricing_plan_id":"cebpf4jnsgd1na2vs0mg"},{"bike_id":"1017aff5-1f73-4103-b379-a20915353f27","system_id":"levelo_inurba_marseille","lat":43.25103,"lon":5.40348,"is_reserved":false,"is_disabled":false,"rental_uris":{"android":"levelo://app?vid=1017aff5-1f73-4103-b379-a20915353f27","ios":"levelo://app?vid=1017aff5-1f73-4103-b379-a20915353f27"},"vehicle_type_id":"4","last_reported":1746080137,"current_range_meters":7200,"station_id":"ce4bhlh2rcd13ifvqgig","pricing_plan_id":"cebpf4jnsgd1na2vs0mg"},{"bike_id":"c89af82b-d8de-4524-ac1f-cc5e38330d5b","system_id":"levelo_inurba_marseille","lat":43.32482,"lon":5.36594,"is_reserved":false,"is_disabled":false,"rental_uris":{"android":"levelo://app?vid=c89af82b-d8de-4524-ac1f-cc5e38330d5b","ios":"levelo://app?vid=c89af82b-d8de-4524-ac1f-cc5e38330d5b"},"vehicle_type_id":"4","last_reported":1746080137,"current_range_meters":8000,"station_id":"ce4bhs12rcd13ifvqhvg","pricing_plan_id":"cebpf4jnsgd1na2vs0mg"},{"bike_id":"9f359211-8ebc-4789-9534-b541630d091b","system_id":"levelo_inurba_marseille","lat":43.27402,"lon":5.39404,"is_reserved":false,"is_disabled":false,"rental_uris":{"android":"levelo://app?vid=9f359211-8ebc-4789-9534-b541630d091b","ios":"levelo://app?vid=9f359211-8ebc-4789-9534-b541630d091b"},"vehicle_type_id":"4","last_reported":1746080137,"current_range_meters":8000,"station_id":"ce4bhdp2rcd13ifvqf20","pricing_plan_id":"cebpf4jnsgd1na2vs0mg"},{"bike_id":"ab6cc9c9-69c8-48cc-bcbd-c9541d1c7966","system_id":"levelo_inurba_marseille","lat":43.29734,"lon":5.4016,"is_reserved":false,"is_disabled":false,"rental_uris":{"android":"levelo://app?vid=ab6cc9c9-69c8-48cc-bcbd-c9541d1c7966","ios":"levelo://app?vid=ab6cc9c9-69c8-48cc-bcbd-c9541d1c7966"},"vehicle_type_id":"4","last_reported":1746080137,"current_range_meters":8000,"station_id":"","pricing_plan_id":"cebpf4jnsgd1na2vs0mg"},{"bike_id":"9302c8f6-2254-4b52-bb8b-c5acfff44a93","system_id":"levelo_inurba_marseille","lat":43.299553,"lon":5.370247,"is_reserved":false,"is_disabled":false,"rental_uris":{"android":"levelo://app?vid=9302c8f6-2254-4b52-bb8b-c5acfff44a93","ios":"levelo://app?vid=9302c8f6-2254-4b52-bb8b-c5acfff44a93"},"vehicle_type_id":"4","last_reported":1746080137,"current_range_meters":8000,"station_id":"","pricing_plan_id":"cebpf4jnsgd1na2vs0mg"},{"bike_id":"06d2d3c8-9fc9-4d69-a070-0ce5daa9cb28","system_id":"levelo_inurba_marseille","lat":43.26944,"lon":5.40301,"is_reserved":false,"is_disabled":true,"rental_uris":{"android":"levelo://app?vid=06d2d3c8-9fc9-4d69-a070-0ce5daa9cb28","ios":"levelo://app?vid=06d2d3c8-9fc9-4d69-a070-0ce5daa9cb28"},"vehicle_type_id":"4","last_reported":1746080137,"current_range_meters":8000,"station_id":"cjm6bp8fraef2m0cb0m0","pricing_plan_id":"cebpf4jnsgd1na2vs0mg"},{"bike_id":"7bca0793-1176-4b81-940e-92a4b7af9ae5","system_id":"levelo_inurba_marseille","lat":43.2808,"lon":5.396552,"is_reserved":false,"is_disabled":false,"rental_uris":{"android":"levelo://app?vid=7bca0793-1176-4b81-940e-92a4b7af9ae5","ios":"levelo://app?vid=7bca0793-1176-4b81-940e-92a4b7af9ae5"},"vehicle_type_id":"4","last_reported":1746080137,"current_range_meters":8000,"station_id":"ce4bho12rcd13ifvqh2g","pricing_plan_id":"cebpf4jnsgd1na2vs0mg"},{"bike_id":"c2f91673-1bc3-4705-a74d-2d1c98fad3ad","system_id":"levelo_inurba_marseille","lat":43.31682,"lon":5.40469,"is_reserved":false,"is_disabled":false,"rental_uris":{"android":"levelo://app?vid=c2f91673-1bc3-4705-a74d-2d1c98fad3ad","ios":"levelo://app?vid=c2f91673-1bc3-4705-a74d-2d1c98fad3ad"},"vehicle_type_id":"4","last_reported":1746080137,"current_range_meters":8000,"station_id":"ce4bh012rcd13ifvqd00","pricing_plan_id":"cebpf4jnsgd1na2vs0mg"},{"bike_id":"24fe4670-2cfb-49d4-a3ec-2dd67a898c28","system_id":"levelo_inurba_marseille","lat":43.257024,"lon":5.41117,"is_reserved":false,"is_disabled":false,"rental_uris":{"android":"levelo://app?vid=24fe4670-2cfb-49d4-a3ec-2dd67a898c28","ios":"levelo://app?vid=24fe4670-2cfb-49d4-a3ec-2dd67a898c28"},"vehicle_type_id":"4","last_reported":1746080137,"current_range_meters":8000,"station_id":"ce4bhkp2rcd13ifvqgd0","pricing_plan_id":"cebpf4jnsgd1na2vs0mg"},{"bike_id":"b35319f1-b87e-4db8-ab3a-f11a22b07a4b","system_id":"levelo_inurba_marseille","lat":43.24671,"lon":5.38178,"is_reserved":false,"is_disabled":true,"rental_uris":{"android":"levelo://app?vid=b35319f1-b87e-4db8-ab3a-f11a22b07a4b","ios":"levelo://app?vid=b35319f1-b87e-4db8-ab3a-f11a22b07a4b"},"vehicle_type_id":"4","last_reported":1746080137,"current_range_meters":8400,"station_id":"ce4bhih2rcd13ifvqfr0","pricing_plan_id":"cebpf4jnsgd1na2vs0mg"},{"bike_id":"c2359eb2-9d58-4285-8df1-ee95701995ba","system_id":"levelo_inurba_marseille","lat":43.314869,"lon":5.37299,"is_reserved":false,"is_disabled":false,"rental_uris":{"android":"levelo://app?vid=c2359eb2-9d58-4285-8df1-ee95701995ba","ios":"levelo://app?vid=c2359eb2-9d58-4285-8df1-ee95701995ba"},"vehicle_type_id":"4","last_reported":1746080137,"current_range_meters":8400,"station_id":"ce4bgt12rcd13ifvqcd0","pricing_plan_id":"cebpf4jnsgd1na2vs0mg"},{"bike_id":"b63f77e5-9d12-46a1-93e0-ef2f0793d805","system_id":"levelo_inurba_marseille","lat":43.30142,"lon":5.38094,"is_reserved":false,"is_disabled":false,"rental_uris":{"android":"levelo://app?vid=b63f77e5-9d12-46a1-93e0-ef2f0793d805","ios":"levelo://app?vid=b63f77e5-9d12-46a1-93e0-ef2f0793d805"},"vehicle_type_id":"4","last_reported":1746080137,"current_range_meters":8400,"station_id":"ce4bgjp2rcd13ifvqbh0","pricing_plan_id":"cebpf4jnsgd1na2vs0mg"},{"bike_id":"3606aed4-f378-4ee1-91d1-641c63b6ea87","system_id":"levelo_inurba_marseille","lat":43.23174,"lon":5.39985,"is_reserved":false,"is_disabled":false,"rental_uris":{"android":"levelo://app?vid=3606aed4-f378-4ee1-91d1-641c63b6ea87","ios":"levelo://app?vid=3606aed4-f378-4ee1-91d1-641c63b6ea87"},"vehicle_type_id":"4","last_reported":1746080137,"current_range_meters":8000,"station_id":"ce4bhn12rcd13ifvqgqg","pricing_plan_id":"cebpf4jnsgd1na2vs0mg"},{"bike_id":"7f770ba9-2e48-47c9-8bb4-942855273bad","system_id":"levelo_inurba_marseille","lat":43.25329,"lon":5.42411,"is_reserved":false,"is_disabled":false,"rental_uris":{"android":"levelo://app?vid=7f770ba9-2e48-47c9-8bb4-942855273bad","ios":"levelo://app?vid=7f770ba9-2e48-47c9-8bb4-942855273bad"},"vehicle_type_id":"4","last_reported":1746080137,"current_range_meters":8400,"station_id":"","pricing_plan_id":"cebpf4jnsgd1na2vs0mg"},{"bike_id":"cb799d30-a786-4212-8461-e5560b5b16ef","system_id":"levelo_inurba_marseille","lat":43.320851,"lon":5.440857,"is_reserved":false,"is_disabled":false,"rental_uris":{"android":"levelo://app?vid=cb799d30-a786-4212-8461-e5560b5b16ef","ios":"levelo://app?vid=cb799d30-a786-4212-8461-e5560b5b16ef"},"vehicle_type_id":"4","last_reported":1746080137,"current_range_meters":8400,"station_id":"","pricing_plan_id":"cebpf4jnsgd1na2vs0mg"},{"bike_id":"81e05ebe-9199-4b84-be27-50b827829ce3","system_id":"levelo_inurba_marseille","lat":43.28409,"lon":5.37518,"is_reserved":false,"is_disabled":false,"rental_uris":{"android":"levelo://app?vid=81e05ebe-9199-4b84-be27-50b827829ce3","ios":"levelo://app?vid=81e05ebe-9199-4b84-be27-50b827829ce3"},"vehicle_type_id":"4","last_reported":1746080137,"current_range_meters":8400,"station_id":"ce4bh412rcd13ifvqds0","pricing_plan_id":"cebpf4jnsgd1na2vs0mg"},{"bike_id":"946b2669-01f4-4d30-8e9f-8be8aa4b8038","system_id":"levelo_inurba_marseille","lat":43.30642,"lon":5.40079,"is_reserved":false,"is_disabled":false,"rental_uris":{"android":"levelo://app?vid=946b2669-01f4-4d30-8e9f-8be8aa4b8038","ios":"levelo://app?vid=946b2669-01f4-4d30-8e9f-8be8aa4b8038"},"vehicle_type_id":"4","last_reported":1746080137,"current_range_meters":8400,"station_id":"ce4bh112rcd13ifvqda0","pricing_plan_id":"cebpf4jnsgd1na2vs0mg"},{"bike_id":"4ff0db05-be29-471d-80d9-4fc345b5a0ff","system_id":"levelo_inurba_marseille","lat":43.30674,"lon":5.40087,"is_reserved":false,"is_disabled":false,"rental_uris":{"android":"levelo://app?vid=4ff0db05-be29-471d-80d9-4fc345b5a0ff","ios":"levelo://app?vid=4ff0db05-be29-471d-80d9-4fc345b5a0ff"},"vehicle_type_id":"4","last_reported":1746080137,"current_range_meters":8800,"station_id":"ce4bh112rcd13ifvqda0","pricing_plan_id":"cebpf4jnsgd1na2vs0mg"},{"bike_id":"8a08109b-abba-4662-b984-893ba2719fa3","system_id":"levelo_inurba_marseille","lat":43.24655,"lon":5.38166,"is_reserved":false,"is_disabled":false,"rental_uris":{"android":"levelo://app?vid=8a08109b-abba-4662-b984-893ba2719fa3","ios":"levelo://app?vid=8a08109b-abba-4662-b984-893ba2719fa3"},"vehicle_type_id":"4","last_reported":1746080137,"current_range_meters":8800,"station_id":"ce4bhih2rcd13ifvqfr0","pricing_plan_id":"cebpf4jnsgd1na2vs0mg"},{"bike_id":"dfc94822-a1b6-48c6-802a-ca3521f0f26c","system_id":"levelo_inurba_marseille","lat":43.26554,"lon":5.3903,"is_reserved":false,"is_disabled":false,"rental_uris":{"android":"levelo://app?vid=dfc94822-a1b6-48c6-802a-ca3521f0f26c","ios":"levelo://app?vid=dfc94822-a1b6-48c6-802a-ca3521f0f26c"},"vehicle_type_id":"4","last_reported":1746080137,"current_range_meters":8800,"station_id":"ce4bhe12rcd13ifvqf30","pricing_plan_id":"cebpf4jnsgd1na2vs0mg"},{"bike_id":"c2822950-d0b4-4023-8870-6743aa9d2122","system_id":"levelo_inurba_marseille","lat":43.267709,"lon":5.394333,"is_reserved":false,"is_disabled":false,"rental_uris":{"android":"levelo://app?vid=c2822950-d0b4-4023-8870-6743aa9d2122","ios":"levelo://app?vid=c2822950-d0b4-4023-8870-6743aa9d2122"},"vehicle_type_id":"4","last_reported":1746080137,"current_range_meters":8800,"station_id":"ce4bhh12rcd13ifvqfg0","pricing_plan_id":"cebpf4jnsgd1na2vs0mg"},{"bike_id":"afb3d955-a6d0-4e5a-acd8-3c4556dfba0a","system_id":"levelo_inurba_marseille","lat":43.289153,"lon":5.368704,"is_reserved":false,"is_disabled":false,"rental_uris":{"android":"levelo://app?vid=afb3d955-a6d0-4e5a-acd8-3c4556dfba0a","ios":"levelo://app?vid=afb3d955-a6d0-4e5a-acd8-3c4556dfba0a"},"vehicle_type_id":"4","last_reported":1746080137,"current_range_meters":9200,"station_id":"","pricing_plan_id":"cebpf4jnsgd1na2vs0mg"},{"bike_id":"f31bf073-e687-4787-90ee-691c464f7f3e","system_id":"levelo_inurba_marseille","lat":43.25732,"lon":5.41107,"is_reserved":false,"is_disabled":false,"rental_uris":{"android":"levelo://app?vid=f31bf073-e687-4787-90ee-691c464f7f3e","ios":"levelo://app?vid=f31bf073-e687-4787-90ee-691c464f7f3e"},"vehicle_type_id":"4","last_reported":1746080137,"current_range_meters":9200,"station_id":"ce4bhkp2rcd13ifvqgd0","pricing_plan_id":"cebpf4jnsgd1na2vs0mg"},{"bike_id":"c753e228-1df1-48f9-8e7e-1b98418bdce9","system_id":"levelo_inurba_marseille","lat":43.30149,"lon":5.38086,"is_reserved":false,"is_disabled":false,"rental_uris":{"android":"levelo://app?vid=c753e228-1df1-48f9-8e7e-1b98418bdce9","ios":"levelo://app?vid=c753e228-1df1-48f9-8e7e-1b98418bdce9"},"vehicle_type_id":"4","last_reported":1746080137,"current_range_meters":9200,"station_id":"ce4bgjp2rcd13ifvqbh0","pricing_plan_id":"cebpf4jnsgd1na2vs0mg"},{"bike_id":"7924b638-6bb2-4d04-8752-d92a7a4ba43a","system_id":"levelo_inurba_marseille","lat":43.241701,"lon":5.397405,"is_reserved":false,"is_disabled":false,"rental_uris":{"android":"levelo://app?vid=7924b638-6bb2-4d04-8752-d92a7a4ba43a","ios":"levelo://app?vid=7924b638-6bb2-4d04-8752-d92a7a4ba43a"},"vehicle_type_id":"4","last_reported":1746080137,"current_range_meters":9200,"station_id":"ce4bhn12rcd13ifvqgpg","pricing_plan_id":"cebpf4jnsgd1na2vs0mg"},{"bike_id":"dbea947e-cd6b-4d17-bd46-c1a2de40773d","system_id":"levelo_inurba_marseille","lat":43.29036,"lon":5.39975,"is_reserved":false,"is_disabled":false,"rental_uris":{"android":"levelo://app?vid=dbea947e-cd6b-4d17-bd46-c1a2de40773d","ios":"levelo://app?vid=dbea947e-cd6b-4d17-bd46-c1a2de40773d"},"vehicle_type_id":"4","last_reported":1746080137,"current_range_meters":8800,"station_id":"ce4bh392rcd13ifvqdm0","pricing_plan_id":"cebpf4jnsgd1na2vs0mg"},{"bike_id":"3c45809c-b0fa-4bc2-b9c0-d5a87c8b30e1","system_id":"levelo_inurba_marseille","lat":43.30136,"lon":5.38085,"is_reserved":false,"is_disabled":false,"rental_uris":{"android":"levelo://app?vid=3c45809c-b0fa-4bc2-b9c0-d5a87c8b30e1","ios":"levelo://app?vid=3c45809c-b0fa-4bc2-b9c0-d5a87c8b30e1"},"vehicle_type_id":"4","last_reported":1746080137,"current_range_meters":9200,"station_id":"ce4bgjp2rcd13ifvqbh0","pricing_plan_id":"cebpf4jnsgd1na2vs0mg"},{"bike_id":"0c568f00-ced2-40a6-a152-0fdac72798dd","system_id":"levelo_inurba_marseille","lat":43.2903,"lon":5.38642,"is_reserved":false,"is_disabled":false,"rental_uris":{"android":"levelo://app?vid=0c568f00-ced2-40a6-a152-0fdac72798dd","ios":"levelo://app?vid=0c568f00-ced2-40a6-a152-0fdac72798dd"},"vehicle_type_id":"4","last_reported":1746080137,"current_range_meters":9200,"station_id":"ce4bh4p2rcd13ifvqe0g","pricing_plan_id":"cebpf4jnsgd1na2vs0mg"},{"bike_id":"912c7719-28e0-48e1-8454-fa465c703922","system_id":"levelo_inurba_marseille","lat":43.29502,"lon":5.37381,"is_reserved":false,"is_disabled":false,"rental_uris":{"android":"levelo://app?vid=912c7719-28e0-48e1-8454-fa465c703922","ios":"levelo://app?vid=912c7719-28e0-48e1-8454-fa465c703922"},"vehicle_type_id":"4","last_reported":1746080137,"current_range_meters":9200,"station_id":"","pricing_plan_id":"cebpf4jnsgd1na2vs0mg"},{"bike_id":"405fa080-f811-46f3-8582-d87d58738f3b","system_id":"levelo_inurba_marseille","lat":43.25715,"lon":5.41808,"is_reserved":false,"is_disabled":false,"rental_uris":{"android":"levelo://app?vid=405fa080-f811-46f3-8582-d87d58738f3b","ios":"levelo://app?vid=405fa080-f811-46f3-8582-d87d58738f3b"},"vehicle_type_id":"4","last_reported":1746080137,"current_range_meters":9200,"station_id":"","pricing_plan_id":"cebpf4jnsgd1na2vs0mg"},{"bike_id":"e5e92a64-e709-4b1a-a9b1-cbffe85789ca","system_id":"levelo_inurba_marseille","lat":43.255423,"lon":5.381439,"is_reserved":false,"is_disabled":false,"rental_uris":{"android":"levelo://app?vid=e5e92a64-e709-4b1a-a9b1-cbffe85789ca","ios":"levelo://app?vid=e5e92a64-e709-4b1a-a9b1-cbffe85789ca"},"vehicle_type_id":"4","last_reported":1746080137,"current_range_meters":9200,"station_id":"","pricing_plan_id":"cebpf4jnsgd1na2vs0mg"},{"bike_id":"8261973d-7fd9-4c15-8fb8-294a251b0456","system_id":"levelo_inurba_marseille","lat":43.29219,"lon":5.38609,"is_reserved":false,"is_disabled":true,"rental_uris":{"android":"levelo://app?vid=8261973d-7fd9-4c15-8fb8-294a251b0456","ios":"levelo://app?vid=8261973d-7fd9-4c15-8fb8-294a251b0456"},"vehicle_type_id":"4","last_reported":1746080137,"current_range_meters":9200,"station_id":"","pricing_plan_id":"cebpf4jnsgd1na2vs0mg"},{"bike_id":"fca9dc8b-9c20-4eab-83ff-17d0ce9a6922","system_id":"levelo_inurba_marseille","lat":43.260248,"lon":5.417446,"is_reserved":false,"is_disabled":false,"rental_uris":{"android":"levelo://app?vid=fca9dc8b-9c20-4eab-83ff-17d0ce9a6922","ios":"levelo://app?vid=fca9dc8b-9c20-4eab-83ff-17d0ce9a6922"},"vehicle_type_id":"4","last_reported":1746080137,"current_range_meters":9600,"station_id":"","pricing_plan_id":"cebpf4jnsgd1na2vs0mg"},{"bike_id":"c5552acd-50fa-4b0d-95c7-8f6dc5626569","system_id":"levelo_inurba_marseille","lat":43.2807,"lon":5.39643,"is_reserved":false,"is_disabled":false,"rental_uris":{"android":"levelo://app?vid=c5552acd-50fa-4b0d-95c7-8f6dc5626569","ios":"levelo://app?vid=c5552acd-50fa-4b0d-95c7-8f6dc5626569"},"vehicle_type_id":"4","last_reported":1746080137,"current_range_meters":9600,"station_id":"ce4bho12rcd13ifvqh2g","pricing_plan_id":"cebpf4jnsgd1na2vs0mg"},{"bike_id":"fa0013e1-384c-4a43-9dc8-c63fff3d2b7e","system_id":"levelo_inurba_marseille","lat":43.231834,"lon":5.39975,"is_reserved":false,"is_disabled":false,"rental_uris":{"android":"levelo://app?vid=fa0013e1-384c-4a43-9dc8-c63fff3d2b7e","ios":"levelo://app?vid=fa0013e1-384c-4a43-9dc8-c63fff3d2b7e"},"vehicle_type_id":"4","last_reported":1746080137,"current_range_meters":9600,"station_id":"ce4bhn12rcd13ifvqgqg","pricing_plan_id":"cebpf4jnsgd1na2vs0mg"},{"bike_id":"c1cbc237-cfab-474a-aa26-81a87506105a","system_id":"levelo_inurba_marseille","lat":43.21754,"lon":5.34615,"is_reserved":false,"is_disabled":false,"rental_uris":{"android":"levelo://app?vid=c1cbc237-cfab-474a-aa26-81a87506105a","ios":"levelo://app?vid=c1cbc237-cfab-474a-aa26-81a87506105a"},"vehicle_type_id":"4","last_reported":1746080137,"current_range_meters":9600,"station_id":"st_cvj6r9ubvosntc0bgbag","pricing_plan_id":"cebpf4jnsgd1na2vs0mg"},{"bike_id":"f77b66dc-df98-4767-bb4a-b3fb2fb7880b","system_id":"levelo_inurba_marseille","lat":43.29874,"lon":5.39768,"is_reserved":false,"is_disabled":false,"rental_uris":{"android":"levelo://app?vid=f77b66dc-df98-4767-bb4a-b3fb2fb7880b","ios":"levelo://app?vid=f77b66dc-df98-4767-bb4a-b3fb2fb7880b"},"vehicle_type_id":"4","last_reported":1746080137,"current_range_meters":9600,"station_id":"ce4bh0h2rcd13ifvqd50","pricing_plan_id":"cebpf4jnsgd1na2vs0mg"},{"bike_id":"097d13a1-9558-4a72-b7ec-8017bd0f0a59","system_id":"levelo_inurba_marseille","lat":43.30626,"lon":5.40079,"is_reserved":false,"is_disabled":false,"rental_uris":{"android":"levelo://app?vid=097d13a1-9558-4a72-b7ec-8017bd0f0a59","ios":"levelo://app?vid=097d13a1-9558-4a72-b7ec-8017bd0f0a59"},"vehicle_type_id":"4","last_reported":1746080137,"current_range_meters":10000,"station_id":"ce4bh112rcd13ifvqda0","pricing_plan_id":"cebpf4jnsgd1na2vs0mg"},{"bike_id":"77942475-b9df-43a6-af61-b22087b935d2","system_id":"levelo_inurba_marseille","lat":43.29254,"lon":5.38443,"is_reserved":false,"is_disabled":true,"rental_uris":{"android":"levelo://app?vid=77942475-b9df-43a6-af61-b22087b935d2","ios":"levelo://app?vid=77942475-b9df-43a6-af61-b22087b935d2"},"vehicle_type_id":"4","last_reported":1746080137,"current_range_meters":10000,"station_id":"ce4bh692rcd13ifvqea0","pricing_plan_id":"cebpf4jnsgd1na2vs0mg"},{"bike_id":"379b8933-bc6e-4164-9d36-daaf2941e50f","system_id":"levelo_inurba_marseille","lat":43.30769,"lon":5.374723,"is_reserved":false,"is_disabled":false,"rental_uris":{"android":"levelo://app?vid=379b8933-bc6e-4164-9d36-daaf2941e50f","ios":"levelo://app?vid=379b8933-bc6e-4164-9d36-daaf2941e50f"},"vehicle_type_id":"4","last_reported":1746080137,"current_range_meters":10000,"station_id":"","pricing_plan_id":"cebpf4jnsgd1na2vs0mg"},{"bike_id":"3ce5a6a0-7c75-4b93-962c-2dd6ababc3c9","system_id":"levelo_inurba_marseille","lat":43.225055,"lon":5.347838,"is_reserved":false,"is_disabled":false,"rental_uris":{"android":"levelo://app?vid=3ce5a6a0-7c75-4b93-962c-2dd6ababc3c9","ios":"levelo://app?vid=3ce5a6a0-7c75-4b93-962c-2dd6ababc3c9"},"vehicle_type_id":"4","last_reported":1746080137,"current_range_meters":10000,"station_id":"st_cvj5dfep6f1abm77gieg","pricing_plan_id":"cebpf4jnsgd1na2vs0mg"},{"bike_id":"3716d17a-c495-4731-a70d-6de7f12ecef0","system_id":"levelo_inurba_marseille","lat":43.32368,"lon":5.388777,"is_reserved":false,"is_disabled":false,"rental_uris":{"android":"levelo://app?vid=3716d17a-c495-4731-a70d-6de7f12ecef0","ios":"levelo://app?vid=3716d17a-c495-4731-a70d-6de7f12ecef0"},"vehicle_type_id":"4","last_reported":1746080137,"current_range_meters":10000,"station_id":"ce4bhqp2rcd13ifvqhog","pricing_plan_id":"cebpf4jnsgd1na2vs0mg"},{"bike_id":"a076933d-3a98-414c-b7e5-30c1a775a06f","system_id":"levelo_inurba_marseille","lat":43.31402,"lon":5.39086,"is_reserved":false,"is_disabled":false,"rental_uris":{"android":"levelo://app?vid=a076933d-3a98-414c-b7e5-30c1a775a06f","ios":"levelo://app?vid=a076933d-3a98-414c-b7e5-30c1a775a06f"},"vehicle_type_id":"4","last_reported":1746080137,"current_range_meters":10800,"station_id":"","pricing_plan_id":"cebpf4jnsgd1na2vs0mg"},{"bike_id":"df93e2e5-6077-4d47-ac12-eb3362d865a5","system_id":"levelo_inurba_marseille","lat":43.28407,"lon":5.37519,"is_reserved":false,"is_disabled":false,"rental_uris":{"android":"levelo://app?vid=df93e2e5-6077-4d47-ac12-eb3362d865a5","ios":"levelo://app?vid=df93e2e5-6077-4d47-ac12-eb3362d865a5"},"vehicle_type_id":"4","last_reported":1746080137,"current_range_meters":10800,"station_id":"ce4bh412rcd13ifvqds0","pricing_plan_id":"cebpf4jnsgd1na2vs0mg"},{"bike_id":"ee76672a-b31a-4ea2-9f1d-aeb0d5846055","system_id":"levelo_inurba_marseille","lat":43.30158,"lon":5.38098,"is_reserved":false,"is_disabled":false,"rental_uris":{"android":"levelo://app?vid=ee76672a-b31a-4ea2-9f1d-aeb0d5846055","ios":"levelo://app?vid=ee76672a-b31a-4ea2-9f1d-aeb0d5846055"},"vehicle_type_id":"4","last_reported":1746080137,"current_range_meters":10800,"station_id":"ce4bgjp2rcd13ifvqbh0","pricing_plan_id":"cebpf4jnsgd1na2vs0mg"},{"bike_id":"c326b9f7-c1e6-44d5-a0fe-0e3f0a410abd","system_id":"levelo_inurba_marseille","lat":43.27538,"lon":5.38439,"is_reserved":false,"is_disabled":false,"rental_uris":{"android":"levelo://app?vid=c326b9f7-c1e6-44d5-a0fe-0e3f0a410abd","ios":"levelo://app?vid=c326b9f7-c1e6-44d5-a0fe-0e3f0a410abd"},"vehicle_type_id":"4","last_reported":1746080137,"current_range_meters":10800,"station_id":"ce4bhh92rcd13ifvqfi0","pricing_plan_id":"cebpf4jnsgd1na2vs0mg"},{"bike_id":"80651a87-6c3b-4ad8-a524-9ca686ad66c6","system_id":"levelo_inurba_marseille","lat":43.330184,"lon":5.390233,"is_reserved":false,"is_disabled":false,"rental_uris":{"android":"levelo://app?vid=80651a87-6c3b-4ad8-a524-9ca686ad66c6","ios":"levelo://app?vid=80651a87-6c3b-4ad8-a524-9ca686ad66c6"},"vehicle_type_id":"4","last_reported":1746080137,"current_range_meters":10800,"station_id":"ce4bhr92rcd13ifvqhrg","pricing_plan_id":"cebpf4jnsgd1na2vs0mg"},{"bike_id":"562276dc-22b8-4d74-876e-58926664ab2e","system_id":"levelo_inurba_marseille","lat":43.29028,"lon":5.35619,"is_reserved":false,"is_disabled":true,"rental_uris":{"android":"levelo://app?vid=562276dc-22b8-4d74-876e-58926664ab2e","ios":"levelo://app?vid=562276dc-22b8-4d74-876e-58926664ab2e"},"vehicle_type_id":"4","last_reported":1746080137,"current_range_meters":10800,"station_id":"ce4bhb92rcd13ifvqen0","pricing_plan_id":"cebpf4jnsgd1na2vs0mg"},{"bike_id":"9f87d872-9836-4a68-a4bb-b0ab837e0461","system_id":"levelo_inurba_marseille","lat":43.30573,"lon":5.3669,"is_reserved":false,"is_disabled":true,"rental_uris":{"android":"levelo://app?vid=9f87d872-9836-4a68-a4bb-b0ab837e0461","ios":"levelo://app?vid=9f87d872-9836-4a68-a4bb-b0ab837e0461"},"vehicle_type_id":"4","last_reported":1746080137,"current_range_meters":10800,"station_id":"ce4bgrp2rcd13ifvqc9g","pricing_plan_id":"cebpf4jnsgd1na2vs0mg"},{"bike_id":"4fa9ed5a-1b6b-4d0b-b845-d37eae4caf3e","system_id":"levelo_inurba_marseille","lat":43.317581,"lon":5.390158,"is_reserved":false,"is_disabled":false,"rental_uris":{"android":"levelo://app?vid=4fa9ed5a-1b6b-4d0b-b845-d37eae4caf3e","ios":"levelo://app?vid=4fa9ed5a-1b6b-4d0b-b845-d37eae4caf3e"},"vehicle_type_id":"4","last_reported":1746080137,"current_range_meters":10800,"station_id":"ce4bgv12rcd13ifvqcp0","pricing_plan_id":"cebpf4jnsgd1na2vs0mg"},{"bike_id":"171cdde1-553e-41d8-ad20-22097af17faf","system_id":"levelo_inurba_marseille","lat":43.265673,"lon":5.390229,"is_reserved":false,"is_disabled":false,"rental_uris":{"android":"levelo://app?vid=171cdde1-553e-41d8-ad20-22097af17faf","ios":"levelo://app?vid=171cdde1-553e-41d8-ad20-22097af17faf"},"vehicle_type_id":"4","last_reported":1746080137,"current_range_meters":11200,"station_id":"ce4bhe12rcd13ifvqf30","pricing_plan_id":"cebpf4jnsgd1na2vs0mg"},{"bike_id":"42979274-76ae-42a2-b009-8dde9f74aa65","system_id":"levelo_inurba_marseille","lat":43.33052,"lon":5.39029,"is_reserved":false,"is_disabled":false,"rental_uris":{"android":"levelo://app?vid=42979274-76ae-42a2-b009-8dde9f74aa65","ios":"levelo://app?vid=42979274-76ae-42a2-b009-8dde9f74aa65"},"vehicle_type_id":"4","last_reported":1746080137,"current_range_meters":11200,"station_id":"ce4bhr92rcd13ifvqhrg","pricing_plan_id":"cebpf4jnsgd1na2vs0mg"},{"bike_id":"356f1f7a-85b4-466a-a5b8-7303a2582917","system_id":"levelo_inurba_marseille","lat":43.30141,"lon":5.37405,"is_reserved":false,"is_disabled":false,"rental_uris":{"android":"levelo://app?vid=356f1f7a-85b4-466a-a5b8-7303a2582917","ios":"levelo://app?vid=356f1f7a-85b4-466a-a5b8-7303a2582917"},"vehicle_type_id":"4","last_reported":1746080137,"current_range_meters":11200,"station_id":"ce4bgs92rcd13ifvqcc0","pricing_plan_id":"cebpf4jnsgd1na2vs0mg"},{"bike_id":"22da4027-4f6f-45d1-9334-006a58311cd1","system_id":"levelo_inurba_marseille","lat":43.24056,"lon":5.3679,"is_reserved":false,"is_disabled":false,"rental_uris":{"android":"levelo://app?vid=22da4027-4f6f-45d1-9334-006a58311cd1","ios":"levelo://app?vid=22da4027-4f6f-45d1-9334-006a58311cd1"},"vehicle_type_id":"4","last_reported":1746080137,"current_range_meters":11200,"station_id":"","pricing_plan_id":"cebpf4jnsgd1na2vs0mg"},{"bike_id":"54f016eb-d4f2-4464-a9b5-1bd215f5c09b","system_id":"levelo_inurba_marseille","lat":43.32364,"lon":5.388854,"is_reserved":false,"is_disabled":false,"rental_uris":{"android":"levelo://app?vid=54f016eb-d4f2-4464-a9b5-1bd215f5c09b","ios":"levelo://app?vid=54f016eb-d4f2-4464-a9b5-1bd215f5c09b"},"vehicle_type_id":"4","last_reported":1746080137,"current_range_meters":11200,"station_id":"ce4bhqp2rcd13ifvqhog","pricing_plan_id":"cebpf4jnsgd1na2vs0mg"},{"bike_id":"ea80e760-79ab-4fb9-ba88-deb6e15c9204","system_id":"levelo_inurba_marseille","lat":43.30162,"lon":5.38068,"is_reserved":false,"is_disabled":false,"rental_uris":{"android":"levelo://app?vid=ea80e760-79ab-4fb9-ba88-deb6e15c9204","ios":"levelo://app?vid=ea80e760-79ab-4fb9-ba88-deb6e15c9204"},"vehicle_type_id":"4","last_reported":1746080137,"current_range_meters":11200,"station_id":"ce4bgjp2rcd13ifvqbh0","pricing_plan_id":"cebpf4jnsgd1na2vs0mg"},{"bike_id":"87b611f6-ce76-49e3-867c-a8a806a0f0b9","system_id":"levelo_inurba_marseille","lat":43.304666,"lon":5.379062,"is_reserved":false,"is_disabled":false,"rental_uris":{"android":"levelo://app?vid=87b611f6-ce76-49e3-867c-a8a806a0f0b9","ios":"levelo://app?vid=87b611f6-ce76-49e3-867c-a8a806a0f0b9"},"vehicle_type_id":"4","last_reported":1746080137,"current_range_meters":11200,"station_id":"ce4bgup2rcd13ifvqcn0","pricing_plan_id":"cebpf4jnsgd1na2vs0mg"},{"bike_id":"308de1d5-ff65-4d1c-b1f9-bb8031671b73","system_id":"levelo_inurba_marseille","lat":43.30135,"lon":5.38084,"is_reserved":false,"is_disabled":false,"rental_uris":{"android":"levelo://app?vid=308de1d5-ff65-4d1c-b1f9-bb8031671b73","ios":"levelo://app?vid=308de1d5-ff65-4d1c-b1f9-bb8031671b73"},"vehicle_type_id":"4","last_reported":1746080137,"current_range_meters":11600,"station_id":"ce4bgjp2rcd13ifvqbh0","pricing_plan_id":"cebpf4jnsgd1na2vs0mg"},{"bike_id":"568e8226-15e0-4a16-bfa2-70ee45a44145","system_id":"levelo_inurba_marseille","lat":43.33625,"lon":5.41019,"is_reserved":false,"is_disabled":false,"rental_uris":{"android":"levelo://app?vid=568e8226-15e0-4a16-bfa2-70ee45a44145","ios":"levelo://app?vid=568e8226-15e0-4a16-bfa2-70ee45a44145"},"vehicle_type_id":"4","last_reported":1746080137,"current_range_meters":11600,"station_id":"ce4bhqh2rcd13ifvqhmg","pricing_plan_id":"cebpf4jnsgd1na2vs0mg"},{"bike_id":"4f86a978-1faa-41c3-8974-e1b31a2703b5","system_id":"levelo_inurba_marseille","lat":43.25147,"lon":5.40315,"is_reserved":false,"is_disabled":false,"rental_uris":{"android":"levelo://app?vid=4f86a978-1faa-41c3-8974-e1b31a2703b5","ios":"levelo://app?vid=4f86a978-1faa-41c3-8974-e1b31a2703b5"},"vehicle_type_id":"4","last_reported":1746080137,"current_range_meters":11600,"station_id":"ce4bhlh2rcd13ifvqgig","pricing_plan_id":"cebpf4jnsgd1na2vs0mg"},{"bike_id":"bded5638-5663-46d5-b164-b8214836c3ea","system_id":"levelo_inurba_marseille","lat":43.273016,"lon":5.392077,"is_reserved":false,"is_disabled":false,"rental_uris":{"android":"levelo://app?vid=bded5638-5663-46d5-b164-b8214836c3ea","ios":"levelo://app?vid=bded5638-5663-46d5-b164-b8214836c3ea"},"vehicle_type_id":"4","last_reported":1746080137,"current_range_meters":12000,"station_id":"","pricing_plan_id":"cebpf4jnsgd1na2vs0mg"},{"bike_id":"a732b3d6-472a-46b2-b5fc-7d86a14ed2fc","system_id":"levelo_inurba_marseille","lat":43.330149,"lon":5.390476,"is_reserved":false,"is_disabled":false,"rental_uris":{"android":"levelo://app?vid=a732b3d6-472a-46b2-b5fc-7d86a14ed2fc","ios":"levelo://app?vid=a732b3d6-472a-46b2-b5fc-7d86a14ed2fc"},"vehicle_type_id":"4","last_reported":1746080137,"current_range_meters":12000,"station_id":"ce4bhr92rcd13ifvqhrg","pricing_plan_id":"cebpf4jnsgd1na2vs0mg"},{"bike_id":"55f63592-70ea-4970-899d-14e04ab1c395","system_id":"levelo_inurba_marseille","lat":43.30159,"lon":5.38086,"is_reserved":false,"is_disabled":false,"rental_uris":{"android":"levelo://app?vid=55f63592-70ea-4970-899d-14e04ab1c395","ios":"levelo://app?vid=55f63592-70ea-4970-899d-14e04ab1c395"},"vehicle_type_id":"4","last_reported":1746080137,"current_range_meters":12000,"station_id":"ce4bgjp2rcd13ifvqbh0","pricing_plan_id":"cebpf4jnsgd1na2vs0mg"},{"bike_id":"fd427e05-8ad1-4dac-ba3a-e42fe8245eb3","system_id":"levelo_inurba_marseille","lat":43.28427,"lon":5.34999,"is_reserved":false,"is_disabled":true,"rental_uris":{"android":"levelo://app?vid=fd427e05-8ad1-4dac-ba3a-e42fe8245eb3","ios":"levelo://app?vid=fd427e05-8ad1-4dac-ba3a-e42fe8245eb3"},"vehicle_type_id":"4","last_reported":1746080137,"current_range_meters":12000,"station_id":"ce4bhbh2rcd13ifvqepg","pricing_plan_id":"cebpf4jnsgd1na2vs0mg"},{"bike_id":"74e43ab7-c22e-4e7e-9af4-ef7676b145b6","system_id":"levelo_inurba_marseille","lat":43.25721,"lon":5.41104,"is_reserved":false,"is_disabled":false,"rental_uris":{"android":"levelo://app?vid=74e43ab7-c22e-4e7e-9af4-ef7676b145b6","ios":"levelo://app?vid=74e43ab7-c22e-4e7e-9af4-ef7676b145b6"},"vehicle_type_id":"4","last_reported":1746080137,"current_range_meters":12000,"station_id":"ce4bhkp2rcd13ifvqgd0","pricing_plan_id":"cebpf4jnsgd1na2vs0mg"},{"bike_id":"39df689c-ab87-4f4a-bd01-ff7e217b5f18","system_id":"levelo_inurba_marseille","lat":43.26196,"lon":5.40426,"is_reserved":false,"is_disabled":false,"rental_uris":{"android":"levelo://app?vid=39df689c-ab87-4f4a-bd01-ff7e217b5f18","ios":"levelo://app?vid=39df689c-ab87-4f4a-bd01-ff7e217b5f18"},"vehicle_type_id":"4","last_reported":1746080137,"current_range_meters":12000,"station_id":"ce4bhmh2rcd13ifvqgmg","pricing_plan_id":"cebpf4jnsgd1na2vs0mg"},{"bike_id":"da557341-b4a1-447e-9606-415e0f9c6127","system_id":"levelo_inurba_marseille","lat":43.30455,"lon":5.37906,"is_reserved":false,"is_disabled":true,"rental_uris":{"android":"levelo://app?vid=da557341-b4a1-447e-9606-415e0f9c6127","ios":"levelo://app?vid=da557341-b4a1-447e-9606-415e0f9c6127"},"vehicle_type_id":"4","last_reported":1746080137,"current_range_meters":12000,"station_id":"ce4bgup2rcd13ifvqcn0","pricing_plan_id":"cebpf4jnsgd1na2vs0mg"},{"bike_id":"8fead5b8-7d9b-4e9f-8d43-79e6b1d90d86","system_id":"levelo_inurba_marseille","lat":43.302483,"lon":5.400537,"is_reserved":false,"is_disabled":false,"rental_uris":{"android":"levelo://app?vid=8fead5b8-7d9b-4e9f-8d43-79e6b1d90d86","ios":"levelo://app?vid=8fead5b8-7d9b-4e9f-8d43-79e6b1d90d86"},"vehicle_type_id":"4","last_reported":1746080137,"current_range_meters":12000,"station_id":"ce4bgvh2rcd13ifvqcs0","pricing_plan_id":"cebpf4jnsgd1na2vs0mg"},{"bike_id":"ca5f449a-1b49-4061-8873-7462fef94966","system_id":"levelo_inurba_marseille","lat":43.25865,"lon":5.39913,"is_reserved":false,"is_disabled":false,"rental_uris":{"android":"levelo://app?vid=ca5f449a-1b49-4061-8873-7462fef94966","ios":"levelo://app?vid=ca5f449a-1b49-4061-8873-7462fef94966"},"vehicle_type_id":"4","last_reported":1746080137,"current_range_meters":12400,"station_id":"ce4bhl92rcd13ifvqghg","pricing_plan_id":"cebpf4jnsgd1na2vs0mg"},{"bike_id":"34b484ab-c0f1-4e55-b51a-e2bafdafb63e","system_id":"levelo_inurba_marseille","lat":43.23055,"lon":5.354952,"is_reserved":false,"is_disabled":false,"rental_uris":{"android":"levelo://app?vid=34b484ab-c0f1-4e55-b51a-e2bafdafb63e","ios":"levelo://app?vid=34b484ab-c0f1-4e55-b51a-e2bafdafb63e"},"vehicle_type_id":"4","last_reported":1746080137,"current_range_meters":12400,"station_id":"cpo3342slgdg3j2ifvpg","pricing_plan_id":"cebpf4jnsgd1na2vs0mg"},{"bike_id":"89ac3e66-b713-4190-942c-76e9ca884726","system_id":"levelo_inurba_marseille","lat":43.320972,"lon":5.367734,"is_reserved":false,"is_disabled":false,"rental_uris":{"android":"levelo://app?vid=89ac3e66-b713-4190-942c-76e9ca884726","ios":"levelo://app?vid=89ac3e66-b713-4190-942c-76e9ca884726"},"vehicle_type_id":"4","last_reported":1746080137,"current_range_meters":12400,"station_id":"ce4bhrh2rcd13ifvqhug","pricing_plan_id":"cebpf4jnsgd1na2vs0mg"},{"bike_id":"4fc13aab-47ec-41bf-ba18-3346f7c81d19","system_id":"levelo_inurba_marseille","lat":43.33594,"lon":5.40997,"is_reserved":false,"is_disabled":false,"rental_uris":{"android":"levelo://app?vid=4fc13aab-47ec-41bf-ba18-3346f7c81d19","ios":"levelo://app?vid=4fc13aab-47ec-41bf-ba18-3346f7c81d19"},"vehicle_type_id":"4","last_reported":1746080137,"current_range_meters":12800,"station_id":"ce4bhqh2rcd13ifvqhmg","pricing_plan_id":"cebpf4jnsgd1na2vs0mg"},{"bike_id":"d8f69332-d7da-463e-98da-8052c52b547e","system_id":"levelo_inurba_marseille","lat":43.27813,"lon":5.40712,"is_reserved":false,"is_disabled":false,"rental_uris":{"android":"levelo://app?vid=d8f69332-d7da-463e-98da-8052c52b547e","ios":"levelo://app?vid=d8f69332-d7da-463e-98da-8052c52b547e"},"vehicle_type_id":"4","last_reported":1746080137,"current_range_meters":12800,"station_id":"ce4bhnh2rcd13ifvqgtg","pricing_plan_id":"cebpf4jnsgd1na2vs0mg"},{"bike_id":"a688b131-ae29-4f11-8812-f85f61aa6706","system_id":"levelo_inurba_marseille","lat":43.292101,"lon":5.393194,"is_reserved":false,"is_disabled":true,"rental_uris":{"android":"levelo://app?vid=a688b131-ae29-4f11-8812-f85f61aa6706","ios":"levelo://app?vid=a688b131-ae29-4f11-8812-f85f61aa6706"},"vehicle_type_id":"4","last_reported":1746080137,"current_range_meters":12800,"station_id":"ce4bhbh2rcd13ifvqeo0","pricing_plan_id":"cebpf4jnsgd1na2vs0mg"},{"bike_id":"fe9083d3-036c-45c9-9372-5aa64c224af0","system_id":"levelo_inurba_marseille","lat":43.30892,"lon":5.37206,"is_reserved":false,"is_disabled":false,"rental_uris":{"android":"levelo://app?vid=fe9083d3-036c-45c9-9372-5aa64c224af0","ios":"levelo://app?vid=fe9083d3-036c-45c9-9372-5aa64c224af0"},"vehicle_type_id":"4","last_reported":1746080137,"current_range_meters":12800,"station_id":"ce4bguh2rcd13ifvqckg","pricing_plan_id":"cebpf4jnsgd1na2vs0mg"},{"bike_id":"083163f5-e2fd-40d2-9e4f-7b3d2d85df31","system_id":"levelo_inurba_marseille","lat":43.26995,"lon":5.38753,"is_reserved":false,"is_disabled":true,"rental_uris":{"android":"levelo://app?vid=083163f5-e2fd-40d2-9e4f-7b3d2d85df31","ios":"levelo://app?vid=083163f5-e2fd-40d2-9e4f-7b3d2d85df31"},"vehicle_type_id":"4","last_reported":1746080137,"current_range_meters":12800,"station_id":"","pricing_plan_id":"cebpf4jnsgd1na2vs0mg"},{"bike_id":"7940bc1b-eaa7-4f49-a435-46dc9391f6a1","system_id":"levelo_inurba_marseille","lat":43.21182,"lon":5.35079,"is_reserved":false,"is_disabled":false,"rental_uris":{"android":"levelo://app?vid=7940bc1b-eaa7-4f49-a435-46dc9391f6a1","ios":"levelo://app?vid=7940bc1b-eaa7-4f49-a435-46dc9391f6a1"},"vehicle_type_id":"4","last_reported":1746080137,"current_range_meters":12800,"station_id":"st_cvj6sg6p6f1abm77japg","pricing_plan_id":"cebpf4jnsgd1na2vs0mg"},{"bike_id":"4215e336-130f-4e4e-ac75-ab1f2791ea4d","system_id":"levelo_inurba_marseille","lat":43.31713,"lon":5.40451,"is_reserved":false,"is_disabled":false,"rental_uris":{"android":"levelo://app?vid=4215e336-130f-4e4e-ac75-ab1f2791ea4d","ios":"levelo://app?vid=4215e336-130f-4e4e-ac75-ab1f2791ea4d"},"vehicle_type_id":"4","last_reported":1746080137,"current_range_meters":12800,"station_id":"ce4bh012rcd13ifvqd00","pricing_plan_id":"cebpf4jnsgd1na2vs0mg"},{"bike_id":"da62e04f-aabf-4f2b-9e7f-761fdf6d967b","system_id":"levelo_inurba_marseille","lat":43.28405,"lon":5.37526,"is_reserved":false,"is_disabled":false,"rental_uris":{"android":"levelo://app?vid=da62e04f-aabf-4f2b-9e7f-761fdf6d967b","ios":"levelo://app?vid=da62e04f-aabf-4f2b-9e7f-761fdf6d967b"},"vehicle_type_id":"4","last_reported":1746080137,"current_range_meters":13600,"station_id":"ce4bh412rcd13ifvqds0","pricing_plan_id":"cebpf4jnsgd1na2vs0mg"},{"bike_id":"07541a4c-711f-473d-acfe-1eb9b677008b","system_id":"levelo_inurba_marseille","lat":43.32479,"lon":5.36588,"is_reserved":false,"is_disabled":true,"rental_uris":{"android":"levelo://app?vid=07541a4c-711f-473d-acfe-1eb9b677008b","ios":"levelo://app?vid=07541a4c-711f-473d-acfe-1eb9b677008b"},"vehicle_type_id":"4","last_reported":1746080137,"current_range_meters":13600,"station_id":"ce4bhs12rcd13ifvqhvg","pricing_plan_id":"cebpf4jnsgd1na2vs0mg"},{"bike_id":"fd7875a1-1cd0-47f8-880b-6ef58a6b7e2e","system_id":"levelo_inurba_marseille","lat":43.22943,"lon":5.354,"is_reserved":false,"is_disabled":false,"rental_uris":{"android":"levelo://app?vid=fd7875a1-1cd0-47f8-880b-6ef58a6b7e2e","ios":"levelo://app?vid=fd7875a1-1cd0-47f8-880b-6ef58a6b7e2e"},"vehicle_type_id":"4","last_reported":1746080137,"current_range_meters":13600,"station_id":"cpo3532slgdg3j2ikp40","pricing_plan_id":"cebpf4jnsgd1na2vs0mg"},{"bike_id":"207d5856-aa8b-4d2a-bb16-82ed9b42a351","system_id":"levelo_inurba_marseille","lat":43.32283,"lon":5.38279,"is_reserved":false,"is_disabled":false,"rental_uris":{"android":"levelo://app?vid=207d5856-aa8b-4d2a-bb16-82ed9b42a351","ios":"levelo://app?vid=207d5856-aa8b-4d2a-bb16-82ed9b42a351"},"vehicle_type_id":"4","last_reported":1746080137,"current_range_meters":13600,"station_id":"ce4bhr12rcd13ifvqhqg","pricing_plan_id":"cebpf4jnsgd1na2vs0mg"},{"bike_id":"66cf9de5-17de-4e38-9ee0-8d2cef3b4ab3","system_id":"levelo_inurba_marseille","lat":43.30661,"lon":5.40078,"is_reserved":false,"is_disabled":true,"rental_uris":{"android":"levelo://app?vid=66cf9de5-17de-4e38-9ee0-8d2cef3b4ab3","ios":"levelo://app?vid=66cf9de5-17de-4e38-9ee0-8d2cef3b4ab3"},"vehicle_type_id":"4","last_reported":1746080137,"current_range_meters":13600,"station_id":"ce4bh112rcd13ifvqda0","pricing_plan_id":"cebpf4jnsgd1na2vs0mg"},{"bike_id":"734c3611-7469-46e4-9c45-70060c2c0e34","system_id":"levelo_inurba_marseille","lat":43.27883,"lon":5.37999,"is_reserved":false,"is_disabled":false,"rental_uris":{"android":"levelo://app?vid=734c3611-7469-46e4-9c45-70060c2c0e34","ios":"levelo://app?vid=734c3611-7469-46e4-9c45-70060c2c0e34"},"vehicle_type_id":"4","last_reported":1746080137,"current_range_meters":14400,"station_id":"ce4bhf92rcd13ifvqf50","pricing_plan_id":"cebpf4jnsgd1na2vs0mg"},{"bike_id":"1130c3af-831f-4180-a824-77b5ac50d0ae","system_id":"levelo_inurba_marseille","lat":43.30871,"lon":5.39643,"is_reserved":false,"is_disabled":false,"rental_uris":{"android":"levelo://app?vid=1130c3af-831f-4180-a824-77b5ac50d0ae","ios":"levelo://app?vid=1130c3af-831f-4180-a824-77b5ac50d0ae"},"vehicle_type_id":"4","last_reported":1746080137,"current_range_meters":14400,"station_id":"ce4bh012rcd13ifvqcv0","pricing_plan_id":"cebpf4jnsgd1na2vs0mg"},{"bike_id":"50a1dd8d-541e-4f00-b04e-18bce9de7374","system_id":"levelo_inurba_marseille","lat":43.30537,"lon":5.36719,"is_reserved":false,"is_disabled":false,"rental_uris":{"android":"levelo://app?vid=50a1dd8d-541e-4f00-b04e-18bce9de7374","ios":"levelo://app?vid=50a1dd8d-541e-4f00-b04e-18bce9de7374"},"vehicle_type_id":"4","last_reported":1746080137,"current_range_meters":14400,"station_id":"","pricing_plan_id":"cebpf4jnsgd1na2vs0mg"},{"bike_id":"68387bcf-91b9-4d94-9345-8087e5f6d466","system_id":"levelo_inurba_marseille","lat":43.31333,"lon":5.36771,"is_reserved":false,"is_disabled":true,"rental_uris":{"android":"levelo://app?vid=68387bcf-91b9-4d94-9345-8087e5f6d466","ios":"levelo://app?vid=68387bcf-91b9-4d94-9345-8087e5f6d466"},"vehicle_type_id":"4","last_reported":1746080137,"current_range_meters":14800,"station_id":"","pricing_plan_id":"cebpf4jnsgd1na2vs0mg"},{"bike_id":"0f4ef451-8f04-4bbf-82b4-5da11e623acb","system_id":"levelo_inurba_marseille","lat":43.32638,"lon":5.40995,"is_reserved":false,"is_disabled":false,"rental_uris":{"android":"levelo://app?vid=0f4ef451-8f04-4bbf-82b4-5da11e623acb","ios":"levelo://app?vid=0f4ef451-8f04-4bbf-82b4-5da11e623acb"},"vehicle_type_id":"4","last_reported":1746080137,"current_range_meters":14800,"station_id":"ce4bhpp2rcd13ifvqhgg","pricing_plan_id":"cebpf4jnsgd1na2vs0mg"},{"bike_id":"a80efe56-7ec7-41b2-959d-a20ff548881b","system_id":"levelo_inurba_marseille","lat":43.32352,"lon":5.38885,"is_reserved":false,"is_disabled":false,"rental_uris":{"android":"levelo://app?vid=a80efe56-7ec7-41b2-959d-a20ff548881b","ios":"levelo://app?vid=a80efe56-7ec7-41b2-959d-a20ff548881b"},"vehicle_type_id":"4","last_reported":1746080137,"current_range_meters":15200,"station_id":"ce4bhqp2rcd13ifvqhog","pricing_plan_id":"cebpf4jnsgd1na2vs0mg"},{"bike_id":"8f880347-8528-49b9-9b1f-29e5c33c88f0","system_id":"levelo_inurba_marseille","lat":43.30167,"lon":5.38058,"is_reserved":false,"is_disabled":false,"rental_uris":{"android":"levelo://app?vid=8f880347-8528-49b9-9b1f-29e5c33c88f0","ios":"levelo://app?vid=8f880347-8528-49b9-9b1f-29e5c33c88f0"},"vehicle_type_id":"4","last_reported":1746080137,"current_range_meters":15200,"station_id":"ce4bgjp2rcd13ifvqbh0","pricing_plan_id":"cebpf4jnsgd1na2vs0mg"},{"bike_id":"032f267e-969d-4d7b-bc0f-2f07173a13d0","system_id":"levelo_inurba_marseille","lat":43.301428,"lon":5.380998,"is_reserved":false,"is_disabled":false,"rental_uris":{"android":"levelo://app?vid=032f267e-969d-4d7b-bc0f-2f07173a13d0","ios":"levelo://app?vid=032f267e-969d-4d7b-bc0f-2f07173a13d0"},"vehicle_type_id":"4","last_reported":1746080137,"current_range_meters":15200,"station_id":"ce4bgjp2rcd13ifvqbh0","pricing_plan_id":"cebpf4jnsgd1na2vs0mg"},{"bike_id":"d13198bf-44ec-4da7-acff-e922f2680bbe","system_id":"levelo_inurba_marseille","lat":43.336025,"lon":5.410189,"is_reserved":false,"is_disabled":false,"rental_uris":{"android":"levelo://app?vid=d13198bf-44ec-4da7-acff-e922f2680bbe","ios":"levelo://app?vid=d13198bf-44ec-4da7-acff-e922f2680bbe"},"vehicle_type_id":"4","last_reported":1746080137,"current_range_meters":15200,"station_id":"ce4bhqh2rcd13ifvqhmg","pricing_plan_id":"cebpf4jnsgd1na2vs0mg"},{"bike_id":"b58385b2-d1b2-4ecc-af75-eb7cf4772905","system_id":"levelo_inurba_marseille","lat":43.23066,"lon":5.35499,"is_reserved":false,"is_disabled":false,"rental_uris":{"android":"levelo://app?vid=b58385b2-d1b2-4ecc-af75-eb7cf4772905","ios":"levelo://app?vid=b58385b2-d1b2-4ecc-af75-eb7cf4772905"},"vehicle_type_id":"4","last_reported":1746080137,"current_range_meters":15200,"station_id":"cpo3342slgdg3j2ifvpg","pricing_plan_id":"cebpf4jnsgd1na2vs0mg"},{"bike_id":"51fab5ef-a00d-4e32-90af-91019d86dee9","system_id":"levelo_inurba_marseille","lat":43.31969,"lon":5.3815,"is_reserved":false,"is_disabled":true,"rental_uris":{"android":"levelo://app?vid=51fab5ef-a00d-4e32-90af-91019d86dee9","ios":"levelo://app?vid=51fab5ef-a00d-4e32-90af-91019d86dee9"},"vehicle_type_id":"4","last_reported":1746080137,"current_range_meters":15200,"station_id":"ce4bhr12rcd13ifvqhpg","pricing_plan_id":"cebpf4jnsgd1na2vs0mg"},{"bike_id":"6daaf168-bfa9-48eb-82e8-fce6c84467fb","system_id":"levelo_inurba_marseille","lat":43.25866,"lon":5.3992,"is_reserved":false,"is_disabled":false,"rental_uris":{"android":"levelo://app?vid=6daaf168-bfa9-48eb-82e8-fce6c84467fb","ios":"levelo://app?vid=6daaf168-bfa9-48eb-82e8-fce6c84467fb"},"vehicle_type_id":"4","last_reported":1746080137,"current_range_meters":15200,"station_id":"ce4bhl92rcd13ifvqghg","pricing_plan_id":"cebpf4jnsgd1na2vs0mg"},{"bike_id":"dc2dfdc7-73a2-4f18-837a-0677b3a23fbe","system_id":"levelo_inurba_marseille","lat":43.33606,"lon":5.41022,"is_reserved":false,"is_disabled":false,"rental_uris":{"android":"levelo://app?vid=dc2dfdc7-73a2-4f18-837a-0677b3a23fbe","ios":"levelo://app?vid=dc2dfdc7-73a2-4f18-837a-0677b3a23fbe"},"vehicle_type_id":"4","last_reported":1746080137,"current_range_meters":15200,"station_id":"ce4bhqh2rcd13ifvqhmg","pricing_plan_id":"cebpf4jnsgd1na2vs0mg"},{"bike_id":"58e61467-50db-4ef1-a23a-155c99fb9f5b","system_id":"levelo_inurba_marseille","lat":43.3147,"lon":5.3732,"is_reserved":false,"is_disabled":false,"rental_uris":{"android":"levelo://app?vid=58e61467-50db-4ef1-a23a-155c99fb9f5b","ios":"levelo://app?vid=58e61467-50db-4ef1-a23a-155c99fb9f5b"},"vehicle_type_id":"4","last_reported":1746080137,"current_range_meters":16000,"station_id":"ce4bgt12rcd13ifvqcd0","pricing_plan_id":"cebpf4jnsgd1na2vs0mg"},{"bike_id":"cc6a794a-1920-4684-9d23-fbdf841a48dd","system_id":"levelo_inurba_marseille","lat":43.32339,"lon":5.40621,"is_reserved":false,"is_disabled":false,"rental_uris":{"android":"levelo://app?vid=cc6a794a-1920-4684-9d23-fbdf841a48dd","ios":"levelo://app?vid=cc6a794a-1920-4684-9d23-fbdf841a48dd"},"vehicle_type_id":"4","last_reported":1746080137,"current_range_meters":16000,"station_id":"ce4bhq92rcd13ifvqhjg","pricing_plan_id":"cebpf4jnsgd1na2vs0mg"},{"bike_id":"d89cd7f2-54cc-4147-b942-3714eb433cb8","system_id":"levelo_inurba_marseille","lat":43.28001,"lon":5.40015,"is_reserved":false,"is_disabled":false,"rental_uris":{"android":"levelo://app?vid=d89cd7f2-54cc-4147-b942-3714eb433cb8","ios":"levelo://app?vid=d89cd7f2-54cc-4147-b942-3714eb433cb8"},"vehicle_type_id":"4","last_reported":1746080137,"current_range_meters":15200,"station_id":"ce4bho92rcd13ifvqh4g","pricing_plan_id":"cebpf4jnsgd1na2vs0mg"},{"bike_id":"0c2fd97a-a68c-4bff-8f09-402b6ba070c9","system_id":"levelo_inurba_marseille","lat":43.33612,"lon":5.41056,"is_reserved":false,"is_disabled":false,"rental_uris":{"android":"levelo://app?vid=0c2fd97a-a68c-4bff-8f09-402b6ba070c9","ios":"levelo://app?vid=0c2fd97a-a68c-4bff-8f09-402b6ba070c9"},"vehicle_type_id":"4","last_reported":1746080137,"current_range_meters":16000,"station_id":"ce4bhqh2rcd13ifvqhmg","pricing_plan_id":"cebpf4jnsgd1na2vs0mg"},{"bike_id":"db70917f-893e-4376-952f-11ed090f8af4","system_id":"levelo_inurba_marseille","lat":43.29551,"lon":5.37484,"is_reserved":false,"is_disabled":false,"rental_uris":{"android":"levelo://app?vid=db70917f-893e-4376-952f-11ed090f8af4","ios":"levelo://app?vid=db70917f-893e-4376-952f-11ed090f8af4"},"vehicle_type_id":"4","last_reported":1746080137,"current_range_meters":16400,"station_id":"ce4bgkp2rcd13ifvqbmg","pricing_plan_id":"cebpf4jnsgd1na2vs0mg"},{"bike_id":"5a92311b-afc6-484e-ba35-449afe75ce34","system_id":"levelo_inurba_marseille","lat":43.29774,"lon":5.38098,"is_reserved":false,"is_disabled":true,"rental_uris":{"android":"levelo://app?vid=5a92311b-afc6-484e-ba35-449afe75ce34","ios":"levelo://app?vid=5a92311b-afc6-484e-ba35-449afe75ce34"},"vehicle_type_id":"4","last_reported":1746080137,"current_range_meters":16400,"station_id":"ce4bgip2rcd13ifvqbb0","pricing_plan_id":"cebpf4jnsgd1na2vs0mg"},{"bike_id":"b6370aa6-1cc0-4a8b-9774-235e8c2f66a8","system_id":"levelo_inurba_marseille","lat":43.31685,"lon":5.43699,"is_reserved":false,"is_disabled":false,"rental_uris":{"android":"levelo://app?vid=b6370aa6-1cc0-4a8b-9774-235e8c2f66a8","ios":"levelo://app?vid=b6370aa6-1cc0-4a8b-9774-235e8c2f66a8"},"vehicle_type_id":"4","last_reported":1746080137,"current_range_meters":16400,"station_id":"ce4bhp92rcd13ifvqhcg","pricing_plan_id":"cebpf4jnsgd1na2vs0mg"},{"bike_id":"0b9ac188-19a7-4ad4-8279-34f1318ce56d","system_id":"levelo_inurba_marseille","lat":43.31287,"lon":5.37774,"is_reserved":false,"is_disabled":false,"rental_uris":{"android":"levelo://app?vid=0b9ac188-19a7-4ad4-8279-34f1318ce56d","ios":"levelo://app?vid=0b9ac188-19a7-4ad4-8279-34f1318ce56d"},"vehicle_type_id":"4","last_reported":1746080137,"current_range_meters":16400,"station_id":"","pricing_plan_id":"cebpf4jnsgd1na2vs0mg"},{"bike_id":"38ab34ee-b7ef-47bf-b499-4767b730cbc9","system_id":"levelo_inurba_marseille","lat":43.33771,"lon":5.37475,"is_reserved":false,"is_disabled":false,"rental_uris":{"android":"levelo://app?vid=38ab34ee-b7ef-47bf-b499-4767b730cbc9","ios":"levelo://app?vid=38ab34ee-b7ef-47bf-b499-4767b730cbc9"},"vehicle_type_id":"4","last_reported":1746080137,"current_range_meters":16400,"station_id":"","pricing_plan_id":"cebpf4jnsgd1na2vs0mg"},{"bike_id":"c8581763-0ce2-4bab-ab9e-b4108eaa2ed7","system_id":"levelo_inurba_marseille","lat":43.32365,"lon":5.38884,"is_reserved":false,"is_disabled":false,"rental_uris":{"android":"levelo://app?vid=c8581763-0ce2-4bab-ab9e-b4108eaa2ed7","ios":"levelo://app?vid=c8581763-0ce2-4bab-ab9e-b4108eaa2ed7"},"vehicle_type_id":"4","last_reported":1746080137,"current_range_meters":16400,"station_id":"ce4bhqp2rcd13ifvqhog","pricing_plan_id":"cebpf4jnsgd1na2vs0mg"},{"bike_id":"2e1ce04f-74c7-4d68-a96b-b9dc1d6897ee","system_id":"levelo_inurba_marseille","lat":43.32285,"lon":5.382694,"is_reserved":false,"is_disabled":false,"rental_uris":{"android":"levelo://app?vid=2e1ce04f-74c7-4d68-a96b-b9dc1d6897ee","ios":"levelo://app?vid=2e1ce04f-74c7-4d68-a96b-b9dc1d6897ee"},"vehicle_type_id":"4","last_reported":1746080137,"current_range_meters":16400,"station_id":"ce4bhr12rcd13ifvqhqg","pricing_plan_id":"cebpf4jnsgd1na2vs0mg"},{"bike_id":"9c0411e6-d9c4-420e-985b-d4d7c1f7c888","system_id":"levelo_inurba_marseille","lat":43.25718,"lon":5.41113,"is_reserved":false,"is_disabled":false,"rental_uris":{"android":"levelo://app?vid=9c0411e6-d9c4-420e-985b-d4d7c1f7c888","ios":"levelo://app?vid=9c0411e6-d9c4-420e-985b-d4d7c1f7c888"},"vehicle_type_id":"4","last_reported":1746080137,"current_range_meters":16400,"station_id":"ce4bhkp2rcd13ifvqgd0","pricing_plan_id":"cebpf4jnsgd1na2vs0mg"},{"bike_id":"be0d895a-19d6-4d30-bad8-32edf66e2c7f","system_id":"levelo_inurba_marseille","lat":43.23153,"lon":5.43711,"is_reserved":false,"is_disabled":false,"rental_uris":{"android":"levelo://app?vid=be0d895a-19d6-4d30-bad8-32edf66e2c7f","ios":"levelo://app?vid=be0d895a-19d6-4d30-bad8-32edf66e2c7f"},"vehicle_type_id":"4","last_reported":1746080137,"current_range_meters":16000,"station_id":"ce4bhmp2rcd13ifvqgog","pricing_plan_id":"cebpf4jnsgd1na2vs0mg"},{"bike_id":"d32a64f6-9000-467e-98fd-c83514f49197","system_id":"levelo_inurba_marseille","lat":43.313269,"lon":5.397019,"is_reserved":false,"is_disabled":false,"rental_uris":{"android":"levelo://app?vid=d32a64f6-9000-467e-98fd-c83514f49197","ios":"levelo://app?vid=d32a64f6-9000-467e-98fd-c83514f49197"},"vehicle_type_id":"4","last_reported":1746080137,"current_range_meters":16800,"station_id":"ce4bgvp2rcd13ifvqcu0","pricing_plan_id":"cebpf4jnsgd1na2vs0mg"},{"bike_id":"3aba1d0c-e797-40ac-b0dc-2022445cb907","system_id":"levelo_inurba_marseille","lat":43.25113,"lon":5.40333,"is_reserved":false,"is_disabled":false,"rental_uris":{"android":"levelo://app?vid=3aba1d0c-e797-40ac-b0dc-2022445cb907","ios":"levelo://app?vid=3aba1d0c-e797-40ac-b0dc-2022445cb907"},"vehicle_type_id":"4","last_reported":1746080137,"current_range_meters":16800,"station_id":"ce4bhlh2rcd13ifvqgig","pricing_plan_id":"cebpf4jnsgd1na2vs0mg"},{"bike_id":"b1b4d74f-092b-476b-abae-f60870c92748","system_id":"levelo_inurba_marseille","lat":43.25072,"lon":5.3954,"is_reserved":false,"is_disabled":false,"rental_uris":{"android":"levelo://app?vid=b1b4d74f-092b-476b-abae-f60870c92748","ios":"levelo://app?vid=b1b4d74f-092b-476b-abae-f60870c92748"},"vehicle_type_id":"4","last_reported":1746080137,"current_range_meters":16800,"station_id":"ce4bhm12rcd13ifvqgkg","pricing_plan_id":"cebpf4jnsgd1na2vs0mg"},{"bike_id":"c29e36ac-2727-4e24-a089-8ad710d53619","system_id":"levelo_inurba_marseille","lat":43.309336,"lon":5.40154,"is_reserved":false,"is_disabled":false,"rental_uris":{"android":"levelo://app?vid=c29e36ac-2727-4e24-a089-8ad710d53619","ios":"levelo://app?vid=c29e36ac-2727-4e24-a089-8ad710d53619"},"vehicle_type_id":"4","last_reported":1746080137,"current_range_meters":16800,"station_id":"ce4bgvp2rcd13ifvqct0","pricing_plan_id":"cebpf4jnsgd1na2vs0mg"},{"bike_id":"41177f4d-9dde-49ed-af68-61a442fc2a4f","system_id":"levelo_inurba_marseille","lat":43.30252,"lon":5.400863,"is_reserved":false,"is_disabled":false,"rental_uris":{"android":"levelo://app?vid=41177f4d-9dde-49ed-af68-61a442fc2a4f","ios":"levelo://app?vid=41177f4d-9dde-49ed-af68-61a442fc2a4f"},"vehicle_type_id":"4","last_reported":1746080137,"current_range_meters":16800,"station_id":"ce4bgvh2rcd13ifvqcs0","pricing_plan_id":"cebpf4jnsgd1na2vs0mg"},{"bike_id":"4b51bf4a-e2aa-4cf3-aa98-e0d6af6f3d12","system_id":"levelo_inurba_marseille","lat":43.29524,"lon":5.37512,"is_reserved":false,"is_disabled":false,"rental_uris":{"android":"levelo://app?vid=4b51bf4a-e2aa-4cf3-aa98-e0d6af6f3d12","ios":"levelo://app?vid=4b51bf4a-e2aa-4cf3-aa98-e0d6af6f3d12"},"vehicle_type_id":"4","last_reported":1746080137,"current_range_meters":16800,"station_id":"ce4bgkp2rcd13ifvqbmg","pricing_plan_id":"cebpf4jnsgd1na2vs0mg"},{"bike_id":"e7ffe102-def9-44df-ab08-bcf2bfb76907","system_id":"levelo_inurba_marseille","lat":43.29585,"lon":5.37738,"is_reserved":false,"is_disabled":true,"rental_uris":{"android":"levelo://app?vid=e7ffe102-def9-44df-ab08-bcf2bfb76907","ios":"levelo://app?vid=e7ffe102-def9-44df-ab08-bcf2bfb76907"},"vehicle_type_id":"4","last_reported":1746080137,"current_range_meters":16800,"station_id":"","pricing_plan_id":"cebpf4jnsgd1na2vs0mg"},{"bike_id":"314c570d-d342-4e1f-93ca-be55bfbed314","system_id":"levelo_inurba_marseille","lat":43.30744,"lon":5.42435,"is_reserved":false,"is_disabled":false,"rental_uris":{"android":"levelo://app?vid=314c570d-d342-4e1f-93ca-be55bfbed314","ios":"levelo://app?vid=314c570d-d342-4e1f-93ca-be55bfbed314"},"vehicle_type_id":"4","last_reported":1746080137,"current_range_meters":16800,"station_id":"st_cvj6ca6bvosntc0bfgr0","pricing_plan_id":"cebpf4jnsgd1na2vs0mg"},{"bike_id":"beb1d927-2520-405b-a87d-c20cf401f42b","system_id":"levelo_inurba_marseille","lat":43.28415,"lon":5.37534,"is_reserved":false,"is_disabled":false,"rental_uris":{"android":"levelo://app?vid=beb1d927-2520-405b-a87d-c20cf401f42b","ios":"levelo://app?vid=beb1d927-2520-405b-a87d-c20cf401f42b"},"vehicle_type_id":"4","last_reported":1746080137,"current_range_meters":16800,"station_id":"ce4bh412rcd13ifvqds0","pricing_plan_id":"cebpf4jnsgd1na2vs0mg"},{"bike_id":"0c7f2d70-b849-486d-bca2-848a564f0867","system_id":"levelo_inurba_marseille","lat":43.28,"lon":5.40023,"is_reserved":false,"is_disabled":false,"rental_uris":{"android":"levelo://app?vid=0c7f2d70-b849-486d-bca2-848a564f0867","ios":"levelo://app?vid=0c7f2d70-b849-486d-bca2-848a564f0867"},"vehicle_type_id":"4","last_reported":1746080137,"current_range_meters":17200,"station_id":"ce4bho92rcd13ifvqh4g","pricing_plan_id":"cebpf4jnsgd1na2vs0mg"},{"bike_id":"8d17b367-8061-4c82-8409-5df859a79302","system_id":"levelo_inurba_marseille","lat":43.319852,"lon":5.381509,"is_reserved":false,"is_disabled":false,"rental_uris":{"android":"levelo://app?vid=8d17b367-8061-4c82-8409-5df859a79302","ios":"levelo://app?vid=8d17b367-8061-4c82-8409-5df859a79302"},"vehicle_type_id":"4","last_reported":1746080137,"current_range_meters":17200,"station_id":"ce4bhr12rcd13ifvqhpg","pricing_plan_id":"cebpf4jnsgd1na2vs0mg"},{"bike_id":"8a108257-ba62-40f1-b151-5864796d192a","system_id":"levelo_inurba_marseille","lat":43.21749,"lon":5.34601,"is_reserved":false,"is_disabled":false,"rental_uris":{"android":"levelo://app?vid=8a108257-ba62-40f1-b151-5864796d192a","ios":"levelo://app?vid=8a108257-ba62-40f1-b151-5864796d192a"},"vehicle_type_id":"4","last_reported":1746080137,"current_range_meters":17200,"station_id":"st_cvj6r9ubvosntc0bgbag","pricing_plan_id":"cebpf4jnsgd1na2vs0mg"},{"bike_id":"bfd7b67f-e534-463a-a6a3-3563d3ef3162","system_id":"levelo_inurba_marseille","lat":43.30163,"lon":5.38079,"is_reserved":false,"is_disabled":false,"rental_uris":{"android":"levelo://app?vid=bfd7b67f-e534-463a-a6a3-3563d3ef3162","ios":"levelo://app?vid=bfd7b67f-e534-463a-a6a3-3563d3ef3162"},"vehicle_type_id":"4","last_reported":1746080137,"current_range_meters":17200,"station_id":"ce4bgjp2rcd13ifvqbh0","pricing_plan_id":"cebpf4jnsgd1na2vs0mg"},{"bike_id":"251e9dd1-1ef6-4d68-a53b-07ad88490391","system_id":"levelo_inurba_marseille","lat":43.30936,"lon":5.40144,"is_reserved":false,"is_disabled":false,"rental_uris":{"android":"levelo://app?vid=251e9dd1-1ef6-4d68-a53b-07ad88490391","ios":"levelo://app?vid=251e9dd1-1ef6-4d68-a53b-07ad88490391"},"vehicle_type_id":"4","last_reported":1746080137,"current_range_meters":17200,"station_id":"ce4bgvp2rcd13ifvqct0","pricing_plan_id":"cebpf4jnsgd1na2vs0mg"},{"bike_id":"1b5ee16c-1220-41a3-b71b-0bf601a3bc0a","system_id":"levelo_inurba_marseille","lat":43.30114,"lon":5.39098,"is_reserved":false,"is_disabled":true,"rental_uris":{"android":"levelo://app?vid=1b5ee16c-1220-41a3-b71b-0bf601a3bc0a","ios":"levelo://app?vid=1b5ee16c-1220-41a3-b71b-0bf601a3bc0a"},"vehicle_type_id":"4","last_reported":1746080137,"current_range_meters":17200,"station_id":"ce4bh192rcd13ifvqdb0","pricing_plan_id":"cebpf4jnsgd1na2vs0mg"},{"bike_id":"b59f9ea1-ffd2-46de-a377-e32331e5f122","system_id":"levelo_inurba_marseille","lat":43.31529,"lon":5.38036,"is_reserved":false,"is_disabled":false,"rental_uris":{"android":"levelo://app?vid=b59f9ea1-ffd2-46de-a377-e32331e5f122","ios":"levelo://app?vid=b59f9ea1-ffd2-46de-a377-e32331e5f122"},"vehicle_type_id":"4","last_reported":1746080137,"current_range_meters":17600,"station_id":"ce4bhsp2rcd13ifvqi50","pricing_plan_id":"cebpf4jnsgd1na2vs0mg"},{"bike_id":"5fc9a54d-ad5d-469b-807b-10c5d20729b5","system_id":"levelo_inurba_marseille","lat":43.307899,"lon":5.381631,"is_reserved":false,"is_disabled":false,"rental_uris":{"android":"levelo://app?vid=5fc9a54d-ad5d-469b-807b-10c5d20729b5","ios":"levelo://app?vid=5fc9a54d-ad5d-469b-807b-10c5d20729b5"},"vehicle_type_id":"4","last_reported":1746080137,"current_range_meters":17600,"station_id":"ce4bgt12rcd13ifvqce0","pricing_plan_id":"cebpf4jnsgd1na2vs0mg"},{"bike_id":"1bd1a463-337f-4c4e-98b6-b927dde62105","system_id":"levelo_inurba_marseille","lat":43.30378,"lon":5.42488,"is_reserved":false,"is_disabled":true,"rental_uris":{"android":"levelo://app?vid=1bd1a463-337f-4c4e-98b6-b927dde62105","ios":"levelo://app?vid=1bd1a463-337f-4c4e-98b6-b927dde62105"},"vehicle_type_id":"4","last_reported":1746080137,"current_range_meters":17600,"station_id":"ce4bhoh2rcd13ifvqh6g","pricing_plan_id":"cebpf4jnsgd1na2vs0mg"},{"bike_id":"a0be4085-5aa1-4e70-8872-c0d0d5166c1f","system_id":"levelo_inurba_marseille","lat":43.32491,"lon":5.3657,"is_reserved":false,"is_disabled":false,"rental_uris":{"android":"levelo://app?vid=a0be4085-5aa1-4e70-8872-c0d0d5166c1f","ios":"levelo://app?vid=a0be4085-5aa1-4e70-8872-c0d0d5166c1f"},"vehicle_type_id":"4","last_reported":1746080137,"current_range_meters":18000,"station_id":"ce4bhs12rcd13ifvqhvg","pricing_plan_id":"cebpf4jnsgd1na2vs0mg"},{"bike_id":"c7b75ff6-c0be-4f80-94ba-f7afc11fa6b7","system_id":"levelo_inurba_marseille","lat":43.217463,"lon":5.346006,"is_reserved":false,"is_disabled":false,"rental_uris":{"android":"levelo://app?vid=c7b75ff6-c0be-4f80-94ba-f7afc11fa6b7","ios":"levelo://app?vid=c7b75ff6-c0be-4f80-94ba-f7afc11fa6b7"},"vehicle_type_id":"4","last_reported":1746080137,"current_range_meters":18000,"station_id":"st_cvj6r9ubvosntc0bgbag","pricing_plan_id":"cebpf4jnsgd1na2vs0mg"},{"bike_id":"12f19978-8930-4bf2-bdf9-9b4dda3d099c","system_id":"levelo_inurba_marseille","lat":43.27495,"lon":5.42455,"is_reserved":false,"is_disabled":true,"rental_uris":{"android":"levelo://app?vid=12f19978-8930-4bf2-bdf9-9b4dda3d099c","ios":"levelo://app?vid=12f19978-8930-4bf2-bdf9-9b4dda3d099c"},"vehicle_type_id":"4","last_reported":1746080137,"current_range_meters":18000,"station_id":"ce4bhn92rcd13ifvqgrg","pricing_plan_id":"cebpf4jnsgd1na2vs0mg"},{"bike_id":"5bf1014c-0b0c-47d5-acac-c5042744773e","system_id":"levelo_inurba_marseille","lat":43.25481,"lon":5.37653,"is_reserved":false,"is_disabled":true,"rental_uris":{"android":"levelo://app?vid=5bf1014c-0b0c-47d5-acac-c5042744773e","ios":"levelo://app?vid=5bf1014c-0b0c-47d5-acac-c5042744773e"},"vehicle_type_id":"4","last_reported":1746080137,"current_range_meters":18800,"station_id":"ce4bhh12rcd13ifvqff0","pricing_plan_id":"cebpf4jnsgd1na2vs0mg"},{"bike_id":"98f122c8-3676-40fc-8a77-9fdf921ae7ef","system_id":"levelo_inurba_marseille","lat":43.29413,"lon":5.38628,"is_reserved":false,"is_disabled":false,"rental_uris":{"android":"levelo://app?vid=98f122c8-3676-40fc-8a77-9fdf921ae7ef","ios":"levelo://app?vid=98f122c8-3676-40fc-8a77-9fdf921ae7ef"},"vehicle_type_id":"4","last_reported":1746080137,"current_range_meters":18000,"station_id":"ce4bh2h2rcd13ifvqdh0","pricing_plan_id":"cebpf4jnsgd1na2vs0mg"},{"bike_id":"4fec10d1-ef71-4b58-8320-d49a3806ed8a","system_id":"levelo_inurba_marseille","lat":43.31997,"lon":5.38151,"is_reserved":false,"is_disabled":false,"rental_uris":{"android":"levelo://app?vid=4fec10d1-ef71-4b58-8320-d49a3806ed8a","ios":"levelo://app?vid=4fec10d1-ef71-4b58-8320-d49a3806ed8a"},"vehicle_type_id":"4","last_reported":1746080137,"current_range_meters":19200,"station_id":"ce4bhr12rcd13ifvqhpg","pricing_plan_id":"cebpf4jnsgd1na2vs0mg"},{"bike_id":"7c6dc1bf-0fa8-4cea-bdd8-7824d54eb30f","system_id":"levelo_inurba_marseille","lat":43.298934,"lon":5.436687,"is_reserved":false,"is_disabled":false,"rental_uris":{"android":"levelo://app?vid=7c6dc1bf-0fa8-4cea-bdd8-7824d54eb30f","ios":"levelo://app?vid=7c6dc1bf-0fa8-4cea-bdd8-7824d54eb30f"},"vehicle_type_id":"4","last_reported":1746080137,"current_range_meters":19200,"station_id":"ce4bhpp2rcd13ifvqhfg","pricing_plan_id":"cebpf4jnsgd1na2vs0mg"},{"bike_id":"2b633bb9-83a5-4d1e-8e12-e220dd22e2c0","system_id":"levelo_inurba_marseille","lat":43.324734,"lon":5.365735,"is_reserved":false,"is_disabled":false,"rental_uris":{"android":"levelo://app?vid=2b633bb9-83a5-4d1e-8e12-e220dd22e2c0","ios":"levelo://app?vid=2b633bb9-83a5-4d1e-8e12-e220dd22e2c0"},"vehicle_type_id":"4","last_reported":1746080137,"current_range_meters":19200,"station_id":"ce4bhs12rcd13ifvqhvg","pricing_plan_id":"cebpf4jnsgd1na2vs0mg"},{"bike_id":"c695bac2-0581-4a6a-b9c9-eb8e0d8673ed","system_id":"levelo_inurba_marseille","lat":43.33726,"lon":5.39186,"is_reserved":false,"is_disabled":false,"rental_uris":{"android":"levelo://app?vid=c695bac2-0581-4a6a-b9c9-eb8e0d8673ed","ios":"levelo://app?vid=c695bac2-0581-4a6a-b9c9-eb8e0d8673ed"},"vehicle_type_id":"4","last_reported":1746080137,"current_range_meters":19200,"station_id":"ce4bhr92rcd13ifvqhsg","pricing_plan_id":"cebpf4jnsgd1na2vs0mg"},{"bike_id":"cd1f00f1-de1f-4b99-b793-b6d2d379752c","system_id":"levelo_inurba_marseille","lat":43.2594,"lon":5.40902,"is_reserved":false,"is_disabled":false,"rental_uris":{"android":"levelo://app?vid=cd1f00f1-de1f-4b99-b793-b6d2d379752c","ios":"levelo://app?vid=cd1f00f1-de1f-4b99-b793-b6d2d379752c"},"vehicle_type_id":"4","last_reported":1746080137,"current_range_meters":19200,"station_id":"ce4bhm92rcd13ifvqglg","pricing_plan_id":"cebpf4jnsgd1na2vs0mg"},{"bike_id":"dbcdc79b-b3d2-4afc-9d54-e9c42c7937e6","system_id":"levelo_inurba_marseille","lat":43.27953,"lon":5.4104,"is_reserved":false,"is_disabled":false,"rental_uris":{"android":"levelo://app?vid=dbcdc79b-b3d2-4afc-9d54-e9c42c7937e6","ios":"levelo://app?vid=dbcdc79b-b3d2-4afc-9d54-e9c42c7937e6"},"vehicle_type_id":"4","last_reported":1746080137,"current_range_meters":19200,"station_id":"ce4bhnp2rcd13ifvqh0g","pricing_plan_id":"cebpf4jnsgd1na2vs0mg"},{"bike_id":"c53fcc2f-354d-46ff-af3a-d44f5f36a382","system_id":"levelo_inurba_marseille","lat":43.27416,"lon":5.39429,"is_reserved":false,"is_disabled":false,"rental_uris":{"android":"levelo://app?vid=c53fcc2f-354d-46ff-af3a-d44f5f36a382","ios":"levelo://app?vid=c53fcc2f-354d-46ff-af3a-d44f5f36a382"},"vehicle_type_id":"4","last_reported":1746080137,"current_range_meters":19200,"station_id":"ce4bhdp2rcd13ifvqf20","pricing_plan_id":"cebpf4jnsgd1na2vs0mg"},{"bike_id":"3aeb961f-88b6-47fd-986a-c7b2a855fefd","system_id":"levelo_inurba_marseille","lat":43.23076,"lon":5.355,"is_reserved":false,"is_disabled":false,"rental_uris":{"android":"levelo://app?vid=3aeb961f-88b6-47fd-986a-c7b2a855fefd","ios":"levelo://app?vid=3aeb961f-88b6-47fd-986a-c7b2a855fefd"},"vehicle_type_id":"4","last_reported":1746080137,"current_range_meters":19200,"station_id":"cpo3342slgdg3j2ifvpg","pricing_plan_id":"cebpf4jnsgd1na2vs0mg"},{"bike_id":"a95dba47-54c0-43ea-a02c-c422bc9aa61b","system_id":"levelo_inurba_marseille","lat":43.25077,"lon":5.39523,"is_reserved":false,"is_disabled":false,"rental_uris":{"android":"levelo://app?vid=a95dba47-54c0-43ea-a02c-c422bc9aa61b","ios":"levelo://app?vid=a95dba47-54c0-43ea-a02c-c422bc9aa61b"},"vehicle_type_id":"4","last_reported":1746080137,"current_range_meters":19200,"station_id":"ce4bhm12rcd13ifvqgkg","pricing_plan_id":"cebpf4jnsgd1na2vs0mg"},{"bike_id":"677a381b-b527-42a3-b987-992902b9ea2d","system_id":"levelo_inurba_marseille","lat":43.23047,"lon":5.35513,"is_reserved":false,"is_disabled":false,"rental_uris":{"android":"levelo://app?vid=677a381b-b527-42a3-b987-992902b9ea2d","ios":"levelo://app?vid=677a381b-b527-42a3-b987-992902b9ea2d"},"vehicle_type_id":"4","last_reported":1746080137,"current_range_meters":19200,"station_id":"cpo3342slgdg3j2ifvpg","pricing_plan_id":"cebpf4jnsgd1na2vs0mg"},{"bike_id":"3ccd4a9b-ce78-4056-9847-fcc92723e397","system_id":"levelo_inurba_marseille","lat":43.273862,"lon":5.362631,"is_reserved":false,"is_disabled":true,"rental_uris":{"android":"levelo://app?vid=3ccd4a9b-ce78-4056-9847-fcc92723e397","ios":"levelo://app?vid=3ccd4a9b-ce78-4056-9847-fcc92723e397"},"vehicle_type_id":"4","last_reported":1746080137,"current_range_meters":19200,"station_id":"ce4bhbh2rcd13ifvqeo0","pricing_plan_id":"cebpf4jnsgd1na2vs0mg"},{"bike_id":"44977203-d310-44b8-8a25-2f725ef03dd7","system_id":"levelo_inurba_marseille","lat":43.30148,"lon":5.38079,"is_reserved":false,"is_disabled":false,"rental_uris":{"android":"levelo://app?vid=44977203-d310-44b8-8a25-2f725ef03dd7","ios":"levelo://app?vid=44977203-d310-44b8-8a25-2f725ef03dd7"},"vehicle_type_id":"4","last_reported":1746080137,"current_range_meters":19600,"station_id":"ce4bgjp2rcd13ifvqbh0","pricing_plan_id":"cebpf4jnsgd1na2vs0mg"},{"bike_id":"6bdc1a79-8e1b-4360-aec9-e6f9cc32b412","system_id":"levelo_inurba_marseille","lat":43.25721,"lon":5.41093,"is_reserved":false,"is_disabled":false,"rental_uris":{"android":"levelo://app?vid=6bdc1a79-8e1b-4360-aec9-e6f9cc32b412","ios":"levelo://app?vid=6bdc1a79-8e1b-4360-aec9-e6f9cc32b412"},"vehicle_type_id":"4","last_reported":1746080137,"current_range_meters":19600,"station_id":"ce4bhkp2rcd13ifvqgd0","pricing_plan_id":"cebpf4jnsgd1na2vs0mg"},{"bike_id":"70a31ff3-92e5-466a-b06f-961241a877e1","system_id":"levelo_inurba_marseille","lat":43.305336,"lon":5.384291,"is_reserved":false,"is_disabled":false,"rental_uris":{"android":"levelo://app?vid=70a31ff3-92e5-466a-b06f-961241a877e1","ios":"levelo://app?vid=70a31ff3-92e5-466a-b06f-961241a877e1"},"vehicle_type_id":"4","last_reported":1746080137,"current_range_meters":19600,"station_id":"ce4bgg92rcd13ifvqb30","pricing_plan_id":"cebpf4jnsgd1na2vs0mg"},{"bike_id":"a88d2e3d-9dbf-40d4-a9e0-bc489904da4b","system_id":"levelo_inurba_marseille","lat":43.29275,"lon":5.38474,"is_reserved":false,"is_disabled":true,"rental_uris":{"android":"levelo://app?vid=a88d2e3d-9dbf-40d4-a9e0-bc489904da4b","ios":"levelo://app?vid=a88d2e3d-9dbf-40d4-a9e0-bc489904da4b"},"vehicle_type_id":"4","last_reported":1746080137,"current_range_meters":19600,"station_id":"ce4bh692rcd13ifvqea0","pricing_plan_id":"cebpf4jnsgd1na2vs0mg"},{"bike_id":"73575451-a7f8-4082-b38b-7caca66c2601","system_id":"levelo_inurba_marseille","lat":43.30123,"lon":5.398997,"is_reserved":false,"is_disabled":false,"rental_uris":{"android":"levelo://app?vid=73575451-a7f8-4082-b38b-7caca66c2601","ios":"levelo://app?vid=73575451-a7f8-4082-b38b-7caca66c2601"},"vehicle_type_id":"4","last_reported":1746080137,"current_range_meters":19200,"station_id":"ce4bh0h2rcd13ifvqd40","pricing_plan_id":"cebpf4jnsgd1na2vs0mg"},{"bike_id":"ecc289e6-a56d-4713-a9db-b1eebd05dac1","system_id":"levelo_inurba_marseille","lat":43.30799,"lon":5.38152,"is_reserved":false,"is_disabled":false,"rental_uris":{"android":"levelo://app?vid=ecc289e6-a56d-4713-a9db-b1eebd05dac1","ios":"levelo://app?vid=ecc289e6-a56d-4713-a9db-b1eebd05dac1"},"vehicle_type_id":"4","last_reported":1746080137,"current_range_meters":20000,"station_id":"ce4bgt12rcd13ifvqce0","pricing_plan_id":"cebpf4jnsgd1na2vs0mg"},{"bike_id":"33723d9a-d476-4493-80f8-a5af486490ea","system_id":"levelo_inurba_marseille","lat":43.30154,"lon":5.38089,"is_reserved":false,"is_disabled":false,"rental_uris":{"android":"levelo://app?vid=33723d9a-d476-4493-80f8-a5af486490ea","ios":"levelo://app?vid=33723d9a-d476-4493-80f8-a5af486490ea"},"vehicle_type_id":"4","last_reported":1746080137,"current_range_meters":20000,"station_id":"ce4bgjp2rcd13ifvqbh0","pricing_plan_id":"cebpf4jnsgd1na2vs0mg"},{"bike_id":"72df860b-5fbf-46e1-b0d7-b22629e73fc0","system_id":"levelo_inurba_marseille","lat":43.24385,"lon":5.37054,"is_reserved":false,"is_disabled":false,"rental_uris":{"android":"levelo://app?vid=72df860b-5fbf-46e1-b0d7-b22629e73fc0","ios":"levelo://app?vid=72df860b-5fbf-46e1-b0d7-b22629e73fc0"},"vehicle_type_id":"4","last_reported":1746080137,"current_range_meters":19600,"station_id":"ce4bhhh2rcd13ifvqfk0","pricing_plan_id":"cebpf4jnsgd1na2vs0mg"},{"bike_id":"9b38d887-e496-4cdf-b540-36b3bdf091bc","system_id":"levelo_inurba_marseille","lat":43.2175,"lon":5.34603,"is_reserved":false,"is_disabled":false,"rental_uris":{"android":"levelo://app?vid=9b38d887-e496-4cdf-b540-36b3bdf091bc","ios":"levelo://app?vid=9b38d887-e496-4cdf-b540-36b3bdf091bc"},"vehicle_type_id":"4","last_reported":1746080137,"current_range_meters":20000,"station_id":"st_cvj6r9ubvosntc0bgbag","pricing_plan_id":"cebpf4jnsgd1na2vs0mg"},{"bike_id":"1379c0bb-2a62-43e7-8135-356457be17fb","system_id":"levelo_inurba_marseille","lat":43.33617,"lon":5.41008,"is_reserved":false,"is_disabled":true,"rental_uris":{"android":"levelo://app?vid=1379c0bb-2a62-43e7-8135-356457be17fb","ios":"levelo://app?vid=1379c0bb-2a62-43e7-8135-356457be17fb"},"vehicle_type_id":"4","last_reported":1746080137,"current_range_meters":20000,"station_id":"ce4bhqh2rcd13ifvqhmg","pricing_plan_id":"cebpf4jnsgd1na2vs0mg"},{"bike_id":"10fe5799-109b-4d80-885d-3358ac5a1648","system_id":"levelo_inurba_marseille","lat":43.30555,"lon":5.36934,"is_reserved":false,"is_disabled":true,"rental_uris":{"android":"levelo://app?vid=10fe5799-109b-4d80-885d-3358ac5a1648","ios":"levelo://app?vid=10fe5799-109b-4d80-885d-3358ac5a1648"},"vehicle_type_id":"4","last_reported":1746080137,"current_range_meters":20400,"station_id":"","pricing_plan_id":"cebpf4jnsgd1na2vs0mg"},{"bike_id":"aa27357f-dc7f-4741-8b2f-ad8fc4d8dfe9","system_id":"levelo_inurba_marseille","lat":43.27615,"lon":5.3613,"is_reserved":false,"is_disabled":true,"rental_uris":{"android":"levelo://app?vid=aa27357f-dc7f-4741-8b2f-ad8fc4d8dfe9","ios":"levelo://app?vid=aa27357f-dc7f-4741-8b2f-ad8fc4d8dfe9"},"vehicle_type_id":"4","last_reported":1746080137,"current_range_meters":20400,"station_id":"ce4bgj92rcd13ifvqbe0","pricing_plan_id":"cebpf4jnsgd1na2vs0mg"},{"bike_id":"c46ea478-39dd-4c32-b490-86de1b4a7507","system_id":"levelo_inurba_marseille","lat":43.28078,"lon":5.39655,"is_reserved":false,"is_disabled":false,"rental_uris":{"android":"levelo://app?vid=c46ea478-39dd-4c32-b490-86de1b4a7507","ios":"levelo://app?vid=c46ea478-39dd-4c32-b490-86de1b4a7507"},"vehicle_type_id":"4","last_reported":1746080137,"current_range_meters":20400,"station_id":"ce4bho12rcd13ifvqh2g","pricing_plan_id":"cebpf4jnsgd1na2vs0mg"},{"bike_id":"a9f84602-c7d0-4d6c-85bc-f3b5795dbc64","system_id":"levelo_inurba_marseille","lat":43.29566,"lon":5.37535,"is_reserved":false,"is_disabled":false,"rental_uris":{"android":"levelo://app?vid=a9f84602-c7d0-4d6c-85bc-f3b5795dbc64","ios":"levelo://app?vid=a9f84602-c7d0-4d6c-85bc-f3b5795dbc64"},"vehicle_type_id":"4","last_reported":1746080137,"current_range_meters":20400,"station_id":"ce4bgh92rcd13ifvqb50","pricing_plan_id":"cebpf4jnsgd1na2vs0mg"},{"bike_id":"fd4496d3-f665-4291-bea0-eab9c6c59058","system_id":"levelo_inurba_marseille","lat":43.30648,"lon":5.40064,"is_reserved":false,"is_disabled":false,"rental_uris":{"android":"levelo://app?vid=fd4496d3-f665-4291-bea0-eab9c6c59058","ios":"levelo://app?vid=fd4496d3-f665-4291-bea0-eab9c6c59058"},"vehicle_type_id":"4","last_reported":1746080137,"current_range_meters":20400,"station_id":"ce4bh112rcd13ifvqda0","pricing_plan_id":"cebpf4jnsgd1na2vs0mg"},{"bike_id":"c0a72000-46b6-4527-9b1c-7432d6b2252e","system_id":"levelo_inurba_marseille","lat":43.27536,"lon":5.38447,"is_reserved":false,"is_disabled":true,"rental_uris":{"android":"levelo://app?vid=c0a72000-46b6-4527-9b1c-7432d6b2252e","ios":"levelo://app?vid=c0a72000-46b6-4527-9b1c-7432d6b2252e"},"vehicle_type_id":"4","last_reported":1746080137,"current_range_meters":20400,"station_id":"ce4bhh92rcd13ifvqfi0","pricing_plan_id":"cebpf4jnsgd1na2vs0mg"},{"bike_id":"341ca93b-b8ea-44f1-87c3-945ae977c774","system_id":"levelo_inurba_marseille","lat":43.2973,"lon":5.37673,"is_reserved":false,"is_disabled":true,"rental_uris":{"android":"levelo://app?vid=341ca93b-b8ea-44f1-87c3-945ae977c774","ios":"levelo://app?vid=341ca93b-b8ea-44f1-87c3-945ae977c774"},"vehicle_type_id":"4","last_reported":1746080137,"current_range_meters":20400,"station_id":"ce4bgkh2rcd13ifvqbl0","pricing_plan_id":"cebpf4jnsgd1na2vs0mg"},{"bike_id":"9948b8c0-52d2-4eb8-8da4-a50a93afeb9b","system_id":"levelo_inurba_marseille","lat":43.229274,"lon":5.35388,"is_reserved":false,"is_disabled":false,"rental_uris":{"android":"levelo://app?vid=9948b8c0-52d2-4eb8-8da4-a50a93afeb9b","ios":"levelo://app?vid=9948b8c0-52d2-4eb8-8da4-a50a93afeb9b"},"vehicle_type_id":"4","last_reported":1746080137,"current_range_meters":20800,"station_id":"cpo3532slgdg3j2ikp40","pricing_plan_id":"cebpf4jnsgd1na2vs0mg"},{"bike_id":"354982e5-4a84-4326-82da-06275fa4daf1","system_id":"levelo_inurba_marseille","lat":43.30636,"lon":5.40063,"is_reserved":false,"is_disabled":false,"rental_uris":{"android":"levelo://app?vid=354982e5-4a84-4326-82da-06275fa4daf1","ios":"levelo://app?vid=354982e5-4a84-4326-82da-06275fa4daf1"},"vehicle_type_id":"4","last_reported":1746080137,"current_range_meters":20800,"station_id":"ce4bh112rcd13ifvqda0","pricing_plan_id":"cebpf4jnsgd1na2vs0mg"},{"bike_id":"c620178a-92b3-4ea9-8dc7-46414d3c2fb2","system_id":"levelo_inurba_marseille","lat":43.29263,"lon":5.38436,"is_reserved":false,"is_disabled":false,"rental_uris":{"android":"levelo://app?vid=c620178a-92b3-4ea9-8dc7-46414d3c2fb2","ios":"levelo://app?vid=c620178a-92b3-4ea9-8dc7-46414d3c2fb2"},"vehicle_type_id":"4","last_reported":1746080137,"current_range_meters":20800,"station_id":"ce4bh692rcd13ifvqea0","pricing_plan_id":"cebpf4jnsgd1na2vs0mg"},{"bike_id":"ad6de3d7-cd91-444d-b36f-ee082b79b2b4","system_id":"levelo_inurba_marseille","lat":43.30206,"lon":5.38055,"is_reserved":false,"is_disabled":false,"rental_uris":{"android":"levelo://app?vid=ad6de3d7-cd91-444d-b36f-ee082b79b2b4","ios":"levelo://app?vid=ad6de3d7-cd91-444d-b36f-ee082b79b2b4"},"vehicle_type_id":"4","last_reported":1746080137,"current_range_meters":20800,"station_id":"","pricing_plan_id":"cebpf4jnsgd1na2vs0mg"},{"bike_id":"a6d86f47-0fd6-4299-91e4-675fc80c6a4c","system_id":"levelo_inurba_marseille","lat":43.33767,"lon":5.37487,"is_reserved":false,"is_disabled":false,"rental_uris":{"android":"levelo://app?vid=a6d86f47-0fd6-4299-91e4-675fc80c6a4c","ios":"levelo://app?vid=a6d86f47-0fd6-4299-91e4-675fc80c6a4c"},"vehicle_type_id":"4","last_reported":1746080137,"current_range_meters":20800,"station_id":"","pricing_plan_id":"cebpf4jnsgd1na2vs0mg"},{"bike_id":"da19f286-df4e-4f1d-8924-70c6316c30cd","system_id":"levelo_inurba_marseille","lat":43.246467,"lon":5.389039,"is_reserved":false,"is_disabled":false,"rental_uris":{"android":"levelo://app?vid=da19f286-df4e-4f1d-8924-70c6316c30cd","ios":"levelo://app?vid=da19f286-df4e-4f1d-8924-70c6316c30cd"},"vehicle_type_id":"4","last_reported":1746080137,"current_range_meters":20800,"station_id":"ce4bhg12rcd13ifvqf60","pricing_plan_id":"cebpf4jnsgd1na2vs0mg"},{"bike_id":"03652289-10b3-473e-a7c8-9213f8ab621a","system_id":"levelo_inurba_marseille","lat":43.329596,"lon":5.437749,"is_reserved":false,"is_disabled":false,"rental_uris":{"android":"levelo://app?vid=03652289-10b3-473e-a7c8-9213f8ab621a","ios":"levelo://app?vid=03652289-10b3-473e-a7c8-9213f8ab621a"},"vehicle_type_id":"4","last_reported":1746080137,"current_range_meters":20800,"station_id":"","pricing_plan_id":"cebpf4jnsgd1na2vs0mg"},{"bike_id":"d3c63377-1a61-45d9-b356-805a6e455fd6","system_id":"levelo_inurba_marseille","lat":43.32338,"lon":5.40615,"is_reserved":false,"is_disabled":false,"rental_uris":{"android":"levelo://app?vid=d3c63377-1a61-45d9-b356-805a6e455fd6","ios":"levelo://app?vid=d3c63377-1a61-45d9-b356-805a6e455fd6"},"vehicle_type_id":"4","last_reported":1746080137,"current_range_meters":20800,"station_id":"ce4bhq92rcd13ifvqhjg","pricing_plan_id":"cebpf4jnsgd1na2vs0mg"},{"bike_id":"cad06a61-a806-487c-9e18-d7fbe1875c4f","system_id":"levelo_inurba_marseille","lat":43.26546,"lon":5.37299,"is_reserved":false,"is_disabled":true,"rental_uris":{"android":"levelo://app?vid=cad06a61-a806-487c-9e18-d7fbe1875c4f","ios":"levelo://app?vid=cad06a61-a806-487c-9e18-d7fbe1875c4f"},"vehicle_type_id":"4","last_reported":1746080137,"current_range_meters":21600,"station_id":"ce4bhg12rcd13ifvqf70","pricing_plan_id":"cebpf4jnsgd1na2vs0mg"},{"bike_id":"3387917c-3e63-4c3b-a6f2-fffb3e617ac2","system_id":"levelo_inurba_marseille","lat":43.30691,"lon":5.40091,"is_reserved":false,"is_disabled":false,"rental_uris":{"android":"levelo://app?vid=3387917c-3e63-4c3b-a6f2-fffb3e617ac2","ios":"levelo://app?vid=3387917c-3e63-4c3b-a6f2-fffb3e617ac2"},"vehicle_type_id":"4","last_reported":1746080137,"current_range_meters":21600,"station_id":"ce4bh112rcd13ifvqda0","pricing_plan_id":"cebpf4jnsgd1na2vs0mg"},{"bike_id":"65a2dd0e-863d-4f48-a66f-a7dc7ac359c2","system_id":"levelo_inurba_marseille","lat":43.30882,"lon":5.371838,"is_reserved":false,"is_disabled":false,"rental_uris":{"android":"levelo://app?vid=65a2dd0e-863d-4f48-a66f-a7dc7ac359c2","ios":"levelo://app?vid=65a2dd0e-863d-4f48-a66f-a7dc7ac359c2"},"vehicle_type_id":"4","last_reported":1746080137,"current_range_meters":21600,"station_id":"ce4bguh2rcd13ifvqckg","pricing_plan_id":"cebpf4jnsgd1na2vs0mg"},{"bike_id":"998a9cac-6507-4bde-9ca3-d21b03f5527f","system_id":"levelo_inurba_marseille","lat":43.30153,"lon":5.38101,"is_reserved":false,"is_disabled":false,"rental_uris":{"android":"levelo://app?vid=998a9cac-6507-4bde-9ca3-d21b03f5527f","ios":"levelo://app?vid=998a9cac-6507-4bde-9ca3-d21b03f5527f"},"vehicle_type_id":"4","last_reported":1746080137,"current_range_meters":21600,"station_id":"ce4bgjp2rcd13ifvqbh0","pricing_plan_id":"cebpf4jnsgd1na2vs0mg"},{"bike_id":"95bd2a13-10a2-4187-8f03-a3ca4e23bead","system_id":"levelo_inurba_marseille","lat":43.3015,"lon":5.38085,"is_reserved":false,"is_disabled":false,"rental_uris":{"android":"levelo://app?vid=95bd2a13-10a2-4187-8f03-a3ca4e23bead","ios":"levelo://app?vid=95bd2a13-10a2-4187-8f03-a3ca4e23bead"},"vehicle_type_id":"4","last_reported":1746080137,"current_range_meters":21600,"station_id":"ce4bgjp2rcd13ifvqbh0","pricing_plan_id":"cebpf4jnsgd1na2vs0mg"},{"bike_id":"96d8fc32-b347-4dde-8532-70e7917ccde6","system_id":"levelo_inurba_marseille","lat":43.30577,"lon":5.37215,"is_reserved":false,"is_disabled":true,"rental_uris":{"android":"levelo://app?vid=96d8fc32-b347-4dde-8532-70e7917ccde6","ios":"levelo://app?vid=96d8fc32-b347-4dde-8532-70e7917ccde6"},"vehicle_type_id":"4","last_reported":1746080137,"current_range_meters":21600,"station_id":"ce4bgqh2rcd13ifvqc4g","pricing_plan_id":"cebpf4jnsgd1na2vs0mg"},{"bike_id":"3b7cfdd3-89ae-4549-bcb8-2e8ea5f76237","system_id":"levelo_inurba_marseille","lat":43.30153,"lon":5.38095,"is_reserved":false,"is_disabled":false,"rental_uris":{"android":"levelo://app?vid=3b7cfdd3-89ae-4549-bcb8-2e8ea5f76237","ios":"levelo://app?vid=3b7cfdd3-89ae-4549-bcb8-2e8ea5f76237"},"vehicle_type_id":"4","last_reported":1746080137,"current_range_meters":21600,"station_id":"ce4bgjp2rcd13ifvqbh0","pricing_plan_id":"cebpf4jnsgd1na2vs0mg"},{"bike_id":"c49631c7-7251-453d-b532-906cd6caf0ef","system_id":"levelo_inurba_marseille","lat":43.284027,"lon":5.375101,"is_reserved":false,"is_disabled":true,"rental_uris":{"android":"levelo://app?vid=c49631c7-7251-453d-b532-906cd6caf0ef","ios":"levelo://app?vid=c49631c7-7251-453d-b532-906cd6caf0ef"},"vehicle_type_id":"4","last_reported":1746080137,"current_range_meters":21600,"station_id":"","pricing_plan_id":"cebpf4jnsgd1na2vs0mg"},{"bike_id":"63ef4185-d9b2-4759-b1f3-46c30f6c000f","system_id":"levelo_inurba_marseille","lat":43.27191,"lon":5.41017,"is_reserved":false,"is_disabled":true,"rental_uris":{"android":"levelo://app?vid=63ef4185-d9b2-4759-b1f3-46c30f6c000f","ios":"levelo://app?vid=63ef4185-d9b2-4759-b1f3-46c30f6c000f"},"vehicle_type_id":"4","last_reported":1746080137,"current_range_meters":22000,"station_id":"ce4bhl12rcd13ifvqgf0","pricing_plan_id":"cebpf4jnsgd1na2vs0mg"},{"bike_id":"79abb10c-1130-41dd-949e-ee988c336e88","system_id":"levelo_inurba_marseille","lat":43.246765,"lon":5.381513,"is_reserved":false,"is_disabled":false,"rental_uris":{"android":"levelo://app?vid=79abb10c-1130-41dd-949e-ee988c336e88","ios":"levelo://app?vid=79abb10c-1130-41dd-949e-ee988c336e88"},"vehicle_type_id":"4","last_reported":1746080137,"current_range_meters":22000,"station_id":"ce4bhih2rcd13ifvqfr0","pricing_plan_id":"cebpf4jnsgd1na2vs0mg"},{"bike_id":"1a745a9d-e745-4884-ac9e-92779a2ebdd2","system_id":"levelo_inurba_marseille","lat":43.30447,"lon":5.38897,"is_reserved":false,"is_disabled":false,"rental_uris":{"android":"levelo://app?vid=1a745a9d-e745-4884-ac9e-92779a2ebdd2","ios":"levelo://app?vid=1a745a9d-e745-4884-ac9e-92779a2ebdd2"},"vehicle_type_id":"4","last_reported":1746080137,"current_range_meters":22000,"station_id":"ce4bgk12rcd13ifvqbi0","pricing_plan_id":"cebpf4jnsgd1na2vs0mg"},{"bike_id":"a0b767f6-6270-4d49-b0d6-4b7a5a1d4a31","system_id":"levelo_inurba_marseille","lat":43.320657,"lon":5.415331,"is_reserved":false,"is_disabled":false,"rental_uris":{"android":"levelo://app?vid=a0b767f6-6270-4d49-b0d6-4b7a5a1d4a31","ios":"levelo://app?vid=a0b767f6-6270-4d49-b0d6-4b7a5a1d4a31"},"vehicle_type_id":"4","last_reported":1746080137,"current_range_meters":22000,"station_id":"ce4bhq92rcd13ifvqhkg","pricing_plan_id":"cebpf4jnsgd1na2vs0mg"},