{"last_updated":1737580007,"ttl":60,"version":"2.2","data":{"bikes":[{"bike_id":"6f11ee49-ac0c-44fe-868e-3cb2ee2387f8","system_id":"levelo_inurba_marseille","lat":43.27841,"lon":5.39203,"is_reserved":false,"is_disabled":false,"rental_uris":{"android":"levelo://app?vid=6f11ee49-ac0c-44fe-868e-3cb2ee2387f8","ios":"levelo://app?vid=6f11ee49-ac0c-44fe-868e-3cb2ee2387f8"},"vehicle_type_id":"4","last_reported":1737580007,"current_range_meters":24800,"station_id":"ce4bhjp2rcd13ifvqga0","pricing_plan_id":"cebpf4jnsgd1na2vs0mg"},{"bike_id":"bc87ebb9-79d8-48ae-98f1-73024abdc038","system_id":"levelo_inurba_marseille","lat":43.29215,"lon":5.36055,"is_reserved":false,"is_disabled":true,"rental_uris":{"android":"levelo://app?vid=bc87ebb9-79d8-48ae-98f1-73024abdc038","ios":"levelo://app?vid=bc87ebb9-79d8-48ae-98f1-73024abdc038"},"vehicle_type_id":"4","last_reported":1737580007,"current_range_meters":400,"station_id":"ce4bhbh2rcd13ifvqeqg","pricing_plan_id":"cebpf4jnsgd1na2vs0mg"},{"bike_id":"6e18928a-47f2-4736-aca6-b8a8b5ad6936","system_id":"levelo_inurba_marseille","lat":43.27828,"lon":5.40748,"is_reserved":false,"is_disabled":false,"rental_uris":{"android":"levelo://app?vid=6e18928a-47f2-4736-aca6-b8a8b5ad6936","ios":"levelo://app?vid=6e18928a-47f2-4736-aca6-b8a8b5ad6936"},"vehicle_type_id":"4","last_reported":1737580007,"current_range_meters":38800,"station_id":"ce4bhnh2rcd13ifvqgtg","pricing_plan_id":"cebpf4jnsgd1na2vs0mg"},{"bike_id":"5fe5e92b-23bb-4860-a2fe-86743e81fb05","system_id":"levelo_inurba_marseille","lat":43.28464,"lon":5.35877,"is_reserved":false,"is_disabled":false,"rental_uris":{"android":"levelo://app?vid=5fe5e92b-23bb-4860-a2fe-86743e81fb05","ios":"levelo://app?vid=5fe5e92b-23bb-4860-a2fe-86743e81fb05"},"vehicle_type_id":"4","last_reported":1737580007,"current_range_meters":24800,"station_id":"ce4bhah2rcd13ifvqei0","pricing_plan_id":"cebpf4jnsgd1na2vs0mg"},{"bike_id":"b4515517-c8a5-4347-9a75-b80759d8b378","system_id":"levelo_inurba_marseille","lat":43.29708,"lon":5.36589,"is_reserved":false,"is_disabled":false,"rental_uris":{"android":"levelo://app?vid=b4515517-c8a5-4347-9a75-b80759d8b378","ios":"levelo://app?vid=b4515517-c8a5-4347-9a75-b80759d8b378"},"vehicle_type_id":"4","last_reported":1737580007,"current_range_meters":39200,"station_id":"ce4bgn12rcd13ifvqbt0","pricing_plan_id":"cebpf4jnsgd1na2vs0mg"},{"bike_id":"762c363e-b2db-4405-8db4-1b7c46009985","system_id":"levelo_inurba_marseille","lat":43.28269,"lon":5.35072,"is_reserved":false,"is_disabled":false,"rental_uris":{"android":"levelo://app?vid=762c363e-b2db-4405-8db4-1b7c46009985","ios":"levelo://app?vid=762c363e-b2db-4405-8db4-1b7c46009985"},"vehicle_type_id":"4","last_reported":1737580007,"current_range_meters":35200,"station_id":"ce4bhbp2rcd13ifvqerg","pricing_plan_id":"cebpf4jnsgd1na2vs0mg"},{"bike_id":"26328479-63ef-41c0-a448-bee13cb44c95","system_id":"levelo_inurba_marseille","lat":43.28725,"lon":5.36092,"is_reserved":false,"is_disabled":false,"rental_uris":{"android":"levelo://app?vid=26328479-63ef-41c0-a448-bee13cb44c95","ios":"levelo://app?vid=26328479-63ef-41c0-a448-bee13cb44c95"},"vehicle_type_id":"4","last_reported":1737580007,"current_range_meters":27200,"station_id":"cki0cbj6b192h4jlfktg","pricing_plan_id":"cebpf4jnsgd1na2vs0mg"},{"bike_id":"4d9af203-3667-4745-ac7f-03559c37ec70","system_id":"levelo_inurba_marseille","lat":43.31459,"lon":5.37357,"is_reserved":false,"is_disabled":false,"rental_uris":{"android":"levelo://app?vid=4d9af203-3667-4745-ac7f-03559c37ec70","ios":"levelo://app?vid=4d9af203-3667-4745-ac7f-03559c37ec70"},"vehicle_type_id":"4","last_reported":1737580007,"current_range_meters":30000,"station_id":"ce4bgt12rcd13ifvqcd0","pricing_plan_id":"cebpf4jnsgd1na2vs0mg"},{"bike_id":"eea95a78-8daf-4faa-aee3-23a96919c2f6","system_id":"levelo_inurba_marseille","lat":43.28934,"lon":5.38385,"is_reserved":false,"is_disabled":false,"rental_uris":{"android":"levelo://app?vid=eea95a78-8daf-4faa-aee3-23a96919c2f6","ios":"levelo://app?vid=eea95a78-8daf-4faa-aee3-23a96919c2f6"},"vehicle_type_id":"4","last_reported":1737580007,"current_range_meters":20000,"station_id":"ce4bh612rcd13ifvqe6g","pricing_plan_id":"cebpf4jnsgd1na2vs0mg"},{"bike_id":"6a7fd8e3-60b6-4468-9c52-741f71ef3c74","system_id":"levelo_inurba_marseille","lat":43.30116,"lon":5.39859,"is_reserved":false,"is_disabled":false,"rental_uris":{"android":"levelo://app?vid=6a7fd8e3-60b6-4468-9c52-741f71ef3c74","ios":"levelo://app?vid=6a7fd8e3-60b6-4468-9c52-741f71ef3c74"},"vehicle_type_id":"4","last_reported":1737580007,"current_range_meters":38000,"station_id":"ce4bh0h2rcd13ifvqd40","pricing_plan_id":"cebpf4jnsgd1na2vs0mg"},{"bike_id":"193795e2-824d-43ba-ba18-476a978af8a1","system_id":"levelo_inurba_marseille","lat":43.29623,"lon":5.37171,"is_reserved":false,"is_disabled":false,"rental_uris":{"android":"levelo://app?vid=193795e2-824d-43ba-ba18-476a978af8a1","ios":"levelo://app?vid=193795e2-824d-43ba-ba18-476a978af8a1"},"vehicle_type_id":"4","last_reported":1737580007,"current_range_meters":6000,"station_id":"ce4bgnh2rcd13ifvqc0g","pricing_plan_id":"cebpf4jnsgd1na2vs0mg"},{"bike_id":"f9509cf3-61c9-4e98-a3dc-ab6e052fedb5","system_id":"levelo_inurba_marseille","lat":43.24067,"lon":5.37755,"is_reserved":false,"is_disabled":false,"rental_uris":{"android":"levelo://app?vid=f9509cf3-61c9-4e98-a3dc-ab6e052fedb5","ios":"levelo://app?vid=f9509cf3-61c9-4e98-a3dc-ab6e052fedb5"},"vehicle_type_id":"4","last_reported":1737580007,"current_range_meters":38800,"station_id":"ce4bhnp2rcd13ifvqgvg","pricing_plan_id":"cebpf4jnsgd1na2vs0mg"},{"bike_id":"1ea036bc-ddf7-4990-90b2-ce91c845e3a6","system_id":"levelo_inurba_marseille","lat":43.29568,"lon":5.37521,"is_reserved":false,"is_disabled":false,"rental_uris":{"android":"levelo://app?vid=1ea036bc-ddf7-4990-90b2-ce91c845e3a6","ios":"levelo://app?vid=1ea036bc-ddf7-4990-90b2-ce91c845e3a6"},"vehicle_type_id":"4","last_reported":1737580007,"current_range_meters":24400,"station_id":"ce4bgh92rcd13ifvqb50","pricing_plan_id":"cebpf4jnsgd1na2vs0mg"},{"bike_id":"1d112a4c-9e7e-41d8-8ffb-8c02b95439bd","system_id":"levelo_inurba_marseille","lat":43.28419,"lon":5.37491,"is_reserved":false,"is_disabled":false,"rental_uris":{"android":"levelo://app?vid=1d112a4c-9e7e-41d8-8ffb-8c02b95439bd","ios":"levelo://app?vid=1d112a4c-9e7e-41d8-8ffb-8c02b95439bd"},"vehicle_type_id":"4","last_reported":1737580007,"current_range_meters":36800,"station_id":"ce4bh412rcd13ifvqds0","pricing_plan_id":"cebpf4jnsgd1na2vs0mg"},{"bike_id":"f80daf71-64ee-49e9-aa12-8ec2343a46ac","system_id":"levelo_inurba_marseille","lat":43.33021,"lon":5.39049,"is_reserved":false,"is_disabled":false,"rental_uris":{"android":"levelo://app?vid=f80daf71-64ee-49e9-aa12-8ec2343a46ac","ios":"levelo://app?vid=f80daf71-64ee-49e9-aa12-8ec2343a46ac"},"vehicle_type_id":"4","last_reported":1737580007,"current_range_meters":38400,"station_id":"ce4bhr92rcd13ifvqhrg","pricing_plan_id":"cebpf4jnsgd1na2vs0mg"},{"bike_id":"c23f8336-5a03-4943-81ac-cb3e6e23d0a0","system_id":"levelo_inurba_marseille","lat":43.27904,"lon":5.39583,"is_reserved":false,"is_disabled":false,"rental_uris":{"android":"levelo://app?vid=c23f8336-5a03-4943-81ac-cb3e6e23d0a0","ios":"levelo://app?vid=c23f8336-5a03-4943-81ac-cb3e6e23d0a0"},"vehicle_type_id":"4","last_reported":1737580007,"current_range_meters":37600,"station_id":"ce4bhf92rcd13ifvqf40","pricing_plan_id":"cebpf4jnsgd1na2vs0mg"},{"bike_id":"ade555c5-58fa-4da0-8209-541d69a0a0a5","system_id":"levelo_inurba_marseille","lat":43.28399,"lon":5.37504,"is_reserved":false,"is_disabled":false,"rental_uris":{"android":"levelo://app?vid=ade555c5-58fa-4da0-8209-541d69a0a0a5","ios":"levelo://app?vid=ade555c5-58fa-4da0-8209-541d69a0a0a5"},"vehicle_type_id":"4","last_reported":1737580007,"current_range_meters":22400,"station_id":"ce4bh412rcd13ifvqds0","pricing_plan_id":"cebpf4jnsgd1na2vs0mg"},{"bike_id":"47a5c903-d960-4eec-b908-6451b150f9f7","system_id":"levelo_inurba_marseille","lat":43.24067,"lon":5.37756,"is_reserved":false,"is_disabled":false,"rental_uris":{"android":"levelo://app?vid=47a5c903-d960-4eec-b908-6451b150f9f7","ios":"levelo://app?vid=47a5c903-d960-4eec-b908-6451b150f9f7"},"vehicle_type_id":"4","last_reported":1737580007,"current_range_meters":38800,"station_id":"ce4bhnp2rcd13ifvqgvg","pricing_plan_id":"cebpf4jnsgd1na2vs0mg"},{"bike_id":"92073bf7-0c5a-4193-9c82-a9d932e7871e","system_id":"levelo_inurba_marseille","lat":43.30781,"lon":5.37647,"is_reserved":false,"is_disabled":false,"rental_uris":{"android":"levelo://app?vid=92073bf7-0c5a-4193-9c82-a9d932e7871e","ios":"levelo://app?vid=92073bf7-0c5a-4193-9c82-a9d932e7871e"},"vehicle_type_id":"4","last_reported":1737580007,"current_range_meters":35200,"station_id":"ce4bgv92rcd13ifvqcq0","pricing_plan_id":"cebpf4jnsgd1na2vs0mg"},{"bike_id":"2d89806f-db31-45f9-ab39-70b15ff8deae","system_id":"levelo_inurba_marseille","lat":43.29795,"lon":5.3933,"is_reserved":false,"is_disabled":false,"rental_uris":{"android":"levelo://app?vid=2d89806f-db31-45f9-ab39-70b15ff8deae","ios":"levelo://app?vid=2d89806f-db31-45f9-ab39-70b15ff8deae"},"vehicle_type_id":"4","last_reported":1737580007,"current_range_meters":38800,"station_id":"chh1huq6cuj3fo74tm60","pricing_plan_id":"cebpf4jnsgd1na2vs0mg"},{"bike_id":"b53e865d-3236-4bdc-b21a-347b7cc6aeeb","system_id":"levelo_inurba_marseille","lat":43.28155,"lon":5.42652,"is_reserved":false,"is_disabled":false,"rental_uris":{"android":"levelo://app?vid=b53e865d-3236-4bdc-b21a-347b7cc6aeeb","ios":"levelo://app?vid=b53e865d-3236-4bdc-b21a-347b7cc6aeeb"},"vehicle_type_id":"4","last_reported":1737580007,"current_range_meters":24000,"station_id":"ce4bhnh2rcd13ifvqgug","pricing_plan_id":"cebpf4jnsgd1na2vs0mg"},{"bike_id":"c8b7aed7-c47b-4197-99ca-6b34bfddf40f","system_id":"levelo_inurba_marseille","lat":43.24085,"lon":5.37782,"is_reserved":false,"is_disabled":false,"rental_uris":{"android":"levelo://app?vid=c8b7aed7-c47b-4197-99ca-6b34bfddf40f","ios":"levelo://app?vid=c8b7aed7-c47b-4197-99ca-6b34bfddf40f"},"vehicle_type_id":"4","last_reported":1737580007,"current_range_meters":36000,"station_id":"ce4bhnp2rcd13ifvqgvg","pricing_plan_id":"cebpf4jnsgd1na2vs0mg"},{"bike_id":"20216445-5aad-4521-ab5b-10bfd8c7354d","system_id":"levelo_inurba_marseille","lat":43.31279,"lon":5.37739,"is_reserved":false,"is_disabled":false,"rental_uris":{"android":"levelo://app?vid=20216445-5aad-4521-ab5b-10bfd8c7354d","ios":"levelo://app?vid=20216445-5aad-4521-ab5b-10bfd8c7354d"},"vehicle_type_id":"4","last_reported":1737580007,"current_range_meters":9200,"station_id":"","pricing_plan_id":"cebpf4jnsgd1na2vs0mg"},{"bike_id":"03029508-7ed2-4693-b735-f7deaf763344","system_id":"levelo_inurba_marseille","lat":43.255769,"lon":5.38236,"is_reserved":false,"is_disabled":false,"rental_uris":{"android":"levelo://app?vid=03029508-7ed2-4693-b735-f7deaf763344","ios":"levelo://app?vid=03029508-7ed2-4693-b735-f7deaf763344"},"vehicle_type_id":"4","last_reported":1737580007,"current_range_meters":20000,"station_id":"ce4bhih2rcd13ifvqfs0","pricing_plan_id":"cebpf4jnsgd1na2vs0mg"},{"bike_id":"3472a396-f149-40f7-a86d-66f1d7a02d70","system_id":"levelo_inurba_marseille","lat":43.28665,"lon":5.363537,"is_reserved":false,"is_disabled":false,"rental_uris":{"android":"levelo://app?vid=3472a396-f149-40f7-a86d-66f1d7a02d70","ios":"levelo://app?vid=3472a396-f149-40f7-a86d-66f1d7a02d70"},"vehicle_type_id":"4","last_reported":1737580007,"current_range_meters":2800,"station_id":"ce4bhah2rcd13ifvqej0","pricing_plan_id":"cebpf4jnsgd1na2vs0mg"},{"bike_id":"1312a427-4b3d-4554-821e-e68d3843b9a8","system_id":"levelo_inurba_marseille","lat":43.28935,"lon":5.36625,"is_reserved":false,"is_disabled":false,"rental_uris":{"android":"levelo://app?vid=1312a427-4b3d-4554-821e-e68d3843b9a8","ios":"levelo://app?vid=1312a427-4b3d-4554-821e-e68d3843b9a8"},"vehicle_type_id":"4","last_reported":1737580007,"current_range_meters":35600,"station_id":"ce4bhap2rcd13ifvqek0","pricing_plan_id":"cebpf4jnsgd1na2vs0mg"},{"bike_id":"3a70f103-8f36-4a64-b77c-10e33d1a6120","system_id":"levelo_inurba_marseille","lat":43.32099,"lon":5.36764,"is_reserved":false,"is_disabled":false,"rental_uris":{"android":"levelo://app?vid=3a70f103-8f36-4a64-b77c-10e33d1a6120","ios":"levelo://app?vid=3a70f103-8f36-4a64-b77c-10e33d1a6120"},"vehicle_type_id":"4","last_reported":1737580007,"current_range_meters":38800,"station_id":"ce4bhrh2rcd13ifvqhug","pricing_plan_id":"cebpf4jnsgd1na2vs0mg"},{"bike_id":"0e1fe683-79a2-47f7-93d0-06378253c699","system_id":"levelo_inurba_marseille","lat":43.29514,"lon":5.39037,"is_reserved":false,"is_disabled":false,"rental_uris":{"android":"levelo://app?vid=0e1fe683-79a2-47f7-93d0-06378253c699","ios":"levelo://app?vid=0e1fe683-79a2-47f7-93d0-06378253c699"},"vehicle_type_id":"4","last_reported":1737580007,"current_range_meters":24800,"station_id":"ce4bh3p2rcd13ifvqdp0","pricing_plan_id":"cebpf4jnsgd1na2vs0mg"},{"bike_id":"a42134ac-b11d-44ab-a721-7e835cd5102d","system_id":"levelo_inurba_marseille","lat":43.28941,"lon":5.36409,"is_reserved":false,"is_disabled":false,"rental_uris":{"android":"levelo://app?vid=a42134ac-b11d-44ab-a721-7e835cd5102d","ios":"levelo://app?vid=a42134ac-b11d-44ab-a721-7e835cd5102d"},"vehicle_type_id":"4","last_reported":1737580007,"current_range_meters":26000,"station_id":"ce4bhc92rcd13ifvqetg","pricing_plan_id":"cebpf4jnsgd1na2vs0mg"},{"bike_id":"c7e4dcb1-e5b0-45e1-8872-17f211dc0053","system_id":"levelo_inurba_marseille","lat":43.28468,"lon":5.38552,"is_reserved":false,"is_disabled":false,"rental_uris":{"android":"levelo://app?vid=c7e4dcb1-e5b0-45e1-8872-17f211dc0053","ios":"levelo://app?vid=c7e4dcb1-e5b0-45e1-8872-17f211dc0053"},"vehicle_type_id":"4","last_reported":1737580007,"current_range_meters":38800,"station_id":"ce4bh8p2rcd13ifvqeb0","pricing_plan_id":"cebpf4jnsgd1na2vs0mg"},{"bike_id":"3d39a886-a602-45ec-b4d3-356e165c2974","system_id":"levelo_inurba_marseille","lat":43.29183,"lon":5.358,"is_reserved":false,"is_disabled":false,"rental_uris":{"android":"levelo://app?vid=3d39a886-a602-45ec-b4d3-356e165c2974","ios":"levelo://app?vid=3d39a886-a602-45ec-b4d3-356e165c2974"},"vehicle_type_id":"4","last_reported":1737580007,"current_range_meters":20000,"station_id":"ce4bhb12rcd13ifvqel0","pricing_plan_id":"cebpf4jnsgd1na2vs0mg"},{"bike_id":"cac15169-486f-43a5-9e95-33c702c4876b","system_id":"levelo_inurba_marseille","lat":43.30799,"lon":5.43535,"is_reserved":false,"is_disabled":false,"rental_uris":{"android":"levelo://app?vid=cac15169-486f-43a5-9e95-33c702c4876b","ios":"levelo://app?vid=cac15169-486f-43a5-9e95-33c702c4876b"},"vehicle_type_id":"4","last_reported":1737580007,"current_range_meters":38800,"station_id":"ce4bhph2rcd13ifvqheg","pricing_plan_id":"cebpf4jnsgd1na2vs0mg"},{"bike_id":"0fd77b24-9641-4f85-ad37-0e79c1de1769","system_id":"levelo_inurba_marseille","lat":43.27807,"lon":5.40718,"is_reserved":false,"is_disabled":false,"rental_uris":{"android":"levelo://app?vid=0fd77b24-9641-4f85-ad37-0e79c1de1769","ios":"levelo://app?vid=0fd77b24-9641-4f85-ad37-0e79c1de1769"},"vehicle_type_id":"4","last_reported":1737580007,"current_range_meters":16800,"station_id":"ce4bhnh2rcd13ifvqgtg","pricing_plan_id":"cebpf4jnsgd1na2vs0mg"},{"bike_id":"9a4d472e-28ea-4459-9d68-e6f39648a217","system_id":"levelo_inurba_marseille","lat":43.28935,"lon":5.36623,"is_reserved":false,"is_disabled":false,"rental_uris":{"android":"levelo://app?vid=9a4d472e-28ea-4459-9d68-e6f39648a217","ios":"levelo://app?vid=9a4d472e-28ea-4459-9d68-e6f39648a217"},"vehicle_type_id":"4","last_reported":1737580007,"current_range_meters":30000,"station_id":"ce4bhap2rcd13ifvqek0","pricing_plan_id":"cebpf4jnsgd1na2vs0mg"},{"bike_id":"5a874f97-e53a-486b-bf03-022b93e71acd","system_id":"levelo_inurba_marseille","lat":43.255017,"lon":5.376473,"is_reserved":false,"is_disabled":false,"rental_uris":{"android":"levelo://app?vid=5a874f97-e53a-486b-bf03-022b93e71acd","ios":"levelo://app?vid=5a874f97-e53a-486b-bf03-022b93e71acd"},"vehicle_type_id":"4","last_reported":1737580007,"current_range_meters":25600,"station_id":"ce4bhh12rcd13ifvqff0","pricing_plan_id":"cebpf4jnsgd1na2vs0mg"},{"bike_id":"111cba43-0574-438f-ae2a-d648b015eb76","system_id":"levelo_inurba_marseille","lat":43.31168,"lon":5.38718,"is_reserved":false,"is_disabled":false,"rental_uris":{"android":"levelo://app?vid=111cba43-0574-438f-ae2a-d648b015eb76","ios":"levelo://app?vid=111cba43-0574-438f-ae2a-d648b015eb76"},"vehicle_type_id":"4","last_reported":1737580007,"current_range_meters":38000,"station_id":"ce4bgv12rcd13ifvqcp0","pricing_plan_id":"cebpf4jnsgd1na2vs0mg"},{"bike_id":"6d5bc4fe-543c-4848-a746-df2db49db3f2","system_id":"levelo_inurba_marseille","lat":43.301,"lon":5.39075,"is_reserved":false,"is_disabled":false,"rental_uris":{"android":"levelo://app?vid=6d5bc4fe-543c-4848-a746-df2db49db3f2","ios":"levelo://app?vid=6d5bc4fe-543c-4848-a746-df2db49db3f2"},"vehicle_type_id":"4","last_reported":1737580007,"current_range_meters":30000,"station_id":"ce4bh192rcd13ifvqdb0","pricing_plan_id":"cebpf4jnsgd1na2vs0mg"},{"bike_id":"7ab51a43-683e-4bd7-a5aa-dd0cb59be96b","system_id":"levelo_inurba_marseille","lat":43.29819,"lon":5.39325,"is_reserved":false,"is_disabled":false,"rental_uris":{"android":"levelo://app?vid=7ab51a43-683e-4bd7-a5aa-dd0cb59be96b","ios":"levelo://app?vid=7ab51a43-683e-4bd7-a5aa-dd0cb59be96b"},"vehicle_type_id":"4","last_reported":1737580007,"current_range_meters":39200,"station_id":"chh1huq6cuj3fo74tm60","pricing_plan_id":"cebpf4jnsgd1na2vs0mg"},{"bike_id":"1a7ae9b9-108c-498f-8bac-48904d23f7bc","system_id":"levelo_inurba_marseille","lat":43.28472,"lon":5.38425,"is_reserved":false,"is_disabled":true,"rental_uris":{"android":"levelo://app?vid=1a7ae9b9-108c-498f-8bac-48904d23f7bc","ios":"levelo://app?vid=1a7ae9b9-108c-498f-8bac-48904d23f7bc"},"vehicle_type_id":"4","last_reported":1737580007,"current_range_meters":36400,"station_id":"ce4bh512rcd13ifvqe3g","pricing_plan_id":"cebpf4jnsgd1na2vs0mg"},{"bike_id":"d85f88bd-286a-4872-84f6-c2df39f1bd76","system_id":"levelo_inurba_marseille","lat":43.28409,"lon":5.37521,"is_reserved":false,"is_disabled":false,"rental_uris":{"android":"levelo://app?vid=d85f88bd-286a-4872-84f6-c2df39f1bd76","ios":"levelo://app?vid=d85f88bd-286a-4872-84f6-c2df39f1bd76"},"vehicle_type_id":"4","last_reported":1737580007,"current_range_meters":36400,"station_id":"ce4bh412rcd13ifvqds0","pricing_plan_id":"cebpf4jnsgd1na2vs0mg"},{"bike_id":"212ed2e6-f694-4453-a9b8-263502261c77","system_id":"levelo_inurba_marseille","lat":43.29261,"lon":5.38446,"is_reserved":false,"is_disabled":false,"rental_uris":{"android":"levelo://app?vid=212ed2e6-f694-4453-a9b8-263502261c77","ios":"levelo://app?vid=212ed2e6-f694-4453-a9b8-263502261c77"},"vehicle_type_id":"4","last_reported":1737580007,"current_range_meters":38800,"station_id":"ce4bh692rcd13ifvqea0","pricing_plan_id":"cebpf4jnsgd1na2vs0mg"},{"bike_id":"fbc6b901-293c-4cc3-8495-b0d71e091198","system_id":"levelo_inurba_marseille","lat":43.2789,"lon":5.37984,"is_reserved":false,"is_disabled":false,"rental_uris":{"android":"levelo://app?vid=fbc6b901-293c-4cc3-8495-b0d71e091198","ios":"levelo://app?vid=fbc6b901-293c-4cc3-8495-b0d71e091198"},"vehicle_type_id":"4","last_reported":1737580007,"current_range_meters":38800,"station_id":"ce4bhf92rcd13ifvqf50","pricing_plan_id":"cebpf4jnsgd1na2vs0mg"},{"bike_id":"4a1877ac-0eba-4d1d-a5b6-5c57a0d326b7","system_id":"levelo_inurba_marseille","lat":43.31084,"lon":5.42432,"is_reserved":false,"is_disabled":false,"rental_uris":{"android":"levelo://app?vid=4a1877ac-0eba-4d1d-a5b6-5c57a0d326b7","ios":"levelo://app?vid=4a1877ac-0eba-4d1d-a5b6-5c57a0d326b7"},"vehicle_type_id":"4","last_reported":1737580007,"current_range_meters":16400,"station_id":"ce4bhp92rcd13ifvqhag","pricing_plan_id":"cebpf4jnsgd1na2vs0mg"},{"bike_id":"1c5350bc-b85e-4a3a-a39b-e473b0f89be6","system_id":"levelo_inurba_marseille","lat":43.31767,"lon":5.38984,"is_reserved":false,"is_disabled":false,"rental_uris":{"android":"levelo://app?vid=1c5350bc-b85e-4a3a-a39b-e473b0f89be6","ios":"levelo://app?vid=1c5350bc-b85e-4a3a-a39b-e473b0f89be6"},"vehicle_type_id":"4","last_reported":1737580007,"current_range_meters":22000,"station_id":"ce4bhqp2rcd13ifvqhng","pricing_plan_id":"cebpf4jnsgd1na2vs0mg"},{"bike_id":"cf57abd2-b4fe-4583-854c-2b18778aed8f","system_id":"levelo_inurba_marseille","lat":43.30264,"lon":5.40053,"is_reserved":false,"is_disabled":false,"rental_uris":{"android":"levelo://app?vid=cf57abd2-b4fe-4583-854c-2b18778aed8f","ios":"levelo://app?vid=cf57abd2-b4fe-4583-854c-2b18778aed8f"},"vehicle_type_id":"4","last_reported":1737580007,"current_range_meters":19600,"station_id":"ce4bgvh2rcd13ifvqcs0","pricing_plan_id":"cebpf4jnsgd1na2vs0mg"},{"bike_id":"ef825d6a-fcd4-43c6-9386-9c35d11d16c5","system_id":"levelo_inurba_marseille","lat":43.30934,"lon":5.40148,"is_reserved":false,"is_disabled":false,"rental_uris":{"android":"levelo://app?vid=ef825d6a-fcd4-43c6-9386-9c35d11d16c5","ios":"levelo://app?vid=ef825d6a-fcd4-43c6-9386-9c35d11d16c5"},"vehicle_type_id":"4","last_reported":1737580007,"current_range_meters":38000,"station_id":"ce4bgvp2rcd13ifvqct0","pricing_plan_id":"cebpf4jnsgd1na2vs0mg"},{"bike_id":"155ad6f1-a04d-448a-ae30-787ff38c7553","system_id":"levelo_inurba_marseille","lat":43.29879,"lon":5.39749,"is_reserved":false,"is_disabled":false,"rental_uris":{"android":"levelo://app?vid=155ad6f1-a04d-448a-ae30-787ff38c7553","ios":"levelo://app?vid=155ad6f1-a04d-448a-ae30-787ff38c7553"},"vehicle_type_id":"4","last_reported":1737580007,"current_range_meters":19600,"station_id":"ce4bh0h2rcd13ifvqd50","pricing_plan_id":"cebpf4jnsgd1na2vs0mg"},{"bike_id":"7ace546e-9c67-4124-8420-9ed07a575e5a","system_id":"levelo_inurba_marseille","lat":43.31566,"lon":5.40434,"is_reserved":false,"is_disabled":true,"rental_uris":{"android":"levelo://app?vid=7ace546e-9c67-4124-8420-9ed07a575e5a","ios":"levelo://app?vid=7ace546e-9c67-4124-8420-9ed07a575e5a"},"vehicle_type_id":"4","last_reported":1737580007,"current_range_meters":400,"station_id":"","pricing_plan_id":"cebpf4jnsgd1na2vs0mg"},{"bike_id":"f4064b91-d50f-4faa-b80a-c4b38df2d08b","system_id":"levelo_inurba_marseille","lat":43.229328,"lon":5.353778,"is_reserved":false,"is_disabled":false,"rental_uris":{"android":"levelo://app?vid=f4064b91-d50f-4faa-b80a-c4b38df2d08b","ios":"levelo://app?vid=f4064b91-d50f-4faa-b80a-c4b38df2d08b"},"vehicle_type_id":"4","last_reported":1737580007,"current_range_meters":38800,"station_id":"cpo3532slgdg3j2ikp40","pricing_plan_id":"cebpf4jnsgd1na2vs0mg"},{"bike_id":"1fb0e702-5965-47a7-9efe-0cfc040f54eb","system_id":"levelo_inurba_marseille","lat":43.28572,"lon":5.35073,"is_reserved":false,"is_disabled":false,"rental_uris":{"android":"levelo://app?vid=1fb0e702-5965-47a7-9efe-0cfc040f54eb","ios":"levelo://app?vid=1fb0e702-5965-47a7-9efe-0cfc040f54eb"},"vehicle_type_id":"4","last_reported":1737580007,"current_range_meters":28800,"station_id":"","pricing_plan_id":"cebpf4jnsgd1na2vs0mg"},{"bike_id":"5e75dd30-ab3b-44d3-8dcb-cb5fd4a0eb65","system_id":"levelo_inurba_marseille","lat":43.24642,"lon":5.38864,"is_reserved":false,"is_disabled":false,"rental_uris":{"android":"levelo://app?vid=5e75dd30-ab3b-44d3-8dcb-cb5fd4a0eb65","ios":"levelo://app?vid=5e75dd30-ab3b-44d3-8dcb-cb5fd4a0eb65"},"vehicle_type_id":"4","last_reported":1737580007,"current_range_meters":38800,"station_id":"ce4bhg12rcd13ifvqf60","pricing_plan_id":"cebpf4jnsgd1na2vs0mg"},{"bike_id":"81fb8919-e61f-4a4e-9310-2573005bf866","system_id":"levelo_inurba_marseille","lat":43.31173,"lon":5.38714,"is_reserved":false,"is_disabled":false,"rental_uris":{"android":"levelo://app?vid=81fb8919-e61f-4a4e-9310-2573005bf866","ios":"levelo://app?vid=81fb8919-e61f-4a4e-9310-2573005bf866"},"vehicle_type_id":"4","last_reported":1737580007,"current_range_meters":25600,"station_id":"ce4bgv12rcd13ifvqcp0","pricing_plan_id":"cebpf4jnsgd1na2vs0mg"},{"bike_id":"90c8c19d-949d-460f-bb27-403a94bcdfaa","system_id":"levelo_inurba_marseille","lat":43.28453,"lon":5.35884,"is_reserved":false,"is_disabled":false,"rental_uris":{"android":"levelo://app?vid=90c8c19d-949d-460f-bb27-403a94bcdfaa","ios":"levelo://app?vid=90c8c19d-949d-460f-bb27-403a94bcdfaa"},"vehicle_type_id":"4","last_reported":1737580007,"current_range_meters":14000,"station_id":"ce4bhah2rcd13ifvqei0","pricing_plan_id":"cebpf4jnsgd1na2vs0mg"},{"bike_id":"95686d4b-aec0-40de-b18e-cbe8599dc121","system_id":"levelo_inurba_marseille","lat":43.29724,"lon":5.36612,"is_reserved":false,"is_disabled":false,"rental_uris":{"android":"levelo://app?vid=95686d4b-aec0-40de-b18e-cbe8599dc121","ios":"levelo://app?vid=95686d4b-aec0-40de-b18e-cbe8599dc121"},"vehicle_type_id":"4","last_reported":1737580007,"current_range_meters":19200,"station_id":"ce4bgn12rcd13ifvqbt0","pricing_plan_id":"cebpf4jnsgd1na2vs0mg"},{"bike_id":"8c4ec436-c014-426e-be5e-f5e97109170a","system_id":"levelo_inurba_marseille","lat":43.30905,"lon":5.39637,"is_reserved":false,"is_disabled":false,"rental_uris":{"android":"levelo://app?vid=8c4ec436-c014-426e-be5e-f5e97109170a","ios":"levelo://app?vid=8c4ec436-c014-426e-be5e-f5e97109170a"},"vehicle_type_id":"4","last_reported":1737580007,"current_range_meters":28800,"station_id":"ce4bh012rcd13ifvqcv0","pricing_plan_id":"cebpf4jnsgd1na2vs0mg"},{"bike_id":"65094a7f-b962-43c6-b0af-b51087b9f16f","system_id":"levelo_inurba_marseille","lat":43.28939,"lon":5.36611,"is_reserved":false,"is_disabled":false,"rental_uris":{"android":"levelo://app?vid=65094a7f-b962-43c6-b0af-b51087b9f16f","ios":"levelo://app?vid=65094a7f-b962-43c6-b0af-b51087b9f16f"},"vehicle_type_id":"4","last_reported":1737580007,"current_range_meters":32400,"station_id":"ce4bhap2rcd13ifvqek0","pricing_plan_id":"cebpf4jnsgd1na2vs0mg"},{"bike_id":"83a7dad4-6d8c-49a5-9d76-0bccaf3a371c","system_id":"levelo_inurba_marseille","lat":43.29883,"lon":5.38909,"is_reserved":false,"is_disabled":false,"rental_uris":{"android":"levelo://app?vid=83a7dad4-6d8c-49a5-9d76-0bccaf3a371c","ios":"levelo://app?vid=83a7dad4-6d8c-49a5-9d76-0bccaf3a371c"},"vehicle_type_id":"4","last_reported":1737580007,"current_range_meters":33600,"station_id":"ce4bh392rcd13ifvqdl0","pricing_plan_id":"cebpf4jnsgd1na2vs0mg"},{"bike_id":"0f8fbb30-1403-4012-8d4b-bed4ddc3f0cc","system_id":"levelo_inurba_marseille","lat":43.31326,"lon":5.39707,"is_reserved":false,"is_disabled":false,"rental_uris":{"android":"levelo://app?vid=0f8fbb30-1403-4012-8d4b-bed4ddc3f0cc","ios":"levelo://app?vid=0f8fbb30-1403-4012-8d4b-bed4ddc3f0cc"},"vehicle_type_id":"4","last_reported":1737580007,"current_range_meters":24400,"station_id":"ce4bgvp2rcd13ifvqcu0","pricing_plan_id":"cebpf4jnsgd1na2vs0mg"},{"bike_id":"46a89f34-d59d-4d39-8b79-ae0562ddf14e","system_id":"levelo_inurba_marseille","lat":43.30534,"lon":5.367,"is_reserved":false,"is_disabled":false,"rental_uris":{"android":"levelo://app?vid=46a89f34-d59d-4d39-8b79-ae0562ddf14e","ios":"levelo://app?vid=46a89f34-d59d-4d39-8b79-ae0562ddf14e"},"vehicle_type_id":"4","last_reported":1737580007,"current_range_meters":37600,"station_id":"ce4bgrp2rcd13ifvqc9g","pricing_plan_id":"cebpf4jnsgd1na2vs0mg"},{"bike_id":"c95f6de6-e97e-4409-b90f-e85a1a65b3b4","system_id":"levelo_inurba_marseille","lat":43.28698,"lon":5.39981,"is_reserved":false,"is_disabled":false,"rental_uris":{"android":"levelo://app?vid=c95f6de6-e97e-4409-b90f-e85a1a65b3b4","ios":"levelo://app?vid=c95f6de6-e97e-4409-b90f-e85a1a65b3b4"},"vehicle_type_id":"4","last_reported":1737580007,"current_range_meters":8800,"station_id":"ce4bho92rcd13ifvqh3g","pricing_plan_id":"cebpf4jnsgd1na2vs0mg"},{"bike_id":"e140bb4a-5e7a-45e7-9cd7-0031c0e81926","system_id":"levelo_inurba_marseille","lat":43.28109,"lon":5.37851,"is_reserved":false,"is_disabled":false,"rental_uris":{"android":"levelo://app?vid=e140bb4a-5e7a-45e7-9cd7-0031c0e81926","ios":"levelo://app?vid=e140bb4a-5e7a-45e7-9cd7-0031c0e81926"},"vehicle_type_id":"4","last_reported":1737580007,"current_range_meters":33200,"station_id":"ce4bha12rcd13ifvqee0","pricing_plan_id":"cebpf4jnsgd1na2vs0mg"},{"bike_id":"0095f608-c8a3-464a-9e01-fb511f5fe6c3","system_id":"levelo_inurba_marseille","lat":43.31495,"lon":5.37264,"is_reserved":false,"is_disabled":false,"rental_uris":{"android":"levelo://app?vid=0095f608-c8a3-464a-9e01-fb511f5fe6c3","ios":"levelo://app?vid=0095f608-c8a3-464a-9e01-fb511f5fe6c3"},"vehicle_type_id":"4","last_reported":1737580007,"current_range_meters":28800,"station_id":"ce4bgt12rcd13ifvqcd0","pricing_plan_id":"cebpf4jnsgd1na2vs0mg"},{"bike_id":"72ac1713-a445-4042-a90c-8ce3d44dff84","system_id":"levelo_inurba_marseille","lat":43.295376,"lon":5.385376,"is_reserved":false,"is_disabled":false,"rental_uris":{"android":"levelo://app?vid=72ac1713-a445-4042-a90c-8ce3d44dff84","ios":"levelo://app?vid=72ac1713-a445-4042-a90c-8ce3d44dff84"},"vehicle_type_id":"4","last_reported":1737580007,"current_range_meters":38800,"station_id":"ce4bgih2rcd13ifvqba0","pricing_plan_id":"cebpf4jnsgd1na2vs0mg"},{"bike_id":"89d74705-7f42-45f3-bdbc-e8e63c7486d0","system_id":"levelo_inurba_marseille","lat":43.30924,"lon":5.4014,"is_reserved":false,"is_disabled":true,"rental_uris":{"android":"levelo://app?vid=89d74705-7f42-45f3-bdbc-e8e63c7486d0","ios":"levelo://app?vid=89d74705-7f42-45f3-bdbc-e8e63c7486d0"},"vehicle_type_id":"4","last_reported":1737580007,"current_range_meters":21600,"station_id":"ce4bgvp2rcd13ifvqct0","pricing_plan_id":"cebpf4jnsgd1na2vs0mg"},{"bike_id":"9f96de60-ba44-4c93-9707-a282028a4274","system_id":"levelo_inurba_marseille","lat":43.24181,"lon":5.39722,"is_reserved":false,"is_disabled":false,"rental_uris":{"android":"levelo://app?vid=9f96de60-ba44-4c93-9707-a282028a4274","ios":"levelo://app?vid=9f96de60-ba44-4c93-9707-a282028a4274"},"vehicle_type_id":"4","last_reported":1737580007,"current_range_meters":38800,"station_id":"ce4bhn12rcd13ifvqgpg","pricing_plan_id":"cebpf4jnsgd1na2vs0mg"},{"bike_id":"c776bb52-5de2-4a10-9be0-6e6552c51545","system_id":"levelo_inurba_marseille","lat":43.30886,"lon":5.3719,"is_reserved":false,"is_disabled":false,"rental_uris":{"android":"levelo://app?vid=c776bb52-5de2-4a10-9be0-6e6552c51545","ios":"levelo://app?vid=c776bb52-5de2-4a10-9be0-6e6552c51545"},"vehicle_type_id":"4","last_reported":1737580007,"current_range_meters":33200,"station_id":"ce4bguh2rcd13ifvqckg","pricing_plan_id":"cebpf4jnsgd1na2vs0mg"},{"bike_id":"0dc57ce7-6ea5-4139-9dd4-2949da8d3308","system_id":"levelo_inurba_marseille","lat":43.32336,"lon":5.40623,"is_reserved":false,"is_disabled":false,"rental_uris":{"android":"levelo://app?vid=0dc57ce7-6ea5-4139-9dd4-2949da8d3308","ios":"levelo://app?vid=0dc57ce7-6ea5-4139-9dd4-2949da8d3308"},"vehicle_type_id":"4","last_reported":1737580007,"current_range_meters":25200,"station_id":"ce4bhq92rcd13ifvqhjg","pricing_plan_id":"cebpf4jnsgd1na2vs0mg"},{"bike_id":"3325dbd1-27ed-4cd9-ba91-0feff7fdaa22","system_id":"levelo_inurba_marseille","lat":43.3034,"lon":5.40416,"is_reserved":false,"is_disabled":false,"rental_uris":{"android":"levelo://app?vid=3325dbd1-27ed-4cd9-ba91-0feff7fdaa22","ios":"levelo://app?vid=3325dbd1-27ed-4cd9-ba91-0feff7fdaa22"},"vehicle_type_id":"4","last_reported":1737580007,"current_range_meters":37600,"station_id":"ce4bh012rcd13ifvqd10","pricing_plan_id":"cebpf4jnsgd1na2vs0mg"},{"bike_id":"e13ddd84-be7b-479e-aedf-21695d18b63a","system_id":"levelo_inurba_marseille","lat":43.29982,"lon":5.38482,"is_reserved":false,"is_disabled":false,"rental_uris":{"android":"levelo://app?vid=e13ddd84-be7b-479e-aedf-21695d18b63a","ios":"levelo://app?vid=e13ddd84-be7b-479e-aedf-21695d18b63a"},"vehicle_type_id":"4","last_reported":1737580007,"current_range_meters":16800,"station_id":"ce4bgj92rcd13ifvqbd0","pricing_plan_id":"cebpf4jnsgd1na2vs0mg"},{"bike_id":"6a9e6fb3-1965-43ab-a598-cf1f58670842","system_id":"levelo_inurba_marseille","lat":43.23188,"lon":5.39982,"is_reserved":false,"is_disabled":false,"rental_uris":{"android":"levelo://app?vid=6a9e6fb3-1965-43ab-a598-cf1f58670842","ios":"levelo://app?vid=6a9e6fb3-1965-43ab-a598-cf1f58670842"},"vehicle_type_id":"4","last_reported":1737580007,"current_range_meters":30000,"station_id":"ce4bhn12rcd13ifvqgqg","pricing_plan_id":"cebpf4jnsgd1na2vs0mg"},{"bike_id":"e6e8646a-47fe-42a2-b78a-21530b7ebe2d","system_id":"levelo_inurba_marseille","lat":43.31692,"lon":5.40468,"is_reserved":false,"is_disabled":false,"rental_uris":{"android":"levelo://app?vid=e6e8646a-47fe-42a2-b78a-21530b7ebe2d","ios":"levelo://app?vid=e6e8646a-47fe-42a2-b78a-21530b7ebe2d"},"vehicle_type_id":"4","last_reported":1737580007,"current_range_meters":30000,"station_id":"ce4bh012rcd13ifvqd00","pricing_plan_id":"cebpf4jnsgd1na2vs0mg"},{"bike_id":"110f4d36-27c9-49b8-86bf-d85558408b80","system_id":"levelo_inurba_marseille","lat":43.32381,"lon":5.38894,"is_reserved":false,"is_disabled":false,"rental_uris":{"android":"levelo://app?vid=110f4d36-27c9-49b8-86bf-d85558408b80","ios":"levelo://app?vid=110f4d36-27c9-49b8-86bf-d85558408b80"},"vehicle_type_id":"4","last_reported":1737580007,"current_range_meters":22800,"station_id":"ce4bhqp2rcd13ifvqhog","pricing_plan_id":"cebpf4jnsgd1na2vs0mg"},{"bike_id":"e2151eb3-314b-404c-b259-cf12a3a3e0c6","system_id":"levelo_inurba_marseille","lat":43.3157,"lon":5.40247,"is_reserved":false,"is_disabled":false,"rental_uris":{"android":"levelo://app?vid=e2151eb3-314b-404c-b259-cf12a3a3e0c6","ios":"levelo://app?vid=e2151eb3-314b-404c-b259-cf12a3a3e0c6"},"vehicle_type_id":"4","last_reported":1737580007,"current_range_meters":24800,"station_id":"","pricing_plan_id":"cebpf4jnsgd1na2vs0mg"},{"bike_id":"8af34738-1005-41d3-9a03-fb3cbeb3f15f","system_id":"levelo_inurba_marseille","lat":43.31702,"lon":5.37776,"is_reserved":false,"is_disabled":false,"rental_uris":{"android":"levelo://app?vid=8af34738-1005-41d3-9a03-fb3cbeb3f15f","ios":"levelo://app?vid=8af34738-1005-41d3-9a03-fb3cbeb3f15f"},"vehicle_type_id":"4","last_reported":1737580007,"current_range_meters":38800,"station_id":"ce4bgth2rcd13ifvqch0","pricing_plan_id":"cebpf4jnsgd1na2vs0mg"},{"bike_id":"b357054c-3137-4ad4-b589-5831a84f2f7f","system_id":"levelo_inurba_marseille","lat":43.29178,"lon":5.37152,"is_reserved":false,"is_disabled":false,"rental_uris":{"android":"levelo://app?vid=b357054c-3137-4ad4-b589-5831a84f2f7f","ios":"levelo://app?vid=b357054c-3137-4ad4-b589-5831a84f2f7f"},"vehicle_type_id":"4","last_reported":1737580007,"current_range_meters":38800,"station_id":"ce4bha92rcd13ifvqeh0","pricing_plan_id":"cebpf4jnsgd1na2vs0mg"},{"bike_id":"3bcd921d-810c-4845-87ab-d96c2ac5451e","system_id":"levelo_inurba_marseille","lat":43.2783,"lon":5.40721,"is_reserved":false,"is_disabled":false,"rental_uris":{"android":"levelo://app?vid=3bcd921d-810c-4845-87ab-d96c2ac5451e","ios":"levelo://app?vid=3bcd921d-810c-4845-87ab-d96c2ac5451e"},"vehicle_type_id":"4","last_reported":1737580007,"current_range_meters":11200,"station_id":"ce4bhnh2rcd13ifvqgtg","pricing_plan_id":"cebpf4jnsgd1na2vs0mg"},{"bike_id":"1d9b4bae-13f4-44b3-ab0a-59d68f310773","system_id":"levelo_inurba_marseille","lat":43.28684,"lon":5.38664,"is_reserved":false,"is_disabled":false,"rental_uris":{"android":"levelo://app?vid=1d9b4bae-13f4-44b3-ab0a-59d68f310773","ios":"levelo://app?vid=1d9b4bae-13f4-44b3-ab0a-59d68f310773"},"vehicle_type_id":"4","last_reported":1737580007,"current_range_meters":33200,"station_id":"ce4bh492rcd13ifvqdug","pricing_plan_id":"cebpf4jnsgd1na2vs0mg"},{"bike_id":"c01ff322-934e-4fed-b8ab-096213fbdb3c","system_id":"levelo_inurba_marseille","lat":43.31989,"lon":5.38142,"is_reserved":false,"is_disabled":false,"rental_uris":{"android":"levelo://app?vid=c01ff322-934e-4fed-b8ab-096213fbdb3c","ios":"levelo://app?vid=c01ff322-934e-4fed-b8ab-096213fbdb3c"},"vehicle_type_id":"4","last_reported":1737580007,"current_range_meters":39200,"station_id":"ce4bhr12rcd13ifvqhpg","pricing_plan_id":"cebpf4jnsgd1na2vs0mg"},{"bike_id":"ac8f2c99-5b2b-4a62-9ac6-c3f184bbda75","system_id":"levelo_inurba_marseille","lat":43.279,"lon":5.38,"is_reserved":false,"is_disabled":false,"rental_uris":{"android":"levelo://app?vid=ac8f2c99-5b2b-4a62-9ac6-c3f184bbda75","ios":"levelo://app?vid=ac8f2c99-5b2b-4a62-9ac6-c3f184bbda75"},"vehicle_type_id":"4","last_reported":1737580007,"current_range_meters":38800,"station_id":"ce4bhf92rcd13ifvqf50","pricing_plan_id":"cebpf4jnsgd1na2vs0mg"},{"bike_id":"69db6415-9707-42d2-aff6-bddac8adc810","system_id":"levelo_inurba_marseille","lat":43.28414,"lon":5.37515,"is_reserved":false,"is_disabled":false,"rental_uris":{"android":"levelo://app?vid=69db6415-9707-42d2-aff6-bddac8adc810","ios":"levelo://app?vid=69db6415-9707-42d2-aff6-bddac8adc810"},"vehicle_type_id":"4","last_reported":1737580007,"current_range_meters":38000,"station_id":"ce4bh412rcd13ifvqds0","pricing_plan_id":"cebpf4jnsgd1na2vs0mg"},{"bike_id":"35ba0dfc-6951-499d-b497-45ecff53ae7e","system_id":"levelo_inurba_marseille","lat":43.24399,"lon":5.37059,"is_reserved":false,"is_disabled":false,"rental_uris":{"android":"levelo://app?vid=35ba0dfc-6951-499d-b497-45ecff53ae7e","ios":"levelo://app?vid=35ba0dfc-6951-499d-b497-45ecff53ae7e"},"vehicle_type_id":"4","last_reported":1737580007,"current_range_meters":25600,"station_id":"ce4bhhh2rcd13ifvqfk0","pricing_plan_id":"cebpf4jnsgd1na2vs0mg"},{"bike_id":"04058ae6-a4ca-4d2f-90cf-7af8c1d85c2c","system_id":"levelo_inurba_marseille","lat":43.29262,"lon":5.38437,"is_reserved":false,"is_disabled":false,"rental_uris":{"android":"levelo://app?vid=04058ae6-a4ca-4d2f-90cf-7af8c1d85c2c","ios":"levelo://app?vid=04058ae6-a4ca-4d2f-90cf-7af8c1d85c2c"},"vehicle_type_id":"4","last_reported":1737580007,"current_range_meters":17200,"station_id":"ce4bh692rcd13ifvqea0","pricing_plan_id":"cebpf4jnsgd1na2vs0mg"},{"bike_id":"e5487d37-11f7-40dc-ad11-6304a434e9d0","system_id":"levelo_inurba_marseille","lat":43.30541,"lon":5.36704,"is_reserved":false,"is_disabled":false,"rental_uris":{"android":"levelo://app?vid=e5487d37-11f7-40dc-ad11-6304a434e9d0","ios":"levelo://app?vid=e5487d37-11f7-40dc-ad11-6304a434e9d0"},"vehicle_type_id":"4","last_reported":1737580007,"current_range_meters":38400,"station_id":"ce4bgrp2rcd13ifvqc9g","pricing_plan_id":"cebpf4jnsgd1na2vs0mg"},{"bike_id":"6440f376-b0ac-4979-8b74-813c76d7599b","system_id":"levelo_inurba_marseille","lat":43.24169,"lon":5.39704,"is_reserved":false,"is_disabled":false,"rental_uris":{"android":"levelo://app?vid=6440f376-b0ac-4979-8b74-813c76d7599b","ios":"levelo://app?vid=6440f376-b0ac-4979-8b74-813c76d7599b"},"vehicle_type_id":"4","last_reported":1737580007,"current_range_meters":27600,"station_id":"ce4bhn12rcd13ifvqgpg","pricing_plan_id":"cebpf4jnsgd1na2vs0mg"},{"bike_id":"07222054-6bcd-45e4-8545-43979da21269","system_id":"levelo_inurba_marseille","lat":43.30135,"lon":5.39904,"is_reserved":false,"is_disabled":false,"rental_uris":{"android":"levelo://app?vid=07222054-6bcd-45e4-8545-43979da21269","ios":"levelo://app?vid=07222054-6bcd-45e4-8545-43979da21269"},"vehicle_type_id":"4","last_reported":1737580007,"current_range_meters":38400,"station_id":"ce4bh0h2rcd13ifvqd40","pricing_plan_id":"cebpf4jnsgd1na2vs0mg"},{"bike_id":"53608539-8cd0-47e7-9cfb-d1161556d6fb","system_id":"levelo_inurba_marseille","lat":43.25511,"lon":5.37669,"is_reserved":false,"is_disabled":false,"rental_uris":{"android":"levelo://app?vid=53608539-8cd0-47e7-9cfb-d1161556d6fb","ios":"levelo://app?vid=53608539-8cd0-47e7-9cfb-d1161556d6fb"},"vehicle_type_id":"4","last_reported":1737580007,"current_range_meters":24400,"station_id":"ce4bhh12rcd13ifvqff0","pricing_plan_id":"cebpf4jnsgd1na2vs0mg"},{"bike_id":"f98a7ee0-f9fe-4556-933e-ecf6827038e5","system_id":"levelo_inurba_marseille","lat":43.29183,"lon":5.35753,"is_reserved":false,"is_disabled":false,"rental_uris":{"android":"levelo://app?vid=f98a7ee0-f9fe-4556-933e-ecf6827038e5","ios":"levelo://app?vid=f98a7ee0-f9fe-4556-933e-ecf6827038e5"},"vehicle_type_id":"4","last_reported":1737580007,"current_range_meters":17600,"station_id":"ce4bhb12rcd13ifvqel0","pricing_plan_id":"cebpf4jnsgd1na2vs0mg"},{"bike_id":"5bcaa165-3855-4961-b7f5-0a96e04dc71c","system_id":"levelo_inurba_marseille","lat":43.24088,"lon":5.37774,"is_reserved":false,"is_disabled":false,"rental_uris":{"android":"levelo://app?vid=5bcaa165-3855-4961-b7f5-0a96e04dc71c","ios":"levelo://app?vid=5bcaa165-3855-4961-b7f5-0a96e04dc71c"},"vehicle_type_id":"4","last_reported":1737580007,"current_range_meters":23200,"station_id":"ce4bhnp2rcd13ifvqgvg","pricing_plan_id":"cebpf4jnsgd1na2vs0mg"},{"bike_id":"1d5e41c7-3790-4a80-ba02-77177232137f","system_id":"levelo_inurba_marseille","lat":43.30322,"lon":5.4044,"is_reserved":false,"is_disabled":false,"rental_uris":{"android":"levelo://app?vid=1d5e41c7-3790-4a80-ba02-77177232137f","ios":"levelo://app?vid=1d5e41c7-3790-4a80-ba02-77177232137f"},"vehicle_type_id":"4","last_reported":1737580007,"current_range_meters":31200,"station_id":"ce4bh012rcd13ifvqd10","pricing_plan_id":"cebpf4jnsgd1na2vs0mg"},{"bike_id":"91f957bd-7ae6-4841-8ac4-1ecdcd0c697e","system_id":"levelo_inurba_marseille","lat":43.31548,"lon":5.40165,"is_reserved":false,"is_disabled":false,"rental_uris":{"android":"levelo://app?vid=91f957bd-7ae6-4841-8ac4-1ecdcd0c697e","ios":"levelo://app?vid=91f957bd-7ae6-4841-8ac4-1ecdcd0c697e"},"vehicle_type_id":"4","last_reported":1737580007,"current_range_meters":28000,"station_id":"","pricing_plan_id":"cebpf4jnsgd1na2vs0mg"},{"bike_id":"ffccc443-e6b0-4ef5-bf1a-7a7bffbf1f18","system_id":"levelo_inurba_marseille","lat":43.27949,"lon":5.41038,"is_reserved":false,"is_disabled":false,"rental_uris":{"android":"levelo://app?vid=ffccc443-e6b0-4ef5-bf1a-7a7bffbf1f18","ios":"levelo://app?vid=ffccc443-e6b0-4ef5-bf1a-7a7bffbf1f18"},"vehicle_type_id":"4","last_reported":1737580007,"current_range_meters":34000,"station_id":"ce4bhnp2rcd13ifvqh0g","pricing_plan_id":"cebpf4jnsgd1na2vs0mg"},{"bike_id":"8eb2fff1-c521-443e-96d7-373c8de3d2ee","system_id":"levelo_inurba_marseille","lat":43.30876,"lon":5.39624,"is_reserved":false,"is_disabled":false,"rental_uris":{"android":"levelo://app?vid=8eb2fff1-c521-443e-96d7-373c8de3d2ee","ios":"levelo://app?vid=8eb2fff1-c521-443e-96d7-373c8de3d2ee"},"vehicle_type_id":"4","last_reported":1737580007,"current_range_meters":24800,"station_id":"ce4bh012rcd13ifvqcv0","pricing_plan_id":"cebpf4jnsgd1na2vs0mg"},{"bike_id":"96663138-92b9-4343-9a11-314ee4531fc0","system_id":"levelo_inurba_marseille","lat":43.30771,"lon":5.37644,"is_reserved":false,"is_disabled":true,"rental_uris":{"android":"levelo://app?vid=96663138-92b9-4343-9a11-314ee4531fc0","ios":"levelo://app?vid=96663138-92b9-4343-9a11-314ee4531fc0"},"vehicle_type_id":"4","last_reported":1737580007,"current_range_meters":17200,"station_id":"ce4bgv92rcd13ifvqcq0","pricing_plan_id":"cebpf4jnsgd1na2vs0mg"},{"bike_id":"53d770e5-ae11-4c3d-809b-fec5fee00e76","system_id":"levelo_inurba_marseille","lat":43.299776,"lon":5.38488,"is_reserved":false,"is_disabled":false,"rental_uris":{"android":"levelo://app?vid=53d770e5-ae11-4c3d-809b-fec5fee00e76","ios":"levelo://app?vid=53d770e5-ae11-4c3d-809b-fec5fee00e76"},"vehicle_type_id":"4","last_reported":1737580007,"current_range_meters":38800,"station_id":"ce4bgj92rcd13ifvqbd0","pricing_plan_id":"cebpf4jnsgd1na2vs0mg"},{"bike_id":"a9d08443-71b6-4ab7-93ae-f8d5b6602792","system_id":"levelo_inurba_marseille","lat":43.30806,"lon":5.43529,"is_reserved":false,"is_disabled":false,"rental_uris":{"android":"levelo://app?vid=a9d08443-71b6-4ab7-93ae-f8d5b6602792","ios":"levelo://app?vid=a9d08443-71b6-4ab7-93ae-f8d5b6602792"},"vehicle_type_id":"4","last_reported":1737580007,"current_range_meters":14000,"station_id":"ce4bhph2rcd13ifvqheg","pricing_plan_id":"cebpf4jnsgd1na2vs0mg"},{"bike_id":"1bf6e842-f177-4f99-a02d-c8597377b434","system_id":"levelo_inurba_marseille","lat":43.30096,"lon":5.39072,"is_reserved":false,"is_disabled":false,"rental_uris":{"android":"levelo://app?vid=1bf6e842-f177-4f99-a02d-c8597377b434","ios":"levelo://app?vid=1bf6e842-f177-4f99-a02d-c8597377b434"},"vehicle_type_id":"4","last_reported":1737580007,"current_range_meters":11600,"station_id":"ce4bh192rcd13ifvqdb0","pricing_plan_id":"cebpf4jnsgd1na2vs0mg"},{"bike_id":"7c99757d-a618-4c05-bdf4-03e32374f001","system_id":"levelo_inurba_marseille","lat":43.2846,"lon":5.35886,"is_reserved":false,"is_disabled":false,"rental_uris":{"android":"levelo://app?vid=7c99757d-a618-4c05-bdf4-03e32374f001","ios":"levelo://app?vid=7c99757d-a618-4c05-bdf4-03e32374f001"},"vehicle_type_id":"4","last_reported":1737580007,"current_range_meters":34000,"station_id":"ce4bhah2rcd13ifvqei0","pricing_plan_id":"cebpf4jnsgd1na2vs0mg"},{"bike_id":"671a624e-4572-4a73-878a-56cac04af55b","system_id":"levelo_inurba_marseille","lat":43.29011,"lon":5.38633,"is_reserved":false,"is_disabled":false,"rental_uris":{"android":"levelo://app?vid=671a624e-4572-4a73-878a-56cac04af55b","ios":"levelo://app?vid=671a624e-4572-4a73-878a-56cac04af55b"},"vehicle_type_id":"4","last_reported":1737580007,"current_range_meters":20400,"station_id":"ce4bh4p2rcd13ifvqe0g","pricing_plan_id":"cebpf4jnsgd1na2vs0mg"},{"bike_id":"0d66811c-0446-4526-80c0-3dbee39a70ea","system_id":"levelo_inurba_marseille","lat":43.29973,"lon":5.38487,"is_reserved":false,"is_disabled":false,"rental_uris":{"android":"levelo://app?vid=0d66811c-0446-4526-80c0-3dbee39a70ea","ios":"levelo://app?vid=0d66811c-0446-4526-80c0-3dbee39a70ea"},"vehicle_type_id":"4","last_reported":1737580007,"current_range_meters":19200,"station_id":"ce4bgj92rcd13ifvqbd0","pricing_plan_id":"cebpf4jnsgd1na2vs0mg"},{"bike_id":"8ab0346c-8001-4067-8852-009244e2b53d","system_id":"levelo_inurba_marseille","lat":43.31087,"lon":5.42433,"is_reserved":false,"is_disabled":false,"rental_uris":{"android":"levelo://app?vid=8ab0346c-8001-4067-8852-009244e2b53d","ios":"levelo://app?vid=8ab0346c-8001-4067-8852-009244e2b53d"},"vehicle_type_id":"4","last_reported":1737580007,"current_range_meters":39200,"station_id":"ce4bhp92rcd13ifvqhag","pricing_plan_id":"cebpf4jnsgd1na2vs0mg"},{"bike_id":"21f9561e-f843-4039-b0cf-fd0fc39238f5","system_id":"levelo_inurba_marseille","lat":43.2824,"lon":5.36097,"is_reserved":false,"is_disabled":false,"rental_uris":{"android":"levelo://app?vid=21f9561e-f843-4039-b0cf-fd0fc39238f5","ios":"levelo://app?vid=21f9561e-f843-4039-b0cf-fd0fc39238f5"},"vehicle_type_id":"4","last_reported":1737580007,"current_range_meters":17600,"station_id":"","pricing_plan_id":"cebpf4jnsgd1na2vs0mg"},{"bike_id":"49b72580-0a1d-4edc-bc96-4de0de30e7b4","system_id":"levelo_inurba_marseille","lat":43.31073,"lon":5.38352,"is_reserved":false,"is_disabled":false,"rental_uris":{"android":"levelo://app?vid=49b72580-0a1d-4edc-bc96-4de0de30e7b4","ios":"levelo://app?vid=49b72580-0a1d-4edc-bc96-4de0de30e7b4"},"vehicle_type_id":"4","last_reported":1737580007,"current_range_meters":38400,"station_id":"ce4bgv92rcd13ifvqcr0","pricing_plan_id":"cebpf4jnsgd1na2vs0mg"},{"bike_id":"ae61e9fb-77e2-453d-8f80-29ea9c2b14f4","system_id":"levelo_inurba_marseille","lat":43.29735,"lon":5.36626,"is_reserved":false,"is_disabled":false,"rental_uris":{"android":"levelo://app?vid=ae61e9fb-77e2-453d-8f80-29ea9c2b14f4","ios":"levelo://app?vid=ae61e9fb-77e2-453d-8f80-29ea9c2b14f4"},"vehicle_type_id":"4","last_reported":1737580007,"current_range_meters":38000,"station_id":"ce4bgn12rcd13ifvqbt0","pricing_plan_id":"cebpf4jnsgd1na2vs0mg"},{"bike_id":"fe9a0b6e-6d5f-461c-816f-df565a992bdf","system_id":"levelo_inurba_marseille","lat":43.28156,"lon":5.42641,"is_reserved":false,"is_disabled":false,"rental_uris":{"android":"levelo://app?vid=fe9a0b6e-6d5f-461c-816f-df565a992bdf","ios":"levelo://app?vid=fe9a0b6e-6d5f-461c-816f-df565a992bdf"},"vehicle_type_id":"4","last_reported":1737580007,"current_range_meters":30400,"station_id":"ce4bhnh2rcd13ifvqgug","pricing_plan_id":"cebpf4jnsgd1na2vs0mg"},{"bike_id":"e14baba4-7381-4ad7-9450-30b4b09a275b","system_id":"levelo_inurba_marseille","lat":43.31088,"lon":5.42429,"is_reserved":false,"is_disabled":false,"rental_uris":{"android":"levelo://app?vid=e14baba4-7381-4ad7-9450-30b4b09a275b","ios":"levelo://app?vid=e14baba4-7381-4ad7-9450-30b4b09a275b"},"vehicle_type_id":"4","last_reported":1737580007,"current_range_meters":39200,"station_id":"ce4bhp92rcd13ifvqhag","pricing_plan_id":"cebpf4jnsgd1na2vs0mg"},{"bike_id":"46df303c-af7b-4bd6-88dd-7d9758a3ac21","system_id":"levelo_inurba_marseille","lat":43.30449,"lon":5.38901,"is_reserved":false,"is_disabled":true,"rental_uris":{"android":"levelo://app?vid=46df303c-af7b-4bd6-88dd-7d9758a3ac21","ios":"levelo://app?vid=46df303c-af7b-4bd6-88dd-7d9758a3ac21"},"vehicle_type_id":"4","last_reported":1737580007,"current_range_meters":23200,"station_id":"ce4bgk12rcd13ifvqbi0","pricing_plan_id":"cebpf4jnsgd1na2vs0mg"},{"bike_id":"5ba5cfe7-a3f0-4559-acb3-f50099266fea","system_id":"levelo_inurba_marseille","lat":43.27565,"lon":5.38397,"is_reserved":false,"is_disabled":false,"rental_uris":{"android":"levelo://app?vid=5ba5cfe7-a3f0-4559-acb3-f50099266fea","ios":"levelo://app?vid=5ba5cfe7-a3f0-4559-acb3-f50099266fea"},"vehicle_type_id":"4","last_reported":1737580007,"current_range_meters":30800,"station_id":"ce4bhh92rcd13ifvqfi0","pricing_plan_id":"cebpf4jnsgd1na2vs0mg"},{"bike_id":"dc25515f-2516-4d8e-8ff7-eaa9f571f705","system_id":"levelo_inurba_marseille","lat":43.30106,"lon":5.39061,"is_reserved":false,"is_disabled":true,"rental_uris":{"android":"levelo://app?vid=dc25515f-2516-4d8e-8ff7-eaa9f571f705","ios":"levelo://app?vid=dc25515f-2516-4d8e-8ff7-eaa9f571f705"},"vehicle_type_id":"4","last_reported":1737580007,"current_range_meters":0,"station_id":"ce4bh192rcd13ifvqdb0","pricing_plan_id":"cebpf4jnsgd1na2vs0mg"},{"bike_id":"ed100342-f883-4b53-abec-316a656acfa1","system_id":"levelo_inurba_marseille","lat":43.29048,"lon":5.38669,"is_reserved":false,"is_disabled":false,"rental_uris":{"android":"levelo://app?vid=ed100342-f883-4b53-abec-316a656acfa1","ios":"levelo://app?vid=ed100342-f883-4b53-abec-316a656acfa1"},"vehicle_type_id":"4","last_reported":1737580007,"current_range_meters":30000,"station_id":"ce4bh4p2rcd13ifvqe0g","pricing_plan_id":"cebpf4jnsgd1na2vs0mg"},{"bike_id":"a1712345-b722-42f5-b051-36e9414f412a","system_id":"levelo_inurba_marseille","lat":43.30134,"lon":5.39865,"is_reserved":false,"is_disabled":false,"rental_uris":{"android":"levelo://app?vid=a1712345-b722-42f5-b051-36e9414f412a","ios":"levelo://app?vid=a1712345-b722-42f5-b051-36e9414f412a"},"vehicle_type_id":"4","last_reported":1737580007,"current_range_meters":17600,"station_id":"ce4bh0h2rcd13ifvqd40","pricing_plan_id":"cebpf4jnsgd1na2vs0mg"},{"bike_id":"c28e6228-ed3d-4f98-b22a-501bf68d7a63","system_id":"levelo_inurba_marseille","lat":43.27836,"lon":5.39204,"is_reserved":false,"is_disabled":false,"rental_uris":{"android":"levelo://app?vid=c28e6228-ed3d-4f98-b22a-501bf68d7a63","ios":"levelo://app?vid=c28e6228-ed3d-4f98-b22a-501bf68d7a63"},"vehicle_type_id":"4","last_reported":1737580007,"current_range_meters":21600,"station_id":"ce4bhjp2rcd13ifvqga0","pricing_plan_id":"cebpf4jnsgd1na2vs0mg"},{"bike_id":"173e3aa7-0f78-46bd-a3ba-457b0bd64da9","system_id":"levelo_inurba_marseille","lat":43.28098,"lon":5.37834,"is_reserved":false,"is_disabled":false,"rental_uris":{"android":"levelo://app?vid=173e3aa7-0f78-46bd-a3ba-457b0bd64da9","ios":"levelo://app?vid=173e3aa7-0f78-46bd-a3ba-457b0bd64da9"},"vehicle_type_id":"4","last_reported":1737580007,"current_range_meters":32000,"station_id":"ce4bha12rcd13ifvqee0","pricing_plan_id":"cebpf4jnsgd1na2vs0mg"},{"bike_id":"978e10b0-a57e-40ff-905f-cb455f9c0b12","system_id":"levelo_inurba_marseille","lat":43.28691,"lon":5.38678,"is_reserved":false,"is_disabled":false,"rental_uris":{"android":"levelo://app?vid=978e10b0-a57e-40ff-905f-cb455f9c0b12","ios":"levelo://app?vid=978e10b0-a57e-40ff-905f-cb455f9c0b12"},"vehicle_type_id":"4","last_reported":1737580007,"current_range_meters":28800,"station_id":"ce4bh492rcd13ifvqdug","pricing_plan_id":"cebpf4jnsgd1na2vs0mg"},{"bike_id":"68402148-60a5-4cb9-9fd1-f8a71c609ca3","system_id":"levelo_inurba_marseille","lat":43.30123,"lon":5.39859,"is_reserved":false,"is_disabled":false,"rental_uris":{"android":"levelo://app?vid=68402148-60a5-4cb9-9fd1-f8a71c609ca3","ios":"levelo://app?vid=68402148-60a5-4cb9-9fd1-f8a71c609ca3"},"vehicle_type_id":"4","last_reported":1737580007,"current_range_meters":25600,"station_id":"ce4bh0h2rcd13ifvqd40","pricing_plan_id":"cebpf4jnsgd1na2vs0mg"},{"bike_id":"e6f5cc07-7521-407d-88c2-2999a4a7ae9e","system_id":"levelo_inurba_marseille","lat":43.27948,"lon":5.41031,"is_reserved":false,"is_disabled":false,"rental_uris":{"android":"levelo://app?vid=e6f5cc07-7521-407d-88c2-2999a4a7ae9e","ios":"levelo://app?vid=e6f5cc07-7521-407d-88c2-2999a4a7ae9e"},"vehicle_type_id":"4","last_reported":1737580007,"current_range_meters":16800,"station_id":"ce4bhnp2rcd13ifvqh0g","pricing_plan_id":"cebpf4jnsgd1na2vs0mg"},{"bike_id":"a74613b0-0632-4e74-90d6-f057fde31b01","system_id":"levelo_inurba_marseille","lat":43.30873,"lon":5.39623,"is_reserved":false,"is_disabled":false,"rental_uris":{"android":"levelo://app?vid=a74613b0-0632-4e74-90d6-f057fde31b01","ios":"levelo://app?vid=a74613b0-0632-4e74-90d6-f057fde31b01"},"vehicle_type_id":"4","last_reported":1737580007,"current_range_meters":38000,"station_id":"ce4bh012rcd13ifvqcv0","pricing_plan_id":"cebpf4jnsgd1na2vs0mg"},{"bike_id":"a7708f30-9219-4bd1-8375-405a911cd519","system_id":"levelo_inurba_marseille","lat":43.22929,"lon":5.35362,"is_reserved":false,"is_disabled":false,"rental_uris":{"android":"levelo://app?vid=a7708f30-9219-4bd1-8375-405a911cd519","ios":"levelo://app?vid=a7708f30-9219-4bd1-8375-405a911cd519"},"vehicle_type_id":"4","last_reported":1737580007,"current_range_meters":8400,"station_id":"cpo3532slgdg3j2ikp40","pricing_plan_id":"cebpf4jnsgd1na2vs0mg"},{"bike_id":"d0b1221d-6d78-47a9-9bc2-624775fc2701","system_id":"levelo_inurba_marseille","lat":43.3053,"lon":5.36714,"is_reserved":false,"is_disabled":false,"rental_uris":{"android":"levelo://app?vid=d0b1221d-6d78-47a9-9bc2-624775fc2701","ios":"levelo://app?vid=d0b1221d-6d78-47a9-9bc2-624775fc2701"},"vehicle_type_id":"4","last_reported":1737580007,"current_range_meters":24400,"station_id":"ce4bgrp2rcd13ifvqc9g","pricing_plan_id":"cebpf4jnsgd1na2vs0mg"},{"bike_id":"e2ef67dd-661e-4186-8408-57e9d3d4ffc9","system_id":"levelo_inurba_marseille","lat":43.29165,"lon":5.37168,"is_reserved":false,"is_disabled":false,"rental_uris":{"android":"levelo://app?vid=e2ef67dd-661e-4186-8408-57e9d3d4ffc9","ios":"levelo://app?vid=e2ef67dd-661e-4186-8408-57e9d3d4ffc9"},"vehicle_type_id":"4","last_reported":1737580007,"current_range_meters":23200,"station_id":"ce4bha92rcd13ifvqeh0","pricing_plan_id":"cebpf4jnsgd1na2vs0mg"},{"bike_id":"f8aa956a-8cae-4e6e-bae9-e7d6d45f1b1a","system_id":"levelo_inurba_marseille","lat":43.30779,"lon":5.37642,"is_reserved":false,"is_disabled":false,"rental_uris":{"android":"levelo://app?vid=f8aa956a-8cae-4e6e-bae9-e7d6d45f1b1a","ios":"levelo://app?vid=f8aa956a-8cae-4e6e-bae9-e7d6d45f1b1a"},"vehicle_type_id":"4","last_reported":1737580007,"current_range_meters":18000,"station_id":"ce4bgv92rcd13ifvqcq0","pricing_plan_id":"cebpf4jnsgd1na2vs0mg"},{"bike_id":"d3d5b534-d49b-40f8-8d4b-3d3c137145d8","system_id":"levelo_inurba_marseille","lat":43.29173,"lon":5.37152,"is_reserved":false,"is_disabled":false,"rental_uris":{"android":"levelo://app?vid=d3d5b534-d49b-40f8-8d4b-3d3c137145d8","ios":"levelo://app?vid=d3d5b534-d49b-40f8-8d4b-3d3c137145d8"},"vehicle_type_id":"4","last_reported":1737580007,"current_range_meters":30800,"station_id":"ce4bha92rcd13ifvqeh0","pricing_plan_id":"cebpf4jnsgd1na2vs0mg"},{"bike_id":"e0ba6aac-d8ba-47b1-aa97-80ae735f1af2","system_id":"levelo_inurba_marseille","lat":43.25717,"lon":5.4111,"is_reserved":false,"is_disabled":false,"rental_uris":{"android":"levelo://app?vid=e0ba6aac-d8ba-47b1-aa97-80ae735f1af2","ios":"levelo://app?vid=e0ba6aac-d8ba-47b1-aa97-80ae735f1af2"},"vehicle_type_id":"4","last_reported":1737580007,"current_range_meters":38800,"station_id":"ce4bhkp2rcd13ifvqgd0","pricing_plan_id":"cebpf4jnsgd1na2vs0mg"},{"bike_id":"829a73aa-a8bc-45e5-b4cd-22689311b6c7","system_id":"levelo_inurba_marseille","lat":43.30435,"lon":5.38886,"is_reserved":false,"is_disabled":true,"rental_uris":{"android":"levelo://app?vid=829a73aa-a8bc-45e5-b4cd-22689311b6c7","ios":"levelo://app?vid=829a73aa-a8bc-45e5-b4cd-22689311b6c7"},"vehicle_type_id":"4","last_reported":1737580007,"current_range_meters":36800,"station_id":"ce4bgk12rcd13ifvqbi0","pricing_plan_id":"cebpf4jnsgd1na2vs0mg"},{"bike_id":"179b1787-549c-4fa1-b1ea-f50ab6d62f3c","system_id":"levelo_inurba_marseille","lat":43.2953,"lon":5.39045,"is_reserved":false,"is_disabled":false,"rental_uris":{"android":"levelo://app?vid=179b1787-549c-4fa1-b1ea-f50ab6d62f3c","ios":"levelo://app?vid=179b1787-549c-4fa1-b1ea-f50ab6d62f3c"},"vehicle_type_id":"4","last_reported":1737580007,"current_range_meters":6400,"station_id":"ce4bh3p2rcd13ifvqdp0","pricing_plan_id":"cebpf4jnsgd1na2vs0mg"},{"bike_id":"fe5283d4-ad50-4326-875d-e657e7e908e3","system_id":"levelo_inurba_marseille","lat":43.31479,"lon":5.37306,"is_reserved":false,"is_disabled":false,"rental_uris":{"android":"levelo://app?vid=fe5283d4-ad50-4326-875d-e657e7e908e3","ios":"levelo://app?vid=fe5283d4-ad50-4326-875d-e657e7e908e3"},"vehicle_type_id":"4","last_reported":1737580007,"current_range_meters":32400,"station_id":"ce4bgt12rcd13ifvqcd0","pricing_plan_id":"cebpf4jnsgd1na2vs0mg"},{"bike_id":"95289c82-6911-43c4-a49c-6e7f2290b672","system_id":"levelo_inurba_marseille","lat":43.30414,"lon":5.41289,"is_reserved":false,"is_disabled":true,"rental_uris":{"android":"levelo://app?vid=95289c82-6911-43c4-a49c-6e7f2290b672","ios":"levelo://app?vid=95289c82-6911-43c4-a49c-6e7f2290b672"},"vehicle_type_id":"4","last_reported":1737580007,"current_range_meters":2000,"station_id":"ce4bhop2rcd13ifvqh8g","pricing_plan_id":"cebpf4jnsgd1na2vs0mg"},{"bike_id":"b199a3a8-8574-42c1-920f-c78eb684329c","system_id":"levelo_inurba_marseille","lat":43.28923,"lon":5.36626,"is_reserved":false,"is_disabled":false,"rental_uris":{"android":"levelo://app?vid=b199a3a8-8574-42c1-920f-c78eb684329c","ios":"levelo://app?vid=b199a3a8-8574-42c1-920f-c78eb684329c"},"vehicle_type_id":"4","last_reported":1737580007,"current_range_meters":27200,"station_id":"ce4bhap2rcd13ifvqek0","pricing_plan_id":"cebpf4jnsgd1na2vs0mg"},{"bike_id":"13d0625c-c889-4d06-a37d-35193e5a4f67","system_id":"levelo_inurba_marseille","lat":43.30335,"lon":5.36908,"is_reserved":false,"is_disabled":false,"rental_uris":{"android":"levelo://app?vid=13d0625c-c889-4d06-a37d-35193e5a4f67","ios":"levelo://app?vid=13d0625c-c889-4d06-a37d-35193e5a4f67"},"vehicle_type_id":"4","last_reported":1737580007,"current_range_meters":20800,"station_id":"ce4bgqh2rcd13ifvqc5g","pricing_plan_id":"cebpf4jnsgd1na2vs0mg"},{"bike_id":"aa78dc9b-1ad6-4b84-b70b-d65d57de4050","system_id":"levelo_inurba_marseille","lat":43.30662,"lon":5.40079,"is_reserved":false,"is_disabled":false,"rental_uris":{"android":"levelo://app?vid=aa78dc9b-1ad6-4b84-b70b-d65d57de4050","ios":"levelo://app?vid=aa78dc9b-1ad6-4b84-b70b-d65d57de4050"},"vehicle_type_id":"4","last_reported":1737580007,"current_range_meters":11200,"station_id":"ce4bh112rcd13ifvqda0","pricing_plan_id":"cebpf4jnsgd1na2vs0mg"},{"bike_id":"96e0558c-cec8-47c4-89d3-1aa21c4b0119","system_id":"levelo_inurba_marseille","lat":43.25718,"lon":5.41819,"is_reserved":false,"is_disabled":false,"rental_uris":{"android":"levelo://app?vid=96e0558c-cec8-47c4-89d3-1aa21c4b0119","ios":"levelo://app?vid=96e0558c-cec8-47c4-89d3-1aa21c4b0119"},"vehicle_type_id":"4","last_reported":1737580007,"current_range_meters":19600,"station_id":"","pricing_plan_id":"cebpf4jnsgd1na2vs0mg"},{"bike_id":"f4f0bb5b-d280-444f-a04a-6cef2bf9bee3","system_id":"levelo_inurba_marseille","lat":43.27954,"lon":5.41043,"is_reserved":false,"is_disabled":false,"rental_uris":{"android":"levelo://app?vid=f4f0bb5b-d280-444f-a04a-6cef2bf9bee3","ios":"levelo://app?vid=f4f0bb5b-d280-444f-a04a-6cef2bf9bee3"},"vehicle_type_id":"4","last_reported":1737580007,"current_range_meters":26800,"station_id":"ce4bhnp2rcd13ifvqh0g","pricing_plan_id":"cebpf4jnsgd1na2vs0mg"},{"bike_id":"8ec4ab98-a5b7-43aa-a2c5-04d283530b13","system_id":"levelo_inurba_marseille","lat":43.29887,"lon":5.38899,"is_reserved":false,"is_disabled":false,"rental_uris":{"android":"levelo://app?vid=8ec4ab98-a5b7-43aa-a2c5-04d283530b13","ios":"levelo://app?vid=8ec4ab98-a5b7-43aa-a2c5-04d283530b13"},"vehicle_type_id":"4","last_reported":1737580007,"current_range_meters":36800,"station_id":"ce4bh392rcd13ifvqdl0","pricing_plan_id":"cebpf4jnsgd1na2vs0mg"},{"bike_id":"5f2676f8-0004-4b83-8adf-66c1f0e7ad65","system_id":"levelo_inurba_marseille","lat":43.31122,"lon":5.37756,"is_reserved":false,"is_disabled":false,"rental_uris":{"android":"levelo://app?vid=5f2676f8-0004-4b83-8adf-66c1f0e7ad65","ios":"levelo://app?vid=5f2676f8-0004-4b83-8adf-66c1f0e7ad65"},"vehicle_type_id":"4","last_reported":1737580007,"current_range_meters":35200,"station_id":"ce4bgt92rcd13ifvqcg0","pricing_plan_id":"cebpf4jnsgd1na2vs0mg"},{"bike_id":"9a53077f-70bf-473f-8e1f-a5a1297b101b","system_id":"levelo_inurba_marseille","lat":43.3054,"lon":5.38424,"is_reserved":false,"is_disabled":false,"rental_uris":{"android":"levelo://app?vid=9a53077f-70bf-473f-8e1f-a5a1297b101b","ios":"levelo://app?vid=9a53077f-70bf-473f-8e1f-a5a1297b101b"},"vehicle_type_id":"4","last_reported":1737580007,"current_range_meters":15200,"station_id":"ce4bgg92rcd13ifvqb30","pricing_plan_id":"cebpf4jnsgd1na2vs0mg"},{"bike_id":"13a64475-e4c7-493c-900a-0bcfe86942ca","system_id":"levelo_inurba_marseille","lat":43.30821,"lon":5.43518,"is_reserved":false,"is_disabled":false,"rental_uris":{"android":"levelo://app?vid=13a64475-e4c7-493c-900a-0bcfe86942ca","ios":"levelo://app?vid=13a64475-e4c7-493c-900a-0bcfe86942ca"},"vehicle_type_id":"4","last_reported":1737580007,"current_range_meters":15200,"station_id":"ce4bhph2rcd13ifvqheg","pricing_plan_id":"cebpf4jnsgd1na2vs0mg"},{"bike_id":"ac3fa518-fef3-4a6f-9e1e-03befa6efc87","system_id":"levelo_inurba_marseille","lat":43.27949,"lon":5.41041,"is_reserved":false,"is_disabled":false,"rental_uris":{"android":"levelo://app?vid=ac3fa518-fef3-4a6f-9e1e-03befa6efc87","ios":"levelo://app?vid=ac3fa518-fef3-4a6f-9e1e-03befa6efc87"},"vehicle_type_id":"4","last_reported":1737580007,"current_range_meters":12000,"station_id":"ce4bhnp2rcd13ifvqh0g","pricing_plan_id":"cebpf4jnsgd1na2vs0mg"},{"bike_id":"366618e5-58e4-49a2-b359-c5654fbadc2c","system_id":"levelo_inurba_marseille","lat":43.24083,"lon":5.37759,"is_reserved":false,"is_disabled":false,"rental_uris":{"android":"levelo://app?vid=366618e5-58e4-49a2-b359-c5654fbadc2c","ios":"levelo://app?vid=366618e5-58e4-49a2-b359-c5654fbadc2c"},"vehicle_type_id":"4","last_reported":1737580007,"current_range_meters":20800,"station_id":"ce4bhnp2rcd13ifvqgvg","pricing_plan_id":"cebpf4jnsgd1na2vs0mg"},{"bike_id":"c3b3bebb-09f3-4084-8c35-a5fde3b4b8b8","system_id":"levelo_inurba_marseille","lat":43.29198,"lon":5.3581,"is_reserved":false,"is_disabled":false,"rental_uris":{"android":"levelo://app?vid=c3b3bebb-09f3-4084-8c35-a5fde3b4b8b8","ios":"levelo://app?vid=c3b3bebb-09f3-4084-8c35-a5fde3b4b8b8"},"vehicle_type_id":"4","last_reported":1737580007,"current_range_meters":34800,"station_id":"ce4bhb12rcd13ifvqel0","pricing_plan_id":"cebpf4jnsgd1na2vs0mg"},{"bike_id":"aaa0c41b-3b4f-4f38-bba2-425d19b5f467","system_id":"levelo_inurba_marseille","lat":43.25719,"lon":5.41794,"is_reserved":false,"is_disabled":false,"rental_uris":{"android":"levelo://app?vid=aaa0c41b-3b4f-4f38-bba2-425d19b5f467","ios":"levelo://app?vid=aaa0c41b-3b4f-4f38-bba2-425d19b5f467"},"vehicle_type_id":"4","last_reported":1737580007,"current_range_meters":31200,"station_id":"","pricing_plan_id":"cebpf4jnsgd1na2vs0mg"},{"bike_id":"b0ee3244-b915-4f05-8704-8eb07d0c50b6","system_id":"levelo_inurba_marseille","lat":43.31626,"lon":5.37727,"is_reserved":false,"is_disabled":false,"rental_uris":{"android":"levelo://app?vid=b0ee3244-b915-4f05-8704-8eb07d0c50b6","ios":"levelo://app?vid=b0ee3244-b915-4f05-8704-8eb07d0c50b6"},"vehicle_type_id":"4","last_reported":1737580007,"current_range_meters":38800,"station_id":"ce4bgth2rcd13ifvqch0","pricing_plan_id":"cebpf4jnsgd1na2vs0mg"},{"bike_id":"2c89f2df-1730-4475-ab17-da02f7faf3ef","system_id":"levelo_inurba_marseille","lat":43.29205,"lon":5.39331,"is_reserved":false,"is_disabled":false,"rental_uris":{"android":"levelo://app?vid=2c89f2df-1730-4475-ab17-da02f7faf3ef","ios":"levelo://app?vid=2c89f2df-1730-4475-ab17-da02f7faf3ef"},"vehicle_type_id":"4","last_reported":1737580007,"current_range_meters":38800,"station_id":"ce4bh192rcd13ifvqdd0","pricing_plan_id":"cebpf4jnsgd1na2vs0mg"},{"bike_id":"1951c59c-da9d-4135-8cb2-a086fbe0933a","system_id":"levelo_inurba_marseille","lat":43.29585,"lon":5.39965,"is_reserved":false,"is_disabled":false,"rental_uris":{"android":"levelo://app?vid=1951c59c-da9d-4135-8cb2-a086fbe0933a","ios":"levelo://app?vid=1951c59c-da9d-4135-8cb2-a086fbe0933a"},"vehicle_type_id":"4","last_reported":1737580007,"current_range_meters":37600,"station_id":"ce4bh312rcd13ifvqdj0","pricing_plan_id":"cebpf4jnsgd1na2vs0mg"},{"bike_id":"58bd67b2-eea0-4ad2-8092-8cb589d6733b","system_id":"levelo_inurba_marseille","lat":43.30794,"lon":5.43523,"is_reserved":false,"is_disabled":false,"rental_uris":{"android":"levelo://app?vid=58bd67b2-eea0-4ad2-8092-8cb589d6733b","ios":"levelo://app?vid=58bd67b2-eea0-4ad2-8092-8cb589d6733b"},"vehicle_type_id":"4","last_reported":1737580007,"current_range_meters":8000,"station_id":"ce4bhph2rcd13ifvqheg","pricing_plan_id":"cebpf4jnsgd1na2vs0mg"},{"bike_id":"f8216a2b-e7c5-4eea-8c3d-912daef0d729","system_id":"levelo_inurba_marseille","lat":43.29876,"lon":5.43625,"is_reserved":false,"is_disabled":false,"rental_uris":{"android":"levelo://app?vid=f8216a2b-e7c5-4eea-8c3d-912daef0d729","ios":"levelo://app?vid=f8216a2b-e7c5-4eea-8c3d-912daef0d729"},"vehicle_type_id":"4","last_reported":1737580007,"current_range_meters":22800,"station_id":"ce4bhpp2rcd13ifvqhfg","pricing_plan_id":"cebpf4jnsgd1na2vs0mg"},{"bike_id":"86fce387-d25e-46bb-928c-c6923257e7fb","system_id":"levelo_inurba_marseille","lat":43.28418,"lon":5.37511,"is_reserved":false,"is_disabled":false,"rental_uris":{"android":"levelo://app?vid=86fce387-d25e-46bb-928c-c6923257e7fb","ios":"levelo://app?vid=86fce387-d25e-46bb-928c-c6923257e7fb"},"vehicle_type_id":"4","last_reported":1737580007,"current_range_meters":38000,"station_id":"ce4bh412rcd13ifvqds0","pricing_plan_id":"cebpf4jnsgd1na2vs0mg"},{"bike_id":"f69be3dd-5c08-41a5-a494-c4d2892249c1","system_id":"levelo_inurba_marseille","lat":43.33728,"lon":5.39188,"is_reserved":false,"is_disabled":false,"rental_uris":{"android":"levelo://app?vid=f69be3dd-5c08-41a5-a494-c4d2892249c1","ios":"levelo://app?vid=f69be3dd-5c08-41a5-a494-c4d2892249c1"},"vehicle_type_id":"4","last_reported":1737580007,"current_range_meters":38800,"station_id":"ce4bhr92rcd13ifvqhsg","pricing_plan_id":"cebpf4jnsgd1na2vs0mg"},{"bike_id":"ed212fa6-88f6-4297-9e5a-a078f733eaeb","system_id":"levelo_inurba_marseille","lat":43.30885,"lon":5.39647,"is_reserved":false,"is_disabled":false,"rental_uris":{"android":"levelo://app?vid=ed212fa6-88f6-4297-9e5a-a078f733eaeb","ios":"levelo://app?vid=ed212fa6-88f6-4297-9e5a-a078f733eaeb"},"vehicle_type_id":"4","last_reported":1737580007,"current_range_meters":35600,"station_id":"ce4bh012rcd13ifvqcv0","pricing_plan_id":"cebpf4jnsgd1na2vs0mg"},{"bike_id":"fa86212b-b092-4008-96d3-f4a4266c241a","system_id":"levelo_inurba_marseille","lat":43.29719,"lon":5.36289,"is_reserved":false,"is_disabled":true,"rental_uris":{"android":"levelo://app?vid=fa86212b-b092-4008-96d3-f4a4266c241a","ios":"levelo://app?vid=fa86212b-b092-4008-96d3-f4a4266c241a"},"vehicle_type_id":"4","last_reported":1737580007,"current_range_meters":0,"station_id":"","pricing_plan_id":"cebpf4jnsgd1na2vs0mg"},{"bike_id":"b30740f3-53de-4190-a431-351e48b71e56","system_id":"levelo_inurba_marseille","lat":43.32658,"lon":5.40994,"is_reserved":false,"is_disabled":false,"rental_uris":{"android":"levelo://app?vid=b30740f3-53de-4190-a431-351e48b71e56","ios":"levelo://app?vid=b30740f3-53de-4190-a431-351e48b71e56"},"vehicle_type_id":"4","last_reported":1737580007,"current_range_meters":28400,"station_id":"ce4bhpp2rcd13ifvqhgg","pricing_plan_id":"cebpf4jnsgd1na2vs0mg"},{"bike_id":"a7239622-729f-4aad-9c1c-b8db3157fe13","system_id":"levelo_inurba_marseille","lat":43.2871,"lon":5.37386,"is_reserved":false,"is_disabled":false,"rental_uris":{"android":"levelo://app?vid=a7239622-729f-4aad-9c1c-b8db3157fe13","ios":"levelo://app?vid=a7239622-729f-4aad-9c1c-b8db3157fe13"},"vehicle_type_id":"4","last_reported":1737580007,"current_range_meters":39200,"station_id":"ce4bh3p2rcd13ifvqdq0","pricing_plan_id":"cebpf4jnsgd1na2vs0mg"},{"bike_id":"b4b8b8ad-4ad7-4155-943f-90d66aac77c6","system_id":"levelo_inurba_marseille","lat":43.28676,"lon":5.38678,"is_reserved":false,"is_disabled":false,"rental_uris":{"android":"levelo://app?vid=b4b8b8ad-4ad7-4155-943f-90d66aac77c6","ios":"levelo://app?vid=b4b8b8ad-4ad7-4155-943f-90d66aac77c6"},"vehicle_type_id":"4","last_reported":1737580007,"current_range_meters":38800,"station_id":"ce4bh492rcd13ifvqdug","pricing_plan_id":"cebpf4jnsgd1na2vs0mg"},{"bike_id":"9863b7f9-4316-4322-9f6c-3cc66b0448e2","system_id":"levelo_inurba_marseille","lat":43.279439,"lon":5.389008,"is_reserved":false,"is_disabled":true,"rental_uris":{"android":"levelo://app?vid=9863b7f9-4316-4322-9f6c-3cc66b0448e2","ios":"levelo://app?vid=9863b7f9-4316-4322-9f6c-3cc66b0448e2"},"vehicle_type_id":"4","last_reported":1737580007,"current_range_meters":27600,"station_id":"","pricing_plan_id":"cebpf4jnsgd1na2vs0mg"},{"bike_id":"41558aff-4493-4695-8a6b-37d89836b9c2","system_id":"levelo_inurba_marseille","lat":43.27571,"lon":5.38412,"is_reserved":false,"is_disabled":false,"rental_uris":{"android":"levelo://app?vid=41558aff-4493-4695-8a6b-37d89836b9c2","ios":"levelo://app?vid=41558aff-4493-4695-8a6b-37d89836b9c2"},"vehicle_type_id":"4","last_reported":1737580007,"current_range_meters":38800,"station_id":"ce4bhh92rcd13ifvqfi0","pricing_plan_id":"cebpf4jnsgd1na2vs0mg"},{"bike_id":"c072e3af-4d17-488d-8fb7-d9317a7547d1","system_id":"levelo_inurba_marseille","lat":43.28292,"lon":5.43226,"is_reserved":false,"is_disabled":false,"rental_uris":{"android":"levelo://app?vid=c072e3af-4d17-488d-8fb7-d9317a7547d1","ios":"levelo://app?vid=c072e3af-4d17-488d-8fb7-d9317a7547d1"},"vehicle_type_id":"4","last_reported":1737580007,"current_range_meters":29600,"station_id":"","pricing_plan_id":"cebpf4jnsgd1na2vs0mg"},{"bike_id":"a5363d95-3287-47fc-be89-6c53b80f6665","system_id":"levelo_inurba_marseille","lat":43.29255,"lon":5.3843,"is_reserved":false,"is_disabled":false,"rental_uris":{"android":"levelo://app?vid=a5363d95-3287-47fc-be89-6c53b80f6665","ios":"levelo://app?vid=a5363d95-3287-47fc-be89-6c53b80f6665"},"vehicle_type_id":"4","last_reported":1737580007,"current_range_meters":16000,"station_id":"ce4bh692rcd13ifvqea0","pricing_plan_id":"cebpf4jnsgd1na2vs0mg"},{"bike_id":"eddb6b89-082b-479c-b34f-44c352a03897","system_id":"levelo_inurba_marseille","lat":43.25494,"lon":5.37652,"is_reserved":false,"is_disabled":false,"rental_uris":{"android":"levelo://app?vid=eddb6b89-082b-479c-b34f-44c352a03897","ios":"levelo://app?vid=eddb6b89-082b-479c-b34f-44c352a03897"},"vehicle_type_id":"4","last_reported":1737580007,"current_range_meters":38800,"station_id":"ce4bhh12rcd13ifvqff0","pricing_plan_id":"cebpf4jnsgd1na2vs0mg"},{"bike_id":"795016d8-3d99-4697-be28-e44e10ed86a8","system_id":"levelo_inurba_marseille","lat":43.27895,"lon":5.37987,"is_reserved":false,"is_disabled":false,"rental_uris":{"android":"levelo://app?vid=795016d8-3d99-4697-be28-e44e10ed86a8","ios":"levelo://app?vid=795016d8-3d99-4697-be28-e44e10ed86a8"},"vehicle_type_id":"4","last_reported":1737580007,"current_range_meters":38800,"station_id":"ce4bhf92rcd13ifvqf50","pricing_plan_id":"cebpf4jnsgd1na2vs0mg"},{"bike_id":"d482e144-5239-4ce2-b6b9-78a44e7f8317","system_id":"levelo_inurba_marseille","lat":43.31159,"lon":5.38723,"is_reserved":false,"is_disabled":false,"rental_uris":{"android":"levelo://app?vid=d482e144-5239-4ce2-b6b9-78a44e7f8317","ios":"levelo://app?vid=d482e144-5239-4ce2-b6b9-78a44e7f8317"},"vehicle_type_id":"4","last_reported":1737580007,"current_range_meters":25200,"station_id":"ce4bgv12rcd13ifvqcp0","pricing_plan_id":"cebpf4jnsgd1na2vs0mg"},{"bike_id":"895f869d-5830-4c5b-80e3-0bb0d95c3704","system_id":"levelo_inurba_marseille","lat":43.23959,"lon":5.36638,"is_reserved":false,"is_disabled":false,"rental_uris":{"android":"levelo://app?vid=895f869d-5830-4c5b-80e3-0bb0d95c3704","ios":"levelo://app?vid=895f869d-5830-4c5b-80e3-0bb0d95c3704"},"vehicle_type_id":"4","last_reported":1737580007,"current_range_meters":24800,"station_id":"ce4bhi12rcd13ifvqfp0","pricing_plan_id":"cebpf4jnsgd1na2vs0mg"},{"bike_id":"3c3a7ef9-6af7-4b28-917e-e6ba18feb67f","system_id":"levelo_inurba_marseille","lat":43.30248,"lon":5.40026,"is_reserved":false,"is_disabled":false,"rental_uris":{"android":"levelo://app?vid=3c3a7ef9-6af7-4b28-917e-e6ba18feb67f","ios":"levelo://app?vid=3c3a7ef9-6af7-4b28-917e-e6ba18feb67f"},"vehicle_type_id":"4","last_reported":1737580007,"current_range_meters":38800,"station_id":"ce4bgvh2rcd13ifvqcs0","pricing_plan_id":"cebpf4jnsgd1na2vs0mg"},{"bike_id":"71dadf1d-7daf-40cc-84d2-9745b102a8dc","system_id":"levelo_inurba_marseille","lat":43.31538,"lon":5.37354,"is_reserved":false,"is_disabled":false,"rental_uris":{"android":"levelo://app?vid=71dadf1d-7daf-40cc-84d2-9745b102a8dc","ios":"levelo://app?vid=71dadf1d-7daf-40cc-84d2-9745b102a8dc"},"vehicle_type_id":"4","last_reported":1737580007,"current_range_meters":38000,"station_id":"","pricing_plan_id":"cebpf4jnsgd1na2vs0mg"},{"bike_id":"dfbd27e7-12bf-4812-80d1-488dbaf230dc","system_id":"levelo_inurba_marseille","lat":43.32468,"lon":5.36542,"is_reserved":false,"is_disabled":false,"rental_uris":{"android":"levelo://app?vid=dfbd27e7-12bf-4812-80d1-488dbaf230dc","ios":"levelo://app?vid=dfbd27e7-12bf-4812-80d1-488dbaf230dc"},"vehicle_type_id":"4","last_reported":1737580007,"current_range_meters":24800,"station_id":"ce4bhs12rcd13ifvqhvg","pricing_plan_id":"cebpf4jnsgd1na2vs0mg"},{"bike_id":"8e2fe138-ff09-4b92-834b-8fe11a686c0f","system_id":"levelo_inurba_marseille","lat":43.3012,"lon":5.39883,"is_reserved":false,"is_disabled":false,"rental_uris":{"android":"levelo://app?vid=8e2fe138-ff09-4b92-834b-8fe11a686c0f","ios":"levelo://app?vid=8e2fe138-ff09-4b92-834b-8fe11a686c0f"},"vehicle_type_id":"4","last_reported":1737580007,"current_range_meters":15200,"station_id":"ce4bh0h2rcd13ifvqd40","pricing_plan_id":"cebpf4jnsgd1na2vs0mg"},{"bike_id":"1bbcb40a-d07f-4f56-b3b1-fad30cc81cb3","system_id":"levelo_inurba_marseille","lat":43.28935,"lon":5.36652,"is_reserved":false,"is_disabled":false,"rental_uris":{"android":"levelo://app?vid=1bbcb40a-d07f-4f56-b3b1-fad30cc81cb3","ios":"levelo://app?vid=1bbcb40a-d07f-4f56-b3b1-fad30cc81cb3"},"vehicle_type_id":"4","last_reported":1737580007,"current_range_meters":30000,"station_id":"ce4bhap2rcd13ifvqek0","pricing_plan_id":"cebpf4jnsgd1na2vs0mg"},{"bike_id":"0d555cab-a3ac-493c-97d1-05fb30170afc","system_id":"levelo_inurba_marseille","lat":43.27812,"lon":5.4072,"is_reserved":false,"is_disabled":false,"rental_uris":{"android":"levelo://app?vid=0d555cab-a3ac-493c-97d1-05fb30170afc","ios":"levelo://app?vid=0d555cab-a3ac-493c-97d1-05fb30170afc"},"vehicle_type_id":"4","last_reported":1737580007,"current_range_meters":9200,"station_id":"ce4bhnh2rcd13ifvqgtg","pricing_plan_id":"cebpf4jnsgd1na2vs0mg"},{"bike_id":"7a9c2dda-8bc0-46b6-a018-36ff197b62b5","system_id":"levelo_inurba_marseille","lat":43.29533,"lon":5.38538,"is_reserved":false,"is_disabled":false,"rental_uris":{"android":"levelo://app?vid=7a9c2dda-8bc0-46b6-a018-36ff197b62b5","ios":"levelo://app?vid=7a9c2dda-8bc0-46b6-a018-36ff197b62b5"},"vehicle_type_id":"4","last_reported":1737580007,"current_range_meters":36000,"station_id":"ce4bgih2rcd13ifvqba0","pricing_plan_id":"cebpf4jnsgd1na2vs0mg"},{"bike_id":"49052dc3-4d8a-4007-89e4-6a2b13d47195","system_id":"levelo_inurba_marseille","lat":43.243913,"lon":5.370636,"is_reserved":false,"is_disabled":true,"rental_uris":{"android":"levelo://app?vid=49052dc3-4d8a-4007-89e4-6a2b13d47195","ios":"levelo://app?vid=49052dc3-4d8a-4007-89e4-6a2b13d47195"},"vehicle_type_id":"4","last_reported":1737580007,"current_range_meters":12800,"station_id":"ce4bhhh2rcd13ifvqfk0","pricing_plan_id":"cebpf4jnsgd1na2vs0mg"},{"bike_id":"c5fb49ad-f90e-4caa-a5d1-c3c35c35098e","system_id":"levelo_inurba_marseille","lat":43.2895,"lon":5.3663,"is_reserved":false,"is_disabled":false,"rental_uris":{"android":"levelo://app?vid=c5fb49ad-f90e-4caa-a5d1-c3c35c35098e","ios":"levelo://app?vid=c5fb49ad-f90e-4caa-a5d1-c3c35c35098e"},"vehicle_type_id":"4","last_reported":1737580007,"current_range_meters":25600,"station_id":"ce4bhap2rcd13ifvqek0","pricing_plan_id":"cebpf4jnsgd1na2vs0mg"},{"bike_id":"c7dff3cc-e6b8-4ad0-901d-d6dc0a57d7a5","system_id":"levelo_inurba_marseille","lat":43.29245,"lon":5.38428,"is_reserved":false,"is_disabled":true,"rental_uris":{"android":"levelo://app?vid=c7dff3cc-e6b8-4ad0-901d-d6dc0a57d7a5","ios":"levelo://app?vid=c7dff3cc-e6b8-4ad0-901d-d6dc0a57d7a5"},"vehicle_type_id":"4","last_reported":1737580007,"current_range_meters":8000,"station_id":"ce4bh692rcd13ifvqea0","pricing_plan_id":"cebpf4jnsgd1na2vs0mg"},{"bike_id":"1c0bdd64-b440-4cb1-8eef-940fab5db96c","system_id":"levelo_inurba_marseille","lat":43.30119,"lon":5.39839,"is_reserved":false,"is_disabled":false,"rental_uris":{"android":"levelo://app?vid=1c0bdd64-b440-4cb1-8eef-940fab5db96c","ios":"levelo://app?vid=1c0bdd64-b440-4cb1-8eef-940fab5db96c"},"vehicle_type_id":"4","last_reported":1737580007,"current_range_meters":38800,"station_id":"ce4bh0h2rcd13ifvqd40","pricing_plan_id":"cebpf4jnsgd1na2vs0mg"},{"bike_id":"dd0f15cd-123f-4d48-8259-bed14253e065","system_id":"levelo_inurba_marseille","lat":43.30337,"lon":5.40445,"is_reserved":false,"is_disabled":false,"rental_uris":{"android":"levelo://app?vid=dd0f15cd-123f-4d48-8259-bed14253e065","ios":"levelo://app?vid=dd0f15cd-123f-4d48-8259-bed14253e065"},"vehicle_type_id":"4","last_reported":1737580007,"current_range_meters":19600,"station_id":"ce4bh012rcd13ifvqd10","pricing_plan_id":"cebpf4jnsgd1na2vs0mg"},{"bike_id":"fcd4837f-6e09-4786-bcf5-c3a686cbcfef","system_id":"levelo_inurba_marseille","lat":43.29896,"lon":5.43632,"is_reserved":false,"is_disabled":false,"rental_uris":{"android":"levelo://app?vid=fcd4837f-6e09-4786-bcf5-c3a686cbcfef","ios":"levelo://app?vid=fcd4837f-6e09-4786-bcf5-c3a686cbcfef"},"vehicle_type_id":"4","last_reported":1737580007,"current_range_meters":30800,"station_id":"ce4bhpp2rcd13ifvqhfg","pricing_plan_id":"cebpf4jnsgd1na2vs0mg"},{"bike_id":"d561329e-e53f-4714-85a9-2ace5d8e89b2","system_id":"levelo_inurba_marseille","lat":43.28103,"lon":5.3783,"is_reserved":false,"is_disabled":false,"rental_uris":{"android":"levelo://app?vid=d561329e-e53f-4714-85a9-2ace5d8e89b2","ios":"levelo://app?vid=d561329e-e53f-4714-85a9-2ace5d8e89b2"},"vehicle_type_id":"4","last_reported":1737580007,"current_range_meters":32400,"station_id":"ce4bha12rcd13ifvqee0","pricing_plan_id":"cebpf4jnsgd1na2vs0mg"},{"bike_id":"690952aa-4cf6-4ec8-a1ef-02ddc0138251","system_id":"levelo_inurba_marseille","lat":43.26169,"lon":5.42058,"is_reserved":false,"is_disabled":false,"rental_uris":{"android":"levelo://app?vid=690952aa-4cf6-4ec8-a1ef-02ddc0138251","ios":"levelo://app?vid=690952aa-4cf6-4ec8-a1ef-02ddc0138251"},"vehicle_type_id":"4","last_reported":1737580007,"current_range_meters":31200,"station_id":"","pricing_plan_id":"cebpf4jnsgd1na2vs0mg"},{"bike_id":"d46a74b4-d575-4284-b10d-520ab1619e29","system_id":"levelo_inurba_marseille","lat":43.24664,"lon":5.38167,"is_reserved":false,"is_disabled":false,"rental_uris":{"android":"levelo://app?vid=d46a74b4-d575-4284-b10d-520ab1619e29","ios":"levelo://app?vid=d46a74b4-d575-4284-b10d-520ab1619e29"},"vehicle_type_id":"4","last_reported":1737580007,"current_range_meters":11600,"station_id":"ce4bhih2rcd13ifvqfr0","pricing_plan_id":"cebpf4jnsgd1na2vs0mg"},{"bike_id":"cc1afb68-34b0-436f-9522-7a18e847b6c4","system_id":"levelo_inurba_marseille","lat":43.29795,"lon":5.40385,"is_reserved":false,"is_disabled":false,"rental_uris":{"android":"levelo://app?vid=cc1afb68-34b0-436f-9522-7a18e847b6c4","ios":"levelo://app?vid=cc1afb68-34b0-436f-9522-7a18e847b6c4"},"vehicle_type_id":"4","last_reported":1737580007,"current_range_meters":38000,"station_id":"ce4bh112rcd13ifvqd90","pricing_plan_id":"cebpf4jnsgd1na2vs0mg"},{"bike_id":"03af5a1d-20f6-4b21-b63e-8bec9df4705a","system_id":"levelo_inurba_marseille","lat":43.2757,"lon":5.38411,"is_reserved":false,"is_disabled":false,"rental_uris":{"android":"levelo://app?vid=03af5a1d-20f6-4b21-b63e-8bec9df4705a","ios":"levelo://app?vid=03af5a1d-20f6-4b21-b63e-8bec9df4705a"},"vehicle_type_id":"4","last_reported":1737580007,"current_range_meters":22000,"station_id":"ce4bhh92rcd13ifvqfi0","pricing_plan_id":"cebpf4jnsgd1na2vs0mg"},{"bike_id":"0442718d-ac1a-4b42-80ad-cb544ec0e81c","system_id":"levelo_inurba_marseille","lat":43.29017,"lon":5.38636,"is_reserved":false,"is_disabled":false,"rental_uris":{"android":"levelo://app?vid=0442718d-ac1a-4b42-80ad-cb544ec0e81c","ios":"levelo://app?vid=0442718d-ac1a-4b42-80ad-cb544ec0e81c"},"vehicle_type_id":"4","last_reported":1737580007,"current_range_meters":38800,"station_id":"ce4bh4p2rcd13ifvqe0g","pricing_plan_id":"cebpf4jnsgd1na2vs0mg"},{"bike_id":"abc941ac-5452-4eb7-8a25-528c43a14f52","system_id":"levelo_inurba_marseille","lat":43.29266,"lon":5.3844,"is_reserved":false,"is_disabled":false,"rental_uris":{"android":"levelo://app?vid=abc941ac-5452-4eb7-8a25-528c43a14f52","ios":"levelo://app?vid=abc941ac-5452-4eb7-8a25-528c43a14f52"},"vehicle_type_id":"4","last_reported":1737580007,"current_range_meters":38800,"station_id":"ce4bh692rcd13ifvqea0","pricing_plan_id":"cebpf4jnsgd1na2vs0mg"},{"bike_id":"56d21405-bac6-4651-aec0-a8a06e11eb22","system_id":"levelo_inurba_marseille","lat":43.31334,"lon":5.37014,"is_reserved":false,"is_disabled":false,"rental_uris":{"android":"levelo://app?vid=56d21405-bac6-4651-aec0-a8a06e11eb22","ios":"levelo://app?vid=56d21405-bac6-4651-aec0-a8a06e11eb22"},"vehicle_type_id":"4","last_reported":1737580007,"current_range_meters":38800,"station_id":"","pricing_plan_id":"cebpf4jnsgd1na2vs0mg"},{"bike_id":"e9506c2b-731e-4de7-bc66-75f6ed7af806","system_id":"levelo_inurba_marseille","lat":43.283424,"lon":5.381092,"is_reserved":false,"is_disabled":false,"rental_uris":{"android":"levelo://app?vid=e9506c2b-731e-4de7-bc66-75f6ed7af806","ios":"levelo://app?vid=e9506c2b-731e-4de7-bc66-75f6ed7af806"},"vehicle_type_id":"4","last_reported":1737580007,"current_range_meters":22000,"station_id":"ce4bh412rcd13ifvqdr0","pricing_plan_id":"cebpf4jnsgd1na2vs0mg"},{"bike_id":"2195c46d-bf4c-407c-a135-0e6ac55489a6","system_id":"levelo_inurba_marseille","lat":43.29717,"lon":5.36592,"is_reserved":false,"is_disabled":false,"rental_uris":{"android":"levelo://app?vid=2195c46d-bf4c-407c-a135-0e6ac55489a6","ios":"levelo://app?vid=2195c46d-bf4c-407c-a135-0e6ac55489a6"},"vehicle_type_id":"4","last_reported":1737580007,"current_range_meters":38400,"station_id":"ce4bgn12rcd13ifvqbt0","pricing_plan_id":"cebpf4jnsgd1na2vs0mg"},{"bike_id":"a1600cae-771b-4c4c-bd5a-8e8333df4872","system_id":"levelo_inurba_marseille","lat":43.30256,"lon":5.4006,"is_reserved":false,"is_disabled":false,"rental_uris":{"android":"levelo://app?vid=a1600cae-771b-4c4c-bd5a-8e8333df4872","ios":"levelo://app?vid=a1600cae-771b-4c4c-bd5a-8e8333df4872"},"vehicle_type_id":"4","last_reported":1737580007,"current_range_meters":32400,"station_id":"ce4bgvh2rcd13ifvqcs0","pricing_plan_id":"cebpf4jnsgd1na2vs0mg"},{"bike_id":"12d4cf66-0850-4966-9b21-37269dcb5145","system_id":"levelo_inurba_marseille","lat":43.26558,"lon":5.37288,"is_reserved":false,"is_disabled":false,"rental_uris":{"android":"levelo://app?vid=12d4cf66-0850-4966-9b21-37269dcb5145","ios":"levelo://app?vid=12d4cf66-0850-4966-9b21-37269dcb5145"},"vehicle_type_id":"4","last_reported":1737580007,"current_range_meters":16800,"station_id":"ce4bhg12rcd13ifvqf70","pricing_plan_id":"cebpf4jnsgd1na2vs0mg"},{"bike_id":"0f401976-6aad-441a-b3af-96a97796859c","system_id":"levelo_inurba_marseille","lat":43.30247,"lon":5.40055,"is_reserved":false,"is_disabled":false,"rental_uris":{"android":"levelo://app?vid=0f401976-6aad-441a-b3af-96a97796859c","ios":"levelo://app?vid=0f401976-6aad-441a-b3af-96a97796859c"},"vehicle_type_id":"4","last_reported":1737580007,"current_range_meters":8800,"station_id":"ce4bgvh2rcd13ifvqcs0","pricing_plan_id":"cebpf4jnsgd1na2vs0mg"},{"bike_id":"51a36b3c-6a3c-4a10-8421-cf3855c7a215","system_id":"levelo_inurba_marseille","lat":43.25576,"lon":5.38248,"is_reserved":false,"is_disabled":false,"rental_uris":{"android":"levelo://app?vid=51a36b3c-6a3c-4a10-8421-cf3855c7a215","ios":"levelo://app?vid=51a36b3c-6a3c-4a10-8421-cf3855c7a215"},"vehicle_type_id":"4","last_reported":1737580007,"current_range_meters":9200,"station_id":"ce4bhih2rcd13ifvqfs0","pricing_plan_id":"cebpf4jnsgd1na2vs0mg"},{"bike_id":"a267dde1-d4e3-4cb1-b973-1bb5badb5ee4","system_id":"levelo_inurba_marseille","lat":43.291,"lon":5.38118,"is_reserved":false,"is_disabled":true,"rental_uris":{"android":"levelo://app?vid=a267dde1-d4e3-4cb1-b973-1bb5badb5ee4","ios":"levelo://app?vid=a267dde1-d4e3-4cb1-b973-1bb5badb5ee4"},"vehicle_type_id":"4","last_reported":1737580007,"current_range_meters":800,"station_id":"ce4bh512rcd13ifvqe2g","pricing_plan_id":"cebpf4jnsgd1na2vs0mg"},{"bike_id":"612e82f7-10fc-4a4a-9e67-aa82ed05c11f","system_id":"levelo_inurba_marseille","lat":43.24661,"lon":5.38152,"is_reserved":false,"is_disabled":false,"rental_uris":{"android":"levelo://app?vid=612e82f7-10fc-4a4a-9e67-aa82ed05c11f","ios":"levelo://app?vid=612e82f7-10fc-4a4a-9e67-aa82ed05c11f"},"vehicle_type_id":"4","last_reported":1737580007,"current_range_meters":28800,"station_id":"ce4bhih2rcd13ifvqfr0","pricing_plan_id":"cebpf4jnsgd1na2vs0mg"},{"bike_id":"13ff516e-16cf-4543-8540-9030b8b296b4","system_id":"levelo_inurba_marseille","lat":43.2319,"lon":5.35547,"is_reserved":false,"is_disabled":false,"rental_uris":{"android":"levelo://app?vid=13ff516e-16cf-4543-8540-9030b8b296b4","ios":"levelo://app?vid=13ff516e-16cf-4543-8540-9030b8b296b4"},"vehicle_type_id":"4","last_reported":1737580007,"current_range_meters":32000,"station_id":"ce4bhu92rcd13ifvqi70","pricing_plan_id":"cebpf4jnsgd1na2vs0mg"},{"bike_id":"6a3f11ae-19cd-4d89-806e-94dec7d182bb","system_id":"levelo_inurba_marseille","lat":43.25829,"lon":5.39425,"is_reserved":false,"is_disabled":false,"rental_uris":{"android":"levelo://app?vid=6a3f11ae-19cd-4d89-806e-94dec7d182bb","ios":"levelo://app?vid=6a3f11ae-19cd-4d89-806e-94dec7d182bb"},"vehicle_type_id":"4","last_reported":1737580007,"current_range_meters":39200,"station_id":"ce4bhip2rcd13ifvqft0","pricing_plan_id":"cebpf4jnsgd1na2vs0mg"},{"bike_id":"9984a19d-448e-4ed2-8c95-d1103fd0e167","system_id":"levelo_inurba_marseille","lat":43.31763,"lon":5.39024,"is_reserved":false,"is_disabled":false,"rental_uris":{"android":"levelo://app?vid=9984a19d-448e-4ed2-8c95-d1103fd0e167","ios":"levelo://app?vid=9984a19d-448e-4ed2-8c95-d1103fd0e167"},"vehicle_type_id":"4","last_reported":1737580007,"current_range_meters":38800,"station_id":"ce4bhqp2rcd13ifvqhng","pricing_plan_id":"cebpf4jnsgd1na2vs0mg"},{"bike_id":"dc9afc0d-d533-431b-a32f-6f6423d7880b","system_id":"levelo_inurba_marseille","lat":43.317304,"lon":5.42391,"is_reserved":false,"is_disabled":false,"rental_uris":{"android":"levelo://app?vid=dc9afc0d-d533-431b-a32f-6f6423d7880b","ios":"levelo://app?vid=dc9afc0d-d533-431b-a32f-6f6423d7880b"},"vehicle_type_id":"4","last_reported":1737580007,"current_range_meters":33600,"station_id":"ce4bhp92rcd13ifvqhbg","pricing_plan_id":"cebpf4jnsgd1na2vs0mg"},{"bike_id":"bfc7d970-e019-4665-84d5-e5a81d0af44a","system_id":"levelo_inurba_marseille","lat":43.27946,"lon":5.4103,"is_reserved":false,"is_disabled":false,"rental_uris":{"android":"levelo://app?vid=bfc7d970-e019-4665-84d5-e5a81d0af44a","ios":"levelo://app?vid=bfc7d970-e019-4665-84d5-e5a81d0af44a"},"vehicle_type_id":"4","last_reported":1737580007,"current_range_meters":24800,"station_id":"ce4bhnp2rcd13ifvqh0g","pricing_plan_id":"cebpf4jnsgd1na2vs0mg"},{"bike_id":"888038f9-044f-4ded-824f-b22d803d5b12","system_id":"levelo_inurba_marseille","lat":43.29575,"lon":5.37505,"is_reserved":false,"is_disabled":true,"rental_uris":{"android":"levelo://app?vid=888038f9-044f-4ded-824f-b22d803d5b12","ios":"levelo://app?vid=888038f9-044f-4ded-824f-b22d803d5b12"},"vehicle_type_id":"4","last_reported":1737580007,"current_range_meters":18000,"station_id":"ce4bgh92rcd13ifvqb50","pricing_plan_id":"cebpf4jnsgd1na2vs0mg"},{"bike_id":"52146a71-f026-47dd-bccf-12959c075291","system_id":"levelo_inurba_marseille","lat":43.2927,"lon":5.36847,"is_reserved":false,"is_disabled":false,"rental_uris":{"android":"levelo://app?vid=52146a71-f026-47dd-bccf-12959c075291","ios":"levelo://app?vid=52146a71-f026-47dd-bccf-12959c075291"},"vehicle_type_id":"4","last_reported":1737580007,"current_range_meters":17600,"station_id":"ce4bhbp2rcd13ifvqesg","pricing_plan_id":"cebpf4jnsgd1na2vs0mg"},{"bike_id":"1876537c-c9d8-4160-b31c-e17d644f44c6","system_id":"levelo_inurba_marseille","lat":43.32469,"lon":5.36553,"is_reserved":false,"is_disabled":false,"rental_uris":{"android":"levelo://app?vid=1876537c-c9d8-4160-b31c-e17d644f44c6","ios":"levelo://app?vid=1876537c-c9d8-4160-b31c-e17d644f44c6"},"vehicle_type_id":"4","last_reported":1737580007,"current_range_meters":36800,"station_id":"ce4bhs12rcd13ifvqhvg","pricing_plan_id":"cebpf4jnsgd1na2vs0mg"},{"bike_id":"3ca427d4-897d-4f96-8e6b-de1063edad3d","system_id":"levelo_inurba_marseille","lat":43.28455,"lon":5.35883,"is_reserved":false,"is_disabled":false,"rental_uris":{"android":"levelo://app?vid=3ca427d4-897d-4f96-8e6b-de1063edad3d","ios":"levelo://app?vid=3ca427d4-897d-4f96-8e6b-de1063edad3d"},"vehicle_type_id":"4","last_reported":1737580007,"current_range_meters":38800,"station_id":"ce4bhah2rcd13ifvqei0","pricing_plan_id":"cebpf4jnsgd1na2vs0mg"},{"bike_id":"2ca7abc7-847f-42bd-a01b-e2f89fea4d7b","system_id":"levelo_inurba_marseille","lat":43.3127,"lon":5.40165,"is_reserved":false,"is_disabled":false,"rental_uris":{"android":"levelo://app?vid=2ca7abc7-847f-42bd-a01b-e2f89fea4d7b","ios":"levelo://app?vid=2ca7abc7-847f-42bd-a01b-e2f89fea4d7b"},"vehicle_type_id":"4","last_reported":1737580007,"current_range_meters":8000,"station_id":"ce4bh092rcd13ifvqd30","pricing_plan_id":"cebpf4jnsgd1na2vs0mg"},{"bike_id":"a885be08-cbd5-4e6a-9eae-4df11d6a0e95","system_id":"levelo_inurba_marseille","lat":43.30248,"lon":5.40061,"is_reserved":false,"is_disabled":false,"rental_uris":{"android":"levelo://app?vid=a885be08-cbd5-4e6a-9eae-4df11d6a0e95","ios":"levelo://app?vid=a885be08-cbd5-4e6a-9eae-4df11d6a0e95"},"vehicle_type_id":"4","last_reported":1737580007,"current_range_meters":14400,"station_id":"ce4bgvh2rcd13ifvqcs0","pricing_plan_id":"cebpf4jnsgd1na2vs0mg"},{"bike_id":"96c2fa56-b9b2-48b0-9427-797c2cb5b739","system_id":"levelo_inurba_marseille","lat":43.29271,"lon":5.36851,"is_reserved":false,"is_disabled":false,"rental_uris":{"android":"levelo://app?vid=96c2fa56-b9b2-48b0-9427-797c2cb5b739","ios":"levelo://app?vid=96c2fa56-b9b2-48b0-9427-797c2cb5b739"},"vehicle_type_id":"4","last_reported":1737580007,"current_range_meters":38800,"station_id":"ce4bhbp2rcd13ifvqesg","pricing_plan_id":"cebpf4jnsgd1na2vs0mg"},{"bike_id":"79828ee4-c684-43d2-ac05-6026af7f61c3","system_id":"levelo_inurba_marseille","lat":43.30253,"lon":5.40048,"is_reserved":false,"is_disabled":false,"rental_uris":{"android":"levelo://app?vid=79828ee4-c684-43d2-ac05-6026af7f61c3","ios":"levelo://app?vid=79828ee4-c684-43d2-ac05-6026af7f61c3"},"vehicle_type_id":"4","last_reported":1737580007,"current_range_meters":27200,"station_id":"ce4bgvh2rcd13ifvqcs0","pricing_plan_id":"cebpf4jnsgd1na2vs0mg"},{"bike_id":"427ec049-7bdc-415e-93a1-e025c8b36d89","system_id":"levelo_inurba_marseille","lat":43.27975,"lon":5.40006,"is_reserved":false,"is_disabled":false,"rental_uris":{"android":"levelo://app?vid=427ec049-7bdc-415e-93a1-e025c8b36d89","ios":"levelo://app?vid=427ec049-7bdc-415e-93a1-e025c8b36d89"},"vehicle_type_id":"4","last_reported":1737580007,"current_range_meters":38800,"station_id":"ce4bho92rcd13ifvqh4g","pricing_plan_id":"cebpf4jnsgd1na2vs0mg"},{"bike_id":"5b5d4d96-8df1-499e-a530-eead026d912a","system_id":"levelo_inurba_marseille","lat":43.2738,"lon":5.36249,"is_reserved":false,"is_disabled":false,"rental_uris":{"android":"levelo://app?vid=5b5d4d96-8df1-499e-a530-eead026d912a","ios":"levelo://app?vid=5b5d4d96-8df1-499e-a530-eead026d912a"},"vehicle_type_id":"4","last_reported":1737580007,"current_range_meters":36400,"station_id":"ce4bhbh2rcd13ifvqeo0","pricing_plan_id":"cebpf4jnsgd1na2vs0mg"},{"bike_id":"b7c48665-5d78-4174-b837-4aa023f8c486","system_id":"levelo_inurba_marseille","lat":43.28455,"lon":5.35884,"is_reserved":false,"is_disabled":false,"rental_uris":{"android":"levelo://app?vid=b7c48665-5d78-4174-b837-4aa023f8c486","ios":"levelo://app?vid=b7c48665-5d78-4174-b837-4aa023f8c486"},"vehicle_type_id":"4","last_reported":1737580007,"current_range_meters":38800,"station_id":"ce4bhah2rcd13ifvqei0","pricing_plan_id":"cebpf4jnsgd1na2vs0mg"},{"bike_id":"eeea7204-b995-442f-99cb-0a930aba3173","system_id":"levelo_inurba_marseille","lat":43.28681,"lon":5.38663,"is_reserved":false,"is_disabled":false,"rental_uris":{"android":"levelo://app?vid=eeea7204-b995-442f-99cb-0a930aba3173","ios":"levelo://app?vid=eeea7204-b995-442f-99cb-0a930aba3173"},"vehicle_type_id":"4","last_reported":1737580007,"current_range_meters":38800,"station_id":"ce4bh492rcd13ifvqdug","pricing_plan_id":"cebpf4jnsgd1na2vs0mg"},{"bike_id":"e41c1f13-73b0-4fe8-960e-72c7a66abd39","system_id":"levelo_inurba_marseille","lat":43.3065,"lon":5.40093,"is_reserved":false,"is_disabled":false,"rental_uris":{"android":"levelo://app?vid=e41c1f13-73b0-4fe8-960e-72c7a66abd39","ios":"levelo://app?vid=e41c1f13-73b0-4fe8-960e-72c7a66abd39"},"vehicle_type_id":"4","last_reported":1737580007,"current_range_meters":34000,"station_id":"ce4bh112rcd13ifvqda0","pricing_plan_id":"cebpf4jnsgd1na2vs0mg"},{"bike_id":"68e9c31c-ad3e-43bf-9dd6-a2db62b95ef7","system_id":"levelo_inurba_marseille","lat":43.32487,"lon":5.36558,"is_reserved":false,"is_disabled":false,"rental_uris":{"android":"levelo://app?vid=68e9c31c-ad3e-43bf-9dd6-a2db62b95ef7","ios":"levelo://app?vid=68e9c31c-ad3e-43bf-9dd6-a2db62b95ef7"},"vehicle_type_id":"4","last_reported":1737580007,"current_range_meters":25200,"station_id":"ce4bhs12rcd13ifvqhvg","pricing_plan_id":"cebpf4jnsgd1na2vs0mg"},{"bike_id":"a776651d-d813-4d99-b51c-87577bdb9ae6","system_id":"levelo_inurba_marseille","lat":43.29873,"lon":5.39737,"is_reserved":false,"is_disabled":false,"rental_uris":{"android":"levelo://app?vid=a776651d-d813-4d99-b51c-87577bdb9ae6","ios":"levelo://app?vid=a776651d-d813-4d99-b51c-87577bdb9ae6"},"vehicle_type_id":"4","last_reported":1737580007,"current_range_meters":11200,"station_id":"ce4bh0h2rcd13ifvqd50","pricing_plan_id":"cebpf4jnsgd1na2vs0mg"},{"bike_id":"a8f619ef-8db1-4312-9c2f-1f19846a3d2d","system_id":"levelo_inurba_marseille","lat":43.28459,"lon":5.35893,"is_reserved":false,"is_disabled":false,"rental_uris":{"android":"levelo://app?vid=a8f619ef-8db1-4312-9c2f-1f19846a3d2d","ios":"levelo://app?vid=a8f619ef-8db1-4312-9c2f-1f19846a3d2d"},"vehicle_type_id":"4","last_reported":1737580007,"current_range_meters":22800,"station_id":"ce4bhah2rcd13ifvqei0","pricing_plan_id":"cebpf4jnsgd1na2vs0mg"},{"bike_id":"bfd7ed92-cfee-4317-8d8b-1cd4160f32e7","system_id":"levelo_inurba_marseille","lat":43.31512,"lon":5.37288,"is_reserved":false,"is_disabled":false,"rental_uris":{"android":"levelo://app?vid=bfd7ed92-cfee-4317-8d8b-1cd4160f32e7","ios":"levelo://app?vid=bfd7ed92-cfee-4317-8d8b-1cd4160f32e7"},"vehicle_type_id":"4","last_reported":1737580007,"current_range_meters":9600,"station_id":"ce4bgt12rcd13ifvqcd0","pricing_plan_id":"cebpf4jnsgd1na2vs0mg"},{"bike_id":"127a26b6-ed39-4c2e-9fc7-31005f453be1","system_id":"levelo_inurba_marseille","lat":43.30644,"lon":5.40073,"is_reserved":false,"is_disabled":false,"rental_uris":{"android":"levelo://app?vid=127a26b6-ed39-4c2e-9fc7-31005f453be1","ios":"levelo://app?vid=127a26b6-ed39-4c2e-9fc7-31005f453be1"},"vehicle_type_id":"4","last_reported":1737580007,"current_range_meters":38800,"station_id":"ce4bh112rcd13ifvqda0","pricing_plan_id":"cebpf4jnsgd1na2vs0mg"},{"bike_id":"d44e0181-8fda-48f6-8535-2fda924ce2fd","system_id":"levelo_inurba_marseille","lat":43.29897,"lon":5.43655,"is_reserved":false,"is_disabled":false,"rental_uris":{"android":"levelo://app?vid=d44e0181-8fda-48f6-8535-2fda924ce2fd","ios":"levelo://app?vid=d44e0181-8fda-48f6-8535-2fda924ce2fd"},"vehicle_type_id":"4","last_reported":1737580007,"current_range_meters":6800,"station_id":"ce4bhpp2rcd13ifvqhfg","pricing_plan_id":"cebpf4jnsgd1na2vs0mg"},{"bike_id":"bd771a8e-666c-4f89-bb31-e000a937060f","system_id":"levelo_inurba_marseille","lat":43.28427,"lon":5.37524,"is_reserved":false,"is_disabled":true,"rental_uris":{"android":"levelo://app?vid=bd771a8e-666c-4f89-bb31-e000a937060f","ios":"levelo://app?vid=bd771a8e-666c-4f89-bb31-e000a937060f"},"vehicle_type_id":"4","last_reported":1737580007,"current_range_meters":8000,"station_id":"ce4bh412rcd13ifvqds0","pricing_plan_id":"cebpf4jnsgd1na2vs0mg"},{"bike_id":"d8ce4ac7-3548-4c99-80c2-54448a2f2a6a","system_id":"levelo_inurba_marseille","lat":43.29264,"lon":5.36826,"is_reserved":false,"is_disabled":true,"rental_uris":{"android":"levelo://app?vid=d8ce4ac7-3548-4c99-80c2-54448a2f2a6a","ios":"levelo://app?vid=d8ce4ac7-3548-4c99-80c2-54448a2f2a6a"},"vehicle_type_id":"4","last_reported":1737580007,"current_range_meters":30000,"station_id":"ce4bhbp2rcd13ifvqesg","pricing_plan_id":"cebpf4jnsgd1na2vs0mg"},{"bike_id":"7874dafc-e029-48fe-90b1-e3af68fcb3fd","system_id":"levelo_inurba_marseille","lat":43.30599,"lon":5.3933,"is_reserved":false,"is_disabled":false,"rental_uris":{"android":"levelo://app?vid=7874dafc-e029-48fe-90b1-e3af68fcb3fd","ios":"levelo://app?vid=7874dafc-e029-48fe-90b1-e3af68fcb3fd"},"vehicle_type_id":"4","last_reported":1737580007,"current_range_meters":34800,"station_id":"ce4bh0p2rcd13ifvqd80","pricing_plan_id":"cebpf4jnsgd1na2vs0mg"},{"bike_id":"97631e4b-cbaf-458d-84b3-007b2f354e62","system_id":"levelo_inurba_marseille","lat":43.2798,"lon":5.41651,"is_reserved":false,"is_disabled":false,"rental_uris":{"android":"levelo://app?vid=97631e4b-cbaf-458d-84b3-007b2f354e62","ios":"levelo://app?vid=97631e4b-cbaf-458d-84b3-007b2f354e62"},"vehicle_type_id":"4","last_reported":1737580007,"current_range_meters":25200,"station_id":"ce4bho12rcd13ifvqh1g","pricing_plan_id":"cebpf4jnsgd1na2vs0mg"},{"bike_id":"949a2c5f-99a7-4003-81ed-706918f23154","system_id":"levelo_inurba_marseille","lat":43.28414,"lon":5.37513,"is_reserved":false,"is_disabled":false,"rental_uris":{"android":"levelo://app?vid=949a2c5f-99a7-4003-81ed-706918f23154","ios":"levelo://app?vid=949a2c5f-99a7-4003-81ed-706918f23154"},"vehicle_type_id":"4","last_reported":1737580007,"current_range_meters":38800,"station_id":"ce4bh412rcd13ifvqds0","pricing_plan_id":"cebpf4jnsgd1na2vs0mg"},{"bike_id":"c930a841-7164-4ae7-9e82-1ea9fd83ec64","system_id":"levelo_inurba_marseille","lat":43.29868,"lon":5.39724,"is_reserved":false,"is_disabled":false,"rental_uris":{"android":"levelo://app?vid=c930a841-7164-4ae7-9e82-1ea9fd83ec64","ios":"levelo://app?vid=c930a841-7164-4ae7-9e82-1ea9fd83ec64"},"vehicle_type_id":"4","last_reported":1737580007,"current_range_meters":38800,"station_id":"ce4bh0h2rcd13ifvqd50","pricing_plan_id":"cebpf4jnsgd1na2vs0mg"},{"bike_id":"f5b52696-dada-4db8-ac63-486420d431ea","system_id":"levelo_inurba_marseille","lat":43.24645,"lon":5.38912,"is_reserved":false,"is_disabled":false,"rental_uris":{"android":"levelo://app?vid=f5b52696-dada-4db8-ac63-486420d431ea","ios":"levelo://app?vid=f5b52696-dada-4db8-ac63-486420d431ea"},"vehicle_type_id":"4","last_reported":1737580007,"current_range_meters":38800,"station_id":"ce4bhg12rcd13ifvqf60","pricing_plan_id":"cebpf4jnsgd1na2vs0mg"},