{"last_updated":1751465459,"ttl":60,"version":"2.2","data":{"bikes":[{"bike_id":"3da29fb8-fc97-44c6-b9ac-31dd456b2fd4","system_id":"levelo_inurba_marseille","lat":43.33771,"lon":5.37424,"is_reserved":false,"is_disabled":true,"rental_uris":{"android":"levelo://app?vid=3da29fb8-fc97-44c6-b9ac-31dd456b2fd4","ios":"levelo://app?vid=3da29fb8-fc97-44c6-b9ac-31dd456b2fd4"},"vehicle_type_id":"4","last_reported":1751465459,"current_range_meters":0,"station_id":"","pricing_plan_id":"cebpf4jnsgd1na2vs0mg"},{"bike_id":"01861ad8-a8d7-4be6-816e-651927c87584","system_id":"levelo_inurba_marseille","lat":43.33751,"lon":5.37456,"is_reserved":false,"is_disabled":true,"rental_uris":{"android":"levelo://app?vid=01861ad8-a8d7-4be6-816e-651927c87584","ios":"levelo://app?vid=01861ad8-a8d7-4be6-816e-651927c87584"},"vehicle_type_id":"4","last_reported":1751465459,"current_range_meters":0,"station_id":"","pricing_plan_id":"cebpf4jnsgd1na2vs0mg"},{"bike_id":"5736d3b1-7298-4471-a99d-f5bb0a7e8852","system_id":"levelo_inurba_marseille","lat":43.26302,"lon":5.37377,"is_reserved":false,"is_disabled":true,"rental_uris":{"android":"levelo://app?vid=5736d3b1-7298-4471-a99d-f5bb0a7e8852","ios":"levelo://app?vid=5736d3b1-7298-4471-a99d-f5bb0a7e8852"},"vehicle_type_id":"4","last_reported":1751465459,"current_range_meters":0,"station_id":"","pricing_plan_id":"cebpf4jnsgd1na2vs0mg"},{"bike_id":"99b8138d-cd34-4aa2-850f-5f628a35c384","system_id":"levelo_inurba_marseille","lat":43.29569,"lon":5.37513,"is_reserved":false,"is_disabled":true,"rental_uris":{"android":"levelo://app?vid=99b8138d-cd34-4aa2-850f-5f628a35c384","ios":"levelo://app?vid=99b8138d-cd34-4aa2-850f-5f628a35c384"},"vehicle_type_id":"4","last_reported":1751465459,"current_range_meters":0,"station_id":"ce4bgh92rcd13ifvqb50","pricing_plan_id":"cebpf4jnsgd1na2vs0mg"},{"bike_id":"105d0cfb-1d71-4bec-a91f-355646624459","system_id":"levelo_inurba_marseille","lat":43.29812,"lon":5.38088,"is_reserved":false,"is_disabled":true,"rental_uris":{"android":"levelo://app?vid=105d0cfb-1d71-4bec-a91f-355646624459","ios":"levelo://app?vid=105d0cfb-1d71-4bec-a91f-355646624459"},"vehicle_type_id":"4","last_reported":1751465459,"current_range_meters":0,"station_id":"ce4bgip2rcd13ifvqbb0","pricing_plan_id":"cebpf4jnsgd1na2vs0mg"},{"bike_id":"2d5e0721-acb0-455f-84c2-23b978444258","system_id":"levelo_inurba_marseille","lat":43.29968,"lon":5.38497,"is_reserved":false,"is_disabled":true,"rental_uris":{"android":"levelo://app?vid=2d5e0721-acb0-455f-84c2-23b978444258","ios":"levelo://app?vid=2d5e0721-acb0-455f-84c2-23b978444258"},"vehicle_type_id":"4","last_reported":1751465459,"current_range_meters":0,"station_id":"ce4bgj92rcd13ifvqbd0","pricing_plan_id":"cebpf4jnsgd1na2vs0mg"},{"bike_id":"d64722ca-dc11-4622-abe1-b6f4eb18d1b3","system_id":"levelo_inurba_marseille","lat":43.29592,"lon":5.38097,"is_reserved":false,"is_disabled":true,"rental_uris":{"android":"levelo://app?vid=d64722ca-dc11-4622-abe1-b6f4eb18d1b3","ios":"levelo://app?vid=d64722ca-dc11-4622-abe1-b6f4eb18d1b3"},"vehicle_type_id":"4","last_reported":1751465459,"current_range_meters":0,"station_id":"ce4bgl12rcd13ifvqbo0","pricing_plan_id":"cebpf4jnsgd1na2vs0mg"},{"bike_id":"76419de8-3179-4bfe-863f-fb137eb5791f","system_id":"levelo_inurba_marseille","lat":43.30431,"lon":5.39749,"is_reserved":false,"is_disabled":true,"rental_uris":{"android":"levelo://app?vid=76419de8-3179-4bfe-863f-fb137eb5791f","ios":"levelo://app?vid=76419de8-3179-4bfe-863f-fb137eb5791f"},"vehicle_type_id":"4","last_reported":1751465459,"current_range_meters":0,"station_id":"ce4bh092rcd13ifvqd20","pricing_plan_id":"cebpf4jnsgd1na2vs0mg"},{"bike_id":"27fdfbcb-5877-48ab-8723-fb848363aae5","system_id":"levelo_inurba_marseille","lat":43.291873,"lon":5.39317,"is_reserved":false,"is_disabled":true,"rental_uris":{"android":"levelo://app?vid=27fdfbcb-5877-48ab-8723-fb848363aae5","ios":"levelo://app?vid=27fdfbcb-5877-48ab-8723-fb848363aae5"},"vehicle_type_id":"4","last_reported":1751465459,"current_range_meters":0,"station_id":"ce4bh192rcd13ifvqdd0","pricing_plan_id":"cebpf4jnsgd1na2vs0mg"},{"bike_id":"36c68eb6-65bd-4e25-8617-c4a8a74b3018","system_id":"levelo_inurba_marseille","lat":43.28416,"lon":5.34996,"is_reserved":false,"is_disabled":true,"rental_uris":{"android":"levelo://app?vid=36c68eb6-65bd-4e25-8617-c4a8a74b3018","ios":"levelo://app?vid=36c68eb6-65bd-4e25-8617-c4a8a74b3018"},"vehicle_type_id":"4","last_reported":1751465459,"current_range_meters":0,"station_id":"ce4bhbh2rcd13ifvqepg","pricing_plan_id":"cebpf4jnsgd1na2vs0mg"},{"bike_id":"033ec2c4-216d-4e2b-94f3-a1c34f78d677","system_id":"levelo_inurba_marseille","lat":43.29259,"lon":5.36851,"is_reserved":false,"is_disabled":true,"rental_uris":{"android":"levelo://app?vid=033ec2c4-216d-4e2b-94f3-a1c34f78d677","ios":"levelo://app?vid=033ec2c4-216d-4e2b-94f3-a1c34f78d677"},"vehicle_type_id":"4","last_reported":1751465459,"current_range_meters":0,"station_id":"ce4bhbp2rcd13ifvqesg","pricing_plan_id":"cebpf4jnsgd1na2vs0mg"},{"bike_id":"4ee72c18-cc7c-4a4b-91e4-b8e96d465639","system_id":"levelo_inurba_marseille","lat":43.24657,"lon":5.38146,"is_reserved":false,"is_disabled":true,"rental_uris":{"android":"levelo://app?vid=4ee72c18-cc7c-4a4b-91e4-b8e96d465639","ios":"levelo://app?vid=4ee72c18-cc7c-4a4b-91e4-b8e96d465639"},"vehicle_type_id":"4","last_reported":1751465459,"current_range_meters":0,"station_id":"ce4bhih2rcd13ifvqfr0","pricing_plan_id":"cebpf4jnsgd1na2vs0mg"},{"bike_id":"d9f5986c-fe7b-4266-ac9e-4d454b0350a9","system_id":"levelo_inurba_marseille","lat":43.23153,"lon":5.43726,"is_reserved":false,"is_disabled":true,"rental_uris":{"android":"levelo://app?vid=d9f5986c-fe7b-4266-ac9e-4d454b0350a9","ios":"levelo://app?vid=d9f5986c-fe7b-4266-ac9e-4d454b0350a9"},"vehicle_type_id":"4","last_reported":1751465459,"current_range_meters":0,"station_id":"ce4bhmp2rcd13ifvqgog","pricing_plan_id":"cebpf4jnsgd1na2vs0mg"},{"bike_id":"d5b16757-b09e-4652-a1cd-cbe958a9740c","system_id":"levelo_inurba_marseille","lat":43.23137,"lon":5.43728,"is_reserved":false,"is_disabled":true,"rental_uris":{"android":"levelo://app?vid=d5b16757-b09e-4652-a1cd-cbe958a9740c","ios":"levelo://app?vid=d5b16757-b09e-4652-a1cd-cbe958a9740c"},"vehicle_type_id":"4","last_reported":1751465459,"current_range_meters":0,"station_id":"ce4bhmp2rcd13ifvqgog","pricing_plan_id":"cebpf4jnsgd1na2vs0mg"},{"bike_id":"1d14f4cd-08b1-492d-b9ec-2138f62ef8b0","system_id":"levelo_inurba_marseille","lat":43.29897,"lon":5.43671,"is_reserved":false,"is_disabled":true,"rental_uris":{"android":"levelo://app?vid=1d14f4cd-08b1-492d-b9ec-2138f62ef8b0","ios":"levelo://app?vid=1d14f4cd-08b1-492d-b9ec-2138f62ef8b0"},"vehicle_type_id":"4","last_reported":1751465459,"current_range_meters":0,"station_id":"ce4bhpp2rcd13ifvqhfg","pricing_plan_id":"cebpf4jnsgd1na2vs0mg"},{"bike_id":"43aac980-4dd0-42a2-bf5c-950a2dd68454","system_id":"levelo_inurba_marseille","lat":43.28704,"lon":5.37385,"is_reserved":false,"is_disabled":true,"rental_uris":{"android":"levelo://app?vid=43aac980-4dd0-42a2-bf5c-950a2dd68454","ios":"levelo://app?vid=43aac980-4dd0-42a2-bf5c-950a2dd68454"},"vehicle_type_id":"4","last_reported":1751465459,"current_range_meters":400,"station_id":"ce4bh3p2rcd13ifvqdq0","pricing_plan_id":"cebpf4jnsgd1na2vs0mg"},{"bike_id":"162af4e6-d224-4240-aeac-6cb0ae06de53","system_id":"levelo_inurba_marseille","lat":43.2991,"lon":5.37844,"is_reserved":false,"is_disabled":true,"rental_uris":{"android":"levelo://app?vid=162af4e6-d224-4240-aeac-6cb0ae06de53","ios":"levelo://app?vid=162af4e6-d224-4240-aeac-6cb0ae06de53"},"vehicle_type_id":"4","last_reported":1751465459,"current_range_meters":800,"station_id":"","pricing_plan_id":"cebpf4jnsgd1na2vs0mg"},{"bike_id":"8507d8bc-db39-4943-a1fc-6c2f8d17d8f7","system_id":"levelo_inurba_marseille","lat":43.27422,"lon":5.3941,"is_reserved":false,"is_disabled":true,"rental_uris":{"android":"levelo://app?vid=8507d8bc-db39-4943-a1fc-6c2f8d17d8f7","ios":"levelo://app?vid=8507d8bc-db39-4943-a1fc-6c2f8d17d8f7"},"vehicle_type_id":"4","last_reported":1751465459,"current_range_meters":800,"station_id":"ce4bhdp2rcd13ifvqf20","pricing_plan_id":"cebpf4jnsgd1na2vs0mg"},{"bike_id":"4aeb7193-1cb6-4ab4-bfcd-aa47f75b5276","system_id":"levelo_inurba_marseille","lat":43.30108,"lon":5.39873,"is_reserved":false,"is_disabled":true,"rental_uris":{"android":"levelo://app?vid=4aeb7193-1cb6-4ab4-bfcd-aa47f75b5276","ios":"levelo://app?vid=4aeb7193-1cb6-4ab4-bfcd-aa47f75b5276"},"vehicle_type_id":"4","last_reported":1751465459,"current_range_meters":1600,"station_id":"ce4bh0h2rcd13ifvqd40","pricing_plan_id":"cebpf4jnsgd1na2vs0mg"},{"bike_id":"9a9aa7d2-b1fb-4105-8575-fae7ea7a4a03","system_id":"levelo_inurba_marseille","lat":43.29264,"lon":5.38439,"is_reserved":false,"is_disabled":true,"rental_uris":{"android":"levelo://app?vid=9a9aa7d2-b1fb-4105-8575-fae7ea7a4a03","ios":"levelo://app?vid=9a9aa7d2-b1fb-4105-8575-fae7ea7a4a03"},"vehicle_type_id":"4","last_reported":1751465459,"current_range_meters":1600,"station_id":"ce4bh692rcd13ifvqea0","pricing_plan_id":"cebpf4jnsgd1na2vs0mg"},{"bike_id":"b585ead5-6236-4806-a310-3d871fcb9b12","system_id":"levelo_inurba_marseille","lat":43.28002,"lon":5.400141,"is_reserved":false,"is_disabled":true,"rental_uris":{"android":"levelo://app?vid=b585ead5-6236-4806-a310-3d871fcb9b12","ios":"levelo://app?vid=b585ead5-6236-4806-a310-3d871fcb9b12"},"vehicle_type_id":"4","last_reported":1751465459,"current_range_meters":2000,"station_id":"","pricing_plan_id":"cebpf4jnsgd1na2vs0mg"},{"bike_id":"903f9470-ab34-4334-a763-be4df836a2fb","system_id":"levelo_inurba_marseille","lat":43.3169,"lon":5.40471,"is_reserved":false,"is_disabled":true,"rental_uris":{"android":"levelo://app?vid=903f9470-ab34-4334-a763-be4df836a2fb","ios":"levelo://app?vid=903f9470-ab34-4334-a763-be4df836a2fb"},"vehicle_type_id":"4","last_reported":1751465459,"current_range_meters":2000,"station_id":"ce4bh012rcd13ifvqd00","pricing_plan_id":"cebpf4jnsgd1na2vs0mg"},{"bike_id":"3b07aa32-0f3b-4fe6-82c1-16e6dad70cee","system_id":"levelo_inurba_marseille","lat":43.28612,"lon":5.35106,"is_reserved":false,"is_disabled":true,"rental_uris":{"android":"levelo://app?vid=3b07aa32-0f3b-4fe6-82c1-16e6dad70cee","ios":"levelo://app?vid=3b07aa32-0f3b-4fe6-82c1-16e6dad70cee"},"vehicle_type_id":"4","last_reported":1751465459,"current_range_meters":2000,"station_id":"ce4bhch2rcd13ifvqeug","pricing_plan_id":"cebpf4jnsgd1na2vs0mg"},{"bike_id":"0e3bf4f5-fcbf-4c44-af42-055b2971e3aa","system_id":"levelo_inurba_marseille","lat":43.23152,"lon":5.43704,"is_reserved":false,"is_disabled":true,"rental_uris":{"android":"levelo://app?vid=0e3bf4f5-fcbf-4c44-af42-055b2971e3aa","ios":"levelo://app?vid=0e3bf4f5-fcbf-4c44-af42-055b2971e3aa"},"vehicle_type_id":"4","last_reported":1751465459,"current_range_meters":2000,"station_id":"ce4bhmp2rcd13ifvqgog","pricing_plan_id":"cebpf4jnsgd1na2vs0mg"},{"bike_id":"b10f15f1-d04f-4b3b-a439-8d064cebd858","system_id":"levelo_inurba_marseille","lat":43.2319,"lon":5.3998,"is_reserved":false,"is_disabled":true,"rental_uris":{"android":"levelo://app?vid=b10f15f1-d04f-4b3b-a439-8d064cebd858","ios":"levelo://app?vid=b10f15f1-d04f-4b3b-a439-8d064cebd858"},"vehicle_type_id":"4","last_reported":1751465459,"current_range_meters":2000,"station_id":"ce4bhn12rcd13ifvqgqg","pricing_plan_id":"cebpf4jnsgd1na2vs0mg"},{"bike_id":"d4bbbd02-5c75-4ef0-98dc-51098a9f0aeb","system_id":"levelo_inurba_marseille","lat":43.29708,"lon":5.37687,"is_reserved":false,"is_disabled":false,"rental_uris":{"android":"levelo://app?vid=d4bbbd02-5c75-4ef0-98dc-51098a9f0aeb","ios":"levelo://app?vid=d4bbbd02-5c75-4ef0-98dc-51098a9f0aeb"},"vehicle_type_id":"4","last_reported":1751465459,"current_range_meters":2800,"station_id":"ce4bgkh2rcd13ifvqbl0","pricing_plan_id":"cebpf4jnsgd1na2vs0mg"},{"bike_id":"a359d22c-aa45-4d0b-a592-0b8cbe64c4a9","system_id":"levelo_inurba_marseille","lat":43.29546,"lon":5.37478,"is_reserved":false,"is_disabled":false,"rental_uris":{"android":"levelo://app?vid=a359d22c-aa45-4d0b-a592-0b8cbe64c4a9","ios":"levelo://app?vid=a359d22c-aa45-4d0b-a592-0b8cbe64c4a9"},"vehicle_type_id":"4","last_reported":1751465459,"current_range_meters":2800,"station_id":"ce4bgkp2rcd13ifvqbmg","pricing_plan_id":"cebpf4jnsgd1na2vs0mg"},{"bike_id":"e6b39716-4cb9-4ccc-8b0b-fd664a5dbf93","system_id":"levelo_inurba_marseille","lat":43.22931,"lon":5.35377,"is_reserved":false,"is_disabled":false,"rental_uris":{"android":"levelo://app?vid=e6b39716-4cb9-4ccc-8b0b-fd664a5dbf93","ios":"levelo://app?vid=e6b39716-4cb9-4ccc-8b0b-fd664a5dbf93"},"vehicle_type_id":"4","last_reported":1751465459,"current_range_meters":3200,"station_id":"cpo3532slgdg3j2ikp40","pricing_plan_id":"cebpf4jnsgd1na2vs0mg"},{"bike_id":"975898a4-7354-41fd-b62e-3d527ce1a3fd","system_id":"levelo_inurba_marseille","lat":43.29416,"lon":5.38611,"is_reserved":false,"is_disabled":false,"rental_uris":{"android":"levelo://app?vid=975898a4-7354-41fd-b62e-3d527ce1a3fd","ios":"levelo://app?vid=975898a4-7354-41fd-b62e-3d527ce1a3fd"},"vehicle_type_id":"4","last_reported":1751465459,"current_range_meters":4000,"station_id":"ce4bh2h2rcd13ifvqdh0","pricing_plan_id":"cebpf4jnsgd1na2vs0mg"},{"bike_id":"f6ee2cd3-893c-41fa-baa3-6c342a1d60f2","system_id":"levelo_inurba_marseille","lat":43.28346,"lon":5.38102,"is_reserved":false,"is_disabled":false,"rental_uris":{"android":"levelo://app?vid=f6ee2cd3-893c-41fa-baa3-6c342a1d60f2","ios":"levelo://app?vid=f6ee2cd3-893c-41fa-baa3-6c342a1d60f2"},"vehicle_type_id":"4","last_reported":1751465459,"current_range_meters":4400,"station_id":"ce4bh412rcd13ifvqdr0","pricing_plan_id":"cebpf4jnsgd1na2vs0mg"},{"bike_id":"8252b44a-d048-4379-9209-2efa2e627825","system_id":"levelo_inurba_marseille","lat":43.292289,"lon":5.405671,"is_reserved":false,"is_disabled":false,"rental_uris":{"android":"levelo://app?vid=8252b44a-d048-4379-9209-2efa2e627825","ios":"levelo://app?vid=8252b44a-d048-4379-9209-2efa2e627825"},"vehicle_type_id":"4","last_reported":1751465459,"current_range_meters":4800,"station_id":"","pricing_plan_id":"cebpf4jnsgd1na2vs0mg"},{"bike_id":"b7d8655e-3393-4738-828c-1cbbce7cab97","system_id":"levelo_inurba_marseille","lat":43.28001,"lon":5.40005,"is_reserved":false,"is_disabled":false,"rental_uris":{"android":"levelo://app?vid=b7d8655e-3393-4738-828c-1cbbce7cab97","ios":"levelo://app?vid=b7d8655e-3393-4738-828c-1cbbce7cab97"},"vehicle_type_id":"4","last_reported":1751465459,"current_range_meters":4800,"station_id":"ce4bho92rcd13ifvqh4g","pricing_plan_id":"cebpf4jnsgd1na2vs0mg"},{"bike_id":"f0f4dc04-d8d2-4779-942d-918053a5d07b","system_id":"levelo_inurba_marseille","lat":43.29618,"lon":5.37721,"is_reserved":false,"is_disabled":false,"rental_uris":{"android":"levelo://app?vid=f0f4dc04-d8d2-4779-942d-918053a5d07b","ios":"levelo://app?vid=f0f4dc04-d8d2-4779-942d-918053a5d07b"},"vehicle_type_id":"4","last_reported":1751465459,"current_range_meters":5600,"station_id":"ce4bgi92rcd13ifvqb90","pricing_plan_id":"cebpf4jnsgd1na2vs0mg"},{"bike_id":"a44a8f23-ba24-49db-b401-4c941bbe1896","system_id":"levelo_inurba_marseille","lat":43.29876,"lon":5.3891,"is_reserved":false,"is_disabled":false,"rental_uris":{"android":"levelo://app?vid=a44a8f23-ba24-49db-b401-4c941bbe1896","ios":"levelo://app?vid=a44a8f23-ba24-49db-b401-4c941bbe1896"},"vehicle_type_id":"4","last_reported":1751465459,"current_range_meters":5600,"station_id":"ce4bh392rcd13ifvqdl0","pricing_plan_id":"cebpf4jnsgd1na2vs0mg"},{"bike_id":"9a06f1c5-625f-4985-81e0-04cff410729e","system_id":"levelo_inurba_marseille","lat":43.297633,"lon":5.380918,"is_reserved":false,"is_disabled":false,"rental_uris":{"android":"levelo://app?vid=9a06f1c5-625f-4985-81e0-04cff410729e","ios":"levelo://app?vid=9a06f1c5-625f-4985-81e0-04cff410729e"},"vehicle_type_id":"4","last_reported":1751465459,"current_range_meters":6000,"station_id":"ce4bgip2rcd13ifvqbb0","pricing_plan_id":"cebpf4jnsgd1na2vs0mg"},{"bike_id":"f1746222-b136-472b-9a0c-bab128eb6521","system_id":"levelo_inurba_marseille","lat":43.30539,"lon":5.36547,"is_reserved":false,"is_disabled":false,"rental_uris":{"android":"levelo://app?vid=f1746222-b136-472b-9a0c-bab128eb6521","ios":"levelo://app?vid=f1746222-b136-472b-9a0c-bab128eb6521"},"vehicle_type_id":"4","last_reported":1751465459,"current_range_meters":6000,"station_id":"ce4bgs12rcd13ifvqcag","pricing_plan_id":"cebpf4jnsgd1na2vs0mg"},{"bike_id":"93857046-72fb-4721-9635-74a1ed5bdd6f","system_id":"levelo_inurba_marseille","lat":43.28448,"lon":5.358715,"is_reserved":false,"is_disabled":false,"rental_uris":{"android":"levelo://app?vid=93857046-72fb-4721-9635-74a1ed5bdd6f","ios":"levelo://app?vid=93857046-72fb-4721-9635-74a1ed5bdd6f"},"vehicle_type_id":"4","last_reported":1751465459,"current_range_meters":6000,"station_id":"ce4bhah2rcd13ifvqei0","pricing_plan_id":"cebpf4jnsgd1na2vs0mg"},{"bike_id":"b92d947e-8dbc-4d53-8843-4d070be6256b","system_id":"levelo_inurba_marseille","lat":43.28419,"lon":5.34981,"is_reserved":false,"is_disabled":false,"rental_uris":{"android":"levelo://app?vid=b92d947e-8dbc-4d53-8843-4d070be6256b","ios":"levelo://app?vid=b92d947e-8dbc-4d53-8843-4d070be6256b"},"vehicle_type_id":"4","last_reported":1751465459,"current_range_meters":6000,"station_id":"ce4bhbh2rcd13ifvqepg","pricing_plan_id":"cebpf4jnsgd1na2vs0mg"},{"bike_id":"b99693f3-f221-4cd2-a6b6-37c06313e52b","system_id":"levelo_inurba_marseille","lat":43.301483,"lon":5.387831,"is_reserved":false,"is_disabled":false,"rental_uris":{"android":"levelo://app?vid=b99693f3-f221-4cd2-a6b6-37c06313e52b","ios":"levelo://app?vid=b99693f3-f221-4cd2-a6b6-37c06313e52b"},"vehicle_type_id":"4","last_reported":1751465459,"current_range_meters":6400,"station_id":"ce4bghh2rcd13ifvqb60","pricing_plan_id":"cebpf4jnsgd1na2vs0mg"},{"bike_id":"5e39279e-9781-4725-8b0e-219474051f77","system_id":"levelo_inurba_marseille","lat":43.298492,"lon":5.36288,"is_reserved":false,"is_disabled":false,"rental_uris":{"android":"levelo://app?vid=5e39279e-9781-4725-8b0e-219474051f77","ios":"levelo://app?vid=5e39279e-9781-4725-8b0e-219474051f77"},"vehicle_type_id":"4","last_reported":1751465459,"current_range_meters":6400,"station_id":"ce4bgpp2rcd13ifvqc3g","pricing_plan_id":"cebpf4jnsgd1na2vs0mg"},{"bike_id":"f3245705-af8b-4560-8a85-77ffa891acf6","system_id":"levelo_inurba_marseille","lat":43.30788,"lon":5.37655,"is_reserved":false,"is_disabled":false,"rental_uris":{"android":"levelo://app?vid=f3245705-af8b-4560-8a85-77ffa891acf6","ios":"levelo://app?vid=f3245705-af8b-4560-8a85-77ffa891acf6"},"vehicle_type_id":"4","last_reported":1751465459,"current_range_meters":6400,"station_id":"ce4bgv92rcd13ifvqcq0","pricing_plan_id":"cebpf4jnsgd1na2vs0mg"},{"bike_id":"53b8e0c2-11ad-4502-873f-e39aa9ca9632","system_id":"levelo_inurba_marseille","lat":43.294422,"lon":5.397519,"is_reserved":false,"is_disabled":false,"rental_uris":{"android":"levelo://app?vid=53b8e0c2-11ad-4502-873f-e39aa9ca9632","ios":"levelo://app?vid=53b8e0c2-11ad-4502-873f-e39aa9ca9632"},"vehicle_type_id":"4","last_reported":1751465459,"current_range_meters":6400,"station_id":"ce4bh3h2rcd13ifvqdo0","pricing_plan_id":"cebpf4jnsgd1na2vs0mg"},{"bike_id":"b9eac662-875e-4c89-b2d9-cb21b0ec9181","system_id":"levelo_inurba_marseille","lat":43.29621,"lon":5.37713,"is_reserved":false,"is_disabled":false,"rental_uris":{"android":"levelo://app?vid=b9eac662-875e-4c89-b2d9-cb21b0ec9181","ios":"levelo://app?vid=b9eac662-875e-4c89-b2d9-cb21b0ec9181"},"vehicle_type_id":"4","last_reported":1751465459,"current_range_meters":6800,"station_id":"ce4bgi92rcd13ifvqb90","pricing_plan_id":"cebpf4jnsgd1na2vs0mg"},{"bike_id":"00259bc2-0b86-4a46-88fd-514e8b7fa713","system_id":"levelo_inurba_marseille","lat":43.29983,"lon":5.3849,"is_reserved":false,"is_disabled":false,"rental_uris":{"android":"levelo://app?vid=00259bc2-0b86-4a46-88fd-514e8b7fa713","ios":"levelo://app?vid=00259bc2-0b86-4a46-88fd-514e8b7fa713"},"vehicle_type_id":"4","last_reported":1751465459,"current_range_meters":6800,"station_id":"ce4bgj92rcd13ifvqbd0","pricing_plan_id":"cebpf4jnsgd1na2vs0mg"},{"bike_id":"e2430de9-cad6-49aa-b197-42b4e49ed754","system_id":"levelo_inurba_marseille","lat":43.26027,"lon":5.37558,"is_reserved":false,"is_disabled":false,"rental_uris":{"android":"levelo://app?vid=e2430de9-cad6-49aa-b197-42b4e49ed754","ios":"levelo://app?vid=e2430de9-cad6-49aa-b197-42b4e49ed754"},"vehicle_type_id":"4","last_reported":1751465459,"current_range_meters":6800,"station_id":"ce4bhgh2rcd13ifvqfa0","pricing_plan_id":"cebpf4jnsgd1na2vs0mg"},{"bike_id":"45582d1e-a5bd-4941-81fd-b880af7c3844","system_id":"levelo_inurba_marseille","lat":43.24798,"lon":5.37455,"is_reserved":false,"is_disabled":false,"rental_uris":{"android":"levelo://app?vid=45582d1e-a5bd-4941-81fd-b880af7c3844","ios":"levelo://app?vid=45582d1e-a5bd-4941-81fd-b880af7c3844"},"vehicle_type_id":"4","last_reported":1751465459,"current_range_meters":6800,"station_id":"ce4bhgh2rcd13ifvqfb0","pricing_plan_id":"cebpf4jnsgd1na2vs0mg"},{"bike_id":"6e59d183-a595-4fe3-8bed-023513017794","system_id":"levelo_inurba_marseille","lat":43.30595,"lon":5.39362,"is_reserved":false,"is_disabled":false,"rental_uris":{"android":"levelo://app?vid=6e59d183-a595-4fe3-8bed-023513017794","ios":"levelo://app?vid=6e59d183-a595-4fe3-8bed-023513017794"},"vehicle_type_id":"4","last_reported":1751465459,"current_range_meters":8000,"station_id":"ce4bh0p2rcd13ifvqd80","pricing_plan_id":"cebpf4jnsgd1na2vs0mg"},{"bike_id":"95f1d30d-b29e-44aa-9e83-8857e13341e6","system_id":"levelo_inurba_marseille","lat":43.29032,"lon":5.38649,"is_reserved":false,"is_disabled":false,"rental_uris":{"android":"levelo://app?vid=95f1d30d-b29e-44aa-9e83-8857e13341e6","ios":"levelo://app?vid=95f1d30d-b29e-44aa-9e83-8857e13341e6"},"vehicle_type_id":"4","last_reported":1751465459,"current_range_meters":8000,"station_id":"ce4bh4p2rcd13ifvqe0g","pricing_plan_id":"cebpf4jnsgd1na2vs0mg"},{"bike_id":"d660df7c-ea66-45cb-9e4d-b26059d83eb3","system_id":"levelo_inurba_marseille","lat":43.29853,"lon":5.36284,"is_reserved":false,"is_disabled":false,"rental_uris":{"android":"levelo://app?vid=d660df7c-ea66-45cb-9e4d-b26059d83eb3","ios":"levelo://app?vid=d660df7c-ea66-45cb-9e4d-b26059d83eb3"},"vehicle_type_id":"4","last_reported":1751465459,"current_range_meters":8400,"station_id":"ce4bgpp2rcd13ifvqc3g","pricing_plan_id":"cebpf4jnsgd1na2vs0mg"},{"bike_id":"c2b72fe0-bae6-4c7b-ad48-9e771b203dc8","system_id":"levelo_inurba_marseille","lat":43.31342,"lon":5.38489,"is_reserved":false,"is_disabled":false,"rental_uris":{"android":"levelo://app?vid=c2b72fe0-bae6-4c7b-ad48-9e771b203dc8","ios":"levelo://app?vid=c2b72fe0-bae6-4c7b-ad48-9e771b203dc8"},"vehicle_type_id":"4","last_reported":1751465459,"current_range_meters":8400,"station_id":"ce4bgt92rcd13ifvqcf0","pricing_plan_id":"cebpf4jnsgd1na2vs0mg"},{"bike_id":"bef514b3-d3ec-45af-90ab-2d18e1e921fe","system_id":"levelo_inurba_marseille","lat":43.280488,"lon":5.369394,"is_reserved":false,"is_disabled":false,"rental_uris":{"android":"levelo://app?vid=bef514b3-d3ec-45af-90ab-2d18e1e921fe","ios":"levelo://app?vid=bef514b3-d3ec-45af-90ab-2d18e1e921fe"},"vehicle_type_id":"4","last_reported":1751465459,"current_range_meters":8400,"station_id":"ce4bha12rcd13ifvqef0","pricing_plan_id":"cebpf4jnsgd1na2vs0mg"},{"bike_id":"9821f952-bbba-48e5-ab32-96cc37ab64cd","system_id":"levelo_inurba_marseille","lat":43.28266,"lon":5.35065,"is_reserved":false,"is_disabled":false,"rental_uris":{"android":"levelo://app?vid=9821f952-bbba-48e5-ab32-96cc37ab64cd","ios":"levelo://app?vid=9821f952-bbba-48e5-ab32-96cc37ab64cd"},"vehicle_type_id":"4","last_reported":1751465459,"current_range_meters":8400,"station_id":"ce4bhbp2rcd13ifvqerg","pricing_plan_id":"cebpf4jnsgd1na2vs0mg"},{"bike_id":"f674fd7c-2296-4cf1-8c8c-1d92cc3e6c0b","system_id":"levelo_inurba_marseille","lat":43.29792,"lon":5.38107,"is_reserved":false,"is_disabled":false,"rental_uris":{"android":"levelo://app?vid=f674fd7c-2296-4cf1-8c8c-1d92cc3e6c0b","ios":"levelo://app?vid=f674fd7c-2296-4cf1-8c8c-1d92cc3e6c0b"},"vehicle_type_id":"4","last_reported":1751465459,"current_range_meters":8800,"station_id":"ce4bgip2rcd13ifvqbb0","pricing_plan_id":"cebpf4jnsgd1na2vs0mg"},{"bike_id":"f8b27160-c9cb-4c41-a9d0-c3a4efe550cf","system_id":"levelo_inurba_marseille","lat":43.2791,"lon":5.38015,"is_reserved":false,"is_disabled":false,"rental_uris":{"android":"levelo://app?vid=f8b27160-c9cb-4c41-a9d0-c3a4efe550cf","ios":"levelo://app?vid=f8b27160-c9cb-4c41-a9d0-c3a4efe550cf"},"vehicle_type_id":"4","last_reported":1751465459,"current_range_meters":8800,"station_id":"ce4bhf92rcd13ifvqf50","pricing_plan_id":"cebpf4jnsgd1na2vs0mg"},{"bike_id":"b17fc6fb-d31b-4c72-91dd-f8e10ff9036a","system_id":"levelo_inurba_marseille","lat":43.32474,"lon":5.36592,"is_reserved":false,"is_disabled":false,"rental_uris":{"android":"levelo://app?vid=b17fc6fb-d31b-4c72-91dd-f8e10ff9036a","ios":"levelo://app?vid=b17fc6fb-d31b-4c72-91dd-f8e10ff9036a"},"vehicle_type_id":"4","last_reported":1751465459,"current_range_meters":8800,"station_id":"ce4bhs12rcd13ifvqhvg","pricing_plan_id":"cebpf4jnsgd1na2vs0mg"},{"bike_id":"81f1e24f-d08a-449b-8e94-b3db1b3318b3","system_id":"levelo_inurba_marseille","lat":43.29788,"lon":5.39336,"is_reserved":false,"is_disabled":false,"rental_uris":{"android":"levelo://app?vid=81f1e24f-d08a-449b-8e94-b3db1b3318b3","ios":"levelo://app?vid=81f1e24f-d08a-449b-8e94-b3db1b3318b3"},"vehicle_type_id":"4","last_reported":1751465459,"current_range_meters":8800,"station_id":"chh1huq6cuj3fo74tm60","pricing_plan_id":"cebpf4jnsgd1na2vs0mg"},{"bike_id":"bc10016d-4c34-4787-811d-8a882d31f36d","system_id":"levelo_inurba_marseille","lat":43.28039,"lon":5.36948,"is_reserved":false,"is_disabled":false,"rental_uris":{"android":"levelo://app?vid=bc10016d-4c34-4787-811d-8a882d31f36d","ios":"levelo://app?vid=bc10016d-4c34-4787-811d-8a882d31f36d"},"vehicle_type_id":"4","last_reported":1751465459,"current_range_meters":9200,"station_id":"ce4bha12rcd13ifvqef0","pricing_plan_id":"cebpf4jnsgd1na2vs0mg"},{"bike_id":"1f18696f-b379-4d66-8d89-62b5fc2331de","system_id":"levelo_inurba_marseille","lat":43.29568,"lon":5.37525,"is_reserved":false,"is_disabled":false,"rental_uris":{"android":"levelo://app?vid=1f18696f-b379-4d66-8d89-62b5fc2331de","ios":"levelo://app?vid=1f18696f-b379-4d66-8d89-62b5fc2331de"},"vehicle_type_id":"4","last_reported":1751465459,"current_range_meters":9600,"station_id":"ce4bgh92rcd13ifvqb50","pricing_plan_id":"cebpf4jnsgd1na2vs0mg"},{"bike_id":"0b74faa0-1312-4d3d-9966-739eabbbc6ef","system_id":"levelo_inurba_marseille","lat":43.29773,"lon":5.37066,"is_reserved":false,"is_disabled":false,"rental_uris":{"android":"levelo://app?vid=0b74faa0-1312-4d3d-9966-739eabbbc6ef","ios":"levelo://app?vid=0b74faa0-1312-4d3d-9966-739eabbbc6ef"},"vehicle_type_id":"4","last_reported":1751465459,"current_range_meters":9600,"station_id":"ce4bgop2rcd13ifvqc1g","pricing_plan_id":"cebpf4jnsgd1na2vs0mg"},{"bike_id":"c60f5e9d-2bb7-4b07-bd18-bd400d9e6468","system_id":"levelo_inurba_marseille","lat":43.298562,"lon":5.362881,"is_reserved":false,"is_disabled":false,"rental_uris":{"android":"levelo://app?vid=c60f5e9d-2bb7-4b07-bd18-bd400d9e6468","ios":"levelo://app?vid=c60f5e9d-2bb7-4b07-bd18-bd400d9e6468"},"vehicle_type_id":"4","last_reported":1751465459,"current_range_meters":9600,"station_id":"ce4bgpp2rcd13ifvqc3g","pricing_plan_id":"cebpf4jnsgd1na2vs0mg"},{"bike_id":"c61036a9-1a66-4480-8bd4-cd2fb585b287","system_id":"levelo_inurba_marseille","lat":43.26994,"lon":5.40557,"is_reserved":false,"is_disabled":false,"rental_uris":{"android":"levelo://app?vid=c61036a9-1a66-4480-8bd4-cd2fb585b287","ios":"levelo://app?vid=c61036a9-1a66-4480-8bd4-cd2fb585b287"},"vehicle_type_id":"4","last_reported":1751465459,"current_range_meters":10000,"station_id":"","pricing_plan_id":"cebpf4jnsgd1na2vs0mg"},{"bike_id":"9865585a-732f-4f47-bedf-7fd8edd0c284","system_id":"levelo_inurba_marseille","lat":43.3021,"lon":5.39471,"is_reserved":false,"is_disabled":false,"rental_uris":{"android":"levelo://app?vid=9865585a-732f-4f47-bedf-7fd8edd0c284","ios":"levelo://app?vid=9865585a-732f-4f47-bedf-7fd8edd0c284"},"vehicle_type_id":"4","last_reported":1751465459,"current_range_meters":10000,"station_id":"ce4bh0p2rcd13ifvqd70","pricing_plan_id":"cebpf4jnsgd1na2vs0mg"},{"bike_id":"4d040ed5-4c5c-4d8a-9ac8-008ab43b43cf","system_id":"levelo_inurba_marseille","lat":43.28617,"lon":5.35103,"is_reserved":false,"is_disabled":false,"rental_uris":{"android":"levelo://app?vid=4d040ed5-4c5c-4d8a-9ac8-008ab43b43cf","ios":"levelo://app?vid=4d040ed5-4c5c-4d8a-9ac8-008ab43b43cf"},"vehicle_type_id":"4","last_reported":1751465459,"current_range_meters":10000,"station_id":"ce4bhch2rcd13ifvqeug","pricing_plan_id":"cebpf4jnsgd1na2vs0mg"},{"bike_id":"236573ce-44be-4412-91fa-2ccfea7904d8","system_id":"levelo_inurba_marseille","lat":43.30944,"lon":5.39034,"is_reserved":false,"is_disabled":false,"rental_uris":{"android":"levelo://app?vid=236573ce-44be-4412-91fa-2ccfea7904d8","ios":"levelo://app?vid=236573ce-44be-4412-91fa-2ccfea7904d8"},"vehicle_type_id":"4","last_reported":1751465459,"current_range_meters":10800,"station_id":"ce4bgup2rcd13ifvqco0","pricing_plan_id":"cebpf4jnsgd1na2vs0mg"},{"bike_id":"3a8db93e-f2f8-4cd0-878c-52a2c0c57b60","system_id":"levelo_inurba_marseille","lat":43.27324,"lon":5.39079,"is_reserved":false,"is_disabled":false,"rental_uris":{"android":"levelo://app?vid=3a8db93e-f2f8-4cd0-878c-52a2c0c57b60","ios":"levelo://app?vid=3a8db93e-f2f8-4cd0-878c-52a2c0c57b60"},"vehicle_type_id":"4","last_reported":1751465459,"current_range_meters":10800,"station_id":"ce4bhgp2rcd13ifvqfe0","pricing_plan_id":"cebpf4jnsgd1na2vs0mg"},{"bike_id":"866060ef-85cb-4809-9ff5-4426ac515ff0","system_id":"levelo_inurba_marseille","lat":43.28401,"lon":5.35014,"is_reserved":false,"is_disabled":false,"rental_uris":{"android":"levelo://app?vid=866060ef-85cb-4809-9ff5-4426ac515ff0","ios":"levelo://app?vid=866060ef-85cb-4809-9ff5-4426ac515ff0"},"vehicle_type_id":"4","last_reported":1751465459,"current_range_meters":11200,"station_id":"ce4bhbh2rcd13ifvqepg","pricing_plan_id":"cebpf4jnsgd1na2vs0mg"},{"bike_id":"5ea1dd93-3c49-4f8f-bb7f-00d3c982b0ae","system_id":"levelo_inurba_marseille","lat":43.22898,"lon":5.35392,"is_reserved":false,"is_disabled":false,"rental_uris":{"android":"levelo://app?vid=5ea1dd93-3c49-4f8f-bb7f-00d3c982b0ae","ios":"levelo://app?vid=5ea1dd93-3c49-4f8f-bb7f-00d3c982b0ae"},"vehicle_type_id":"4","last_reported":1751465459,"current_range_meters":11200,"station_id":"cpo3532slgdg3j2ikp40","pricing_plan_id":"cebpf4jnsgd1na2vs0mg"},{"bike_id":"b79620f2-8fe0-428a-90fd-9410e46a5969","system_id":"levelo_inurba_marseille","lat":43.30146,"lon":5.38073,"is_reserved":false,"is_disabled":false,"rental_uris":{"android":"levelo://app?vid=b79620f2-8fe0-428a-90fd-9410e46a5969","ios":"levelo://app?vid=b79620f2-8fe0-428a-90fd-9410e46a5969"},"vehicle_type_id":"4","last_reported":1751465459,"current_range_meters":11600,"station_id":"ce4bgjp2rcd13ifvqbh0","pricing_plan_id":"cebpf4jnsgd1na2vs0mg"},{"bike_id":"e4d1ad3b-8e7a-4ea7-be65-bd22f26cadb1","system_id":"levelo_inurba_marseille","lat":43.29968,"lon":5.37174,"is_reserved":false,"is_disabled":false,"rental_uris":{"android":"levelo://app?vid=e4d1ad3b-8e7a-4ea7-be65-bd22f26cadb1","ios":"levelo://app?vid=e4d1ad3b-8e7a-4ea7-be65-bd22f26cadb1"},"vehicle_type_id":"4","last_reported":1751465459,"current_range_meters":11600,"station_id":"ce4bgr92rcd13ifvqc7g","pricing_plan_id":"cebpf4jnsgd1na2vs0mg"},{"bike_id":"7162ef69-1564-49b0-bd4d-645d806c80fc","system_id":"levelo_inurba_marseille","lat":43.28615,"lon":5.35105,"is_reserved":false,"is_disabled":false,"rental_uris":{"android":"levelo://app?vid=7162ef69-1564-49b0-bd4d-645d806c80fc","ios":"levelo://app?vid=7162ef69-1564-49b0-bd4d-645d806c80fc"},"vehicle_type_id":"4","last_reported":1751465459,"current_range_meters":11600,"station_id":"ce4bhch2rcd13ifvqeug","pricing_plan_id":"cebpf4jnsgd1na2vs0mg"},{"bike_id":"3e51a962-9517-4c4f-8cbc-8bb249d2b71f","system_id":"levelo_inurba_marseille","lat":43.22932,"lon":5.3538,"is_reserved":false,"is_disabled":false,"rental_uris":{"android":"levelo://app?vid=3e51a962-9517-4c4f-8cbc-8bb249d2b71f","ios":"levelo://app?vid=3e51a962-9517-4c4f-8cbc-8bb249d2b71f"},"vehicle_type_id":"4","last_reported":1751465459,"current_range_meters":11600,"station_id":"cpo3532slgdg3j2ikp40","pricing_plan_id":"cebpf4jnsgd1na2vs0mg"},{"bike_id":"dd83ff4a-489b-401d-8bba-09dcd9f97984","system_id":"levelo_inurba_marseille","lat":43.29297,"lon":5.37451,"is_reserved":false,"is_disabled":false,"rental_uris":{"android":"levelo://app?vid=dd83ff4a-489b-401d-8bba-09dcd9f97984","ios":"levelo://app?vid=dd83ff4a-489b-401d-8bba-09dcd9f97984"},"vehicle_type_id":"4","last_reported":1751465459,"current_range_meters":12000,"station_id":"ce4bgi12rcd13ifvqb70","pricing_plan_id":"cebpf4jnsgd1na2vs0mg"},{"bike_id":"39ec04f9-f0c9-41a0-8db8-3258380a9d95","system_id":"levelo_inurba_marseille","lat":43.31324,"lon":5.39689,"is_reserved":false,"is_disabled":false,"rental_uris":{"android":"levelo://app?vid=39ec04f9-f0c9-41a0-8db8-3258380a9d95","ios":"levelo://app?vid=39ec04f9-f0c9-41a0-8db8-3258380a9d95"},"vehicle_type_id":"4","last_reported":1751465459,"current_range_meters":12000,"station_id":"ce4bgvp2rcd13ifvqcu0","pricing_plan_id":"cebpf4jnsgd1na2vs0mg"},{"bike_id":"f1b0fb11-995a-4fc4-a850-6d6c4627dfdf","system_id":"levelo_inurba_marseille","lat":43.26789,"lon":5.39414,"is_reserved":false,"is_disabled":false,"rental_uris":{"android":"levelo://app?vid=f1b0fb11-995a-4fc4-a850-6d6c4627dfdf","ios":"levelo://app?vid=f1b0fb11-995a-4fc4-a850-6d6c4627dfdf"},"vehicle_type_id":"4","last_reported":1751465459,"current_range_meters":12000,"station_id":"ce4bhh12rcd13ifvqfg0","pricing_plan_id":"cebpf4jnsgd1na2vs0mg"},{"bike_id":"410818c9-986d-48cf-9395-f2167db1d408","system_id":"levelo_inurba_marseille","lat":43.28406,"lon":5.34997,"is_reserved":false,"is_disabled":false,"rental_uris":{"android":"levelo://app?vid=410818c9-986d-48cf-9395-f2167db1d408","ios":"levelo://app?vid=410818c9-986d-48cf-9395-f2167db1d408"},"vehicle_type_id":"4","last_reported":1751465459,"current_range_meters":12400,"station_id":"ce4bhbh2rcd13ifvqepg","pricing_plan_id":"cebpf4jnsgd1na2vs0mg"},{"bike_id":"4e10570e-e278-43eb-acf0-f81d0d1d021b","system_id":"levelo_inurba_marseille","lat":43.26558,"lon":5.37294,"is_reserved":false,"is_disabled":false,"rental_uris":{"android":"levelo://app?vid=4e10570e-e278-43eb-acf0-f81d0d1d021b","ios":"levelo://app?vid=4e10570e-e278-43eb-acf0-f81d0d1d021b"},"vehicle_type_id":"4","last_reported":1751465459,"current_range_meters":12400,"station_id":"ce4bhg12rcd13ifvqf70","pricing_plan_id":"cebpf4jnsgd1na2vs0mg"},{"bike_id":"b611b3f5-3f31-4f7d-b18b-662bc5e16b20","system_id":"levelo_inurba_marseille","lat":43.25722,"lon":5.41109,"is_reserved":false,"is_disabled":false,"rental_uris":{"android":"levelo://app?vid=b611b3f5-3f31-4f7d-b18b-662bc5e16b20","ios":"levelo://app?vid=b611b3f5-3f31-4f7d-b18b-662bc5e16b20"},"vehicle_type_id":"4","last_reported":1751465459,"current_range_meters":12400,"station_id":"ce4bhkp2rcd13ifvqgd0","pricing_plan_id":"cebpf4jnsgd1na2vs0mg"},{"bike_id":"9e9d49bf-1ce1-42f3-850f-8cc2bf364bdd","system_id":"levelo_inurba_marseille","lat":43.31084,"lon":5.42434,"is_reserved":false,"is_disabled":false,"rental_uris":{"android":"levelo://app?vid=9e9d49bf-1ce1-42f3-850f-8cc2bf364bdd","ios":"levelo://app?vid=9e9d49bf-1ce1-42f3-850f-8cc2bf364bdd"},"vehicle_type_id":"4","last_reported":1751465459,"current_range_meters":12400,"station_id":"ce4bhp92rcd13ifvqhag","pricing_plan_id":"cebpf4jnsgd1na2vs0mg"},{"bike_id":"798a1942-485f-4293-94d0-d317e38b17a6","system_id":"levelo_inurba_marseille","lat":43.29782,"lon":5.37105,"is_reserved":false,"is_disabled":false,"rental_uris":{"android":"levelo://app?vid=798a1942-485f-4293-94d0-d317e38b17a6","ios":"levelo://app?vid=798a1942-485f-4293-94d0-d317e38b17a6"},"vehicle_type_id":"4","last_reported":1751465459,"current_range_meters":12800,"station_id":"ce4bgop2rcd13ifvqc1g","pricing_plan_id":"cebpf4jnsgd1na2vs0mg"},{"bike_id":"c1b44335-2c20-4553-bd77-28e1455d1cb8","system_id":"levelo_inurba_marseille","lat":43.28611,"lon":5.35103,"is_reserved":false,"is_disabled":false,"rental_uris":{"android":"levelo://app?vid=c1b44335-2c20-4553-bd77-28e1455d1cb8","ios":"levelo://app?vid=c1b44335-2c20-4553-bd77-28e1455d1cb8"},"vehicle_type_id":"4","last_reported":1751465459,"current_range_meters":12800,"station_id":"ce4bhch2rcd13ifvqeug","pricing_plan_id":"cebpf4jnsgd1na2vs0mg"},{"bike_id":"c2cc3873-3136-4ba7-984d-6514f2a6bcc2","system_id":"levelo_inurba_marseille","lat":43.26692,"lon":5.3827,"is_reserved":false,"is_disabled":false,"rental_uris":{"android":"levelo://app?vid=c2cc3873-3136-4ba7-984d-6514f2a6bcc2","ios":"levelo://app?vid=c2cc3873-3136-4ba7-984d-6514f2a6bcc2"},"vehicle_type_id":"4","last_reported":1751465459,"current_range_meters":12800,"station_id":"ce4bhg92rcd13ifvqf90","pricing_plan_id":"cebpf4jnsgd1na2vs0mg"},{"bike_id":"c899bdeb-e8c8-487d-a5a5-00dc09ddabfe","system_id":"levelo_inurba_marseille","lat":43.34139,"lon":5.40912,"is_reserved":false,"is_disabled":false,"rental_uris":{"android":"levelo://app?vid=c899bdeb-e8c8-487d-a5a5-00dc09ddabfe","ios":"levelo://app?vid=c899bdeb-e8c8-487d-a5a5-00dc09ddabfe"},"vehicle_type_id":"4","last_reported":1751465459,"current_range_meters":12800,"station_id":"ce4bhqh2rcd13ifvqhlg","pricing_plan_id":"cebpf4jnsgd1na2vs0mg"},{"bike_id":"ee0317a9-0b3d-4631-9294-b4dddc155611","system_id":"levelo_inurba_marseille","lat":43.32354,"lon":5.36704,"is_reserved":false,"is_disabled":false,"rental_uris":{"android":"levelo://app?vid=ee0317a9-0b3d-4631-9294-b4dddc155611","ios":"levelo://app?vid=ee0317a9-0b3d-4631-9294-b4dddc155611"},"vehicle_type_id":"4","last_reported":1751465459,"current_range_meters":12800,"station_id":"ce4bhsh2rcd13ifvqi2g","pricing_plan_id":"cebpf4jnsgd1na2vs0mg"},{"bike_id":"d16b9dec-c438-4000-91c8-6cda5b0545dc","system_id":"levelo_inurba_marseille","lat":43.248913,"lon":5.375211,"is_reserved":false,"is_disabled":false,"rental_uris":{"android":"levelo://app?vid=d16b9dec-c438-4000-91c8-6cda5b0545dc","ios":"levelo://app?vid=d16b9dec-c438-4000-91c8-6cda5b0545dc"},"vehicle_type_id":"4","last_reported":1751465459,"current_range_meters":13600,"station_id":"","pricing_plan_id":"cebpf4jnsgd1na2vs0mg"},{"bike_id":"471769d9-3f22-4fd4-ad6c-a8e34f11dc0c","system_id":"levelo_inurba_marseille","lat":43.27361,"lon":5.3625,"is_reserved":false,"is_disabled":false,"rental_uris":{"android":"levelo://app?vid=471769d9-3f22-4fd4-ad6c-a8e34f11dc0c","ios":"levelo://app?vid=471769d9-3f22-4fd4-ad6c-a8e34f11dc0c"},"vehicle_type_id":"4","last_reported":1751465459,"current_range_meters":13600,"station_id":"ce4bhbh2rcd13ifvqeo0","pricing_plan_id":"cebpf4jnsgd1na2vs0mg"},{"bike_id":"e707c510-ad27-462c-addc-980aa8cb525b","system_id":"levelo_inurba_marseille","lat":43.282601,"lon":5.350189,"is_reserved":false,"is_disabled":false,"rental_uris":{"android":"levelo://app?vid=e707c510-ad27-462c-addc-980aa8cb525b","ios":"levelo://app?vid=e707c510-ad27-462c-addc-980aa8cb525b"},"vehicle_type_id":"4","last_reported":1751465459,"current_range_meters":13600,"station_id":"ce4bhbp2rcd13ifvqerg","pricing_plan_id":"cebpf4jnsgd1na2vs0mg"},{"bike_id":"f00e3044-9bd1-48b5-b342-151af21b34fa","system_id":"levelo_inurba_marseille","lat":43.299815,"lon":5.374217,"is_reserved":false,"is_disabled":false,"rental_uris":{"android":"levelo://app?vid=f00e3044-9bd1-48b5-b342-151af21b34fa","ios":"levelo://app?vid=f00e3044-9bd1-48b5-b342-151af21b34fa"},"vehicle_type_id":"4","last_reported":1751465459,"current_range_meters":14000,"station_id":"","pricing_plan_id":"cebpf4jnsgd1na2vs0mg"},{"bike_id":"f4096df9-9a50-4893-821c-b524752b296f","system_id":"levelo_inurba_marseille","lat":43.30909,"lon":5.36848,"is_reserved":false,"is_disabled":false,"rental_uris":{"android":"levelo://app?vid=f4096df9-9a50-4893-821c-b524752b296f","ios":"levelo://app?vid=f4096df9-9a50-4893-821c-b524752b296f"},"vehicle_type_id":"4","last_reported":1751465459,"current_range_meters":14000,"station_id":"ce4bgn92rcd13ifvqbvg","pricing_plan_id":"cebpf4jnsgd1na2vs0mg"},{"bike_id":"c299668c-707f-458a-af89-dd211b5a960a","system_id":"levelo_inurba_marseille","lat":43.27367,"lon":5.36259,"is_reserved":false,"is_disabled":false,"rental_uris":{"android":"levelo://app?vid=c299668c-707f-458a-af89-dd211b5a960a","ios":"levelo://app?vid=c299668c-707f-458a-af89-dd211b5a960a"},"vehicle_type_id":"4","last_reported":1751465459,"current_range_meters":14000,"station_id":"ce4bhbh2rcd13ifvqeo0","pricing_plan_id":"cebpf4jnsgd1na2vs0mg"},{"bike_id":"06bb1293-77e2-44a3-9e10-1607407328dc","system_id":"levelo_inurba_marseille","lat":43.28388,"lon":5.34994,"is_reserved":false,"is_disabled":false,"rental_uris":{"android":"levelo://app?vid=06bb1293-77e2-44a3-9e10-1607407328dc","ios":"levelo://app?vid=06bb1293-77e2-44a3-9e10-1607407328dc"},"vehicle_type_id":"4","last_reported":1751465459,"current_range_meters":14000,"station_id":"ce4bhbh2rcd13ifvqepg","pricing_plan_id":"cebpf4jnsgd1na2vs0mg"},{"bike_id":"a8e7bc4b-d124-4cb7-89d1-1fe7d847cf45","system_id":"levelo_inurba_marseille","lat":43.2827,"lon":5.35076,"is_reserved":false,"is_disabled":false,"rental_uris":{"android":"levelo://app?vid=a8e7bc4b-d124-4cb7-89d1-1fe7d847cf45","ios":"levelo://app?vid=a8e7bc4b-d124-4cb7-89d1-1fe7d847cf45"},"vehicle_type_id":"4","last_reported":1751465459,"current_range_meters":14000,"station_id":"ce4bhbp2rcd13ifvqerg","pricing_plan_id":"cebpf4jnsgd1na2vs0mg"},{"bike_id":"f18de023-b1e4-493a-8d26-e55a540b0ae0","system_id":"levelo_inurba_marseille","lat":43.24806,"lon":5.37459,"is_reserved":false,"is_disabled":false,"rental_uris":{"android":"levelo://app?vid=f18de023-b1e4-493a-8d26-e55a540b0ae0","ios":"levelo://app?vid=f18de023-b1e4-493a-8d26-e55a540b0ae0"},"vehicle_type_id":"4","last_reported":1751465459,"current_range_meters":14000,"station_id":"ce4bhgh2rcd13ifvqfb0","pricing_plan_id":"cebpf4jnsgd1na2vs0mg"},{"bike_id":"8e8cddb0-8397-4022-8248-f9f14cc3d8a3","system_id":"levelo_inurba_marseille","lat":43.29571,"lon":5.37517,"is_reserved":false,"is_disabled":false,"rental_uris":{"android":"levelo://app?vid=8e8cddb0-8397-4022-8248-f9f14cc3d8a3","ios":"levelo://app?vid=8e8cddb0-8397-4022-8248-f9f14cc3d8a3"},"vehicle_type_id":"4","last_reported":1751465459,"current_range_meters":14400,"station_id":"ce4bgh92rcd13ifvqb50","pricing_plan_id":"cebpf4jnsgd1na2vs0mg"},{"bike_id":"ffa93404-2dc5-4c70-9c0b-83bca63215be","system_id":"levelo_inurba_marseille","lat":43.30567,"lon":5.36543,"is_reserved":false,"is_disabled":false,"rental_uris":{"android":"levelo://app?vid=ffa93404-2dc5-4c70-9c0b-83bca63215be","ios":"levelo://app?vid=ffa93404-2dc5-4c70-9c0b-83bca63215be"},"vehicle_type_id":"4","last_reported":1751465459,"current_range_meters":14400,"station_id":"ce4bgs12rcd13ifvqcag","pricing_plan_id":"cebpf4jnsgd1na2vs0mg"},{"bike_id":"fceda969-68a5-4b03-88cb-071fd851bccd","system_id":"levelo_inurba_marseille","lat":43.28415,"lon":5.34991,"is_reserved":false,"is_disabled":false,"rental_uris":{"android":"levelo://app?vid=fceda969-68a5-4b03-88cb-071fd851bccd","ios":"levelo://app?vid=fceda969-68a5-4b03-88cb-071fd851bccd"},"vehicle_type_id":"4","last_reported":1751465459,"current_range_meters":14400,"station_id":"ce4bhbh2rcd13ifvqepg","pricing_plan_id":"cebpf4jnsgd1na2vs0mg"},{"bike_id":"20091f48-2484-4648-830a-6c5a0d1eb3bd","system_id":"levelo_inurba_marseille","lat":43.26942,"lon":5.38915,"is_reserved":false,"is_disabled":false,"rental_uris":{"android":"levelo://app?vid=20091f48-2484-4648-830a-6c5a0d1eb3bd","ios":"levelo://app?vid=20091f48-2484-4648-830a-6c5a0d1eb3bd"},"vehicle_type_id":"4","last_reported":1751465459,"current_range_meters":14400,"station_id":"ce4bhhh2rcd13ifvqfl0","pricing_plan_id":"cebpf4jnsgd1na2vs0mg"},{"bike_id":"5f7a5c92-cf19-428f-a6d6-a37c8e43b9e3","system_id":"levelo_inurba_marseille","lat":43.23196,"lon":5.35553,"is_reserved":false,"is_disabled":false,"rental_uris":{"android":"levelo://app?vid=5f7a5c92-cf19-428f-a6d6-a37c8e43b9e3","ios":"levelo://app?vid=5f7a5c92-cf19-428f-a6d6-a37c8e43b9e3"},"vehicle_type_id":"4","last_reported":1751465459,"current_range_meters":14400,"station_id":"ce4bhu92rcd13ifvqi70","pricing_plan_id":"cebpf4jnsgd1na2vs0mg"},{"bike_id":"dbe6a7d8-6edc-4015-8658-f68eeb46a661","system_id":"levelo_inurba_marseille","lat":43.33438,"lon":5.39918,"is_reserved":false,"is_disabled":false,"rental_uris":{"android":"levelo://app?vid=dbe6a7d8-6edc-4015-8658-f68eeb46a661","ios":"levelo://app?vid=dbe6a7d8-6edc-4015-8658-f68eeb46a661"},"vehicle_type_id":"4","last_reported":1751465459,"current_range_meters":14800,"station_id":"","pricing_plan_id":"cebpf4jnsgd1na2vs0mg"},{"bike_id":"b28aa0a0-791c-4a08-9a16-c7bf6ea0ed5a","system_id":"levelo_inurba_marseille","lat":43.22506,"lon":5.34784,"is_reserved":false,"is_disabled":false,"rental_uris":{"android":"levelo://app?vid=b28aa0a0-791c-4a08-9a16-c7bf6ea0ed5a","ios":"levelo://app?vid=b28aa0a0-791c-4a08-9a16-c7bf6ea0ed5a"},"vehicle_type_id":"4","last_reported":1751465459,"current_range_meters":14800,"station_id":"","pricing_plan_id":"cebpf4jnsgd1na2vs0mg"},{"bike_id":"e943da54-3501-401d-992b-b15d62930450","system_id":"levelo_inurba_marseille","lat":43.27367,"lon":5.3626,"is_reserved":false,"is_disabled":false,"rental_uris":{"android":"levelo://app?vid=e943da54-3501-401d-992b-b15d62930450","ios":"levelo://app?vid=e943da54-3501-401d-992b-b15d62930450"},"vehicle_type_id":"4","last_reported":1751465459,"current_range_meters":14800,"station_id":"ce4bhbh2rcd13ifvqeo0","pricing_plan_id":"cebpf4jnsgd1na2vs0mg"},{"bike_id":"7d1bbfbb-c70e-48d3-8f4b-baf5b1ca8b77","system_id":"levelo_inurba_marseille","lat":43.28421,"lon":5.35009,"is_reserved":false,"is_disabled":false,"rental_uris":{"android":"levelo://app?vid=7d1bbfbb-c70e-48d3-8f4b-baf5b1ca8b77","ios":"levelo://app?vid=7d1bbfbb-c70e-48d3-8f4b-baf5b1ca8b77"},"vehicle_type_id":"4","last_reported":1751465459,"current_range_meters":14800,"station_id":"ce4bhbh2rcd13ifvqepg","pricing_plan_id":"cebpf4jnsgd1na2vs0mg"},{"bike_id":"b6db9e3f-26b1-4030-aaa1-6ee95deb3e82","system_id":"levelo_inurba_marseille","lat":43.250156,"lon":5.389134,"is_reserved":false,"is_disabled":false,"rental_uris":{"android":"levelo://app?vid=b6db9e3f-26b1-4030-aaa1-6ee95deb3e82","ios":"levelo://app?vid=b6db9e3f-26b1-4030-aaa1-6ee95deb3e82"},"vehicle_type_id":"4","last_reported":1751465459,"current_range_meters":14800,"station_id":"ce4bhgp2rcd13ifvqfd0","pricing_plan_id":"cebpf4jnsgd1na2vs0mg"},{"bike_id":"c400833b-c8a1-40aa-a007-18a770a9e402","system_id":"levelo_inurba_marseille","lat":43.21756,"lon":5.34595,"is_reserved":false,"is_disabled":false,"rental_uris":{"android":"levelo://app?vid=c400833b-c8a1-40aa-a007-18a770a9e402","ios":"levelo://app?vid=c400833b-c8a1-40aa-a007-18a770a9e402"},"vehicle_type_id":"4","last_reported":1751465459,"current_range_meters":14800,"station_id":"st_cvj6r9ubvosntc0bgbag","pricing_plan_id":"cebpf4jnsgd1na2vs0mg"},{"bike_id":"7e62b058-a7ed-4634-80f1-04d3de596de7","system_id":"levelo_inurba_marseille","lat":43.29864,"lon":5.36821,"is_reserved":false,"is_disabled":false,"rental_uris":{"android":"levelo://app?vid=7e62b058-a7ed-4634-80f1-04d3de596de7","ios":"levelo://app?vid=7e62b058-a7ed-4634-80f1-04d3de596de7"},"vehicle_type_id":"4","last_reported":1751465459,"current_range_meters":15200,"station_id":"","pricing_plan_id":"cebpf4jnsgd1na2vs0mg"},{"bike_id":"f4d73d5c-d7f4-4eb9-ab28-a3205b456efb","system_id":"levelo_inurba_marseille","lat":43.27617,"lon":5.36103,"is_reserved":false,"is_disabled":false,"rental_uris":{"android":"levelo://app?vid=f4d73d5c-d7f4-4eb9-ab28-a3205b456efb","ios":"levelo://app?vid=f4d73d5c-d7f4-4eb9-ab28-a3205b456efb"},"vehicle_type_id":"4","last_reported":1751465459,"current_range_meters":15200,"station_id":"ce4bgj92rcd13ifvqbe0","pricing_plan_id":"cebpf4jnsgd1na2vs0mg"},{"bike_id":"2921f4f6-765d-4442-b098-ef9222e90e04","system_id":"levelo_inurba_marseille","lat":43.26227,"lon":5.40451,"is_reserved":false,"is_disabled":false,"rental_uris":{"android":"levelo://app?vid=2921f4f6-765d-4442-b098-ef9222e90e04","ios":"levelo://app?vid=2921f4f6-765d-4442-b098-ef9222e90e04"},"vehicle_type_id":"4","last_reported":1751465459,"current_range_meters":15200,"station_id":"ce4bhmh2rcd13ifvqgmg","pricing_plan_id":"cebpf4jnsgd1na2vs0mg"},{"bike_id":"91745883-db59-47c5-acc7-f039a84201aa","system_id":"levelo_inurba_marseille","lat":43.32369,"lon":5.38886,"is_reserved":false,"is_disabled":false,"rental_uris":{"android":"levelo://app?vid=91745883-db59-47c5-acc7-f039a84201aa","ios":"levelo://app?vid=91745883-db59-47c5-acc7-f039a84201aa"},"vehicle_type_id":"4","last_reported":1751465459,"current_range_meters":15200,"station_id":"ce4bhqp2rcd13ifvqhog","pricing_plan_id":"cebpf4jnsgd1na2vs0mg"},{"bike_id":"57733d63-5a2f-43b7-bac4-74e57d9385ed","system_id":"levelo_inurba_marseille","lat":43.30316,"lon":5.36893,"is_reserved":false,"is_disabled":false,"rental_uris":{"android":"levelo://app?vid=57733d63-5a2f-43b7-bac4-74e57d9385ed","ios":"levelo://app?vid=57733d63-5a2f-43b7-bac4-74e57d9385ed"},"vehicle_type_id":"4","last_reported":1751465459,"current_range_meters":16000,"station_id":"ce4bgqh2rcd13ifvqc5g","pricing_plan_id":"cebpf4jnsgd1na2vs0mg"},{"bike_id":"d0662380-6c57-48cb-bca9-0e06c31eaa27","system_id":"levelo_inurba_marseille","lat":43.27376,"lon":5.36281,"is_reserved":false,"is_disabled":false,"rental_uris":{"android":"levelo://app?vid=d0662380-6c57-48cb-bca9-0e06c31eaa27","ios":"levelo://app?vid=d0662380-6c57-48cb-bca9-0e06c31eaa27"},"vehicle_type_id":"4","last_reported":1751465459,"current_range_meters":16000,"station_id":"ce4bhbh2rcd13ifvqeo0","pricing_plan_id":"cebpf4jnsgd1na2vs0mg"},{"bike_id":"17ad145c-f881-4017-969d-c8638a36a818","system_id":"levelo_inurba_marseille","lat":43.26541,"lon":5.39002,"is_reserved":false,"is_disabled":false,"rental_uris":{"android":"levelo://app?vid=17ad145c-f881-4017-969d-c8638a36a818","ios":"levelo://app?vid=17ad145c-f881-4017-969d-c8638a36a818"},"vehicle_type_id":"4","last_reported":1751465459,"current_range_meters":16000,"station_id":"ce4bhe12rcd13ifvqf30","pricing_plan_id":"cebpf4jnsgd1na2vs0mg"},{"bike_id":"50119bc3-7ad7-4995-9323-37466330f4b3","system_id":"levelo_inurba_marseille","lat":43.25504,"lon":5.37651,"is_reserved":false,"is_disabled":false,"rental_uris":{"android":"levelo://app?vid=50119bc3-7ad7-4995-9323-37466330f4b3","ios":"levelo://app?vid=50119bc3-7ad7-4995-9323-37466330f4b3"},"vehicle_type_id":"4","last_reported":1751465459,"current_range_meters":16000,"station_id":"ce4bhh12rcd13ifvqff0","pricing_plan_id":"cebpf4jnsgd1na2vs0mg"},{"bike_id":"56eb3fdf-ea87-4fcf-85df-3680fa66363e","system_id":"levelo_inurba_marseille","lat":43.2249,"lon":5.34804,"is_reserved":false,"is_disabled":false,"rental_uris":{"android":"levelo://app?vid=56eb3fdf-ea87-4fcf-85df-3680fa66363e","ios":"levelo://app?vid=56eb3fdf-ea87-4fcf-85df-3680fa66363e"},"vehicle_type_id":"4","last_reported":1751465459,"current_range_meters":16000,"station_id":"st_cvj5dfep6f1abm77gieg","pricing_plan_id":"cebpf4jnsgd1na2vs0mg"},{"bike_id":"bcfd0eda-b9ab-4bec-9ca3-3f2b86617415","system_id":"levelo_inurba_marseille","lat":43.21185,"lon":5.35085,"is_reserved":false,"is_disabled":false,"rental_uris":{"android":"levelo://app?vid=bcfd0eda-b9ab-4bec-9ca3-3f2b86617415","ios":"levelo://app?vid=bcfd0eda-b9ab-4bec-9ca3-3f2b86617415"},"vehicle_type_id":"4","last_reported":1751465459,"current_range_meters":16000,"station_id":"st_cvj6sg6p6f1abm77japg","pricing_plan_id":"cebpf4jnsgd1na2vs0mg"},{"bike_id":"16a8afe6-e43e-4d1b-a7bd-ed83d113735a","system_id":"levelo_inurba_marseille","lat":43.32436,"lon":5.41185,"is_reserved":false,"is_disabled":false,"rental_uris":{"android":"levelo://app?vid=16a8afe6-e43e-4d1b-a7bd-ed83d113735a","ios":"levelo://app?vid=16a8afe6-e43e-4d1b-a7bd-ed83d113735a"},"vehicle_type_id":"4","last_reported":1751465459,"current_range_meters":16400,"station_id":"","pricing_plan_id":"cebpf4jnsgd1na2vs0mg"},{"bike_id":"752a7229-d138-4522-8787-0bb67b470949","system_id":"levelo_inurba_marseille","lat":43.31856,"lon":5.37628,"is_reserved":false,"is_disabled":false,"rental_uris":{"android":"levelo://app?vid=752a7229-d138-4522-8787-0bb67b470949","ios":"levelo://app?vid=752a7229-d138-4522-8787-0bb67b470949"},"vehicle_type_id":"4","last_reported":1751465459,"current_range_meters":16400,"station_id":"","pricing_plan_id":"cebpf4jnsgd1na2vs0mg"},{"bike_id":"a0cef316-ad95-4855-8f78-a31341a2b90e","system_id":"levelo_inurba_marseille","lat":43.31274,"lon":5.37751,"is_reserved":false,"is_disabled":false,"rental_uris":{"android":"levelo://app?vid=a0cef316-ad95-4855-8f78-a31341a2b90e","ios":"levelo://app?vid=a0cef316-ad95-4855-8f78-a31341a2b90e"},"vehicle_type_id":"4","last_reported":1751465459,"current_range_meters":16400,"station_id":"","pricing_plan_id":"cebpf4jnsgd1na2vs0mg"},{"bike_id":"c5e094ee-7885-42b9-806d-7288db0f9ebc","system_id":"levelo_inurba_marseille","lat":43.2737,"lon":5.36257,"is_reserved":false,"is_disabled":false,"rental_uris":{"android":"levelo://app?vid=c5e094ee-7885-42b9-806d-7288db0f9ebc","ios":"levelo://app?vid=c5e094ee-7885-42b9-806d-7288db0f9ebc"},"vehicle_type_id":"4","last_reported":1751465459,"current_range_meters":16400,"station_id":"ce4bhbh2rcd13ifvqeo0","pricing_plan_id":"cebpf4jnsgd1na2vs0mg"},{"bike_id":"331745a6-416e-4697-a3b9-8b6ec98fb01a","system_id":"levelo_inurba_marseille","lat":43.28415,"lon":5.35,"is_reserved":false,"is_disabled":false,"rental_uris":{"android":"levelo://app?vid=331745a6-416e-4697-a3b9-8b6ec98fb01a","ios":"levelo://app?vid=331745a6-416e-4697-a3b9-8b6ec98fb01a"},"vehicle_type_id":"4","last_reported":1751465459,"current_range_meters":16400,"station_id":"ce4bhbh2rcd13ifvqepg","pricing_plan_id":"cebpf4jnsgd1na2vs0mg"},{"bike_id":"a4fa0864-a85b-4e58-80fb-f707fbcf1f52","system_id":"levelo_inurba_marseille","lat":43.28419,"lon":5.35007,"is_reserved":false,"is_disabled":false,"rental_uris":{"android":"levelo://app?vid=a4fa0864-a85b-4e58-80fb-f707fbcf1f52","ios":"levelo://app?vid=a4fa0864-a85b-4e58-80fb-f707fbcf1f52"},"vehicle_type_id":"4","last_reported":1751465459,"current_range_meters":16400,"station_id":"ce4bhbh2rcd13ifvqepg","pricing_plan_id":"cebpf4jnsgd1na2vs0mg"},{"bike_id":"e467ca1e-9e47-47ff-bb80-3ec54d0ff404","system_id":"levelo_inurba_marseille","lat":43.26781,"lon":5.39406,"is_reserved":false,"is_disabled":false,"rental_uris":{"android":"levelo://app?vid=e467ca1e-9e47-47ff-bb80-3ec54d0ff404","ios":"levelo://app?vid=e467ca1e-9e47-47ff-bb80-3ec54d0ff404"},"vehicle_type_id":"4","last_reported":1751465459,"current_range_meters":16400,"station_id":"ce4bhh12rcd13ifvqfg0","pricing_plan_id":"cebpf4jnsgd1na2vs0mg"},{"bike_id":"110be0f7-19b6-4419-935c-8afdb1f29359","system_id":"levelo_inurba_marseille","lat":43.21198,"lon":5.35073,"is_reserved":false,"is_disabled":false,"rental_uris":{"android":"levelo://app?vid=110be0f7-19b6-4419-935c-8afdb1f29359","ios":"levelo://app?vid=110be0f7-19b6-4419-935c-8afdb1f29359"},"vehicle_type_id":"4","last_reported":1751465459,"current_range_meters":16400,"station_id":"st_cvj6sg6p6f1abm77japg","pricing_plan_id":"cebpf4jnsgd1na2vs0mg"},{"bike_id":"959e6f20-8ed0-4d36-bc1d-3efb82d6190b","system_id":"levelo_inurba_marseille","lat":43.21187,"lon":5.35083,"is_reserved":false,"is_disabled":false,"rental_uris":{"android":"levelo://app?vid=959e6f20-8ed0-4d36-bc1d-3efb82d6190b","ios":"levelo://app?vid=959e6f20-8ed0-4d36-bc1d-3efb82d6190b"},"vehicle_type_id":"4","last_reported":1751465459,"current_range_meters":16400,"station_id":"st_cvj6sg6p6f1abm77japg","pricing_plan_id":"cebpf4jnsgd1na2vs0mg"},{"bike_id":"5873b045-e842-413a-b29d-3834672b1bb3","system_id":"levelo_inurba_marseille","lat":43.29569,"lon":5.36747,"is_reserved":false,"is_disabled":false,"rental_uris":{"android":"levelo://app?vid=5873b045-e842-413a-b29d-3834672b1bb3","ios":"levelo://app?vid=5873b045-e842-413a-b29d-3834672b1bb3"},"vehicle_type_id":"4","last_reported":1751465459,"current_range_meters":16800,"station_id":"ce4bgph2rcd13ifvqc2g","pricing_plan_id":"cebpf4jnsgd1na2vs0mg"},{"bike_id":"66b95df9-0dd6-4c05-bac6-ac07bfef01d5","system_id":"levelo_inurba_marseille","lat":43.30466,"lon":5.3791,"is_reserved":false,"is_disabled":false,"rental_uris":{"android":"levelo://app?vid=66b95df9-0dd6-4c05-bac6-ac07bfef01d5","ios":"levelo://app?vid=66b95df9-0dd6-4c05-bac6-ac07bfef01d5"},"vehicle_type_id":"4","last_reported":1751465459,"current_range_meters":16800,"station_id":"ce4bgup2rcd13ifvqcn0","pricing_plan_id":"cebpf4jnsgd1na2vs0mg"},{"bike_id":"0e030323-4386-4e72-9a0d-0f6a2ff539de","system_id":"levelo_inurba_marseille","lat":43.29613,"lon":5.40572,"is_reserved":false,"is_disabled":false,"rental_uris":{"android":"levelo://app?vid=0e030323-4386-4e72-9a0d-0f6a2ff539de","ios":"levelo://app?vid=0e030323-4386-4e72-9a0d-0f6a2ff539de"},"vehicle_type_id":"4","last_reported":1751465459,"current_range_meters":16800,"station_id":"ce4bh0h2rcd13ifvqd60","pricing_plan_id":"cebpf4jnsgd1na2vs0mg"},{"bike_id":"64c857a6-cd3d-44db-b4a8-f6df1f178078","system_id":"levelo_inurba_marseille","lat":43.30077,"lon":5.39087,"is_reserved":false,"is_disabled":false,"rental_uris":{"android":"levelo://app?vid=64c857a6-cd3d-44db-b4a8-f6df1f178078","ios":"levelo://app?vid=64c857a6-cd3d-44db-b4a8-f6df1f178078"},"vehicle_type_id":"4","last_reported":1751465459,"current_range_meters":16800,"station_id":"ce4bh192rcd13ifvqdb0","pricing_plan_id":"cebpf4jnsgd1na2vs0mg"},{"bike_id":"536617f8-0ced-4288-86f8-99950fbfb128","system_id":"levelo_inurba_marseille","lat":43.27178,"lon":5.41001,"is_reserved":false,"is_disabled":false,"rental_uris":{"android":"levelo://app?vid=536617f8-0ced-4288-86f8-99950fbfb128","ios":"levelo://app?vid=536617f8-0ced-4288-86f8-99950fbfb128"},"vehicle_type_id":"4","last_reported":1751465459,"current_range_meters":16800,"station_id":"ce4bhl12rcd13ifvqgf0","pricing_plan_id":"cebpf4jnsgd1na2vs0mg"},{"bike_id":"88f0d88a-1dec-4977-a19a-71293da7fba4","system_id":"levelo_inurba_marseille","lat":43.32362,"lon":5.36769,"is_reserved":false,"is_disabled":false,"rental_uris":{"android":"levelo://app?vid=88f0d88a-1dec-4977-a19a-71293da7fba4","ios":"levelo://app?vid=88f0d88a-1dec-4977-a19a-71293da7fba4"},"vehicle_type_id":"4","last_reported":1751465459,"current_range_meters":16800,"station_id":"ce4bhsh2rcd13ifvqi2g","pricing_plan_id":"cebpf4jnsgd1na2vs0mg"},{"bike_id":"09a94feb-8911-4d3d-9f22-a7f611710ea1","system_id":"levelo_inurba_marseille","lat":43.21167,"lon":5.35078,"is_reserved":false,"is_disabled":false,"rental_uris":{"android":"levelo://app?vid=09a94feb-8911-4d3d-9f22-a7f611710ea1","ios":"levelo://app?vid=09a94feb-8911-4d3d-9f22-a7f611710ea1"},"vehicle_type_id":"4","last_reported":1751465459,"current_range_meters":16800,"station_id":"st_cvj6sg6p6f1abm77japg","pricing_plan_id":"cebpf4jnsgd1na2vs0mg"},{"bike_id":"c891a8a9-6cee-47e2-ba82-eb733400cd8c","system_id":"levelo_inurba_marseille","lat":43.30546,"lon":5.36698,"is_reserved":false,"is_disabled":false,"rental_uris":{"android":"levelo://app?vid=c891a8a9-6cee-47e2-ba82-eb733400cd8c","ios":"levelo://app?vid=c891a8a9-6cee-47e2-ba82-eb733400cd8c"},"vehicle_type_id":"4","last_reported":1751465459,"current_range_meters":17200,"station_id":"ce4bgrp2rcd13ifvqc9g","pricing_plan_id":"cebpf4jnsgd1na2vs0mg"},{"bike_id":"0c2d1fc5-6569-4f10-bcab-cbd0c9e0f800","system_id":"levelo_inurba_marseille","lat":43.30106,"lon":5.3907,"is_reserved":false,"is_disabled":false,"rental_uris":{"android":"levelo://app?vid=0c2d1fc5-6569-4f10-bcab-cbd0c9e0f800","ios":"levelo://app?vid=0c2d1fc5-6569-4f10-bcab-cbd0c9e0f800"},"vehicle_type_id":"4","last_reported":1751465459,"current_range_meters":17200,"station_id":"ce4bh192rcd13ifvqdb0","pricing_plan_id":"cebpf4jnsgd1na2vs0mg"},{"bike_id":"af45e992-38f9-4969-8dcf-1e064c257847","system_id":"levelo_inurba_marseille","lat":43.3199,"lon":5.38141,"is_reserved":false,"is_disabled":false,"rental_uris":{"android":"levelo://app?vid=af45e992-38f9-4969-8dcf-1e064c257847","ios":"levelo://app?vid=af45e992-38f9-4969-8dcf-1e064c257847"},"vehicle_type_id":"4","last_reported":1751465459,"current_range_meters":17200,"station_id":"ce4bhr12rcd13ifvqhpg","pricing_plan_id":"cebpf4jnsgd1na2vs0mg"},{"bike_id":"8bf0d992-d2a0-428e-940a-091ee9b7c2a4","system_id":"levelo_inurba_marseille","lat":43.21191,"lon":5.35072,"is_reserved":false,"is_disabled":false,"rental_uris":{"android":"levelo://app?vid=8bf0d992-d2a0-428e-940a-091ee9b7c2a4","ios":"levelo://app?vid=8bf0d992-d2a0-428e-940a-091ee9b7c2a4"},"vehicle_type_id":"4","last_reported":1751465459,"current_range_meters":17200,"station_id":"st_cvj6sg6p6f1abm77japg","pricing_plan_id":"cebpf4jnsgd1na2vs0mg"},{"bike_id":"86bc95d0-7e57-437d-93a6-c517174460cc","system_id":"levelo_inurba_marseille","lat":43.30196,"lon":5.3663,"is_reserved":false,"is_disabled":false,"rental_uris":{"android":"levelo://app?vid=86bc95d0-7e57-437d-93a6-c517174460cc","ios":"levelo://app?vid=86bc95d0-7e57-437d-93a6-c517174460cc"},"vehicle_type_id":"4","last_reported":1751465459,"current_range_meters":17600,"station_id":"ce4bgrh2rcd13ifvqc8g","pricing_plan_id":"cebpf4jnsgd1na2vs0mg"},{"bike_id":"5b97b88f-59b6-44ab-bed1-48c0f1f0124b","system_id":"levelo_inurba_marseille","lat":43.26932,"lon":5.38922,"is_reserved":false,"is_disabled":false,"rental_uris":{"android":"levelo://app?vid=5b97b88f-59b6-44ab-bed1-48c0f1f0124b","ios":"levelo://app?vid=5b97b88f-59b6-44ab-bed1-48c0f1f0124b"},"vehicle_type_id":"4","last_reported":1751465459,"current_range_meters":17600,"station_id":"ce4bhhh2rcd13ifvqfl0","pricing_plan_id":"cebpf4jnsgd1na2vs0mg"},{"bike_id":"f048db52-6f32-4b62-81ca-29b673e2a0b0","system_id":"levelo_inurba_marseille","lat":43.26183,"lon":5.37926,"is_reserved":false,"is_disabled":false,"rental_uris":{"android":"levelo://app?vid=f048db52-6f32-4b62-81ca-29b673e2a0b0","ios":"levelo://app?vid=f048db52-6f32-4b62-81ca-29b673e2a0b0"},"vehicle_type_id":"4","last_reported":1751465459,"current_range_meters":17600,"station_id":"ce4bhjp2rcd13ifvqg90","pricing_plan_id":"cebpf4jnsgd1na2vs0mg"},{"bike_id":"c10a4283-320d-4e64-8d75-ff83e94026ba","system_id":"levelo_inurba_marseille","lat":43.211936,"lon":5.350736,"is_reserved":false,"is_disabled":false,"rental_uris":{"android":"levelo://app?vid=c10a4283-320d-4e64-8d75-ff83e94026ba","ios":"levelo://app?vid=c10a4283-320d-4e64-8d75-ff83e94026ba"},"vehicle_type_id":"4","last_reported":1751465459,"current_range_meters":17600,"station_id":"st_cvj6sg6p6f1abm77japg","pricing_plan_id":"cebpf4jnsgd1na2vs0mg"},{"bike_id":"8a74f5cd-9efa-4362-bea7-a32db4dcc85c","system_id":"levelo_inurba_marseille","lat":43.21198,"lon":5.35069,"is_reserved":false,"is_disabled":false,"rental_uris":{"android":"levelo://app?vid=8a74f5cd-9efa-4362-bea7-a32db4dcc85c","ios":"levelo://app?vid=8a74f5cd-9efa-4362-bea7-a32db4dcc85c"},"vehicle_type_id":"4","last_reported":1751465459,"current_range_meters":17600,"station_id":"st_cvj6sg6p6f1abm77japg","pricing_plan_id":"cebpf4jnsgd1na2vs0mg"},{"bike_id":"2e8ec81c-177e-40de-82b2-974196d6c500","system_id":"levelo_inurba_marseille","lat":43.26277,"lon":5.37589,"is_reserved":false,"is_disabled":false,"rental_uris":{"android":"levelo://app?vid=2e8ec81c-177e-40de-82b2-974196d6c500","ios":"levelo://app?vid=2e8ec81c-177e-40de-82b2-974196d6c500"},"vehicle_type_id":"4","last_reported":1751465459,"current_range_meters":18000,"station_id":"","pricing_plan_id":"cebpf4jnsgd1na2vs0mg"},{"bike_id":"6d2da863-a742-45db-855b-55a94467cfa4","system_id":"levelo_inurba_marseille","lat":43.32595,"lon":5.42705,"is_reserved":false,"is_disabled":false,"rental_uris":{"android":"levelo://app?vid=6d2da863-a742-45db-855b-55a94467cfa4","ios":"levelo://app?vid=6d2da863-a742-45db-855b-55a94467cfa4"},"vehicle_type_id":"4","last_reported":1751465459,"current_range_meters":18000,"station_id":"","pricing_plan_id":"cebpf4jnsgd1na2vs0mg"},{"bike_id":"b0847cd6-3da2-4c96-b631-22dc7523d236","system_id":"levelo_inurba_marseille","lat":43.30559,"lon":5.36532,"is_reserved":false,"is_disabled":false,"rental_uris":{"android":"levelo://app?vid=b0847cd6-3da2-4c96-b631-22dc7523d236","ios":"levelo://app?vid=b0847cd6-3da2-4c96-b631-22dc7523d236"},"vehicle_type_id":"4","last_reported":1751465459,"current_range_meters":18000,"station_id":"ce4bgs12rcd13ifvqcag","pricing_plan_id":"cebpf4jnsgd1na2vs0mg"},{"bike_id":"0b52d53f-0bd6-47f1-b5e3-7fc98dc501bd","system_id":"levelo_inurba_marseille","lat":43.305513,"lon":5.365337,"is_reserved":false,"is_disabled":false,"rental_uris":{"android":"levelo://app?vid=0b52d53f-0bd6-47f1-b5e3-7fc98dc501bd","ios":"levelo://app?vid=0b52d53f-0bd6-47f1-b5e3-7fc98dc501bd"},"vehicle_type_id":"4","last_reported":1751465459,"current_range_meters":18000,"station_id":"ce4bgs12rcd13ifvqcag","pricing_plan_id":"cebpf4jnsgd1na2vs0mg"},{"bike_id":"d393009a-4549-46b8-9394-75871ff606d4","system_id":"levelo_inurba_marseille","lat":43.32362,"lon":5.36742,"is_reserved":false,"is_disabled":false,"rental_uris":{"android":"levelo://app?vid=d393009a-4549-46b8-9394-75871ff606d4","ios":"levelo://app?vid=d393009a-4549-46b8-9394-75871ff606d4"},"vehicle_type_id":"4","last_reported":1751465459,"current_range_meters":18000,"station_id":"ce4bhsh2rcd13ifvqi2g","pricing_plan_id":"cebpf4jnsgd1na2vs0mg"},{"bike_id":"a3bab81f-3d6e-44dd-b2cb-24fda727ea7d","system_id":"levelo_inurba_marseille","lat":43.24389,"lon":5.37053,"is_reserved":false,"is_disabled":false,"rental_uris":{"android":"levelo://app?vid=a3bab81f-3d6e-44dd-b2cb-24fda727ea7d","ios":"levelo://app?vid=a3bab81f-3d6e-44dd-b2cb-24fda727ea7d"},"vehicle_type_id":"4","last_reported":1751465459,"current_range_meters":18800,"station_id":"ce4bhhh2rcd13ifvqfk0","pricing_plan_id":"cebpf4jnsgd1na2vs0mg"},{"bike_id":"e90e0d38-254b-4881-a47f-390de0043d08","system_id":"levelo_inurba_marseille","lat":43.23153,"lon":5.43724,"is_reserved":false,"is_disabled":false,"rental_uris":{"android":"levelo://app?vid=e90e0d38-254b-4881-a47f-390de0043d08","ios":"levelo://app?vid=e90e0d38-254b-4881-a47f-390de0043d08"},"vehicle_type_id":"4","last_reported":1751465459,"current_range_meters":18800,"station_id":"ce4bhmp2rcd13ifvqgog","pricing_plan_id":"cebpf4jnsgd1na2vs0mg"},{"bike_id":"a5dd1495-37bd-4d52-bdbd-ac33ef851954","system_id":"levelo_inurba_marseille","lat":43.23172,"lon":5.4371,"is_reserved":false,"is_disabled":false,"rental_uris":{"android":"levelo://app?vid=a5dd1495-37bd-4d52-bdbd-ac33ef851954","ios":"levelo://app?vid=a5dd1495-37bd-4d52-bdbd-ac33ef851954"},"vehicle_type_id":"4","last_reported":1751465459,"current_range_meters":18800,"station_id":"ce4bhmp2rcd13ifvqgog","pricing_plan_id":"cebpf4jnsgd1na2vs0mg"},{"bike_id":"924cc4bb-2b37-4abb-a8b2-cd7f5b89bc0f","system_id":"levelo_inurba_marseille","lat":43.32104,"lon":5.36766,"is_reserved":false,"is_disabled":false,"rental_uris":{"android":"levelo://app?vid=924cc4bb-2b37-4abb-a8b2-cd7f5b89bc0f","ios":"levelo://app?vid=924cc4bb-2b37-4abb-a8b2-cd7f5b89bc0f"},"vehicle_type_id":"4","last_reported":1751465459,"current_range_meters":18800,"station_id":"ce4bhrh2rcd13ifvqhug","pricing_plan_id":"cebpf4jnsgd1na2vs0mg"},{"bike_id":"0f590c2a-c81e-469d-a7d1-2741de3642a2","system_id":"levelo_inurba_marseille","lat":43.21182,"lon":5.35045,"is_reserved":false,"is_disabled":false,"rental_uris":{"android":"levelo://app?vid=0f590c2a-c81e-469d-a7d1-2741de3642a2","ios":"levelo://app?vid=0f590c2a-c81e-469d-a7d1-2741de3642a2"},"vehicle_type_id":"4","last_reported":1751465459,"current_range_meters":18800,"station_id":"st_cvj6sg6p6f1abm77japg","pricing_plan_id":"cebpf4jnsgd1na2vs0mg"},{"bike_id":"fe84177e-dc24-423c-bc2b-77abf3163fe9","system_id":"levelo_inurba_marseille","lat":43.30229,"lon":5.38218,"is_reserved":false,"is_disabled":false,"rental_uris":{"android":"levelo://app?vid=fe84177e-dc24-423c-bc2b-77abf3163fe9","ios":"levelo://app?vid=fe84177e-dc24-423c-bc2b-77abf3163fe9"},"vehicle_type_id":"4","last_reported":1751465459,"current_range_meters":19200,"station_id":"","pricing_plan_id":"cebpf4jnsgd1na2vs0mg"},{"bike_id":"b2325bea-9a74-459a-a713-509c2ba84f3e","system_id":"levelo_inurba_marseille","lat":43.283184,"lon":5.413014,"is_reserved":false,"is_disabled":false,"rental_uris":{"android":"levelo://app?vid=b2325bea-9a74-459a-a713-509c2ba84f3e","ios":"levelo://app?vid=b2325bea-9a74-459a-a713-509c2ba84f3e"},"vehicle_type_id":"4","last_reported":1751465459,"current_range_meters":19200,"station_id":"","pricing_plan_id":"cebpf4jnsgd1na2vs0mg"},{"bike_id":"6c36efce-05da-4334-951f-f8bbdd10c352","system_id":"levelo_inurba_marseille","lat":43.31684,"lon":5.37769,"is_reserved":false,"is_disabled":false,"rental_uris":{"android":"levelo://app?vid=6c36efce-05da-4334-951f-f8bbdd10c352","ios":"levelo://app?vid=6c36efce-05da-4334-951f-f8bbdd10c352"},"vehicle_type_id":"4","last_reported":1751465459,"current_range_meters":19200,"station_id":"ce4bgth2rcd13ifvqch0","pricing_plan_id":"cebpf4jnsgd1na2vs0mg"},{"bike_id":"d4028457-01bb-4fd4-9caa-acfaafae2f38","system_id":"levelo_inurba_marseille","lat":43.27375,"lon":5.36268,"is_reserved":false,"is_disabled":false,"rental_uris":{"android":"levelo://app?vid=d4028457-01bb-4fd4-9caa-acfaafae2f38","ios":"levelo://app?vid=d4028457-01bb-4fd4-9caa-acfaafae2f38"},"vehicle_type_id":"4","last_reported":1751465459,"current_range_meters":19200,"station_id":"ce4bhbh2rcd13ifvqeo0","pricing_plan_id":"cebpf4jnsgd1na2vs0mg"},{"bike_id":"c255eca0-dc3c-43d7-b0c4-60f4cdf5f0ac","system_id":"levelo_inurba_marseille","lat":43.32047,"lon":5.41543,"is_reserved":false,"is_disabled":false,"rental_uris":{"android":"levelo://app?vid=c255eca0-dc3c-43d7-b0c4-60f4cdf5f0ac","ios":"levelo://app?vid=c255eca0-dc3c-43d7-b0c4-60f4cdf5f0ac"},"vehicle_type_id":"4","last_reported":1751465459,"current_range_meters":19200,"station_id":"ce4bhq92rcd13ifvqhkg","pricing_plan_id":"cebpf4jnsgd1na2vs0mg"},{"bike_id":"b7c4f4e7-ddbb-4243-982d-1ca4f75e59a6","system_id":"levelo_inurba_marseille","lat":43.32344,"lon":5.36741,"is_reserved":false,"is_disabled":false,"rental_uris":{"android":"levelo://app?vid=b7c4f4e7-ddbb-4243-982d-1ca4f75e59a6","ios":"levelo://app?vid=b7c4f4e7-ddbb-4243-982d-1ca4f75e59a6"},"vehicle_type_id":"4","last_reported":1751465459,"current_range_meters":19200,"station_id":"ce4bhsh2rcd13ifvqi2g","pricing_plan_id":"cebpf4jnsgd1na2vs0mg"},{"bike_id":"10b0b860-bb51-4240-bd79-57112e19f6af","system_id":"levelo_inurba_marseille","lat":43.21776,"lon":5.34613,"is_reserved":false,"is_disabled":false,"rental_uris":{"android":"levelo://app?vid=10b0b860-bb51-4240-bd79-57112e19f6af","ios":"levelo://app?vid=10b0b860-bb51-4240-bd79-57112e19f6af"},"vehicle_type_id":"4","last_reported":1751465459,"current_range_meters":19200,"station_id":"st_cvj6r9ubvosntc0bgbag","pricing_plan_id":"cebpf4jnsgd1na2vs0mg"},{"bike_id":"3be62267-12fe-43bf-bd19-64ff695cb725","system_id":"levelo_inurba_marseille","lat":43.30563,"lon":5.36525,"is_reserved":false,"is_disabled":false,"rental_uris":{"android":"levelo://app?vid=3be62267-12fe-43bf-bd19-64ff695cb725","ios":"levelo://app?vid=3be62267-12fe-43bf-bd19-64ff695cb725"},"vehicle_type_id":"4","last_reported":1751465459,"current_range_meters":19600,"station_id":"ce4bgs12rcd13ifvqcag","pricing_plan_id":"cebpf4jnsgd1na2vs0mg"},{"bike_id":"95a2d688-cf63-43ee-ad8b-eb5d9c153273","system_id":"levelo_inurba_marseille","lat":43.30464,"lon":5.37903,"is_reserved":false,"is_disabled":false,"rental_uris":{"android":"levelo://app?vid=95a2d688-cf63-43ee-ad8b-eb5d9c153273","ios":"levelo://app?vid=95a2d688-cf63-43ee-ad8b-eb5d9c153273"},"vehicle_type_id":"4","last_reported":1751465459,"current_range_meters":19600,"station_id":"ce4bgup2rcd13ifvqcn0","pricing_plan_id":"cebpf4jnsgd1na2vs0mg"},{"bike_id":"88da0a8a-c235-4518-8971-4d82c75fdca3","system_id":"levelo_inurba_marseille","lat":43.28416,"lon":5.34993,"is_reserved":false,"is_disabled":false,"rental_uris":{"android":"levelo://app?vid=88da0a8a-c235-4518-8971-4d82c75fdca3","ios":"levelo://app?vid=88da0a8a-c235-4518-8971-4d82c75fdca3"},"vehicle_type_id":"4","last_reported":1751465459,"current_range_meters":19600,"station_id":"ce4bhbh2rcd13ifvqepg","pricing_plan_id":"cebpf4jnsgd1na2vs0mg"},{"bike_id":"5eff832e-c78a-448d-99c0-d4ac89c64acc","system_id":"levelo_inurba_marseille","lat":43.28605,"lon":5.35109,"is_reserved":false,"is_disabled":false,"rental_uris":{"android":"levelo://app?vid=5eff832e-c78a-448d-99c0-d4ac89c64acc","ios":"levelo://app?vid=5eff832e-c78a-448d-99c0-d4ac89c64acc"},"vehicle_type_id":"4","last_reported":1751465459,"current_range_meters":19600,"station_id":"ce4bhch2rcd13ifvqeug","pricing_plan_id":"cebpf4jnsgd1na2vs0mg"},{"bike_id":"5e1c6398-e71f-4a16-91bb-3ea30cb6651c","system_id":"levelo_inurba_marseille","lat":43.257115,"lon":5.411275,"is_reserved":false,"is_disabled":false,"rental_uris":{"android":"levelo://app?vid=5e1c6398-e71f-4a16-91bb-3ea30cb6651c","ios":"levelo://app?vid=5e1c6398-e71f-4a16-91bb-3ea30cb6651c"},"vehicle_type_id":"4","last_reported":1751465459,"current_range_meters":19600,"station_id":"ce4bhkp2rcd13ifvqgd0","pricing_plan_id":"cebpf4jnsgd1na2vs0mg"},{"bike_id":"48a8b866-9a64-4b58-8b3a-d988de0d4af0","system_id":"levelo_inurba_marseille","lat":43.241699,"lon":5.364186,"is_reserved":false,"is_disabled":false,"rental_uris":{"android":"levelo://app?vid=48a8b866-9a64-4b58-8b3a-d988de0d4af0","ios":"levelo://app?vid=48a8b866-9a64-4b58-8b3a-d988de0d4af0"},"vehicle_type_id":"4","last_reported":1751465459,"current_range_meters":19600,"station_id":"cpo36qri1sfpv3e86is0","pricing_plan_id":"cebpf4jnsgd1na2vs0mg"},{"bike_id":"37b84a38-055a-4a6e-a56a-8ff3d0c1b2ec","system_id":"levelo_inurba_marseille","lat":43.21194,"lon":5.350736,"is_reserved":false,"is_disabled":false,"rental_uris":{"android":"levelo://app?vid=37b84a38-055a-4a6e-a56a-8ff3d0c1b2ec","ios":"levelo://app?vid=37b84a38-055a-4a6e-a56a-8ff3d0c1b2ec"},"vehicle_type_id":"4","last_reported":1751465459,"current_range_meters":19600,"station_id":"st_cvj6sg6p6f1abm77japg","pricing_plan_id":"cebpf4jnsgd1na2vs0mg"},{"bike_id":"b0496903-e4e2-480d-b2e6-4fcaae2cd474","system_id":"levelo_inurba_marseille","lat":43.31359,"lon":5.36748,"is_reserved":false,"is_disabled":false,"rental_uris":{"android":"levelo://app?vid=b0496903-e4e2-480d-b2e6-4fcaae2cd474","ios":"levelo://app?vid=b0496903-e4e2-480d-b2e6-4fcaae2cd474"},"vehicle_type_id":"4","last_reported":1751465459,"current_range_meters":20000,"station_id":"ce4bgr92rcd13ifvqc6g","pricing_plan_id":"cebpf4jnsgd1na2vs0mg"},{"bike_id":"f71cbfe2-f261-4b55-ba17-383c159608d1","system_id":"levelo_inurba_marseille","lat":43.29977,"lon":5.37174,"is_reserved":false,"is_disabled":false,"rental_uris":{"android":"levelo://app?vid=f71cbfe2-f261-4b55-ba17-383c159608d1","ios":"levelo://app?vid=f71cbfe2-f261-4b55-ba17-383c159608d1"},"vehicle_type_id":"4","last_reported":1751465459,"current_range_meters":20000,"station_id":"ce4bgr92rcd13ifvqc7g","pricing_plan_id":"cebpf4jnsgd1na2vs0mg"},{"bike_id":"f3a73906-89a7-4511-a50a-604dd043276a","system_id":"levelo_inurba_marseille","lat":43.28407,"lon":5.35009,"is_reserved":false,"is_disabled":false,"rental_uris":{"android":"levelo://app?vid=f3a73906-89a7-4511-a50a-604dd043276a","ios":"levelo://app?vid=f3a73906-89a7-4511-a50a-604dd043276a"},"vehicle_type_id":"4","last_reported":1751465459,"current_range_meters":20000,"station_id":"ce4bhbh2rcd13ifvqepg","pricing_plan_id":"cebpf4jnsgd1na2vs0mg"},{"bike_id":"2d079ff8-2bbe-47e4-953b-729358bca087","system_id":"levelo_inurba_marseille","lat":43.26563,"lon":5.37287,"is_reserved":false,"is_disabled":false,"rental_uris":{"android":"levelo://app?vid=2d079ff8-2bbe-47e4-953b-729358bca087","ios":"levelo://app?vid=2d079ff8-2bbe-47e4-953b-729358bca087"},"vehicle_type_id":"4","last_reported":1751465459,"current_range_meters":20000,"station_id":"ce4bhg12rcd13ifvqf70","pricing_plan_id":"cebpf4jnsgd1na2vs0mg"},{"bike_id":"d7eb42dd-1291-458b-978f-486fe89680a6","system_id":"levelo_inurba_marseille","lat":43.2481,"lon":5.37462,"is_reserved":false,"is_disabled":false,"rental_uris":{"android":"levelo://app?vid=d7eb42dd-1291-458b-978f-486fe89680a6","ios":"levelo://app?vid=d7eb42dd-1291-458b-978f-486fe89680a6"},"vehicle_type_id":"4","last_reported":1751465459,"current_range_meters":20000,"station_id":"ce4bhgh2rcd13ifvqfb0","pricing_plan_id":"cebpf4jnsgd1na2vs0mg"},{"bike_id":"2d7ab8c9-ccb6-4168-91f8-ffbbd54cc09d","system_id":"levelo_inurba_marseille","lat":43.297473,"lon":5.369713,"is_reserved":false,"is_disabled":false,"rental_uris":{"android":"levelo://app?vid=2d7ab8c9-ccb6-4168-91f8-ffbbd54cc09d","ios":"levelo://app?vid=2d7ab8c9-ccb6-4168-91f8-ffbbd54cc09d"},"vehicle_type_id":"4","last_reported":1751465459,"current_range_meters":20400,"station_id":"","pricing_plan_id":"cebpf4jnsgd1na2vs0mg"},{"bike_id":"3811f1e4-8dd9-4adf-89b3-22655930d702","system_id":"levelo_inurba_marseille","lat":43.30537,"lon":5.36718,"is_reserved":false,"is_disabled":false,"rental_uris":{"android":"levelo://app?vid=3811f1e4-8dd9-4adf-89b3-22655930d702","ios":"levelo://app?vid=3811f1e4-8dd9-4adf-89b3-22655930d702"},"vehicle_type_id":"4","last_reported":1751465459,"current_range_meters":20400,"station_id":"ce4bgrp2rcd13ifvqc9g","pricing_plan_id":"cebpf4jnsgd1na2vs0mg"},{"bike_id":"aa3f9250-dc27-4ab1-a45a-d862a4fa9ee5","system_id":"levelo_inurba_marseille","lat":43.3054,"lon":5.36558,"is_reserved":false,"is_disabled":false,"rental_uris":{"android":"levelo://app?vid=aa3f9250-dc27-4ab1-a45a-d862a4fa9ee5","ios":"levelo://app?vid=aa3f9250-dc27-4ab1-a45a-d862a4fa9ee5"},"vehicle_type_id":"4","last_reported":1751465459,"current_range_meters":20400,"station_id":"ce4bgs12rcd13ifvqcag","pricing_plan_id":"cebpf4jnsgd1na2vs0mg"},{"bike_id":"3c8770dd-20a1-4f04-9f49-5f71baca010d","system_id":"levelo_inurba_marseille","lat":43.27377,"lon":5.36254,"is_reserved":false,"is_disabled":false,"rental_uris":{"android":"levelo://app?vid=3c8770dd-20a1-4f04-9f49-5f71baca010d","ios":"levelo://app?vid=3c8770dd-20a1-4f04-9f49-5f71baca010d"},"vehicle_type_id":"4","last_reported":1751465459,"current_range_meters":20400,"station_id":"ce4bhbh2rcd13ifvqeo0","pricing_plan_id":"cebpf4jnsgd1na2vs0mg"},{"bike_id":"69740607-3266-4e9d-b12c-1e9be53b0094","system_id":"levelo_inurba_marseille","lat":43.28728,"lon":5.36082,"is_reserved":false,"is_disabled":false,"rental_uris":{"android":"levelo://app?vid=69740607-3266-4e9d-b12c-1e9be53b0094","ios":"levelo://app?vid=69740607-3266-4e9d-b12c-1e9be53b0094"},"vehicle_type_id":"4","last_reported":1751465459,"current_range_meters":20400,"station_id":"cki0cbj6b192h4jlfktg","pricing_plan_id":"cebpf4jnsgd1na2vs0mg"},{"bike_id":"21e2c51d-4563-4efd-afbf-0ddeff93c862","system_id":"levelo_inurba_marseille","lat":43.217566,"lon":5.345964,"is_reserved":false,"is_disabled":false,"rental_uris":{"android":"levelo://app?vid=21e2c51d-4563-4efd-afbf-0ddeff93c862","ios":"levelo://app?vid=21e2c51d-4563-4efd-afbf-0ddeff93c862"},"vehicle_type_id":"4","last_reported":1751465459,"current_range_meters":20400,"station_id":"st_cvj6r9ubvosntc0bgbag","pricing_plan_id":"cebpf4jnsgd1na2vs0mg"},{"bike_id":"4d4995e7-0bba-4ac2-a238-afd84a5e99b5","system_id":"levelo_inurba_marseille","lat":43.304848,"lon":5.398345,"is_reserved":false,"is_disabled":false,"rental_uris":{"android":"levelo://app?vid=4d4995e7-0bba-4ac2-a238-afd84a5e99b5","ios":"levelo://app?vid=4d4995e7-0bba-4ac2-a238-afd84a5e99b5"},"vehicle_type_id":"4","last_reported":1751465459,"current_range_meters":20800,"station_id":"","pricing_plan_id":"cebpf4jnsgd1na2vs0mg"},{"bike_id":"50bb0fdb-2cc1-4d8d-af26-b7febba54985","system_id":"levelo_inurba_marseille","lat":43.274139,"lon":5.39007,"is_reserved":false,"is_disabled":false,"rental_uris":{"android":"levelo://app?vid=50bb0fdb-2cc1-4d8d-af26-b7febba54985","ios":"levelo://app?vid=50bb0fdb-2cc1-4d8d-af26-b7febba54985"},"vehicle_type_id":"4","last_reported":1751465459,"current_range_meters":20800,"station_id":"","pricing_plan_id":"cebpf4jnsgd1na2vs0mg"},{"bike_id":"a04455cf-ad3e-4b28-8d42-3375aa195713","system_id":"levelo_inurba_marseille","lat":43.29261,"lon":5.38444,"is_reserved":false,"is_disabled":false,"rental_uris":{"android":"levelo://app?vid=a04455cf-ad3e-4b28-8d42-3375aa195713","ios":"levelo://app?vid=a04455cf-ad3e-4b28-8d42-3375aa195713"},"vehicle_type_id":"4","last_reported":1751465459,"current_range_meters":20800,"station_id":"ce4bh692rcd13ifvqea0","pricing_plan_id":"cebpf4jnsgd1na2vs0mg"},{"bike_id":"92ce571e-8bb4-4eab-9f9e-809fb7433bc6","system_id":"levelo_inurba_marseille","lat":43.27373,"lon":5.36249,"is_reserved":false,"is_disabled":false,"rental_uris":{"android":"levelo://app?vid=92ce571e-8bb4-4eab-9f9e-809fb7433bc6","ios":"levelo://app?vid=92ce571e-8bb4-4eab-9f9e-809fb7433bc6"},"vehicle_type_id":"4","last_reported":1751465459,"current_range_meters":20800,"station_id":"ce4bhbh2rcd13ifvqeo0","pricing_plan_id":"cebpf4jnsgd1na2vs0mg"},{"bike_id":"7b1eaf83-cce1-4b4a-a5a0-b20a4e42e481","system_id":"levelo_inurba_marseille","lat":43.31722,"lon":5.42394,"is_reserved":false,"is_disabled":false,"rental_uris":{"android":"levelo://app?vid=7b1eaf83-cce1-4b4a-a5a0-b20a4e42e481","ios":"levelo://app?vid=7b1eaf83-cce1-4b4a-a5a0-b20a4e42e481"},"vehicle_type_id":"4","last_reported":1751465459,"current_range_meters":20800,"station_id":"ce4bhp92rcd13ifvqhbg","pricing_plan_id":"cebpf4jnsgd1na2vs0mg"},{"bike_id":"a6715104-7492-4ec6-a996-23050baf8551","system_id":"levelo_inurba_marseille","lat":43.225,"lon":5.34777,"is_reserved":false,"is_disabled":false,"rental_uris":{"android":"levelo://app?vid=a6715104-7492-4ec6-a996-23050baf8551","ios":"levelo://app?vid=a6715104-7492-4ec6-a996-23050baf8551"},"vehicle_type_id":"4","last_reported":1751465459,"current_range_meters":20800,"station_id":"st_cvj5dfep6f1abm77gieg","pricing_plan_id":"cebpf4jnsgd1na2vs0mg"},{"bike_id":"7e21e8f2-09c8-4cc5-8113-278ebd23888d","system_id":"levelo_inurba_marseille","lat":43.21197,"lon":5.35068,"is_reserved":false,"is_disabled":false,"rental_uris":{"android":"levelo://app?vid=7e21e8f2-09c8-4cc5-8113-278ebd23888d","ios":"levelo://app?vid=7e21e8f2-09c8-4cc5-8113-278ebd23888d"},"vehicle_type_id":"4","last_reported":1751465459,"current_range_meters":20800,"station_id":"st_cvj6sg6p6f1abm77japg","pricing_plan_id":"cebpf4jnsgd1na2vs0mg"},{"bike_id":"88ba2eb8-6abc-42f0-a2b7-fafab863863b","system_id":"levelo_inurba_marseille","lat":43.29217,"lon":5.4069,"is_reserved":false,"is_disabled":false,"rental_uris":{"android":"levelo://app?vid=88ba2eb8-6abc-42f0-a2b7-fafab863863b","ios":"levelo://app?vid=88ba2eb8-6abc-42f0-a2b7-fafab863863b"},"vehicle_type_id":"4","last_reported":1751465459,"current_range_meters":21600,"station_id":"","pricing_plan_id":"cebpf4jnsgd1na2vs0mg"},{"bike_id":"a2b26f18-8188-4e30-8ea6-850f276fa32e","system_id":"levelo_inurba_marseille","lat":43.29976,"lon":5.38484,"is_reserved":false,"is_disabled":false,"rental_uris":{"android":"levelo://app?vid=a2b26f18-8188-4e30-8ea6-850f276fa32e","ios":"levelo://app?vid=a2b26f18-8188-4e30-8ea6-850f276fa32e"},"vehicle_type_id":"4","last_reported":1751465459,"current_range_meters":21600,"station_id":"ce4bgj92rcd13ifvqbd0","pricing_plan_id":"cebpf4jnsgd1na2vs0mg"},{"bike_id":"1e9d4f66-a250-4225-bed3-28ec2e51feee","system_id":"levelo_inurba_marseille","lat":43.31222,"lon":5.36863,"is_reserved":false,"is_disabled":false,"rental_uris":{"android":"levelo://app?vid=1e9d4f66-a250-4225-bed3-28ec2e51feee","ios":"levelo://app?vid=1e9d4f66-a250-4225-bed3-28ec2e51feee"},"vehicle_type_id":"4","last_reported":1751465459,"current_range_meters":21600,"station_id":"ce4bgl92rcd13ifvqbq0","pricing_plan_id":"cebpf4jnsgd1na2vs0mg"},{"bike_id":"47d30eaa-7064-4301-b4fd-2f92dd279bdf","system_id":"levelo_inurba_marseille","lat":43.30545,"lon":5.36717,"is_reserved":false,"is_disabled":false,"rental_uris":{"android":"levelo://app?vid=47d30eaa-7064-4301-b4fd-2f92dd279bdf","ios":"levelo://app?vid=47d30eaa-7064-4301-b4fd-2f92dd279bdf"},"vehicle_type_id":"4","last_reported":1751465459,"current_range_meters":21600,"station_id":"ce4bgrp2rcd13ifvqc9g","pricing_plan_id":"cebpf4jnsgd1na2vs0mg"},{"bike_id":"a313b144-4a62-4489-81c0-5ad2c9c0a34f","system_id":"levelo_inurba_marseille","lat":43.28668,"lon":5.38654,"is_reserved":false,"is_disabled":false,"rental_uris":{"android":"levelo://app?vid=a313b144-4a62-4489-81c0-5ad2c9c0a34f","ios":"levelo://app?vid=a313b144-4a62-4489-81c0-5ad2c9c0a34f"},"vehicle_type_id":"4","last_reported":1751465459,"current_range_meters":21600,"station_id":"ce4bh492rcd13ifvqdug","pricing_plan_id":"cebpf4jnsgd1na2vs0mg"},{"bike_id":"cb691c85-582b-4b8e-ad8b-b202efaec54d","system_id":"levelo_inurba_marseille","lat":43.273785,"lon":5.362575,"is_reserved":false,"is_disabled":false,"rental_uris":{"android":"levelo://app?vid=cb691c85-582b-4b8e-ad8b-b202efaec54d","ios":"levelo://app?vid=cb691c85-582b-4b8e-ad8b-b202efaec54d"},"vehicle_type_id":"4","last_reported":1751465459,"current_range_meters":21600,"station_id":"ce4bhbh2rcd13ifvqeo0","pricing_plan_id":"cebpf4jnsgd1na2vs0mg"},{"bike_id":"858ac75d-6551-4d39-acf7-b178928be1f7","system_id":"levelo_inurba_marseille","lat":43.28409,"lon":5.34989,"is_reserved":false,"is_disabled":false,"rental_uris":{"android":"levelo://app?vid=858ac75d-6551-4d39-acf7-b178928be1f7","ios":"levelo://app?vid=858ac75d-6551-4d39-acf7-b178928be1f7"},"vehicle_type_id":"4","last_reported":1751465459,"current_range_meters":21600,"station_id":"ce4bhbh2rcd13ifvqepg","pricing_plan_id":"cebpf4jnsgd1na2vs0mg"},{"bike_id":"d9bbea31-00e6-4153-a958-2422ed9b2791","system_id":"levelo_inurba_marseille","lat":43.30192,"lon":5.36618,"is_reserved":false,"is_disabled":false,"rental_uris":{"android":"levelo://app?vid=d9bbea31-00e6-4153-a958-2422ed9b2791","ios":"levelo://app?vid=d9bbea31-00e6-4153-a958-2422ed9b2791"},"vehicle_type_id":"4","last_reported":1751465459,"current_range_meters":22000,"station_id":"ce4bgrh2rcd13ifvqc8g","pricing_plan_id":"cebpf4jnsgd1na2vs0mg"},{"bike_id":"2941a56a-c90e-41da-ac14-bf855a022f39","system_id":"levelo_inurba_marseille","lat":43.3237,"lon":5.388801,"is_reserved":false,"is_disabled":false,"rental_uris":{"android":"levelo://app?vid=2941a56a-c90e-41da-ac14-bf855a022f39","ios":"levelo://app?vid=2941a56a-c90e-41da-ac14-bf855a022f39"},"vehicle_type_id":"4","last_reported":1751465459,"current_range_meters":22000,"station_id":"ce4bhqp2rcd13ifvqhog","pricing_plan_id":"cebpf4jnsgd1na2vs0mg"},{"bike_id":"bed3e8a6-b151-4512-8ecd-b49dd3969a2c","system_id":"levelo_inurba_marseille","lat":43.3211,"lon":5.36782,"is_reserved":false,"is_disabled":false,"rental_uris":{"android":"levelo://app?vid=bed3e8a6-b151-4512-8ecd-b49dd3969a2c","ios":"levelo://app?vid=bed3e8a6-b151-4512-8ecd-b49dd3969a2c"},"vehicle_type_id":"4","last_reported":1751465459,"current_range_meters":22000,"station_id":"ce4bhrh2rcd13ifvqhug","pricing_plan_id":"cebpf4jnsgd1na2vs0mg"},{"bike_id":"09c68e7a-2a35-4fb2-a583-02e5aa84bcb6","system_id":"levelo_inurba_marseille","lat":43.23197,"lon":5.35553,"is_reserved":false,"is_disabled":false,"rental_uris":{"android":"levelo://app?vid=09c68e7a-2a35-4fb2-a583-02e5aa84bcb6","ios":"levelo://app?vid=09c68e7a-2a35-4fb2-a583-02e5aa84bcb6"},"vehicle_type_id":"4","last_reported":1751465459,"current_range_meters":22000,"station_id":"ce4bhu92rcd13ifvqi70","pricing_plan_id":"cebpf4jnsgd1na2vs0mg"},{"bike_id":"de74883e-9c5f-4d4b-ab68-69e39fa3bf52","system_id":"levelo_inurba_marseille","lat":43.29171,"lon":5.37167,"is_reserved":false,"is_disabled":false,"rental_uris":{"android":"levelo://app?vid=de74883e-9c5f-4d4b-ab68-69e39fa3bf52","ios":"levelo://app?vid=de74883e-9c5f-4d4b-ab68-69e39fa3bf52"},"vehicle_type_id":"4","last_reported":1751465459,"current_range_meters":22400,"station_id":"ce4bha92rcd13ifvqeh0","pricing_plan_id":"cebpf4jnsgd1na2vs0mg"},{"bike_id":"e0189107-5ce8-4b45-94dc-46e981c474b2","system_id":"levelo_inurba_marseille","lat":43.27383,"lon":5.3625,"is_reserved":false,"is_disabled":false,"rental_uris":{"android":"levelo://app?vid=e0189107-5ce8-4b45-94dc-46e981c474b2","ios":"levelo://app?vid=e0189107-5ce8-4b45-94dc-46e981c474b2"},"vehicle_type_id":"4","last_reported":1751465459,"current_range_meters":22400,"station_id":"ce4bhbh2rcd13ifvqeo0","pricing_plan_id":"cebpf4jnsgd1na2vs0mg"},{"bike_id":"1ccbeb41-8373-4765-a948-748c8c6fb34c","system_id":"levelo_inurba_marseille","lat":43.27371,"lon":5.36253,"is_reserved":false,"is_disabled":false,"rental_uris":{"android":"levelo://app?vid=1ccbeb41-8373-4765-a948-748c8c6fb34c","ios":"levelo://app?vid=1ccbeb41-8373-4765-a948-748c8c6fb34c"},"vehicle_type_id":"4","last_reported":1751465459,"current_range_meters":22400,"station_id":"ce4bhbh2rcd13ifvqeo0","pricing_plan_id":"cebpf4jnsgd1na2vs0mg"},{"bike_id":"14c00f68-4c64-43f1-9ec5-cacdae8c755b","system_id":"levelo_inurba_marseille","lat":43.25082,"lon":5.39529,"is_reserved":false,"is_disabled":false,"rental_uris":{"android":"levelo://app?vid=14c00f68-4c64-43f1-9ec5-cacdae8c755b","ios":"levelo://app?vid=14c00f68-4c64-43f1-9ec5-cacdae8c755b"},"vehicle_type_id":"4","last_reported":1751465459,"current_range_meters":22400,"station_id":"ce4bhm12rcd13ifvqgkg","pricing_plan_id":"cebpf4jnsgd1na2vs0mg"},{"bike_id":"64b490c7-51fb-4533-adaf-951305d195e4","system_id":"levelo_inurba_marseille","lat":43.32359,"lon":5.367505,"is_reserved":false,"is_disabled":false,"rental_uris":{"android":"levelo://app?vid=64b490c7-51fb-4533-adaf-951305d195e4","ios":"levelo://app?vid=64b490c7-51fb-4533-adaf-951305d195e4"},"vehicle_type_id":"4","last_reported":1751465459,"current_range_meters":22400,"station_id":"ce4bhsh2rcd13ifvqi2g","pricing_plan_id":"cebpf4jnsgd1na2vs0mg"},{"bike_id":"cc04118e-9312-4bf8-9106-d64e829afbaa","system_id":"levelo_inurba_marseille","lat":43.21205,"lon":5.35068,"is_reserved":false,"is_disabled":false,"rental_uris":{"android":"levelo://app?vid=cc04118e-9312-4bf8-9106-d64e829afbaa","ios":"levelo://app?vid=cc04118e-9312-4bf8-9106-d64e829afbaa"},"vehicle_type_id":"4","last_reported":1751465459,"current_range_meters":22400,"station_id":"st_cvj6sg6p6f1abm77japg","pricing_plan_id":"cebpf4jnsgd1na2vs0mg"},{"bike_id":"b2ce53ca-166b-417e-9d70-9bee393f75bb","system_id":"levelo_inurba_marseille","lat":43.21192,"lon":5.35071,"is_reserved":false,"is_disabled":false,"rental_uris":{"android":"levelo://app?vid=b2ce53ca-166b-417e-9d70-9bee393f75bb","ios":"levelo://app?vid=b2ce53ca-166b-417e-9d70-9bee393f75bb"},"vehicle_type_id":"4","last_reported":1751465459,"current_range_meters":22400,"station_id":"st_cvj6sg6p6f1abm77japg","pricing_plan_id":"cebpf4jnsgd1na2vs0mg"},{"bike_id":"1c8ab180-05fd-405f-9922-b2b2c2d5142f","system_id":"levelo_inurba_marseille","lat":43.33767,"lon":5.38142,"is_reserved":false,"is_disabled":false,"rental_uris":{"android":"levelo://app?vid=1c8ab180-05fd-405f-9922-b2b2c2d5142f","ios":"levelo://app?vid=1c8ab180-05fd-405f-9922-b2b2c2d5142f"},"vehicle_type_id":"4","last_reported":1751465459,"current_range_meters":22800,"station_id":"","pricing_plan_id":"cebpf4jnsgd1na2vs0mg"},{"bike_id":"d6e90a4e-c2a2-487c-bca7-cf9938068776","system_id":"levelo_inurba_marseille","lat":43.30903,"lon":5.36804,"is_reserved":false,"is_disabled":false,"rental_uris":{"android":"levelo://app?vid=d6e90a4e-c2a2-487c-bca7-cf9938068776","ios":"levelo://app?vid=d6e90a4e-c2a2-487c-bca7-cf9938068776"},"vehicle_type_id":"4","last_reported":1751465459,"current_range_meters":22800,"station_id":"ce4bgn92rcd13ifvqbvg","pricing_plan_id":"cebpf4jnsgd1na2vs0mg"},{"bike_id":"b075c54e-ccf5-417c-bb51-f4e7500b0649","system_id":"levelo_inurba_marseille","lat":43.29037,"lon":5.38654,"is_reserved":false,"is_disabled":false,"rental_uris":{"android":"levelo://app?vid=b075c54e-ccf5-417c-bb51-f4e7500b0649","ios":"levelo://app?vid=b075c54e-ccf5-417c-bb51-f4e7500b0649"},"vehicle_type_id":"4","last_reported":1751465459,"current_range_meters":22800,"station_id":"ce4bh4p2rcd13ifvqe0g","pricing_plan_id":"cebpf4jnsgd1na2vs0mg"},{"bike_id":"34b20eac-7d5d-4be6-a625-9da3dba56cec","system_id":"levelo_inurba_marseille","lat":43.2827,"lon":5.3507,"is_reserved":false,"is_disabled":false,"rental_uris":{"android":"levelo://app?vid=34b20eac-7d5d-4be6-a625-9da3dba56cec","ios":"levelo://app?vid=34b20eac-7d5d-4be6-a625-9da3dba56cec"},"vehicle_type_id":"4","last_reported":1751465459,"current_range_meters":22800,"station_id":"ce4bhbp2rcd13ifvqerg","pricing_plan_id":"cebpf4jnsgd1na2vs0mg"},{"bike_id":"26ea36f0-4bc6-4834-ad15-df6df86c753d","system_id":"levelo_inurba_marseille","lat":43.26669,"lon":5.38289,"is_reserved":false,"is_disabled":false,"rental_uris":{"android":"levelo://app?vid=26ea36f0-4bc6-4834-ad15-df6df86c753d","ios":"levelo://app?vid=26ea36f0-4bc6-4834-ad15-df6df86c753d"},"vehicle_type_id":"4","last_reported":1751465459,"current_range_meters":22800,"station_id":"ce4bhg92rcd13ifvqf90","pricing_plan_id":"cebpf4jnsgd1na2vs0mg"},{"bike_id":"dd77485a-2d75-40eb-9191-5cf282c741c5","system_id":"levelo_inurba_marseille","lat":43.265132,"lon":5.390956,"is_reserved":false,"is_disabled":false,"rental_uris":{"android":"levelo://app?vid=dd77485a-2d75-40eb-9191-5cf282c741c5","ios":"levelo://app?vid=dd77485a-2d75-40eb-9191-5cf282c741c5"},"vehicle_type_id":"4","last_reported":1751465459,"current_range_meters":22800,"station_id":"ce4bhh12rcd13ifvqfg0","pricing_plan_id":"cebpf4jnsgd1na2vs0mg"},{"bike_id":"a0480f1d-3573-45b7-8d76-2022e256c551","system_id":"levelo_inurba_marseille","lat":43.25928,"lon":5.4088,"is_reserved":false,"is_disabled":false,"rental_uris":{"android":"levelo://app?vid=a0480f1d-3573-45b7-8d76-2022e256c551","ios":"levelo://app?vid=a0480f1d-3573-45b7-8d76-2022e256c551"},"vehicle_type_id":"4","last_reported":1751465459,"current_range_meters":22800,"station_id":"ce4bhm92rcd13ifvqglg","pricing_plan_id":"cebpf4jnsgd1na2vs0mg"},{"bike_id":"ef428cbf-2574-4a46-8318-d83b1da2666e","system_id":"levelo_inurba_marseille","lat":43.27998,"lon":5.40013,"is_reserved":false,"is_disabled":false,"rental_uris":{"android":"levelo://app?vid=ef428cbf-2574-4a46-8318-d83b1da2666e","ios":"levelo://app?vid=ef428cbf-2574-4a46-8318-d83b1da2666e"},"vehicle_type_id":"4","last_reported":1751465459,"current_range_meters":22800,"station_id":"ce4bho92rcd13ifvqh4g","pricing_plan_id":"cebpf4jnsgd1na2vs0mg"},{"bike_id":"22d41e0f-1956-446f-8d56-1b6d97374836","system_id":"levelo_inurba_marseille","lat":43.28423,"lon":5.34998,"is_reserved":false,"is_disabled":false,"rental_uris":{"android":"levelo://app?vid=22d41e0f-1956-446f-8d56-1b6d97374836","ios":"levelo://app?vid=22d41e0f-1956-446f-8d56-1b6d97374836"},"vehicle_type_id":"4","last_reported":1751465459,"current_range_meters":23200,"station_id":"ce4bhbh2rcd13ifvqepg","pricing_plan_id":"cebpf4jnsgd1na2vs0mg"},{"bike_id":"648bbb6d-2154-46cd-97c2-aff236591999","system_id":"levelo_inurba_marseille","lat":43.23964,"lon":5.36627,"is_reserved":false,"is_disabled":false,"rental_uris":{"android":"levelo://app?vid=648bbb6d-2154-46cd-97c2-aff236591999","ios":"levelo://app?vid=648bbb6d-2154-46cd-97c2-aff236591999"},"vehicle_type_id":"4","last_reported":1751465459,"current_range_meters":23200,"station_id":"ce4bhi12rcd13ifvqfp0","pricing_plan_id":"cebpf4jnsgd1na2vs0mg"},{"bike_id":"2079a3bc-2800-4acf-8843-fca1c0d8af56","system_id":"levelo_inurba_marseille","lat":43.23168,"lon":5.43722,"is_reserved":false,"is_disabled":false,"rental_uris":{"android":"levelo://app?vid=2079a3bc-2800-4acf-8843-fca1c0d8af56","ios":"levelo://app?vid=2079a3bc-2800-4acf-8843-fca1c0d8af56"},"vehicle_type_id":"4","last_reported":1751465459,"current_range_meters":23200,"station_id":"ce4bhmp2rcd13ifvqgog","pricing_plan_id":"cebpf4jnsgd1na2vs0mg"},{"bike_id":"0dbbfd7c-5e93-4301-aea8-6d89ce7ed33b","system_id":"levelo_inurba_marseille","lat":43.2175,"lon":5.34613,"is_reserved":false,"is_disabled":false,"rental_uris":{"android":"levelo://app?vid=0dbbfd7c-5e93-4301-aea8-6d89ce7ed33b","ios":"levelo://app?vid=0dbbfd7c-5e93-4301-aea8-6d89ce7ed33b"},"vehicle_type_id":"4","last_reported":1751465459,"current_range_meters":23200,"station_id":"st_cvj6r9ubvosntc0bgbag","pricing_plan_id":"cebpf4jnsgd1na2vs0mg"},{"bike_id":"5f1e5526-9ff8-4075-8194-48a897f058b4","system_id":"levelo_inurba_marseille","lat":43.21171,"lon":5.35077,"is_reserved":false,"is_disabled":false,"rental_uris":{"android":"levelo://app?vid=5f1e5526-9ff8-4075-8194-48a897f058b4","ios":"levelo://app?vid=5f1e5526-9ff8-4075-8194-48a897f058b4"},"vehicle_type_id":"4","last_reported":1751465459,"current_range_meters":23200,"station_id":"st_cvj6sg6p6f1abm77japg","pricing_plan_id":"cebpf4jnsgd1na2vs0mg"},{"bike_id":"dbeb3fa6-e8eb-4cd5-a9c6-f5722e995a4d","system_id":"levelo_inurba_marseille","lat":43.27615,"lon":5.36109,"is_reserved":false,"is_disabled":false,"rental_uris":{"android":"levelo://app?vid=dbeb3fa6-e8eb-4cd5-a9c6-f5722e995a4d","ios":"levelo://app?vid=dbeb3fa6-e8eb-4cd5-a9c6-f5722e995a4d"},"vehicle_type_id":"4","last_reported":1751465459,"current_range_meters":24000,"station_id":"ce4bgj92rcd13ifvqbe0","pricing_plan_id":"cebpf4jnsgd1na2vs0mg"},{"bike_id":"d58715e7-44cf-4b78-9cc5-5010aafd8b86","system_id":"levelo_inurba_marseille","lat":43.29606,"lon":5.380955,"is_reserved":false,"is_disabled":false,"rental_uris":{"android":"levelo://app?vid=d58715e7-44cf-4b78-9cc5-5010aafd8b86","ios":"levelo://app?vid=d58715e7-44cf-4b78-9cc5-5010aafd8b86"},"vehicle_type_id":"4","last_reported":1751465459,"current_range_meters":24000,"station_id":"ce4bgl12rcd13ifvqbo0","pricing_plan_id":"cebpf4jnsgd1na2vs0mg"},{"bike_id":"e421bfc1-60c6-4a6e-beaf-25aaddf853b3","system_id":"levelo_inurba_marseille","lat":43.30131,"lon":5.39857,"is_reserved":false,"is_disabled":false,"rental_uris":{"android":"levelo://app?vid=e421bfc1-60c6-4a6e-beaf-25aaddf853b3","ios":"levelo://app?vid=e421bfc1-60c6-4a6e-beaf-25aaddf853b3"},"vehicle_type_id":"4","last_reported":1751465459,"current_range_meters":24000,"station_id":"ce4bh0h2rcd13ifvqd40","pricing_plan_id":"cebpf4jnsgd1na2vs0mg"},{"bike_id":"7a93958b-6b58-4460-9ed1-546cf5fc3322","system_id":"levelo_inurba_marseille","lat":43.29038,"lon":5.38654,"is_reserved":false,"is_disabled":false,"rental_uris":{"android":"levelo://app?vid=7a93958b-6b58-4460-9ed1-546cf5fc3322","ios":"levelo://app?vid=7a93958b-6b58-4460-9ed1-546cf5fc3322"},"vehicle_type_id":"4","last_reported":1751465459,"current_range_meters":24000,"station_id":"ce4bh4p2rcd13ifvqe0g","pricing_plan_id":"cebpf4jnsgd1na2vs0mg"},{"bike_id":"f9b00448-d2e6-4381-9a73-09dc17cd3d7e","system_id":"levelo_inurba_marseille","lat":43.28596,"lon":5.3511,"is_reserved":false,"is_disabled":false,"rental_uris":{"android":"levelo://app?vid=f9b00448-d2e6-4381-9a73-09dc17cd3d7e","ios":"levelo://app?vid=f9b00448-d2e6-4381-9a73-09dc17cd3d7e"},"vehicle_type_id":"4","last_reported":1751465459,"current_range_meters":24000,"station_id":"ce4bhch2rcd13ifvqeug","pricing_plan_id":"cebpf4jnsgd1na2vs0mg"},{"bike_id":"bf0491e9-a69f-493e-8da1-46af98e17e7e","system_id":"levelo_inurba_marseille","lat":43.26555,"lon":5.37283,"is_reserved":false,"is_disabled":false,"rental_uris":{"android":"levelo://app?vid=bf0491e9-a69f-493e-8da1-46af98e17e7e","ios":"levelo://app?vid=bf0491e9-a69f-493e-8da1-46af98e17e7e"},"vehicle_type_id":"4","last_reported":1751465459,"current_range_meters":24000,"station_id":"ce4bhg12rcd13ifvqf70","pricing_plan_id":"cebpf4jnsgd1na2vs0mg"},{"bike_id":"3eabe1e2-f9f5-41cb-a4ed-73ca7f909c5c","system_id":"levelo_inurba_marseille","lat":43.21199,"lon":5.35077,"is_reserved":false,"is_disabled":false,"rental_uris":{"android":"levelo://app?vid=3eabe1e2-f9f5-41cb-a4ed-73ca7f909c5c","ios":"levelo://app?vid=3eabe1e2-f9f5-41cb-a4ed-73ca7f909c5c"},"vehicle_type_id":"4","last_reported":1751465459,"current_range_meters":24000,"station_id":"st_cvj6sg6p6f1abm77japg","pricing_plan_id":"cebpf4jnsgd1na2vs0mg"},{"bike_id":"b13877a6-4825-4d82-b46b-67fa8ad66c5d","system_id":"levelo_inurba_marseille","lat":43.211944,"lon":5.350698,"is_reserved":false,"is_disabled":false,"rental_uris":{"android":"levelo://app?vid=b13877a6-4825-4d82-b46b-67fa8ad66c5d","ios":"levelo://app?vid=b13877a6-4825-4d82-b46b-67fa8ad66c5d"},"vehicle_type_id":"4","last_reported":1751465459,"current_range_meters":24000,"station_id":"st_cvj6sg6p6f1abm77japg","pricing_plan_id":"cebpf4jnsgd1na2vs0mg"},{"bike_id":"49733973-9271-462e-8771-040468e60f20","system_id":"levelo_inurba_marseille","lat":43.258,"lon":5.39979,"is_reserved":false,"is_disabled":false,"rental_uris":{"android":"levelo://app?vid=49733973-9271-462e-8771-040468e60f20","ios":"levelo://app?vid=49733973-9271-462e-8771-040468e60f20"},