{"last_updated":1736263048,"ttl":60,"version":"2.2","data":{"bikes":[{"bike_id":"870114b8-893a-4747-821c-fde7cdd6e81e","system_id":"levelo_inurba_marseille","lat":43.27224,"lon":5.39194,"is_reserved":false,"is_disabled":false,"rental_uris":{"android":"levelo://app?vid=870114b8-893a-4747-821c-fde7cdd6e81e","ios":"levelo://app?vid=870114b8-893a-4747-821c-fde7cdd6e81e"},"vehicle_type_id":"4","last_reported":1736263048,"current_range_meters":38800,"station_id":"ce4bhhp2rcd13ifvqfm0","pricing_plan_id":"cebpf4jnsgd1na2vs0mg"},{"bike_id":"e5028c33-9f8e-4ac3-a14c-e67e8c232bdb","system_id":"levelo_inurba_marseille","lat":43.27843,"lon":5.40684,"is_reserved":false,"is_disabled":false,"rental_uris":{"android":"levelo://app?vid=e5028c33-9f8e-4ac3-a14c-e67e8c232bdb","ios":"levelo://app?vid=e5028c33-9f8e-4ac3-a14c-e67e8c232bdb"},"vehicle_type_id":"4","last_reported":1736263048,"current_range_meters":30000,"station_id":"ce4bhnh2rcd13ifvqgtg","pricing_plan_id":"cebpf4jnsgd1na2vs0mg"},{"bike_id":"1222b776-bbdb-4c45-af67-3952d4fc7463","system_id":"levelo_inurba_marseille","lat":43.29265,"lon":5.40911,"is_reserved":false,"is_disabled":false,"rental_uris":{"android":"levelo://app?vid=1222b776-bbdb-4c45-af67-3952d4fc7463","ios":"levelo://app?vid=1222b776-bbdb-4c45-af67-3952d4fc7463"},"vehicle_type_id":"4","last_reported":1736263048,"current_range_meters":29600,"station_id":"ce4bh192rcd13ifvqdc0","pricing_plan_id":"cebpf4jnsgd1na2vs0mg"},{"bike_id":"e332e1dc-0203-4a81-a6e0-4e5acb385340","system_id":"levelo_inurba_marseille","lat":43.30163,"lon":5.38091,"is_reserved":false,"is_disabled":false,"rental_uris":{"android":"levelo://app?vid=e332e1dc-0203-4a81-a6e0-4e5acb385340","ios":"levelo://app?vid=e332e1dc-0203-4a81-a6e0-4e5acb385340"},"vehicle_type_id":"4","last_reported":1736263048,"current_range_meters":38800,"station_id":"ce4bgjp2rcd13ifvqbh0","pricing_plan_id":"cebpf4jnsgd1na2vs0mg"},{"bike_id":"a54c7a6b-adea-4c66-afdf-77396a447c7a","system_id":"levelo_inurba_marseille","lat":43.28419,"lon":5.34987,"is_reserved":false,"is_disabled":false,"rental_uris":{"android":"levelo://app?vid=a54c7a6b-adea-4c66-afdf-77396a447c7a","ios":"levelo://app?vid=a54c7a6b-adea-4c66-afdf-77396a447c7a"},"vehicle_type_id":"4","last_reported":1736263048,"current_range_meters":38400,"station_id":"ce4bhbh2rcd13ifvqepg","pricing_plan_id":"cebpf4jnsgd1na2vs0mg"},{"bike_id":"9f329a67-e015-467a-9863-4e2a9b0256ab","system_id":"levelo_inurba_marseille","lat":43.29231,"lon":5.36075,"is_reserved":false,"is_disabled":false,"rental_uris":{"android":"levelo://app?vid=9f329a67-e015-467a-9863-4e2a9b0256ab","ios":"levelo://app?vid=9f329a67-e015-467a-9863-4e2a9b0256ab"},"vehicle_type_id":"4","last_reported":1736263048,"current_range_meters":22800,"station_id":"ce4bhbh2rcd13ifvqeqg","pricing_plan_id":"cebpf4jnsgd1na2vs0mg"},{"bike_id":"227043cc-bfa6-4bcc-9cdd-dc8da43aee25","system_id":"levelo_inurba_marseille","lat":43.27371,"lon":5.362619,"is_reserved":false,"is_disabled":false,"rental_uris":{"android":"levelo://app?vid=227043cc-bfa6-4bcc-9cdd-dc8da43aee25","ios":"levelo://app?vid=227043cc-bfa6-4bcc-9cdd-dc8da43aee25"},"vehicle_type_id":"4","last_reported":1736263048,"current_range_meters":39200,"station_id":"ce4bhbh2rcd13ifvqeo0","pricing_plan_id":"cebpf4jnsgd1na2vs0mg"},{"bike_id":"1c2c3464-8b3a-4eab-9fdd-fd6c6e2d5657","system_id":"levelo_inurba_marseille","lat":43.28679,"lon":5.38674,"is_reserved":false,"is_disabled":true,"rental_uris":{"android":"levelo://app?vid=1c2c3464-8b3a-4eab-9fdd-fd6c6e2d5657","ios":"levelo://app?vid=1c2c3464-8b3a-4eab-9fdd-fd6c6e2d5657"},"vehicle_type_id":"4","last_reported":1736263048,"current_range_meters":0,"station_id":"ce4bh492rcd13ifvqdug","pricing_plan_id":"cebpf4jnsgd1na2vs0mg"},{"bike_id":"cb26a7e1-6621-49df-af64-567979a14775","system_id":"levelo_inurba_marseille","lat":43.27216,"lon":5.39181,"is_reserved":false,"is_disabled":false,"rental_uris":{"android":"levelo://app?vid=cb26a7e1-6621-49df-af64-567979a14775","ios":"levelo://app?vid=cb26a7e1-6621-49df-af64-567979a14775"},"vehicle_type_id":"4","last_reported":1736263048,"current_range_meters":32000,"station_id":"ce4bhhp2rcd13ifvqfm0","pricing_plan_id":"cebpf4jnsgd1na2vs0mg"},{"bike_id":"2d6928f8-4b5e-4102-9da8-4203b801ad10","system_id":"levelo_inurba_marseille","lat":43.30191,"lon":5.38062,"is_reserved":false,"is_disabled":false,"rental_uris":{"android":"levelo://app?vid=2d6928f8-4b5e-4102-9da8-4203b801ad10","ios":"levelo://app?vid=2d6928f8-4b5e-4102-9da8-4203b801ad10"},"vehicle_type_id":"4","last_reported":1736263048,"current_range_meters":38800,"station_id":"","pricing_plan_id":"cebpf4jnsgd1na2vs0mg"},{"bike_id":"e8f7458c-cf19-43d7-a972-43547ad9fe30","system_id":"levelo_inurba_marseille","lat":43.27193,"lon":5.40989,"is_reserved":false,"is_disabled":false,"rental_uris":{"android":"levelo://app?vid=e8f7458c-cf19-43d7-a972-43547ad9fe30","ios":"levelo://app?vid=e8f7458c-cf19-43d7-a972-43547ad9fe30"},"vehicle_type_id":"4","last_reported":1736263048,"current_range_meters":3200,"station_id":"ce4bhl12rcd13ifvqgf0","pricing_plan_id":"cebpf4jnsgd1na2vs0mg"},{"bike_id":"05a2c15a-fb68-455c-8082-fdf747a62fe7","system_id":"levelo_inurba_marseille","lat":43.27891,"lon":5.4075,"is_reserved":false,"is_disabled":false,"rental_uris":{"android":"levelo://app?vid=05a2c15a-fb68-455c-8082-fdf747a62fe7","ios":"levelo://app?vid=05a2c15a-fb68-455c-8082-fdf747a62fe7"},"vehicle_type_id":"4","last_reported":1736263048,"current_range_meters":38800,"station_id":"","pricing_plan_id":"cebpf4jnsgd1na2vs0mg"},{"bike_id":"e167dc30-3a4c-414a-b317-b933ad348860","system_id":"levelo_inurba_marseille","lat":43.30523,"lon":5.36701,"is_reserved":false,"is_disabled":false,"rental_uris":{"android":"levelo://app?vid=e167dc30-3a4c-414a-b317-b933ad348860","ios":"levelo://app?vid=e167dc30-3a4c-414a-b317-b933ad348860"},"vehicle_type_id":"4","last_reported":1736263048,"current_range_meters":35200,"station_id":"ce4bgrp2rcd13ifvqc9g","pricing_plan_id":"cebpf4jnsgd1na2vs0mg"},{"bike_id":"9d1bfe10-030c-46bb-93c0-1550d4a1403e","system_id":"levelo_inurba_marseille","lat":43.32063,"lon":5.41543,"is_reserved":false,"is_disabled":false,"rental_uris":{"android":"levelo://app?vid=9d1bfe10-030c-46bb-93c0-1550d4a1403e","ios":"levelo://app?vid=9d1bfe10-030c-46bb-93c0-1550d4a1403e"},"vehicle_type_id":"4","last_reported":1736263048,"current_range_meters":38400,"station_id":"ce4bhq92rcd13ifvqhkg","pricing_plan_id":"cebpf4jnsgd1na2vs0mg"},{"bike_id":"4a2429d6-9a5c-4eab-bfaa-6db91fa70b89","system_id":"levelo_inurba_marseille","lat":43.272,"lon":5.39168,"is_reserved":false,"is_disabled":false,"rental_uris":{"android":"levelo://app?vid=4a2429d6-9a5c-4eab-bfaa-6db91fa70b89","ios":"levelo://app?vid=4a2429d6-9a5c-4eab-bfaa-6db91fa70b89"},"vehicle_type_id":"4","last_reported":1736263048,"current_range_meters":14400,"station_id":"ce4bhhp2rcd13ifvqfm0","pricing_plan_id":"cebpf4jnsgd1na2vs0mg"},{"bike_id":"2e3020fc-739e-484f-aff1-968aa18f2ac1","system_id":"levelo_inurba_marseille","lat":43.27984,"lon":5.41698,"is_reserved":false,"is_disabled":true,"rental_uris":{"android":"levelo://app?vid=2e3020fc-739e-484f-aff1-968aa18f2ac1","ios":"levelo://app?vid=2e3020fc-739e-484f-aff1-968aa18f2ac1"},"vehicle_type_id":"4","last_reported":1736263048,"current_range_meters":35600,"station_id":"ce4bho12rcd13ifvqh1g","pricing_plan_id":"cebpf4jnsgd1na2vs0mg"},{"bike_id":"25eada10-1de1-4fd2-9f49-86dd4ee2d477","system_id":"levelo_inurba_marseille","lat":43.26693,"lon":5.38271,"is_reserved":false,"is_disabled":false,"rental_uris":{"android":"levelo://app?vid=25eada10-1de1-4fd2-9f49-86dd4ee2d477","ios":"levelo://app?vid=25eada10-1de1-4fd2-9f49-86dd4ee2d477"},"vehicle_type_id":"4","last_reported":1736263048,"current_range_meters":39200,"station_id":"ce4bhg92rcd13ifvqf90","pricing_plan_id":"cebpf4jnsgd1na2vs0mg"},{"bike_id":"9bc564bb-6773-485d-ac7c-33edf80314fe","system_id":"levelo_inurba_marseille","lat":43.25018,"lon":5.38913,"is_reserved":false,"is_disabled":false,"rental_uris":{"android":"levelo://app?vid=9bc564bb-6773-485d-ac7c-33edf80314fe","ios":"levelo://app?vid=9bc564bb-6773-485d-ac7c-33edf80314fe"},"vehicle_type_id":"4","last_reported":1736263048,"current_range_meters":38800,"station_id":"ce4bhgp2rcd13ifvqfd0","pricing_plan_id":"cebpf4jnsgd1na2vs0mg"},{"bike_id":"5f21cdc1-e56d-4c94-b8ac-7c72599c490f","system_id":"levelo_inurba_marseille","lat":43.30518,"lon":5.3648,"is_reserved":false,"is_disabled":false,"rental_uris":{"android":"levelo://app?vid=5f21cdc1-e56d-4c94-b8ac-7c72599c490f","ios":"levelo://app?vid=5f21cdc1-e56d-4c94-b8ac-7c72599c490f"},"vehicle_type_id":"4","last_reported":1736263048,"current_range_meters":38800,"station_id":"ce4bgs12rcd13ifvqcag","pricing_plan_id":"cebpf4jnsgd1na2vs0mg"},{"bike_id":"954aa06e-89dc-41a2-b8ed-f2bc14bde573","system_id":"levelo_inurba_marseille","lat":43.298127,"lon":5.380957,"is_reserved":false,"is_disabled":false,"rental_uris":{"android":"levelo://app?vid=954aa06e-89dc-41a2-b8ed-f2bc14bde573","ios":"levelo://app?vid=954aa06e-89dc-41a2-b8ed-f2bc14bde573"},"vehicle_type_id":"4","last_reported":1736263048,"current_range_meters":38800,"station_id":"ce4bgip2rcd13ifvqbb0","pricing_plan_id":"cebpf4jnsgd1na2vs0mg"},{"bike_id":"3dcc1c8e-6db9-4000-a7ee-f1b5b658ee7a","system_id":"levelo_inurba_marseille","lat":43.27171,"lon":5.41017,"is_reserved":false,"is_disabled":false,"rental_uris":{"android":"levelo://app?vid=3dcc1c8e-6db9-4000-a7ee-f1b5b658ee7a","ios":"levelo://app?vid=3dcc1c8e-6db9-4000-a7ee-f1b5b658ee7a"},"vehicle_type_id":"4","last_reported":1736263048,"current_range_meters":38800,"station_id":"ce4bhl12rcd13ifvqgf0","pricing_plan_id":"cebpf4jnsgd1na2vs0mg"},{"bike_id":"4ca1b1de-2606-4a03-9f34-a9ac2ed22022","system_id":"levelo_inurba_marseille","lat":43.26558,"lon":5.39012,"is_reserved":false,"is_disabled":false,"rental_uris":{"android":"levelo://app?vid=4ca1b1de-2606-4a03-9f34-a9ac2ed22022","ios":"levelo://app?vid=4ca1b1de-2606-4a03-9f34-a9ac2ed22022"},"vehicle_type_id":"4","last_reported":1736263048,"current_range_meters":28400,"station_id":"ce4bhe12rcd13ifvqf30","pricing_plan_id":"cebpf4jnsgd1na2vs0mg"},{"bike_id":"dff6fd1a-97ee-4487-bbd8-e4462573b5f6","system_id":"levelo_inurba_marseille","lat":43.31237,"lon":5.36869,"is_reserved":false,"is_disabled":false,"rental_uris":{"android":"levelo://app?vid=dff6fd1a-97ee-4487-bbd8-e4462573b5f6","ios":"levelo://app?vid=dff6fd1a-97ee-4487-bbd8-e4462573b5f6"},"vehicle_type_id":"4","last_reported":1736263048,"current_range_meters":30400,"station_id":"ce4bgl92rcd13ifvqbq0","pricing_plan_id":"cebpf4jnsgd1na2vs0mg"},{"bike_id":"08c9c9c7-4492-4e1c-b3a7-d254c799ea24","system_id":"levelo_inurba_marseille","lat":43.25138,"lon":5.40334,"is_reserved":false,"is_disabled":false,"rental_uris":{"android":"levelo://app?vid=08c9c9c7-4492-4e1c-b3a7-d254c799ea24","ios":"levelo://app?vid=08c9c9c7-4492-4e1c-b3a7-d254c799ea24"},"vehicle_type_id":"4","last_reported":1736263048,"current_range_meters":2800,"station_id":"ce4bhlh2rcd13ifvqgig","pricing_plan_id":"cebpf4jnsgd1na2vs0mg"},{"bike_id":"19511c48-af28-4e32-bfbf-0e7ea1efd1b5","system_id":"levelo_inurba_marseille","lat":43.2731,"lon":5.3907,"is_reserved":false,"is_disabled":false,"rental_uris":{"android":"levelo://app?vid=19511c48-af28-4e32-bfbf-0e7ea1efd1b5","ios":"levelo://app?vid=19511c48-af28-4e32-bfbf-0e7ea1efd1b5"},"vehicle_type_id":"4","last_reported":1736263048,"current_range_meters":6000,"station_id":"ce4bhgp2rcd13ifvqfe0","pricing_plan_id":"cebpf4jnsgd1na2vs0mg"},{"bike_id":"8a4c045a-dd75-4b08-85b8-01a9f1b5d499","system_id":"levelo_inurba_marseille","lat":43.31075,"lon":5.38346,"is_reserved":false,"is_disabled":false,"rental_uris":{"android":"levelo://app?vid=8a4c045a-dd75-4b08-85b8-01a9f1b5d499","ios":"levelo://app?vid=8a4c045a-dd75-4b08-85b8-01a9f1b5d499"},"vehicle_type_id":"4","last_reported":1736263048,"current_range_meters":21600,"station_id":"ce4bgv92rcd13ifvqcr0","pricing_plan_id":"cebpf4jnsgd1na2vs0mg"},{"bike_id":"308a6716-c112-49a8-9cd2-52c490e932b6","system_id":"levelo_inurba_marseille","lat":43.31996,"lon":5.38157,"is_reserved":false,"is_disabled":false,"rental_uris":{"android":"levelo://app?vid=308a6716-c112-49a8-9cd2-52c490e932b6","ios":"levelo://app?vid=308a6716-c112-49a8-9cd2-52c490e932b6"},"vehicle_type_id":"4","last_reported":1736263048,"current_range_meters":38000,"station_id":"ce4bhr12rcd13ifvqhpg","pricing_plan_id":"cebpf4jnsgd1na2vs0mg"},{"bike_id":"b39d12a7-ad73-4083-ae60-4c385fc1abba","system_id":"levelo_inurba_marseille","lat":43.27307,"lon":5.39078,"is_reserved":false,"is_disabled":false,"rental_uris":{"android":"levelo://app?vid=b39d12a7-ad73-4083-ae60-4c385fc1abba","ios":"levelo://app?vid=b39d12a7-ad73-4083-ae60-4c385fc1abba"},"vehicle_type_id":"4","last_reported":1736263048,"current_range_meters":32400,"station_id":"ce4bhgp2rcd13ifvqfe0","pricing_plan_id":"cebpf4jnsgd1na2vs0mg"},{"bike_id":"c023aed8-c4af-47de-bf55-7ec6cfb1c879","system_id":"levelo_inurba_marseille","lat":43.26185,"lon":5.37452,"is_reserved":false,"is_disabled":true,"rental_uris":{"android":"levelo://app?vid=c023aed8-c4af-47de-bf55-7ec6cfb1c879","ios":"levelo://app?vid=c023aed8-c4af-47de-bf55-7ec6cfb1c879"},"vehicle_type_id":"4","last_reported":1736263048,"current_range_meters":27200,"station_id":"ce4bhgp2rcd13ifvqfc0","pricing_plan_id":"cebpf4jnsgd1na2vs0mg"},{"bike_id":"82756fb9-814e-4cf3-b107-26496fd7fa74","system_id":"levelo_inurba_marseille","lat":43.29017,"lon":5.38129,"is_reserved":false,"is_disabled":false,"rental_uris":{"android":"levelo://app?vid=82756fb9-814e-4cf3-b107-26496fd7fa74","ios":"levelo://app?vid=82756fb9-814e-4cf3-b107-26496fd7fa74"},"vehicle_type_id":"4","last_reported":1736263048,"current_range_meters":22800,"station_id":"ce4bh4p2rcd13ifvqe1g","pricing_plan_id":"cebpf4jnsgd1na2vs0mg"},{"bike_id":"f5477bd9-ae2b-4f4a-90d2-43e1d2905a20","system_id":"levelo_inurba_marseille","lat":43.28426,"lon":5.34988,"is_reserved":false,"is_disabled":false,"rental_uris":{"android":"levelo://app?vid=f5477bd9-ae2b-4f4a-90d2-43e1d2905a20","ios":"levelo://app?vid=f5477bd9-ae2b-4f4a-90d2-43e1d2905a20"},"vehicle_type_id":"4","last_reported":1736263048,"current_range_meters":18000,"station_id":"ce4bhbh2rcd13ifvqepg","pricing_plan_id":"cebpf4jnsgd1na2vs0mg"},{"bike_id":"ad036647-e9f4-4246-953d-37ee6601db50","system_id":"levelo_inurba_marseille","lat":43.24669,"lon":5.38172,"is_reserved":false,"is_disabled":false,"rental_uris":{"android":"levelo://app?vid=ad036647-e9f4-4246-953d-37ee6601db50","ios":"levelo://app?vid=ad036647-e9f4-4246-953d-37ee6601db50"},"vehicle_type_id":"4","last_reported":1736263048,"current_range_meters":16400,"station_id":"ce4bhih2rcd13ifvqfr0","pricing_plan_id":"cebpf4jnsgd1na2vs0mg"},{"bike_id":"515fb29a-e725-42c4-b3fe-98f830e3054e","system_id":"levelo_inurba_marseille","lat":43.26566,"lon":5.37286,"is_reserved":false,"is_disabled":false,"rental_uris":{"android":"levelo://app?vid=515fb29a-e725-42c4-b3fe-98f830e3054e","ios":"levelo://app?vid=515fb29a-e725-42c4-b3fe-98f830e3054e"},"vehicle_type_id":"4","last_reported":1736263048,"current_range_meters":28800,"station_id":"ce4bhg12rcd13ifvqf70","pricing_plan_id":"cebpf4jnsgd1na2vs0mg"},{"bike_id":"b73fb344-5c04-423c-be93-e8864d801e18","system_id":"levelo_inurba_marseille","lat":43.28927,"lon":5.36606,"is_reserved":false,"is_disabled":false,"rental_uris":{"android":"levelo://app?vid=b73fb344-5c04-423c-be93-e8864d801e18","ios":"levelo://app?vid=b73fb344-5c04-423c-be93-e8864d801e18"},"vehicle_type_id":"4","last_reported":1736263048,"current_range_meters":28000,"station_id":"ce4bhap2rcd13ifvqek0","pricing_plan_id":"cebpf4jnsgd1na2vs0mg"},{"bike_id":"ee7f5816-483f-4372-8ce1-bc546e1bdb5f","system_id":"levelo_inurba_marseille","lat":43.25012,"lon":5.38918,"is_reserved":false,"is_disabled":false,"rental_uris":{"android":"levelo://app?vid=ee7f5816-483f-4372-8ce1-bc546e1bdb5f","ios":"levelo://app?vid=ee7f5816-483f-4372-8ce1-bc546e1bdb5f"},"vehicle_type_id":"4","last_reported":1736263048,"current_range_meters":22800,"station_id":"ce4bhgp2rcd13ifvqfd0","pricing_plan_id":"cebpf4jnsgd1na2vs0mg"},{"bike_id":"15f71945-60c3-400c-9312-3ed8bd273f72","system_id":"levelo_inurba_marseille","lat":43.28936,"lon":5.36636,"is_reserved":false,"is_disabled":false,"rental_uris":{"android":"levelo://app?vid=15f71945-60c3-400c-9312-3ed8bd273f72","ios":"levelo://app?vid=15f71945-60c3-400c-9312-3ed8bd273f72"},"vehicle_type_id":"4","last_reported":1736263048,"current_range_meters":9600,"station_id":"ce4bhap2rcd13ifvqek0","pricing_plan_id":"cebpf4jnsgd1na2vs0mg"},{"bike_id":"4ab6871b-bd43-49a5-a391-9a5a38e489aa","system_id":"levelo_inurba_marseille","lat":43.262,"lon":5.37922,"is_reserved":false,"is_disabled":false,"rental_uris":{"android":"levelo://app?vid=4ab6871b-bd43-49a5-a391-9a5a38e489aa","ios":"levelo://app?vid=4ab6871b-bd43-49a5-a391-9a5a38e489aa"},"vehicle_type_id":"4","last_reported":1736263048,"current_range_meters":38000,"station_id":"ce4bhjp2rcd13ifvqg90","pricing_plan_id":"cebpf4jnsgd1na2vs0mg"},{"bike_id":"c736efc7-bdd4-4760-a57b-96851815e95f","system_id":"levelo_inurba_marseille","lat":43.2652,"lon":5.39544,"is_reserved":false,"is_disabled":true,"rental_uris":{"android":"levelo://app?vid=c736efc7-bdd4-4760-a57b-96851815e95f","ios":"levelo://app?vid=c736efc7-bdd4-4760-a57b-96851815e95f"},"vehicle_type_id":"4","last_reported":1736263048,"current_range_meters":39200,"station_id":"ce4bhi12rcd13ifvqfq0","pricing_plan_id":"cebpf4jnsgd1na2vs0mg"},{"bike_id":"52a27691-0980-4150-ac0e-032a862a6ca9","system_id":"levelo_inurba_marseille","lat":43.23201,"lon":5.35566,"is_reserved":false,"is_disabled":false,"rental_uris":{"android":"levelo://app?vid=52a27691-0980-4150-ac0e-032a862a6ca9","ios":"levelo://app?vid=52a27691-0980-4150-ac0e-032a862a6ca9"},"vehicle_type_id":"4","last_reported":1736263048,"current_range_meters":25200,"station_id":"ce4bhu92rcd13ifvqi70","pricing_plan_id":"cebpf4jnsgd1na2vs0mg"},{"bike_id":"801b6d28-060b-47f0-b2a9-226b72b990cc","system_id":"levelo_inurba_marseille","lat":43.30311,"lon":5.36891,"is_reserved":false,"is_disabled":false,"rental_uris":{"android":"levelo://app?vid=801b6d28-060b-47f0-b2a9-226b72b990cc","ios":"levelo://app?vid=801b6d28-060b-47f0-b2a9-226b72b990cc"},"vehicle_type_id":"4","last_reported":1736263048,"current_range_meters":27200,"station_id":"ce4bgqh2rcd13ifvqc5g","pricing_plan_id":"cebpf4jnsgd1na2vs0mg"},{"bike_id":"4d1aab64-dbd9-4cf6-bdcd-52970277e42a","system_id":"levelo_inurba_marseille","lat":43.289398,"lon":5.366536,"is_reserved":false,"is_disabled":false,"rental_uris":{"android":"levelo://app?vid=4d1aab64-dbd9-4cf6-bdcd-52970277e42a","ios":"levelo://app?vid=4d1aab64-dbd9-4cf6-bdcd-52970277e42a"},"vehicle_type_id":"4","last_reported":1736263048,"current_range_meters":24800,"station_id":"ce4bhap2rcd13ifvqek0","pricing_plan_id":"cebpf4jnsgd1na2vs0mg"},{"bike_id":"98e4abe9-268b-4ebe-b8a0-9d17e1060cf4","system_id":"levelo_inurba_marseille","lat":43.32107,"lon":5.368,"is_reserved":false,"is_disabled":false,"rental_uris":{"android":"levelo://app?vid=98e4abe9-268b-4ebe-b8a0-9d17e1060cf4","ios":"levelo://app?vid=98e4abe9-268b-4ebe-b8a0-9d17e1060cf4"},"vehicle_type_id":"4","last_reported":1736263048,"current_range_meters":36800,"station_id":"ce4bhrh2rcd13ifvqhug","pricing_plan_id":"cebpf4jnsgd1na2vs0mg"},{"bike_id":"b82a2cea-0c90-443f-952a-0adeb22f68f1","system_id":"levelo_inurba_marseille","lat":43.28154,"lon":5.42642,"is_reserved":false,"is_disabled":false,"rental_uris":{"android":"levelo://app?vid=b82a2cea-0c90-443f-952a-0adeb22f68f1","ios":"levelo://app?vid=b82a2cea-0c90-443f-952a-0adeb22f68f1"},"vehicle_type_id":"4","last_reported":1736263048,"current_range_meters":16800,"station_id":"ce4bhnh2rcd13ifvqgug","pricing_plan_id":"cebpf4jnsgd1na2vs0mg"},{"bike_id":"0d869571-702b-474e-9734-e51fa36b8db2","system_id":"levelo_inurba_marseille","lat":43.29183,"lon":5.39318,"is_reserved":false,"is_disabled":true,"rental_uris":{"android":"levelo://app?vid=0d869571-702b-474e-9734-e51fa36b8db2","ios":"levelo://app?vid=0d869571-702b-474e-9734-e51fa36b8db2"},"vehicle_type_id":"4","last_reported":1736263048,"current_range_meters":7200,"station_id":"ce4bh192rcd13ifvqdd0","pricing_plan_id":"cebpf4jnsgd1na2vs0mg"},{"bike_id":"d529a0f8-b6c1-44cc-8f2f-bc8da6e8ca6f","system_id":"levelo_inurba_marseille","lat":43.28273,"lon":5.35074,"is_reserved":false,"is_disabled":false,"rental_uris":{"android":"levelo://app?vid=d529a0f8-b6c1-44cc-8f2f-bc8da6e8ca6f","ios":"levelo://app?vid=d529a0f8-b6c1-44cc-8f2f-bc8da6e8ca6f"},"vehicle_type_id":"4","last_reported":1736263048,"current_range_meters":31200,"station_id":"ce4bhbp2rcd13ifvqerg","pricing_plan_id":"cebpf4jnsgd1na2vs0mg"},{"bike_id":"d0001101-abc7-4c20-bb35-baff14639280","system_id":"levelo_inurba_marseille","lat":43.26684,"lon":5.38268,"is_reserved":false,"is_disabled":false,"rental_uris":{"android":"levelo://app?vid=d0001101-abc7-4c20-bb35-baff14639280","ios":"levelo://app?vid=d0001101-abc7-4c20-bb35-baff14639280"},"vehicle_type_id":"4","last_reported":1736263048,"current_range_meters":35200,"station_id":"ce4bhg92rcd13ifvqf90","pricing_plan_id":"cebpf4jnsgd1na2vs0mg"},{"bike_id":"634f6533-1a25-40ca-9a18-12a912b70bc8","system_id":"levelo_inurba_marseille","lat":43.25954,"lon":5.40912,"is_reserved":false,"is_disabled":false,"rental_uris":{"android":"levelo://app?vid=634f6533-1a25-40ca-9a18-12a912b70bc8","ios":"levelo://app?vid=634f6533-1a25-40ca-9a18-12a912b70bc8"},"vehicle_type_id":"4","last_reported":1736263048,"current_range_meters":29600,"station_id":"ce4bhm92rcd13ifvqglg","pricing_plan_id":"cebpf4jnsgd1na2vs0mg"},{"bike_id":"76311466-83d1-4e6b-aba2-a6bcc9265f30","system_id":"levelo_inurba_marseille","lat":43.3042,"lon":5.39748,"is_reserved":false,"is_disabled":false,"rental_uris":{"android":"levelo://app?vid=76311466-83d1-4e6b-aba2-a6bcc9265f30","ios":"levelo://app?vid=76311466-83d1-4e6b-aba2-a6bcc9265f30"},"vehicle_type_id":"4","last_reported":1736263048,"current_range_meters":36000,"station_id":"ce4bh092rcd13ifvqd20","pricing_plan_id":"cebpf4jnsgd1na2vs0mg"},{"bike_id":"5381287e-3448-49d9-8a95-20b4db0fbb42","system_id":"levelo_inurba_marseille","lat":43.26071,"lon":5.39399,"is_reserved":false,"is_disabled":false,"rental_uris":{"android":"levelo://app?vid=5381287e-3448-49d9-8a95-20b4db0fbb42","ios":"levelo://app?vid=5381287e-3448-49d9-8a95-20b4db0fbb42"},"vehicle_type_id":"4","last_reported":1736263048,"current_range_meters":10800,"station_id":"ce4bhh92rcd13ifvqfj0","pricing_plan_id":"cebpf4jnsgd1na2vs0mg"},{"bike_id":"da19e859-6e7d-4e28-bc7f-faab7b0d4274","system_id":"levelo_inurba_marseille","lat":43.32644,"lon":5.40958,"is_reserved":false,"is_disabled":false,"rental_uris":{"android":"levelo://app?vid=da19e859-6e7d-4e28-bc7f-faab7b0d4274","ios":"levelo://app?vid=da19e859-6e7d-4e28-bc7f-faab7b0d4274"},"vehicle_type_id":"4","last_reported":1736263048,"current_range_meters":24400,"station_id":"ce4bhpp2rcd13ifvqhgg","pricing_plan_id":"cebpf4jnsgd1na2vs0mg"},{"bike_id":"6ebaba3b-a1f7-47a9-8a13-a47e91f8a3d0","system_id":"levelo_inurba_marseille","lat":43.26048,"lon":5.37531,"is_reserved":false,"is_disabled":false,"rental_uris":{"android":"levelo://app?vid=6ebaba3b-a1f7-47a9-8a13-a47e91f8a3d0","ios":"levelo://app?vid=6ebaba3b-a1f7-47a9-8a13-a47e91f8a3d0"},"vehicle_type_id":"4","last_reported":1736263048,"current_range_meters":38000,"station_id":"ce4bhgh2rcd13ifvqfa0","pricing_plan_id":"cebpf4jnsgd1na2vs0mg"},{"bike_id":"66e3f884-2832-41f6-a6b1-3bdad41c2efa","system_id":"levelo_inurba_marseille","lat":43.30889,"lon":5.39643,"is_reserved":false,"is_disabled":false,"rental_uris":{"android":"levelo://app?vid=66e3f884-2832-41f6-a6b1-3bdad41c2efa","ios":"levelo://app?vid=66e3f884-2832-41f6-a6b1-3bdad41c2efa"},"vehicle_type_id":"4","last_reported":1736263048,"current_range_meters":38800,"station_id":"ce4bh012rcd13ifvqcv0","pricing_plan_id":"cebpf4jnsgd1na2vs0mg"},{"bike_id":"a23e7dd5-84cc-4eca-9236-90b42c7ed41b","system_id":"levelo_inurba_marseille","lat":43.32343,"lon":5.40624,"is_reserved":false,"is_disabled":false,"rental_uris":{"android":"levelo://app?vid=a23e7dd5-84cc-4eca-9236-90b42c7ed41b","ios":"levelo://app?vid=a23e7dd5-84cc-4eca-9236-90b42c7ed41b"},"vehicle_type_id":"4","last_reported":1736263048,"current_range_meters":12400,"station_id":"ce4bhq92rcd13ifvqhjg","pricing_plan_id":"cebpf4jnsgd1na2vs0mg"},{"bike_id":"1b6a9daa-e594-4067-a45a-776eeee436ff","system_id":"levelo_inurba_marseille","lat":43.241,"lon":5.37753,"is_reserved":false,"is_disabled":true,"rental_uris":{"android":"levelo://app?vid=1b6a9daa-e594-4067-a45a-776eeee436ff","ios":"levelo://app?vid=1b6a9daa-e594-4067-a45a-776eeee436ff"},"vehicle_type_id":"4","last_reported":1736263048,"current_range_meters":0,"station_id":"ce4bhnp2rcd13ifvqgvg","pricing_plan_id":"cebpf4jnsgd1na2vs0mg"},{"bike_id":"ab524bf9-f7ce-40aa-ae97-2a1fe809fb94","system_id":"levelo_inurba_marseille","lat":43.25828,"lon":5.39428,"is_reserved":false,"is_disabled":false,"rental_uris":{"android":"levelo://app?vid=ab524bf9-f7ce-40aa-ae97-2a1fe809fb94","ios":"levelo://app?vid=ab524bf9-f7ce-40aa-ae97-2a1fe809fb94"},"vehicle_type_id":"4","last_reported":1736263048,"current_range_meters":14400,"station_id":"ce4bhip2rcd13ifvqft0","pricing_plan_id":"cebpf4jnsgd1na2vs0mg"},{"bike_id":"7f3583a0-2a43-4173-9489-ad9aedc3bf58","system_id":"levelo_inurba_marseille","lat":43.32378,"lon":5.38882,"is_reserved":false,"is_disabled":false,"rental_uris":{"android":"levelo://app?vid=7f3583a0-2a43-4173-9489-ad9aedc3bf58","ios":"levelo://app?vid=7f3583a0-2a43-4173-9489-ad9aedc3bf58"},"vehicle_type_id":"4","last_reported":1736263048,"current_range_meters":8800,"station_id":"ce4bhqp2rcd13ifvqhog","pricing_plan_id":"cebpf4jnsgd1na2vs0mg"},{"bike_id":"88d989e5-178d-455c-a575-572c065d5c0b","system_id":"levelo_inurba_marseille","lat":43.29966,"lon":5.38496,"is_reserved":false,"is_disabled":false,"rental_uris":{"android":"levelo://app?vid=88d989e5-178d-455c-a575-572c065d5c0b","ios":"levelo://app?vid=88d989e5-178d-455c-a575-572c065d5c0b"},"vehicle_type_id":"4","last_reported":1736263048,"current_range_meters":30000,"station_id":"ce4bgj92rcd13ifvqbd0","pricing_plan_id":"cebpf4jnsgd1na2vs0mg"},{"bike_id":"db973fb0-a7a7-419f-905d-9711a91dd280","system_id":"levelo_inurba_marseille","lat":43.25715,"lon":5.4111,"is_reserved":false,"is_disabled":true,"rental_uris":{"android":"levelo://app?vid=db973fb0-a7a7-419f-905d-9711a91dd280","ios":"levelo://app?vid=db973fb0-a7a7-419f-905d-9711a91dd280"},"vehicle_type_id":"4","last_reported":1736263048,"current_range_meters":35600,"station_id":"ce4bhkp2rcd13ifvqgd0","pricing_plan_id":"cebpf4jnsgd1na2vs0mg"},{"bike_id":"a0b57a50-67bc-4d12-bffe-4176748f2bc4","system_id":"levelo_inurba_marseille","lat":43.30281,"lon":5.36896,"is_reserved":false,"is_disabled":false,"rental_uris":{"android":"levelo://app?vid=a0b57a50-67bc-4d12-bffe-4176748f2bc4","ios":"levelo://app?vid=a0b57a50-67bc-4d12-bffe-4176748f2bc4"},"vehicle_type_id":"4","last_reported":1736263048,"current_range_meters":14800,"station_id":"ce4bgqh2rcd13ifvqc5g","pricing_plan_id":"cebpf4jnsgd1na2vs0mg"},{"bike_id":"a3df46a9-bc09-4ef4-a6b2-edea7e9e88cd","system_id":"levelo_inurba_marseille","lat":43.24072,"lon":5.37769,"is_reserved":false,"is_disabled":false,"rental_uris":{"android":"levelo://app?vid=a3df46a9-bc09-4ef4-a6b2-edea7e9e88cd","ios":"levelo://app?vid=a3df46a9-bc09-4ef4-a6b2-edea7e9e88cd"},"vehicle_type_id":"4","last_reported":1736263048,"current_range_meters":22000,"station_id":"ce4bhnp2rcd13ifvqgvg","pricing_plan_id":"cebpf4jnsgd1na2vs0mg"},{"bike_id":"b82f60df-9d15-470d-a7c4-173c19219ebf","system_id":"levelo_inurba_marseille","lat":43.272,"lon":5.40964,"is_reserved":false,"is_disabled":false,"rental_uris":{"android":"levelo://app?vid=b82f60df-9d15-470d-a7c4-173c19219ebf","ios":"levelo://app?vid=b82f60df-9d15-470d-a7c4-173c19219ebf"},"vehicle_type_id":"4","last_reported":1736263048,"current_range_meters":37600,"station_id":"ce4bhl12rcd13ifvqgf0","pricing_plan_id":"cebpf4jnsgd1na2vs0mg"},{"bike_id":"a7120202-8c32-4476-b267-de96ca2aca30","system_id":"levelo_inurba_marseille","lat":43.30791,"lon":5.37647,"is_reserved":false,"is_disabled":false,"rental_uris":{"android":"levelo://app?vid=a7120202-8c32-4476-b267-de96ca2aca30","ios":"levelo://app?vid=a7120202-8c32-4476-b267-de96ca2aca30"},"vehicle_type_id":"4","last_reported":1736263048,"current_range_meters":38800,"station_id":"ce4bgv92rcd13ifvqcq0","pricing_plan_id":"cebpf4jnsgd1na2vs0mg"},{"bike_id":"240583e2-22ce-4a44-8ce3-4744576473a5","system_id":"levelo_inurba_marseille","lat":43.26568,"lon":5.39008,"is_reserved":false,"is_disabled":true,"rental_uris":{"android":"levelo://app?vid=240583e2-22ce-4a44-8ce3-4744576473a5","ios":"levelo://app?vid=240583e2-22ce-4a44-8ce3-4744576473a5"},"vehicle_type_id":"4","last_reported":1736263048,"current_range_meters":800,"station_id":"ce4bhe12rcd13ifvqf30","pricing_plan_id":"cebpf4jnsgd1na2vs0mg"},{"bike_id":"156d2d1b-6576-492f-8916-c670648c397f","system_id":"levelo_inurba_marseille","lat":43.32294,"lon":5.3826,"is_reserved":false,"is_disabled":false,"rental_uris":{"android":"levelo://app?vid=156d2d1b-6576-492f-8916-c670648c397f","ios":"levelo://app?vid=156d2d1b-6576-492f-8916-c670648c397f"},"vehicle_type_id":"4","last_reported":1736263048,"current_range_meters":38800,"station_id":"ce4bhr12rcd13ifvqhqg","pricing_plan_id":"cebpf4jnsgd1na2vs0mg"},{"bike_id":"c0582d81-71b0-4eea-ba50-4da054cc145f","system_id":"levelo_inurba_marseille","lat":43.28178,"lon":5.42664,"is_reserved":false,"is_disabled":false,"rental_uris":{"android":"levelo://app?vid=c0582d81-71b0-4eea-ba50-4da054cc145f","ios":"levelo://app?vid=c0582d81-71b0-4eea-ba50-4da054cc145f"},"vehicle_type_id":"4","last_reported":1736263048,"current_range_meters":4800,"station_id":"ce4bhnh2rcd13ifvqgug","pricing_plan_id":"cebpf4jnsgd1na2vs0mg"},{"bike_id":"502b9a2d-7119-4752-a288-d02d6d3527f6","system_id":"levelo_inurba_marseille","lat":43.28466,"lon":5.35888,"is_reserved":false,"is_disabled":false,"rental_uris":{"android":"levelo://app?vid=502b9a2d-7119-4752-a288-d02d6d3527f6","ios":"levelo://app?vid=502b9a2d-7119-4752-a288-d02d6d3527f6"},"vehicle_type_id":"4","last_reported":1736263048,"current_range_meters":21600,"station_id":"ce4bhah2rcd13ifvqei0","pricing_plan_id":"cebpf4jnsgd1na2vs0mg"},{"bike_id":"bc9bb4d7-2fdc-4d34-b0a0-ed77a3035abd","system_id":"levelo_inurba_marseille","lat":43.31722,"lon":5.37755,"is_reserved":false,"is_disabled":false,"rental_uris":{"android":"levelo://app?vid=bc9bb4d7-2fdc-4d34-b0a0-ed77a3035abd","ios":"levelo://app?vid=bc9bb4d7-2fdc-4d34-b0a0-ed77a3035abd"},"vehicle_type_id":"4","last_reported":1736263048,"current_range_meters":26000,"station_id":"ce4bgth2rcd13ifvqch0","pricing_plan_id":"cebpf4jnsgd1na2vs0mg"},{"bike_id":"3d6cb5bf-4b49-4f03-909c-8c4b47736778","system_id":"levelo_inurba_marseille","lat":43.27496,"lon":5.42458,"is_reserved":false,"is_disabled":false,"rental_uris":{"android":"levelo://app?vid=3d6cb5bf-4b49-4f03-909c-8c4b47736778","ios":"levelo://app?vid=3d6cb5bf-4b49-4f03-909c-8c4b47736778"},"vehicle_type_id":"4","last_reported":1736263048,"current_range_meters":22800,"station_id":"ce4bhn92rcd13ifvqgrg","pricing_plan_id":"cebpf4jnsgd1na2vs0mg"},{"bike_id":"e4958d61-1aca-4c51-84c3-7e022a64e584","system_id":"levelo_inurba_marseille","lat":43.25865,"lon":5.39911,"is_reserved":false,"is_disabled":false,"rental_uris":{"android":"levelo://app?vid=e4958d61-1aca-4c51-84c3-7e022a64e584","ios":"levelo://app?vid=e4958d61-1aca-4c51-84c3-7e022a64e584"},"vehicle_type_id":"4","last_reported":1736263048,"current_range_meters":38800,"station_id":"ce4bhl92rcd13ifvqghg","pricing_plan_id":"cebpf4jnsgd1na2vs0mg"},{"bike_id":"3f547e86-54ec-4169-8192-a9a6d1ba6ffe","system_id":"levelo_inurba_marseille","lat":43.26553,"lon":5.37285,"is_reserved":false,"is_disabled":false,"rental_uris":{"android":"levelo://app?vid=3f547e86-54ec-4169-8192-a9a6d1ba6ffe","ios":"levelo://app?vid=3f547e86-54ec-4169-8192-a9a6d1ba6ffe"},"vehicle_type_id":"4","last_reported":1736263048,"current_range_meters":34000,"station_id":"ce4bhg12rcd13ifvqf70","pricing_plan_id":"cebpf4jnsgd1na2vs0mg"},{"bike_id":"ccefbdf4-df27-4947-9b01-eba3707af800","system_id":"levelo_inurba_marseille","lat":43.29533,"lon":5.38547,"is_reserved":false,"is_disabled":true,"rental_uris":{"android":"levelo://app?vid=ccefbdf4-df27-4947-9b01-eba3707af800","ios":"levelo://app?vid=ccefbdf4-df27-4947-9b01-eba3707af800"},"vehicle_type_id":"4","last_reported":1736263048,"current_range_meters":20000,"station_id":"ce4bgih2rcd13ifvqba0","pricing_plan_id":"cebpf4jnsgd1na2vs0mg"},{"bike_id":"15c6a4a4-22a2-45b6-a26f-20172a12246a","system_id":"levelo_inurba_marseille","lat":43.25094,"lon":5.39515,"is_reserved":false,"is_disabled":false,"rental_uris":{"android":"levelo://app?vid=15c6a4a4-22a2-45b6-a26f-20172a12246a","ios":"levelo://app?vid=15c6a4a4-22a2-45b6-a26f-20172a12246a"},"vehicle_type_id":"4","last_reported":1736263048,"current_range_meters":36800,"station_id":"ce4bhm12rcd13ifvqgkg","pricing_plan_id":"cebpf4jnsgd1na2vs0mg"},{"bike_id":"0908c4b2-c3d3-4673-b3b6-36d323b85284","system_id":"levelo_inurba_marseille","lat":43.299271,"lon":5.374765,"is_reserved":false,"is_disabled":false,"rental_uris":{"android":"levelo://app?vid=0908c4b2-c3d3-4673-b3b6-36d323b85284","ios":"levelo://app?vid=0908c4b2-c3d3-4673-b3b6-36d323b85284"},"vehicle_type_id":"4","last_reported":1736263048,"current_range_meters":38800,"station_id":"ce4bgjh2rcd13ifvqbg0","pricing_plan_id":"cebpf4jnsgd1na2vs0mg"},{"bike_id":"28d02236-57e1-4169-a37a-b851132c6fa5","system_id":"levelo_inurba_marseille","lat":43.30883,"lon":5.37189,"is_reserved":false,"is_disabled":false,"rental_uris":{"android":"levelo://app?vid=28d02236-57e1-4169-a37a-b851132c6fa5","ios":"levelo://app?vid=28d02236-57e1-4169-a37a-b851132c6fa5"},"vehicle_type_id":"4","last_reported":1736263048,"current_range_meters":20000,"station_id":"ce4bguh2rcd13ifvqckg","pricing_plan_id":"cebpf4jnsgd1na2vs0mg"},{"bike_id":"2caa7ff0-56a0-4a66-805c-847ccd11c31b","system_id":"levelo_inurba_marseille","lat":43.31333,"lon":5.39683,"is_reserved":false,"is_disabled":false,"rental_uris":{"android":"levelo://app?vid=2caa7ff0-56a0-4a66-805c-847ccd11c31b","ios":"levelo://app?vid=2caa7ff0-56a0-4a66-805c-847ccd11c31b"},"vehicle_type_id":"4","last_reported":1736263048,"current_range_meters":20400,"station_id":"ce4bgvp2rcd13ifvqcu0","pricing_plan_id":"cebpf4jnsgd1na2vs0mg"},{"bike_id":"4b8b5291-f8ca-441b-adff-fccde8cba2cd","system_id":"levelo_inurba_marseille","lat":43.33611,"lon":5.41033,"is_reserved":false,"is_disabled":true,"rental_uris":{"android":"levelo://app?vid=4b8b5291-f8ca-441b-adff-fccde8cba2cd","ios":"levelo://app?vid=4b8b5291-f8ca-441b-adff-fccde8cba2cd"},"vehicle_type_id":"4","last_reported":1736263048,"current_range_meters":800,"station_id":"ce4bhqh2rcd13ifvqhmg","pricing_plan_id":"cebpf4jnsgd1na2vs0mg"},{"bike_id":"637c9e25-6ec5-4d5c-9ec9-ed6c73dcb821","system_id":"levelo_inurba_marseille","lat":43.31706,"lon":5.3778,"is_reserved":false,"is_disabled":false,"rental_uris":{"android":"levelo://app?vid=637c9e25-6ec5-4d5c-9ec9-ed6c73dcb821","ios":"levelo://app?vid=637c9e25-6ec5-4d5c-9ec9-ed6c73dcb821"},"vehicle_type_id":"4","last_reported":1736263048,"current_range_meters":35600,"station_id":"ce4bgth2rcd13ifvqch0","pricing_plan_id":"cebpf4jnsgd1na2vs0mg"},{"bike_id":"b02fab9b-85e2-4691-a949-9c3558950865","system_id":"levelo_inurba_marseille","lat":43.31325,"lon":5.39687,"is_reserved":false,"is_disabled":false,"rental_uris":{"android":"levelo://app?vid=b02fab9b-85e2-4691-a949-9c3558950865","ios":"levelo://app?vid=b02fab9b-85e2-4691-a949-9c3558950865"},"vehicle_type_id":"4","last_reported":1736263048,"current_range_meters":12800,"station_id":"ce4bgvp2rcd13ifvqcu0","pricing_plan_id":"cebpf4jnsgd1na2vs0mg"},{"bike_id":"5671a7cc-1094-4b46-906d-b97f733ad9e2","system_id":"levelo_inurba_marseille","lat":43.3035,"lon":5.40438,"is_reserved":false,"is_disabled":true,"rental_uris":{"android":"levelo://app?vid=5671a7cc-1094-4b46-906d-b97f733ad9e2","ios":"levelo://app?vid=5671a7cc-1094-4b46-906d-b97f733ad9e2"},"vehicle_type_id":"4","last_reported":1736263048,"current_range_meters":36800,"station_id":"ce4bh012rcd13ifvqd10","pricing_plan_id":"cebpf4jnsgd1na2vs0mg"},{"bike_id":"8e2f7463-a3a6-4b6c-912d-9690903cc379","system_id":"levelo_inurba_marseille","lat":43.27376,"lon":5.3627,"is_reserved":false,"is_disabled":false,"rental_uris":{"android":"levelo://app?vid=8e2f7463-a3a6-4b6c-912d-9690903cc379","ios":"levelo://app?vid=8e2f7463-a3a6-4b6c-912d-9690903cc379"},"vehicle_type_id":"4","last_reported":1736263048,"current_range_meters":19600,"station_id":"ce4bhbh2rcd13ifvqeo0","pricing_plan_id":"cebpf4jnsgd1na2vs0mg"},{"bike_id":"002cce3f-9cee-431a-a280-2bf32cc03b16","system_id":"levelo_inurba_marseille","lat":43.30906,"lon":5.3719,"is_reserved":false,"is_disabled":false,"rental_uris":{"android":"levelo://app?vid=002cce3f-9cee-431a-a280-2bf32cc03b16","ios":"levelo://app?vid=002cce3f-9cee-431a-a280-2bf32cc03b16"},"vehicle_type_id":"4","last_reported":1736263048,"current_range_meters":36000,"station_id":"ce4bguh2rcd13ifvqckg","pricing_plan_id":"cebpf4jnsgd1na2vs0mg"},{"bike_id":"005c2044-0c78-410b-b1cd-e1e9feaa0e05","system_id":"levelo_inurba_marseille","lat":43.23968,"lon":5.3663,"is_reserved":false,"is_disabled":false,"rental_uris":{"android":"levelo://app?vid=005c2044-0c78-410b-b1cd-e1e9feaa0e05","ios":"levelo://app?vid=005c2044-0c78-410b-b1cd-e1e9feaa0e05"},"vehicle_type_id":"4","last_reported":1736263048,"current_range_meters":17600,"station_id":"ce4bhi12rcd13ifvqfp0","pricing_plan_id":"cebpf4jnsgd1na2vs0mg"},{"bike_id":"83e92402-9af8-49f1-b694-2ed3294fa65f","system_id":"levelo_inurba_marseille","lat":43.28461,"lon":5.3588,"is_reserved":false,"is_disabled":false,"rental_uris":{"android":"levelo://app?vid=83e92402-9af8-49f1-b694-2ed3294fa65f","ios":"levelo://app?vid=83e92402-9af8-49f1-b694-2ed3294fa65f"},"vehicle_type_id":"4","last_reported":1736263048,"current_range_meters":33600,"station_id":"ce4bhah2rcd13ifvqei0","pricing_plan_id":"cebpf4jnsgd1na2vs0mg"},{"bike_id":"ce411bdc-5654-43f6-be62-dbc0deb638b9","system_id":"levelo_inurba_marseille","lat":43.30593,"lon":5.37309,"is_reserved":false,"is_disabled":false,"rental_uris":{"android":"levelo://app?vid=ce411bdc-5654-43f6-be62-dbc0deb638b9","ios":"levelo://app?vid=ce411bdc-5654-43f6-be62-dbc0deb638b9"},"vehicle_type_id":"4","last_reported":1736263048,"current_range_meters":20400,"station_id":"","pricing_plan_id":"cebpf4jnsgd1na2vs0mg"},{"bike_id":"94ae9d8d-339e-41f5-bf14-1e9df4322647","system_id":"levelo_inurba_marseille","lat":43.27494,"lon":5.4246,"is_reserved":false,"is_disabled":true,"rental_uris":{"android":"levelo://app?vid=94ae9d8d-339e-41f5-bf14-1e9df4322647","ios":"levelo://app?vid=94ae9d8d-339e-41f5-bf14-1e9df4322647"},"vehicle_type_id":"4","last_reported":1736263048,"current_range_meters":36400,"station_id":"ce4bhn92rcd13ifvqgrg","pricing_plan_id":"cebpf4jnsgd1na2vs0mg"},{"bike_id":"6a595de3-0911-46a9-bdbf-4cca5437105e","system_id":"levelo_inurba_marseille","lat":43.23208,"lon":5.3555,"is_reserved":false,"is_disabled":false,"rental_uris":{"android":"levelo://app?vid=6a595de3-0911-46a9-bdbf-4cca5437105e","ios":"levelo://app?vid=6a595de3-0911-46a9-bdbf-4cca5437105e"},"vehicle_type_id":"4","last_reported":1736263048,"current_range_meters":16000,"station_id":"ce4bhu92rcd13ifvqi70","pricing_plan_id":"cebpf4jnsgd1na2vs0mg"},{"bike_id":"641d8acc-50b2-4173-ab23-c70f2a11d28e","system_id":"levelo_inurba_marseille","lat":43.28181,"lon":5.42648,"is_reserved":false,"is_disabled":true,"rental_uris":{"android":"levelo://app?vid=641d8acc-50b2-4173-ab23-c70f2a11d28e","ios":"levelo://app?vid=641d8acc-50b2-4173-ab23-c70f2a11d28e"},"vehicle_type_id":"4","last_reported":1736263048,"current_range_meters":23200,"station_id":"ce4bhnh2rcd13ifvqgug","pricing_plan_id":"cebpf4jnsgd1na2vs0mg"},{"bike_id":"48571fa2-5620-4c90-a360-277fbb4b2a92","system_id":"levelo_inurba_marseille","lat":43.29636,"lon":5.37167,"is_reserved":false,"is_disabled":false,"rental_uris":{"android":"levelo://app?vid=48571fa2-5620-4c90-a360-277fbb4b2a92","ios":"levelo://app?vid=48571fa2-5620-4c90-a360-277fbb4b2a92"},"vehicle_type_id":"4","last_reported":1736263048,"current_range_meters":16800,"station_id":"ce4bgnh2rcd13ifvqc0g","pricing_plan_id":"cebpf4jnsgd1na2vs0mg"},{"bike_id":"15e503f5-1d52-42d6-a98f-33a61fd8b554","system_id":"levelo_inurba_marseille","lat":43.28458,"lon":5.35891,"is_reserved":false,"is_disabled":true,"rental_uris":{"android":"levelo://app?vid=15e503f5-1d52-42d6-a98f-33a61fd8b554","ios":"levelo://app?vid=15e503f5-1d52-42d6-a98f-33a61fd8b554"},"vehicle_type_id":"4","last_reported":1736263048,"current_range_meters":16000,"station_id":"ce4bhah2rcd13ifvqei0","pricing_plan_id":"cebpf4jnsgd1na2vs0mg"},{"bike_id":"f869105d-d81e-4459-8b1d-8c6801e08912","system_id":"levelo_inurba_marseille","lat":43.3169,"lon":5.40475,"is_reserved":false,"is_disabled":true,"rental_uris":{"android":"levelo://app?vid=f869105d-d81e-4459-8b1d-8c6801e08912","ios":"levelo://app?vid=f869105d-d81e-4459-8b1d-8c6801e08912"},"vehicle_type_id":"4","last_reported":1736263048,"current_range_meters":2000,"station_id":"ce4bh012rcd13ifvqd00","pricing_plan_id":"cebpf4jnsgd1na2vs0mg"},{"bike_id":"743da956-91d0-4fdb-ac95-d6ea6c27fc75","system_id":"levelo_inurba_marseille","lat":43.29797,"lon":5.38084,"is_reserved":false,"is_disabled":false,"rental_uris":{"android":"levelo://app?vid=743da956-91d0-4fdb-ac95-d6ea6c27fc75","ios":"levelo://app?vid=743da956-91d0-4fdb-ac95-d6ea6c27fc75"},"vehicle_type_id":"4","last_reported":1736263048,"current_range_meters":26800,"station_id":"ce4bgip2rcd13ifvqbb0","pricing_plan_id":"cebpf4jnsgd1na2vs0mg"},{"bike_id":"97db5fba-863c-4fa0-a4ed-153fce28887a","system_id":"levelo_inurba_marseille","lat":43.29067,"lon":5.3717,"is_reserved":false,"is_disabled":false,"rental_uris":{"android":"levelo://app?vid=97db5fba-863c-4fa0-a4ed-153fce28887a","ios":"levelo://app?vid=97db5fba-863c-4fa0-a4ed-153fce28887a"},"vehicle_type_id":"4","last_reported":1736263048,"current_range_meters":35200,"station_id":"ce4bh5p2rcd13ifvqe4g","pricing_plan_id":"cebpf4jnsgd1na2vs0mg"},{"bike_id":"6d88bbf0-f428-4bd4-ab8a-2ee8d5e7c74e","system_id":"levelo_inurba_marseille","lat":43.23076,"lon":5.35488,"is_reserved":false,"is_disabled":false,"rental_uris":{"android":"levelo://app?vid=6d88bbf0-f428-4bd4-ab8a-2ee8d5e7c74e","ios":"levelo://app?vid=6d88bbf0-f428-4bd4-ab8a-2ee8d5e7c74e"},"vehicle_type_id":"4","last_reported":1736263048,"current_range_meters":38000,"station_id":"cpo3342slgdg3j2ifvpg","pricing_plan_id":"cebpf4jnsgd1na2vs0mg"},{"bike_id":"fc28be46-23fe-4f09-821c-8a3bd21ca77c","system_id":"levelo_inurba_marseille","lat":43.25601,"lon":5.38241,"is_reserved":false,"is_disabled":true,"rental_uris":{"android":"levelo://app?vid=fc28be46-23fe-4f09-821c-8a3bd21ca77c","ios":"levelo://app?vid=fc28be46-23fe-4f09-821c-8a3bd21ca77c"},"vehicle_type_id":"4","last_reported":1736263048,"current_range_meters":400,"station_id":"ce4bhih2rcd13ifvqfs0","pricing_plan_id":"cebpf4jnsgd1na2vs0mg"},{"bike_id":"97198f3e-fcb9-40de-ae26-e22e21936593","system_id":"levelo_inurba_marseille","lat":43.25825,"lon":5.39427,"is_reserved":false,"is_disabled":false,"rental_uris":{"android":"levelo://app?vid=97198f3e-fcb9-40de-ae26-e22e21936593","ios":"levelo://app?vid=97198f3e-fcb9-40de-ae26-e22e21936593"},"vehicle_type_id":"4","last_reported":1736263048,"current_range_meters":36000,"station_id":"ce4bhip2rcd13ifvqft0","pricing_plan_id":"cebpf4jnsgd1na2vs0mg"},{"bike_id":"60fab713-7908-4e66-b30a-4dc4fc38385b","system_id":"levelo_inurba_marseille","lat":43.29535,"lon":5.38557,"is_reserved":false,"is_disabled":false,"rental_uris":{"android":"levelo://app?vid=60fab713-7908-4e66-b30a-4dc4fc38385b","ios":"levelo://app?vid=60fab713-7908-4e66-b30a-4dc4fc38385b"},"vehicle_type_id":"4","last_reported":1736263048,"current_range_meters":29600,"station_id":"ce4bgih2rcd13ifvqba0","pricing_plan_id":"cebpf4jnsgd1na2vs0mg"},{"bike_id":"854cf3c1-e5d6-4373-9881-28227030328d","system_id":"levelo_inurba_marseille","lat":43.30602,"lon":5.37229,"is_reserved":false,"is_disabled":false,"rental_uris":{"android":"levelo://app?vid=854cf3c1-e5d6-4373-9881-28227030328d","ios":"levelo://app?vid=854cf3c1-e5d6-4373-9881-28227030328d"},"vehicle_type_id":"4","last_reported":1736263048,"current_range_meters":12000,"station_id":"ce4bgqh2rcd13ifvqc4g","pricing_plan_id":"cebpf4jnsgd1na2vs0mg"},{"bike_id":"0be78547-3d45-442c-9aa9-39892a59b56b","system_id":"levelo_inurba_marseille","lat":43.29255,"lon":5.40929,"is_reserved":false,"is_disabled":false,"rental_uris":{"android":"levelo://app?vid=0be78547-3d45-442c-9aa9-39892a59b56b","ios":"levelo://app?vid=0be78547-3d45-442c-9aa9-39892a59b56b"},"vehicle_type_id":"4","last_reported":1736263048,"current_range_meters":36800,"station_id":"ce4bh192rcd13ifvqdc0","pricing_plan_id":"cebpf4jnsgd1na2vs0mg"},{"bike_id":"86cfe359-1d07-4226-a8aa-b9731bd056a4","system_id":"levelo_inurba_marseille","lat":43.30175,"lon":5.3739,"is_reserved":false,"is_disabled":false,"rental_uris":{"android":"levelo://app?vid=86cfe359-1d07-4226-a8aa-b9731bd056a4","ios":"levelo://app?vid=86cfe359-1d07-4226-a8aa-b9731bd056a4"},"vehicle_type_id":"4","last_reported":1736263048,"current_range_meters":38800,"station_id":"ce4bgs92rcd13ifvqcc0","pricing_plan_id":"cebpf4jnsgd1na2vs0mg"},{"bike_id":"7588f81f-7fd5-474b-a239-8d15f8bdc64c","system_id":"levelo_inurba_marseille","lat":43.28712,"lon":5.37933,"is_reserved":false,"is_disabled":false,"rental_uris":{"android":"levelo://app?vid=7588f81f-7fd5-474b-a239-8d15f8bdc64c","ios":"levelo://app?vid=7588f81f-7fd5-474b-a239-8d15f8bdc64c"},"vehicle_type_id":"4","last_reported":1736263048,"current_range_meters":28400,"station_id":"ce4bh9p2rcd13ifvqec0","pricing_plan_id":"cebpf4jnsgd1na2vs0mg"},{"bike_id":"56534aac-e0cb-46c8-b5db-2f49272a6c11","system_id":"levelo_inurba_marseille","lat":43.290569,"lon":5.37173,"is_reserved":false,"is_disabled":false,"rental_uris":{"android":"levelo://app?vid=56534aac-e0cb-46c8-b5db-2f49272a6c11","ios":"levelo://app?vid=56534aac-e0cb-46c8-b5db-2f49272a6c11"},"vehicle_type_id":"4","last_reported":1736263048,"current_range_meters":37600,"station_id":"ce4bh5p2rcd13ifvqe4g","pricing_plan_id":"cebpf4jnsgd1na2vs0mg"},{"bike_id":"b7d67654-61c1-451d-9270-26008ecc34ff","system_id":"levelo_inurba_marseille","lat":43.30797,"lon":5.37645,"is_reserved":false,"is_disabled":false,"rental_uris":{"android":"levelo://app?vid=b7d67654-61c1-451d-9270-26008ecc34ff","ios":"levelo://app?vid=b7d67654-61c1-451d-9270-26008ecc34ff"},"vehicle_type_id":"4","last_reported":1736263048,"current_range_meters":22800,"station_id":"ce4bgv92rcd13ifvqcq0","pricing_plan_id":"cebpf4jnsgd1na2vs0mg"},{"bike_id":"a6b1fa15-0d95-44cb-8be4-c3e55514c811","system_id":"levelo_inurba_marseille","lat":43.27322,"lon":5.39086,"is_reserved":false,"is_disabled":false,"rental_uris":{"android":"levelo://app?vid=a6b1fa15-0d95-44cb-8be4-c3e55514c811","ios":"levelo://app?vid=a6b1fa15-0d95-44cb-8be4-c3e55514c811"},"vehicle_type_id":"4","last_reported":1736263048,"current_range_meters":7200,"station_id":"ce4bhgp2rcd13ifvqfe0","pricing_plan_id":"cebpf4jnsgd1na2vs0mg"},{"bike_id":"e3df195b-7831-46df-9a50-3762e1731511","system_id":"levelo_inurba_marseille","lat":43.30536,"lon":5.38416,"is_reserved":false,"is_disabled":false,"rental_uris":{"android":"levelo://app?vid=e3df195b-7831-46df-9a50-3762e1731511","ios":"levelo://app?vid=e3df195b-7831-46df-9a50-3762e1731511"},"vehicle_type_id":"4","last_reported":1736263048,"current_range_meters":24800,"station_id":"ce4bgg92rcd13ifvqb30","pricing_plan_id":"cebpf4jnsgd1na2vs0mg"},{"bike_id":"17dac27c-5e30-4c33-bee3-781111cc9298","system_id":"levelo_inurba_marseille","lat":43.30308,"lon":5.36904,"is_reserved":false,"is_disabled":false,"rental_uris":{"android":"levelo://app?vid=17dac27c-5e30-4c33-bee3-781111cc9298","ios":"levelo://app?vid=17dac27c-5e30-4c33-bee3-781111cc9298"},"vehicle_type_id":"4","last_reported":1736263048,"current_range_meters":16400,"station_id":"ce4bgqh2rcd13ifvqc5g","pricing_plan_id":"cebpf4jnsgd1na2vs0mg"},{"bike_id":"893ec7b0-8a9f-4bca-85c7-0875cbda4d1c","system_id":"levelo_inurba_marseille","lat":43.293,"lon":5.36856,"is_reserved":false,"is_disabled":false,"rental_uris":{"android":"levelo://app?vid=893ec7b0-8a9f-4bca-85c7-0875cbda4d1c","ios":"levelo://app?vid=893ec7b0-8a9f-4bca-85c7-0875cbda4d1c"},"vehicle_type_id":"4","last_reported":1736263048,"current_range_meters":32400,"station_id":"ce4bhbp2rcd13ifvqesg","pricing_plan_id":"cebpf4jnsgd1na2vs0mg"},{"bike_id":"b169121f-f3f2-4be0-893a-134617a6ef97","system_id":"levelo_inurba_marseille","lat":43.26703,"lon":5.38236,"is_reserved":false,"is_disabled":false,"rental_uris":{"android":"levelo://app?vid=b169121f-f3f2-4be0-893a-134617a6ef97","ios":"levelo://app?vid=b169121f-f3f2-4be0-893a-134617a6ef97"},"vehicle_type_id":"4","last_reported":1736263048,"current_range_meters":39200,"station_id":"ce4bhg92rcd13ifvqf90","pricing_plan_id":"cebpf4jnsgd1na2vs0mg"},{"bike_id":"6f8a166a-9182-4cbc-8130-ee9beef80f31","system_id":"levelo_inurba_marseille","lat":43.2731,"lon":5.39099,"is_reserved":false,"is_disabled":false,"rental_uris":{"android":"levelo://app?vid=6f8a166a-9182-4cbc-8130-ee9beef80f31","ios":"levelo://app?vid=6f8a166a-9182-4cbc-8130-ee9beef80f31"},"vehicle_type_id":"4","last_reported":1736263048,"current_range_meters":39200,"station_id":"ce4bhgp2rcd13ifvqfe0","pricing_plan_id":"cebpf4jnsgd1na2vs0mg"},{"bike_id":"cdfea266-e5fd-4018-a292-1ba3701f72dd","system_id":"levelo_inurba_marseille","lat":43.25499,"lon":5.37665,"is_reserved":false,"is_disabled":false,"rental_uris":{"android":"levelo://app?vid=cdfea266-e5fd-4018-a292-1ba3701f72dd","ios":"levelo://app?vid=cdfea266-e5fd-4018-a292-1ba3701f72dd"},"vehicle_type_id":"4","last_reported":1736263048,"current_range_meters":31200,"station_id":"ce4bhh12rcd13ifvqff0","pricing_plan_id":"cebpf4jnsgd1na2vs0mg"},{"bike_id":"911c7a58-1b57-4089-869a-8ea117431927","system_id":"levelo_inurba_marseille","lat":43.26687,"lon":5.38269,"is_reserved":false,"is_disabled":false,"rental_uris":{"android":"levelo://app?vid=911c7a58-1b57-4089-869a-8ea117431927","ios":"levelo://app?vid=911c7a58-1b57-4089-869a-8ea117431927"},"vehicle_type_id":"4","last_reported":1736263048,"current_range_meters":38800,"station_id":"ce4bhg92rcd13ifvqf90","pricing_plan_id":"cebpf4jnsgd1na2vs0mg"},{"bike_id":"38044d45-d609-42d4-8891-8640d4886498","system_id":"levelo_inurba_marseille","lat":43.24427,"lon":5.37083,"is_reserved":false,"is_disabled":false,"rental_uris":{"android":"levelo://app?vid=38044d45-d609-42d4-8891-8640d4886498","ios":"levelo://app?vid=38044d45-d609-42d4-8891-8640d4886498"},"vehicle_type_id":"4","last_reported":1736263048,"current_range_meters":38000,"station_id":"ce4bhhh2rcd13ifvqfk0","pricing_plan_id":"cebpf4jnsgd1na2vs0mg"},{"bike_id":"3c96135c-be1c-48d4-af35-f77f88dd5989","system_id":"levelo_inurba_marseille","lat":43.29234,"lon":5.36048,"is_reserved":false,"is_disabled":true,"rental_uris":{"android":"levelo://app?vid=3c96135c-be1c-48d4-af35-f77f88dd5989","ios":"levelo://app?vid=3c96135c-be1c-48d4-af35-f77f88dd5989"},"vehicle_type_id":"4","last_reported":1736263048,"current_range_meters":30000,"station_id":"ce4bhbh2rcd13ifvqeqg","pricing_plan_id":"cebpf4jnsgd1na2vs0mg"},{"bike_id":"ed0285d2-9671-490a-867a-4b0abee4e258","system_id":"levelo_inurba_marseille","lat":43.30433,"lon":5.39746,"is_reserved":false,"is_disabled":false,"rental_uris":{"android":"levelo://app?vid=ed0285d2-9671-490a-867a-4b0abee4e258","ios":"levelo://app?vid=ed0285d2-9671-490a-867a-4b0abee4e258"},"vehicle_type_id":"4","last_reported":1736263048,"current_range_meters":12000,"station_id":"ce4bh092rcd13ifvqd20","pricing_plan_id":"cebpf4jnsgd1na2vs0mg"},{"bike_id":"047a802f-5948-4bab-b1ab-5019666a43d6","system_id":"levelo_inurba_marseille","lat":43.299,"lon":5.38909,"is_reserved":false,"is_disabled":false,"rental_uris":{"android":"levelo://app?vid=047a802f-5948-4bab-b1ab-5019666a43d6","ios":"levelo://app?vid=047a802f-5948-4bab-b1ab-5019666a43d6"},"vehicle_type_id":"4","last_reported":1736263048,"current_range_meters":20400,"station_id":"ce4bh392rcd13ifvqdl0","pricing_plan_id":"cebpf4jnsgd1na2vs0mg"},{"bike_id":"145a6ae2-cb5f-42da-be0f-1ab1a50a1500","system_id":"levelo_inurba_marseille","lat":43.2763,"lon":5.3611,"is_reserved":false,"is_disabled":false,"rental_uris":{"android":"levelo://app?vid=145a6ae2-cb5f-42da-be0f-1ab1a50a1500","ios":"levelo://app?vid=145a6ae2-cb5f-42da-be0f-1ab1a50a1500"},"vehicle_type_id":"4","last_reported":1736263048,"current_range_meters":9600,"station_id":"ce4bgj92rcd13ifvqbe0","pricing_plan_id":"cebpf4jnsgd1na2vs0mg"},{"bike_id":"f40c6f98-0ef4-4c8b-b8fe-58d609c7b80f","system_id":"levelo_inurba_marseille","lat":43.29982,"lon":5.38487,"is_reserved":false,"is_disabled":false,"rental_uris":{"android":"levelo://app?vid=f40c6f98-0ef4-4c8b-b8fe-58d609c7b80f","ios":"levelo://app?vid=f40c6f98-0ef4-4c8b-b8fe-58d609c7b80f"},"vehicle_type_id":"4","last_reported":1736263048,"current_range_meters":32000,"station_id":"ce4bgj92rcd13ifvqbd0","pricing_plan_id":"cebpf4jnsgd1na2vs0mg"},{"bike_id":"2b461a8f-47fe-4b00-a525-a248f4da98b8","system_id":"levelo_inurba_marseille","lat":43.27959,"lon":5.38747,"is_reserved":false,"is_disabled":false,"rental_uris":{"android":"levelo://app?vid=2b461a8f-47fe-4b00-a525-a248f4da98b8","ios":"levelo://app?vid=2b461a8f-47fe-4b00-a525-a248f4da98b8"},"vehicle_type_id":"4","last_reported":1736263048,"current_range_meters":8400,"station_id":"ce4bhg12rcd13ifvqf80","pricing_plan_id":"cebpf4jnsgd1na2vs0mg"},{"bike_id":"2a250d1c-c332-4cfa-8ce4-56965c336b72","system_id":"levelo_inurba_marseille","lat":43.2441,"lon":5.37066,"is_reserved":false,"is_disabled":false,"rental_uris":{"android":"levelo://app?vid=2a250d1c-c332-4cfa-8ce4-56965c336b72","ios":"levelo://app?vid=2a250d1c-c332-4cfa-8ce4-56965c336b72"},"vehicle_type_id":"4","last_reported":1736263048,"current_range_meters":38800,"station_id":"ce4bhhh2rcd13ifvqfk0","pricing_plan_id":"cebpf4jnsgd1na2vs0mg"},{"bike_id":"a4dec33a-3574-46ab-bf07-5ce5a74a1fd6","system_id":"levelo_inurba_marseille","lat":43.28621,"lon":5.35102,"is_reserved":false,"is_disabled":false,"rental_uris":{"android":"levelo://app?vid=a4dec33a-3574-46ab-bf07-5ce5a74a1fd6","ios":"levelo://app?vid=a4dec33a-3574-46ab-bf07-5ce5a74a1fd6"},"vehicle_type_id":"4","last_reported":1736263048,"current_range_meters":26800,"station_id":"ce4bhch2rcd13ifvqeug","pricing_plan_id":"cebpf4jnsgd1na2vs0mg"},{"bike_id":"7447d9e7-e582-45e7-8a59-1e1445a32e7b","system_id":"levelo_inurba_marseille","lat":43.2549,"lon":5.37647,"is_reserved":false,"is_disabled":false,"rental_uris":{"android":"levelo://app?vid=7447d9e7-e582-45e7-8a59-1e1445a32e7b","ios":"levelo://app?vid=7447d9e7-e582-45e7-8a59-1e1445a32e7b"},"vehicle_type_id":"4","last_reported":1736263048,"current_range_meters":33200,"station_id":"ce4bhh12rcd13ifvqff0","pricing_plan_id":"cebpf4jnsgd1na2vs0mg"},{"bike_id":"96798794-0bcd-4eaf-97ec-a5eeaba1f7dd","system_id":"levelo_inurba_marseille","lat":43.2895,"lon":5.38387,"is_reserved":false,"is_disabled":false,"rental_uris":{"android":"levelo://app?vid=96798794-0bcd-4eaf-97ec-a5eeaba1f7dd","ios":"levelo://app?vid=96798794-0bcd-4eaf-97ec-a5eeaba1f7dd"},"vehicle_type_id":"4","last_reported":1736263048,"current_range_meters":38800,"station_id":"ce4bh612rcd13ifvqe6g","pricing_plan_id":"cebpf4jnsgd1na2vs0mg"},{"bike_id":"f3d1f244-18c3-434d-87c1-4500012e65af","system_id":"levelo_inurba_marseille","lat":43.337444,"lon":5.374475,"is_reserved":false,"is_disabled":false,"rental_uris":{"android":"levelo://app?vid=f3d1f244-18c3-434d-87c1-4500012e65af","ios":"levelo://app?vid=f3d1f244-18c3-434d-87c1-4500012e65af"},"vehicle_type_id":"4","last_reported":1736263048,"current_range_meters":27200,"station_id":"","pricing_plan_id":"cebpf4jnsgd1na2vs0mg"},{"bike_id":"49781949-7f86-4ef3-bffa-893957756c38","system_id":"levelo_inurba_marseille","lat":43.28118,"lon":5.37838,"is_reserved":false,"is_disabled":false,"rental_uris":{"android":"levelo://app?vid=49781949-7f86-4ef3-bffa-893957756c38","ios":"levelo://app?vid=49781949-7f86-4ef3-bffa-893957756c38"},"vehicle_type_id":"4","last_reported":1736263048,"current_range_meters":20000,"station_id":"ce4bha12rcd13ifvqee0","pricing_plan_id":"cebpf4jnsgd1na2vs0mg"},{"bike_id":"39a66161-6256-4a44-9ff8-9ec79f8478c8","system_id":"levelo_inurba_marseille","lat":43.2865,"lon":5.35103,"is_reserved":false,"is_disabled":false,"rental_uris":{"android":"levelo://app?vid=39a66161-6256-4a44-9ff8-9ec79f8478c8","ios":"levelo://app?vid=39a66161-6256-4a44-9ff8-9ec79f8478c8"},"vehicle_type_id":"4","last_reported":1736263048,"current_range_meters":21600,"station_id":"ce4bhch2rcd13ifvqeug","pricing_plan_id":"cebpf4jnsgd1na2vs0mg"},{"bike_id":"d45d0089-5e8c-41ac-a04c-9866c8dc94cc","system_id":"levelo_inurba_marseille","lat":43.23188,"lon":5.35545,"is_reserved":false,"is_disabled":false,"rental_uris":{"android":"levelo://app?vid=d45d0089-5e8c-41ac-a04c-9866c8dc94cc","ios":"levelo://app?vid=d45d0089-5e8c-41ac-a04c-9866c8dc94cc"},"vehicle_type_id":"4","last_reported":1736263048,"current_range_meters":38800,"station_id":"ce4bhu92rcd13ifvqi70","pricing_plan_id":"cebpf4jnsgd1na2vs0mg"},{"bike_id":"318f78a8-0263-4834-ac39-be164f4831d1","system_id":"levelo_inurba_marseille","lat":43.26216,"lon":5.37446,"is_reserved":false,"is_disabled":false,"rental_uris":{"android":"levelo://app?vid=318f78a8-0263-4834-ac39-be164f4831d1","ios":"levelo://app?vid=318f78a8-0263-4834-ac39-be164f4831d1"},"vehicle_type_id":"4","last_reported":1736263048,"current_range_meters":16800,"station_id":"ce4bhgp2rcd13ifvqfc0","pricing_plan_id":"cebpf4jnsgd1na2vs0mg"},{"bike_id":"aa33a53e-f806-43a8-ad7e-8e2bd9644426","system_id":"levelo_inurba_marseille","lat":43.32345,"lon":5.40629,"is_reserved":false,"is_disabled":true,"rental_uris":{"android":"levelo://app?vid=aa33a53e-f806-43a8-ad7e-8e2bd9644426","ios":"levelo://app?vid=aa33a53e-f806-43a8-ad7e-8e2bd9644426"},"vehicle_type_id":"4","last_reported":1736263048,"current_range_meters":0,"station_id":"ce4bhq92rcd13ifvqhjg","pricing_plan_id":"cebpf4jnsgd1na2vs0mg"},{"bike_id":"ff42ca63-fc2f-4e7f-8b52-1e129d49115a","system_id":"levelo_inurba_marseille","lat":43.29834,"lon":5.39343,"is_reserved":false,"is_disabled":false,"rental_uris":{"android":"levelo://app?vid=ff42ca63-fc2f-4e7f-8b52-1e129d49115a","ios":"levelo://app?vid=ff42ca63-fc2f-4e7f-8b52-1e129d49115a"},"vehicle_type_id":"4","last_reported":1736263048,"current_range_meters":30000,"station_id":"","pricing_plan_id":"cebpf4jnsgd1na2vs0mg"},{"bike_id":"28706a8a-e4d8-40e9-a34b-f308bb4cb4ca","system_id":"levelo_inurba_marseille","lat":43.31319,"lon":5.39632,"is_reserved":false,"is_disabled":false,"rental_uris":{"android":"levelo://app?vid=28706a8a-e4d8-40e9-a34b-f308bb4cb4ca","ios":"levelo://app?vid=28706a8a-e4d8-40e9-a34b-f308bb4cb4ca"},"vehicle_type_id":"4","last_reported":1736263048,"current_range_meters":38800,"station_id":"ce4bgvp2rcd13ifvqcu0","pricing_plan_id":"cebpf4jnsgd1na2vs0mg"},{"bike_id":"184ebaba-bf18-489d-8947-aa0b180dec35","system_id":"levelo_inurba_marseille","lat":43.30599,"lon":5.37278,"is_reserved":false,"is_disabled":false,"rental_uris":{"android":"levelo://app?vid=184ebaba-bf18-489d-8947-aa0b180dec35","ios":"levelo://app?vid=184ebaba-bf18-489d-8947-aa0b180dec35"},"vehicle_type_id":"4","last_reported":1736263048,"current_range_meters":33600,"station_id":"ce4bgqh2rcd13ifvqc4g","pricing_plan_id":"cebpf4jnsgd1na2vs0mg"},{"bike_id":"d19c24fd-f814-495d-a19f-5bdf5fa669e7","system_id":"levelo_inurba_marseille","lat":43.29053,"lon":5.37171,"is_reserved":false,"is_disabled":false,"rental_uris":{"android":"levelo://app?vid=d19c24fd-f814-495d-a19f-5bdf5fa669e7","ios":"levelo://app?vid=d19c24fd-f814-495d-a19f-5bdf5fa669e7"},"vehicle_type_id":"4","last_reported":1736263048,"current_range_meters":26800,"station_id":"ce4bh5p2rcd13ifvqe4g","pricing_plan_id":"cebpf4jnsgd1na2vs0mg"},{"bike_id":"77177f8a-71d5-4e1a-868f-582664cef4f6","system_id":"levelo_inurba_marseille","lat":43.30167,"lon":5.37407,"is_reserved":false,"is_disabled":true,"rental_uris":{"android":"levelo://app?vid=77177f8a-71d5-4e1a-868f-582664cef4f6","ios":"levelo://app?vid=77177f8a-71d5-4e1a-868f-582664cef4f6"},"vehicle_type_id":"4","last_reported":1736263048,"current_range_meters":38400,"station_id":"ce4bgs92rcd13ifvqcc0","pricing_plan_id":"cebpf4jnsgd1na2vs0mg"},{"bike_id":"c7477dd0-5437-4cc1-91bd-fc0813be40de","system_id":"levelo_inurba_marseille","lat":43.31247,"lon":5.36885,"is_reserved":false,"is_disabled":false,"rental_uris":{"android":"levelo://app?vid=c7477dd0-5437-4cc1-91bd-fc0813be40de","ios":"levelo://app?vid=c7477dd0-5437-4cc1-91bd-fc0813be40de"},"vehicle_type_id":"4","last_reported":1736263048,"current_range_meters":38800,"station_id":"ce4bgl92rcd13ifvqbq0","pricing_plan_id":"cebpf4jnsgd1na2vs0mg"},{"bike_id":"0b396c04-afd9-4538-b574-3025716333b5","system_id":"levelo_inurba_marseille","lat":43.28938,"lon":5.36634,"is_reserved":false,"is_disabled":false,"rental_uris":{"android":"levelo://app?vid=0b396c04-afd9-4538-b574-3025716333b5","ios":"levelo://app?vid=0b396c04-afd9-4538-b574-3025716333b5"},"vehicle_type_id":"4","last_reported":1736263048,"current_range_meters":26000,"station_id":"ce4bhap2rcd13ifvqek0","pricing_plan_id":"cebpf4jnsgd1na2vs0mg"},{"bike_id":"bbc58ba2-66d4-417a-a386-fe0bb02b0043","system_id":"levelo_inurba_marseille","lat":43.31754,"lon":5.38983,"is_reserved":false,"is_disabled":false,"rental_uris":{"android":"levelo://app?vid=bbc58ba2-66d4-417a-a386-fe0bb02b0043","ios":"levelo://app?vid=bbc58ba2-66d4-417a-a386-fe0bb02b0043"},"vehicle_type_id":"4","last_reported":1736263048,"current_range_meters":28800,"station_id":"ce4bhqp2rcd13ifvqhng","pricing_plan_id":"cebpf4jnsgd1na2vs0mg"},{"bike_id":"7baf549d-feae-4179-84e3-d34121bfcd55","system_id":"levelo_inurba_marseille","lat":43.31732,"lon":5.43689,"is_reserved":false,"is_disabled":false,"rental_uris":{"android":"levelo://app?vid=7baf549d-feae-4179-84e3-d34121bfcd55","ios":"levelo://app?vid=7baf549d-feae-4179-84e3-d34121bfcd55"},"vehicle_type_id":"4","last_reported":1736263048,"current_range_meters":27200,"station_id":"ce4bhp92rcd13ifvqhcg","pricing_plan_id":"cebpf4jnsgd1na2vs0mg"},{"bike_id":"502087b1-18db-427e-9ac7-3d1aa22f63c7","system_id":"levelo_inurba_marseille","lat":43.29842,"lon":5.36263,"is_reserved":false,"is_disabled":false,"rental_uris":{"android":"levelo://app?vid=502087b1-18db-427e-9ac7-3d1aa22f63c7","ios":"levelo://app?vid=502087b1-18db-427e-9ac7-3d1aa22f63c7"},"vehicle_type_id":"4","last_reported":1736263048,"current_range_meters":38800,"station_id":"ce4bgpp2rcd13ifvqc3g","pricing_plan_id":"cebpf4jnsgd1na2vs0mg"},{"bike_id":"9a9b98a3-c084-429a-9727-d3c64f73c7da","system_id":"levelo_inurba_marseille","lat":43.29778,"lon":5.38059,"is_reserved":false,"is_disabled":false,"rental_uris":{"android":"levelo://app?vid=9a9b98a3-c084-429a-9727-d3c64f73c7da","ios":"levelo://app?vid=9a9b98a3-c084-429a-9727-d3c64f73c7da"},"vehicle_type_id":"4","last_reported":1736263048,"current_range_meters":37600,"station_id":"ce4bgip2rcd13ifvqbb0","pricing_plan_id":"cebpf4jnsgd1na2vs0mg"},{"bike_id":"7a92d907-ce7d-4776-b9fe-0b8ebe9491a1","system_id":"levelo_inurba_marseille","lat":43.27638,"lon":5.36113,"is_reserved":false,"is_disabled":false,"rental_uris":{"android":"levelo://app?vid=7a92d907-ce7d-4776-b9fe-0b8ebe9491a1","ios":"levelo://app?vid=7a92d907-ce7d-4776-b9fe-0b8ebe9491a1"},"vehicle_type_id":"4","last_reported":1736263048,"current_range_meters":38800,"station_id":"ce4bgj92rcd13ifvqbe0","pricing_plan_id":"cebpf4jnsgd1na2vs0mg"},{"bike_id":"9479a009-b5a1-4611-98bb-8a44b2c098dd","system_id":"levelo_inurba_marseille","lat":43.23964,"lon":5.36635,"is_reserved":false,"is_disabled":false,"rental_uris":{"android":"levelo://app?vid=9479a009-b5a1-4611-98bb-8a44b2c098dd","ios":"levelo://app?vid=9479a009-b5a1-4611-98bb-8a44b2c098dd"},"vehicle_type_id":"4","last_reported":1736263048,"current_range_meters":14000,"station_id":"ce4bhi12rcd13ifvqfp0","pricing_plan_id":"cebpf4jnsgd1na2vs0mg"},{"bike_id":"2b30ea51-35ad-4789-bfea-d11abd34fae4","system_id":"levelo_inurba_marseille","lat":43.30247,"lon":5.40027,"is_reserved":false,"is_disabled":false,"rental_uris":{"android":"levelo://app?vid=2b30ea51-35ad-4789-bfea-d11abd34fae4","ios":"levelo://app?vid=2b30ea51-35ad-4789-bfea-d11abd34fae4"},"vehicle_type_id":"4","last_reported":1736263048,"current_range_meters":29600,"station_id":"ce4bgvh2rcd13ifvqcs0","pricing_plan_id":"cebpf4jnsgd1na2vs0mg"},{"bike_id":"b8e8befc-076e-4a84-a746-24b09895b81b","system_id":"levelo_inurba_marseille","lat":43.25577,"lon":5.38245,"is_reserved":false,"is_disabled":false,"rental_uris":{"android":"levelo://app?vid=b8e8befc-076e-4a84-a746-24b09895b81b","ios":"levelo://app?vid=b8e8befc-076e-4a84-a746-24b09895b81b"},"vehicle_type_id":"4","last_reported":1736263048,"current_range_meters":33200,"station_id":"ce4bhih2rcd13ifvqfs0","pricing_plan_id":"cebpf4jnsgd1na2vs0mg"},{"bike_id":"bbf998ea-d252-4590-8711-16d78ff4b07c","system_id":"levelo_inurba_marseille","lat":43.24653,"lon":5.38906,"is_reserved":false,"is_disabled":false,"rental_uris":{"android":"levelo://app?vid=bbf998ea-d252-4590-8711-16d78ff4b07c","ios":"levelo://app?vid=bbf998ea-d252-4590-8711-16d78ff4b07c"},"vehicle_type_id":"4","last_reported":1736263048,"current_range_meters":26000,"station_id":"ce4bhg12rcd13ifvqf60","pricing_plan_id":"cebpf4jnsgd1na2vs0mg"},{"bike_id":"929b0253-4107-465d-92a4-f888c4a0cd55","system_id":"levelo_inurba_marseille","lat":43.24666,"lon":5.38166,"is_reserved":false,"is_disabled":false,"rental_uris":{"android":"levelo://app?vid=929b0253-4107-465d-92a4-f888c4a0cd55","ios":"levelo://app?vid=929b0253-4107-465d-92a4-f888c4a0cd55"},"vehicle_type_id":"4","last_reported":1736263048,"current_range_meters":23200,"station_id":"ce4bhih2rcd13ifvqfr0","pricing_plan_id":"cebpf4jnsgd1na2vs0mg"},{"bike_id":"5edae86c-18e1-4fdc-8a0c-632158237bb8","system_id":"levelo_inurba_marseille","lat":43.24668,"lon":5.38171,"is_reserved":false,"is_disabled":false,"rental_uris":{"android":"levelo://app?vid=5edae86c-18e1-4fdc-8a0c-632158237bb8","ios":"levelo://app?vid=5edae86c-18e1-4fdc-8a0c-632158237bb8"},"vehicle_type_id":"4","last_reported":1736263048,"current_range_meters":35200,"station_id":"ce4bhih2rcd13ifvqfr0","pricing_plan_id":"cebpf4jnsgd1na2vs0mg"},{"bike_id":"dc7a03ed-21bb-4549-b5e4-9a80411a620b","system_id":"levelo_inurba_marseille","lat":43.26576,"lon":5.37297,"is_reserved":false,"is_disabled":false,"rental_uris":{"android":"levelo://app?vid=dc7a03ed-21bb-4549-b5e4-9a80411a620b","ios":"levelo://app?vid=dc7a03ed-21bb-4549-b5e4-9a80411a620b"},"vehicle_type_id":"4","last_reported":1736263048,"current_range_meters":27200,"station_id":"ce4bhg12rcd13ifvqf70","pricing_plan_id":"cebpf4jnsgd1na2vs0mg"},{"bike_id":"1f3279ad-7688-4d1e-817a-428a5253b908","system_id":"levelo_inurba_marseille","lat":43.31323,"lon":5.39702,"is_reserved":false,"is_disabled":false,"rental_uris":{"android":"levelo://app?vid=1f3279ad-7688-4d1e-817a-428a5253b908","ios":"levelo://app?vid=1f3279ad-7688-4d1e-817a-428a5253b908"},"vehicle_type_id":"4","last_reported":1736263048,"current_range_meters":33600,"station_id":"ce4bgvp2rcd13ifvqcu0","pricing_plan_id":"cebpf4jnsgd1na2vs0mg"},{"bike_id":"f1d4813b-e051-4d1f-8d97-b4e424de96a0","system_id":"levelo_inurba_marseille","lat":43.30353,"lon":5.4187,"is_reserved":false,"is_disabled":false,"rental_uris":{"android":"levelo://app?vid=f1d4813b-e051-4d1f-8d97-b4e424de96a0","ios":"levelo://app?vid=f1d4813b-e051-4d1f-8d97-b4e424de96a0"},"vehicle_type_id":"4","last_reported":1736263048,"current_range_meters":38800,"station_id":"ce4bhop2rcd13ifvqh7g","pricing_plan_id":"cebpf4jnsgd1na2vs0mg"},{"bike_id":"3d5215c2-1845-4ea9-95c3-66c603d13955","system_id":"levelo_inurba_marseille","lat":43.30544,"lon":5.36513,"is_reserved":false,"is_disabled":false,"rental_uris":{"android":"levelo://app?vid=3d5215c2-1845-4ea9-95c3-66c603d13955","ios":"levelo://app?vid=3d5215c2-1845-4ea9-95c3-66c603d13955"},"vehicle_type_id":"4","last_reported":1736263048,"current_range_meters":30400,"station_id":"ce4bgs12rcd13ifvqcag","pricing_plan_id":"cebpf4jnsgd1na2vs0mg"},{"bike_id":"6e2d590b-13dc-4d39-8257-e699f8ea4c2f","system_id":"levelo_inurba_marseille","lat":43.25914,"lon":5.40838,"is_reserved":false,"is_disabled":false,"rental_uris":{"android":"levelo://app?vid=6e2d590b-13dc-4d39-8257-e699f8ea4c2f","ios":"levelo://app?vid=6e2d590b-13dc-4d39-8257-e699f8ea4c2f"},"vehicle_type_id":"4","last_reported":1736263048,"current_range_meters":19200,"station_id":"","pricing_plan_id":"cebpf4jnsgd1na2vs0mg"},{"bike_id":"0b9521b2-4a4a-4b15-a356-31ebe979341d","system_id":"levelo_inurba_marseille","lat":43.2991,"lon":5.4366,"is_reserved":false,"is_disabled":false,"rental_uris":{"android":"levelo://app?vid=0b9521b2-4a4a-4b15-a356-31ebe979341d","ios":"levelo://app?vid=0b9521b2-4a4a-4b15-a356-31ebe979341d"},"vehicle_type_id":"4","last_reported":1736263048,"current_range_meters":8400,"station_id":"ce4bhpp2rcd13ifvqhfg","pricing_plan_id":"cebpf4jnsgd1na2vs0mg"},{"bike_id":"92960fdf-33f7-43e9-9c6d-ed8702192775","system_id":"levelo_inurba_marseille","lat":43.28486,"lon":5.38549,"is_reserved":false,"is_disabled":false,"rental_uris":{"android":"levelo://app?vid=92960fdf-33f7-43e9-9c6d-ed8702192775","ios":"levelo://app?vid=92960fdf-33f7-43e9-9c6d-ed8702192775"},"vehicle_type_id":"4","last_reported":1736263048,"current_range_meters":17200,"station_id":"ce4bh8p2rcd13ifvqeb0","pricing_plan_id":"cebpf4jnsgd1na2vs0mg"},{"bike_id":"0ac21330-ac2b-4df0-9a78-140533384d9c","system_id":"levelo_inurba_marseille","lat":43.2923,"lon":5.36067,"is_reserved":false,"is_disabled":false,"rental_uris":{"android":"levelo://app?vid=0ac21330-ac2b-4df0-9a78-140533384d9c","ios":"levelo://app?vid=0ac21330-ac2b-4df0-9a78-140533384d9c"},"vehicle_type_id":"4","last_reported":1736263048,"current_range_meters":28800,"station_id":"ce4bhbh2rcd13ifvqeqg","pricing_plan_id":"cebpf4jnsgd1na2vs0mg"},{"bike_id":"7b8968d2-7500-4f12-a813-ead4df7ddbd3","system_id":"levelo_inurba_marseille","lat":43.26792,"lon":5.39407,"is_reserved":false,"is_disabled":false,"rental_uris":{"android":"levelo://app?vid=7b8968d2-7500-4f12-a813-ead4df7ddbd3","ios":"levelo://app?vid=7b8968d2-7500-4f12-a813-ead4df7ddbd3"},"vehicle_type_id":"4","last_reported":1736263048,"current_range_meters":16000,"station_id":"ce4bhh12rcd13ifvqfg0","pricing_plan_id":"cebpf4jnsgd1na2vs0mg"},{"bike_id":"8f8a6b60-f04d-4b74-b362-c3a3a2a54621","system_id":"levelo_inurba_marseille","lat":43.28708,"lon":5.38668,"is_reserved":false,"is_disabled":false,"rental_uris":{"android":"levelo://app?vid=8f8a6b60-f04d-4b74-b362-c3a3a2a54621","ios":"levelo://app?vid=8f8a6b60-f04d-4b74-b362-c3a3a2a54621"},"vehicle_type_id":"4","last_reported":1736263048,"current_range_meters":38800,"station_id":"ce4bh492rcd13ifvqdug","pricing_plan_id":"cebpf4jnsgd1na2vs0mg"},{"bike_id":"f3068faf-6ea3-45c0-943e-8f5eb9fecb3c","system_id":"levelo_inurba_marseille","lat":43.23961,"lon":5.36654,"is_reserved":false,"is_disabled":false,"rental_uris":{"android":"levelo://app?vid=f3068faf-6ea3-45c0-943e-8f5eb9fecb3c","ios":"levelo://app?vid=f3068faf-6ea3-45c0-943e-8f5eb9fecb3c"},"vehicle_type_id":"4","last_reported":1736263048,"current_range_meters":37600,"station_id":"ce4bhi12rcd13ifvqfp0","pricing_plan_id":"cebpf4jnsgd1na2vs0mg"},{"bike_id":"5cd67c46-0886-42b1-bb47-d9d4cca6e354","system_id":"levelo_inurba_marseille","lat":43.28458,"lon":5.35887,"is_reserved":false,"is_disabled":false,"rental_uris":{"android":"levelo://app?vid=5cd67c46-0886-42b1-bb47-d9d4cca6e354","ios":"levelo://app?vid=5cd67c46-0886-42b1-bb47-d9d4cca6e354"},"vehicle_type_id":"4","last_reported":1736263048,"current_range_meters":29600,"station_id":"ce4bhah2rcd13ifvqei0","pricing_plan_id":"cebpf4jnsgd1na2vs0mg"},{"bike_id":"60e3be75-40db-4562-8918-082d5632642c","system_id":"levelo_inurba_marseille","lat":43.27205,"lon":5.39187,"is_reserved":false,"is_disabled":false,"rental_uris":{"android":"levelo://app?vid=60e3be75-40db-4562-8918-082d5632642c","ios":"levelo://app?vid=60e3be75-40db-4562-8918-082d5632642c"},"vehicle_type_id":"4","last_reported":1736263048,"current_range_meters":32400,"station_id":"ce4bhhp2rcd13ifvqfm0","pricing_plan_id":"cebpf4jnsgd1na2vs0mg"},{"bike_id":"2937c8f0-6f06-4c7f-8240-41ad44bc55fa","system_id":"levelo_inurba_marseille","lat":43.23186,"lon":5.39997,"is_reserved":false,"is_disabled":false,"rental_uris":{"android":"levelo://app?vid=2937c8f0-6f06-4c7f-8240-41ad44bc55fa","ios":"levelo://app?vid=2937c8f0-6f06-4c7f-8240-41ad44bc55fa"},"vehicle_type_id":"4","last_reported":1736263048,"current_range_meters":9600,"station_id":"ce4bhn12rcd13ifvqgqg","pricing_plan_id":"cebpf4jnsgd1na2vs0mg"},{"bike_id":"3d9463de-3c04-4c83-9bcf-2c06f1b82f22","system_id":"levelo_inurba_marseille","lat":43.30653,"lon":5.40098,"is_reserved":false,"is_disabled":false,"rental_uris":{"android":"levelo://app?vid=3d9463de-3c04-4c83-9bcf-2c06f1b82f22","ios":"levelo://app?vid=3d9463de-3c04-4c83-9bcf-2c06f1b82f22"},"vehicle_type_id":"4","last_reported":1736263048,"current_range_meters":20400,"station_id":"ce4bh112rcd13ifvqda0","pricing_plan_id":"cebpf4jnsgd1na2vs0mg"},{"bike_id":"2caee3a4-8a0e-4b28-abd5-fbe6d714e197","system_id":"levelo_inurba_marseille","lat":43.28164,"lon":5.42642,"is_reserved":false,"is_disabled":false,"rental_uris":{"android":"levelo://app?vid=2caee3a4-8a0e-4b28-abd5-fbe6d714e197","ios":"levelo://app?vid=2caee3a4-8a0e-4b28-abd5-fbe6d714e197"},"vehicle_type_id":"4","last_reported":1736263048,"current_range_meters":22400,"station_id":"ce4bhnh2rcd13ifvqgug","pricing_plan_id":"cebpf4jnsgd1na2vs0mg"},{"bike_id":"d9aa7e1f-6743-4005-bb2f-1f492d12ae91","system_id":"levelo_inurba_marseille","lat":43.26189,"lon":5.37913,"is_reserved":false,"is_disabled":false,"rental_uris":{"android":"levelo://app?vid=d9aa7e1f-6743-4005-bb2f-1f492d12ae91","ios":"levelo://app?vid=d9aa7e1f-6743-4005-bb2f-1f492d12ae91"},"vehicle_type_id":"4","last_reported":1736263048,"current_range_meters":33600,"station_id":"ce4bhjp2rcd13ifvqg90","pricing_plan_id":"cebpf4jnsgd1na2vs0mg"},{"bike_id":"2be5c012-0767-4ef2-a3f7-735f77675172","system_id":"levelo_inurba_marseille","lat":43.30152,"lon":5.37418,"is_reserved":false,"is_disabled":false,"rental_uris":{"android":"levelo://app?vid=2be5c012-0767-4ef2-a3f7-735f77675172","ios":"levelo://app?vid=2be5c012-0767-4ef2-a3f7-735f77675172"},"vehicle_type_id":"4","last_reported":1736263048,"current_range_meters":36000,"station_id":"ce4bgs92rcd13ifvqcc0","pricing_plan_id":"cebpf4jnsgd1na2vs0mg"},{"bike_id":"d014f699-d84d-436b-b3bf-8c059d18ea89","system_id":"levelo_inurba_marseille","lat":43.22919,"lon":5.35315,"is_reserved":false,"is_disabled":false,"rental_uris":{"android":"levelo://app?vid=d014f699-d84d-436b-b3bf-8c059d18ea89","ios":"levelo://app?vid=d014f699-d84d-436b-b3bf-8c059d18ea89"},"vehicle_type_id":"4","last_reported":1736263048,"current_range_meters":8000,"station_id":"cpo3532slgdg3j2ikp40","pricing_plan_id":"cebpf4jnsgd1na2vs0mg"},{"bike_id":"12da244d-7ede-4504-b03d-9c77fe158f00","system_id":"levelo_inurba_marseille","lat":43.27617,"lon":5.36116,"is_reserved":false,"is_disabled":false,"rental_uris":{"android":"levelo://app?vid=12da244d-7ede-4504-b03d-9c77fe158f00","ios":"levelo://app?vid=12da244d-7ede-4504-b03d-9c77fe158f00"},"vehicle_type_id":"4","last_reported":1736263048,"current_range_meters":38000,"station_id":"ce4bgj92rcd13ifvqbe0","pricing_plan_id":"cebpf4jnsgd1na2vs0mg"},{"bike_id":"4b82ef19-ce00-4cf5-a98c-71ddf683b322","system_id":"levelo_inurba_marseille","lat":43.30544,"lon":5.36549,"is_reserved":false,"is_disabled":false,"rental_uris":{"android":"levelo://app?vid=4b82ef19-ce00-4cf5-a98c-71ddf683b322","ios":"levelo://app?vid=4b82ef19-ce00-4cf5-a98c-71ddf683b322"},"vehicle_type_id":"4","last_reported":1736263048,"current_range_meters":9200,"station_id":"ce4bgs12rcd13ifvqcag","pricing_plan_id":"cebpf4jnsgd1na2vs0mg"},{"bike_id":"8fa8b7f9-1a9a-4b12-8f46-a00de1a280d3","system_id":"levelo_inurba_marseille","lat":43.28414,"lon":5.35001,"is_reserved":false,"is_disabled":false,"rental_uris":{"android":"levelo://app?vid=8fa8b7f9-1a9a-4b12-8f46-a00de1a280d3","ios":"levelo://app?vid=8fa8b7f9-1a9a-4b12-8f46-a00de1a280d3"},"vehicle_type_id":"4","last_reported":1736263048,"current_range_meters":27200,"station_id":"ce4bhbh2rcd13ifvqepg","pricing_plan_id":"cebpf4jnsgd1na2vs0mg"},{"bike_id":"955387a8-4a47-4691-946f-78754c88504b","system_id":"levelo_inurba_marseille","lat":43.232,"lon":5.35508,"is_reserved":false,"is_disabled":false,"rental_uris":{"android":"levelo://app?vid=955387a8-4a47-4691-946f-78754c88504b","ios":"levelo://app?vid=955387a8-4a47-4691-946f-78754c88504b"},"vehicle_type_id":"4","last_reported":1736263048,"current_range_meters":36400,"station_id":"ce4bhu92rcd13ifvqi70","pricing_plan_id":"cebpf4jnsgd1na2vs0mg"},{"bike_id":"ef72cdb4-465d-4178-b952-49906f159c48","system_id":"levelo_inurba_marseille","lat":43.28163,"lon":5.42621,"is_reserved":false,"is_disabled":false,"rental_uris":{"android":"levelo://app?vid=ef72cdb4-465d-4178-b952-49906f159c48","ios":"levelo://app?vid=ef72cdb4-465d-4178-b952-49906f159c48"},"vehicle_type_id":"4","last_reported":1736263048,"current_range_meters":36000,"station_id":"ce4bhnh2rcd13ifvqgug","pricing_plan_id":"cebpf4jnsgd1na2vs0mg"},{"bike_id":"94df642c-7b40-4421-9ecb-14dea7ab90ae","system_id":"levelo_inurba_marseille","lat":43.317172,"lon":5.377358,"is_reserved":false,"is_disabled":false,"rental_uris":{"android":"levelo://app?vid=94df642c-7b40-4421-9ecb-14dea7ab90ae","ios":"levelo://app?vid=94df642c-7b40-4421-9ecb-14dea7ab90ae"},"vehicle_type_id":"4","last_reported":1736263048,"current_range_meters":18800,"station_id":"ce4bgth2rcd13ifvqch0","pricing_plan_id":"cebpf4jnsgd1na2vs0mg"},{"bike_id":"f949af9a-2683-4ec9-b4bf-168b31b3bcb2","system_id":"levelo_inurba_marseille","lat":43.24652,"lon":5.38889,"is_reserved":false,"is_disabled":false,"rental_uris":{"android":"levelo://app?vid=f949af9a-2683-4ec9-b4bf-168b31b3bcb2","ios":"levelo://app?vid=f949af9a-2683-4ec9-b4bf-168b31b3bcb2"},"vehicle_type_id":"4","last_reported":1736263048,"current_range_meters":18000,"station_id":"ce4bhg12rcd13ifvqf60","pricing_plan_id":"cebpf4jnsgd1na2vs0mg"},{"bike_id":"6c4fbb09-09b0-4c04-8d0e-ca08bfa83306","system_id":"levelo_inurba_marseille","lat":43.28706,"lon":5.37373,"is_reserved":false,"is_disabled":false,"rental_uris":{"android":"levelo://app?vid=6c4fbb09-09b0-4c04-8d0e-ca08bfa83306","ios":"levelo://app?vid=6c4fbb09-09b0-4c04-8d0e-ca08bfa83306"},"vehicle_type_id":"4","last_reported":1736263048,"current_range_meters":36000,"station_id":"ce4bh3p2rcd13ifvqdq0","pricing_plan_id":"cebpf4jnsgd1na2vs0mg"},{"bike_id":"5633a32e-e2b7-4a5b-869c-bbd12eef1997","system_id":"levelo_inurba_marseille","lat":43.30188,"lon":5.36623,"is_reserved":false,"is_disabled":false,"rental_uris":{"android":"levelo://app?vid=5633a32e-e2b7-4a5b-869c-bbd12eef1997","ios":"levelo://app?vid=5633a32e-e2b7-4a5b-869c-bbd12eef1997"},"vehicle_type_id":"4","last_reported":1736263048,"current_range_meters":38400,"station_id":"ce4bgrh2rcd13ifvqc8g","pricing_plan_id":"cebpf4jnsgd1na2vs0mg"},{"bike_id":"17071e33-9473-4b17-8664-bdc759307bd0","system_id":"levelo_inurba_marseille","lat":43.30321,"lon":5.36896,"is_reserved":false,"is_disabled":false,"rental_uris":{"android":"levelo://app?vid=17071e33-9473-4b17-8664-bdc759307bd0","ios":"levelo://app?vid=17071e33-9473-4b17-8664-bdc759307bd0"},"vehicle_type_id":"4","last_reported":1736263048,"current_range_meters":37600,"station_id":"ce4bgqh2rcd13ifvqc5g","pricing_plan_id":"cebpf4jnsgd1na2vs0mg"},{"bike_id":"9b0c052a-5289-457f-a3ba-4e2b0bc6d3c3","system_id":"levelo_inurba_marseille","lat":43.31496,"lon":5.37277,"is_reserved":false,"is_disabled":false,"rental_uris":{"android":"levelo://app?vid=9b0c052a-5289-457f-a3ba-4e2b0bc6d3c3","ios":"levelo://app?vid=9b0c052a-5289-457f-a3ba-4e2b0bc6d3c3"},"vehicle_type_id":"4","last_reported":1736263048,"current_range_meters":36800,"station_id":"ce4bgt12rcd13ifvqcd0","pricing_plan_id":"cebpf4jnsgd1na2vs0mg"},{"bike_id":"2cbe44e8-5153-4f16-96d5-c672956deddb","system_id":"levelo_inurba_marseille","lat":43.29377,"lon":5.37858,"is_reserved":false,"is_disabled":false,"rental_uris":{"android":"levelo://app?vid=2cbe44e8-5153-4f16-96d5-c672956deddb","ios":"levelo://app?vid=2cbe44e8-5153-4f16-96d5-c672956deddb"},"vehicle_type_id":"4","last_reported":1736263048,"current_range_meters":14000,"station_id":"ce4bgjh2rcd13ifvqbf0","pricing_plan_id":"cebpf4jnsgd1na2vs0mg"},{"bike_id":"75321dea-10a3-400f-8783-48b2ff90b60c","system_id":"levelo_inurba_marseille","lat":43.2467,"lon":5.38894,"is_reserved":false,"is_disabled":false,"rental_uris":{"android":"levelo://app?vid=75321dea-10a3-400f-8783-48b2ff90b60c","ios":"levelo://app?vid=75321dea-10a3-400f-8783-48b2ff90b60c"},"vehicle_type_id":"4","last_reported":1736263048,"current_range_meters":38000,"station_id":"ce4bhg12rcd13ifvqf60","pricing_plan_id":"cebpf4jnsgd1na2vs0mg"},{"bike_id":"638997bd-d149-4d90-93a6-5df85053fb09","system_id":"levelo_inurba_marseille","lat":43.26208,"lon":5.37921,"is_reserved":false,"is_disabled":false,"rental_uris":{"android":"levelo://app?vid=638997bd-d149-4d90-93a6-5df85053fb09","ios":"levelo://app?vid=638997bd-d149-4d90-93a6-5df85053fb09"},"vehicle_type_id":"4","last_reported":1736263048,"current_range_meters":38400,"station_id":"ce4bhjp2rcd13ifvqg90","pricing_plan_id":"cebpf4jnsgd1na2vs0mg"},{"bike_id":"a5f98926-81f9-47e9-8aed-062446691c1a","system_id":"levelo_inurba_marseille","lat":43.27261,"lon":5.3921,"is_reserved":false,"is_disabled":false,"rental_uris":{"android":"levelo://app?vid=a5f98926-81f9-47e9-8aed-062446691c1a","ios":"levelo://app?vid=a5f98926-81f9-47e9-8aed-062446691c1a"},"vehicle_type_id":"4","last_reported":1736263048,"current_range_meters":24800,"station_id":"ce4bhhp2rcd13ifvqfm0","pricing_plan_id":"cebpf4jnsgd1na2vs0mg"},{"bike_id":"a89c5e49-e045-4584-9f45-24de9239c2b8","system_id":"levelo_inurba_marseille","lat":43.29062,"lon":5.3998,"is_reserved":false,"is_disabled":false,"rental_uris":{"android":"levelo://app?vid=a89c5e49-e045-4584-9f45-24de9239c2b8","ios":"levelo://app?vid=a89c5e49-e045-4584-9f45-24de9239c2b8"},"vehicle_type_id":"4","last_reported":1736263048,"current_range_meters":32000,"station_id":"ce4bh392rcd13ifvqdm0","pricing_plan_id":"cebpf4jnsgd1na2vs0mg"},{"bike_id":"71d582ac-e6fe-4aab-8128-ab6df056a243","system_id":"levelo_inurba_marseille","lat":43.3252,"lon":5.36547,"is_reserved":false,"is_disabled":false,"rental_uris":{"android":"levelo://app?vid=71d582ac-e6fe-4aab-8128-ab6df056a243","ios":"levelo://app?vid=71d582ac-e6fe-4aab-8128-ab6df056a243"},"vehicle_type_id":"4","last_reported":1736263048,"current_range_meters":30800,"station_id":"ce4bhs12rcd13ifvqhvg","pricing_plan_id":"cebpf4jnsgd1na2vs0mg"},{"bike_id":"25b6f245-cadc-4cad-812c-53e062c1ef53","system_id":"levelo_inurba_marseille","lat":43.23161,"lon":5.43709,"is_reserved":false,"is_disabled":false,"rental_uris":{"android":"levelo://app?vid=25b6f245-cadc-4cad-812c-53e062c1ef53","ios":"levelo://app?vid=25b6f245-cadc-4cad-812c-53e062c1ef53"},"vehicle_type_id":"4","last_reported":1736263048,"current_range_meters":38800,"station_id":"ce4bhmp2rcd13ifvqgog","pricing_plan_id":"cebpf4jnsgd1na2vs0mg"},{"bike_id":"316234de-f3f3-45d4-99fd-0ba43ec7488a","system_id":"levelo_inurba_marseille","lat":43.29622,"lon":5.40586,"is_reserved":false,"is_disabled":false,"rental_uris":{"android":"levelo://app?vid=316234de-f3f3-45d4-99fd-0ba43ec7488a","ios":"levelo://app?vid=316234de-f3f3-45d4-99fd-0ba43ec7488a"},"vehicle_type_id":"4","last_reported":1736263048,"current_range_meters":32000,"station_id":"ce4bh0h2rcd13ifvqd60","pricing_plan_id":"cebpf4jnsgd1na2vs0mg"},{"bike_id":"aca4affb-335f-48a0-98e9-c8af96a91741","system_id":"levelo_inurba_marseille","lat":43.26802,"lon":5.39405,"is_reserved":false,"is_disabled":false,"rental_uris":{"android":"levelo://app?vid=aca4affb-335f-48a0-98e9-c8af96a91741","ios":"levelo://app?vid=aca4affb-335f-48a0-98e9-c8af96a91741"},"vehicle_type_id":"4","last_reported":1736263048,"current_range_meters":26000,"station_id":"ce4bhh12rcd13ifvqfg0","pricing_plan_id":"cebpf4jnsgd1na2vs0mg"},{"bike_id":"79effc26-08b3-4490-b08b-e2d57404a75e","system_id":"levelo_inurba_marseille","lat":43.30323,"lon":5.40448,"is_reserved":false,"is_disabled":false,"rental_uris":{"android":"levelo://app?vid=79effc26-08b3-4490-b08b-e2d57404a75e","ios":"levelo://app?vid=79effc26-08b3-4490-b08b-e2d57404a75e"},"vehicle_type_id":"4","last_reported":1736263048,"current_range_meters":30000,"station_id":"ce4bh012rcd13ifvqd10","pricing_plan_id":"cebpf4jnsgd1na2vs0mg"},{"bike_id":"d6f9e8de-6928-48d8-91da-689f4fbe360a","system_id":"levelo_inurba_marseille","lat":43.28725,"lon":5.3795,"is_reserved":false,"is_disabled":false,"rental_uris":{"android":"levelo://app?vid=d6f9e8de-6928-48d8-91da-689f4fbe360a","ios":"levelo://app?vid=d6f9e8de-6928-48d8-91da-689f4fbe360a"},"vehicle_type_id":"4","last_reported":1736263048,"current_range_meters":23200,"station_id":"ce4bh9p2rcd13ifvqec0","pricing_plan_id":"cebpf4jnsgd1na2vs0mg"},{"bike_id":"70f37925-e2fb-423c-861d-3a683b228ad1","system_id":"levelo_inurba_marseille","lat":43.31117,"lon":5.377517,"is_reserved":false,"is_disabled":false,"rental_uris":{"android":"levelo://app?vid=70f37925-e2fb-423c-861d-3a683b228ad1","ios":"levelo://app?vid=70f37925-e2fb-423c-861d-3a683b228ad1"},"vehicle_type_id":"4","last_reported":1736263048,"current_range_meters":27600,"station_id":"ce4bgt92rcd13ifvqcg0","pricing_plan_id":"cebpf4jnsgd1na2vs0mg"},{"bike_id":"4349e322-e54f-4a7c-8de9-2ce06a16918d","system_id":"levelo_inurba_marseille","lat":43.27955,"lon":5.41051,"is_reserved":false,"is_disabled":false,"rental_uris":{"android":"levelo://app?vid=4349e322-e54f-4a7c-8de9-2ce06a16918d","ios":"levelo://app?vid=4349e322-e54f-4a7c-8de9-2ce06a16918d"},"vehicle_type_id":"4","last_reported":1736263048,"current_range_meters":38800,"station_id":"ce4bhnp2rcd13ifvqh0g","pricing_plan_id":"cebpf4jnsgd1na2vs0mg"},{"bike_id":"031ebb29-b773-4a0e-86cf-28baeeeb711e","system_id":"levelo_inurba_marseille","lat":43.29593,"lon":5.38097,"is_reserved":false,"is_disabled":false,"rental_uris":{"android":"levelo://app?vid=031ebb29-b773-4a0e-86cf-28baeeeb711e","ios":"levelo://app?vid=031ebb29-b773-4a0e-86cf-28baeeeb711e"},"vehicle_type_id":"4","last_reported":1736263048,"current_range_meters":38800,"station_id":"ce4bgl12rcd13ifvqbo0","pricing_plan_id":"cebpf4jnsgd1na2vs0mg"},{"bike_id":"69cbe7de-59c5-4075-95f1-61c59a9b614e","system_id":"levelo_inurba_marseille","lat":43.32543,"lon":5.41458,"is_reserved":false,"is_disabled":false,"rental_uris":{"android":"levelo://app?vid=69cbe7de-59c5-4075-95f1-61c59a9b614e","ios":"levelo://app?vid=69cbe7de-59c5-4075-95f1-61c59a9b614e"},"vehicle_type_id":"4","last_reported":1736263048,"current_range_meters":30800,"station_id":"ce4bhq12rcd13ifvqhhg","pricing_plan_id":"cebpf4jnsgd1na2vs0mg"},{"bike_id":"1ecbf214-5d35-4cf0-b38a-77f20fe9e9d3","system_id":"levelo_inurba_marseille","lat":43.26681,"lon":5.38261,"is_reserved":false,"is_disabled":false,"rental_uris":{"android":"levelo://app?vid=1ecbf214-5d35-4cf0-b38a-77f20fe9e9d3","ios":"levelo://app?vid=1ecbf214-5d35-4cf0-b38a-77f20fe9e9d3"},"vehicle_type_id":"4","last_reported":1736263048,"current_range_meters":39200,"station_id":"ce4bhg92rcd13ifvqf90","pricing_plan_id":"cebpf4jnsgd1na2vs0mg"},{"bike_id":"68ad2f98-797e-4522-a64c-549230c47bbe","system_id":"levelo_inurba_marseille","lat":43.29375,"lon":5.37851,"is_reserved":false,"is_disabled":false,"rental_uris":{"android":"levelo://app?vid=68ad2f98-797e-4522-a64c-549230c47bbe","ios":"levelo://app?vid=68ad2f98-797e-4522-a64c-549230c47bbe"},"vehicle_type_id":"4","last_reported":1736263048,"current_range_meters":33600,"station_id":"ce4bgjh2rcd13ifvqbf0","pricing_plan_id":"cebpf4jnsgd1na2vs0mg"},{"bike_id":"f68554e9-4ed0-440c-bddb-bf79a09928da","system_id":"levelo_inurba_marseille","lat":43.27976,"lon":5.38735,"is_reserved":false,"is_disabled":false,"rental_uris":{"android":"levelo://app?vid=f68554e9-4ed0-440c-bddb-bf79a09928da","ios":"levelo://app?vid=f68554e9-4ed0-440c-bddb-bf79a09928da"},"vehicle_type_id":"4","last_reported":1736263048,"current_range_meters":21600,"station_id":"ce4bhg12rcd13ifvqf80","pricing_plan_id":"cebpf4jnsgd1na2vs0mg"},{"bike_id":"ff7429a5-f4cc-4709-a586-0c355ae4fc76","system_id":"levelo_inurba_marseille","lat":43.3176,"lon":5.39013,"is_reserved":false,"is_disabled":false,"rental_uris":{"android":"levelo://app?vid=ff7429a5-f4cc-4709-a586-0c355ae4fc76","ios":"levelo://app?vid=ff7429a5-f4cc-4709-a586-0c355ae4fc76"},"vehicle_type_id":"4","last_reported":1736263048,"current_range_meters":37600,"station_id":"ce4bhqp2rcd13ifvqhng","pricing_plan_id":"cebpf4jnsgd1na2vs0mg"},{"bike_id":"7ce4fc59-fb36-4140-a30b-3b3c7f9e38ef","system_id":"levelo_inurba_marseille","lat":43.29092,"lon":5.38123,"is_reserved":false,"is_disabled":false,"rental_uris":{"android":"levelo://app?vid=7ce4fc59-fb36-4140-a30b-3b3c7f9e38ef","ios":"levelo://app?vid=7ce4fc59-fb36-4140-a30b-3b3c7f9e38ef"},"vehicle_type_id":"4","last_reported":1736263048,"current_range_meters":20000,"station_id":"ce4bh512rcd13ifvqe2g","pricing_plan_id":"cebpf4jnsgd1na2vs0mg"},{"bike_id":"51bc5de6-4fe5-4b26-87ea-d151c6fb650f","system_id":"levelo_inurba_marseille","lat":43.31336,"lon":5.3971,"is_reserved":false,"is_disabled":false,"rental_uris":{"android":"levelo://app?vid=51bc5de6-4fe5-4b26-87ea-d151c6fb650f","ios":"levelo://app?vid=51bc5de6-4fe5-4b26-87ea-d151c6fb650f"},"vehicle_type_id":"4","last_reported":1736263048,"current_range_meters":11600,"station_id":"ce4bgvp2rcd13ifvqcu0","pricing_plan_id":"cebpf4jnsgd1na2vs0mg"},{"bike_id":"2fd344b0-b1d6-4f43-99f1-7a18ee45875a","system_id":"levelo_inurba_marseille","lat":43.31757,"lon":5.39007,"is_reserved":false,"is_disabled":false,"rental_uris":{"android":"levelo://app?vid=2fd344b0-b1d6-4f43-99f1-7a18ee45875a","ios":"levelo://app?vid=2fd344b0-b1d6-4f43-99f1-7a18ee45875a"},"vehicle_type_id":"4","last_reported":1736263048,"current_range_meters":38800,"station_id":"ce4bhqp2rcd13ifvqhng","pricing_plan_id":"cebpf4jnsgd1na2vs0mg"},{"bike_id":"6c8cdb47-6a47-47ea-9475-21fe798f40e7","system_id":"levelo_inurba_marseille","lat":43.27211,"lon":5.39184,"is_reserved":false,"is_disabled":false,"rental_uris":{"android":"levelo://app?vid=6c8cdb47-6a47-47ea-9475-21fe798f40e7","ios":"levelo://app?vid=6c8cdb47-6a47-47ea-9475-21fe798f40e7"},"vehicle_type_id":"4","last_reported":1736263048,"current_range_meters":8400,"station_id":"ce4bhhp2rcd13ifvqfm0","pricing_plan_id":"cebpf4jnsgd1na2vs0mg"},{"bike_id":"b941fcf5-affd-43b1-807d-daa5e3595209","system_id":"levelo_inurba_marseille","lat":43.28446,"lon":5.39191,"is_reserved":false,"is_disabled":false,"rental_uris":{"android":"levelo://app?vid=b941fcf5-affd-43b1-807d-daa5e3595209","ios":"levelo://app?vid=b941fcf5-affd-43b1-807d-daa5e3595209"},"vehicle_type_id":"4","last_reported":1736263048,"current_range_meters":18000,"station_id":"ce4bhoh2rcd13ifvqh5g","pricing_plan_id":"cebpf4jnsgd1na2vs0mg"},{"bike_id":"50aef91f-d7b4-43e3-8065-08254e45b0a3","system_id":"levelo_inurba_marseille","lat":43.29617,"lon":5.37707,"is_reserved":false,"is_disabled":false,"rental_uris":{"android":"levelo://app?vid=50aef91f-d7b4-43e3-8065-08254e45b0a3","ios":"levelo://app?vid=50aef91f-d7b4-43e3-8065-08254e45b0a3"},"vehicle_type_id":"4","last_reported":1736263048,"current_range_meters":39200,"station_id":"ce4bgi92rcd13ifvqb90","pricing_plan_id":"cebpf4jnsgd1na2vs0mg"},{"bike_id":"aad4a535-b699-4598-8dc1-ecd244317ca1","system_id":"levelo_inurba_marseille","lat":43.23192,"lon":5.39999,"is_reserved":false,"is_disabled":false,"rental_uris":{"android":"levelo://app?vid=aad4a535-b699-4598-8dc1-ecd244317ca1","ios":"levelo://app?vid=aad4a535-b699-4598-8dc1-ecd244317ca1"},"vehicle_type_id":"4","last_reported":1736263048,"current_range_meters":8400,"station_id":"ce4bhn12rcd13ifvqgqg","pricing_plan_id":"cebpf4jnsgd1na2vs0mg"},{"bike_id":"3e3d91eb-374d-4e74-b2af-bb3dbbea254f","system_id":"levelo_inurba_marseille","lat":43.30139,"lon":5.37372,"is_reserved":false,"is_disabled":false,"rental_uris":{"android":"levelo://app?vid=3e3d91eb-374d-4e74-b2af-bb3dbbea254f","ios":"levelo://app?vid=3e3d91eb-374d-4e74-b2af-bb3dbbea254f"},"vehicle_type_id":"4","last_reported":1736263048,"current_range_meters":26000,"station_id":"ce4bgs92rcd13ifvqcc0","pricing_plan_id":"cebpf4jnsgd1na2vs0mg"},{"bike_id":"fd0c19ec-e4a8-47bf-a62f-e551c335803d","system_id":"levelo_inurba_marseille","lat":43.28721,"lon":5.39986,"is_reserved":false,"is_disabled":false,"rental_uris":{"android":"levelo://app?vid=fd0c19ec-e4a8-47bf-a62f-e551c335803d","ios":"levelo://app?vid=fd0c19ec-e4a8-47bf-a62f-e551c335803d"},"vehicle_type_id":"4","last_reported":1736263048,"current_range_meters":19600,"station_id":"ce4bho92rcd13ifvqh3g","pricing_plan_id":"cebpf4jnsgd1na2vs0mg"},{"bike_id":"da827a73-bc67-4688-a7be-28017639cfcd","system_id":"levelo_inurba_marseille","lat":43.29889,"lon":5.38905,"is_reserved":false,"is_disabled":false,"rental_uris":{"android":"levelo://app?vid=da827a73-bc67-4688-a7be-28017639cfcd","ios":"levelo://app?vid=da827a73-bc67-4688-a7be-28017639cfcd"},"vehicle_type_id":"4","last_reported":1736263048,"current_range_meters":30000,"station_id":"ce4bh392rcd13ifvqdl0","pricing_plan_id":"cebpf4jnsgd1na2vs0mg"},{"bike_id":"b210e670-04e4-4c2c-8f2a-43a3063e68eb","system_id":"levelo_inurba_marseille","lat":43.24005,"lon":5.37686,"is_reserved":false,"is_disabled":true,"rental_uris":{"android":"levelo://app?vid=b210e670-04e4-4c2c-8f2a-43a3063e68eb","ios":"levelo://app?vid=b210e670-04e4-4c2c-8f2a-43a3063e68eb"},"vehicle_type_id":"4","last_reported":1736263048,"current_range_meters":38000,"station_id":"","pricing_plan_id":"cebpf4jnsgd1na2vs0mg"},{"bike_id":"749876f3-ae8c-4ae0-81ba-0be738a120db","system_id":"levelo_inurba_marseille","lat":43.30251,"lon":5.40047,"is_reserved":false,"is_disabled":false,"rental_uris":{"android":"levelo://app?vid=749876f3-ae8c-4ae0-81ba-0be738a120db","ios":"levelo://app?vid=749876f3-ae8c-4ae0-81ba-0be738a120db"},"vehicle_type_id":"4","last_reported":1736263048,"current_range_meters":17200,"station_id":"ce4bgvh2rcd13ifvqcs0","pricing_plan_id":"cebpf4jnsgd1na2vs0mg"},{"bike_id":"cacef05f-dd38-4129-8537-c975ca891968","system_id":"levelo_inurba_marseille","lat":43.26558,"lon":5.39009,"is_reserved":false,"is_disabled":false,"rental_uris":{"android":"levelo://app?vid=cacef05f-dd38-4129-8537-c975ca891968","ios":"levelo://app?vid=cacef05f-dd38-4129-8537-c975ca891968"},"vehicle_type_id":"4","last_reported":1736263048,"current_range_meters":10800,"station_id":"ce4bhe12rcd13ifvqf30","pricing_plan_id":"cebpf4jnsgd1na2vs0mg"},{"bike_id":"0227fe98-6a0e-4931-aae5-4fbf86118025","system_id":"levelo_inurba_marseille","lat":43.30559,"lon":5.36531,"is_reserved":false,"is_disabled":false,"rental_uris":{"android":"levelo://app?vid=0227fe98-6a0e-4931-aae5-4fbf86118025","ios":"levelo://app?vid=0227fe98-6a0e-4931-aae5-4fbf86118025"},"vehicle_type_id":"4","last_reported":1736263048,"current_range_meters":5600,"station_id":"ce4bgs12rcd13ifvqcag","pricing_plan_id":"cebpf4jnsgd1na2vs0mg"},{"bike_id":"cf40d936-bcae-401e-a7a9-3fc56a32ddc8","system_id":"levelo_inurba_marseille","lat":43.2871,"lon":5.37954,"is_reserved":false,"is_disabled":false,"rental_uris":{"android":"levelo://app?vid=cf40d936-bcae-401e-a7a9-3fc56a32ddc8","ios":"levelo://app?vid=cf40d936-bcae-401e-a7a9-3fc56a32ddc8"},"vehicle_type_id":"4","last_reported":1736263048,"current_range_meters":13600,"station_id":"ce4bh9p2rcd13ifvqec0","pricing_plan_id":"cebpf4jnsgd1na2vs0mg"},{"bike_id":"bad934bb-fb0a-46e5-8d7b-b010aa8eb128","system_id":"levelo_inurba_marseille","lat":43.27614,"lon":5.36092,"is_reserved":false,"is_disabled":false,"rental_uris":{"android":"levelo://app?vid=bad934bb-fb0a-46e5-8d7b-b010aa8eb128","ios":"levelo://app?vid=bad934bb-fb0a-46e5-8d7b-b010aa8eb128"},"vehicle_type_id":"4","last_reported":1736263048,"current_range_meters":38800,"station_id":"ce4bgj92rcd13ifvqbe0","pricing_plan_id":"cebpf4jnsgd1na2vs0mg"},{"bike_id":"a8b6888e-d27e-40ac-990e-440f9348d454","system_id":"levelo_inurba_marseille","lat":43.28687,"lon":5.35032,"is_reserved":false,"is_disabled":true,"rental_uris":{"android":"levelo://app?vid=a8b6888e-d27e-40ac-990e-440f9348d454","ios":"levelo://app?vid=a8b6888e-d27e-40ac-990e-440f9348d454"},"vehicle_type_id":"4","last_reported":1736263048,"current_range_meters":2800,"station_id":"ce4bhch2rcd13ifvqeug","pricing_plan_id":"cebpf4jnsgd1na2vs0mg"},{"bike_id":"53ebdf7f-4b19-4ee9-b461-7c9dc5e58b35","system_id":"levelo_inurba_marseille","lat":43.28352,"lon":5.38616,"is_reserved":false,"is_disabled":false,"rental_uris":{"android":"levelo://app?vid=53ebdf7f-4b19-4ee9-b461-7c9dc5e58b35","ios":"levelo://app?vid=53ebdf7f-4b19-4ee9-b461-7c9dc5e58b35"},"vehicle_type_id":"4","last_reported":1736263048,"current_range_meters":4400,"station_id":"ce4bh492rcd13ifvqdvg","pricing_plan_id":"cebpf4jnsgd1na2vs0mg"},{"bike_id":"b7f193ff-d9fe-43e0-bdc6-aff16c0c1376","system_id":"levelo_inurba_marseille","lat":43.26216,"lon":5.37446,"is_reserved":false,"is_disabled":false,"rental_uris":{"android":"levelo://app?vid=b7f193ff-d9fe-43e0-bdc6-aff16c0c1376","ios":"levelo://app?vid=b7f193ff-d9fe-43e0-bdc6-aff16c0c1376"},"vehicle_type_id":"4","last_reported":1736263048,"current_range_meters":33600,"station_id":"ce4bhgp2rcd13ifvqfc0","pricing_plan_id":"cebpf4jnsgd1na2vs0mg"},{"bike_id":"d01b223d-951e-4775-a786-5b4bdd94dd08","system_id":"levelo_inurba_marseille","lat":43.30431,"lon":5.41304,"is_reserved":false,"is_disabled":false,"rental_uris":{"android":"levelo://app?vid=d01b223d-951e-4775-a786-5b4bdd94dd08","ios":"levelo://app?vid=d01b223d-951e-4775-a786-5b4bdd94dd08"},"vehicle_type_id":"4","last_reported":1736263048,"current_range_meters":33600,"station_id":"ce4bhop2rcd13ifvqh8g","pricing_plan_id":"cebpf4jnsgd1na2vs0mg"},{"bike_id":"aaf339dd-8954-4413-a453-cc6626d981d4","system_id":"levelo_inurba_marseille","lat":43.28933,"lon":5.36628,"is_reserved":false,"is_disabled":false,"rental_uris":{"android":"levelo://app?vid=aaf339dd-8954-4413-a453-cc6626d981d4","ios":"levelo://app?vid=aaf339dd-8954-4413-a453-cc6626d981d4"},"vehicle_type_id":"4","last_reported":1736263048,"current_range_meters":34800,"station_id":"ce4bhap2rcd13ifvqek0","pricing_plan_id":"cebpf4jnsgd1na2vs0mg"},{"bike_id":"a7527184-9513-43ea-b43b-fc78e7289103","system_id":"levelo_inurba_marseille","lat":43.29636,"lon":5.40596,"is_reserved":false,"is_disabled":false,"rental_uris":{"android":"levelo://app?vid=a7527184-9513-43ea-b43b-fc78e7289103","ios":"levelo://app?vid=a7527184-9513-43ea-b43b-fc78e7289103"},"vehicle_type_id":"4","last_reported":1736263048,"current_range_meters":24000,"station_id":"ce4bh0h2rcd13ifvqd60","pricing_plan_id":"cebpf4jnsgd1na2vs0mg"},{"bike_id":"518bbff6-4c21-4000-9685-65aa73042136","system_id":"levelo_inurba_marseille","lat":43.25742,"lon":5.37698,"is_reserved":false,"is_disabled":false,"rental_uris":{"android":"levelo://app?vid=518bbff6-4c21-4000-9685-65aa73042136","ios":"levelo://app?vid=518bbff6-4c21-4000-9685-65aa73042136"},"vehicle_type_id":"4","last_reported":1736263048,"current_range_meters":32800,"station_id":"ce4bhh12rcd13ifvqff0","pricing_plan_id":"cebpf4jnsgd1na2vs0mg"},{"bike_id":"c8d00795-be0d-490d-889c-0083b435ee81","system_id":"levelo_inurba_marseille","lat":43.30804,"lon":5.38154,"is_reserved":false,"is_disabled":false,"rental_uris":{"android":"levelo://app?vid=c8d00795-be0d-490d-889c-0083b435ee81","ios":"levelo://app?vid=c8d00795-be0d-490d-889c-0083b435ee81"},"vehicle_type_id":"4","last_reported":1736263048,"current_range_meters":36000,"station_id":"ce4bgt12rcd13ifvqce0","pricing_plan_id":"cebpf4jnsgd1na2vs0mg"},{"bike_id":"390fabc0-1988-4707-88cb-f7876c15b1ca","system_id":"levelo_inurba_marseille","lat":43.24122,"lon":5.37712,"is_reserved":false,"is_disabled":true,"rental_uris":{"android":"levelo://app?vid=390fabc0-1988-4707-88cb-f7876c15b1ca","ios":"levelo://app?vid=390fabc0-1988-4707-88cb-f7876c15b1ca"},"vehicle_type_id":"4","last_reported":1736263048,"current_range_meters":16400,"station_id":"","pricing_plan_id":"cebpf4jnsgd1na2vs0mg"},