{"last_updated":1728137244,"ttl":60,"version":"2.2","data":{"bikes":[{"bike_id":"7b5918c9-286b-4a5d-8c11-f495ad5c7f7a","system_id":"levelo_inurba_marseille","lat":43.30796,"lon":5.43517,"is_reserved":false,"is_disabled":false,"rental_uris":{"android":"levelo://app?vid=7b5918c9-286b-4a5d-8c11-f495ad5c7f7a","ios":"levelo://app?vid=7b5918c9-286b-4a5d-8c11-f495ad5c7f7a"},"vehicle_type_id":"4","last_reported":1728137244,"current_range_meters":8400,"station_id":"ce4bhph2rcd13ifvqheg","pricing_plan_id":"cebpf4jnsgd1na2vs0mg"},{"bike_id":"305a5c84-98d4-4e67-96ca-9b33e2397068","system_id":"levelo_inurba_marseille","lat":43.29938,"lon":5.36548,"is_reserved":false,"is_disabled":false,"rental_uris":{"android":"levelo://app?vid=305a5c84-98d4-4e67-96ca-9b33e2397068","ios":"levelo://app?vid=305a5c84-98d4-4e67-96ca-9b33e2397068"},"vehicle_type_id":"4","last_reported":1728137244,"current_range_meters":38000,"station_id":"ce4bgm92rcd13ifvqbr0","pricing_plan_id":"cebpf4jnsgd1na2vs0mg"},{"bike_id":"abf62df4-601f-46dd-8bb9-ec972d1a7c2a","system_id":"levelo_inurba_marseille","lat":43.28857,"lon":5.35856,"is_reserved":false,"is_disabled":false,"rental_uris":{"android":"levelo://app?vid=abf62df4-601f-46dd-8bb9-ec972d1a7c2a","ios":"levelo://app?vid=abf62df4-601f-46dd-8bb9-ec972d1a7c2a"},"vehicle_type_id":"4","last_reported":1728137244,"current_range_meters":24000,"station_id":"ce4bhb12rcd13ifvqem0","pricing_plan_id":"cebpf4jnsgd1na2vs0mg"},{"bike_id":"78ec4dbb-81e6-4a55-8ec4-29e46a1756ec","system_id":"levelo_inurba_marseille","lat":43.24392,"lon":5.37054,"is_reserved":false,"is_disabled":false,"rental_uris":{"android":"levelo://app?vid=78ec4dbb-81e6-4a55-8ec4-29e46a1756ec","ios":"levelo://app?vid=78ec4dbb-81e6-4a55-8ec4-29e46a1756ec"},"vehicle_type_id":"4","last_reported":1728137244,"current_range_meters":37600,"station_id":"ce4bhhh2rcd13ifvqfk0","pricing_plan_id":"cebpf4jnsgd1na2vs0mg"},{"bike_id":"3edccbad-c604-40df-acb2-6e9d91b67298","system_id":"levelo_inurba_marseille","lat":43.33768,"lon":5.37449,"is_reserved":false,"is_disabled":false,"rental_uris":{"android":"levelo://app?vid=3edccbad-c604-40df-acb2-6e9d91b67298","ios":"levelo://app?vid=3edccbad-c604-40df-acb2-6e9d91b67298"},"vehicle_type_id":"4","last_reported":1728137244,"current_range_meters":34800,"station_id":"","pricing_plan_id":"cebpf4jnsgd1na2vs0mg"},{"bike_id":"85087e2f-c057-496f-a388-e517e6e166bb","system_id":"levelo_inurba_marseille","lat":43.29274,"lon":5.36853,"is_reserved":false,"is_disabled":false,"rental_uris":{"android":"levelo://app?vid=85087e2f-c057-496f-a388-e517e6e166bb","ios":"levelo://app?vid=85087e2f-c057-496f-a388-e517e6e166bb"},"vehicle_type_id":"4","last_reported":1728137244,"current_range_meters":8000,"station_id":"ce4bhbp2rcd13ifvqesg","pricing_plan_id":"cebpf4jnsgd1na2vs0mg"},{"bike_id":"61de1765-6c4e-498b-ab39-fc3c7eca5023","system_id":"levelo_inurba_marseille","lat":43.2293,"lon":5.35376,"is_reserved":false,"is_disabled":false,"rental_uris":{"android":"levelo://app?vid=61de1765-6c4e-498b-ab39-fc3c7eca5023","ios":"levelo://app?vid=61de1765-6c4e-498b-ab39-fc3c7eca5023"},"vehicle_type_id":"4","last_reported":1728137244,"current_range_meters":8000,"station_id":"cpo3532slgdg3j2ikp40","pricing_plan_id":"cebpf4jnsgd1na2vs0mg"},{"bike_id":"469e4615-69fd-4f50-ab75-3a5649cbabf7","system_id":"levelo_inurba_marseille","lat":43.30802,"lon":5.43519,"is_reserved":false,"is_disabled":false,"rental_uris":{"android":"levelo://app?vid=469e4615-69fd-4f50-ab75-3a5649cbabf7","ios":"levelo://app?vid=469e4615-69fd-4f50-ab75-3a5649cbabf7"},"vehicle_type_id":"4","last_reported":1728137244,"current_range_meters":11600,"station_id":"ce4bhph2rcd13ifvqheg","pricing_plan_id":"cebpf4jnsgd1na2vs0mg"},{"bike_id":"b5de047c-d30a-499f-a4d0-67f8b7c117df","system_id":"levelo_inurba_marseille","lat":43.28414,"lon":5.34979,"is_reserved":false,"is_disabled":false,"rental_uris":{"android":"levelo://app?vid=b5de047c-d30a-499f-a4d0-67f8b7c117df","ios":"levelo://app?vid=b5de047c-d30a-499f-a4d0-67f8b7c117df"},"vehicle_type_id":"4","last_reported":1728137244,"current_range_meters":24400,"station_id":"ce4bhbh2rcd13ifvqepg","pricing_plan_id":"cebpf4jnsgd1na2vs0mg"},{"bike_id":"e25027ff-329e-428f-ba4c-c56241f9e0a3","system_id":"levelo_inurba_marseille","lat":43.23057,"lon":5.35487,"is_reserved":false,"is_disabled":false,"rental_uris":{"android":"levelo://app?vid=e25027ff-329e-428f-ba4c-c56241f9e0a3","ios":"levelo://app?vid=e25027ff-329e-428f-ba4c-c56241f9e0a3"},"vehicle_type_id":"4","last_reported":1728137244,"current_range_meters":24000,"station_id":"cpo3342slgdg3j2ifvpg","pricing_plan_id":"cebpf4jnsgd1na2vs0mg"},{"bike_id":"75314826-67a2-4f5f-9966-6b526aafe185","system_id":"levelo_inurba_marseille","lat":43.25583,"lon":5.3823,"is_reserved":false,"is_disabled":false,"rental_uris":{"android":"levelo://app?vid=75314826-67a2-4f5f-9966-6b526aafe185","ios":"levelo://app?vid=75314826-67a2-4f5f-9966-6b526aafe185"},"vehicle_type_id":"4","last_reported":1728137244,"current_range_meters":8400,"station_id":"ce4bhih2rcd13ifvqfs0","pricing_plan_id":"cebpf4jnsgd1na2vs0mg"},{"bike_id":"37042c1b-99f0-4379-a7d0-0b6867cdb669","system_id":"levelo_inurba_marseille","lat":43.23184,"lon":5.39975,"is_reserved":false,"is_disabled":false,"rental_uris":{"android":"levelo://app?vid=37042c1b-99f0-4379-a7d0-0b6867cdb669","ios":"levelo://app?vid=37042c1b-99f0-4379-a7d0-0b6867cdb669"},"vehicle_type_id":"4","last_reported":1728137244,"current_range_meters":39200,"station_id":"ce4bhn12rcd13ifvqgqg","pricing_plan_id":"cebpf4jnsgd1na2vs0mg"},{"bike_id":"73bea94d-01d6-4499-ac38-72a63e363070","system_id":"levelo_inurba_marseille","lat":43.2721,"lon":5.39179,"is_reserved":false,"is_disabled":false,"rental_uris":{"android":"levelo://app?vid=73bea94d-01d6-4499-ac38-72a63e363070","ios":"levelo://app?vid=73bea94d-01d6-4499-ac38-72a63e363070"},"vehicle_type_id":"4","last_reported":1728137244,"current_range_meters":8000,"station_id":"ce4bhhp2rcd13ifvqfm0","pricing_plan_id":"cebpf4jnsgd1na2vs0mg"},{"bike_id":"cd8efa60-20bb-4915-b299-6050f091013b","system_id":"levelo_inurba_marseille","lat":43.23057,"lon":5.35486,"is_reserved":false,"is_disabled":false,"rental_uris":{"android":"levelo://app?vid=cd8efa60-20bb-4915-b299-6050f091013b","ios":"levelo://app?vid=cd8efa60-20bb-4915-b299-6050f091013b"},"vehicle_type_id":"4","last_reported":1728137244,"current_range_meters":8800,"station_id":"cpo3342slgdg3j2ifvpg","pricing_plan_id":"cebpf4jnsgd1na2vs0mg"},{"bike_id":"f44ef408-f651-4fa4-aa7d-0d70f8af6a65","system_id":"levelo_inurba_marseille","lat":43.23196,"lon":5.35546,"is_reserved":false,"is_disabled":false,"rental_uris":{"android":"levelo://app?vid=f44ef408-f651-4fa4-aa7d-0d70f8af6a65","ios":"levelo://app?vid=f44ef408-f651-4fa4-aa7d-0d70f8af6a65"},"vehicle_type_id":"4","last_reported":1728137244,"current_range_meters":35200,"station_id":"ce4bhu92rcd13ifvqi70","pricing_plan_id":"cebpf4jnsgd1na2vs0mg"},{"bike_id":"e8d989e2-60a6-419b-9099-ea51e5f4dd56","system_id":"levelo_inurba_marseille","lat":43.25724,"lon":5.41114,"is_reserved":false,"is_disabled":false,"rental_uris":{"android":"levelo://app?vid=e8d989e2-60a6-419b-9099-ea51e5f4dd56","ios":"levelo://app?vid=e8d989e2-60a6-419b-9099-ea51e5f4dd56"},"vehicle_type_id":"4","last_reported":1728137244,"current_range_meters":14000,"station_id":"ce4bhkp2rcd13ifvqgd0","pricing_plan_id":"cebpf4jnsgd1na2vs0mg"},{"bike_id":"4920a91b-45c3-4cc6-8c11-e9c0ce20f787","system_id":"levelo_inurba_marseille","lat":43.22932,"lon":5.35377,"is_reserved":false,"is_disabled":false,"rental_uris":{"android":"levelo://app?vid=4920a91b-45c3-4cc6-8c11-e9c0ce20f787","ios":"levelo://app?vid=4920a91b-45c3-4cc6-8c11-e9c0ce20f787"},"vehicle_type_id":"4","last_reported":1728137244,"current_range_meters":27200,"station_id":"cpo3532slgdg3j2ikp40","pricing_plan_id":"cebpf4jnsgd1na2vs0mg"},{"bike_id":"ca992306-4789-466e-ace3-1784702a0ef3","system_id":"levelo_inurba_marseille","lat":43.289703,"lon":5.378329,"is_reserved":false,"is_disabled":false,"rental_uris":{"android":"levelo://app?vid=ca992306-4789-466e-ace3-1784702a0ef3","ios":"levelo://app?vid=ca992306-4789-466e-ace3-1784702a0ef3"},"vehicle_type_id":"4","last_reported":1728137244,"current_range_meters":14400,"station_id":"ce4bh9p2rcd13ifvqed0","pricing_plan_id":"cebpf4jnsgd1na2vs0mg"},{"bike_id":"93c654a2-94c9-4514-863f-254898a7ddea","system_id":"levelo_inurba_marseille","lat":43.27361,"lon":5.36237,"is_reserved":false,"is_disabled":false,"rental_uris":{"android":"levelo://app?vid=93c654a2-94c9-4514-863f-254898a7ddea","ios":"levelo://app?vid=93c654a2-94c9-4514-863f-254898a7ddea"},"vehicle_type_id":"4","last_reported":1728137244,"current_range_meters":27600,"station_id":"ce4bhbh2rcd13ifvqeo0","pricing_plan_id":"cebpf4jnsgd1na2vs0mg"},{"bike_id":"03ebdfef-60b9-4383-b780-f6e10ef5dff9","system_id":"levelo_inurba_marseille","lat":43.337567,"lon":5.374567,"is_reserved":false,"is_disabled":false,"rental_uris":{"android":"levelo://app?vid=03ebdfef-60b9-4383-b780-f6e10ef5dff9","ios":"levelo://app?vid=03ebdfef-60b9-4383-b780-f6e10ef5dff9"},"vehicle_type_id":"4","last_reported":1728137244,"current_range_meters":34000,"station_id":"","pricing_plan_id":"cebpf4jnsgd1na2vs0mg"},{"bike_id":"d5270646-6fb5-4d77-9583-11b07a363a33","system_id":"levelo_inurba_marseille","lat":43.28413,"lon":5.34968,"is_reserved":false,"is_disabled":false,"rental_uris":{"android":"levelo://app?vid=d5270646-6fb5-4d77-9583-11b07a363a33","ios":"levelo://app?vid=d5270646-6fb5-4d77-9583-11b07a363a33"},"vehicle_type_id":"4","last_reported":1728137244,"current_range_meters":38800,"station_id":"ce4bhbh2rcd13ifvqepg","pricing_plan_id":"cebpf4jnsgd1na2vs0mg"},{"bike_id":"e6b2df58-b4a0-4aec-933d-a62e42f34d34","system_id":"levelo_inurba_marseille","lat":43.33728,"lon":5.39195,"is_reserved":false,"is_disabled":false,"rental_uris":{"android":"levelo://app?vid=e6b2df58-b4a0-4aec-933d-a62e42f34d34","ios":"levelo://app?vid=e6b2df58-b4a0-4aec-933d-a62e42f34d34"},"vehicle_type_id":"4","last_reported":1728137244,"current_range_meters":12400,"station_id":"ce4bhr92rcd13ifvqhsg","pricing_plan_id":"cebpf4jnsgd1na2vs0mg"},{"bike_id":"9bdfcddf-1fd9-4f35-bea0-76383e057359","system_id":"levelo_inurba_marseille","lat":43.25,"lon":5.38921,"is_reserved":false,"is_disabled":false,"rental_uris":{"android":"levelo://app?vid=9bdfcddf-1fd9-4f35-bea0-76383e057359","ios":"levelo://app?vid=9bdfcddf-1fd9-4f35-bea0-76383e057359"},"vehicle_type_id":"4","last_reported":1728137244,"current_range_meters":37600,"station_id":"ce4bhgp2rcd13ifvqfd0","pricing_plan_id":"cebpf4jnsgd1na2vs0mg"},{"bike_id":"2edc92e6-4b4d-470b-b208-cda6cf6ab979","system_id":"levelo_inurba_marseille","lat":43.29303,"lon":5.37453,"is_reserved":false,"is_disabled":false,"rental_uris":{"android":"levelo://app?vid=2edc92e6-4b4d-470b-b208-cda6cf6ab979","ios":"levelo://app?vid=2edc92e6-4b4d-470b-b208-cda6cf6ab979"},"vehicle_type_id":"4","last_reported":1728137244,"current_range_meters":9200,"station_id":"ce4bgi12rcd13ifvqb70","pricing_plan_id":"cebpf4jnsgd1na2vs0mg"},{"bike_id":"d77938b7-ff1e-465c-a8b9-4b07085a5cc9","system_id":"levelo_inurba_marseille","lat":43.23062,"lon":5.35488,"is_reserved":false,"is_disabled":false,"rental_uris":{"android":"levelo://app?vid=d77938b7-ff1e-465c-a8b9-4b07085a5cc9","ios":"levelo://app?vid=d77938b7-ff1e-465c-a8b9-4b07085a5cc9"},"vehicle_type_id":"4","last_reported":1728137244,"current_range_meters":12000,"station_id":"cpo3342slgdg3j2ifvpg","pricing_plan_id":"cebpf4jnsgd1na2vs0mg"},{"bike_id":"852457a1-813f-46b8-bb13-232384e208e9","system_id":"levelo_inurba_marseille","lat":43.33776,"lon":5.37442,"is_reserved":false,"is_disabled":false,"rental_uris":{"android":"levelo://app?vid=852457a1-813f-46b8-bb13-232384e208e9","ios":"levelo://app?vid=852457a1-813f-46b8-bb13-232384e208e9"},"vehicle_type_id":"4","last_reported":1728137244,"current_range_meters":33200,"station_id":"","pricing_plan_id":"cebpf4jnsgd1na2vs0mg"},{"bike_id":"0d79ef91-e03a-4511-b960-a6f350f28d65","system_id":"levelo_inurba_marseille","lat":43.23062,"lon":5.35491,"is_reserved":false,"is_disabled":false,"rental_uris":{"android":"levelo://app?vid=0d79ef91-e03a-4511-b960-a6f350f28d65","ios":"levelo://app?vid=0d79ef91-e03a-4511-b960-a6f350f28d65"},"vehicle_type_id":"4","last_reported":1728137244,"current_range_meters":18800,"station_id":"cpo3342slgdg3j2ifvpg","pricing_plan_id":"cebpf4jnsgd1na2vs0mg"},{"bike_id":"e1729c06-d1d0-49d8-be14-4a2919fe4755","system_id":"levelo_inurba_marseille","lat":43.28412,"lon":5.3498,"is_reserved":false,"is_disabled":false,"rental_uris":{"android":"levelo://app?vid=e1729c06-d1d0-49d8-be14-4a2919fe4755","ios":"levelo://app?vid=e1729c06-d1d0-49d8-be14-4a2919fe4755"},"vehicle_type_id":"4","last_reported":1728137244,"current_range_meters":14800,"station_id":"ce4bhbh2rcd13ifvqepg","pricing_plan_id":"cebpf4jnsgd1na2vs0mg"},{"bike_id":"e0a7a49f-7358-4151-ba72-aad991f61aaf","system_id":"levelo_inurba_marseille","lat":43.28446,"lon":5.38062,"is_reserved":false,"is_disabled":false,"rental_uris":{"android":"levelo://app?vid=e0a7a49f-7358-4151-ba72-aad991f61aaf","ios":"levelo://app?vid=e0a7a49f-7358-4151-ba72-aad991f61aaf"},"vehicle_type_id":"4","last_reported":1728137244,"current_range_meters":8000,"station_id":"ce4bh412rcd13ifvqdr0","pricing_plan_id":"cebpf4jnsgd1na2vs0mg"},{"bike_id":"a53b98f8-52a1-4fbf-9c54-5ce202cb9f71","system_id":"levelo_inurba_marseille","lat":43.27368,"lon":5.36242,"is_reserved":false,"is_disabled":false,"rental_uris":{"android":"levelo://app?vid=a53b98f8-52a1-4fbf-9c54-5ce202cb9f71","ios":"levelo://app?vid=a53b98f8-52a1-4fbf-9c54-5ce202cb9f71"},"vehicle_type_id":"4","last_reported":1728137244,"current_range_meters":37600,"station_id":"ce4bhbh2rcd13ifvqeo0","pricing_plan_id":"cebpf4jnsgd1na2vs0mg"},{"bike_id":"54d09a39-e79d-434c-8a05-a8f2660c6a94","system_id":"levelo_inurba_marseille","lat":43.29896,"lon":5.43672,"is_reserved":false,"is_disabled":false,"rental_uris":{"android":"levelo://app?vid=54d09a39-e79d-434c-8a05-a8f2660c6a94","ios":"levelo://app?vid=54d09a39-e79d-434c-8a05-a8f2660c6a94"},"vehicle_type_id":"4","last_reported":1728137244,"current_range_meters":9600,"station_id":"ce4bhpp2rcd13ifvqhfg","pricing_plan_id":"cebpf4jnsgd1na2vs0mg"},{"bike_id":"6548e544-7efd-4b96-8168-7c8eab7f53b9","system_id":"levelo_inurba_marseille","lat":43.32661,"lon":5.40986,"is_reserved":false,"is_disabled":false,"rental_uris":{"android":"levelo://app?vid=6548e544-7efd-4b96-8168-7c8eab7f53b9","ios":"levelo://app?vid=6548e544-7efd-4b96-8168-7c8eab7f53b9"},"vehicle_type_id":"4","last_reported":1728137244,"current_range_meters":36800,"station_id":"ce4bhpp2rcd13ifvqhgg","pricing_plan_id":"cebpf4jnsgd1na2vs0mg"},{"bike_id":"067ca4b5-76ca-4e25-9d7a-15c7e765ede8","system_id":"levelo_inurba_marseille","lat":43.24072,"lon":5.37763,"is_reserved":false,"is_disabled":false,"rental_uris":{"android":"levelo://app?vid=067ca4b5-76ca-4e25-9d7a-15c7e765ede8","ios":"levelo://app?vid=067ca4b5-76ca-4e25-9d7a-15c7e765ede8"},"vehicle_type_id":"4","last_reported":1728137244,"current_range_meters":8800,"station_id":"ce4bhnp2rcd13ifvqgvg","pricing_plan_id":"cebpf4jnsgd1na2vs0mg"},{"bike_id":"5d5a6513-1c73-4e32-9b67-1d9451a2d17a","system_id":"levelo_inurba_marseille","lat":43.23061,"lon":5.35486,"is_reserved":false,"is_disabled":false,"rental_uris":{"android":"levelo://app?vid=5d5a6513-1c73-4e32-9b67-1d9451a2d17a","ios":"levelo://app?vid=5d5a6513-1c73-4e32-9b67-1d9451a2d17a"},"vehicle_type_id":"4","last_reported":1728137244,"current_range_meters":22000,"station_id":"cpo3342slgdg3j2ifvpg","pricing_plan_id":"cebpf4jnsgd1na2vs0mg"},{"bike_id":"491813ec-5bcd-4eda-acb2-c01ccb4e9894","system_id":"levelo_inurba_marseille","lat":43.33774,"lon":5.37446,"is_reserved":false,"is_disabled":false,"rental_uris":{"android":"levelo://app?vid=491813ec-5bcd-4eda-acb2-c01ccb4e9894","ios":"levelo://app?vid=491813ec-5bcd-4eda-acb2-c01ccb4e9894"},"vehicle_type_id":"4","last_reported":1728137244,"current_range_meters":36400,"station_id":"","pricing_plan_id":"cebpf4jnsgd1na2vs0mg"},{"bike_id":"55d4cda0-dbc0-4c6e-9c73-196326286778","system_id":"levelo_inurba_marseille","lat":43.27373,"lon":5.36254,"is_reserved":false,"is_disabled":false,"rental_uris":{"android":"levelo://app?vid=55d4cda0-dbc0-4c6e-9c73-196326286778","ios":"levelo://app?vid=55d4cda0-dbc0-4c6e-9c73-196326286778"},"vehicle_type_id":"4","last_reported":1728137244,"current_range_meters":16400,"station_id":"ce4bhbh2rcd13ifvqeo0","pricing_plan_id":"cebpf4jnsgd1na2vs0mg"},{"bike_id":"baba7691-81ff-4c7d-90d9-c89eba9696cb","system_id":"levelo_inurba_marseille","lat":43.25929,"lon":5.40912,"is_reserved":false,"is_disabled":false,"rental_uris":{"android":"levelo://app?vid=baba7691-81ff-4c7d-90d9-c89eba9696cb","ios":"levelo://app?vid=baba7691-81ff-4c7d-90d9-c89eba9696cb"},"vehicle_type_id":"4","last_reported":1728137244,"current_range_meters":36800,"station_id":"ce4bhm92rcd13ifvqglg","pricing_plan_id":"cebpf4jnsgd1na2vs0mg"},{"bike_id":"8398f01b-0c89-49cd-bea3-9feffbf7b091","system_id":"levelo_inurba_marseille","lat":43.30802,"lon":5.43519,"is_reserved":false,"is_disabled":false,"rental_uris":{"android":"levelo://app?vid=8398f01b-0c89-49cd-bea3-9feffbf7b091","ios":"levelo://app?vid=8398f01b-0c89-49cd-bea3-9feffbf7b091"},"vehicle_type_id":"4","last_reported":1728137244,"current_range_meters":25200,"station_id":"ce4bhph2rcd13ifvqheg","pricing_plan_id":"cebpf4jnsgd1na2vs0mg"},{"bike_id":"003f79fe-6d41-46f1-841e-89c95bada677","system_id":"levelo_inurba_marseille","lat":43.22933,"lon":5.35373,"is_reserved":false,"is_disabled":false,"rental_uris":{"android":"levelo://app?vid=003f79fe-6d41-46f1-841e-89c95bada677","ios":"levelo://app?vid=003f79fe-6d41-46f1-841e-89c95bada677"},"vehicle_type_id":"4","last_reported":1728137244,"current_range_meters":27200,"station_id":"cpo3532slgdg3j2ikp40","pricing_plan_id":"cebpf4jnsgd1na2vs0mg"},{"bike_id":"03fbec81-2a94-48dd-a306-be269f429402","system_id":"levelo_inurba_marseille","lat":43.27374,"lon":5.36256,"is_reserved":false,"is_disabled":false,"rental_uris":{"android":"levelo://app?vid=03fbec81-2a94-48dd-a306-be269f429402","ios":"levelo://app?vid=03fbec81-2a94-48dd-a306-be269f429402"},"vehicle_type_id":"4","last_reported":1728137244,"current_range_meters":39200,"station_id":"ce4bhbh2rcd13ifvqeo0","pricing_plan_id":"cebpf4jnsgd1na2vs0mg"},{"bike_id":"859bd80f-fcc7-427e-9d00-1e05262dc4bc","system_id":"levelo_inurba_marseille","lat":43.23961,"lon":5.36626,"is_reserved":false,"is_disabled":false,"rental_uris":{"android":"levelo://app?vid=859bd80f-fcc7-427e-9d00-1e05262dc4bc","ios":"levelo://app?vid=859bd80f-fcc7-427e-9d00-1e05262dc4bc"},"vehicle_type_id":"4","last_reported":1728137244,"current_range_meters":12800,"station_id":"ce4bhi12rcd13ifvqfp0","pricing_plan_id":"cebpf4jnsgd1na2vs0mg"},{"bike_id":"4af55307-045f-4c66-a045-a91d88bb4c16","system_id":"levelo_inurba_marseille","lat":43.3377,"lon":5.37453,"is_reserved":false,"is_disabled":false,"rental_uris":{"android":"levelo://app?vid=4af55307-045f-4c66-a045-a91d88bb4c16","ios":"levelo://app?vid=4af55307-045f-4c66-a045-a91d88bb4c16"},"vehicle_type_id":"4","last_reported":1728137244,"current_range_meters":36400,"station_id":"","pricing_plan_id":"cebpf4jnsgd1na2vs0mg"},{"bike_id":"048b48e2-fdf6-4f53-aa74-369aa9ffb52c","system_id":"levelo_inurba_marseille","lat":43.23148,"lon":5.43718,"is_reserved":false,"is_disabled":false,"rental_uris":{"android":"levelo://app?vid=048b48e2-fdf6-4f53-aa74-369aa9ffb52c","ios":"levelo://app?vid=048b48e2-fdf6-4f53-aa74-369aa9ffb52c"},"vehicle_type_id":"4","last_reported":1728137244,"current_range_meters":38800,"station_id":"ce4bhmp2rcd13ifvqgog","pricing_plan_id":"cebpf4jnsgd1na2vs0mg"},{"bike_id":"e756f7bf-048d-4602-8960-fecb6745cc19","system_id":"levelo_inurba_marseille","lat":43.27369,"lon":5.36254,"is_reserved":false,"is_disabled":false,"rental_uris":{"android":"levelo://app?vid=e756f7bf-048d-4602-8960-fecb6745cc19","ios":"levelo://app?vid=e756f7bf-048d-4602-8960-fecb6745cc19"},"vehicle_type_id":"4","last_reported":1728137244,"current_range_meters":25600,"station_id":"ce4bhbh2rcd13ifvqeo0","pricing_plan_id":"cebpf4jnsgd1na2vs0mg"},{"bike_id":"13a35d1a-1c21-4cdd-9282-17040c700716","system_id":"levelo_inurba_marseille","lat":43.325387,"lon":5.414462,"is_reserved":false,"is_disabled":false,"rental_uris":{"android":"levelo://app?vid=13a35d1a-1c21-4cdd-9282-17040c700716","ios":"levelo://app?vid=13a35d1a-1c21-4cdd-9282-17040c700716"},"vehicle_type_id":"4","last_reported":1728137244,"current_range_meters":38000,"station_id":"ce4bhq12rcd13ifvqhhg","pricing_plan_id":"cebpf4jnsgd1na2vs0mg"},{"bike_id":"b24e1038-08a4-4c1c-9143-7a6915e15699","system_id":"levelo_inurba_marseille","lat":43.27369,"lon":5.36243,"is_reserved":false,"is_disabled":false,"rental_uris":{"android":"levelo://app?vid=b24e1038-08a4-4c1c-9143-7a6915e15699","ios":"levelo://app?vid=b24e1038-08a4-4c1c-9143-7a6915e15699"},"vehicle_type_id":"4","last_reported":1728137244,"current_range_meters":8400,"station_id":"ce4bhbh2rcd13ifvqeo0","pricing_plan_id":"cebpf4jnsgd1na2vs0mg"},{"bike_id":"696644f5-1423-4196-8c71-bccdf5f2a225","system_id":"levelo_inurba_marseille","lat":43.28418,"lon":5.34975,"is_reserved":false,"is_disabled":false,"rental_uris":{"android":"levelo://app?vid=696644f5-1423-4196-8c71-bccdf5f2a225","ios":"levelo://app?vid=696644f5-1423-4196-8c71-bccdf5f2a225"},"vehicle_type_id":"4","last_reported":1728137244,"current_range_meters":37600,"station_id":"ce4bhbh2rcd13ifvqepg","pricing_plan_id":"cebpf4jnsgd1na2vs0mg"},{"bike_id":"47b63ec9-5455-4371-a0f6-d02c2e048c54","system_id":"levelo_inurba_marseille","lat":43.28419,"lon":5.3499,"is_reserved":false,"is_disabled":false,"rental_uris":{"android":"levelo://app?vid=47b63ec9-5455-4371-a0f6-d02c2e048c54","ios":"levelo://app?vid=47b63ec9-5455-4371-a0f6-d02c2e048c54"},"vehicle_type_id":"4","last_reported":1728137244,"current_range_meters":7200,"station_id":"ce4bhbh2rcd13ifvqepg","pricing_plan_id":"cebpf4jnsgd1na2vs0mg"},{"bike_id":"27a0a4cf-9218-4496-85d5-28153287c3d7","system_id":"levelo_inurba_marseille","lat":43.30351,"lon":5.41878,"is_reserved":false,"is_disabled":false,"rental_uris":{"android":"levelo://app?vid=27a0a4cf-9218-4496-85d5-28153287c3d7","ios":"levelo://app?vid=27a0a4cf-9218-4496-85d5-28153287c3d7"},"vehicle_type_id":"4","last_reported":1728137244,"current_range_meters":11600,"station_id":"ce4bhop2rcd13ifvqh7g","pricing_plan_id":"cebpf4jnsgd1na2vs0mg"},{"bike_id":"2f337cc6-9141-49b7-8d58-9e3bdedc3f11","system_id":"levelo_inurba_marseille","lat":43.23195,"lon":5.35552,"is_reserved":false,"is_disabled":false,"rental_uris":{"android":"levelo://app?vid=2f337cc6-9141-49b7-8d58-9e3bdedc3f11","ios":"levelo://app?vid=2f337cc6-9141-49b7-8d58-9e3bdedc3f11"},"vehicle_type_id":"4","last_reported":1728137244,"current_range_meters":20400,"station_id":"ce4bhu92rcd13ifvqi70","pricing_plan_id":"cebpf4jnsgd1na2vs0mg"},{"bike_id":"7c385f23-82a0-41e9-af30-8c804ebda7ca","system_id":"levelo_inurba_marseille","lat":43.27325,"lon":5.39067,"is_reserved":false,"is_disabled":false,"rental_uris":{"android":"levelo://app?vid=7c385f23-82a0-41e9-af30-8c804ebda7ca","ios":"levelo://app?vid=7c385f23-82a0-41e9-af30-8c804ebda7ca"},"vehicle_type_id":"4","last_reported":1728137244,"current_range_meters":24400,"station_id":"ce4bhgp2rcd13ifvqfe0","pricing_plan_id":"cebpf4jnsgd1na2vs0mg"},{"bike_id":"db981661-0e24-4757-bdf7-473bbc2a9be4","system_id":"levelo_inurba_marseille","lat":43.22931,"lon":5.35377,"is_reserved":false,"is_disabled":false,"rental_uris":{"android":"levelo://app?vid=db981661-0e24-4757-bdf7-473bbc2a9be4","ios":"levelo://app?vid=db981661-0e24-4757-bdf7-473bbc2a9be4"},"vehicle_type_id":"4","last_reported":1728137244,"current_range_meters":38000,"station_id":"cpo3532slgdg3j2ikp40","pricing_plan_id":"cebpf4jnsgd1na2vs0mg"},{"bike_id":"bcac455c-9902-48bf-b9b1-3c1b965f772f","system_id":"levelo_inurba_marseille","lat":43.28414,"lon":5.34974,"is_reserved":false,"is_disabled":false,"rental_uris":{"android":"levelo://app?vid=bcac455c-9902-48bf-b9b1-3c1b965f772f","ios":"levelo://app?vid=bcac455c-9902-48bf-b9b1-3c1b965f772f"},"vehicle_type_id":"4","last_reported":1728137244,"current_range_meters":28800,"station_id":"ce4bhbh2rcd13ifvqepg","pricing_plan_id":"cebpf4jnsgd1na2vs0mg"},{"bike_id":"c49c5871-aed7-465f-a788-a7aa2fef8f0a","system_id":"levelo_inurba_marseille","lat":43.28615,"lon":5.35099,"is_reserved":false,"is_disabled":false,"rental_uris":{"android":"levelo://app?vid=c49c5871-aed7-465f-a788-a7aa2fef8f0a","ios":"levelo://app?vid=c49c5871-aed7-465f-a788-a7aa2fef8f0a"},"vehicle_type_id":"4","last_reported":1728137244,"current_range_meters":3200,"station_id":"ce4bhch2rcd13ifvqeug","pricing_plan_id":"cebpf4jnsgd1na2vs0mg"},{"bike_id":"82c3655a-4e25-4436-84e4-a1bafe949b42","system_id":"levelo_inurba_marseille","lat":43.2396,"lon":5.36629,"is_reserved":false,"is_disabled":false,"rental_uris":{"android":"levelo://app?vid=82c3655a-4e25-4436-84e4-a1bafe949b42","ios":"levelo://app?vid=82c3655a-4e25-4436-84e4-a1bafe949b42"},"vehicle_type_id":"4","last_reported":1728137244,"current_range_meters":6800,"station_id":"ce4bhi12rcd13ifvqfp0","pricing_plan_id":"cebpf4jnsgd1na2vs0mg"},{"bike_id":"ee22104e-d1df-4891-a463-657b90379d75","system_id":"levelo_inurba_marseille","lat":43.22918,"lon":5.35376,"is_reserved":false,"is_disabled":false,"rental_uris":{"android":"levelo://app?vid=ee22104e-d1df-4891-a463-657b90379d75","ios":"levelo://app?vid=ee22104e-d1df-4891-a463-657b90379d75"},"vehicle_type_id":"4","last_reported":1728137244,"current_range_meters":35200,"station_id":"cpo3532slgdg3j2ikp40","pricing_plan_id":"cebpf4jnsgd1na2vs0mg"},{"bike_id":"9248fc6b-ce47-46e3-ab72-f59c08864c25","system_id":"levelo_inurba_marseille","lat":43.28429,"lon":5.3498,"is_reserved":false,"is_disabled":false,"rental_uris":{"android":"levelo://app?vid=9248fc6b-ce47-46e3-ab72-f59c08864c25","ios":"levelo://app?vid=9248fc6b-ce47-46e3-ab72-f59c08864c25"},"vehicle_type_id":"4","last_reported":1728137244,"current_range_meters":17600,"station_id":"ce4bhbh2rcd13ifvqepg","pricing_plan_id":"cebpf4jnsgd1na2vs0mg"},{"bike_id":"63775587-b38e-4f2c-99ab-ebcbf9001a3e","system_id":"levelo_inurba_marseille","lat":43.28351,"lon":5.3862,"is_reserved":false,"is_disabled":false,"rental_uris":{"android":"levelo://app?vid=63775587-b38e-4f2c-99ab-ebcbf9001a3e","ios":"levelo://app?vid=63775587-b38e-4f2c-99ab-ebcbf9001a3e"},"vehicle_type_id":"4","last_reported":1728137244,"current_range_meters":20000,"station_id":"ce4bh492rcd13ifvqdvg","pricing_plan_id":"cebpf4jnsgd1na2vs0mg"},{"bike_id":"79b9780c-0672-46ff-af34-19be6dec4043","system_id":"levelo_inurba_marseille","lat":43.3171,"lon":5.43707,"is_reserved":false,"is_disabled":false,"rental_uris":{"android":"levelo://app?vid=79b9780c-0672-46ff-af34-19be6dec4043","ios":"levelo://app?vid=79b9780c-0672-46ff-af34-19be6dec4043"},"vehicle_type_id":"4","last_reported":1728137244,"current_range_meters":24400,"station_id":"ce4bhp92rcd13ifvqhcg","pricing_plan_id":"cebpf4jnsgd1na2vs0mg"},{"bike_id":"ae38b8b2-3a5d-4f87-b460-38cf07201e87","system_id":"levelo_inurba_marseille","lat":43.23054,"lon":5.35493,"is_reserved":false,"is_disabled":false,"rental_uris":{"android":"levelo://app?vid=ae38b8b2-3a5d-4f87-b460-38cf07201e87","ios":"levelo://app?vid=ae38b8b2-3a5d-4f87-b460-38cf07201e87"},"vehicle_type_id":"4","last_reported":1728137244,"current_range_meters":31200,"station_id":"cpo3342slgdg3j2ifvpg","pricing_plan_id":"cebpf4jnsgd1na2vs0mg"},{"bike_id":"e19b1534-7c99-4fb8-bf6a-8ba1bcc29923","system_id":"levelo_inurba_marseille","lat":43.23151,"lon":5.43708,"is_reserved":false,"is_disabled":false,"rental_uris":{"android":"levelo://app?vid=e19b1534-7c99-4fb8-bf6a-8ba1bcc29923","ios":"levelo://app?vid=e19b1534-7c99-4fb8-bf6a-8ba1bcc29923"},"vehicle_type_id":"4","last_reported":1728137244,"current_range_meters":18800,"station_id":"ce4bhmp2rcd13ifvqgog","pricing_plan_id":"cebpf4jnsgd1na2vs0mg"},{"bike_id":"bebd253c-6c1a-4122-95d0-34bd05630847","system_id":"levelo_inurba_marseille","lat":43.25722,"lon":5.41112,"is_reserved":false,"is_disabled":false,"rental_uris":{"android":"levelo://app?vid=bebd253c-6c1a-4122-95d0-34bd05630847","ios":"levelo://app?vid=bebd253c-6c1a-4122-95d0-34bd05630847"},"vehicle_type_id":"4","last_reported":1728137244,"current_range_meters":3200,"station_id":"ce4bhkp2rcd13ifvqgd0","pricing_plan_id":"cebpf4jnsgd1na2vs0mg"},{"bike_id":"24e8665c-c387-4bce-a92a-51df3b36226c","system_id":"levelo_inurba_marseille","lat":43.23194,"lon":5.35545,"is_reserved":false,"is_disabled":false,"rental_uris":{"android":"levelo://app?vid=24e8665c-c387-4bce-a92a-51df3b36226c","ios":"levelo://app?vid=24e8665c-c387-4bce-a92a-51df3b36226c"},"vehicle_type_id":"4","last_reported":1728137244,"current_range_meters":8400,"station_id":"ce4bhu92rcd13ifvqi70","pricing_plan_id":"cebpf4jnsgd1na2vs0mg"},{"bike_id":"78f819b8-85ba-4563-a6ef-d45e6873584d","system_id":"levelo_inurba_marseille","lat":43.31086,"lon":5.4243,"is_reserved":false,"is_disabled":false,"rental_uris":{"android":"levelo://app?vid=78f819b8-85ba-4563-a6ef-d45e6873584d","ios":"levelo://app?vid=78f819b8-85ba-4563-a6ef-d45e6873584d"},"vehicle_type_id":"4","last_reported":1728137244,"current_range_meters":29600,"station_id":"ce4bhp92rcd13ifvqhag","pricing_plan_id":"cebpf4jnsgd1na2vs0mg"},{"bike_id":"efd83f0f-e93a-42f5-a76e-a62307453c5d","system_id":"levelo_inurba_marseille","lat":43.2849,"lon":5.39075,"is_reserved":false,"is_disabled":false,"rental_uris":{"android":"levelo://app?vid=efd83f0f-e93a-42f5-a76e-a62307453c5d","ios":"levelo://app?vid=efd83f0f-e93a-42f5-a76e-a62307453c5d"},"vehicle_type_id":"4","last_reported":1728137244,"current_range_meters":30800,"station_id":"ce4bhoh2rcd13ifvqh5g","pricing_plan_id":"cebpf4jnsgd1na2vs0mg"},{"bike_id":"0f834a8d-8504-430c-be41-c4596ae7a26d","system_id":"levelo_inurba_marseille","lat":43.26558,"lon":5.37283,"is_reserved":false,"is_disabled":false,"rental_uris":{"android":"levelo://app?vid=0f834a8d-8504-430c-be41-c4596ae7a26d","ios":"levelo://app?vid=0f834a8d-8504-430c-be41-c4596ae7a26d"},"vehicle_type_id":"4","last_reported":1728137244,"current_range_meters":34000,"station_id":"ce4bhg12rcd13ifvqf70","pricing_plan_id":"cebpf4jnsgd1na2vs0mg"},{"bike_id":"c1f127fe-5d34-4098-836e-b598a6b9dab7","system_id":"levelo_inurba_marseille","lat":43.29219,"lon":5.36045,"is_reserved":false,"is_disabled":false,"rental_uris":{"android":"levelo://app?vid=c1f127fe-5d34-4098-836e-b598a6b9dab7","ios":"levelo://app?vid=c1f127fe-5d34-4098-836e-b598a6b9dab7"},"vehicle_type_id":"4","last_reported":1728137244,"current_range_meters":22800,"station_id":"ce4bhbh2rcd13ifvqeqg","pricing_plan_id":"cebpf4jnsgd1na2vs0mg"},{"bike_id":"e04e5431-207d-4263-8b72-762e4c4878e5","system_id":"levelo_inurba_marseille","lat":43.23056,"lon":5.35491,"is_reserved":false,"is_disabled":false,"rental_uris":{"android":"levelo://app?vid=e04e5431-207d-4263-8b72-762e4c4878e5","ios":"levelo://app?vid=e04e5431-207d-4263-8b72-762e4c4878e5"},"vehicle_type_id":"4","last_reported":1728137244,"current_range_meters":16000,"station_id":"cpo3342slgdg3j2ifvpg","pricing_plan_id":"cebpf4jnsgd1na2vs0mg"},{"bike_id":"26a9678b-d130-44f1-a8ab-f1154f7156cd","system_id":"levelo_inurba_marseille","lat":43.28272,"lon":5.35068,"is_reserved":false,"is_disabled":false,"rental_uris":{"android":"levelo://app?vid=26a9678b-d130-44f1-a8ab-f1154f7156cd","ios":"levelo://app?vid=26a9678b-d130-44f1-a8ab-f1154f7156cd"},"vehicle_type_id":"4","last_reported":1728137244,"current_range_meters":18000,"station_id":"ce4bhbp2rcd13ifvqerg","pricing_plan_id":"cebpf4jnsgd1na2vs0mg"},{"bike_id":"dec9909c-e0ce-4a43-a3ca-3ab7b3aadef2","system_id":"levelo_inurba_marseille","lat":43.29551,"lon":5.42278,"is_reserved":false,"is_disabled":false,"rental_uris":{"android":"levelo://app?vid=dec9909c-e0ce-4a43-a3ca-3ab7b3aadef2","ios":"levelo://app?vid=dec9909c-e0ce-4a43-a3ca-3ab7b3aadef2"},"vehicle_type_id":"4","last_reported":1728137244,"current_range_meters":3200,"station_id":"ce4bhph2rcd13ifvqhdg","pricing_plan_id":"cebpf4jnsgd1na2vs0mg"},{"bike_id":"11340dde-3683-4261-af03-d81e8f7976f7","system_id":"levelo_inurba_marseille","lat":43.26801,"lon":5.40269,"is_reserved":false,"is_disabled":false,"rental_uris":{"android":"levelo://app?vid=11340dde-3683-4261-af03-d81e8f7976f7","ios":"levelo://app?vid=11340dde-3683-4261-af03-d81e8f7976f7"},"vehicle_type_id":"4","last_reported":1728137244,"current_range_meters":29600,"station_id":"ce501612rcd8frsf0b60","pricing_plan_id":"cebpf4jnsgd1na2vs0mg"},{"bike_id":"55235897-e772-426a-b2d3-9bc3b7917106","system_id":"levelo_inurba_marseille","lat":43.22932,"lon":5.35371,"is_reserved":false,"is_disabled":false,"rental_uris":{"android":"levelo://app?vid=55235897-e772-426a-b2d3-9bc3b7917106","ios":"levelo://app?vid=55235897-e772-426a-b2d3-9bc3b7917106"},"vehicle_type_id":"4","last_reported":1728137244,"current_range_meters":19200,"station_id":"cpo3532slgdg3j2ikp40","pricing_plan_id":"cebpf4jnsgd1na2vs0mg"},{"bike_id":"e992b314-fee9-4988-bb7a-2c9de6c7b764","system_id":"levelo_inurba_marseille","lat":43.24659,"lon":5.3816,"is_reserved":false,"is_disabled":false,"rental_uris":{"android":"levelo://app?vid=e992b314-fee9-4988-bb7a-2c9de6c7b764","ios":"levelo://app?vid=e992b314-fee9-4988-bb7a-2c9de6c7b764"},"vehicle_type_id":"4","last_reported":1728137244,"current_range_meters":36000,"station_id":"ce4bhih2rcd13ifvqfr0","pricing_plan_id":"cebpf4jnsgd1na2vs0mg"},{"bike_id":"59207f80-49b5-42ac-bb06-77755ab51403","system_id":"levelo_inurba_marseille","lat":43.22931,"lon":5.35377,"is_reserved":false,"is_disabled":false,"rental_uris":{"android":"levelo://app?vid=59207f80-49b5-42ac-bb06-77755ab51403","ios":"levelo://app?vid=59207f80-49b5-42ac-bb06-77755ab51403"},"vehicle_type_id":"4","last_reported":1728137244,"current_range_meters":37600,"station_id":"cpo3532slgdg3j2ikp40","pricing_plan_id":"cebpf4jnsgd1na2vs0mg"},{"bike_id":"0cdc0b25-f51b-449e-9863-f2104e0866e8","system_id":"levelo_inurba_marseille","lat":43.23062,"lon":5.35492,"is_reserved":false,"is_disabled":false,"rental_uris":{"android":"levelo://app?vid=0cdc0b25-f51b-449e-9863-f2104e0866e8","ios":"levelo://app?vid=0cdc0b25-f51b-449e-9863-f2104e0866e8"},"vehicle_type_id":"4","last_reported":1728137244,"current_range_meters":16400,"station_id":"cpo3342slgdg3j2ifvpg","pricing_plan_id":"cebpf4jnsgd1na2vs0mg"},{"bike_id":"135b6756-150e-41cb-92b9-c582b0592069","system_id":"levelo_inurba_marseille","lat":43.28723,"lon":5.36086,"is_reserved":false,"is_disabled":false,"rental_uris":{"android":"levelo://app?vid=135b6756-150e-41cb-92b9-c582b0592069","ios":"levelo://app?vid=135b6756-150e-41cb-92b9-c582b0592069"},"vehicle_type_id":"4","last_reported":1728137244,"current_range_meters":15200,"station_id":"cki0cbj6b192h4jlfktg","pricing_plan_id":"cebpf4jnsgd1na2vs0mg"},{"bike_id":"635a9f02-69b9-4e5e-b5e5-da23f579a775","system_id":"levelo_inurba_marseille","lat":43.28416,"lon":5.34993,"is_reserved":false,"is_disabled":false,"rental_uris":{"android":"levelo://app?vid=635a9f02-69b9-4e5e-b5e5-da23f579a775","ios":"levelo://app?vid=635a9f02-69b9-4e5e-b5e5-da23f579a775"},"vehicle_type_id":"4","last_reported":1728137244,"current_range_meters":40000,"station_id":"ce4bhbh2rcd13ifvqepg","pricing_plan_id":"cebpf4jnsgd1na2vs0mg"},{"bike_id":"02830116-04b1-41e8-b8ba-fb8a313d2785","system_id":"levelo_inurba_marseille","lat":43.25929,"lon":5.40908,"is_reserved":false,"is_disabled":false,"rental_uris":{"android":"levelo://app?vid=02830116-04b1-41e8-b8ba-fb8a313d2785","ios":"levelo://app?vid=02830116-04b1-41e8-b8ba-fb8a313d2785"},"vehicle_type_id":"4","last_reported":1728137244,"current_range_meters":31200,"station_id":"ce4bhm92rcd13ifvqglg","pricing_plan_id":"cebpf4jnsgd1na2vs0mg"},{"bike_id":"48cb9788-6d86-431a-8ea6-66d531bdb982","system_id":"levelo_inurba_marseille","lat":43.29534,"lon":5.38558,"is_reserved":false,"is_disabled":false,"rental_uris":{"android":"levelo://app?vid=48cb9788-6d86-431a-8ea6-66d531bdb982","ios":"levelo://app?vid=48cb9788-6d86-431a-8ea6-66d531bdb982"},"vehicle_type_id":"4","last_reported":1728137244,"current_range_meters":3600,"station_id":"ce4bgih2rcd13ifvqba0","pricing_plan_id":"cebpf4jnsgd1na2vs0mg"},{"bike_id":"e22204d5-248f-4c8e-b87f-5b38fdf348a2","system_id":"levelo_inurba_marseille","lat":43.28269,"lon":5.35064,"is_reserved":false,"is_disabled":false,"rental_uris":{"android":"levelo://app?vid=e22204d5-248f-4c8e-b87f-5b38fdf348a2","ios":"levelo://app?vid=e22204d5-248f-4c8e-b87f-5b38fdf348a2"},"vehicle_type_id":"4","last_reported":1728137244,"current_range_meters":27600,"station_id":"ce4bhbp2rcd13ifvqerg","pricing_plan_id":"cebpf4jnsgd1na2vs0mg"},{"bike_id":"0ee31782-ea30-4925-82e7-dedd16d0a8c0","system_id":"levelo_inurba_marseille","lat":43.2439,"lon":5.37068,"is_reserved":false,"is_disabled":false,"rental_uris":{"android":"levelo://app?vid=0ee31782-ea30-4925-82e7-dedd16d0a8c0","ios":"levelo://app?vid=0ee31782-ea30-4925-82e7-dedd16d0a8c0"},"vehicle_type_id":"4","last_reported":1728137244,"current_range_meters":35200,"station_id":"ce4bhhh2rcd13ifvqfk0","pricing_plan_id":"cebpf4jnsgd1na2vs0mg"},{"bike_id":"bb5f5452-4b9b-417d-b148-b396a874f3d9","system_id":"levelo_inurba_marseille","lat":43.33759,"lon":5.37428,"is_reserved":false,"is_disabled":false,"rental_uris":{"android":"levelo://app?vid=bb5f5452-4b9b-417d-b148-b396a874f3d9","ios":"levelo://app?vid=bb5f5452-4b9b-417d-b148-b396a874f3d9"},"vehicle_type_id":"4","last_reported":1728137244,"current_range_meters":31200,"station_id":"","pricing_plan_id":"cebpf4jnsgd1na2vs0mg"},{"bike_id":"23a00371-5007-4988-97d0-a319a917dc38","system_id":"levelo_inurba_marseille","lat":43.23053,"lon":5.3549,"is_reserved":false,"is_disabled":false,"rental_uris":{"android":"levelo://app?vid=23a00371-5007-4988-97d0-a319a917dc38","ios":"levelo://app?vid=23a00371-5007-4988-97d0-a319a917dc38"},"vehicle_type_id":"4","last_reported":1728137244,"current_range_meters":16800,"station_id":"cpo3342slgdg3j2ifvpg","pricing_plan_id":"cebpf4jnsgd1na2vs0mg"},{"bike_id":"339379d0-d999-480d-88aa-4d631ed48008","system_id":"levelo_inurba_marseille","lat":43.2319,"lon":5.35544,"is_reserved":false,"is_disabled":false,"rental_uris":{"android":"levelo://app?vid=339379d0-d999-480d-88aa-4d631ed48008","ios":"levelo://app?vid=339379d0-d999-480d-88aa-4d631ed48008"},"vehicle_type_id":"4","last_reported":1728137244,"current_range_meters":33600,"station_id":"ce4bhu92rcd13ifvqi70","pricing_plan_id":"cebpf4jnsgd1na2vs0mg"},{"bike_id":"f7f430f0-f142-4da1-9ad7-5908929f91e5","system_id":"levelo_inurba_marseille","lat":43.28412,"lon":5.34975,"is_reserved":false,"is_disabled":false,"rental_uris":{"android":"levelo://app?vid=f7f430f0-f142-4da1-9ad7-5908929f91e5","ios":"levelo://app?vid=f7f430f0-f142-4da1-9ad7-5908929f91e5"},"vehicle_type_id":"4","last_reported":1728137244,"current_range_meters":8000,"station_id":"ce4bhbh2rcd13ifvqepg","pricing_plan_id":"cebpf4jnsgd1na2vs0mg"},{"bike_id":"d7a0298f-5c2b-438d-ab05-5d6a7ac83160","system_id":"levelo_inurba_marseille","lat":43.30804,"lon":5.43538,"is_reserved":false,"is_disabled":false,"rental_uris":{"android":"levelo://app?vid=d7a0298f-5c2b-438d-ab05-5d6a7ac83160","ios":"levelo://app?vid=d7a0298f-5c2b-438d-ab05-5d6a7ac83160"},"vehicle_type_id":"4","last_reported":1728137244,"current_range_meters":36800,"station_id":"ce4bhph2rcd13ifvqheg","pricing_plan_id":"cebpf4jnsgd1na2vs0mg"},{"bike_id":"128c5cd4-d36f-4284-9306-f8fd33ea2446","system_id":"levelo_inurba_marseille","lat":43.29225,"lon":5.36055,"is_reserved":false,"is_disabled":false,"rental_uris":{"android":"levelo://app?vid=128c5cd4-d36f-4284-9306-f8fd33ea2446","ios":"levelo://app?vid=128c5cd4-d36f-4284-9306-f8fd33ea2446"},"vehicle_type_id":"4","last_reported":1728137244,"current_range_meters":36800,"station_id":"ce4bhbh2rcd13ifvqeqg","pricing_plan_id":"cebpf4jnsgd1na2vs0mg"},{"bike_id":"060e31f5-21e9-48fd-915f-017b8d704f6c","system_id":"levelo_inurba_marseille","lat":43.30932,"lon":5.4014,"is_reserved":false,"is_disabled":false,"rental_uris":{"android":"levelo://app?vid=060e31f5-21e9-48fd-915f-017b8d704f6c","ios":"levelo://app?vid=060e31f5-21e9-48fd-915f-017b8d704f6c"},"vehicle_type_id":"4","last_reported":1728137244,"current_range_meters":2000,"station_id":"ce4bgvp2rcd13ifvqct0","pricing_plan_id":"cebpf4jnsgd1na2vs0mg"},{"bike_id":"23161133-0ca2-4607-b419-0327faa07514","system_id":"levelo_inurba_marseille","lat":43.26562,"lon":5.39008,"is_reserved":false,"is_disabled":false,"rental_uris":{"android":"levelo://app?vid=23161133-0ca2-4607-b419-0327faa07514","ios":"levelo://app?vid=23161133-0ca2-4607-b419-0327faa07514"},"vehicle_type_id":"4","last_reported":1728137244,"current_range_meters":16800,"station_id":"ce4bhe12rcd13ifvqf30","pricing_plan_id":"cebpf4jnsgd1na2vs0mg"},{"bike_id":"4c1d2121-57e5-4808-8cca-4bd2bbdfd38d","system_id":"levelo_inurba_marseille","lat":43.24175,"lon":5.39721,"is_reserved":false,"is_disabled":false,"rental_uris":{"android":"levelo://app?vid=4c1d2121-57e5-4808-8cca-4bd2bbdfd38d","ios":"levelo://app?vid=4c1d2121-57e5-4808-8cca-4bd2bbdfd38d"},"vehicle_type_id":"4","last_reported":1728137244,"current_range_meters":8000,"station_id":"ce4bhn12rcd13ifvqgpg","pricing_plan_id":"cebpf4jnsgd1na2vs0mg"},{"bike_id":"3c594ac3-1f93-4473-8ff1-02ccb24acb6e","system_id":"levelo_inurba_marseille","lat":43.28413,"lon":5.34977,"is_reserved":false,"is_disabled":false,"rental_uris":{"android":"levelo://app?vid=3c594ac3-1f93-4473-8ff1-02ccb24acb6e","ios":"levelo://app?vid=3c594ac3-1f93-4473-8ff1-02ccb24acb6e"},"vehicle_type_id":"4","last_reported":1728137244,"current_range_meters":18800,"station_id":"ce4bhbh2rcd13ifvqepg","pricing_plan_id":"cebpf4jnsgd1na2vs0mg"},{"bike_id":"a45c5852-f993-434b-9e0e-aaf2278af56a","system_id":"levelo_inurba_marseille","lat":43.23195,"lon":5.35552,"is_reserved":false,"is_disabled":false,"rental_uris":{"android":"levelo://app?vid=a45c5852-f993-434b-9e0e-aaf2278af56a","ios":"levelo://app?vid=a45c5852-f993-434b-9e0e-aaf2278af56a"},"vehicle_type_id":"4","last_reported":1728137244,"current_range_meters":7200,"station_id":"ce4bhu92rcd13ifvqi70","pricing_plan_id":"cebpf4jnsgd1na2vs0mg"},{"bike_id":"57d7b7bf-9a1e-4c35-8388-96cc980f8410","system_id":"levelo_inurba_marseille","lat":43.22932,"lon":5.35372,"is_reserved":false,"is_disabled":false,"rental_uris":{"android":"levelo://app?vid=57d7b7bf-9a1e-4c35-8388-96cc980f8410","ios":"levelo://app?vid=57d7b7bf-9a1e-4c35-8388-96cc980f8410"},"vehicle_type_id":"4","last_reported":1728137244,"current_range_meters":14400,"station_id":"cpo3532slgdg3j2ikp40","pricing_plan_id":"cebpf4jnsgd1na2vs0mg"},{"bike_id":"29c9824b-9b11-453d-8856-b9469b123411","system_id":"levelo_inurba_marseille","lat":43.24175,"lon":5.36398,"is_reserved":false,"is_disabled":false,"rental_uris":{"android":"levelo://app?vid=29c9824b-9b11-453d-8856-b9469b123411","ios":"levelo://app?vid=29c9824b-9b11-453d-8856-b9469b123411"},"vehicle_type_id":"4","last_reported":1728137244,"current_range_meters":37600,"station_id":"cpo36qri1sfpv3e86is0","pricing_plan_id":"cebpf4jnsgd1na2vs0mg"},{"bike_id":"ead649d7-6c49-4e10-bc1e-9ee48b7e47ea","system_id":"levelo_inurba_marseille","lat":43.31686,"lon":5.40474,"is_reserved":false,"is_disabled":false,"rental_uris":{"android":"levelo://app?vid=ead649d7-6c49-4e10-bc1e-9ee48b7e47ea","ios":"levelo://app?vid=ead649d7-6c49-4e10-bc1e-9ee48b7e47ea"},"vehicle_type_id":"4","last_reported":1728137244,"current_range_meters":22000,"station_id":"ce4bh012rcd13ifvqd00","pricing_plan_id":"cebpf4jnsgd1na2vs0mg"},{"bike_id":"26323798-a164-429e-a816-6acb30550926","system_id":"levelo_inurba_marseille","lat":43.27918,"lon":5.39573,"is_reserved":false,"is_disabled":false,"rental_uris":{"android":"levelo://app?vid=26323798-a164-429e-a816-6acb30550926","ios":"levelo://app?vid=26323798-a164-429e-a816-6acb30550926"},"vehicle_type_id":"4","last_reported":1728137244,"current_range_meters":36400,"station_id":"ce4bhf92rcd13ifvqf40","pricing_plan_id":"cebpf4jnsgd1na2vs0mg"},{"bike_id":"04357fdf-3e26-4e7b-b68b-e6a3574689d9","system_id":"levelo_inurba_marseille","lat":43.30329,"lon":5.40428,"is_reserved":false,"is_disabled":false,"rental_uris":{"android":"levelo://app?vid=04357fdf-3e26-4e7b-b68b-e6a3574689d9","ios":"levelo://app?vid=04357fdf-3e26-4e7b-b68b-e6a3574689d9"},"vehicle_type_id":"4","last_reported":1728137244,"current_range_meters":4000,"station_id":"ce4bh012rcd13ifvqd10","pricing_plan_id":"cebpf4jnsgd1na2vs0mg"},{"bike_id":"928880f0-bc65-4cc9-9f46-a1792cd0060c","system_id":"levelo_inurba_marseille","lat":43.23189,"lon":5.35546,"is_reserved":false,"is_disabled":false,"rental_uris":{"android":"levelo://app?vid=928880f0-bc65-4cc9-9f46-a1792cd0060c","ios":"levelo://app?vid=928880f0-bc65-4cc9-9f46-a1792cd0060c"},"vehicle_type_id":"4","last_reported":1728137244,"current_range_meters":20800,"station_id":"ce4bhu92rcd13ifvqi70","pricing_plan_id":"cebpf4jnsgd1na2vs0mg"},{"bike_id":"68393446-2e04-465f-9ddf-954ecbbfb2ff","system_id":"levelo_inurba_marseille","lat":43.248016,"lon":5.374543,"is_reserved":false,"is_disabled":false,"rental_uris":{"android":"levelo://app?vid=68393446-2e04-465f-9ddf-954ecbbfb2ff","ios":"levelo://app?vid=68393446-2e04-465f-9ddf-954ecbbfb2ff"},"vehicle_type_id":"4","last_reported":1728137244,"current_range_meters":22800,"station_id":"ce4bhgh2rcd13ifvqfb0","pricing_plan_id":"cebpf4jnsgd1na2vs0mg"},{"bike_id":"b5cd4427-8b7e-4694-b9f1-2d84ee438946","system_id":"levelo_inurba_marseille","lat":43.2439,"lon":5.37062,"is_reserved":false,"is_disabled":false,"rental_uris":{"android":"levelo://app?vid=b5cd4427-8b7e-4694-b9f1-2d84ee438946","ios":"levelo://app?vid=b5cd4427-8b7e-4694-b9f1-2d84ee438946"},"vehicle_type_id":"4","last_reported":1728137244,"current_range_meters":7200,"station_id":"ce4bhhh2rcd13ifvqfk0","pricing_plan_id":"cebpf4jnsgd1na2vs0mg"},{"bike_id":"d25e1e54-5a4a-4edd-9fb7-a14ca4c40f80","system_id":"levelo_inurba_marseille","lat":43.22928,"lon":5.35374,"is_reserved":false,"is_disabled":false,"rental_uris":{"android":"levelo://app?vid=d25e1e54-5a4a-4edd-9fb7-a14ca4c40f80","ios":"levelo://app?vid=d25e1e54-5a4a-4edd-9fb7-a14ca4c40f80"},"vehicle_type_id":"4","last_reported":1728137244,"current_range_meters":27200,"station_id":"cpo3532slgdg3j2ikp40","pricing_plan_id":"cebpf4jnsgd1na2vs0mg"},{"bike_id":"d2b0596a-338c-475c-a27f-f53ce416452a","system_id":"levelo_inurba_marseille","lat":43.310624,"lon":5.40083,"is_reserved":false,"is_disabled":false,"rental_uris":{"android":"levelo://app?vid=d2b0596a-338c-475c-a27f-f53ce416452a","ios":"levelo://app?vid=d2b0596a-338c-475c-a27f-f53ce416452a"},"vehicle_type_id":"4","last_reported":1728137244,"current_range_meters":22400,"station_id":"","pricing_plan_id":"cebpf4jnsgd1na2vs0mg"},{"bike_id":"eb163e88-f57e-4bf4-9b9c-d5a0243a8d03","system_id":"levelo_inurba_marseille","lat":43.29681,"lon":5.37279,"is_reserved":false,"is_disabled":false,"rental_uris":{"android":"levelo://app?vid=eb163e88-f57e-4bf4-9b9c-d5a0243a8d03","ios":"levelo://app?vid=eb163e88-f57e-4bf4-9b9c-d5a0243a8d03"},"vehicle_type_id":"4","last_reported":1728137244,"current_range_meters":38800,"station_id":"ce4bgk12rcd13ifvqbj0","pricing_plan_id":"cebpf4jnsgd1na2vs0mg"},{"bike_id":"90e2e504-c450-4c38-b714-4638c010d9cb","system_id":"levelo_inurba_marseille","lat":43.23152,"lon":5.43694,"is_reserved":false,"is_disabled":false,"rental_uris":{"android":"levelo://app?vid=90e2e504-c450-4c38-b714-4638c010d9cb","ios":"levelo://app?vid=90e2e504-c450-4c38-b714-4638c010d9cb"},"vehicle_type_id":"4","last_reported":1728137244,"current_range_meters":36000,"station_id":"ce4bhmp2rcd13ifvqgog","pricing_plan_id":"cebpf4jnsgd1na2vs0mg"},{"bike_id":"3f3c44f3-0b8b-41b2-b44f-82fc53d2b064","system_id":"levelo_inurba_marseille","lat":43.32286,"lon":5.38264,"is_reserved":false,"is_disabled":false,"rental_uris":{"android":"levelo://app?vid=3f3c44f3-0b8b-41b2-b44f-82fc53d2b064","ios":"levelo://app?vid=3f3c44f3-0b8b-41b2-b44f-82fc53d2b064"},"vehicle_type_id":"4","last_reported":1728137244,"current_range_meters":38000,"station_id":"ce4bhr12rcd13ifvqhqg","pricing_plan_id":"cebpf4jnsgd1na2vs0mg"},{"bike_id":"32ceac28-dacd-4d4c-9c55-d75f7e6d1aa1","system_id":"levelo_inurba_marseille","lat":43.30794,"lon":5.43521,"is_reserved":false,"is_disabled":false,"rental_uris":{"android":"levelo://app?vid=32ceac28-dacd-4d4c-9c55-d75f7e6d1aa1","ios":"levelo://app?vid=32ceac28-dacd-4d4c-9c55-d75f7e6d1aa1"},"vehicle_type_id":"4","last_reported":1728137244,"current_range_meters":9600,"station_id":"ce4bhph2rcd13ifvqheg","pricing_plan_id":"cebpf4jnsgd1na2vs0mg"},{"bike_id":"cbb02bf7-7d4b-413d-a32a-91bcc926ed43","system_id":"levelo_inurba_marseille","lat":43.31325,"lon":5.3969,"is_reserved":false,"is_disabled":false,"rental_uris":{"android":"levelo://app?vid=cbb02bf7-7d4b-413d-a32a-91bcc926ed43","ios":"levelo://app?vid=cbb02bf7-7d4b-413d-a32a-91bcc926ed43"},"vehicle_type_id":"4","last_reported":1728137244,"current_range_meters":26000,"station_id":"ce4bgvp2rcd13ifvqcu0","pricing_plan_id":"cebpf4jnsgd1na2vs0mg"},{"bike_id":"ce5354e6-2b21-4103-b750-377398522f41","system_id":"levelo_inurba_marseille","lat":43.25863,"lon":5.39896,"is_reserved":false,"is_disabled":false,"rental_uris":{"android":"levelo://app?vid=ce5354e6-2b21-4103-b750-377398522f41","ios":"levelo://app?vid=ce5354e6-2b21-4103-b750-377398522f41"},"vehicle_type_id":"4","last_reported":1728137244,"current_range_meters":12400,"station_id":"ce4bhl92rcd13ifvqghg","pricing_plan_id":"cebpf4jnsgd1na2vs0mg"},{"bike_id":"ab818bb7-e39d-4902-8113-7452c7dbfb1a","system_id":"levelo_inurba_marseille","lat":43.23156,"lon":5.43699,"is_reserved":false,"is_disabled":false,"rental_uris":{"android":"levelo://app?vid=ab818bb7-e39d-4902-8113-7452c7dbfb1a","ios":"levelo://app?vid=ab818bb7-e39d-4902-8113-7452c7dbfb1a"},"vehicle_type_id":"4","last_reported":1728137244,"current_range_meters":9600,"station_id":"ce4bhmp2rcd13ifvqgog","pricing_plan_id":"cebpf4jnsgd1na2vs0mg"},{"bike_id":"fad6b7e8-0f73-4830-8b2d-308091e87617","system_id":"levelo_inurba_marseille","lat":43.2841,"lon":5.34976,"is_reserved":false,"is_disabled":false,"rental_uris":{"android":"levelo://app?vid=fad6b7e8-0f73-4830-8b2d-308091e87617","ios":"levelo://app?vid=fad6b7e8-0f73-4830-8b2d-308091e87617"},"vehicle_type_id":"4","last_reported":1728137244,"current_range_meters":4800,"station_id":"ce4bhbh2rcd13ifvqepg","pricing_plan_id":"cebpf4jnsgd1na2vs0mg"},{"bike_id":"d17972a6-4951-413b-ba75-47ce5cc098e7","system_id":"levelo_inurba_marseille","lat":43.31325,"lon":5.39695,"is_reserved":false,"is_disabled":false,"rental_uris":{"android":"levelo://app?vid=d17972a6-4951-413b-ba75-47ce5cc098e7","ios":"levelo://app?vid=d17972a6-4951-413b-ba75-47ce5cc098e7"},"vehicle_type_id":"4","last_reported":1728137244,"current_range_meters":24800,"station_id":"ce4bgvp2rcd13ifvqcu0","pricing_plan_id":"cebpf4jnsgd1na2vs0mg"},{"bike_id":"d54b1158-ec6f-4dc3-a7e1-2d0b5958261d","system_id":"levelo_inurba_marseille","lat":43.2955,"lon":5.42282,"is_reserved":false,"is_disabled":false,"rental_uris":{"android":"levelo://app?vid=d54b1158-ec6f-4dc3-a7e1-2d0b5958261d","ios":"levelo://app?vid=d54b1158-ec6f-4dc3-a7e1-2d0b5958261d"},"vehicle_type_id":"4","last_reported":1728137244,"current_range_meters":38800,"station_id":"ce4bhph2rcd13ifvqhdg","pricing_plan_id":"cebpf4jnsgd1na2vs0mg"},{"bike_id":"d5c43e4f-ec76-4579-b5d4-6acbbae67566","system_id":"levelo_inurba_marseille","lat":43.22928,"lon":5.35376,"is_reserved":false,"is_disabled":false,"rental_uris":{"android":"levelo://app?vid=d5c43e4f-ec76-4579-b5d4-6acbbae67566","ios":"levelo://app?vid=d5c43e4f-ec76-4579-b5d4-6acbbae67566"},"vehicle_type_id":"4","last_reported":1728137244,"current_range_meters":20000,"station_id":"cpo3532slgdg3j2ikp40","pricing_plan_id":"cebpf4jnsgd1na2vs0mg"},{"bike_id":"75ce31e2-5f0d-4f06-9d38-6324d9daeecc","system_id":"levelo_inurba_marseille","lat":43.34142,"lon":5.40903,"is_reserved":false,"is_disabled":false,"rental_uris":{"android":"levelo://app?vid=75ce31e2-5f0d-4f06-9d38-6324d9daeecc","ios":"levelo://app?vid=75ce31e2-5f0d-4f06-9d38-6324d9daeecc"},"vehicle_type_id":"4","last_reported":1728137244,"current_range_meters":39200,"station_id":"ce4bhqh2rcd13ifvqhlg","pricing_plan_id":"cebpf4jnsgd1na2vs0mg"},{"bike_id":"1dd8574f-22e8-473c-abd2-9ed406d6c20f","system_id":"levelo_inurba_marseille","lat":43.28408,"lon":5.37511,"is_reserved":false,"is_disabled":false,"rental_uris":{"android":"levelo://app?vid=1dd8574f-22e8-473c-abd2-9ed406d6c20f","ios":"levelo://app?vid=1dd8574f-22e8-473c-abd2-9ed406d6c20f"},"vehicle_type_id":"4","last_reported":1728137244,"current_range_meters":18000,"station_id":"ce4bh412rcd13ifvqds0","pricing_plan_id":"cebpf4jnsgd1na2vs0mg"},{"bike_id":"7dab0d4f-08d0-49ec-89ea-3d575c96b43d","system_id":"levelo_inurba_marseille","lat":43.24803,"lon":5.37453,"is_reserved":false,"is_disabled":false,"rental_uris":{"android":"levelo://app?vid=7dab0d4f-08d0-49ec-89ea-3d575c96b43d","ios":"levelo://app?vid=7dab0d4f-08d0-49ec-89ea-3d575c96b43d"},"vehicle_type_id":"4","last_reported":1728137244,"current_range_meters":30800,"station_id":"ce4bhgh2rcd13ifvqfb0","pricing_plan_id":"cebpf4jnsgd1na2vs0mg"},{"bike_id":"a8597e2b-11a4-41b1-af04-3d091354a1e4","system_id":"levelo_inurba_marseille","lat":43.32044,"lon":5.41572,"is_reserved":false,"is_disabled":false,"rental_uris":{"android":"levelo://app?vid=a8597e2b-11a4-41b1-af04-3d091354a1e4","ios":"levelo://app?vid=a8597e2b-11a4-41b1-af04-3d091354a1e4"},"vehicle_type_id":"4","last_reported":1728137244,"current_range_meters":28000,"station_id":"ce4bhq92rcd13ifvqhkg","pricing_plan_id":"cebpf4jnsgd1na2vs0mg"},{"bike_id":"7a608e04-b468-4234-b08c-e59debd24316","system_id":"levelo_inurba_marseille","lat":43.29569,"lon":5.37528,"is_reserved":false,"is_disabled":false,"rental_uris":{"android":"levelo://app?vid=7a608e04-b468-4234-b08c-e59debd24316","ios":"levelo://app?vid=7a608e04-b468-4234-b08c-e59debd24316"},"vehicle_type_id":"4","last_reported":1728137244,"current_range_meters":20800,"station_id":"ce4bgh92rcd13ifvqb50","pricing_plan_id":"cebpf4jnsgd1na2vs0mg"},{"bike_id":"30af755a-53fd-4b28-942c-e0b61d8dea3a","system_id":"levelo_inurba_marseille","lat":43.29304,"lon":5.37169,"is_reserved":false,"is_disabled":false,"rental_uris":{"android":"levelo://app?vid=30af755a-53fd-4b28-942c-e0b61d8dea3a","ios":"levelo://app?vid=30af755a-53fd-4b28-942c-e0b61d8dea3a"},"vehicle_type_id":"4","last_reported":1728137244,"current_range_meters":37600,"station_id":"ce4bgh92rcd13ifvqb40","pricing_plan_id":"cebpf4jnsgd1na2vs0mg"},{"bike_id":"9c3ffd87-5c7b-42d5-a21a-6e34b318b60d","system_id":"levelo_inurba_marseille","lat":43.32286,"lon":5.38275,"is_reserved":false,"is_disabled":false,"rental_uris":{"android":"levelo://app?vid=9c3ffd87-5c7b-42d5-a21a-6e34b318b60d","ios":"levelo://app?vid=9c3ffd87-5c7b-42d5-a21a-6e34b318b60d"},"vehicle_type_id":"4","last_reported":1728137244,"current_range_meters":24000,"station_id":"ce4bhr12rcd13ifvqhqg","pricing_plan_id":"cebpf4jnsgd1na2vs0mg"},{"bike_id":"996f311a-1052-4e93-bc99-a5db07024190","system_id":"levelo_inurba_marseille","lat":43.24173,"lon":5.3639,"is_reserved":false,"is_disabled":false,"rental_uris":{"android":"levelo://app?vid=996f311a-1052-4e93-bc99-a5db07024190","ios":"levelo://app?vid=996f311a-1052-4e93-bc99-a5db07024190"},"vehicle_type_id":"4","last_reported":1728137244,"current_range_meters":19200,"station_id":"cpo36qri1sfpv3e86is0","pricing_plan_id":"cebpf4jnsgd1na2vs0mg"},{"bike_id":"e1120f30-69b0-4bbb-a75d-c88332eb49e4","system_id":"levelo_inurba_marseille","lat":43.34144,"lon":5.40914,"is_reserved":false,"is_disabled":false,"rental_uris":{"android":"levelo://app?vid=e1120f30-69b0-4bbb-a75d-c88332eb49e4","ios":"levelo://app?vid=e1120f30-69b0-4bbb-a75d-c88332eb49e4"},"vehicle_type_id":"4","last_reported":1728137244,"current_range_meters":27200,"station_id":"ce4bhqh2rcd13ifvqhlg","pricing_plan_id":"cebpf4jnsgd1na2vs0mg"},{"bike_id":"3891d97a-cfe9-4125-a5ef-981326242baa","system_id":"levelo_inurba_marseille","lat":43.243911,"lon":5.370605,"is_reserved":false,"is_disabled":false,"rental_uris":{"android":"levelo://app?vid=3891d97a-cfe9-4125-a5ef-981326242baa","ios":"levelo://app?vid=3891d97a-cfe9-4125-a5ef-981326242baa"},"vehicle_type_id":"4","last_reported":1728137244,"current_range_meters":32000,"station_id":"ce4bhhh2rcd13ifvqfk0","pricing_plan_id":"cebpf4jnsgd1na2vs0mg"},{"bike_id":"d9513a24-3235-43a7-b9a5-1c5cfe37603f","system_id":"levelo_inurba_marseille","lat":43.23052,"lon":5.35486,"is_reserved":false,"is_disabled":false,"rental_uris":{"android":"levelo://app?vid=d9513a24-3235-43a7-b9a5-1c5cfe37603f","ios":"levelo://app?vid=d9513a24-3235-43a7-b9a5-1c5cfe37603f"},"vehicle_type_id":"4","last_reported":1728137244,"current_range_meters":19200,"station_id":"cpo3342slgdg3j2ifvpg","pricing_plan_id":"cebpf4jnsgd1na2vs0mg"},{"bike_id":"80883cfe-f6ff-4203-89b1-e5cb91df708a","system_id":"levelo_inurba_marseille","lat":43.32049,"lon":5.41554,"is_reserved":false,"is_disabled":false,"rental_uris":{"android":"levelo://app?vid=80883cfe-f6ff-4203-89b1-e5cb91df708a","ios":"levelo://app?vid=80883cfe-f6ff-4203-89b1-e5cb91df708a"},"vehicle_type_id":"4","last_reported":1728137244,"current_range_meters":6400,"station_id":"ce4bhq92rcd13ifvqhkg","pricing_plan_id":"cebpf4jnsgd1na2vs0mg"},{"bike_id":"009d6d0e-c1a8-4ddc-b330-ebf04e9c45b9","system_id":"levelo_inurba_marseille","lat":43.29898,"lon":5.43669,"is_reserved":false,"is_disabled":false,"rental_uris":{"android":"levelo://app?vid=009d6d0e-c1a8-4ddc-b330-ebf04e9c45b9","ios":"levelo://app?vid=009d6d0e-c1a8-4ddc-b330-ebf04e9c45b9"},"vehicle_type_id":"4","last_reported":1728137244,"current_range_meters":20400,"station_id":"ce4bhpp2rcd13ifvqhfg","pricing_plan_id":"cebpf4jnsgd1na2vs0mg"},{"bike_id":"e7fac05a-4c4e-41ce-ab6d-317b7f2d7665","system_id":"levelo_inurba_marseille","lat":43.27377,"lon":5.3624,"is_reserved":false,"is_disabled":false,"rental_uris":{"android":"levelo://app?vid=e7fac05a-4c4e-41ce-ab6d-317b7f2d7665","ios":"levelo://app?vid=e7fac05a-4c4e-41ce-ab6d-317b7f2d7665"},"vehicle_type_id":"4","last_reported":1728137244,"current_range_meters":36800,"station_id":"ce4bhbh2rcd13ifvqeo0","pricing_plan_id":"cebpf4jnsgd1na2vs0mg"},{"bike_id":"09f15f06-1342-4f6b-885f-2d9df03fdf99","system_id":"levelo_inurba_marseille","lat":43.29629,"lon":5.37153,"is_reserved":false,"is_disabled":false,"rental_uris":{"android":"levelo://app?vid=09f15f06-1342-4f6b-885f-2d9df03fdf99","ios":"levelo://app?vid=09f15f06-1342-4f6b-885f-2d9df03fdf99"},"vehicle_type_id":"4","last_reported":1728137244,"current_range_meters":11200,"station_id":"ce4bgnh2rcd13ifvqc0g","pricing_plan_id":"cebpf4jnsgd1na2vs0mg"},{"bike_id":"e801b355-6ede-41f3-aa7c-a02edf287c12","system_id":"levelo_inurba_marseille","lat":43.23191,"lon":5.35546,"is_reserved":false,"is_disabled":false,"rental_uris":{"android":"levelo://app?vid=e801b355-6ede-41f3-aa7c-a02edf287c12","ios":"levelo://app?vid=e801b355-6ede-41f3-aa7c-a02edf287c12"},"vehicle_type_id":"4","last_reported":1728137244,"current_range_meters":17600,"station_id":"ce4bhu92rcd13ifvqi70","pricing_plan_id":"cebpf4jnsgd1na2vs0mg"},{"bike_id":"4e0c83a2-b0c3-4894-8559-e509681998d3","system_id":"levelo_inurba_marseille","lat":43.31118,"lon":5.38324,"is_reserved":false,"is_disabled":false,"rental_uris":{"android":"levelo://app?vid=4e0c83a2-b0c3-4894-8559-e509681998d3","ios":"levelo://app?vid=4e0c83a2-b0c3-4894-8559-e509681998d3"},"vehicle_type_id":"4","last_reported":1728137244,"current_range_meters":16800,"station_id":"","pricing_plan_id":"cebpf4jnsgd1na2vs0mg"},{"bike_id":"3c797729-0364-42b3-8e58-4709c41c4a3c","system_id":"levelo_inurba_marseille","lat":43.30797,"lon":5.43522,"is_reserved":false,"is_disabled":false,"rental_uris":{"android":"levelo://app?vid=3c797729-0364-42b3-8e58-4709c41c4a3c","ios":"levelo://app?vid=3c797729-0364-42b3-8e58-4709c41c4a3c"},"vehicle_type_id":"4","last_reported":1728137244,"current_range_meters":25200,"station_id":"ce4bhph2rcd13ifvqheg","pricing_plan_id":"cebpf4jnsgd1na2vs0mg"},{"bike_id":"0372629a-88b4-4f82-be94-d5bd27566edd","system_id":"levelo_inurba_marseille","lat":43.30615,"lon":5.40791,"is_reserved":false,"is_disabled":false,"rental_uris":{"android":"levelo://app?vid=0372629a-88b4-4f82-be94-d5bd27566edd","ios":"levelo://app?vid=0372629a-88b4-4f82-be94-d5bd27566edd"},"vehicle_type_id":"4","last_reported":1728137244,"current_range_meters":12000,"station_id":"","pricing_plan_id":"cebpf4jnsgd1na2vs0mg"},{"bike_id":"228c841d-d75f-47bd-a9af-1f883ee6d1b0","system_id":"levelo_inurba_marseille","lat":43.27998,"lon":5.41657,"is_reserved":false,"is_disabled":false,"rental_uris":{"android":"levelo://app?vid=228c841d-d75f-47bd-a9af-1f883ee6d1b0","ios":"levelo://app?vid=228c841d-d75f-47bd-a9af-1f883ee6d1b0"},"vehicle_type_id":"4","last_reported":1728137244,"current_range_meters":26000,"station_id":"ce4bho12rcd13ifvqh1g","pricing_plan_id":"cebpf4jnsgd1na2vs0mg"},{"bike_id":"67674c98-3710-428e-a3e8-cdd3710acc1a","system_id":"levelo_inurba_marseille","lat":43.22961,"lon":5.35401,"is_reserved":false,"is_disabled":false,"rental_uris":{"android":"levelo://app?vid=67674c98-3710-428e-a3e8-cdd3710acc1a","ios":"levelo://app?vid=67674c98-3710-428e-a3e8-cdd3710acc1a"},"vehicle_type_id":"4","last_reported":1728137244,"current_range_meters":22000,"station_id":"cpo3532slgdg3j2ikp40","pricing_plan_id":"cebpf4jnsgd1na2vs0mg"},{"bike_id":"760e960e-a5bc-4d9e-a328-194d59914d7b","system_id":"levelo_inurba_marseille","lat":43.29416,"lon":5.38623,"is_reserved":false,"is_disabled":false,"rental_uris":{"android":"levelo://app?vid=760e960e-a5bc-4d9e-a328-194d59914d7b","ios":"levelo://app?vid=760e960e-a5bc-4d9e-a328-194d59914d7b"},"vehicle_type_id":"4","last_reported":1728137244,"current_range_meters":4000,"station_id":"ce4bh2h2rcd13ifvqdh0","pricing_plan_id":"cebpf4jnsgd1na2vs0mg"},{"bike_id":"58e388c8-0938-44ae-985b-b9c7309e319d","system_id":"levelo_inurba_marseille","lat":43.29328,"lon":5.37152,"is_reserved":false,"is_disabled":false,"rental_uris":{"android":"levelo://app?vid=58e388c8-0938-44ae-985b-b9c7309e319d","ios":"levelo://app?vid=58e388c8-0938-44ae-985b-b9c7309e319d"},"vehicle_type_id":"4","last_reported":1728137244,"current_range_meters":6800,"station_id":"ce4bgh92rcd13ifvqb40","pricing_plan_id":"cebpf4jnsgd1na2vs0mg"},{"bike_id":"ca0543f7-45c5-4ae7-a6ab-d3b72823e58c","system_id":"levelo_inurba_marseille","lat":43.31124,"lon":5.37774,"is_reserved":false,"is_disabled":false,"rental_uris":{"android":"levelo://app?vid=ca0543f7-45c5-4ae7-a6ab-d3b72823e58c","ios":"levelo://app?vid=ca0543f7-45c5-4ae7-a6ab-d3b72823e58c"},"vehicle_type_id":"4","last_reported":1728137244,"current_range_meters":38800,"station_id":"ce4bgt92rcd13ifvqcg0","pricing_plan_id":"cebpf4jnsgd1na2vs0mg"},{"bike_id":"608bdcfb-0d77-440b-8f01-892fb14e51cc","system_id":"levelo_inurba_marseille","lat":43.29585,"lon":5.3821,"is_reserved":false,"is_disabled":false,"rental_uris":{"android":"levelo://app?vid=608bdcfb-0d77-440b-8f01-892fb14e51cc","ios":"levelo://app?vid=608bdcfb-0d77-440b-8f01-892fb14e51cc"},"vehicle_type_id":"4","last_reported":1728137244,"current_range_meters":30800,"station_id":"","pricing_plan_id":"cebpf4jnsgd1na2vs0mg"},{"bike_id":"8df5e434-358e-47ce-82bd-9291d9bbb368","system_id":"levelo_inurba_marseille","lat":43.32047,"lon":5.41551,"is_reserved":false,"is_disabled":false,"rental_uris":{"android":"levelo://app?vid=8df5e434-358e-47ce-82bd-9291d9bbb368","ios":"levelo://app?vid=8df5e434-358e-47ce-82bd-9291d9bbb368"},"vehicle_type_id":"4","last_reported":1728137244,"current_range_meters":38000,"station_id":"ce4bhq92rcd13ifvqhkg","pricing_plan_id":"cebpf4jnsgd1na2vs0mg"},{"bike_id":"3d72c258-bc4a-4844-b334-900f22273f09","system_id":"levelo_inurba_marseille","lat":43.24392,"lon":5.37061,"is_reserved":false,"is_disabled":false,"rental_uris":{"android":"levelo://app?vid=3d72c258-bc4a-4844-b334-900f22273f09","ios":"levelo://app?vid=3d72c258-bc4a-4844-b334-900f22273f09"},"vehicle_type_id":"4","last_reported":1728137244,"current_range_meters":36800,"station_id":"ce4bhhh2rcd13ifvqfk0","pricing_plan_id":"cebpf4jnsgd1na2vs0mg"},{"bike_id":"84b70116-d506-4fce-ad5b-8de414f0767d","system_id":"levelo_inurba_marseille","lat":43.29943,"lon":5.41322,"is_reserved":false,"is_disabled":false,"rental_uris":{"android":"levelo://app?vid=84b70116-d506-4fce-ad5b-8de414f0767d","ios":"levelo://app?vid=84b70116-d506-4fce-ad5b-8de414f0767d"},"vehicle_type_id":"4","last_reported":1728137244,"current_range_meters":36800,"station_id":"ce4bhp12rcd13ifvqh9g","pricing_plan_id":"cebpf4jnsgd1na2vs0mg"},{"bike_id":"a70bfd41-161a-4a66-ba00-5651d8f779fe","system_id":"levelo_inurba_marseille","lat":43.29217,"lon":5.36047,"is_reserved":false,"is_disabled":false,"rental_uris":{"android":"levelo://app?vid=a70bfd41-161a-4a66-ba00-5651d8f779fe","ios":"levelo://app?vid=a70bfd41-161a-4a66-ba00-5651d8f779fe"},"vehicle_type_id":"4","last_reported":1728137244,"current_range_meters":20400,"station_id":"ce4bhbh2rcd13ifvqeqg","pricing_plan_id":"cebpf4jnsgd1na2vs0mg"},{"bike_id":"86370ec7-d814-46b5-966f-eaa85cd6b88e","system_id":"levelo_inurba_marseille","lat":43.29596,"lon":5.38097,"is_reserved":false,"is_disabled":false,"rental_uris":{"android":"levelo://app?vid=86370ec7-d814-46b5-966f-eaa85cd6b88e","ios":"levelo://app?vid=86370ec7-d814-46b5-966f-eaa85cd6b88e"},"vehicle_type_id":"4","last_reported":1728137244,"current_range_meters":38400,"station_id":"ce4bgl12rcd13ifvqbo0","pricing_plan_id":"cebpf4jnsgd1na2vs0mg"},{"bike_id":"bdefae95-7cc5-4880-bfcb-b1af39586be0","system_id":"levelo_inurba_marseille","lat":43.32658,"lon":5.40983,"is_reserved":false,"is_disabled":false,"rental_uris":{"android":"levelo://app?vid=bdefae95-7cc5-4880-bfcb-b1af39586be0","ios":"levelo://app?vid=bdefae95-7cc5-4880-bfcb-b1af39586be0"},"vehicle_type_id":"4","last_reported":1728137244,"current_range_meters":38800,"station_id":"ce4bhpp2rcd13ifvqhgg","pricing_plan_id":"cebpf4jnsgd1na2vs0mg"},{"bike_id":"cf6e7575-69fe-41da-8916-745f8f355abb","system_id":"levelo_inurba_marseille","lat":43.24547,"lon":5.39516,"is_reserved":false,"is_disabled":false,"rental_uris":{"android":"levelo://app?vid=cf6e7575-69fe-41da-8916-745f8f355abb","ios":"levelo://app?vid=cf6e7575-69fe-41da-8916-745f8f355abb"},"vehicle_type_id":"4","last_reported":1728137244,"current_range_meters":33200,"station_id":"ce4bhlp2rcd13ifvqgjg","pricing_plan_id":"cebpf4jnsgd1na2vs0mg"},{"bike_id":"7a90b2f2-d00e-4c33-b981-befe4f1139d2","system_id":"levelo_inurba_marseille","lat":43.23179,"lon":5.39984,"is_reserved":false,"is_disabled":false,"rental_uris":{"android":"levelo://app?vid=7a90b2f2-d00e-4c33-b981-befe4f1139d2","ios":"levelo://app?vid=7a90b2f2-d00e-4c33-b981-befe4f1139d2"},"vehicle_type_id":"4","last_reported":1728137244,"current_range_meters":32800,"station_id":"ce4bhn12rcd13ifvqgqg","pricing_plan_id":"cebpf4jnsgd1na2vs0mg"},{"bike_id":"e03c9d0c-17ae-4003-b903-fd8aa9951041","system_id":"levelo_inurba_marseille","lat":43.3375,"lon":5.37451,"is_reserved":false,"is_disabled":false,"rental_uris":{"android":"levelo://app?vid=e03c9d0c-17ae-4003-b903-fd8aa9951041","ios":"levelo://app?vid=e03c9d0c-17ae-4003-b903-fd8aa9951041"},"vehicle_type_id":"4","last_reported":1728137244,"current_range_meters":38800,"station_id":"","pricing_plan_id":"cebpf4jnsgd1na2vs0mg"},{"bike_id":"b11a2220-23e5-4dd7-af60-e94404f77e7c","system_id":"levelo_inurba_marseille","lat":43.269257,"lon":5.366492,"is_reserved":false,"is_disabled":false,"rental_uris":{"android":"levelo://app?vid=b11a2220-23e5-4dd7-af60-e94404f77e7c","ios":"levelo://app?vid=b11a2220-23e5-4dd7-af60-e94404f77e7c"},"vehicle_type_id":"4","last_reported":1728137244,"current_range_meters":5600,"station_id":"ce4bhb12rcd13ifvqel0","pricing_plan_id":"cebpf4jnsgd1na2vs0mg"},{"bike_id":"4e9459a9-9f15-40ef-b935-155d5f108bc8","system_id":"levelo_inurba_marseille","lat":43.2315,"lon":5.43717,"is_reserved":false,"is_disabled":false,"rental_uris":{"android":"levelo://app?vid=4e9459a9-9f15-40ef-b935-155d5f108bc8","ios":"levelo://app?vid=4e9459a9-9f15-40ef-b935-155d5f108bc8"},"vehicle_type_id":"4","last_reported":1728137244,"current_range_meters":21600,"station_id":"ce4bhmp2rcd13ifvqgog","pricing_plan_id":"cebpf4jnsgd1na2vs0mg"},{"bike_id":"c994bcf0-7d2b-4af3-93da-7d371e97f7eb","system_id":"levelo_inurba_marseille","lat":43.238586,"lon":5.364958,"is_reserved":false,"is_disabled":false,"rental_uris":{"android":"levelo://app?vid=c994bcf0-7d2b-4af3-93da-7d371e97f7eb","ios":"levelo://app?vid=c994bcf0-7d2b-4af3-93da-7d371e97f7eb"},"vehicle_type_id":"4","last_reported":1728137244,"current_range_meters":19200,"station_id":"","pricing_plan_id":"cebpf4jnsgd1na2vs0mg"},{"bike_id":"1e2bcd1d-31c4-4d84-93b1-e221692c4b90","system_id":"levelo_inurba_marseille","lat":43.28263,"lon":5.35069,"is_reserved":false,"is_disabled":false,"rental_uris":{"android":"levelo://app?vid=1e2bcd1d-31c4-4d84-93b1-e221692c4b90","ios":"levelo://app?vid=1e2bcd1d-31c4-4d84-93b1-e221692c4b90"},"vehicle_type_id":"4","last_reported":1728137244,"current_range_meters":17200,"station_id":"ce4bhbp2rcd13ifvqerg","pricing_plan_id":"cebpf4jnsgd1na2vs0mg"},{"bike_id":"2ccfd7da-18c3-47d1-afb4-41b7dae9d7c3","system_id":"levelo_inurba_marseille","lat":43.28418,"lon":5.34997,"is_reserved":false,"is_disabled":false,"rental_uris":{"android":"levelo://app?vid=2ccfd7da-18c3-47d1-afb4-41b7dae9d7c3","ios":"levelo://app?vid=2ccfd7da-18c3-47d1-afb4-41b7dae9d7c3"},"vehicle_type_id":"4","last_reported":1728137244,"current_range_meters":30400,"station_id":"ce4bhbh2rcd13ifvqepg","pricing_plan_id":"cebpf4jnsgd1na2vs0mg"},{"bike_id":"a0a48911-ae34-4a3f-883c-27ac2f740d77","system_id":"levelo_inurba_marseille","lat":43.29547,"lon":5.42278,"is_reserved":false,"is_disabled":false,"rental_uris":{"android":"levelo://app?vid=a0a48911-ae34-4a3f-883c-27ac2f740d77","ios":"levelo://app?vid=a0a48911-ae34-4a3f-883c-27ac2f740d77"},"vehicle_type_id":"4","last_reported":1728137244,"current_range_meters":9600,"station_id":"ce4bhph2rcd13ifvqhdg","pricing_plan_id":"cebpf4jnsgd1na2vs0mg"},{"bike_id":"ab9154ee-04eb-48dd-b427-55accbc23795","system_id":"levelo_inurba_marseille","lat":43.28416,"lon":5.34982,"is_reserved":false,"is_disabled":false,"rental_uris":{"android":"levelo://app?vid=ab9154ee-04eb-48dd-b427-55accbc23795","ios":"levelo://app?vid=ab9154ee-04eb-48dd-b427-55accbc23795"},"vehicle_type_id":"4","last_reported":1728137244,"current_range_meters":8000,"station_id":"ce4bhbh2rcd13ifvqepg","pricing_plan_id":"cebpf4jnsgd1na2vs0mg"},{"bike_id":"979d0554-a2ea-4223-a1ed-21e318623c4a","system_id":"levelo_inurba_marseille","lat":43.31712,"lon":5.43711,"is_reserved":false,"is_disabled":false,"rental_uris":{"android":"levelo://app?vid=979d0554-a2ea-4223-a1ed-21e318623c4a","ios":"levelo://app?vid=979d0554-a2ea-4223-a1ed-21e318623c4a"},"vehicle_type_id":"4","last_reported":1728137244,"current_range_meters":35600,"station_id":"ce4bhp92rcd13ifvqhcg","pricing_plan_id":"cebpf4jnsgd1na2vs0mg"},{"bike_id":"036cfa71-7460-40a3-b54d-ab61f31e6ab6","system_id":"levelo_inurba_marseille","lat":43.23056,"lon":5.35491,"is_reserved":false,"is_disabled":false,"rental_uris":{"android":"levelo://app?vid=036cfa71-7460-40a3-b54d-ab61f31e6ab6","ios":"levelo://app?vid=036cfa71-7460-40a3-b54d-ab61f31e6ab6"},"vehicle_type_id":"4","last_reported":1728137244,"current_range_meters":19200,"station_id":"cpo3342slgdg3j2ifvpg","pricing_plan_id":"cebpf4jnsgd1na2vs0mg"},{"bike_id":"d9e40dcd-42bd-4450-b899-bd6e1533b60d","system_id":"levelo_inurba_marseille","lat":43.33774,"lon":5.37475,"is_reserved":false,"is_disabled":false,"rental_uris":{"android":"levelo://app?vid=d9e40dcd-42bd-4450-b899-bd6e1533b60d","ios":"levelo://app?vid=d9e40dcd-42bd-4450-b899-bd6e1533b60d"},"vehicle_type_id":"4","last_reported":1728137244,"current_range_meters":6400,"station_id":"","pricing_plan_id":"cebpf4jnsgd1na2vs0mg"},{"bike_id":"2f65af92-a0a7-40f8-b601-a1926760aa1b","system_id":"levelo_inurba_marseille","lat":43.24169,"lon":5.36383,"is_reserved":false,"is_disabled":false,"rental_uris":{"android":"levelo://app?vid=2f65af92-a0a7-40f8-b601-a1926760aa1b","ios":"levelo://app?vid=2f65af92-a0a7-40f8-b601-a1926760aa1b"},"vehicle_type_id":"4","last_reported":1728137244,"current_range_meters":20400,"station_id":"cpo36qri1sfpv3e86is0","pricing_plan_id":"cebpf4jnsgd1na2vs0mg"},{"bike_id":"22f3e562-524d-4355-8806-13e5eccf368f","system_id":"levelo_inurba_marseille","lat":43.23058,"lon":5.35489,"is_reserved":false,"is_disabled":false,"rental_uris":{"android":"levelo://app?vid=22f3e562-524d-4355-8806-13e5eccf368f","ios":"levelo://app?vid=22f3e562-524d-4355-8806-13e5eccf368f"},"vehicle_type_id":"4","last_reported":1728137244,"current_range_meters":28800,"station_id":"cpo3342slgdg3j2ifvpg","pricing_plan_id":"cebpf4jnsgd1na2vs0mg"},{"bike_id":"d4ddd4ab-8cda-4a04-a1d1-cd6bafd478af","system_id":"levelo_inurba_marseille","lat":43.28706,"lon":5.39983,"is_reserved":false,"is_disabled":false,"rental_uris":{"android":"levelo://app?vid=d4ddd4ab-8cda-4a04-a1d1-cd6bafd478af","ios":"levelo://app?vid=d4ddd4ab-8cda-4a04-a1d1-cd6bafd478af"},"vehicle_type_id":"4","last_reported":1728137244,"current_range_meters":18000,"station_id":"ce4bho92rcd13ifvqh3g","pricing_plan_id":"cebpf4jnsgd1na2vs0mg"},{"bike_id":"b6a817d8-5787-46a3-898e-0b46c75fc481","system_id":"levelo_inurba_marseille","lat":43.32965,"lon":5.40344,"is_reserved":false,"is_disabled":false,"rental_uris":{"android":"levelo://app?vid=b6a817d8-5787-46a3-898e-0b46c75fc481","ios":"levelo://app?vid=b6a817d8-5787-46a3-898e-0b46c75fc481"},"vehicle_type_id":"4","last_reported":1728137244,"current_range_meters":6000,"station_id":"","pricing_plan_id":"cebpf4jnsgd1na2vs0mg"},{"bike_id":"524e4691-54b9-421d-808d-78c4d20f022f","system_id":"levelo_inurba_marseille","lat":43.23196,"lon":5.35552,"is_reserved":false,"is_disabled":false,"rental_uris":{"android":"levelo://app?vid=524e4691-54b9-421d-808d-78c4d20f022f","ios":"levelo://app?vid=524e4691-54b9-421d-808d-78c4d20f022f"},"vehicle_type_id":"4","last_reported":1728137244,"current_range_meters":32400,"station_id":"ce4bhu92rcd13ifvqi70","pricing_plan_id":"cebpf4jnsgd1na2vs0mg"},{"bike_id":"fcee5d9d-c512-4424-a5e2-0c0b879f5951","system_id":"levelo_inurba_marseille","lat":43.24168,"lon":5.36391,"is_reserved":false,"is_disabled":false,"rental_uris":{"android":"levelo://app?vid=fcee5d9d-c512-4424-a5e2-0c0b879f5951","ios":"levelo://app?vid=fcee5d9d-c512-4424-a5e2-0c0b879f5951"},"vehicle_type_id":"4","last_reported":1728137244,"current_range_meters":12000,"station_id":"cpo36qri1sfpv3e86is0","pricing_plan_id":"cebpf4jnsgd1na2vs0mg"},{"bike_id":"6856d22e-440d-40d9-809f-3167dacdbdc3","system_id":"levelo_inurba_marseille","lat":43.337444,"lon":5.374475,"is_reserved":false,"is_disabled":false,"rental_uris":{"android":"levelo://app?vid=6856d22e-440d-40d9-809f-3167dacdbdc3","ios":"levelo://app?vid=6856d22e-440d-40d9-809f-3167dacdbdc3"},"vehicle_type_id":"4","last_reported":1728137244,"current_range_meters":19200,"station_id":"","pricing_plan_id":"cebpf4jnsgd1na2vs0mg"},{"bike_id":"f9a7f7c3-e454-44cc-a090-30d598e5ae5a","system_id":"levelo_inurba_marseille","lat":43.26561,"lon":5.38087,"is_reserved":false,"is_disabled":false,"rental_uris":{"android":"levelo://app?vid=f9a7f7c3-e454-44cc-a090-30d598e5ae5a","ios":"levelo://app?vid=f9a7f7c3-e454-44cc-a090-30d598e5ae5a"},"vehicle_type_id":"4","last_reported":1728137244,"current_range_meters":27600,"station_id":"","pricing_plan_id":"cebpf4jnsgd1na2vs0mg"},{"bike_id":"4eb72701-64a4-4713-90fd-16406e1b9367","system_id":"levelo_inurba_marseille","lat":43.26572,"lon":5.38988,"is_reserved":false,"is_disabled":false,"rental_uris":{"android":"levelo://app?vid=4eb72701-64a4-4713-90fd-16406e1b9367","ios":"levelo://app?vid=4eb72701-64a4-4713-90fd-16406e1b9367"},"vehicle_type_id":"4","last_reported":1728137244,"current_range_meters":22000,"station_id":"ce4bhe12rcd13ifvqf30","pricing_plan_id":"cebpf4jnsgd1na2vs0mg"},{"bike_id":"64bd957e-b978-44cb-a85c-928d627d24ec","system_id":"levelo_inurba_marseille","lat":43.35424,"lon":5.35869,"is_reserved":false,"is_disabled":false,"rental_uris":{"android":"levelo://app?vid=64bd957e-b978-44cb-a85c-928d627d24ec","ios":"levelo://app?vid=64bd957e-b978-44cb-a85c-928d627d24ec"},"vehicle_type_id":"4","last_reported":1728137244,"current_range_meters":7200,"station_id":"","pricing_plan_id":"cebpf4jnsgd1na2vs0mg"},{"bike_id":"64995d1a-0a95-43c1-8426-b3115325266b","system_id":"levelo_inurba_marseille","lat":43.27916,"lon":5.42302,"is_reserved":false,"is_disabled":false,"rental_uris":{"android":"levelo://app?vid=64995d1a-0a95-43c1-8426-b3115325266b","ios":"levelo://app?vid=64995d1a-0a95-43c1-8426-b3115325266b"},"vehicle_type_id":"4","last_reported":1728137244,"current_range_meters":16800,"station_id":"","pricing_plan_id":"cebpf4jnsgd1na2vs0mg"},{"bike_id":"19efa9c6-0eee-42bc-8288-1176feaeb485","system_id":"levelo_inurba_marseille","lat":43.27075,"lon":5.42277,"is_reserved":false,"is_disabled":false,"rental_uris":{"android":"levelo://app?vid=19efa9c6-0eee-42bc-8288-1176feaeb485","ios":"levelo://app?vid=19efa9c6-0eee-42bc-8288-1176feaeb485"},"vehicle_type_id":"4","last_reported":1728137244,"current_range_meters":22400,"station_id":"ce4bhk92rcd13ifvqgb0","pricing_plan_id":"cebpf4jnsgd1na2vs0mg"},{"bike_id":"df142ee2-7c55-406d-84dd-76b52398a53b","system_id":"levelo_inurba_marseille","lat":43.28421,"lon":5.34977,"is_reserved":false,"is_disabled":false,"rental_uris":{"android":"levelo://app?vid=df142ee2-7c55-406d-84dd-76b52398a53b","ios":"levelo://app?vid=df142ee2-7c55-406d-84dd-76b52398a53b"},"vehicle_type_id":"4","last_reported":1728137244,"current_range_meters":30800,"station_id":"ce4bhbh2rcd13ifvqepg","pricing_plan_id":"cebpf4jnsgd1na2vs0mg"},{"bike_id":"3fff8127-14ca-4f20-ad43-a6c499ea62f7","system_id":"levelo_inurba_marseille","lat":43.28611,"lon":5.351,"is_reserved":false,"is_disabled":false,"rental_uris":{"android":"levelo://app?vid=3fff8127-14ca-4f20-ad43-a6c499ea62f7","ios":"levelo://app?vid=3fff8127-14ca-4f20-ad43-a6c499ea62f7"},"vehicle_type_id":"4","last_reported":1728137244,"current_range_meters":24800,"station_id":"ce4bhch2rcd13ifvqeug","pricing_plan_id":"cebpf4jnsgd1na2vs0mg"},{"bike_id":"f2b2e43c-e08f-4821-8fbf-8a978b59697f","system_id":"levelo_inurba_marseille","lat":43.28418,"lon":5.34978,"is_reserved":false,"is_disabled":false,"rental_uris":{"android":"levelo://app?vid=f2b2e43c-e08f-4821-8fbf-8a978b59697f","ios":"levelo://app?vid=f2b2e43c-e08f-4821-8fbf-8a978b59697f"},"vehicle_type_id":"4","last_reported":1728137244,"current_range_meters":31200,"station_id":"ce4bhbh2rcd13ifvqepg","pricing_plan_id":"cebpf4jnsgd1na2vs0mg"},{"bike_id":"ba986232-76c5-4ba8-9ea6-483d36d989c3","system_id":"levelo_inurba_marseille","lat":43.282654,"lon":5.3506,"is_reserved":false,"is_disabled":false,"rental_uris":{"android":"levelo://app?vid=ba986232-76c5-4ba8-9ea6-483d36d989c3","ios":"levelo://app?vid=ba986232-76c5-4ba8-9ea6-483d36d989c3"},"vehicle_type_id":"4","last_reported":1728137244,"current_range_meters":32000,"station_id":"ce4bhbp2rcd13ifvqerg","pricing_plan_id":"cebpf4jnsgd1na2vs0mg"},{"bike_id":"f41ae044-820f-42cb-be96-25e7cacd26c1","system_id":"levelo_inurba_marseille","lat":43.24808,"lon":5.37454,"is_reserved":false,"is_disabled":false,"rental_uris":{"android":"levelo://app?vid=f41ae044-820f-42cb-be96-25e7cacd26c1","ios":"levelo://app?vid=f41ae044-820f-42cb-be96-25e7cacd26c1"},"vehicle_type_id":"4","last_reported":1728137244,"current_range_meters":6800,"station_id":"ce4bhgh2rcd13ifvqfb0","pricing_plan_id":"cebpf4jnsgd1na2vs0mg"},{"bike_id":"79d4ce44-dde0-4856-adfb-9d048612b764","system_id":"levelo_inurba_marseille","lat":43.33757,"lon":5.37436,"is_reserved":false,"is_disabled":false,"rental_uris":{"android":"levelo://app?vid=79d4ce44-dde0-4856-adfb-9d048612b764","ios":"levelo://app?vid=79d4ce44-dde0-4856-adfb-9d048612b764"},"vehicle_type_id":"4","last_reported":1728137244,"current_range_meters":38000,"station_id":"","pricing_plan_id":"cebpf4jnsgd1na2vs0mg"},{"bike_id":"6362dd7e-711b-4b82-af8e-291ea8f6ea1e","system_id":"levelo_inurba_marseille","lat":43.33761,"lon":5.37419,"is_reserved":false,"is_disabled":false,"rental_uris":{"android":"levelo://app?vid=6362dd7e-711b-4b82-af8e-291ea8f6ea1e","ios":"levelo://app?vid=6362dd7e-711b-4b82-af8e-291ea8f6ea1e"},"vehicle_type_id":"4","last_reported":1728137244,"current_range_meters":36400,"station_id":"","pricing_plan_id":"cebpf4jnsgd1na2vs0mg"},{"bike_id":"74679c1b-c8ca-41ef-bd98-56f37c992690","system_id":"levelo_inurba_marseille","lat":43.27322,"lon":5.39073,"is_reserved":false,"is_disabled":false,"rental_uris":{"android":"levelo://app?vid=74679c1b-c8ca-41ef-bd98-56f37c992690","ios":"levelo://app?vid=74679c1b-c8ca-41ef-bd98-56f37c992690"},"vehicle_type_id":"4","last_reported":1728137244,"current_range_meters":29600,"station_id":"ce4bhgp2rcd13ifvqfe0","pricing_plan_id":"cebpf4jnsgd1na2vs0mg"},{"bike_id":"6cf9f5e2-28c7-4de3-88bb-e777692f3ee0","system_id":"levelo_inurba_marseille","lat":43.29272,"lon":5.38447,"is_reserved":false,"is_disabled":false,"rental_uris":{"android":"levelo://app?vid=6cf9f5e2-28c7-4de3-88bb-e777692f3ee0","ios":"levelo://app?vid=6cf9f5e2-28c7-4de3-88bb-e777692f3ee0"},"vehicle_type_id":"4","last_reported":1728137244,"current_range_meters":16400,"station_id":"ce4bh692rcd13ifvqea0","pricing_plan_id":"cebpf4jnsgd1na2vs0mg"},{"bike_id":"22184ed8-d8fc-4dca-b974-1fe10b24a5a2","system_id":"levelo_inurba_marseille","lat":43.28419,"lon":5.34981,"is_reserved":false,"is_disabled":false,"rental_uris":{"android":"levelo://app?vid=22184ed8-d8fc-4dca-b974-1fe10b24a5a2","ios":"levelo://app?vid=22184ed8-d8fc-4dca-b974-1fe10b24a5a2"},"vehicle_type_id":"4","last_reported":1728137244,"current_range_meters":32800,"station_id":"ce4bhbh2rcd13ifvqepg","pricing_plan_id":"cebpf4jnsgd1na2vs0mg"},{"bike_id":"9c4c2785-4e07-4582-9294-b135155e2812","system_id":"levelo_inurba_marseille","lat":43.25116,"lon":5.40326,"is_reserved":false,"is_disabled":false,"rental_uris":{"android":"levelo://app?vid=9c4c2785-4e07-4582-9294-b135155e2812","ios":"levelo://app?vid=9c4c2785-4e07-4582-9294-b135155e2812"},"vehicle_type_id":"4","last_reported":1728137244,"current_range_meters":14000,"station_id":"ce4bhlh2rcd13ifvqgig","pricing_plan_id":"cebpf4jnsgd1na2vs0mg"},{"bike_id":"d83ede51-d271-4c97-a135-fee768a51332","system_id":"levelo_inurba_marseille","lat":43.24807,"lon":5.37459,"is_reserved":false,"is_disabled":false,"rental_uris":{"android":"levelo://app?vid=d83ede51-d271-4c97-a135-fee768a51332","ios":"levelo://app?vid=d83ede51-d271-4c97-a135-fee768a51332"},"vehicle_type_id":"4","last_reported":1728137244,"current_range_meters":2000,"station_id":"ce4bhgh2rcd13ifvqfb0","pricing_plan_id":"cebpf4jnsgd1na2vs0mg"},{"bike_id":"5305316b-eb43-43cb-bedf-3a735be36892","system_id":"levelo_inurba_marseille","lat":43.31715,"lon":5.43706,"is_reserved":false,"is_disabled":false,"rental_uris":{"android":"levelo://app?vid=5305316b-eb43-43cb-bedf-3a735be36892","ios":"levelo://app?vid=5305316b-eb43-43cb-bedf-3a735be36892"},"vehicle_type_id":"4","last_reported":1728137244,"current_range_meters":37600,"station_id":"ce4bhp92rcd13ifvqhcg","pricing_plan_id":"cebpf4jnsgd1na2vs0mg"},{"bike_id":"191082f3-d6c6-4cdf-af68-76e707014d20","system_id":"levelo_inurba_marseille","lat":43.26804,"lon":5.40256,"is_reserved":false,"is_disabled":false,"rental_uris":{"android":"levelo://app?vid=191082f3-d6c6-4cdf-af68-76e707014d20","ios":"levelo://app?vid=191082f3-d6c6-4cdf-af68-76e707014d20"},"vehicle_type_id":"4","last_reported":1728137244,"current_range_meters":18000,"station_id":"ce501612rcd8frsf0b60","pricing_plan_id":"cebpf4jnsgd1na2vs0mg"},{"bike_id":"c4e3cfb6-43a7-40a1-8fc8-d96e5d94335c","system_id":"levelo_inurba_marseille","lat":43.23964,"lon":5.36629,"is_reserved":false,"is_disabled":false,"rental_uris":{"android":"levelo://app?vid=c4e3cfb6-43a7-40a1-8fc8-d96e5d94335c","ios":"levelo://app?vid=c4e3cfb6-43a7-40a1-8fc8-d96e5d94335c"},"vehicle_type_id":"4","last_reported":1728137244,"current_range_meters":12800,"station_id":"ce4bhi12rcd13ifvqfp0","pricing_plan_id":"cebpf4jnsgd1na2vs0mg"},{"bike_id":"40589bbd-7420-4274-9f3f-c73d42cd89eb","system_id":"levelo_inurba_marseille","lat":43.28613,"lon":5.37059,"is_reserved":false,"is_disabled":false,"rental_uris":{"android":"levelo://app?vid=40589bbd-7420-4274-9f3f-c73d42cd89eb","ios":"levelo://app?vid=40589bbd-7420-4274-9f3f-c73d42cd89eb"},"vehicle_type_id":"4","last_reported":1728137244,"current_range_meters":16000,"station_id":"ce4bht12rcd13ifvqi60","pricing_plan_id":"cebpf4jnsgd1na2vs0mg"},{"bike_id":"b193a2e5-ca53-49dc-b422-f4aa5c697aba","system_id":"levelo_inurba_marseille","lat":43.28926,"lon":5.38402,"is_reserved":false,"is_disabled":false,"rental_uris":{"android":"levelo://app?vid=b193a2e5-ca53-49dc-b422-f4aa5c697aba","ios":"levelo://app?vid=b193a2e5-ca53-49dc-b422-f4aa5c697aba"},"vehicle_type_id":"4","last_reported":1728137244,"current_range_meters":34800,"station_id":"ce4bh612rcd13ifvqe6g","pricing_plan_id":"cebpf4jnsgd1na2vs0mg"},{"bike_id":"9b669464-2a7c-4213-b13c-c9b6f97c8331","system_id":"levelo_inurba_marseille","lat":43.27377,"lon":5.36249,"is_reserved":false,"is_disabled":false,"rental_uris":{"android":"levelo://app?vid=9b669464-2a7c-4213-b13c-c9b6f97c8331","ios":"levelo://app?vid=9b669464-2a7c-4213-b13c-c9b6f97c8331"},"vehicle_type_id":"4","last_reported":1728137244,"current_range_meters":8400,"station_id":"ce4bhbh2rcd13ifvqeo0","pricing_plan_id":"cebpf4jnsgd1na2vs0mg"},{"bike_id":"7f98fadf-39fc-4d57-ae29-934dfac9c706","system_id":"levelo_inurba_marseille","lat":43.31128,"lon":5.37761,"is_reserved":false,"is_disabled":false,"rental_uris":{"android":"levelo://app?vid=7f98fadf-39fc-4d57-ae29-934dfac9c706","ios":"levelo://app?vid=7f98fadf-39fc-4d57-ae29-934dfac9c706"},"vehicle_type_id":"4","last_reported":1728137244,"current_range_meters":7200,"station_id":"ce4bgt92rcd13ifvqcg0","pricing_plan_id":"cebpf4jnsgd1na2vs0mg"},{"bike_id":"fbad9cbf-d2d3-4efc-be58-b0a7f0e779c7","system_id":"levelo_inurba_marseille","lat":43.23191,"lon":5.35555,"is_reserved":false,"is_disabled":false,"rental_uris":{"android":"levelo://app?vid=fbad9cbf-d2d3-4efc-be58-b0a7f0e779c7","ios":"levelo://app?vid=fbad9cbf-d2d3-4efc-be58-b0a7f0e779c7"},"vehicle_type_id":"4","last_reported":1728137244,"current_range_meters":24000,"station_id":"ce4bhu92rcd13ifvqi70","pricing_plan_id":"cebpf4jnsgd1na2vs0mg"},{"bike_id":"6a5f0356-71af-40c7-b3ec-a66d5fed908c","system_id":"levelo_inurba_marseille","lat":43.26563,"lon":5.39009,"is_reserved":false,"is_disabled":false,"rental_uris":{"android":"levelo://app?vid=6a5f0356-71af-40c7-b3ec-a66d5fed908c","ios":"levelo://app?vid=6a5f0356-71af-40c7-b3ec-a66d5fed908c"},"vehicle_type_id":"4","last_reported":1728137244,"current_range_meters":22800,"station_id":"ce4bhe12rcd13ifvqf30","pricing_plan_id":"cebpf4jnsgd1na2vs0mg"},{"bike_id":"4e3b543b-023b-48a9-8967-e90664db3bf4","system_id":"levelo_inurba_marseille","lat":43.32039,"lon":5.41563,"is_reserved":false,"is_disabled":false,"rental_uris":{"android":"levelo://app?vid=4e3b543b-023b-48a9-8967-e90664db3bf4","ios":"levelo://app?vid=4e3b543b-023b-48a9-8967-e90664db3bf4"},"vehicle_type_id":"4","last_reported":1728137244,"current_range_meters":28000,"station_id":"ce4bhq92rcd13ifvqhkg","pricing_plan_id":"cebpf4jnsgd1na2vs0mg"},{"bike_id":"ae4f6c60-4739-4429-8af4-18915cf95422","system_id":"levelo_inurba_marseille","lat":43.259026,"lon":5.398892,"is_reserved":false,"is_disabled":false,"rental_uris":{"android":"levelo://app?vid=ae4f6c60-4739-4429-8af4-18915cf95422","ios":"levelo://app?vid=ae4f6c60-4739-4429-8af4-18915cf95422"},"vehicle_type_id":"4","last_reported":1728137244,"current_range_meters":18800,"station_id":"ce4bhh12rcd13ifvqfg0","pricing_plan_id":"cebpf4jnsgd1na2vs0mg"},{"bike_id":"9b0067af-bb4e-4efe-b96e-52e4761a5b0b","system_id":"levelo_inurba_marseille","lat":43.3301,"lon":5.39037,"is_reserved":false,"is_disabled":false,"rental_uris":{"android":"levelo://app?vid=9b0067af-bb4e-4efe-b96e-52e4761a5b0b","ios":"levelo://app?vid=9b0067af-bb4e-4efe-b96e-52e4761a5b0b"},"vehicle_type_id":"4","last_reported":1728137244,"current_range_meters":28000,"station_id":"ce4bhr92rcd13ifvqhrg","pricing_plan_id":"cebpf4jnsgd1na2vs0mg"},{"bike_id":"e0557020-dff6-43c2-b041-ed7956e8378d","system_id":"levelo_inurba_marseille","lat":43.24391,"lon":5.3706,"is_reserved":false,"is_disabled":false,"rental_uris":{"android":"levelo://app?vid=e0557020-dff6-43c2-b041-ed7956e8378d","ios":"levelo://app?vid=e0557020-dff6-43c2-b041-ed7956e8378d"},"vehicle_type_id":"4","last_reported":1728137244,"current_range_meters":38800,"station_id":"ce4bhhh2rcd13ifvqfk0","pricing_plan_id":"cebpf4jnsgd1na2vs0mg"},{"bike_id":"9943b814-a76e-48f6-867a-1c491da59c87","system_id":"levelo_inurba_marseille","lat":43.26515,"lon":5.39602,"is_reserved":false,"is_disabled":false,"rental_uris":{"android":"levelo://app?vid=9943b814-a76e-48f6-867a-1c491da59c87","ios":"levelo://app?vid=9943b814-a76e-48f6-867a-1c491da59c87"},"vehicle_type_id":"4","last_reported":1728137244,"current_range_meters":18000,"station_id":"ce4bhk92rcd13ifvqgb0","pricing_plan_id":"cebpf4jnsgd1na2vs0mg"},{"bike_id":"f163bf0e-73e9-4fcf-89f9-368d251e8f14","system_id":"levelo_inurba_marseille","lat":43.26483,"lon":5.39382,"is_reserved":false,"is_disabled":false,"rental_uris":{"android":"levelo://app?vid=f163bf0e-73e9-4fcf-89f9-368d251e8f14","ios":"levelo://app?vid=f163bf0e-73e9-4fcf-89f9-368d251e8f14"},"vehicle_type_id":"4","last_reported":1728137244,"current_range_meters":8400,"station_id":"ce4bhip2rcd13ifvqft0","pricing_plan_id":"cebpf4jnsgd1na2vs0mg"},{"bike_id":"07ac77c5-7b6c-42d6-8023-b2507b5f9c6a","system_id":"levelo_inurba_marseille","lat":43.230543,"lon":5.354907,"is_reserved":false,"is_disabled":false,"rental_uris":{"android":"levelo://app?vid=07ac77c5-7b6c-42d6-8023-b2507b5f9c6a","ios":"levelo://app?vid=07ac77c5-7b6c-42d6-8023-b2507b5f9c6a"},"vehicle_type_id":"4","last_reported":1728137244,"current_range_meters":6000,"station_id":"cpo3342slgdg3j2ifvpg","pricing_plan_id":"cebpf4jnsgd1na2vs0mg"},{"bike_id":"e852a6f8-8e06-4dcb-8046-76eaee7589ee","system_id":"levelo_inurba_marseille","lat":43.31126,"lon":5.37805,"is_reserved":false,"is_disabled":false,"rental_uris":{"android":"levelo://app?vid=e852a6f8-8e06-4dcb-8046-76eaee7589ee","ios":"levelo://app?vid=e852a6f8-8e06-4dcb-8046-76eaee7589ee"},"vehicle_type_id":"4","last_reported":1728137244,"current_range_meters":37600,"station_id":"ce4bgr92rcd13ifvqc6g","pricing_plan_id":"cebpf4jnsgd1na2vs0mg"},{"bike_id":"10e2cad8-5b87-4361-a750-816e7c888c91","system_id":"levelo_inurba_marseille","lat":43.33774,"lon":5.37445,"is_reserved":false,"is_disabled":false,"rental_uris":{"android":"levelo://app?vid=10e2cad8-5b87-4361-a750-816e7c888c91","ios":"levelo://app?vid=10e2cad8-5b87-4361-a750-816e7c888c91"},"vehicle_type_id":"4","last_reported":1728137244,"current_range_meters":36000,"station_id":"","pricing_plan_id":"cebpf4jnsgd1na2vs0mg"},{"bike_id":"e414d2c2-d018-401c-a3e6-9189511e98ba","system_id":"levelo_inurba_marseille","lat":43.29716,"lon":5.36623,"is_reserved":false,"is_disabled":false,"rental_uris":{"android":"levelo://app?vid=e414d2c2-d018-401c-a3e6-9189511e98ba","ios":"levelo://app?vid=e414d2c2-d018-401c-a3e6-9189511e98ba"},"vehicle_type_id":"4","last_reported":1728137244,"current_range_meters":4800,"station_id":"ce4bgn12rcd13ifvqbt0","pricing_plan_id":"cebpf4jnsgd1na2vs0mg"},{"bike_id":"a19207d4-b825-4acc-9c8b-4987520a99e5","system_id":"levelo_inurba_marseille","lat":43.31067,"lon":5.4008,"is_reserved":false,"is_disabled":false,"rental_uris":{"android":"levelo://app?vid=a19207d4-b825-4acc-9c8b-4987520a99e5","ios":"levelo://app?vid=a19207d4-b825-4acc-9c8b-4987520a99e5"},"vehicle_type_id":"4","last_reported":1728137244,"current_range_meters":2800,"station_id":"ce4bh092rcd13ifvqd30","pricing_plan_id":"cebpf4jnsgd1na2vs0mg"},{"bike_id":"a513ccaa-0c27-439e-bc69-84cf7ff60039","system_id":"levelo_inurba_marseille","lat":43.337444,"lon":5.374475,"is_reserved":false,"is_disabled":false,"rental_uris":{"android":"levelo://app?vid=a513ccaa-0c27-439e-bc69-84cf7ff60039","ios":"levelo://app?vid=a513ccaa-0c27-439e-bc69-84cf7ff60039"},"vehicle_type_id":"4","last_reported":1728137244,"current_range_meters":34000,"station_id":"","pricing_plan_id":"cebpf4jnsgd1na2vs0mg"},{"bike_id":"93b15155-ee40-4ff6-981b-9242f9d67c24","system_id":"levelo_inurba_marseille","lat":43.26564,"lon":5.39005,"is_reserved":false,"is_disabled":false,"rental_uris":{"android":"levelo://app?vid=93b15155-ee40-4ff6-981b-9242f9d67c24","ios":"levelo://app?vid=93b15155-ee40-4ff6-981b-9242f9d67c24"},"vehicle_type_id":"4","last_reported":1728137244,"current_range_meters":30400,"station_id":"ce4bhe12rcd13ifvqf30","pricing_plan_id":"cebpf4jnsgd1na2vs0mg"},{"bike_id":"5c56a3bd-eee6-46f6-9565-18e2d60b4a2a","system_id":"levelo_inurba_marseille","lat":43.33771,"lon":5.37448,"is_reserved":false,"is_disabled":false,"rental_uris":{"android":"levelo://app?vid=5c56a3bd-eee6-46f6-9565-18e2d60b4a2a","ios":"levelo://app?vid=5c56a3bd-eee6-46f6-9565-18e2d60b4a2a"},"vehicle_type_id":"4","last_reported":1728137244,"current_range_meters":38800,"station_id":"","pricing_plan_id":"cebpf4jnsgd1na2vs0mg"},{"bike_id":"406c26c7-f121-4932-92e3-6ecb52a2f573","system_id":"levelo_inurba_marseille","lat":43.28412,"lon":5.34981,"is_reserved":false,"is_disabled":false,"rental_uris":{"android":"levelo://app?vid=406c26c7-f121-4932-92e3-6ecb52a2f573","ios":"levelo://app?vid=406c26c7-f121-4932-92e3-6ecb52a2f573"},"vehicle_type_id":"4","last_reported":1728137244,"current_range_meters":35600,"station_id":"ce4bhbh2rcd13ifvqepg","pricing_plan_id":"cebpf4jnsgd1na2vs0mg"},{"bike_id":"19bc4619-086d-41f0-b5eb-661e2b103e49","system_id":"levelo_inurba_marseille","lat":43.23062,"lon":5.35488,"is_reserved":false,"is_disabled":false,"rental_uris":{"android":"levelo://app?vid=19bc4619-086d-41f0-b5eb-661e2b103e49","ios":"levelo://app?vid=19bc4619-086d-41f0-b5eb-661e2b103e49"},"vehicle_type_id":"4","last_reported":1728137244,"current_range_meters":14000,"station_id":"cpo3342slgdg3j2ifvpg","pricing_plan_id":"cebpf4jnsgd1na2vs0mg"},{"bike_id":"e315600c-3ff8-4893-abe5-0c310d48465d","system_id":"levelo_inurba_marseille","lat":43.33767,"lon":5.37434,"is_reserved":false,"is_disabled":false,"rental_uris":{"android":"levelo://app?vid=e315600c-3ff8-4893-abe5-0c310d48465d","ios":"levelo://app?vid=e315600c-3ff8-4893-abe5-0c310d48465d"},"vehicle_type_id":"4","last_reported":1728137244,"current_range_meters":32800,"station_id":"","pricing_plan_id":"cebpf4jnsgd1na2vs0mg"},{"bike_id":"de9e8a56-b437-4f39-9190-656d9397c6df","system_id":"levelo_inurba_marseille","lat":43.24167,"lon":5.36396,"is_reserved":false,"is_disabled":false,"rental_uris":{"android":"levelo://app?vid=de9e8a56-b437-4f39-9190-656d9397c6df","ios":"levelo://app?vid=de9e8a56-b437-4f39-9190-656d9397c6df"},"vehicle_type_id":"4","last_reported":1728137244,"current_range_meters":32000,"station_id":"cpo36qri1sfpv3e86is0","pricing_plan_id":"cebpf4jnsgd1na2vs0mg"},{"bike_id":"5ec6c68f-35df-4b51-b98e-c88dbbe08762","system_id":"levelo_inurba_marseille","lat":43.27378,"lon":5.3625,"is_reserved":false,"is_disabled":false,"rental_uris":{"android":"levelo://app?vid=5ec6c68f-35df-4b51-b98e-c88dbbe08762","ios":"levelo://app?vid=5ec6c68f-35df-4b51-b98e-c88dbbe08762"},"vehicle_type_id":"4","last_reported":1728137244,"current_range_meters":25200,"station_id":"ce4bhbh2rcd13ifvqeo0","pricing_plan_id":"cebpf4jnsgd1na2vs0mg"},{"bike_id":"c60b73e5-4a7a-4b00-8bc0-45e20e7551cd","system_id":"levelo_inurba_marseille","lat":43.27376,"lon":5.36259,"is_reserved":false,"is_disabled":false,"rental_uris":{"android":"levelo://app?vid=c60b73e5-4a7a-4b00-8bc0-45e20e7551cd","ios":"levelo://app?vid=c60b73e5-4a7a-4b00-8bc0-45e20e7551cd"},"vehicle_type_id":"4","last_reported":1728137244,"current_range_meters":16400,"station_id":"ce4bhbh2rcd13ifvqeo0","pricing_plan_id":"cebpf4jnsgd1na2vs0mg"},{"bike_id":"f1013ffa-d938-4893-922e-4fed44c6ce14","system_id":"levelo_inurba_marseille","lat":43.31323,"lon":5.39686,"is_reserved":false,"is_disabled":false,"rental_uris":{"android":"levelo://app?vid=f1013ffa-d938-4893-922e-4fed44c6ce14","ios":"levelo://app?vid=f1013ffa-d938-4893-922e-4fed44c6ce14"},"vehicle_type_id":"4","last_reported":1728137244,"current_range_meters":8400,"station_id":"ce4bgvp2rcd13ifvqcu0","pricing_plan_id":"cebpf4jnsgd1na2vs0mg"},{"bike_id":"1a17bec9-9e96-4207-a616-b43035f76997","system_id":"levelo_inurba_marseille","lat":43.22929,"lon":5.35372,"is_reserved":false,"is_disabled":false,"rental_uris":{"android":"levelo://app?vid=1a17bec9-9e96-4207-a616-b43035f76997","ios":"levelo://app?vid=1a17bec9-9e96-4207-a616-b43035f76997"},"vehicle_type_id":"4","last_reported":1728137244,"current_range_meters":36000,"station_id":"cpo3532slgdg3j2ikp40","pricing_plan_id":"cebpf4jnsgd1na2vs0mg"},{"bike_id":"46345608-5952-477d-8db1-2157d8bfe50f","system_id":"levelo_inurba_marseille","lat":43.26954,"lon":5.38626,"is_reserved":false,"is_disabled":false,"rental_uris":{"android":"levelo://app?vid=46345608-5952-477d-8db1-2157d8bfe50f","ios":"levelo://app?vid=46345608-5952-477d-8db1-2157d8bfe50f"},"vehicle_type_id":"4","last_reported":1728137244,"current_range_meters":37600,"station_id":"ce4bhh92rcd13ifvqfh0","pricing_plan_id":"cebpf4jnsgd1na2vs0mg"},{"bike_id":"20ee1f8e-76f2-4ecc-8be5-8c5eafdb6b18","system_id":"levelo_inurba_marseille","lat":43.25001,"lon":5.38933,"is_reserved":false,"is_disabled":false,"rental_uris":{"android":"levelo://app?vid=20ee1f8e-76f2-4ecc-8be5-8c5eafdb6b18","ios":"levelo://app?vid=20ee1f8e-76f2-4ecc-8be5-8c5eafdb6b18"},"vehicle_type_id":"4","last_reported":1728137244,"current_range_meters":15200,"station_id":"ce4bhgp2rcd13ifvqfd0","pricing_plan_id":"cebpf4jnsgd1na2vs0mg"},{"bike_id":"0206a100-a1a4-49f4-8487-a8f0bbd03220","system_id":"levelo_inurba_marseille","lat":43.24472,"lon":5.426045,"is_reserved":false,"is_disabled":false,"rental_uris":{"android":"levelo://app?vid=0206a100-a1a4-49f4-8487-a8f0bbd03220","ios":"levelo://app?vid=0206a100-a1a4-49f4-8487-a8f0bbd03220"},"vehicle_type_id":"4","last_reported":1728137244,"current_range_meters":25600,"station_id":"ce4bhmp2rcd13ifvqgog","pricing_plan_id":"cebpf4jnsgd1na2vs0mg"},{"bike_id":"c349020d-2226-471a-a631-57589fc639d6","system_id":"levelo_inurba_marseille","lat":43.28419,"lon":5.34986,"is_reserved":false,"is_disabled":false,"rental_uris":{"android":"levelo://app?vid=c349020d-2226-471a-a631-57589fc639d6","ios":"levelo://app?vid=c349020d-2226-471a-a631-57589fc639d6"},"vehicle_type_id":"4","last_reported":1728137244,"current_range_meters":8000,"station_id":"ce4bhbh2rcd13ifvqepg","pricing_plan_id":"cebpf4jnsgd1na2vs0mg"},{"bike_id":"ae8b92d9-6255-4ea9-acf9-9a080abd1c26","system_id":"levelo_inurba_marseille","lat":43.28423,"lon":5.34988,"is_reserved":false,"is_disabled":false,"rental_uris":{"android":"levelo://app?vid=ae8b92d9-6255-4ea9-acf9-9a080abd1c26","ios":"levelo://app?vid=ae8b92d9-6255-4ea9-acf9-9a080abd1c26"},"vehicle_type_id":"4","last_reported":1728137244,"current_range_meters":40000,"station_id":"ce4bhbh2rcd13ifvqepg","pricing_plan_id":"cebpf4jnsgd1na2vs0mg"},{"bike_id":"a29e5740-e04f-40d3-bf67-522bb01f1ff1","system_id":"levelo_inurba_marseille","lat":43.24386,"lon":5.37064,"is_reserved":false,"is_disabled":false,"rental_uris":{"android":"levelo://app?vid=a29e5740-e04f-40d3-bf67-522bb01f1ff1","ios":"levelo://app?vid=a29e5740-e04f-40d3-bf67-522bb01f1ff1"},"vehicle_type_id":"4","last_reported":1728137244,"current_range_meters":27600,"station_id":"ce4bhhh2rcd13ifvqfk0","pricing_plan_id":"cebpf4jnsgd1na2vs0mg"},{"bike_id":"9722f75d-9f4a-467b-be02-d01d51a4a824","system_id":"levelo_inurba_marseille","lat":43.27371,"lon":5.36246,"is_reserved":false,"is_disabled":false,"rental_uris":{"android":"levelo://app?vid=9722f75d-9f4a-467b-be02-d01d51a4a824","ios":"levelo://app?vid=9722f75d-9f4a-467b-be02-d01d51a4a824"},"vehicle_type_id":"4","last_reported":1728137244,"current_range_meters":25600,"station_id":"ce4bhbh2rcd13ifvqeo0","pricing_plan_id":"cebpf4jnsgd1na2vs0mg"},{"bike_id":"87f7ee87-2d32-4b2c-ac89-c0776af8da38","system_id":"levelo_inurba_marseille","lat":43.28267,"lon":5.35065,"is_reserved":false,"is_disabled":false,"rental_uris":{"android":"levelo://app?vid=87f7ee87-2d32-4b2c-ac89-c0776af8da38","ios":"levelo://app?vid=87f7ee87-2d32-4b2c-ac89-c0776af8da38"},