{"last_updated":1720963837,"ttl":30,"version":"2.2","data":{"bikes":[{"bike_id":"3c91a549-b551-4f69-8720-045f2c9369d5","system_id":"levelo_inurba_marseille","lat":43.313391,"lon":5.36706,"is_reserved":false,"is_disabled":false,"rental_uris":{"android":"levelo://app?vid=3c91a549-b551-4f69-8720-045f2c9369d5","ios":"levelo://app?vid=3c91a549-b551-4f69-8720-045f2c9369d5"},"vehicle_type_id":"4","last_reported":1720963837,"current_range_meters":3200,"station_id":"ce4bgr92rcd13ifvqc6g","pricing_plan_id":"cebpf4jnsgd1na2vs0mg"},{"bike_id":"c475b3ca-7ba9-448e-b7ae-812a56aac003","system_id":"levelo_inurba_marseille","lat":43.312239,"lon":5.368562,"is_reserved":false,"is_disabled":false,"rental_uris":{"android":"levelo://app?vid=c475b3ca-7ba9-448e-b7ae-812a56aac003","ios":"levelo://app?vid=c475b3ca-7ba9-448e-b7ae-812a56aac003"},"vehicle_type_id":"4","last_reported":1720963837,"current_range_meters":400,"station_id":"ce4bgl92rcd13ifvqbq0","pricing_plan_id":"cebpf4jnsgd1na2vs0mg"},{"bike_id":"da4eba25-c6fb-448e-b19d-695b163fa692","system_id":"levelo_inurba_marseille","lat":43.312239,"lon":5.368562,"is_reserved":false,"is_disabled":false,"rental_uris":{"android":"levelo://app?vid=da4eba25-c6fb-448e-b19d-695b163fa692","ios":"levelo://app?vid=da4eba25-c6fb-448e-b19d-695b163fa692"},"vehicle_type_id":"4","last_reported":1720963837,"current_range_meters":10000,"station_id":"ce4bgl92rcd13ifvqbq0","pricing_plan_id":"cebpf4jnsgd1na2vs0mg"},{"bike_id":"143cb951-e4de-487a-a154-1d490dd4a18e","system_id":"levelo_inurba_marseille","lat":43.309076,"lon":5.368465,"is_reserved":false,"is_disabled":false,"rental_uris":{"android":"levelo://app?vid=143cb951-e4de-487a-a154-1d490dd4a18e","ios":"levelo://app?vid=143cb951-e4de-487a-a154-1d490dd4a18e"},"vehicle_type_id":"4","last_reported":1720963837,"current_range_meters":26400,"station_id":"ce4bgn92rcd13ifvqbvg","pricing_plan_id":"cebpf4jnsgd1na2vs0mg"},{"bike_id":"8222908d-64fb-4188-9fd2-3e1d69a0a4fc","system_id":"levelo_inurba_marseille","lat":43.30901,"lon":5.36858,"is_reserved":false,"is_disabled":false,"rental_uris":{"android":"levelo://app?vid=8222908d-64fb-4188-9fd2-3e1d69a0a4fc","ios":"levelo://app?vid=8222908d-64fb-4188-9fd2-3e1d69a0a4fc"},"vehicle_type_id":"4","last_reported":1720963837,"current_range_meters":27200,"station_id":"ce4bgn92rcd13ifvqbvg","pricing_plan_id":"cebpf4jnsgd1na2vs0mg"},{"bike_id":"7cde1fb3-95ba-498e-8323-6867d8730ceb","system_id":"levelo_inurba_marseille","lat":43.315274,"lon":5.372525,"is_reserved":false,"is_disabled":false,"rental_uris":{"android":"levelo://app?vid=7cde1fb3-95ba-498e-8323-6867d8730ceb","ios":"levelo://app?vid=7cde1fb3-95ba-498e-8323-6867d8730ceb"},"vehicle_type_id":"4","last_reported":1720963837,"current_range_meters":7200,"station_id":"","pricing_plan_id":"cebpf4jnsgd1na2vs0mg"},{"bike_id":"7dea0798-7640-410e-868a-c5b5da442145","system_id":"levelo_inurba_marseille","lat":43.31486,"lon":5.37307,"is_reserved":false,"is_disabled":false,"rental_uris":{"android":"levelo://app?vid=7dea0798-7640-410e-868a-c5b5da442145","ios":"levelo://app?vid=7dea0798-7640-410e-868a-c5b5da442145"},"vehicle_type_id":"4","last_reported":1720963837,"current_range_meters":30400,"station_id":"ce4bgt12rcd13ifvqcd0","pricing_plan_id":"cebpf4jnsgd1na2vs0mg"},{"bike_id":"3ec2f6d4-a6e4-4aa4-9407-2730438c4a0f","system_id":"levelo_inurba_marseille","lat":43.30887,"lon":5.37193,"is_reserved":false,"is_disabled":false,"rental_uris":{"android":"levelo://app?vid=3ec2f6d4-a6e4-4aa4-9407-2730438c4a0f","ios":"levelo://app?vid=3ec2f6d4-a6e4-4aa4-9407-2730438c4a0f"},"vehicle_type_id":"4","last_reported":1720963837,"current_range_meters":2400,"station_id":"","pricing_plan_id":"cebpf4jnsgd1na2vs0mg"},{"bike_id":"d0b77ddb-f91c-467e-baff-a5995f35482f","system_id":"levelo_inurba_marseille","lat":43.305503,"lon":5.367019,"is_reserved":false,"is_disabled":false,"rental_uris":{"android":"levelo://app?vid=d0b77ddb-f91c-467e-baff-a5995f35482f","ios":"levelo://app?vid=d0b77ddb-f91c-467e-baff-a5995f35482f"},"vehicle_type_id":"4","last_reported":1720963837,"current_range_meters":29200,"station_id":"","pricing_plan_id":"cebpf4jnsgd1na2vs0mg"},{"bike_id":"a0d451ef-06f8-4fe1-98b0-2e015833c22e","system_id":"levelo_inurba_marseille","lat":43.305712,"lon":5.365641,"is_reserved":false,"is_disabled":false,"rental_uris":{"android":"levelo://app?vid=a0d451ef-06f8-4fe1-98b0-2e015833c22e","ios":"levelo://app?vid=a0d451ef-06f8-4fe1-98b0-2e015833c22e"},"vehicle_type_id":"4","last_reported":1720963837,"current_range_meters":400,"station_id":"ce4bgs12rcd13ifvqcag","pricing_plan_id":"cebpf4jnsgd1na2vs0mg"},{"bike_id":"96842915-0734-490e-afe0-b96100f256d0","system_id":"levelo_inurba_marseille","lat":43.311131,"lon":5.377651,"is_reserved":false,"is_disabled":false,"rental_uris":{"android":"levelo://app?vid=96842915-0734-490e-afe0-b96100f256d0","ios":"levelo://app?vid=96842915-0734-490e-afe0-b96100f256d0"},"vehicle_type_id":"4","last_reported":1720963837,"current_range_meters":13600,"station_id":"ce4bgt92rcd13ifvqcg0","pricing_plan_id":"cebpf4jnsgd1na2vs0mg"},{"bike_id":"ae6f7f93-0ca7-4c84-95e0-020b6dee215a","system_id":"levelo_inurba_marseille","lat":43.307945,"lon":5.376487,"is_reserved":false,"is_disabled":false,"rental_uris":{"android":"levelo://app?vid=ae6f7f93-0ca7-4c84-95e0-020b6dee215a","ios":"levelo://app?vid=ae6f7f93-0ca7-4c84-95e0-020b6dee215a"},"vehicle_type_id":"4","last_reported":1720963837,"current_range_meters":23200,"station_id":"ce4bgv92rcd13ifvqcq0","pricing_plan_id":"cebpf4jnsgd1na2vs0mg"},{"bike_id":"e2ade6c9-16f5-4008-80cc-71c80c856774","system_id":"levelo_inurba_marseille","lat":43.317075,"lon":5.377367,"is_reserved":false,"is_disabled":false,"rental_uris":{"android":"levelo://app?vid=e2ade6c9-16f5-4008-80cc-71c80c856774","ios":"levelo://app?vid=e2ade6c9-16f5-4008-80cc-71c80c856774"},"vehicle_type_id":"4","last_reported":1720963837,"current_range_meters":4400,"station_id":"ce4bgth2rcd13ifvqch0","pricing_plan_id":"cebpf4jnsgd1na2vs0mg"},{"bike_id":"1560dd15-e68a-4cc2-a0c5-1af9b4aecd78","system_id":"levelo_inurba_marseille","lat":43.31702,"lon":5.37744,"is_reserved":false,"is_disabled":false,"rental_uris":{"android":"levelo://app?vid=1560dd15-e68a-4cc2-a0c5-1af9b4aecd78","ios":"levelo://app?vid=1560dd15-e68a-4cc2-a0c5-1af9b4aecd78"},"vehicle_type_id":"4","last_reported":1720963837,"current_range_meters":22800,"station_id":"ce4bgth2rcd13ifvqch0","pricing_plan_id":"cebpf4jnsgd1na2vs0mg"},{"bike_id":"a370ce7f-4166-4be3-ba3c-192bdd50ea7a","system_id":"levelo_inurba_marseille","lat":43.30466,"lon":5.3732,"is_reserved":false,"is_disabled":false,"rental_uris":{"android":"levelo://app?vid=a370ce7f-4166-4be3-ba3c-192bdd50ea7a","ios":"levelo://app?vid=a370ce7f-4166-4be3-ba3c-192bdd50ea7a"},"vehicle_type_id":"4","last_reported":1720963837,"current_range_meters":26800,"station_id":"","pricing_plan_id":"cebpf4jnsgd1na2vs0mg"},{"bike_id":"7d7793a8-a0fa-4892-a61a-3412623b1364","system_id":"levelo_inurba_marseille","lat":43.303046,"lon":5.368981,"is_reserved":false,"is_disabled":false,"rental_uris":{"android":"levelo://app?vid=7d7793a8-a0fa-4892-a61a-3412623b1364","ios":"levelo://app?vid=7d7793a8-a0fa-4892-a61a-3412623b1364"},"vehicle_type_id":"4","last_reported":1720963837,"current_range_meters":21600,"station_id":"ce4bgqh2rcd13ifvqc5g","pricing_plan_id":"cebpf4jnsgd1na2vs0mg"},{"bike_id":"e952b9dd-ca11-48c1-bc7c-fa59e411d30e","system_id":"levelo_inurba_marseille","lat":43.315289,"lon":5.380349,"is_reserved":false,"is_disabled":false,"rental_uris":{"android":"levelo://app?vid=e952b9dd-ca11-48c1-bc7c-fa59e411d30e","ios":"levelo://app?vid=e952b9dd-ca11-48c1-bc7c-fa59e411d30e"},"vehicle_type_id":"4","last_reported":1720963837,"current_range_meters":10800,"station_id":"ce4bhsp2rcd13ifvqi50","pricing_plan_id":"cebpf4jnsgd1na2vs0mg"},{"bike_id":"4d191572-f967-4e95-ac38-9eab4307442b","system_id":"levelo_inurba_marseille","lat":43.315289,"lon":5.380349,"is_reserved":false,"is_disabled":false,"rental_uris":{"android":"levelo://app?vid=4d191572-f967-4e95-ac38-9eab4307442b","ios":"levelo://app?vid=4d191572-f967-4e95-ac38-9eab4307442b"},"vehicle_type_id":"4","last_reported":1720963837,"current_range_meters":26400,"station_id":"ce4bhsp2rcd13ifvqi50","pricing_plan_id":"cebpf4jnsgd1na2vs0mg"},{"bike_id":"9e9189e0-af37-483e-a535-4b951387412e","system_id":"levelo_inurba_marseille","lat":43.315289,"lon":5.380349,"is_reserved":false,"is_disabled":false,"rental_uris":{"android":"levelo://app?vid=9e9189e0-af37-483e-a535-4b951387412e","ios":"levelo://app?vid=9e9189e0-af37-483e-a535-4b951387412e"},"vehicle_type_id":"4","last_reported":1720963837,"current_range_meters":24800,"station_id":"ce4bhsp2rcd13ifvqi50","pricing_plan_id":"cebpf4jnsgd1na2vs0mg"},{"bike_id":"2b4da476-2e26-40be-9aee-5dbf144bd864","system_id":"levelo_inurba_marseille","lat":43.31433,"lon":5.38167,"is_reserved":false,"is_disabled":false,"rental_uris":{"android":"levelo://app?vid=2b4da476-2e26-40be-9aee-5dbf144bd864","ios":"levelo://app?vid=2b4da476-2e26-40be-9aee-5dbf144bd864"},"vehicle_type_id":"4","last_reported":1720963837,"current_range_meters":10400,"station_id":"","pricing_plan_id":"cebpf4jnsgd1na2vs0mg"},{"bike_id":"01ec4e6e-72dc-4798-b2f0-ed454319c72d","system_id":"levelo_inurba_marseille","lat":43.324771,"lon":5.36557,"is_reserved":false,"is_disabled":false,"rental_uris":{"android":"levelo://app?vid=01ec4e6e-72dc-4798-b2f0-ed454319c72d","ios":"levelo://app?vid=01ec4e6e-72dc-4798-b2f0-ed454319c72d"},"vehicle_type_id":"4","last_reported":1720963837,"current_range_meters":6400,"station_id":"ce4bhs12rcd13ifvqhvg","pricing_plan_id":"cebpf4jnsgd1na2vs0mg"},{"bike_id":"7e73aa4c-ea94-4d4e-ba2d-81421c5f4cb3","system_id":"levelo_inurba_marseille","lat":43.32479,"lon":5.36567,"is_reserved":false,"is_disabled":false,"rental_uris":{"android":"levelo://app?vid=7e73aa4c-ea94-4d4e-ba2d-81421c5f4cb3","ios":"levelo://app?vid=7e73aa4c-ea94-4d4e-ba2d-81421c5f4cb3"},"vehicle_type_id":"4","last_reported":1720963837,"current_range_meters":18800,"station_id":"","pricing_plan_id":"cebpf4jnsgd1na2vs0mg"},{"bike_id":"2590d336-113b-4e95-9b63-c6d52dfca48d","system_id":"levelo_inurba_marseille","lat":43.324771,"lon":5.36557,"is_reserved":false,"is_disabled":false,"rental_uris":{"android":"levelo://app?vid=2590d336-113b-4e95-9b63-c6d52dfca48d","ios":"levelo://app?vid=2590d336-113b-4e95-9b63-c6d52dfca48d"},"vehicle_type_id":"4","last_reported":1720963837,"current_range_meters":1600,"station_id":"ce4bhs12rcd13ifvqhvg","pricing_plan_id":"cebpf4jnsgd1na2vs0mg"},{"bike_id":"ea9427d3-3844-4ab0-8397-5150365c96a8","system_id":"levelo_inurba_marseille","lat":43.324771,"lon":5.36557,"is_reserved":false,"is_disabled":false,"rental_uris":{"android":"levelo://app?vid=ea9427d3-3844-4ab0-8397-5150365c96a8","ios":"levelo://app?vid=ea9427d3-3844-4ab0-8397-5150365c96a8"},"vehicle_type_id":"4","last_reported":1720963837,"current_range_meters":16400,"station_id":"ce4bhs12rcd13ifvqhvg","pricing_plan_id":"cebpf4jnsgd1na2vs0mg"},{"bike_id":"e2906a32-cfac-44bd-987e-aef8edf75b24","system_id":"levelo_inurba_marseille","lat":43.319935,"lon":5.381699,"is_reserved":false,"is_disabled":false,"rental_uris":{"android":"levelo://app?vid=e2906a32-cfac-44bd-987e-aef8edf75b24","ios":"levelo://app?vid=e2906a32-cfac-44bd-987e-aef8edf75b24"},"vehicle_type_id":"4","last_reported":1720963837,"current_range_meters":0,"station_id":"ce4bhr12rcd13ifvqhpg","pricing_plan_id":"cebpf4jnsgd1na2vs0mg"},{"bike_id":"0921be12-50a5-46aa-9247-361322645689","system_id":"levelo_inurba_marseille","lat":43.299724,"lon":5.371829,"is_reserved":false,"is_disabled":false,"rental_uris":{"android":"levelo://app?vid=0921be12-50a5-46aa-9247-361322645689","ios":"levelo://app?vid=0921be12-50a5-46aa-9247-361322645689"},"vehicle_type_id":"4","last_reported":1720963837,"current_range_meters":10400,"station_id":"ce4bgr92rcd13ifvqc7g","pricing_plan_id":"cebpf4jnsgd1na2vs0mg"},{"bike_id":"a939f305-5e91-4553-adee-572ddbfe143e","system_id":"levelo_inurba_marseille","lat":43.311722,"lon":5.387247,"is_reserved":false,"is_disabled":false,"rental_uris":{"android":"levelo://app?vid=a939f305-5e91-4553-adee-572ddbfe143e","ios":"levelo://app?vid=a939f305-5e91-4553-adee-572ddbfe143e"},"vehicle_type_id":"4","last_reported":1720963837,"current_range_meters":0,"station_id":"ce4bgv12rcd13ifvqcp0","pricing_plan_id":"cebpf4jnsgd1na2vs0mg"},{"bike_id":"40637d5e-c152-4387-abec-106d1ac08fc7","system_id":"levelo_inurba_marseille","lat":43.322872,"lon":5.382756,"is_reserved":false,"is_disabled":false,"rental_uris":{"android":"levelo://app?vid=40637d5e-c152-4387-abec-106d1ac08fc7","ios":"levelo://app?vid=40637d5e-c152-4387-abec-106d1ac08fc7"},"vehicle_type_id":"4","last_reported":1720963837,"current_range_meters":31600,"station_id":"ce4bhr12rcd13ifvqhqg","pricing_plan_id":"cebpf4jnsgd1na2vs0mg"},{"bike_id":"729c2a8a-b899-4d67-ac44-060e04cca798","system_id":"levelo_inurba_marseille","lat":43.32291,"lon":5.38261,"is_reserved":false,"is_disabled":false,"rental_uris":{"android":"levelo://app?vid=729c2a8a-b899-4d67-ac44-060e04cca798","ios":"levelo://app?vid=729c2a8a-b899-4d67-ac44-060e04cca798"},"vehicle_type_id":"4","last_reported":1720963837,"current_range_meters":5600,"station_id":"ce4bhr12rcd13ifvqhqg","pricing_plan_id":"cebpf4jnsgd1na2vs0mg"},{"bike_id":"621a1240-dcf9-4073-bd49-41934f332358","system_id":"levelo_inurba_marseille","lat":43.32292,"lon":5.38264,"is_reserved":false,"is_disabled":false,"rental_uris":{"android":"levelo://app?vid=621a1240-dcf9-4073-bd49-41934f332358","ios":"levelo://app?vid=621a1240-dcf9-4073-bd49-41934f332358"},"vehicle_type_id":"4","last_reported":1720963837,"current_range_meters":21200,"station_id":"","pricing_plan_id":"cebpf4jnsgd1na2vs0mg"},{"bike_id":"f256566a-5114-4a38-a751-6ccbf3b4f30e","system_id":"levelo_inurba_marseille","lat":43.322872,"lon":5.382756,"is_reserved":false,"is_disabled":false,"rental_uris":{"android":"levelo://app?vid=f256566a-5114-4a38-a751-6ccbf3b4f30e","ios":"levelo://app?vid=f256566a-5114-4a38-a751-6ccbf3b4f30e"},"vehicle_type_id":"4","last_reported":1720963837,"current_range_meters":30000,"station_id":"ce4bhr12rcd13ifvqhqg","pricing_plan_id":"cebpf4jnsgd1na2vs0mg"},{"bike_id":"32a276b2-93b2-4b0f-8707-bab4128ae904","system_id":"levelo_inurba_marseille","lat":43.32291,"lon":5.38266,"is_reserved":false,"is_disabled":false,"rental_uris":{"android":"levelo://app?vid=32a276b2-93b2-4b0f-8707-bab4128ae904","ios":"levelo://app?vid=32a276b2-93b2-4b0f-8707-bab4128ae904"},"vehicle_type_id":"4","last_reported":1720963837,"current_range_meters":2800,"station_id":"ce4bhr12rcd13ifvqhqg","pricing_plan_id":"cebpf4jnsgd1na2vs0mg"},{"bike_id":"09a6b4a0-f7b3-48bc-b332-7dd9caf84890","system_id":"levelo_inurba_marseille","lat":43.322872,"lon":5.382756,"is_reserved":false,"is_disabled":false,"rental_uris":{"android":"levelo://app?vid=09a6b4a0-f7b3-48bc-b332-7dd9caf84890","ios":"levelo://app?vid=09a6b4a0-f7b3-48bc-b332-7dd9caf84890"},"vehicle_type_id":"4","last_reported":1720963837,"current_range_meters":29600,"station_id":"ce4bhr12rcd13ifvqhqg","pricing_plan_id":"cebpf4jnsgd1na2vs0mg"},{"bike_id":"162badee-c4a1-493a-95b2-afd641c8e25c","system_id":"levelo_inurba_marseille","lat":43.322872,"lon":5.382756,"is_reserved":false,"is_disabled":false,"rental_uris":{"android":"levelo://app?vid=162badee-c4a1-493a-95b2-afd641c8e25c","ios":"levelo://app?vid=162badee-c4a1-493a-95b2-afd641c8e25c"},"vehicle_type_id":"4","last_reported":1720963837,"current_range_meters":31600,"station_id":"ce4bhr12rcd13ifvqhqg","pricing_plan_id":"cebpf4jnsgd1na2vs0mg"},{"bike_id":"0f80cbdc-9e8f-4d83-8f7d-7ea9d18e67e7","system_id":"levelo_inurba_marseille","lat":43.32287,"lon":5.3828,"is_reserved":false,"is_disabled":false,"rental_uris":{"android":"levelo://app?vid=0f80cbdc-9e8f-4d83-8f7d-7ea9d18e67e7","ios":"levelo://app?vid=0f80cbdc-9e8f-4d83-8f7d-7ea9d18e67e7"},"vehicle_type_id":"4","last_reported":1720963837,"current_range_meters":0,"station_id":"ce4bhr12rcd13ifvqhqg","pricing_plan_id":"cebpf4jnsgd1na2vs0mg"},{"bike_id":"dda3811c-3e32-4e51-ac1e-8f90a33e6dce","system_id":"levelo_inurba_marseille","lat":43.311722,"lon":5.387247,"is_reserved":false,"is_disabled":false,"rental_uris":{"android":"levelo://app?vid=dda3811c-3e32-4e51-ac1e-8f90a33e6dce","ios":"levelo://app?vid=dda3811c-3e32-4e51-ac1e-8f90a33e6dce"},"vehicle_type_id":"4","last_reported":1720963837,"current_range_meters":21200,"station_id":"ce4bgv12rcd13ifvqcp0","pricing_plan_id":"cebpf4jnsgd1na2vs0mg"},{"bike_id":"010a681f-dffe-489e-b886-9d8093e3fab6","system_id":"levelo_inurba_marseille","lat":43.32303,"lon":5.38533,"is_reserved":false,"is_disabled":false,"rental_uris":{"android":"levelo://app?vid=010a681f-dffe-489e-b886-9d8093e3fab6","ios":"levelo://app?vid=010a681f-dffe-489e-b886-9d8093e3fab6"},"vehicle_type_id":"4","last_reported":1720963837,"current_range_meters":19200,"station_id":"","pricing_plan_id":"cebpf4jnsgd1na2vs0mg"},{"bike_id":"4e977fff-ad41-4542-afa2-97d0d9d7577b","system_id":"levelo_inurba_marseille","lat":43.29645,"lon":5.37477,"is_reserved":false,"is_disabled":false,"rental_uris":{"android":"levelo://app?vid=4e977fff-ad41-4542-afa2-97d0d9d7577b","ios":"levelo://app?vid=4e977fff-ad41-4542-afa2-97d0d9d7577b"},"vehicle_type_id":"4","last_reported":1720963837,"current_range_meters":27200,"station_id":"","pricing_plan_id":"cebpf4jnsgd1na2vs0mg"},{"bike_id":"9f7494d5-e9a1-4229-b760-b9a114bc56c3","system_id":"levelo_inurba_marseille","lat":43.30949,"lon":5.3903,"is_reserved":false,"is_disabled":false,"rental_uris":{"android":"levelo://app?vid=9f7494d5-e9a1-4229-b760-b9a114bc56c3","ios":"levelo://app?vid=9f7494d5-e9a1-4229-b760-b9a114bc56c3"},"vehicle_type_id":"4","last_reported":1720963837,"current_range_meters":30000,"station_id":"ce4bgup2rcd13ifvqco0","pricing_plan_id":"cebpf4jnsgd1na2vs0mg"},{"bike_id":"181cd291-5285-4073-b486-8164c4a23cab","system_id":"levelo_inurba_marseille","lat":43.317557,"lon":5.390173,"is_reserved":false,"is_disabled":false,"rental_uris":{"android":"levelo://app?vid=181cd291-5285-4073-b486-8164c4a23cab","ios":"levelo://app?vid=181cd291-5285-4073-b486-8164c4a23cab"},"vehicle_type_id":"4","last_reported":1720963837,"current_range_meters":12800,"station_id":"ce4bhqp2rcd13ifvqhng","pricing_plan_id":"cebpf4jnsgd1na2vs0mg"},{"bike_id":"f13acbb6-0f3e-46c7-aa7d-350ff0742e2b","system_id":"levelo_inurba_marseille","lat":43.298037,"lon":5.381066,"is_reserved":false,"is_disabled":false,"rental_uris":{"android":"levelo://app?vid=f13acbb6-0f3e-46c7-aa7d-350ff0742e2b","ios":"levelo://app?vid=f13acbb6-0f3e-46c7-aa7d-350ff0742e2b"},"vehicle_type_id":"4","last_reported":1720963837,"current_range_meters":0,"station_id":"ce4bgip2rcd13ifvqbb0","pricing_plan_id":"cebpf4jnsgd1na2vs0mg"},{"bike_id":"ba58602d-21b4-4c8b-b7df-b4bf2c326140","system_id":"levelo_inurba_marseille","lat":43.2958,"lon":5.37543,"is_reserved":false,"is_disabled":false,"rental_uris":{"android":"levelo://app?vid=ba58602d-21b4-4c8b-b7df-b4bf2c326140","ios":"levelo://app?vid=ba58602d-21b4-4c8b-b7df-b4bf2c326140"},"vehicle_type_id":"4","last_reported":1720963837,"current_range_meters":8400,"station_id":"","pricing_plan_id":"cebpf4jnsgd1na2vs0mg"},{"bike_id":"5003cd47-ee9f-4ba8-8507-e72baaefc584","system_id":"levelo_inurba_marseille","lat":43.2977,"lon":5.38112,"is_reserved":false,"is_disabled":false,"rental_uris":{"android":"levelo://app?vid=5003cd47-ee9f-4ba8-8507-e72baaefc584","ios":"levelo://app?vid=5003cd47-ee9f-4ba8-8507-e72baaefc584"},"vehicle_type_id":"4","last_reported":1720963837,"current_range_meters":0,"station_id":"","pricing_plan_id":"cebpf4jnsgd1na2vs0mg"},{"bike_id":"c1a76fd6-f844-4a5f-bb11-c48c3c1e1e8d","system_id":"levelo_inurba_marseille","lat":43.299707,"lon":5.384859,"is_reserved":false,"is_disabled":false,"rental_uris":{"android":"levelo://app?vid=c1a76fd6-f844-4a5f-bb11-c48c3c1e1e8d","ios":"levelo://app?vid=c1a76fd6-f844-4a5f-bb11-c48c3c1e1e8d"},"vehicle_type_id":"4","last_reported":1720963837,"current_range_meters":20800,"station_id":"ce4bgj92rcd13ifvqbd0","pricing_plan_id":"cebpf4jnsgd1na2vs0mg"},{"bike_id":"a51d0944-c33d-47c8-868f-1a7253e73770","system_id":"levelo_inurba_marseille","lat":43.29553,"lon":5.37723,"is_reserved":false,"is_disabled":false,"rental_uris":{"android":"levelo://app?vid=a51d0944-c33d-47c8-868f-1a7253e73770","ios":"levelo://app?vid=a51d0944-c33d-47c8-868f-1a7253e73770"},"vehicle_type_id":"4","last_reported":1720963837,"current_range_meters":14800,"station_id":"","pricing_plan_id":"cebpf4jnsgd1na2vs0mg"},{"bike_id":"6a71a23c-6448-463a-b8f4-0e4083b8ea3d","system_id":"levelo_inurba_marseille","lat":43.29405,"lon":5.37341,"is_reserved":false,"is_disabled":false,"rental_uris":{"android":"levelo://app?vid=6a71a23c-6448-463a-b8f4-0e4083b8ea3d","ios":"levelo://app?vid=6a71a23c-6448-463a-b8f4-0e4083b8ea3d"},"vehicle_type_id":"4","last_reported":1720963837,"current_range_meters":7600,"station_id":"","pricing_plan_id":"cebpf4jnsgd1na2vs0mg"},{"bike_id":"a52f5ef7-19ef-44d8-ba1d-17d5e90df0d8","system_id":"levelo_inurba_marseille","lat":43.32362,"lon":5.38882,"is_reserved":false,"is_disabled":false,"rental_uris":{"android":"levelo://app?vid=a52f5ef7-19ef-44d8-ba1d-17d5e90df0d8","ios":"levelo://app?vid=a52f5ef7-19ef-44d8-ba1d-17d5e90df0d8"},"vehicle_type_id":"4","last_reported":1720963837,"current_range_meters":0,"station_id":"ce4bhqp2rcd13ifvqhog","pricing_plan_id":"cebpf4jnsgd1na2vs0mg"},{"bike_id":"6ac0dd89-aff8-4f68-b1a8-e5583b566a4a","system_id":"levelo_inurba_marseille","lat":43.29602,"lon":5.381084,"is_reserved":false,"is_disabled":false,"rental_uris":{"android":"levelo://app?vid=6ac0dd89-aff8-4f68-b1a8-e5583b566a4a","ios":"levelo://app?vid=6ac0dd89-aff8-4f68-b1a8-e5583b566a4a"},"vehicle_type_id":"4","last_reported":1720963837,"current_range_meters":0,"station_id":"ce4bgl12rcd13ifvqbo0","pricing_plan_id":"cebpf4jnsgd1na2vs0mg"},{"bike_id":"3eb6e58d-9253-4165-8169-578363f3a111","system_id":"levelo_inurba_marseille","lat":43.292005,"lon":5.357875,"is_reserved":false,"is_disabled":false,"rental_uris":{"android":"levelo://app?vid=3eb6e58d-9253-4165-8169-578363f3a111","ios":"levelo://app?vid=3eb6e58d-9253-4165-8169-578363f3a111"},"vehicle_type_id":"4","last_reported":1720963837,"current_range_meters":0,"station_id":"ce4bhb12rcd13ifvqel0","pricing_plan_id":"cebpf4jnsgd1na2vs0mg"},{"bike_id":"d136e880-16f1-4a92-a249-4902493bd981","system_id":"levelo_inurba_marseille","lat":43.29535,"lon":5.38537,"is_reserved":false,"is_disabled":false,"rental_uris":{"android":"levelo://app?vid=d136e880-16f1-4a92-a249-4902493bd981","ios":"levelo://app?vid=d136e880-16f1-4a92-a249-4902493bd981"},"vehicle_type_id":"4","last_reported":1720963837,"current_range_meters":0,"station_id":"ce4bgih2rcd13ifvqba0","pricing_plan_id":"cebpf4jnsgd1na2vs0mg"},{"bike_id":"bf902939-bd13-4ff9-ad5d-1bef099b8358","system_id":"levelo_inurba_marseille","lat":43.290327,"lon":5.375711,"is_reserved":false,"is_disabled":false,"rental_uris":{"android":"levelo://app?vid=bf902939-bd13-4ff9-ad5d-1bef099b8358","ios":"levelo://app?vid=bf902939-bd13-4ff9-ad5d-1bef099b8358"},"vehicle_type_id":"4","last_reported":1720963837,"current_range_meters":0,"station_id":"ce4bh692rcd13ifvqe90","pricing_plan_id":"cebpf4jnsgd1na2vs0mg"},{"bike_id":"0efa57e6-199d-477b-b8f2-2c56c7459041","system_id":"levelo_inurba_marseille","lat":43.294162,"lon":5.386292,"is_reserved":false,"is_disabled":false,"rental_uris":{"android":"levelo://app?vid=0efa57e6-199d-477b-b8f2-2c56c7459041","ios":"levelo://app?vid=0efa57e6-199d-477b-b8f2-2c56c7459041"},"vehicle_type_id":"4","last_reported":1720963837,"current_range_meters":0,"station_id":"ce4bh2h2rcd13ifvqdh0","pricing_plan_id":"cebpf4jnsgd1na2vs0mg"},{"bike_id":"6f861881-337f-45b7-85fb-0423188115ff","system_id":"levelo_inurba_marseille","lat":43.289184,"lon":5.366408,"is_reserved":false,"is_disabled":false,"rental_uris":{"android":"levelo://app?vid=6f861881-337f-45b7-85fb-0423188115ff","ios":"levelo://app?vid=6f861881-337f-45b7-85fb-0423188115ff"},"vehicle_type_id":"4","last_reported":1720963837,"current_range_meters":0,"station_id":"ce4bhap2rcd13ifvqek0","pricing_plan_id":"cebpf4jnsgd1na2vs0mg"},{"bike_id":"c5afccb6-61d4-4bb6-b458-e6c8481d1d1e","system_id":"levelo_inurba_marseille","lat":43.29276,"lon":5.38435,"is_reserved":false,"is_disabled":false,"rental_uris":{"android":"levelo://app?vid=c5afccb6-61d4-4bb6-b458-e6c8481d1d1e","ios":"levelo://app?vid=c5afccb6-61d4-4bb6-b458-e6c8481d1d1e"},"vehicle_type_id":"4","last_reported":1720963837,"current_range_meters":0,"station_id":"ce4bh692rcd13ifvqea0","pricing_plan_id":"cebpf4jnsgd1na2vs0mg"},{"bike_id":"3d1637bf-cffe-4497-87d1-2778f57c4bab","system_id":"levelo_inurba_marseille","lat":43.29271,"lon":5.3844,"is_reserved":false,"is_disabled":false,"rental_uris":{"android":"levelo://app?vid=3d1637bf-cffe-4497-87d1-2778f57c4bab","ios":"levelo://app?vid=3d1637bf-cffe-4497-87d1-2778f57c4bab"},"vehicle_type_id":"4","last_reported":1720963837,"current_range_meters":19600,"station_id":"ce4bh692rcd13ifvqea0","pricing_plan_id":"cebpf4jnsgd1na2vs0mg"},{"bike_id":"84098465-2322-4389-8654-a57a04f15278","system_id":"levelo_inurba_marseille","lat":43.290103,"lon":5.356114,"is_reserved":false,"is_disabled":false,"rental_uris":{"android":"levelo://app?vid=84098465-2322-4389-8654-a57a04f15278","ios":"levelo://app?vid=84098465-2322-4389-8654-a57a04f15278"},"vehicle_type_id":"4","last_reported":1720963837,"current_range_meters":800,"station_id":"ce4bhb92rcd13ifvqen0","pricing_plan_id":"cebpf4jnsgd1na2vs0mg"},{"bike_id":"333de182-fea1-4fd9-b186-cb061b9b0740","system_id":"levelo_inurba_marseille","lat":43.290103,"lon":5.356114,"is_reserved":false,"is_disabled":false,"rental_uris":{"android":"levelo://app?vid=333de182-fea1-4fd9-b186-cb061b9b0740","ios":"levelo://app?vid=333de182-fea1-4fd9-b186-cb061b9b0740"},"vehicle_type_id":"4","last_reported":1720963837,"current_range_meters":14800,"station_id":"ce4bhb92rcd13ifvqen0","pricing_plan_id":"cebpf4jnsgd1na2vs0mg"},{"bike_id":"575a26be-0a56-4db5-a217-ea01f22f31c4","system_id":"levelo_inurba_marseille","lat":43.290103,"lon":5.356114,"is_reserved":false,"is_disabled":false,"rental_uris":{"android":"levelo://app?vid=575a26be-0a56-4db5-a217-ea01f22f31c4","ios":"levelo://app?vid=575a26be-0a56-4db5-a217-ea01f22f31c4"},"vehicle_type_id":"4","last_reported":1720963837,"current_range_meters":10800,"station_id":"ce4bhb92rcd13ifvqen0","pricing_plan_id":"cebpf4jnsgd1na2vs0mg"},{"bike_id":"bf406c3f-95a2-4062-a622-536f42fdac87","system_id":"levelo_inurba_marseille","lat":43.290103,"lon":5.356114,"is_reserved":false,"is_disabled":false,"rental_uris":{"android":"levelo://app?vid=bf406c3f-95a2-4062-a622-536f42fdac87","ios":"levelo://app?vid=bf406c3f-95a2-4062-a622-536f42fdac87"},"vehicle_type_id":"4","last_reported":1720963837,"current_range_meters":12000,"station_id":"ce4bhb92rcd13ifvqen0","pricing_plan_id":"cebpf4jnsgd1na2vs0mg"},{"bike_id":"e9701fb0-5df9-46f9-9da0-37166e0b7b06","system_id":"levelo_inurba_marseille","lat":43.32314,"lon":5.39691,"is_reserved":false,"is_disabled":false,"rental_uris":{"android":"levelo://app?vid=e9701fb0-5df9-46f9-9da0-37166e0b7b06","ios":"levelo://app?vid=e9701fb0-5df9-46f9-9da0-37166e0b7b06"},"vehicle_type_id":"4","last_reported":1720963837,"current_range_meters":5200,"station_id":"","pricing_plan_id":"cebpf4jnsgd1na2vs0mg"},{"bike_id":"56b0b194-2ae7-42a8-95b1-316e8c476d56","system_id":"levelo_inurba_marseille","lat":43.282744,"lon":5.350533,"is_reserved":false,"is_disabled":false,"rental_uris":{"android":"levelo://app?vid=56b0b194-2ae7-42a8-95b1-316e8c476d56","ios":"levelo://app?vid=56b0b194-2ae7-42a8-95b1-316e8c476d56"},"vehicle_type_id":"4","last_reported":1720963837,"current_range_meters":29600,"station_id":"ce4bhbp2rcd13ifvqerg","pricing_plan_id":"cebpf4jnsgd1na2vs0mg"},{"bike_id":"6357fb50-c7cc-4151-81f3-a2fc3422a5d1","system_id":"levelo_inurba_marseille","lat":43.33021,"lon":5.39037,"is_reserved":false,"is_disabled":false,"rental_uris":{"android":"levelo://app?vid=6357fb50-c7cc-4151-81f3-a2fc3422a5d1","ios":"levelo://app?vid=6357fb50-c7cc-4151-81f3-a2fc3422a5d1"},"vehicle_type_id":"4","last_reported":1720963837,"current_range_meters":6400,"station_id":"ce4bhr92rcd13ifvqhrg","pricing_plan_id":"cebpf4jnsgd1na2vs0mg"},{"bike_id":"f190ae04-3b98-478f-a246-3b7cec77cd94","system_id":"levelo_inurba_marseille","lat":43.28883,"lon":5.35971,"is_reserved":false,"is_disabled":false,"rental_uris":{"android":"levelo://app?vid=f190ae04-3b98-478f-a246-3b7cec77cd94","ios":"levelo://app?vid=f190ae04-3b98-478f-a246-3b7cec77cd94"},"vehicle_type_id":"4","last_reported":1720963837,"current_range_meters":13200,"station_id":"ce4bhu92rcd13ifvqi70","pricing_plan_id":"cebpf4jnsgd1na2vs0mg"},{"bike_id":"15e26ab3-467b-4f32-a5b4-66d37504cd19","system_id":"levelo_inurba_marseille","lat":43.330442,"lon":5.389148,"is_reserved":false,"is_disabled":false,"rental_uris":{"android":"levelo://app?vid=15e26ab3-467b-4f32-a5b4-66d37504cd19","ios":"levelo://app?vid=15e26ab3-467b-4f32-a5b4-66d37504cd19"},"vehicle_type_id":"4","last_reported":1720963837,"current_range_meters":22400,"station_id":"ce4bhr92rcd13ifvqhrg","pricing_plan_id":"cebpf4jnsgd1na2vs0mg"},{"bike_id":"ccb6e49f-94cc-48b9-8182-dd610de3722d","system_id":"levelo_inurba_marseille","lat":43.330442,"lon":5.389148,"is_reserved":false,"is_disabled":false,"rental_uris":{"android":"levelo://app?vid=ccb6e49f-94cc-48b9-8182-dd610de3722d","ios":"levelo://app?vid=ccb6e49f-94cc-48b9-8182-dd610de3722d"},"vehicle_type_id":"4","last_reported":1720963837,"current_range_meters":3600,"station_id":"ce4bhr92rcd13ifvqhrg","pricing_plan_id":"cebpf4jnsgd1na2vs0mg"},{"bike_id":"b86656eb-3ea8-41f1-b1c4-0156e67d4441","system_id":"levelo_inurba_marseille","lat":43.290283,"lon":5.381433,"is_reserved":false,"is_disabled":false,"rental_uris":{"android":"levelo://app?vid=b86656eb-3ea8-41f1-b1c4-0156e67d4441","ios":"levelo://app?vid=b86656eb-3ea8-41f1-b1c4-0156e67d4441"},"vehicle_type_id":"4","last_reported":1720963837,"current_range_meters":0,"station_id":"ce4bh4p2rcd13ifvqe1g","pricing_plan_id":"cebpf4jnsgd1na2vs0mg"},{"bike_id":"542940b3-ae80-4fed-ada3-8ed41eb63afe","system_id":"levelo_inurba_marseille","lat":43.2895,"lon":5.35488,"is_reserved":false,"is_disabled":false,"rental_uris":{"android":"levelo://app?vid=542940b3-ae80-4fed-ada3-8ed41eb63afe","ios":"levelo://app?vid=542940b3-ae80-4fed-ada3-8ed41eb63afe"},"vehicle_type_id":"4","last_reported":1720963837,"current_range_meters":10400,"station_id":"","pricing_plan_id":"cebpf4jnsgd1na2vs0mg"},{"bike_id":"7db14a83-5996-4107-aac5-8660c0fb36ae","system_id":"levelo_inurba_marseille","lat":43.337584,"lon":5.374721,"is_reserved":false,"is_disabled":false,"rental_uris":{"android":"levelo://app?vid=7db14a83-5996-4107-aac5-8660c0fb36ae","ios":"levelo://app?vid=7db14a83-5996-4107-aac5-8660c0fb36ae"},"vehicle_type_id":"4","last_reported":1720963837,"current_range_meters":18000,"station_id":"","pricing_plan_id":"cebpf4jnsgd1na2vs0mg"},{"bike_id":"2c101ebf-47bb-4075-9995-419fb34d5f57","system_id":"levelo_inurba_marseille","lat":43.33765,"lon":5.3747,"is_reserved":false,"is_disabled":false,"rental_uris":{"android":"levelo://app?vid=2c101ebf-47bb-4075-9995-419fb34d5f57","ios":"levelo://app?vid=2c101ebf-47bb-4075-9995-419fb34d5f57"},"vehicle_type_id":"4","last_reported":1720963837,"current_range_meters":29600,"station_id":"","pricing_plan_id":"cebpf4jnsgd1na2vs0mg"},{"bike_id":"e6537933-0eb1-41a8-b76a-584d0a7d4a3c","system_id":"levelo_inurba_marseille","lat":43.33766,"lon":5.37467,"is_reserved":false,"is_disabled":false,"rental_uris":{"android":"levelo://app?vid=e6537933-0eb1-41a8-b76a-584d0a7d4a3c","ios":"levelo://app?vid=e6537933-0eb1-41a8-b76a-584d0a7d4a3c"},"vehicle_type_id":"4","last_reported":1720963837,"current_range_meters":30400,"station_id":"","pricing_plan_id":"cebpf4jnsgd1na2vs0mg"},{"bike_id":"893b3f9e-8d19-4e89-b4e3-e6aa5e07ff06","system_id":"levelo_inurba_marseille","lat":43.33766,"lon":5.37471,"is_reserved":false,"is_disabled":false,"rental_uris":{"android":"levelo://app?vid=893b3f9e-8d19-4e89-b4e3-e6aa5e07ff06","ios":"levelo://app?vid=893b3f9e-8d19-4e89-b4e3-e6aa5e07ff06"},"vehicle_type_id":"4","last_reported":1720963837,"current_range_meters":26800,"station_id":"","pricing_plan_id":"cebpf4jnsgd1na2vs0mg"},{"bike_id":"37772fd2-0f82-4f52-ad98-1e17b9e6b7e2","system_id":"levelo_inurba_marseille","lat":43.33767,"lon":5.374711,"is_reserved":false,"is_disabled":false,"rental_uris":{"android":"levelo://app?vid=37772fd2-0f82-4f52-ad98-1e17b9e6b7e2","ios":"levelo://app?vid=37772fd2-0f82-4f52-ad98-1e17b9e6b7e2"},"vehicle_type_id":"4","last_reported":1720963837,"current_range_meters":20800,"station_id":"","pricing_plan_id":"cebpf4jnsgd1na2vs0mg"},{"bike_id":"cf958edf-a973-4ef8-838e-9cc8f1679483","system_id":"levelo_inurba_marseille","lat":43.33766,"lon":5.37478,"is_reserved":false,"is_disabled":false,"rental_uris":{"android":"levelo://app?vid=cf958edf-a973-4ef8-838e-9cc8f1679483","ios":"levelo://app?vid=cf958edf-a973-4ef8-838e-9cc8f1679483"},"vehicle_type_id":"4","last_reported":1720963837,"current_range_meters":14000,"station_id":"","pricing_plan_id":"cebpf4jnsgd1na2vs0mg"},{"bike_id":"bfbef46d-097c-4ecc-a4cf-db53c94b13b1","system_id":"levelo_inurba_marseille","lat":43.33767,"lon":5.37472,"is_reserved":false,"is_disabled":false,"rental_uris":{"android":"levelo://app?vid=bfbef46d-097c-4ecc-a4cf-db53c94b13b1","ios":"levelo://app?vid=bfbef46d-097c-4ecc-a4cf-db53c94b13b1"},"vehicle_type_id":"4","last_reported":1720963837,"current_range_meters":29600,"station_id":"","pricing_plan_id":"cebpf4jnsgd1na2vs0mg"},{"bike_id":"5cd2f239-467e-4111-8850-d9782eca2470","system_id":"levelo_inurba_marseille","lat":43.33767,"lon":5.37472,"is_reserved":false,"is_disabled":false,"rental_uris":{"android":"levelo://app?vid=5cd2f239-467e-4111-8850-d9782eca2470","ios":"levelo://app?vid=5cd2f239-467e-4111-8850-d9782eca2470"},"vehicle_type_id":"4","last_reported":1720963837,"current_range_meters":29600,"station_id":"","pricing_plan_id":"cebpf4jnsgd1na2vs0mg"},{"bike_id":"26f86cb7-ac0c-4cfd-84f1-3a9e9042360d","system_id":"levelo_inurba_marseille","lat":43.33767,"lon":5.37474,"is_reserved":false,"is_disabled":false,"rental_uris":{"android":"levelo://app?vid=26f86cb7-ac0c-4cfd-84f1-3a9e9042360d","ios":"levelo://app?vid=26f86cb7-ac0c-4cfd-84f1-3a9e9042360d"},"vehicle_type_id":"4","last_reported":1720963837,"current_range_meters":14800,"station_id":"","pricing_plan_id":"cebpf4jnsgd1na2vs0mg"},{"bike_id":"8f381f06-2b48-4b7f-9444-eca237a2fc44","system_id":"levelo_inurba_marseille","lat":43.291994,"lon":5.357886,"is_reserved":false,"is_disabled":false,"rental_uris":{"android":"levelo://app?vid=8f381f06-2b48-4b7f-9444-eca237a2fc44","ios":"levelo://app?vid=8f381f06-2b48-4b7f-9444-eca237a2fc44"},"vehicle_type_id":"4","last_reported":1720963837,"current_range_meters":25600,"station_id":"ce4bhb12rcd13ifvqel0","pricing_plan_id":"cebpf4jnsgd1na2vs0mg"},{"bike_id":"039a10e5-aed9-4f01-a151-04375f715c5b","system_id":"levelo_inurba_marseille","lat":43.33767,"lon":5.37478,"is_reserved":false,"is_disabled":false,"rental_uris":{"android":"levelo://app?vid=039a10e5-aed9-4f01-a151-04375f715c5b","ios":"levelo://app?vid=039a10e5-aed9-4f01-a151-04375f715c5b"},"vehicle_type_id":"4","last_reported":1720963837,"current_range_meters":24800,"station_id":"","pricing_plan_id":"cebpf4jnsgd1na2vs0mg"},{"bike_id":"e951615b-5573-4435-a7b6-8167ff6ade63","system_id":"levelo_inurba_marseille","lat":43.337685,"lon":5.374695,"is_reserved":false,"is_disabled":false,"rental_uris":{"android":"levelo://app?vid=e951615b-5573-4435-a7b6-8167ff6ade63","ios":"levelo://app?vid=e951615b-5573-4435-a7b6-8167ff6ade63"},"vehicle_type_id":"4","last_reported":1720963837,"current_range_meters":14400,"station_id":"","pricing_plan_id":"cebpf4jnsgd1na2vs0mg"},{"bike_id":"6005b925-bbeb-43fb-9a4b-148f3086b364","system_id":"levelo_inurba_marseille","lat":43.33767,"lon":5.37481,"is_reserved":false,"is_disabled":false,"rental_uris":{"android":"levelo://app?vid=6005b925-bbeb-43fb-9a4b-148f3086b364","ios":"levelo://app?vid=6005b925-bbeb-43fb-9a4b-148f3086b364"},"vehicle_type_id":"4","last_reported":1720963837,"current_range_meters":2800,"station_id":"","pricing_plan_id":"cebpf4jnsgd1na2vs0mg"},{"bike_id":"9641f142-48bc-49b9-9b2a-634a9b288110","system_id":"levelo_inurba_marseille","lat":43.33768,"lon":5.37476,"is_reserved":false,"is_disabled":false,"rental_uris":{"android":"levelo://app?vid=9641f142-48bc-49b9-9b2a-634a9b288110","ios":"levelo://app?vid=9641f142-48bc-49b9-9b2a-634a9b288110"},"vehicle_type_id":"4","last_reported":1720963837,"current_range_meters":21600,"station_id":"","pricing_plan_id":"cebpf4jnsgd1na2vs0mg"},{"bike_id":"0dd06392-f63f-44b8-af4f-590dfd121b02","system_id":"levelo_inurba_marseille","lat":43.33769,"lon":5.3747,"is_reserved":false,"is_disabled":false,"rental_uris":{"android":"levelo://app?vid=0dd06392-f63f-44b8-af4f-590dfd121b02","ios":"levelo://app?vid=0dd06392-f63f-44b8-af4f-590dfd121b02"},"vehicle_type_id":"4","last_reported":1720963837,"current_range_meters":6000,"station_id":"","pricing_plan_id":"cebpf4jnsgd1na2vs0mg"},{"bike_id":"b490573b-32d3-4854-ab3f-e801cde5a636","system_id":"levelo_inurba_marseille","lat":43.33769,"lon":5.37473,"is_reserved":false,"is_disabled":false,"rental_uris":{"android":"levelo://app?vid=b490573b-32d3-4854-ab3f-e801cde5a636","ios":"levelo://app?vid=b490573b-32d3-4854-ab3f-e801cde5a636"},"vehicle_type_id":"4","last_reported":1720963837,"current_range_meters":14800,"station_id":"","pricing_plan_id":"cebpf4jnsgd1na2vs0mg"},{"bike_id":"e880369d-9e45-4e17-b710-89d03f821f41","system_id":"levelo_inurba_marseille","lat":43.3377,"lon":5.3747,"is_reserved":false,"is_disabled":false,"rental_uris":{"android":"levelo://app?vid=e880369d-9e45-4e17-b710-89d03f821f41","ios":"levelo://app?vid=e880369d-9e45-4e17-b710-89d03f821f41"},"vehicle_type_id":"4","last_reported":1720963837,"current_range_meters":5600,"station_id":"","pricing_plan_id":"cebpf4jnsgd1na2vs0mg"},{"bike_id":"c67a12ba-5c42-41ae-847c-0956c8b147e5","system_id":"levelo_inurba_marseille","lat":43.3377,"lon":5.37471,"is_reserved":false,"is_disabled":false,"rental_uris":{"android":"levelo://app?vid=c67a12ba-5c42-41ae-847c-0956c8b147e5","ios":"levelo://app?vid=c67a12ba-5c42-41ae-847c-0956c8b147e5"},"vehicle_type_id":"4","last_reported":1720963837,"current_range_meters":13200,"station_id":"","pricing_plan_id":"cebpf4jnsgd1na2vs0mg"},{"bike_id":"cd48b539-8a8f-4ccd-a8aa-e74e2abaf1f5","system_id":"levelo_inurba_marseille","lat":43.3377,"lon":5.37472,"is_reserved":false,"is_disabled":false,"rental_uris":{"android":"levelo://app?vid=cd48b539-8a8f-4ccd-a8aa-e74e2abaf1f5","ios":"levelo://app?vid=cd48b539-8a8f-4ccd-a8aa-e74e2abaf1f5"},"vehicle_type_id":"4","last_reported":1720963837,"current_range_meters":24800,"station_id":"","pricing_plan_id":"cebpf4jnsgd1na2vs0mg"},{"bike_id":"02f0d131-963f-495a-beaf-edc5a91d6439","system_id":"levelo_inurba_marseille","lat":43.33771,"lon":5.37466,"is_reserved":false,"is_disabled":false,"rental_uris":{"android":"levelo://app?vid=02f0d131-963f-495a-beaf-edc5a91d6439","ios":"levelo://app?vid=02f0d131-963f-495a-beaf-edc5a91d6439"},"vehicle_type_id":"4","last_reported":1720963837,"current_range_meters":25600,"station_id":"","pricing_plan_id":"cebpf4jnsgd1na2vs0mg"},{"bike_id":"a005e922-b721-4196-b009-e1125dd6e3b2","system_id":"levelo_inurba_marseille","lat":43.33769,"lon":5.37479,"is_reserved":false,"is_disabled":false,"rental_uris":{"android":"levelo://app?vid=a005e922-b721-4196-b009-e1125dd6e3b2","ios":"levelo://app?vid=a005e922-b721-4196-b009-e1125dd6e3b2"},"vehicle_type_id":"4","last_reported":1720963837,"current_range_meters":29600,"station_id":"","pricing_plan_id":"cebpf4jnsgd1na2vs0mg"},{"bike_id":"5aae94a6-c440-4789-857e-46a54718fede","system_id":"levelo_inurba_marseille","lat":43.3377,"lon":5.37474,"is_reserved":false,"is_disabled":false,"rental_uris":{"android":"levelo://app?vid=5aae94a6-c440-4789-857e-46a54718fede","ios":"levelo://app?vid=5aae94a6-c440-4789-857e-46a54718fede"},"vehicle_type_id":"4","last_reported":1720963837,"current_range_meters":29600,"station_id":"","pricing_plan_id":"cebpf4jnsgd1na2vs0mg"},{"bike_id":"a7714764-2436-42f7-8089-0fc1ef357d42","system_id":"levelo_inurba_marseille","lat":43.3377,"lon":5.37474,"is_reserved":false,"is_disabled":false,"rental_uris":{"android":"levelo://app?vid=a7714764-2436-42f7-8089-0fc1ef357d42","ios":"levelo://app?vid=a7714764-2436-42f7-8089-0fc1ef357d42"},"vehicle_type_id":"4","last_reported":1720963837,"current_range_meters":0,"station_id":"","pricing_plan_id":"cebpf4jnsgd1na2vs0mg"},{"bike_id":"a73dad2b-dded-4096-b591-d9883c2ff43e","system_id":"levelo_inurba_marseille","lat":43.33772,"lon":5.37471,"is_reserved":false,"is_disabled":false,"rental_uris":{"android":"levelo://app?vid=a73dad2b-dded-4096-b591-d9883c2ff43e","ios":"levelo://app?vid=a73dad2b-dded-4096-b591-d9883c2ff43e"},"vehicle_type_id":"4","last_reported":1720963837,"current_range_meters":0,"station_id":"","pricing_plan_id":"cebpf4jnsgd1na2vs0mg"},{"bike_id":"d77e79b4-bbcc-4fb4-abd6-01e5d49b13f4","system_id":"levelo_inurba_marseille","lat":43.33771,"lon":5.37478,"is_reserved":false,"is_disabled":false,"rental_uris":{"android":"levelo://app?vid=d77e79b4-bbcc-4fb4-abd6-01e5d49b13f4","ios":"levelo://app?vid=d77e79b4-bbcc-4fb4-abd6-01e5d49b13f4"},"vehicle_type_id":"4","last_reported":1720963837,"current_range_meters":15200,"station_id":"","pricing_plan_id":"cebpf4jnsgd1na2vs0mg"},{"bike_id":"9e13c9a5-7387-424a-b4fb-1dc4dce029b5","system_id":"levelo_inurba_marseille","lat":43.33772,"lon":5.37473,"is_reserved":false,"is_disabled":false,"rental_uris":{"android":"levelo://app?vid=9e13c9a5-7387-424a-b4fb-1dc4dce029b5","ios":"levelo://app?vid=9e13c9a5-7387-424a-b4fb-1dc4dce029b5"},"vehicle_type_id":"4","last_reported":1720963837,"current_range_meters":25200,"station_id":"","pricing_plan_id":"cebpf4jnsgd1na2vs0mg"},{"bike_id":"ac9d66fe-9bf5-4789-93e4-8c7d750a082c","system_id":"levelo_inurba_marseille","lat":43.33773,"lon":5.37468,"is_reserved":false,"is_disabled":false,"rental_uris":{"android":"levelo://app?vid=ac9d66fe-9bf5-4789-93e4-8c7d750a082c","ios":"levelo://app?vid=ac9d66fe-9bf5-4789-93e4-8c7d750a082c"},"vehicle_type_id":"4","last_reported":1720963837,"current_range_meters":21200,"station_id":"","pricing_plan_id":"cebpf4jnsgd1na2vs0mg"},{"bike_id":"38b57823-eda1-4e58-a521-74a065ade509","system_id":"levelo_inurba_marseille","lat":43.33773,"lon":5.37469,"is_reserved":false,"is_disabled":false,"rental_uris":{"android":"levelo://app?vid=38b57823-eda1-4e58-a521-74a065ade509","ios":"levelo://app?vid=38b57823-eda1-4e58-a521-74a065ade509"},"vehicle_type_id":"4","last_reported":1720963837,"current_range_meters":24400,"station_id":"","pricing_plan_id":"cebpf4jnsgd1na2vs0mg"},{"bike_id":"39abbf07-2729-49b9-a62e-e135ca141c9b","system_id":"levelo_inurba_marseille","lat":43.33773,"lon":5.37471,"is_reserved":false,"is_disabled":false,"rental_uris":{"android":"levelo://app?vid=39abbf07-2729-49b9-a62e-e135ca141c9b","ios":"levelo://app?vid=39abbf07-2729-49b9-a62e-e135ca141c9b"},"vehicle_type_id":"4","last_reported":1720963837,"current_range_meters":21600,"station_id":"","pricing_plan_id":"cebpf4jnsgd1na2vs0mg"},{"bike_id":"80ff1c69-9419-4f4b-9d57-bf214620b8b3","system_id":"levelo_inurba_marseille","lat":43.33773,"lon":5.374716,"is_reserved":false,"is_disabled":false,"rental_uris":{"android":"levelo://app?vid=80ff1c69-9419-4f4b-9d57-bf214620b8b3","ios":"levelo://app?vid=80ff1c69-9419-4f4b-9d57-bf214620b8b3"},"vehicle_type_id":"4","last_reported":1720963837,"current_range_meters":5200,"station_id":"","pricing_plan_id":"cebpf4jnsgd1na2vs0mg"},{"bike_id":"ecca751a-c24b-4d06-bee9-480915f9bb4a","system_id":"levelo_inurba_marseille","lat":43.33774,"lon":5.37467,"is_reserved":false,"is_disabled":false,"rental_uris":{"android":"levelo://app?vid=ecca751a-c24b-4d06-bee9-480915f9bb4a","ios":"levelo://app?vid=ecca751a-c24b-4d06-bee9-480915f9bb4a"},"vehicle_type_id":"4","last_reported":1720963837,"current_range_meters":400,"station_id":"","pricing_plan_id":"cebpf4jnsgd1na2vs0mg"},{"bike_id":"a4701b34-a47a-4547-9be9-b5a6ebb6ef0f","system_id":"levelo_inurba_marseille","lat":43.33774,"lon":5.3747,"is_reserved":false,"is_disabled":false,"rental_uris":{"android":"levelo://app?vid=a4701b34-a47a-4547-9be9-b5a6ebb6ef0f","ios":"levelo://app?vid=a4701b34-a47a-4547-9be9-b5a6ebb6ef0f"},"vehicle_type_id":"4","last_reported":1720963837,"current_range_meters":16800,"station_id":"","pricing_plan_id":"cebpf4jnsgd1na2vs0mg"},{"bike_id":"0496dc13-34e3-45c2-af9a-f6e2516b223a","system_id":"levelo_inurba_marseille","lat":43.33773,"lon":5.37479,"is_reserved":false,"is_disabled":false,"rental_uris":{"android":"levelo://app?vid=0496dc13-34e3-45c2-af9a-f6e2516b223a","ios":"levelo://app?vid=0496dc13-34e3-45c2-af9a-f6e2516b223a"},"vehicle_type_id":"4","last_reported":1720963837,"current_range_meters":28800,"station_id":"","pricing_plan_id":"cebpf4jnsgd1na2vs0mg"},{"bike_id":"573b9d78-4adb-4e9e-b480-d279544660f2","system_id":"levelo_inurba_marseille","lat":43.33774,"lon":5.37474,"is_reserved":false,"is_disabled":false,"rental_uris":{"android":"levelo://app?vid=573b9d78-4adb-4e9e-b480-d279544660f2","ios":"levelo://app?vid=573b9d78-4adb-4e9e-b480-d279544660f2"},"vehicle_type_id":"4","last_reported":1720963837,"current_range_meters":8800,"station_id":"","pricing_plan_id":"cebpf4jnsgd1na2vs0mg"},{"bike_id":"45416cd9-028f-41b0-ac5a-269637c45e42","system_id":"levelo_inurba_marseille","lat":43.33774,"lon":5.37475,"is_reserved":false,"is_disabled":false,"rental_uris":{"android":"levelo://app?vid=45416cd9-028f-41b0-ac5a-269637c45e42","ios":"levelo://app?vid=45416cd9-028f-41b0-ac5a-269637c45e42"},"vehicle_type_id":"4","last_reported":1720963837,"current_range_meters":10000,"station_id":"","pricing_plan_id":"cebpf4jnsgd1na2vs0mg"},{"bike_id":"215d24e0-7b63-49a8-aed8-8b8c5a53b355","system_id":"levelo_inurba_marseille","lat":43.33774,"lon":5.37478,"is_reserved":false,"is_disabled":false,"rental_uris":{"android":"levelo://app?vid=215d24e0-7b63-49a8-aed8-8b8c5a53b355","ios":"levelo://app?vid=215d24e0-7b63-49a8-aed8-8b8c5a53b355"},"vehicle_type_id":"4","last_reported":1720963837,"current_range_meters":14000,"station_id":"","pricing_plan_id":"cebpf4jnsgd1na2vs0mg"},{"bike_id":"0146c428-cfdd-4a76-a91e-317ac3b8cedc","system_id":"levelo_inurba_marseille","lat":43.33775,"lon":5.37472,"is_reserved":false,"is_disabled":false,"rental_uris":{"android":"levelo://app?vid=0146c428-cfdd-4a76-a91e-317ac3b8cedc","ios":"levelo://app?vid=0146c428-cfdd-4a76-a91e-317ac3b8cedc"},"vehicle_type_id":"4","last_reported":1720963837,"current_range_meters":0,"station_id":"","pricing_plan_id":"cebpf4jnsgd1na2vs0mg"},{"bike_id":"2fa411ed-3fa9-4268-b414-c8e45152bf4d","system_id":"levelo_inurba_marseille","lat":43.33775,"lon":5.37473,"is_reserved":false,"is_disabled":false,"rental_uris":{"android":"levelo://app?vid=2fa411ed-3fa9-4268-b414-c8e45152bf4d","ios":"levelo://app?vid=2fa411ed-3fa9-4268-b414-c8e45152bf4d"},"vehicle_type_id":"4","last_reported":1720963837,"current_range_meters":14400,"station_id":"","pricing_plan_id":"cebpf4jnsgd1na2vs0mg"},{"bike_id":"db8d58e3-38a2-4c75-ae4a-e4abfcab3724","system_id":"levelo_inurba_marseille","lat":43.33775,"lon":5.37475,"is_reserved":false,"is_disabled":false,"rental_uris":{"android":"levelo://app?vid=db8d58e3-38a2-4c75-ae4a-e4abfcab3724","ios":"levelo://app?vid=db8d58e3-38a2-4c75-ae4a-e4abfcab3724"},"vehicle_type_id":"4","last_reported":1720963837,"current_range_meters":28800,"station_id":"","pricing_plan_id":"cebpf4jnsgd1na2vs0mg"},{"bike_id":"a5b64c84-5508-41ed-bc97-8b733f293107","system_id":"levelo_inurba_marseille","lat":43.33776,"lon":5.37471,"is_reserved":false,"is_disabled":false,"rental_uris":{"android":"levelo://app?vid=a5b64c84-5508-41ed-bc97-8b733f293107","ios":"levelo://app?vid=a5b64c84-5508-41ed-bc97-8b733f293107"},"vehicle_type_id":"4","last_reported":1720963837,"current_range_meters":24800,"station_id":"","pricing_plan_id":"cebpf4jnsgd1na2vs0mg"},{"bike_id":"60014351-6980-43c2-9516-117e9bc87905","system_id":"levelo_inurba_marseille","lat":43.33777,"lon":5.37474,"is_reserved":false,"is_disabled":false,"rental_uris":{"android":"levelo://app?vid=60014351-6980-43c2-9516-117e9bc87905","ios":"levelo://app?vid=60014351-6980-43c2-9516-117e9bc87905"},"vehicle_type_id":"4","last_reported":1720963837,"current_range_meters":15600,"station_id":"","pricing_plan_id":"cebpf4jnsgd1na2vs0mg"},{"bike_id":"0c80325e-daf1-446d-8059-bffa294c7e3e","system_id":"levelo_inurba_marseille","lat":43.33777,"lon":5.37474,"is_reserved":false,"is_disabled":false,"rental_uris":{"android":"levelo://app?vid=0c80325e-daf1-446d-8059-bffa294c7e3e","ios":"levelo://app?vid=0c80325e-daf1-446d-8059-bffa294c7e3e"},"vehicle_type_id":"4","last_reported":1720963837,"current_range_meters":22400,"station_id":"","pricing_plan_id":"cebpf4jnsgd1na2vs0mg"},{"bike_id":"7fe8718f-2ce5-43ca-bf2f-4cadfbd7a814","system_id":"levelo_inurba_marseille","lat":43.33778,"lon":5.37476,"is_reserved":false,"is_disabled":false,"rental_uris":{"android":"levelo://app?vid=7fe8718f-2ce5-43ca-bf2f-4cadfbd7a814","ios":"levelo://app?vid=7fe8718f-2ce5-43ca-bf2f-4cadfbd7a814"},"vehicle_type_id":"4","last_reported":1720963837,"current_range_meters":17600,"station_id":"","pricing_plan_id":"cebpf4jnsgd1na2vs0mg"},{"bike_id":"0d58fd1b-f1d1-4fc6-a4e4-51a623e9a871","system_id":"levelo_inurba_marseille","lat":43.33778,"lon":5.37483,"is_reserved":false,"is_disabled":false,"rental_uris":{"android":"levelo://app?vid=0d58fd1b-f1d1-4fc6-a4e4-51a623e9a871","ios":"levelo://app?vid=0d58fd1b-f1d1-4fc6-a4e4-51a623e9a871"},"vehicle_type_id":"4","last_reported":1720963837,"current_range_meters":31200,"station_id":"","pricing_plan_id":"cebpf4jnsgd1na2vs0mg"},{"bike_id":"c761b19e-877d-432b-bfa8-ed72a86a6759","system_id":"levelo_inurba_marseille","lat":43.33781,"lon":5.37473,"is_reserved":false,"is_disabled":false,"rental_uris":{"android":"levelo://app?vid=c761b19e-877d-432b-bfa8-ed72a86a6759","ios":"levelo://app?vid=c761b19e-877d-432b-bfa8-ed72a86a6759"},"vehicle_type_id":"4","last_reported":1720963837,"current_range_meters":1600,"station_id":"","pricing_plan_id":"cebpf4jnsgd1na2vs0mg"},{"bike_id":"51544219-3a97-477c-9642-d66a5be4ade3","system_id":"levelo_inurba_marseille","lat":43.33782,"lon":5.37494,"is_reserved":false,"is_disabled":false,"rental_uris":{"android":"levelo://app?vid=51544219-3a97-477c-9642-d66a5be4ade3","ios":"levelo://app?vid=51544219-3a97-477c-9642-d66a5be4ade3"},"vehicle_type_id":"4","last_reported":1720963837,"current_range_meters":18000,"station_id":"","pricing_plan_id":"cebpf4jnsgd1na2vs0mg"},{"bike_id":"69cb3bdd-3dd6-455d-8023-672c354c1188","system_id":"levelo_inurba_marseille","lat":43.28726,"lon":5.36087,"is_reserved":false,"is_disabled":false,"rental_uris":{"android":"levelo://app?vid=69cb3bdd-3dd6-455d-8023-672c354c1188","ios":"levelo://app?vid=69cb3bdd-3dd6-455d-8023-672c354c1188"},"vehicle_type_id":"4","last_reported":1720963837,"current_range_meters":0,"station_id":"cki0cbj6b192h4jlfktg","pricing_plan_id":"cebpf4jnsgd1na2vs0mg"},{"bike_id":"cbf1a6d9-df33-4b43-bfbe-c36ca77a2705","system_id":"levelo_inurba_marseille","lat":43.28727,"lon":5.36078,"is_reserved":false,"is_disabled":false,"rental_uris":{"android":"levelo://app?vid=cbf1a6d9-df33-4b43-bfbe-c36ca77a2705","ios":"levelo://app?vid=cbf1a6d9-df33-4b43-bfbe-c36ca77a2705"},"vehicle_type_id":"4","last_reported":1720963837,"current_range_meters":28400,"station_id":"cki0cbj6b192h4jlfktg","pricing_plan_id":"cebpf4jnsgd1na2vs0mg"},{"bike_id":"72a38ab6-2cde-4e10-a8a7-107867b1c489","system_id":"levelo_inurba_marseille","lat":43.289307,"lon":5.38406,"is_reserved":false,"is_disabled":false,"rental_uris":{"android":"levelo://app?vid=72a38ab6-2cde-4e10-a8a7-107867b1c489","ios":"levelo://app?vid=72a38ab6-2cde-4e10-a8a7-107867b1c489"},"vehicle_type_id":"4","last_reported":1720963837,"current_range_meters":400,"station_id":"ce4bh612rcd13ifvqe6g","pricing_plan_id":"cebpf4jnsgd1na2vs0mg"},{"bike_id":"1e17f5e2-9ba8-4d12-9ae9-b004de67f08e","system_id":"levelo_inurba_marseille","lat":43.290336,"lon":5.386425,"is_reserved":false,"is_disabled":false,"rental_uris":{"android":"levelo://app?vid=1e17f5e2-9ba8-4d12-9ae9-b004de67f08e","ios":"levelo://app?vid=1e17f5e2-9ba8-4d12-9ae9-b004de67f08e"},"vehicle_type_id":"4","last_reported":1720963837,"current_range_meters":2000,"station_id":"ce4bh4p2rcd13ifvqe0g","pricing_plan_id":"cebpf4jnsgd1na2vs0mg"},{"bike_id":"4c4a29f7-b83e-42d1-b26b-7f8ccae0d8df","system_id":"levelo_inurba_marseille","lat":43.28608,"lon":5.37069,"is_reserved":false,"is_disabled":false,"rental_uris":{"android":"levelo://app?vid=4c4a29f7-b83e-42d1-b26b-7f8ccae0d8df","ios":"levelo://app?vid=4c4a29f7-b83e-42d1-b26b-7f8ccae0d8df"},"vehicle_type_id":"4","last_reported":1720963837,"current_range_meters":0,"station_id":"ce4bht12rcd13ifvqi60","pricing_plan_id":"cebpf4jnsgd1na2vs0mg"},{"bike_id":"e4a6d93d-7143-43b8-ab74-a30c85404475","system_id":"levelo_inurba_marseille","lat":43.316828,"lon":5.404723,"is_reserved":false,"is_disabled":false,"rental_uris":{"android":"levelo://app?vid=e4a6d93d-7143-43b8-ab74-a30c85404475","ios":"levelo://app?vid=e4a6d93d-7143-43b8-ab74-a30c85404475"},"vehicle_type_id":"4","last_reported":1720963837,"current_range_meters":27200,"station_id":"ce4bh012rcd13ifvqd00","pricing_plan_id":"cebpf4jnsgd1na2vs0mg"},{"bike_id":"9e065eb8-2a21-4486-9e28-558d0583d090","system_id":"levelo_inurba_marseille","lat":43.3169,"lon":5.40474,"is_reserved":false,"is_disabled":false,"rental_uris":{"android":"levelo://app?vid=9e065eb8-2a21-4486-9e28-558d0583d090","ios":"levelo://app?vid=9e065eb8-2a21-4486-9e28-558d0583d090"},"vehicle_type_id":"4","last_reported":1720963837,"current_range_meters":8400,"station_id":"ce4bh012rcd13ifvqd00","pricing_plan_id":"cebpf4jnsgd1na2vs0mg"},{"bike_id":"dbf31f63-2199-413e-85ab-2a98d05af4fe","system_id":"levelo_inurba_marseille","lat":43.284538,"lon":5.358657,"is_reserved":false,"is_disabled":false,"rental_uris":{"android":"levelo://app?vid=dbf31f63-2199-413e-85ab-2a98d05af4fe","ios":"levelo://app?vid=dbf31f63-2199-413e-85ab-2a98d05af4fe"},"vehicle_type_id":"4","last_reported":1720963837,"current_range_meters":1200,"station_id":"ce4bhah2rcd13ifvqei0","pricing_plan_id":"cebpf4jnsgd1na2vs0mg"},{"bike_id":"3fd0c408-c4db-4539-aa51-c33212547fad","system_id":"levelo_inurba_marseille","lat":43.286231,"lon":5.351104,"is_reserved":false,"is_disabled":false,"rental_uris":{"android":"levelo://app?vid=3fd0c408-c4db-4539-aa51-c33212547fad","ios":"levelo://app?vid=3fd0c408-c4db-4539-aa51-c33212547fad"},"vehicle_type_id":"4","last_reported":1720963837,"current_range_meters":7200,"station_id":"ce4bhch2rcd13ifvqeug","pricing_plan_id":"cebpf4jnsgd1na2vs0mg"},{"bike_id":"57ad3ecf-8434-4e1d-8f3c-6f65951ca40c","system_id":"levelo_inurba_marseille","lat":43.28626,"lon":5.35096,"is_reserved":false,"is_disabled":false,"rental_uris":{"android":"levelo://app?vid=57ad3ecf-8434-4e1d-8f3c-6f65951ca40c","ios":"levelo://app?vid=57ad3ecf-8434-4e1d-8f3c-6f65951ca40c"},"vehicle_type_id":"4","last_reported":1720963837,"current_range_meters":25200,"station_id":"ce4bhch2rcd13ifvqeug","pricing_plan_id":"cebpf4jnsgd1na2vs0mg"},{"bike_id":"eb5e5c49-2f2f-4759-b011-07292d7e0d95","system_id":"levelo_inurba_marseille","lat":43.286216,"lon":5.351082,"is_reserved":false,"is_disabled":false,"rental_uris":{"android":"levelo://app?vid=eb5e5c49-2f2f-4759-b011-07292d7e0d95","ios":"levelo://app?vid=eb5e5c49-2f2f-4759-b011-07292d7e0d95"},"vehicle_type_id":"4","last_reported":1720963837,"current_range_meters":0,"station_id":"ce4bhch2rcd13ifvqeug","pricing_plan_id":"cebpf4jnsgd1na2vs0mg"},{"bike_id":"6187f62b-c178-4c1c-8b14-55f5f68aa3ed","system_id":"levelo_inurba_marseille","lat":43.2862,"lon":5.35113,"is_reserved":false,"is_disabled":false,"rental_uris":{"android":"levelo://app?vid=6187f62b-c178-4c1c-8b14-55f5f68aa3ed","ios":"levelo://app?vid=6187f62b-c178-4c1c-8b14-55f5f68aa3ed"},"vehicle_type_id":"4","last_reported":1720963837,"current_range_meters":4400,"station_id":"ce4bhch2rcd13ifvqeug","pricing_plan_id":"cebpf4jnsgd1na2vs0mg"},{"bike_id":"53c4d8fd-f678-4778-aa56-d12bc0894aa3","system_id":"levelo_inurba_marseille","lat":43.28619,"lon":5.35112,"is_reserved":false,"is_disabled":false,"rental_uris":{"android":"levelo://app?vid=53c4d8fd-f678-4778-aa56-d12bc0894aa3","ios":"levelo://app?vid=53c4d8fd-f678-4778-aa56-d12bc0894aa3"},"vehicle_type_id":"4","last_reported":1720963837,"current_range_meters":24400,"station_id":"ce4bhch2rcd13ifvqeug","pricing_plan_id":"cebpf4jnsgd1na2vs0mg"},{"bike_id":"47661d65-3c2b-4fbd-a2dc-5daeff0302b0","system_id":"levelo_inurba_marseille","lat":43.28618,"lon":5.35102,"is_reserved":false,"is_disabled":false,"rental_uris":{"android":"levelo://app?vid=47661d65-3c2b-4fbd-a2dc-5daeff0302b0","ios":"levelo://app?vid=47661d65-3c2b-4fbd-a2dc-5daeff0302b0"},"vehicle_type_id":"4","last_reported":1720963837,"current_range_meters":15200,"station_id":"ce4bhch2rcd13ifvqeug","pricing_plan_id":"cebpf4jnsgd1na2vs0mg"},{"bike_id":"9f151628-2ec8-43fb-b32c-6b802b5e0b29","system_id":"levelo_inurba_marseille","lat":43.28618,"lon":5.35101,"is_reserved":false,"is_disabled":false,"rental_uris":{"android":"levelo://app?vid=9f151628-2ec8-43fb-b32c-6b802b5e0b29","ios":"levelo://app?vid=9f151628-2ec8-43fb-b32c-6b802b5e0b29"},"vehicle_type_id":"4","last_reported":1720963837,"current_range_meters":2400,"station_id":"ce4bhch2rcd13ifvqeug","pricing_plan_id":"cebpf4jnsgd1na2vs0mg"},{"bike_id":"0daa8fa8-fda5-4a8c-b9d4-e94fddc63443","system_id":"levelo_inurba_marseille","lat":43.28616,"lon":5.35105,"is_reserved":false,"is_disabled":false,"rental_uris":{"android":"levelo://app?vid=0daa8fa8-fda5-4a8c-b9d4-e94fddc63443","ios":"levelo://app?vid=0daa8fa8-fda5-4a8c-b9d4-e94fddc63443"},"vehicle_type_id":"4","last_reported":1720963837,"current_range_meters":21600,"station_id":"ce4bhch2rcd13ifvqeug","pricing_plan_id":"cebpf4jnsgd1na2vs0mg"},{"bike_id":"07009214-663d-4945-a3f0-ebab9765bbfe","system_id":"levelo_inurba_marseille","lat":43.28616,"lon":5.35099,"is_reserved":false,"is_disabled":false,"rental_uris":{"android":"levelo://app?vid=07009214-663d-4945-a3f0-ebab9765bbfe","ios":"levelo://app?vid=07009214-663d-4945-a3f0-ebab9765bbfe"},"vehicle_type_id":"4","last_reported":1720963837,"current_range_meters":0,"station_id":"ce4bhch2rcd13ifvqeug","pricing_plan_id":"cebpf4jnsgd1na2vs0mg"},{"bike_id":"1af941dd-2e1f-41fa-b47f-8ca461f1d121","system_id":"levelo_inurba_marseille","lat":43.285856,"lon":5.350771,"is_reserved":false,"is_disabled":false,"rental_uris":{"android":"levelo://app?vid=1af941dd-2e1f-41fa-b47f-8ca461f1d121","ios":"levelo://app?vid=1af941dd-2e1f-41fa-b47f-8ca461f1d121"},"vehicle_type_id":"4","last_reported":1720963837,"current_range_meters":18800,"station_id":"ce4bhch2rcd13ifvqeug","pricing_plan_id":"cebpf4jnsgd1na2vs0mg"},{"bike_id":"1712ee5d-2e96-467f-9702-1101416cff64","system_id":"levelo_inurba_marseille","lat":43.285856,"lon":5.350771,"is_reserved":false,"is_disabled":false,"rental_uris":{"android":"levelo://app?vid=1712ee5d-2e96-467f-9702-1101416cff64","ios":"levelo://app?vid=1712ee5d-2e96-467f-9702-1101416cff64"},"vehicle_type_id":"4","last_reported":1720963837,"current_range_meters":13200,"station_id":"ce4bhch2rcd13ifvqeug","pricing_plan_id":"cebpf4jnsgd1na2vs0mg"},{"bike_id":"d9acc07b-b8f3-4a30-afd2-79fcef5dc600","system_id":"levelo_inurba_marseille","lat":43.28613,"lon":5.35103,"is_reserved":false,"is_disabled":false,"rental_uris":{"android":"levelo://app?vid=d9acc07b-b8f3-4a30-afd2-79fcef5dc600","ios":"levelo://app?vid=d9acc07b-b8f3-4a30-afd2-79fcef5dc600"},"vehicle_type_id":"4","last_reported":1720963837,"current_range_meters":28800,"station_id":"ce4bhch2rcd13ifvqeug","pricing_plan_id":"cebpf4jnsgd1na2vs0mg"},{"bike_id":"cfe42120-1e1a-4914-ad72-1061cd869678","system_id":"levelo_inurba_marseille","lat":43.28612,"lon":5.35105,"is_reserved":false,"is_disabled":false,"rental_uris":{"android":"levelo://app?vid=cfe42120-1e1a-4914-ad72-1061cd869678","ios":"levelo://app?vid=cfe42120-1e1a-4914-ad72-1061cd869678"},"vehicle_type_id":"4","last_reported":1720963837,"current_range_meters":1600,"station_id":"ce4bhch2rcd13ifvqeug","pricing_plan_id":"cebpf4jnsgd1na2vs0mg"},{"bike_id":"bb11de75-256c-4c4b-bfcf-6c25a7605f04","system_id":"levelo_inurba_marseille","lat":43.28613,"lon":5.351,"is_reserved":false,"is_disabled":false,"rental_uris":{"android":"levelo://app?vid=bb11de75-256c-4c4b-bfcf-6c25a7605f04","ios":"levelo://app?vid=bb11de75-256c-4c4b-bfcf-6c25a7605f04"},"vehicle_type_id":"4","last_reported":1720963837,"current_range_meters":7200,"station_id":"ce4bhch2rcd13ifvqeug","pricing_plan_id":"cebpf4jnsgd1na2vs0mg"},{"bike_id":"aea79c64-5d2f-4539-91c1-61008de31ec6","system_id":"levelo_inurba_marseille","lat":43.28611,"lon":5.35104,"is_reserved":false,"is_disabled":false,"rental_uris":{"android":"levelo://app?vid=aea79c64-5d2f-4539-91c1-61008de31ec6","ios":"levelo://app?vid=aea79c64-5d2f-4539-91c1-61008de31ec6"},"vehicle_type_id":"4","last_reported":1720963837,"current_range_meters":22800,"station_id":"ce4bhch2rcd13ifvqeug","pricing_plan_id":"cebpf4jnsgd1na2vs0mg"},{"bike_id":"caf44a1e-4739-4188-bc09-9e2686503fdb","system_id":"levelo_inurba_marseille","lat":43.295713,"lon":5.399639,"is_reserved":false,"is_disabled":false,"rental_uris":{"android":"levelo://app?vid=caf44a1e-4739-4188-bc09-9e2686503fdb","ios":"levelo://app?vid=caf44a1e-4739-4188-bc09-9e2686503fdb"},"vehicle_type_id":"4","last_reported":1720963837,"current_range_meters":0,"station_id":"ce4bh312rcd13ifvqdj0","pricing_plan_id":"cebpf4jnsgd1na2vs0mg"},{"bike_id":"6a0845c2-704d-4c20-a9f0-16afbd428233","system_id":"levelo_inurba_marseille","lat":43.319179,"lon":5.407725,"is_reserved":false,"is_disabled":false,"rental_uris":{"android":"levelo://app?vid=6a0845c2-704d-4c20-a9f0-16afbd428233","ios":"levelo://app?vid=6a0845c2-704d-4c20-a9f0-16afbd428233"},"vehicle_type_id":"4","last_reported":1720963837,"current_range_meters":12400,"station_id":"ce4bhq12rcd13ifvqhig","pricing_plan_id":"cebpf4jnsgd1na2vs0mg"},{"bike_id":"9333b8c1-0385-4eed-8d6e-70036366fa3c","system_id":"levelo_inurba_marseille","lat":43.33717,"lon":5.391857,"is_reserved":false,"is_disabled":false,"rental_uris":{"android":"levelo://app?vid=9333b8c1-0385-4eed-8d6e-70036366fa3c","ios":"levelo://app?vid=9333b8c1-0385-4eed-8d6e-70036366fa3c"},"vehicle_type_id":"4","last_reported":1720963837,"current_range_meters":30400,"station_id":"ce4bhr92rcd13ifvqhsg","pricing_plan_id":"cebpf4jnsgd1na2vs0mg"},{"bike_id":"d8a53db4-479e-4511-bee3-cbcbb80ffb8a","system_id":"levelo_inurba_marseille","lat":43.33717,"lon":5.391857,"is_reserved":false,"is_disabled":false,"rental_uris":{"android":"levelo://app?vid=d8a53db4-479e-4511-bee3-cbcbb80ffb8a","ios":"levelo://app?vid=d8a53db4-479e-4511-bee3-cbcbb80ffb8a"},"vehicle_type_id":"4","last_reported":1720963837,"current_range_meters":30000,"station_id":"ce4bhr92rcd13ifvqhsg","pricing_plan_id":"cebpf4jnsgd1na2vs0mg"},{"bike_id":"5b66c812-c312-4ef7-9677-78053920fa7f","system_id":"levelo_inurba_marseille","lat":43.337168,"lon":5.391825,"is_reserved":false,"is_disabled":false,"rental_uris":{"android":"levelo://app?vid=5b66c812-c312-4ef7-9677-78053920fa7f","ios":"levelo://app?vid=5b66c812-c312-4ef7-9677-78053920fa7f"},"vehicle_type_id":"4","last_reported":1720963837,"current_range_meters":30800,"station_id":"ce4bhr92rcd13ifvqhsg","pricing_plan_id":"cebpf4jnsgd1na2vs0mg"},{"bike_id":"ca370fc9-f07f-46ad-b105-ed3826d5870d","system_id":"levelo_inurba_marseille","lat":43.32342,"lon":5.40616,"is_reserved":false,"is_disabled":false,"rental_uris":{"android":"levelo://app?vid=ca370fc9-f07f-46ad-b105-ed3826d5870d","ios":"levelo://app?vid=ca370fc9-f07f-46ad-b105-ed3826d5870d"},"vehicle_type_id":"4","last_reported":1720963837,"current_range_meters":0,"station_id":"ce4bhq92rcd13ifvqhjg","pricing_plan_id":"cebpf4jnsgd1na2vs0mg"},{"bike_id":"2f9eeeac-76e8-4385-bc95-c4fdafc2b3f8","system_id":"levelo_inurba_marseille","lat":43.33717,"lon":5.391857,"is_reserved":false,"is_disabled":false,"rental_uris":{"android":"levelo://app?vid=2f9eeeac-76e8-4385-bc95-c4fdafc2b3f8","ios":"levelo://app?vid=2f9eeeac-76e8-4385-bc95-c4fdafc2b3f8"},"vehicle_type_id":"4","last_reported":1720963837,"current_range_meters":14000,"station_id":"ce4bhr92rcd13ifvqhsg","pricing_plan_id":"cebpf4jnsgd1na2vs0mg"},{"bike_id":"3669a729-98c2-47c5-ba33-8fdbe8723a14","system_id":"levelo_inurba_marseille","lat":43.33717,"lon":5.391857,"is_reserved":false,"is_disabled":false,"rental_uris":{"android":"levelo://app?vid=3669a729-98c2-47c5-ba33-8fdbe8723a14","ios":"levelo://app?vid=3669a729-98c2-47c5-ba33-8fdbe8723a14"},"vehicle_type_id":"4","last_reported":1720963837,"current_range_meters":24800,"station_id":"ce4bhr92rcd13ifvqhsg","pricing_plan_id":"cebpf4jnsgd1na2vs0mg"},{"bike_id":"21e4ef63-0a9d-476f-b956-f659d25c40c2","system_id":"levelo_inurba_marseille","lat":43.33725,"lon":5.39192,"is_reserved":false,"is_disabled":false,"rental_uris":{"android":"levelo://app?vid=21e4ef63-0a9d-476f-b956-f659d25c40c2","ios":"levelo://app?vid=21e4ef63-0a9d-476f-b956-f659d25c40c2"},"vehicle_type_id":"4","last_reported":1720963837,"current_range_meters":1600,"station_id":"ce4bhr92rcd13ifvqhsg","pricing_plan_id":"cebpf4jnsgd1na2vs0mg"},{"bike_id":"2d940ee5-88e2-47e7-becf-8a2178e98459","system_id":"levelo_inurba_marseille","lat":43.33717,"lon":5.391857,"is_reserved":false,"is_disabled":false,"rental_uris":{"android":"levelo://app?vid=2d940ee5-88e2-47e7-becf-8a2178e98459","ios":"levelo://app?vid=2d940ee5-88e2-47e7-becf-8a2178e98459"},"vehicle_type_id":"4","last_reported":1720963837,"current_range_meters":17600,"station_id":"ce4bhr92rcd13ifvqhsg","pricing_plan_id":"cebpf4jnsgd1na2vs0mg"},{"bike_id":"9b4a3431-d9a9-486f-b85d-d64fd29395c3","system_id":"levelo_inurba_marseille","lat":43.284793,"lon":5.384113,"is_reserved":false,"is_disabled":false,"rental_uris":{"android":"levelo://app?vid=9b4a3431-d9a9-486f-b85d-d64fd29395c3","ios":"levelo://app?vid=9b4a3431-d9a9-486f-b85d-d64fd29395c3"},"vehicle_type_id":"4","last_reported":1720963837,"current_range_meters":6000,"station_id":"ce4bh512rcd13ifvqe3g","pricing_plan_id":"cebpf4jnsgd1na2vs0mg"},{"bike_id":"c86248ee-b47f-4224-aad1-24935c6b1e9a","system_id":"levelo_inurba_marseille","lat":43.284793,"lon":5.384113,"is_reserved":false,"is_disabled":false,"rental_uris":{"android":"levelo://app?vid=c86248ee-b47f-4224-aad1-24935c6b1e9a","ios":"levelo://app?vid=c86248ee-b47f-4224-aad1-24935c6b1e9a"},"vehicle_type_id":"4","last_reported":1720963837,"current_range_meters":18000,"station_id":"ce4bh512rcd13ifvqe3g","pricing_plan_id":"cebpf4jnsgd1na2vs0mg"},{"bike_id":"409b0309-dba0-4fda-8db4-11c89240ee40","system_id":"levelo_inurba_marseille","lat":43.297946,"lon":5.404063,"is_reserved":false,"is_disabled":false,"rental_uris":{"android":"levelo://app?vid=409b0309-dba0-4fda-8db4-11c89240ee40","ios":"levelo://app?vid=409b0309-dba0-4fda-8db4-11c89240ee40"},"vehicle_type_id":"4","last_reported":1720963837,"current_range_meters":18800,"station_id":"ce4bh112rcd13ifvqd90","pricing_plan_id":"cebpf4jnsgd1na2vs0mg"},{"bike_id":"c10d6404-3180-45d7-ae3c-27b2c1d10870","system_id":"levelo_inurba_marseille","lat":43.2844,"lon":5.35008,"is_reserved":false,"is_disabled":false,"rental_uris":{"android":"levelo://app?vid=c10d6404-3180-45d7-ae3c-27b2c1d10870","ios":"levelo://app?vid=c10d6404-3180-45d7-ae3c-27b2c1d10870"},"vehicle_type_id":"4","last_reported":1720963837,"current_range_meters":0,"station_id":"ce4bhbh2rcd13ifvqepg","pricing_plan_id":"cebpf4jnsgd1na2vs0mg"},{"bike_id":"90a17226-1beb-40ee-bfdf-7be8f946e9ca","system_id":"levelo_inurba_marseille","lat":43.284214,"lon":5.349706,"is_reserved":false,"is_disabled":false,"rental_uris":{"android":"levelo://app?vid=90a17226-1beb-40ee-bfdf-7be8f946e9ca","ios":"levelo://app?vid=90a17226-1beb-40ee-bfdf-7be8f946e9ca"},"vehicle_type_id":"4","last_reported":1720963837,"current_range_meters":14000,"station_id":"ce4bhbh2rcd13ifvqepg","pricing_plan_id":"cebpf4jnsgd1na2vs0mg"},{"bike_id":"763b32b0-7aec-4989-bf7a-c49d65066a33","system_id":"levelo_inurba_marseille","lat":43.28433,"lon":5.35005,"is_reserved":false,"is_disabled":false,"rental_uris":{"android":"levelo://app?vid=763b32b0-7aec-4989-bf7a-c49d65066a33","ios":"levelo://app?vid=763b32b0-7aec-4989-bf7a-c49d65066a33"},"vehicle_type_id":"4","last_reported":1720963837,"current_range_meters":21600,"station_id":"ce4bhbh2rcd13ifvqepg","pricing_plan_id":"cebpf4jnsgd1na2vs0mg"},{"bike_id":"270afea8-a183-4446-b845-892ada318fe1","system_id":"levelo_inurba_marseille","lat":43.28432,"lon":5.35007,"is_reserved":false,"is_disabled":false,"rental_uris":{"android":"levelo://app?vid=270afea8-a183-4446-b845-892ada318fe1","ios":"levelo://app?vid=270afea8-a183-4446-b845-892ada318fe1"},"vehicle_type_id":"4","last_reported":1720963837,"current_range_meters":16400,"station_id":"ce4bhbh2rcd13ifvqepg","pricing_plan_id":"cebpf4jnsgd1na2vs0mg"},{"bike_id":"fbe0ad8a-2d0f-4f79-a24d-c29a4a91f5c8","system_id":"levelo_inurba_marseille","lat":43.28432,"lon":5.35003,"is_reserved":false,"is_disabled":false,"rental_uris":{"android":"levelo://app?vid=fbe0ad8a-2d0f-4f79-a24d-c29a4a91f5c8","ios":"levelo://app?vid=fbe0ad8a-2d0f-4f79-a24d-c29a4a91f5c8"},"vehicle_type_id":"4","last_reported":1720963837,"current_range_meters":24800,"station_id":"ce4bhbh2rcd13ifvqepg","pricing_plan_id":"cebpf4jnsgd1na2vs0mg"},{"bike_id":"a7215011-2f6b-4478-a10f-991990b3aaef","system_id":"levelo_inurba_marseille","lat":43.2843,"lon":5.35004,"is_reserved":false,"is_disabled":false,"rental_uris":{"android":"levelo://app?vid=a7215011-2f6b-4478-a10f-991990b3aaef","ios":"levelo://app?vid=a7215011-2f6b-4478-a10f-991990b3aaef"},"vehicle_type_id":"4","last_reported":1720963837,"current_range_meters":21200,"station_id":"ce4bhbh2rcd13ifvqepg","pricing_plan_id":"cebpf4jnsgd1na2vs0mg"},{"bike_id":"e61ee147-dc2c-4fbb-a2af-c261d2696ec7","system_id":"levelo_inurba_marseille","lat":43.284282,"lon":5.350028,"is_reserved":false,"is_disabled":false,"rental_uris":{"android":"levelo://app?vid=e61ee147-dc2c-4fbb-a2af-c261d2696ec7","ios":"levelo://app?vid=e61ee147-dc2c-4fbb-a2af-c261d2696ec7"},"vehicle_type_id":"4","last_reported":1720963837,"current_range_meters":15600,"station_id":"ce4bhbh2rcd13ifvqepg","pricing_plan_id":"cebpf4jnsgd1na2vs0mg"},{"bike_id":"7d220fb7-4fb4-4849-9491-ceca1cd35adb","system_id":"levelo_inurba_marseille","lat":43.284299,"lon":5.349961,"is_reserved":false,"is_disabled":false,"rental_uris":{"android":"levelo://app?vid=7d220fb7-4fb4-4849-9491-ceca1cd35adb","ios":"levelo://app?vid=7d220fb7-4fb4-4849-9491-ceca1cd35adb"},"vehicle_type_id":"4","last_reported":1720963837,"current_range_meters":20400,"station_id":"ce4bhbh2rcd13ifvqepg","pricing_plan_id":"cebpf4jnsgd1na2vs0mg"},{"bike_id":"193dab35-8aed-4bac-a404-65caec0c9515","system_id":"levelo_inurba_marseille","lat":43.284287,"lon":5.349997,"is_reserved":false,"is_disabled":false,"rental_uris":{"android":"levelo://app?vid=193dab35-8aed-4bac-a404-65caec0c9515","ios":"levelo://app?vid=193dab35-8aed-4bac-a404-65caec0c9515"},"vehicle_type_id":"4","last_reported":1720963837,"current_range_meters":8800,"station_id":"ce4bhbh2rcd13ifvqepg","pricing_plan_id":"cebpf4jnsgd1na2vs0mg"},{"bike_id":"5a84ac08-7ceb-4e85-b47f-bfe7a757153a","system_id":"levelo_inurba_marseille","lat":43.28427,"lon":5.35002,"is_reserved":false,"is_disabled":false,"rental_uris":{"android":"levelo://app?vid=5a84ac08-7ceb-4e85-b47f-bfe7a757153a","ios":"levelo://app?vid=5a84ac08-7ceb-4e85-b47f-bfe7a757153a"},"vehicle_type_id":"4","last_reported":1720963837,"current_range_meters":0,"station_id":"ce4bhbh2rcd13ifvqepg","pricing_plan_id":"cebpf4jnsgd1na2vs0mg"},{"bike_id":"dfb60529-0d3b-4721-9781-f724336ba9cf","system_id":"levelo_inurba_marseille","lat":43.284288,"lon":5.349945,"is_reserved":false,"is_disabled":false,"rental_uris":{"android":"levelo://app?vid=dfb60529-0d3b-4721-9781-f724336ba9cf","ios":"levelo://app?vid=dfb60529-0d3b-4721-9781-f724336ba9cf"},"vehicle_type_id":"4","last_reported":1720963837,"current_range_meters":6800,"station_id":"ce4bhbh2rcd13ifvqepg","pricing_plan_id":"cebpf4jnsgd1na2vs0mg"},{"bike_id":"38b724ae-2a4a-4095-98bc-55c29b9c9cac","system_id":"levelo_inurba_marseille","lat":43.28428,"lon":5.34996,"is_reserved":false,"is_disabled":false,"rental_uris":{"android":"levelo://app?vid=38b724ae-2a4a-4095-98bc-55c29b9c9cac","ios":"levelo://app?vid=38b724ae-2a4a-4095-98bc-55c29b9c9cac"},"vehicle_type_id":"4","last_reported":1720963837,"current_range_meters":0,"station_id":"ce4bhbh2rcd13ifvqepg","pricing_plan_id":"cebpf4jnsgd1na2vs0mg"},{"bike_id":"ea8686b0-b309-4882-b50e-3e508e6b878c","system_id":"levelo_inurba_marseille","lat":43.28427,"lon":5.34993,"is_reserved":false,"is_disabled":false,"rental_uris":{"android":"levelo://app?vid=ea8686b0-b309-4882-b50e-3e508e6b878c","ios":"levelo://app?vid=ea8686b0-b309-4882-b50e-3e508e6b878c"},"vehicle_type_id":"4","last_reported":1720963837,"current_range_meters":19600,"station_id":"ce4bhbh2rcd13ifvqepg","pricing_plan_id":"cebpf4jnsgd1na2vs0mg"},{"bike_id":"95cae070-be2e-4dab-a480-92239297be99","system_id":"levelo_inurba_marseille","lat":43.28425,"lon":5.34996,"is_reserved":false,"is_disabled":false,"rental_uris":{"android":"levelo://app?vid=95cae070-be2e-4dab-a480-92239297be99","ios":"levelo://app?vid=95cae070-be2e-4dab-a480-92239297be99"},"vehicle_type_id":"4","last_reported":1720963837,"current_range_meters":0,"station_id":"ce4bhbh2rcd13ifvqepg","pricing_plan_id":"cebpf4jnsgd1na2vs0mg"},{"bike_id":"0ebcb4f4-1c10-419b-a3a3-e35118b23014","system_id":"levelo_inurba_marseille","lat":43.28423,"lon":5.35001,"is_reserved":false,"is_disabled":false,"rental_uris":{"android":"levelo://app?vid=0ebcb4f4-1c10-419b-a3a3-e35118b23014","ios":"levelo://app?vid=0ebcb4f4-1c10-419b-a3a3-e35118b23014"},"vehicle_type_id":"4","last_reported":1720963837,"current_range_meters":13200,"station_id":"ce4bhbh2rcd13ifvqepg","pricing_plan_id":"cebpf4jnsgd1na2vs0mg"},{"bike_id":"f31a7fcb-c824-456a-b343-9600913a7fe4","system_id":"levelo_inurba_marseille","lat":43.28424,"lon":5.34996,"is_reserved":false,"is_disabled":false,"rental_uris":{"android":"levelo://app?vid=f31a7fcb-c824-456a-b343-9600913a7fe4","ios":"levelo://app?vid=f31a7fcb-c824-456a-b343-9600913a7fe4"},"vehicle_type_id":"4","last_reported":1720963837,"current_range_meters":15600,"station_id":"ce4bhbh2rcd13ifvqepg","pricing_plan_id":"cebpf4jnsgd1na2vs0mg"},{"bike_id":"291377bf-d41f-479a-99c8-6cfd89dc83a0","system_id":"levelo_inurba_marseille","lat":43.28423,"lon":5.34998,"is_reserved":false,"is_disabled":false,"rental_uris":{"android":"levelo://app?vid=291377bf-d41f-479a-99c8-6cfd89dc83a0","ios":"levelo://app?vid=291377bf-d41f-479a-99c8-6cfd89dc83a0"},"vehicle_type_id":"4","last_reported":1720963837,"current_range_meters":5200,"station_id":"ce4bhbh2rcd13ifvqepg","pricing_plan_id":"cebpf4jnsgd1na2vs0mg"},{"bike_id":"f383cb99-4d6c-47ad-bde2-fbf695866dcd","system_id":"levelo_inurba_marseille","lat":43.284776,"lon":5.385603,"is_reserved":false,"is_disabled":false,"rental_uris":{"android":"levelo://app?vid=f383cb99-4d6c-47ad-bde2-fbf695866dcd","ios":"levelo://app?vid=f383cb99-4d6c-47ad-bde2-fbf695866dcd"},"vehicle_type_id":"4","last_reported":1720963837,"current_range_meters":3600,"station_id":"ce4bh8p2rcd13ifvqeb0","pricing_plan_id":"cebpf4jnsgd1na2vs0mg"},{"bike_id":"a064037b-1b8c-4116-aac7-913b27888595","system_id":"levelo_inurba_marseille","lat":43.2842,"lon":5.35006,"is_reserved":false,"is_disabled":false,"rental_uris":{"android":"levelo://app?vid=a064037b-1b8c-4116-aac7-913b27888595","ios":"levelo://app?vid=a064037b-1b8c-4116-aac7-913b27888595"},"vehicle_type_id":"4","last_reported":1720963837,"current_range_meters":10400,"station_id":"ce4bhbh2rcd13ifvqepg","pricing_plan_id":"cebpf4jnsgd1na2vs0mg"},{"bike_id":"5f84eab2-ce4f-4c6d-8cc3-1fb53881f6bc","system_id":"levelo_inurba_marseille","lat":43.28425,"lon":5.349888,"is_reserved":false,"is_disabled":false,"rental_uris":{"android":"levelo://app?vid=5f84eab2-ce4f-4c6d-8cc3-1fb53881f6bc","ios":"levelo://app?vid=5f84eab2-ce4f-4c6d-8cc3-1fb53881f6bc"},"vehicle_type_id":"4","last_reported":1720963837,"current_range_meters":18400,"station_id":"ce4bhbh2rcd13ifvqepg","pricing_plan_id":"cebpf4jnsgd1na2vs0mg"},{"bike_id":"7d5c57eb-330e-41c1-b3f0-e52f9e3f1452","system_id":"levelo_inurba_marseille","lat":43.2842,"lon":5.34997,"is_reserved":false,"is_disabled":false,"rental_uris":{"android":"levelo://app?vid=7d5c57eb-330e-41c1-b3f0-e52f9e3f1452","ios":"levelo://app?vid=7d5c57eb-330e-41c1-b3f0-e52f9e3f1452"},"vehicle_type_id":"4","last_reported":1720963837,"current_range_meters":14000,"station_id":"ce4bhbh2rcd13ifvqepg","pricing_plan_id":"cebpf4jnsgd1na2vs0mg"},{"bike_id":"60c304c5-2a80-4886-936f-9e2b52ce8884","system_id":"levelo_inurba_marseille","lat":43.28421,"lon":5.34993,"is_reserved":false,"is_disabled":false,"rental_uris":{"android":"levelo://app?vid=60c304c5-2a80-4886-936f-9e2b52ce8884","ios":"levelo://app?vid=60c304c5-2a80-4886-936f-9e2b52ce8884"},"vehicle_type_id":"4","last_reported":1720963837,"current_range_meters":12000,"station_id":"ce4bhbh2rcd13ifvqepg","pricing_plan_id":"cebpf4jnsgd1na2vs0mg"},{"bike_id":"f44a9a7b-ecc0-4ef1-8015-c720daae4150","system_id":"levelo_inurba_marseille","lat":43.284218,"lon":5.349885,"is_reserved":false,"is_disabled":false,"rental_uris":{"android":"levelo://app?vid=f44a9a7b-ecc0-4ef1-8015-c720daae4150","ios":"levelo://app?vid=f44a9a7b-ecc0-4ef1-8015-c720daae4150"},"vehicle_type_id":"4","last_reported":1720963837,"current_range_meters":20800,"station_id":"ce4bhbh2rcd13ifvqepg","pricing_plan_id":"cebpf4jnsgd1na2vs0mg"},{"bike_id":"e240e81a-61c7-45e2-b26b-77d61d7de3ef","system_id":"levelo_inurba_marseille","lat":43.28419,"lon":5.34992,"is_reserved":false,"is_disabled":false,"rental_uris":{"android":"levelo://app?vid=e240e81a-61c7-45e2-b26b-77d61d7de3ef","ios":"levelo://app?vid=e240e81a-61c7-45e2-b26b-77d61d7de3ef"},"vehicle_type_id":"4","last_reported":1720963837,"current_range_meters":17600,"station_id":"ce4bhbh2rcd13ifvqepg","pricing_plan_id":"cebpf4jnsgd1na2vs0mg"},{"bike_id":"f6b81db8-d326-46e6-bee5-9dc6aa6d5853","system_id":"levelo_inurba_marseille","lat":43.28419,"lon":5.34992,"is_reserved":false,"is_disabled":false,"rental_uris":{"android":"levelo://app?vid=f6b81db8-d326-46e6-bee5-9dc6aa6d5853","ios":"levelo://app?vid=f6b81db8-d326-46e6-bee5-9dc6aa6d5853"},"vehicle_type_id":"4","last_reported":1720963837,"current_range_meters":14400,"station_id":"ce4bhbh2rcd13ifvqepg","pricing_plan_id":"cebpf4jnsgd1na2vs0mg"},{"bike_id":"c228bc66-fe5a-47b2-98c1-c9391d9778bb","system_id":"levelo_inurba_marseille","lat":43.284196,"lon":5.349894,"is_reserved":false,"is_disabled":false,"rental_uris":{"android":"levelo://app?vid=c228bc66-fe5a-47b2-98c1-c9391d9778bb","ios":"levelo://app?vid=c228bc66-fe5a-47b2-98c1-c9391d9778bb"},"vehicle_type_id":"4","last_reported":1720963837,"current_range_meters":6800,"station_id":"ce4bhbh2rcd13ifvqepg","pricing_plan_id":"cebpf4jnsgd1na2vs0mg"},{"bike_id":"5fcde6ee-df2b-4e3f-a526-a9996b70842d","system_id":"levelo_inurba_marseille","lat":43.284178,"lon":5.349926,"is_reserved":false,"is_disabled":false,"rental_uris":{"android":"levelo://app?vid=5fcde6ee-df2b-4e3f-a526-a9996b70842d","ios":"levelo://app?vid=5fcde6ee-df2b-4e3f-a526-a9996b70842d"},"vehicle_type_id":"4","last_reported":1720963837,"current_range_meters":28400,"station_id":"ce4bhbh2rcd13ifvqepg","pricing_plan_id":"cebpf4jnsgd1na2vs0mg"},{"bike_id":"f9367ce1-7441-4f39-8581-46b18cfa850d","system_id":"levelo_inurba_marseille","lat":43.2842,"lon":5.34981,"is_reserved":false,"is_disabled":false,"rental_uris":{"android":"levelo://app?vid=f9367ce1-7441-4f39-8581-46b18cfa850d","ios":"levelo://app?vid=f9367ce1-7441-4f39-8581-46b18cfa850d"},"vehicle_type_id":"4","last_reported":1720963837,"current_range_meters":20800,"station_id":"ce4bhbh2rcd13ifvqepg","pricing_plan_id":"cebpf4jnsgd1na2vs0mg"},{"bike_id":"edcf8327-6877-42b2-a05c-2144ca25a51d","system_id":"levelo_inurba_marseille","lat":43.284154,"lon":5.349951,"is_reserved":false,"is_disabled":false,"rental_uris":{"android":"levelo://app?vid=edcf8327-6877-42b2-a05c-2144ca25a51d","ios":"levelo://app?vid=edcf8327-6877-42b2-a05c-2144ca25a51d"},"vehicle_type_id":"4","last_reported":1720963837,"current_range_meters":22800,"station_id":"ce4bhbh2rcd13ifvqepg","pricing_plan_id":"cebpf4jnsgd1na2vs0mg"},{"bike_id":"7a2ae285-52ba-47d7-a2e6-9e4d6f4d4813","system_id":"levelo_inurba_marseille","lat":43.284169,"lon":5.349901,"is_reserved":false,"is_disabled":false,"rental_uris":{"android":"levelo://app?vid=7a2ae285-52ba-47d7-a2e6-9e4d6f4d4813","ios":"levelo://app?vid=7a2ae285-52ba-47d7-a2e6-9e4d6f4d4813"},"vehicle_type_id":"4","last_reported":1720963837,"current_range_meters":27600,"station_id":"ce4bhbh2rcd13ifvqepg","pricing_plan_id":"cebpf4jnsgd1na2vs0mg"},{"bike_id":"07658237-8ba8-4c50-98c0-65e66860c90a","system_id":"levelo_inurba_marseille","lat":43.28419,"lon":5.34982,"is_reserved":false,"is_disabled":false,"rental_uris":{"android":"levelo://app?vid=07658237-8ba8-4c50-98c0-65e66860c90a","ios":"levelo://app?vid=07658237-8ba8-4c50-98c0-65e66860c90a"},"vehicle_type_id":"4","last_reported":1720963837,"current_range_meters":7200,"station_id":"ce4bhbh2rcd13ifvqepg","pricing_plan_id":"cebpf4jnsgd1na2vs0mg"},{"bike_id":"cce7bcc5-4077-4637-b583-0ac93c0b1117","system_id":"levelo_inurba_marseille","lat":43.28419,"lon":5.3498,"is_reserved":false,"is_disabled":false,"rental_uris":{"android":"levelo://app?vid=cce7bcc5-4077-4637-b583-0ac93c0b1117","ios":"levelo://app?vid=cce7bcc5-4077-4637-b583-0ac93c0b1117"},"vehicle_type_id":"4","last_reported":1720963837,"current_range_meters":0,"station_id":"ce4bhbh2rcd13ifvqepg","pricing_plan_id":"cebpf4jnsgd1na2vs0mg"},{"bike_id":"ed7053b2-3db4-405c-8485-9b429ea67116","system_id":"levelo_inurba_marseille","lat":43.284217,"lon":5.349697,"is_reserved":false,"is_disabled":false,"rental_uris":{"android":"levelo://app?vid=ed7053b2-3db4-405c-8485-9b429ea67116","ios":"levelo://app?vid=ed7053b2-3db4-405c-8485-9b429ea67116"},"vehicle_type_id":"4","last_reported":1720963837,"current_range_meters":30400,"station_id":"ce4bhbh2rcd13ifvqepg","pricing_plan_id":"cebpf4jnsgd1na2vs0mg"},{"bike_id":"8babb939-66c3-4de2-8426-47b191e7d343","system_id":"levelo_inurba_marseille","lat":43.284164,"lon":5.34987,"is_reserved":false,"is_disabled":false,"rental_uris":{"android":"levelo://app?vid=8babb939-66c3-4de2-8426-47b191e7d343","ios":"levelo://app?vid=8babb939-66c3-4de2-8426-47b191e7d343"},"vehicle_type_id":"4","last_reported":1720963837,"current_range_meters":26000,"station_id":"ce4bhbh2rcd13ifvqepg","pricing_plan_id":"cebpf4jnsgd1na2vs0mg"},{"bike_id":"c9d5e622-6a2a-489b-98d9-67bbd0fe5f64","system_id":"levelo_inurba_marseille","lat":43.284151,"lon":5.349889,"is_reserved":false,"is_disabled":false,"rental_uris":{"android":"levelo://app?vid=c9d5e622-6a2a-489b-98d9-67bbd0fe5f64","ios":"levelo://app?vid=c9d5e622-6a2a-489b-98d9-67bbd0fe5f64"},"vehicle_type_id":"4","last_reported":1720963837,"current_range_meters":22000,"station_id":"ce4bhbh2rcd13ifvqepg","pricing_plan_id":"cebpf4jnsgd1na2vs0mg"},{"bike_id":"924e87e9-625a-4bdd-9f83-68779c490bc4","system_id":"levelo_inurba_marseille","lat":43.28413,"lon":5.34995,"is_reserved":false,"is_disabled":false,"rental_uris":{"android":"levelo://app?vid=924e87e9-625a-4bdd-9f83-68779c490bc4","ios":"levelo://app?vid=924e87e9-625a-4bdd-9f83-68779c490bc4"},"vehicle_type_id":"4","last_reported":1720963837,"current_range_meters":23200,"station_id":"ce4bhbh2rcd13ifvqepg","pricing_plan_id":"cebpf4jnsgd1na2vs0mg"},{"bike_id":"c8c9e84d-58ce-40b5-b967-1f4df6cd6a43","system_id":"levelo_inurba_marseille","lat":43.28418,"lon":5.34978,"is_reserved":false,"is_disabled":false,"rental_uris":{"android":"levelo://app?vid=c8c9e84d-58ce-40b5-b967-1f4df6cd6a43","ios":"levelo://app?vid=c8c9e84d-58ce-40b5-b967-1f4df6cd6a43"},"vehicle_type_id":"4","last_reported":1720963837,"current_range_meters":0,"station_id":"ce4bhbh2rcd13ifvqepg","pricing_plan_id":"cebpf4jnsgd1na2vs0mg"},{"bike_id":"26d87dce-7561-4d0b-8e2a-66835935546a","system_id":"levelo_inurba_marseille","lat":43.284113,"lon":5.349945,"is_reserved":false,"is_disabled":false,"rental_uris":{"android":"levelo://app?vid=26d87dce-7561-4d0b-8e2a-66835935546a","ios":"levelo://app?vid=26d87dce-7561-4d0b-8e2a-66835935546a"},"vehicle_type_id":"4","last_reported":1720963837,"current_range_meters":28400,"station_id":"ce4bhbh2rcd13ifvqepg","pricing_plan_id":"cebpf4jnsgd1na2vs0mg"},{"bike_id":"668744d5-9663-4ce0-9e8f-b0827f6db6df","system_id":"levelo_inurba_marseille","lat":43.28414,"lon":5.34985,"is_reserved":false,"is_disabled":false,"rental_uris":{"android":"levelo://app?vid=668744d5-9663-4ce0-9e8f-b0827f6db6df","ios":"levelo://app?vid=668744d5-9663-4ce0-9e8f-b0827f6db6df"},"vehicle_type_id":"4","last_reported":1720963837,"current_range_meters":26400,"station_id":"ce4bhbh2rcd13ifvqepg","pricing_plan_id":"cebpf4jnsgd1na2vs0mg"},{"bike_id":"0f94f804-0b60-4c14-a957-78df120854db","system_id":"levelo_inurba_marseille","lat":43.284214,"lon":5.349706,"is_reserved":false,"is_disabled":false,"rental_uris":{"android":"levelo://app?vid=0f94f804-0b60-4c14-a957-78df120854db","ios":"levelo://app?vid=0f94f804-0b60-4c14-a957-78df120854db"},"vehicle_type_id":"4","last_reported":1720963837,"current_range_meters":27600,"station_id":"ce4bhbh2rcd13ifvqepg","pricing_plan_id":"cebpf4jnsgd1na2vs0mg"},{"bike_id":"f8a1e576-697a-47b6-aafb-738b501fb8c9","system_id":"levelo_inurba_marseille","lat":43.27618,"lon":5.361009,"is_reserved":false,"is_disabled":false,"rental_uris":{"android":"levelo://app?vid=f8a1e576-697a-47b6-aafb-738b501fb8c9","ios":"levelo://app?vid=f8a1e576-697a-47b6-aafb-738b501fb8c9"},"vehicle_type_id":"4","last_reported":1720963837,"current_range_meters":8000,"station_id":"ce4bgj92rcd13ifvqbe0","pricing_plan_id":"cebpf4jnsgd1na2vs0mg"},{"bike_id":"6dcf0e40-1f8a-4cdd-a4be-3747e8ecd99c","system_id":"levelo_inurba_marseille","lat":43.29134,"lon":5.39964,"is_reserved":false,"is_disabled":false,"rental_uris":{"android":"levelo://app?vid=6dcf0e40-1f8a-4cdd-a4be-3747e8ecd99c","ios":"levelo://app?vid=6dcf0e40-1f8a-4cdd-a4be-3747e8ecd99c"},"vehicle_type_id":"4","last_reported":1720963837,"current_range_meters":0,"station_id":"","pricing_plan_id":"cebpf4jnsgd1na2vs0mg"},{"bike_id":"2466a04b-fda2-42c8-a0e7-1800c5c97e6b","system_id":"levelo_inurba_marseille","lat":43.282754,"lon":5.350519,"is_reserved":false,"is_disabled":false,"rental_uris":{"android":"levelo://app?vid=2466a04b-fda2-42c8-a0e7-1800c5c97e6b","ios":"levelo://app?vid=2466a04b-fda2-42c8-a0e7-1800c5c97e6b"},"vehicle_type_id":"4","last_reported":1720963837,"current_range_meters":400,"station_id":"ce4bhbp2rcd13ifvqerg","pricing_plan_id":"cebpf4jnsgd1na2vs0mg"},{"bike_id":"d0755d86-eaa8-4780-a238-fbd5b128576c","system_id":"levelo_inurba_marseille","lat":43.28281,"lon":5.35081,"is_reserved":false,"is_disabled":false,"rental_uris":{"android":"levelo://app?vid=d0755d86-eaa8-4780-a238-fbd5b128576c","ios":"levelo://app?vid=d0755d86-eaa8-4780-a238-fbd5b128576c"},"vehicle_type_id":"4","last_reported":1720963837,"current_range_meters":16000,"station_id":"ce4bhbp2rcd13ifvqerg","pricing_plan_id":"cebpf4jnsgd1na2vs0mg"},{"bike_id":"417ff5df-c020-467d-aa52-a06ceb75cb7c","system_id":"levelo_inurba_marseille","lat":43.28278,"lon":5.35091,"is_reserved":false,"is_disabled":false,"rental_uris":{"android":"levelo://app?vid=417ff5df-c020-467d-aa52-a06ceb75cb7c","ios":"levelo://app?vid=417ff5df-c020-467d-aa52-a06ceb75cb7c"},"vehicle_type_id":"4","last_reported":1720963837,"current_range_meters":16000,"station_id":"ce4bhbp2rcd13ifvqerg","pricing_plan_id":"cebpf4jnsgd1na2vs0mg"},{"bike_id":"6c9508c6-6fe9-4923-bbe8-f78e363c9689","system_id":"levelo_inurba_marseille","lat":43.2828,"lon":5.35082,"is_reserved":false,"is_disabled":false,"rental_uris":{"android":"levelo://app?vid=6c9508c6-6fe9-4923-bbe8-f78e363c9689","ios":"levelo://app?vid=6c9508c6-6fe9-4923-bbe8-f78e363c9689"},"vehicle_type_id":"4","last_reported":1720963837,"current_range_meters":0,"station_id":"ce4bhbp2rcd13ifvqerg","pricing_plan_id":"cebpf4jnsgd1na2vs0mg"},{"bike_id":"2a2bdb86-312b-43c1-b06d-66ca1cd425eb","system_id":"levelo_inurba_marseille","lat":43.28279,"lon":5.35077,"is_reserved":false,"is_disabled":false,"rental_uris":{"android":"levelo://app?vid=2a2bdb86-312b-43c1-b06d-66ca1cd425eb","ios":"levelo://app?vid=2a2bdb86-312b-43c1-b06d-66ca1cd425eb"},"vehicle_type_id":"4","last_reported":1720963837,"current_range_meters":5200,"station_id":"ce4bhbp2rcd13ifvqerg","pricing_plan_id":"cebpf4jnsgd1na2vs0mg"},{"bike_id":"5b42a13b-d0c0-48cd-8f3e-ef73fd7e9eac","system_id":"levelo_inurba_marseille","lat":43.28277,"lon":5.35081,"is_reserved":false,"is_disabled":false,"rental_uris":{"android":"levelo://app?vid=5b42a13b-d0c0-48cd-8f3e-ef73fd7e9eac","ios":"levelo://app?vid=5b42a13b-d0c0-48cd-8f3e-ef73fd7e9eac"},"vehicle_type_id":"4","last_reported":1720963837,"current_range_meters":6400,"station_id":"ce4bhbp2rcd13ifvqerg","pricing_plan_id":"cebpf4jnsgd1na2vs0mg"},{"bike_id":"d7da123e-b628-49f4-ba80-e3b7474ae84b","system_id":"levelo_inurba_marseille","lat":43.28273,"lon":5.35093,"is_reserved":false,"is_disabled":false,"rental_uris":{"android":"levelo://app?vid=d7da123e-b628-49f4-ba80-e3b7474ae84b","ios":"levelo://app?vid=d7da123e-b628-49f4-ba80-e3b7474ae84b"},"vehicle_type_id":"4","last_reported":1720963837,"current_range_meters":18400,"station_id":"ce4bhbp2rcd13ifvqerg","pricing_plan_id":"cebpf4jnsgd1na2vs0mg"},{"bike_id":"07a7ad88-7321-4ca5-92d8-6de5a2fc9573","system_id":"levelo_inurba_marseille","lat":43.282744,"lon":5.350533,"is_reserved":false,"is_disabled":false,"rental_uris":{"android":"levelo://app?vid=07a7ad88-7321-4ca5-92d8-6de5a2fc9573","ios":"levelo://app?vid=07a7ad88-7321-4ca5-92d8-6de5a2fc9573"},"vehicle_type_id":"4","last_reported":1720963837,"current_range_meters":1600,"station_id":"ce4bhbp2rcd13ifvqerg","pricing_plan_id":"cebpf4jnsgd1na2vs0mg"},{"bike_id":"4bfac175-d4db-424d-a395-645380a587e4","system_id":"levelo_inurba_marseille","lat":43.282744,"lon":5.350533,"is_reserved":false,"is_disabled":false,"rental_uris":{"android":"levelo://app?vid=4bfac175-d4db-424d-a395-645380a587e4","ios":"levelo://app?vid=4bfac175-d4db-424d-a395-645380a587e4"},"vehicle_type_id":"4","last_reported":1720963837,"current_range_meters":2000,"station_id":"ce4bhbp2rcd13ifvqerg","pricing_plan_id":"cebpf4jnsgd1na2vs0mg"},{"bike_id":"abffaf50-a8bb-4570-9d99-73b343f6a7f3","system_id":"levelo_inurba_marseille","lat":43.282744,"lon":5.350533,"is_reserved":false,"is_disabled":false,"rental_uris":{"android":"levelo://app?vid=abffaf50-a8bb-4570-9d99-73b343f6a7f3","ios":"levelo://app?vid=abffaf50-a8bb-4570-9d99-73b343f6a7f3"},"vehicle_type_id":"4","last_reported":1720963837,"current_range_meters":10400,"station_id":"ce4bhbp2rcd13ifvqerg","pricing_plan_id":"cebpf4jnsgd1na2vs0mg"},{"bike_id":"2e31e344-9988-4add-bda9-4eb64a549f46","system_id":"levelo_inurba_marseille","lat":43.28272,"lon":5.35091,"is_reserved":false,"is_disabled":false,"rental_uris":{"android":"levelo://app?vid=2e31e344-9988-4add-bda9-4eb64a549f46","ios":"levelo://app?vid=2e31e344-9988-4add-bda9-4eb64a549f46"},"vehicle_type_id":"4","last_reported":1720963837,"current_range_meters":22000,"station_id":"ce4bhbp2rcd13ifvqerg","pricing_plan_id":"cebpf4jnsgd1na2vs0mg"},{"bike_id":"e524d065-7f31-4e40-8e80-cd063cb35c43","system_id":"levelo_inurba_marseille","lat":43.28276,"lon":5.35076,"is_reserved":false,"is_disabled":false,"rental_uris":{"android":"levelo://app?vid=e524d065-7f31-4e40-8e80-cd063cb35c43","ios":"levelo://app?vid=e524d065-7f31-4e40-8e80-cd063cb35c43"},"vehicle_type_id":"4","last_reported":1720963837,"current_range_meters":18400,"station_id":"ce4bhbp2rcd13ifvqerg","pricing_plan_id":"cebpf4jnsgd1na2vs0mg"},{"bike_id":"66c0ef56-7761-4942-9c94-a18b19498e2d","system_id":"levelo_inurba_marseille","lat":43.282772,"lon":5.350708,"is_reserved":false,"is_disabled":false,"rental_uris":{"android":"levelo://app?vid=66c0ef56-7761-4942-9c94-a18b19498e2d","ios":"levelo://app?vid=66c0ef56-7761-4942-9c94-a18b19498e2d"},"vehicle_type_id":"4","last_reported":1720963837,"current_range_meters":23200,"station_id":"ce4bhbp2rcd13ifvqerg","pricing_plan_id":"cebpf4jnsgd1na2vs0mg"},{"bike_id":"24c177d8-3935-467c-8f6b-d7aeac46e0b9","system_id":"levelo_inurba_marseille","lat":43.28278,"lon":5.35066,"is_reserved":false,"is_disabled":false,"rental_uris":{"android":"levelo://app?vid=24c177d8-3935-467c-8f6b-d7aeac46e0b9","ios":"levelo://app?vid=24c177d8-3935-467c-8f6b-d7aeac46e0b9"},"vehicle_type_id":"4","last_reported":1720963837,"current_range_meters":14400,"station_id":"ce4bhbp2rcd13ifvqerg","pricing_plan_id":"cebpf4jnsgd1na2vs0mg"},{"bike_id":"a369d4c0-35e5-4f31-9055-3f88e8f1eb4e","system_id":"levelo_inurba_marseille","lat":43.28276,"lon":5.35072,"is_reserved":false,"is_disabled":false,"rental_uris":{"android":"levelo://app?vid=a369d4c0-35e5-4f31-9055-3f88e8f1eb4e","ios":"levelo://app?vid=a369d4c0-35e5-4f31-9055-3f88e8f1eb4e"},"vehicle_type_id":"4","last_reported":1720963837,"current_range_meters":17600,"station_id":"ce4bhbp2rcd13ifvqerg","pricing_plan_id":"cebpf4jnsgd1na2vs0mg"},{"bike_id":"5d5b866e-46d5-451b-b8d6-8db21ada7aec","system_id":"levelo_inurba_marseille","lat":43.28275,"lon":5.35071,"is_reserved":false,"is_disabled":false,"rental_uris":{"android":"levelo://app?vid=5d5b866e-46d5-451b-b8d6-8db21ada7aec","ios":"levelo://app?vid=5d5b866e-46d5-451b-b8d6-8db21ada7aec"},"vehicle_type_id":"4","last_reported":1720963837,"current_range_meters":21600,"station_id":"ce4bhbp2rcd13ifvqerg","pricing_plan_id":"cebpf4jnsgd1na2vs0mg"},{"bike_id":"0b75d021-4037-48d8-8dc2-80597a1c2394","system_id":"levelo_inurba_marseille","lat":43.28273,"lon":5.35077,"is_reserved":false,"is_disabled":false,"rental_uris":{"android":"levelo://app?vid=0b75d021-4037-48d8-8dc2-80597a1c2394","ios":"levelo://app?vid=0b75d021-4037-48d8-8dc2-80597a1c2394"},"vehicle_type_id":"4","last_reported":1720963837,"current_range_meters":0,"station_id":"ce4bhbp2rcd13ifvqerg","pricing_plan_id":"cebpf4jnsgd1na2vs0mg"},{"bike_id":"881ab08a-95ac-4133-bb5b-6d9269223c7a","system_id":"levelo_inurba_marseille","lat":43.282744,"lon":5.350533,"is_reserved":false,"is_disabled":false,"rental_uris":{"android":"levelo://app?vid=881ab08a-95ac-4133-bb5b-6d9269223c7a","ios":"levelo://app?vid=881ab08a-95ac-4133-bb5b-6d9269223c7a"},"vehicle_type_id":"4","last_reported":1720963837,"current_range_meters":22800,"station_id":"ce4bhbp2rcd13ifvqerg","pricing_plan_id":"cebpf4jnsgd1na2vs0mg"},{"bike_id":"e1c312ca-b772-4e9b-955c-3639e5b4c385","system_id":"levelo_inurba_marseille","lat":43.282744,"lon":5.350533,"is_reserved":false,"is_disabled":false,"rental_uris":{"android":"levelo://app?vid=e1c312ca-b772-4e9b-955c-3639e5b4c385","ios":"levelo://app?vid=e1c312ca-b772-4e9b-955c-3639e5b4c385"},"vehicle_type_id":"4","last_reported":1720963837,"current_range_meters":10800,"station_id":"ce4bhbp2rcd13ifvqerg","pricing_plan_id":"cebpf4jnsgd1na2vs0mg"},{"bike_id":"d470f690-dd5c-4e87-ac1d-f2d3c1a0297c","system_id":"levelo_inurba_marseille","lat":43.28276,"lon":5.35064,"is_reserved":false,"is_disabled":false,"rental_uris":{"android":"levelo://app?vid=d470f690-dd5c-4e87-ac1d-f2d3c1a0297c","ios":"levelo://app?vid=d470f690-dd5c-4e87-ac1d-f2d3c1a0297c"},"vehicle_type_id":"4","last_reported":1720963837,"current_range_meters":3200,"station_id":"ce4bhbp2rcd13ifvqerg","pricing_plan_id":"cebpf4jnsgd1na2vs0mg"},{"bike_id":"8273199c-f514-4288-8d32-629a18d7080e","system_id":"levelo_inurba_marseille","lat":43.28272,"lon":5.35075,"is_reserved":false,"is_disabled":false,"rental_uris":{"android":"levelo://app?vid=8273199c-f514-4288-8d32-629a18d7080e","ios":"levelo://app?vid=8273199c-f514-4288-8d32-629a18d7080e"},"vehicle_type_id":"4","last_reported":1720963837,"current_range_meters":18400,"station_id":"ce4bhbp2rcd13ifvqerg","pricing_plan_id":"cebpf4jnsgd1na2vs0mg"},{"bike_id":"625e792d-581e-40b7-b1ce-618196e377d9","system_id":"levelo_inurba_marseille","lat":43.28274,"lon":5.35068,"is_reserved":false,"is_disabled":false,"rental_uris":{"android":"levelo://app?vid=625e792d-581e-40b7-b1ce-618196e377d9","ios":"levelo://app?vid=625e792d-581e-40b7-b1ce-618196e377d9"},"vehicle_type_id":"4","last_reported":1720963837,"current_range_meters":1600,"station_id":"ce4bhbp2rcd13ifvqerg","pricing_plan_id":"cebpf4jnsgd1na2vs0mg"},{"bike_id":"cfed4a43-1f85-4b9a-ab86-3e898f5e4889","system_id":"levelo_inurba_marseille","lat":43.282744,"lon":5.350533,"is_reserved":false,"is_disabled":false,"rental_uris":{"android":"levelo://app?vid=cfed4a43-1f85-4b9a-ab86-3e898f5e4889","ios":"levelo://app?vid=cfed4a43-1f85-4b9a-ab86-3e898f5e4889"},"vehicle_type_id":"4","last_reported":1720963837,"current_range_meters":21600,"station_id":"ce4bhbp2rcd13ifvqerg","pricing_plan_id":"cebpf4jnsgd1na2vs0mg"},{"bike_id":"df56a5ff-3a5f-4d76-93dd-2235f1de93c8","system_id":"levelo_inurba_marseille","lat":43.282692,"lon":5.35082,"is_reserved":false,"is_disabled":false,"rental_uris":{"android":"levelo://app?vid=df56a5ff-3a5f-4d76-93dd-2235f1de93c8","ios":"levelo://app?vid=df56a5ff-3a5f-4d76-93dd-2235f1de93c8"},"vehicle_type_id":"4","last_reported":1720963837,"current_range_meters":14400,"station_id":"ce4bhbp2rcd13ifvqerg","pricing_plan_id":"cebpf4jnsgd1na2vs0mg"},{"bike_id":"c1461e8c-fecc-4bbe-893a-1b03ff27084e","system_id":"levelo_inurba_marseille","lat":43.28269,"lon":5.3508,"is_reserved":false,"is_disabled":false,"rental_uris":{"android":"levelo://app?vid=c1461e8c-fecc-4bbe-893a-1b03ff27084e","ios":"levelo://app?vid=c1461e8c-fecc-4bbe-893a-1b03ff27084e"},"vehicle_type_id":"4","last_reported":1720963837,"current_range_meters":8400,"station_id":"ce4bhbp2rcd13ifvqerg","pricing_plan_id":"cebpf4jnsgd1na2vs0mg"},{"bike_id":"98ebd564-c46f-49f7-8c44-02f075a0e457","system_id":"levelo_inurba_marseille","lat":43.282744,"lon":5.350533,"is_reserved":false,"is_disabled":false,"rental_uris":{"android":"levelo://app?vid=98ebd564-c46f-49f7-8c44-02f075a0e457","ios":"levelo://app?vid=98ebd564-c46f-49f7-8c44-02f075a0e457"},"vehicle_type_id":"4","last_reported":1720963837,"current_range_meters":26000,"station_id":"ce4bhbp2rcd13ifvqerg","pricing_plan_id":"cebpf4jnsgd1na2vs0mg"},{"bike_id":"8922cc42-83a0-4db9-a82b-3d79f6a1eb22","system_id":"levelo_inurba_marseille","lat":43.28268,"lon":5.35081,"is_reserved":false,"is_disabled":false,"rental_uris":{"android":"levelo://app?vid=8922cc42-83a0-4db9-a82b-3d79f6a1eb22","ios":"levelo://app?vid=8922cc42-83a0-4db9-a82b-3d79f6a1eb22"},"vehicle_type_id":"4","last_reported":1720963837,"current_range_meters":6400,"station_id":"ce4bhbp2rcd13ifvqerg","pricing_plan_id":"cebpf4jnsgd1na2vs0mg"},{"bike_id":"946f6797-f164-4c3d-9fb2-a0753f49641f","system_id":"levelo_inurba_marseille","lat":43.282688,"lon":5.350777,"is_reserved":false,"is_disabled":false,"rental_uris":{"android":"levelo://app?vid=946f6797-f164-4c3d-9fb2-a0753f49641f","ios":"levelo://app?vid=946f6797-f164-4c3d-9fb2-a0753f49641f"},"vehicle_type_id":"4","last_reported":1720963837,"current_range_meters":10400,"station_id":"ce4bhbp2rcd13ifvqerg","pricing_plan_id":"cebpf4jnsgd1na2vs0mg"},{"bike_id":"77609728-85ad-45c6-a046-6c41d82180cf","system_id":"levelo_inurba_marseille","lat":43.282744,"lon":5.350533,"is_reserved":false,"is_disabled":false,"rental_uris":{"android":"levelo://app?vid=77609728-85ad-45c6-a046-6c41d82180cf","ios":"levelo://app?vid=77609728-85ad-45c6-a046-6c41d82180cf"},"vehicle_type_id":"4","last_reported":1720963837,"current_range_meters":10800,"station_id":"ce4bhbp2rcd13ifvqerg","pricing_plan_id":"cebpf4jnsgd1na2vs0mg"},{"bike_id":"862bcc08-845e-4ca0-99d7-0d4305cc722b","system_id":"levelo_inurba_marseille","lat":43.282744,"lon":5.350533,"is_reserved":false,"is_disabled":false,"rental_uris":{"android":"levelo://app?vid=862bcc08-845e-4ca0-99d7-0d4305cc722b","ios":"levelo://app?vid=862bcc08-845e-4ca0-99d7-0d4305cc722b"},"vehicle_type_id":"4","last_reported":1720963837,"current_range_meters":31200,"station_id":"ce4bhbp2rcd13ifvqerg","pricing_plan_id":"cebpf4jnsgd1na2vs0mg"},