{"last_updated":1721513297,"ttl":30,"version":"2.2","data":{"bikes":[{"bike_id":"b7ccbf40-2753-41ad-a60b-28997ae6d23a","system_id":"levelo_inurba_marseille","lat":43.313391,"lon":5.36706,"is_reserved":false,"is_disabled":false,"rental_uris":{"android":"levelo://app?vid=b7ccbf40-2753-41ad-a60b-28997ae6d23a","ios":"levelo://app?vid=b7ccbf40-2753-41ad-a60b-28997ae6d23a"},"vehicle_type_id":"4","last_reported":1721513297,"current_range_meters":28800,"station_id":"ce4bgr92rcd13ifvqc6g","pricing_plan_id":"cebpf4jnsgd1na2vs0mg"},{"bike_id":"c2bd955e-542d-42fe-9612-c7463f5af12a","system_id":"levelo_inurba_marseille","lat":43.314811,"lon":5.373103,"is_reserved":false,"is_disabled":false,"rental_uris":{"android":"levelo://app?vid=c2bd955e-542d-42fe-9612-c7463f5af12a","ios":"levelo://app?vid=c2bd955e-542d-42fe-9612-c7463f5af12a"},"vehicle_type_id":"4","last_reported":1721513297,"current_range_meters":22000,"station_id":"ce4bgt12rcd13ifvqcd0","pricing_plan_id":"cebpf4jnsgd1na2vs0mg"},{"bike_id":"fd9dd0ec-1fd6-45e3-927d-175a9f543e3a","system_id":"levelo_inurba_marseille","lat":43.314811,"lon":5.373103,"is_reserved":false,"is_disabled":false,"rental_uris":{"android":"levelo://app?vid=fd9dd0ec-1fd6-45e3-927d-175a9f543e3a","ios":"levelo://app?vid=fd9dd0ec-1fd6-45e3-927d-175a9f543e3a"},"vehicle_type_id":"4","last_reported":1721513297,"current_range_meters":10000,"station_id":"ce4bgt12rcd13ifvqcd0","pricing_plan_id":"cebpf4jnsgd1na2vs0mg"},{"bike_id":"21e8b330-750d-43fb-9e3d-b3d8f515091d","system_id":"levelo_inurba_marseille","lat":43.314811,"lon":5.373103,"is_reserved":false,"is_disabled":false,"rental_uris":{"android":"levelo://app?vid=21e8b330-750d-43fb-9e3d-b3d8f515091d","ios":"levelo://app?vid=21e8b330-750d-43fb-9e3d-b3d8f515091d"},"vehicle_type_id":"4","last_reported":1721513297,"current_range_meters":12400,"station_id":"ce4bgt12rcd13ifvqcd0","pricing_plan_id":"cebpf4jnsgd1na2vs0mg"},{"bike_id":"8f32b06d-2ad0-4171-994d-f7530b504a41","system_id":"levelo_inurba_marseille","lat":43.314811,"lon":5.373104,"is_reserved":false,"is_disabled":false,"rental_uris":{"android":"levelo://app?vid=8f32b06d-2ad0-4171-994d-f7530b504a41","ios":"levelo://app?vid=8f32b06d-2ad0-4171-994d-f7530b504a41"},"vehicle_type_id":"4","last_reported":1721513297,"current_range_meters":2000,"station_id":"ce4bgt12rcd13ifvqcd0","pricing_plan_id":"cebpf4jnsgd1na2vs0mg"},{"bike_id":"6ab613aa-8d1e-42b1-9a83-4aea6bb0211a","system_id":"levelo_inurba_marseille","lat":43.314811,"lon":5.373104,"is_reserved":false,"is_disabled":false,"rental_uris":{"android":"levelo://app?vid=6ab613aa-8d1e-42b1-9a83-4aea6bb0211a","ios":"levelo://app?vid=6ab613aa-8d1e-42b1-9a83-4aea6bb0211a"},"vehicle_type_id":"4","last_reported":1721513297,"current_range_meters":14400,"station_id":"ce4bgt12rcd13ifvqcd0","pricing_plan_id":"cebpf4jnsgd1na2vs0mg"},{"bike_id":"cf99f2b7-24e9-4dbf-a4e2-00d8cf10530f","system_id":"levelo_inurba_marseille","lat":43.314811,"lon":5.373103,"is_reserved":false,"is_disabled":false,"rental_uris":{"android":"levelo://app?vid=cf99f2b7-24e9-4dbf-a4e2-00d8cf10530f","ios":"levelo://app?vid=cf99f2b7-24e9-4dbf-a4e2-00d8cf10530f"},"vehicle_type_id":"4","last_reported":1721513297,"current_range_meters":7200,"station_id":"ce4bgt12rcd13ifvqcd0","pricing_plan_id":"cebpf4jnsgd1na2vs0mg"},{"bike_id":"239cb844-d542-48ef-8b8d-9c2d2114586d","system_id":"levelo_inurba_marseille","lat":43.31444,"lon":5.37376,"is_reserved":false,"is_disabled":false,"rental_uris":{"android":"levelo://app?vid=239cb844-d542-48ef-8b8d-9c2d2114586d","ios":"levelo://app?vid=239cb844-d542-48ef-8b8d-9c2d2114586d"},"vehicle_type_id":"4","last_reported":1721513297,"current_range_meters":24400,"station_id":"","pricing_plan_id":"cebpf4jnsgd1na2vs0mg"},{"bike_id":"f9e43fca-50e1-4c70-9934-09aefcbfd0a4","system_id":"levelo_inurba_marseille","lat":43.309039,"lon":5.371797,"is_reserved":false,"is_disabled":false,"rental_uris":{"android":"levelo://app?vid=f9e43fca-50e1-4c70-9934-09aefcbfd0a4","ios":"levelo://app?vid=f9e43fca-50e1-4c70-9934-09aefcbfd0a4"},"vehicle_type_id":"4","last_reported":1721513297,"current_range_meters":25600,"station_id":"ce4bguh2rcd13ifvqckg","pricing_plan_id":"cebpf4jnsgd1na2vs0mg"},{"bike_id":"32bf86fb-39c7-4520-b12e-60e8f91c25e9","system_id":"levelo_inurba_marseille","lat":43.30643,"lon":5.36802,"is_reserved":false,"is_disabled":false,"rental_uris":{"android":"levelo://app?vid=32bf86fb-39c7-4520-b12e-60e8f91c25e9","ios":"levelo://app?vid=32bf86fb-39c7-4520-b12e-60e8f91c25e9"},"vehicle_type_id":"4","last_reported":1721513297,"current_range_meters":30400,"station_id":"","pricing_plan_id":"cebpf4jnsgd1na2vs0mg"},{"bike_id":"9c66df51-d6f1-4345-b378-ffa37455fa50","system_id":"levelo_inurba_marseille","lat":43.305706,"lon":5.365654,"is_reserved":false,"is_disabled":false,"rental_uris":{"android":"levelo://app?vid=9c66df51-d6f1-4345-b378-ffa37455fa50","ios":"levelo://app?vid=9c66df51-d6f1-4345-b378-ffa37455fa50"},"vehicle_type_id":"4","last_reported":1721513297,"current_range_meters":23200,"station_id":"ce4bgs12rcd13ifvqcag","pricing_plan_id":"cebpf4jnsgd1na2vs0mg"},{"bike_id":"2366e65e-295e-400f-8fc7-248f4193dfca","system_id":"levelo_inurba_marseille","lat":43.305706,"lon":5.365654,"is_reserved":false,"is_disabled":false,"rental_uris":{"android":"levelo://app?vid=2366e65e-295e-400f-8fc7-248f4193dfca","ios":"levelo://app?vid=2366e65e-295e-400f-8fc7-248f4193dfca"},"vehicle_type_id":"4","last_reported":1721513297,"current_range_meters":28400,"station_id":"ce4bgs12rcd13ifvqcag","pricing_plan_id":"cebpf4jnsgd1na2vs0mg"},{"bike_id":"0a128d81-81e3-49b8-a356-20bfaf7ebc0f","system_id":"levelo_inurba_marseille","lat":43.311131,"lon":5.377651,"is_reserved":false,"is_disabled":false,"rental_uris":{"android":"levelo://app?vid=0a128d81-81e3-49b8-a356-20bfaf7ebc0f","ios":"levelo://app?vid=0a128d81-81e3-49b8-a356-20bfaf7ebc0f"},"vehicle_type_id":"4","last_reported":1721513297,"current_range_meters":25600,"station_id":"ce4bgt92rcd13ifvqcg0","pricing_plan_id":"cebpf4jnsgd1na2vs0mg"},{"bike_id":"a5647cad-9a9f-406a-b4b3-7a7a47e15ff6","system_id":"levelo_inurba_marseille","lat":43.311125,"lon":5.377624,"is_reserved":false,"is_disabled":false,"rental_uris":{"android":"levelo://app?vid=a5647cad-9a9f-406a-b4b3-7a7a47e15ff6","ios":"levelo://app?vid=a5647cad-9a9f-406a-b4b3-7a7a47e15ff6"},"vehicle_type_id":"4","last_reported":1721513297,"current_range_meters":0,"station_id":"ce4bgt92rcd13ifvqcg0","pricing_plan_id":"cebpf4jnsgd1na2vs0mg"},{"bike_id":"9865741e-3b84-48da-bdf5-19ce7e319a72","system_id":"levelo_inurba_marseille","lat":43.311131,"lon":5.377651,"is_reserved":false,"is_disabled":false,"rental_uris":{"android":"levelo://app?vid=9865741e-3b84-48da-bdf5-19ce7e319a72","ios":"levelo://app?vid=9865741e-3b84-48da-bdf5-19ce7e319a72"},"vehicle_type_id":"4","last_reported":1721513297,"current_range_meters":14800,"station_id":"ce4bgt92rcd13ifvqcg0","pricing_plan_id":"cebpf4jnsgd1na2vs0mg"},{"bike_id":"182b4313-2a25-49c8-b7ce-5ac709ac329b","system_id":"levelo_inurba_marseille","lat":43.311125,"lon":5.377624,"is_reserved":false,"is_disabled":false,"rental_uris":{"android":"levelo://app?vid=182b4313-2a25-49c8-b7ce-5ac709ac329b","ios":"levelo://app?vid=182b4313-2a25-49c8-b7ce-5ac709ac329b"},"vehicle_type_id":"4","last_reported":1721513297,"current_range_meters":7200,"station_id":"ce4bgt92rcd13ifvqcg0","pricing_plan_id":"cebpf4jnsgd1na2vs0mg"},{"bike_id":"6177dd89-9ce6-4dd9-89b2-1a74518e5828","system_id":"levelo_inurba_marseille","lat":43.311131,"lon":5.377651,"is_reserved":false,"is_disabled":false,"rental_uris":{"android":"levelo://app?vid=6177dd89-9ce6-4dd9-89b2-1a74518e5828","ios":"levelo://app?vid=6177dd89-9ce6-4dd9-89b2-1a74518e5828"},"vehicle_type_id":"4","last_reported":1721513297,"current_range_meters":0,"station_id":"ce4bgt92rcd13ifvqcg0","pricing_plan_id":"cebpf4jnsgd1na2vs0mg"},{"bike_id":"e92b148d-8379-4e92-b89c-f77302809f16","system_id":"levelo_inurba_marseille","lat":43.311125,"lon":5.377624,"is_reserved":false,"is_disabled":false,"rental_uris":{"android":"levelo://app?vid=e92b148d-8379-4e92-b89c-f77302809f16","ios":"levelo://app?vid=e92b148d-8379-4e92-b89c-f77302809f16"},"vehicle_type_id":"4","last_reported":1721513297,"current_range_meters":4800,"station_id":"ce4bgt92rcd13ifvqcg0","pricing_plan_id":"cebpf4jnsgd1na2vs0mg"},{"bike_id":"c26a6e47-6a04-41cc-bebd-3f7793e02d5a","system_id":"levelo_inurba_marseille","lat":43.311131,"lon":5.377651,"is_reserved":false,"is_disabled":false,"rental_uris":{"android":"levelo://app?vid=c26a6e47-6a04-41cc-bebd-3f7793e02d5a","ios":"levelo://app?vid=c26a6e47-6a04-41cc-bebd-3f7793e02d5a"},"vehicle_type_id":"4","last_reported":1721513297,"current_range_meters":6000,"station_id":"ce4bgt92rcd13ifvqcg0","pricing_plan_id":"cebpf4jnsgd1na2vs0mg"},{"bike_id":"52b11744-448a-4dfa-93c5-ed86c8bd14a0","system_id":"levelo_inurba_marseille","lat":43.311125,"lon":5.377624,"is_reserved":false,"is_disabled":false,"rental_uris":{"android":"levelo://app?vid=52b11744-448a-4dfa-93c5-ed86c8bd14a0","ios":"levelo://app?vid=52b11744-448a-4dfa-93c5-ed86c8bd14a0"},"vehicle_type_id":"4","last_reported":1721513297,"current_range_meters":30400,"station_id":"ce4bgt92rcd13ifvqcg0","pricing_plan_id":"cebpf4jnsgd1na2vs0mg"},{"bike_id":"d26de777-6530-49a7-bcde-1ababb54063f","system_id":"levelo_inurba_marseille","lat":43.307945,"lon":5.376487,"is_reserved":false,"is_disabled":false,"rental_uris":{"android":"levelo://app?vid=d26de777-6530-49a7-bcde-1ababb54063f","ios":"levelo://app?vid=d26de777-6530-49a7-bcde-1ababb54063f"},"vehicle_type_id":"4","last_reported":1721513297,"current_range_meters":21200,"station_id":"ce4bgv92rcd13ifvqcq0","pricing_plan_id":"cebpf4jnsgd1na2vs0mg"},{"bike_id":"9c72d8c9-d7c8-4a52-b2c4-f23c160139a8","system_id":"levelo_inurba_marseille","lat":43.307945,"lon":5.376487,"is_reserved":false,"is_disabled":false,"rental_uris":{"android":"levelo://app?vid=9c72d8c9-d7c8-4a52-b2c4-f23c160139a8","ios":"levelo://app?vid=9c72d8c9-d7c8-4a52-b2c4-f23c160139a8"},"vehicle_type_id":"4","last_reported":1721513297,"current_range_meters":6000,"station_id":"ce4bgv92rcd13ifvqcq0","pricing_plan_id":"cebpf4jnsgd1na2vs0mg"},{"bike_id":"ae080484-ae8b-4730-9e58-158b42a7336f","system_id":"levelo_inurba_marseille","lat":43.30514,"lon":5.37276,"is_reserved":false,"is_disabled":false,"rental_uris":{"android":"levelo://app?vid=ae080484-ae8b-4730-9e58-158b42a7336f","ios":"levelo://app?vid=ae080484-ae8b-4730-9e58-158b42a7336f"},"vehicle_type_id":"4","last_reported":1721513297,"current_range_meters":19600,"station_id":"","pricing_plan_id":"cebpf4jnsgd1na2vs0mg"},{"bike_id":"1b1928b9-c220-438c-b1c0-1c95f4d9cf94","system_id":"levelo_inurba_marseille","lat":43.317075,"lon":5.377367,"is_reserved":false,"is_disabled":false,"rental_uris":{"android":"levelo://app?vid=1b1928b9-c220-438c-b1c0-1c95f4d9cf94","ios":"levelo://app?vid=1b1928b9-c220-438c-b1c0-1c95f4d9cf94"},"vehicle_type_id":"4","last_reported":1721513297,"current_range_meters":18400,"station_id":"ce4bgth2rcd13ifvqch0","pricing_plan_id":"cebpf4jnsgd1na2vs0mg"},{"bike_id":"afbcc338-845f-412e-8967-52b602c59038","system_id":"levelo_inurba_marseille","lat":43.314811,"lon":5.373103,"is_reserved":false,"is_disabled":false,"rental_uris":{"android":"levelo://app?vid=afbcc338-845f-412e-8967-52b602c59038","ios":"levelo://app?vid=afbcc338-845f-412e-8967-52b602c59038"},"vehicle_type_id":"4","last_reported":1721513297,"current_range_meters":14400,"station_id":"ce4bgt12rcd13ifvqcd0","pricing_plan_id":"cebpf4jnsgd1na2vs0mg"},{"bike_id":"994429eb-e69c-4e56-ba4e-d0a973329767","system_id":"levelo_inurba_marseille","lat":43.30304,"lon":5.368987,"is_reserved":false,"is_disabled":false,"rental_uris":{"android":"levelo://app?vid=994429eb-e69c-4e56-ba4e-d0a973329767","ios":"levelo://app?vid=994429eb-e69c-4e56-ba4e-d0a973329767"},"vehicle_type_id":"4","last_reported":1721513297,"current_range_meters":28800,"station_id":"ce4bgqh2rcd13ifvqc5g","pricing_plan_id":"cebpf4jnsgd1na2vs0mg"},{"bike_id":"0bddf143-6c7e-4488-9245-722e14fc7d78","system_id":"levelo_inurba_marseille","lat":43.315289,"lon":5.380349,"is_reserved":false,"is_disabled":false,"rental_uris":{"android":"levelo://app?vid=0bddf143-6c7e-4488-9245-722e14fc7d78","ios":"levelo://app?vid=0bddf143-6c7e-4488-9245-722e14fc7d78"},"vehicle_type_id":"4","last_reported":1721513297,"current_range_meters":30000,"station_id":"ce4bhsp2rcd13ifvqi50","pricing_plan_id":"cebpf4jnsgd1na2vs0mg"},{"bike_id":"3bb905e6-f35f-4a56-b5c3-ce337731118a","system_id":"levelo_inurba_marseille","lat":43.30191,"lon":5.36617,"is_reserved":false,"is_disabled":false,"rental_uris":{"android":"levelo://app?vid=3bb905e6-f35f-4a56-b5c3-ce337731118a","ios":"levelo://app?vid=3bb905e6-f35f-4a56-b5c3-ce337731118a"},"vehicle_type_id":"4","last_reported":1721513297,"current_range_meters":14800,"station_id":"ce4bgrh2rcd13ifvqc8g","pricing_plan_id":"cebpf4jnsgd1na2vs0mg"},{"bike_id":"07f6420b-1492-40ba-8107-deaafe716385","system_id":"levelo_inurba_marseille","lat":43.301939,"lon":5.366286,"is_reserved":false,"is_disabled":false,"rental_uris":{"android":"levelo://app?vid=07f6420b-1492-40ba-8107-deaafe716385","ios":"levelo://app?vid=07f6420b-1492-40ba-8107-deaafe716385"},"vehicle_type_id":"4","last_reported":1721513297,"current_range_meters":5200,"station_id":"ce4bgrh2rcd13ifvqc8g","pricing_plan_id":"cebpf4jnsgd1na2vs0mg"},{"bike_id":"4a7c9c65-d31c-4777-bbdf-818ded4cf522","system_id":"levelo_inurba_marseille","lat":43.308012,"lon":5.381511,"is_reserved":false,"is_disabled":false,"rental_uris":{"android":"levelo://app?vid=4a7c9c65-d31c-4777-bbdf-818ded4cf522","ios":"levelo://app?vid=4a7c9c65-d31c-4777-bbdf-818ded4cf522"},"vehicle_type_id":"4","last_reported":1721513297,"current_range_meters":18000,"station_id":"ce4bgt12rcd13ifvqce0","pricing_plan_id":"cebpf4jnsgd1na2vs0mg"},{"bike_id":"1d2b9dd2-dd0d-4ae9-b348-535b47b5faa4","system_id":"levelo_inurba_marseille","lat":43.308012,"lon":5.381511,"is_reserved":false,"is_disabled":false,"rental_uris":{"android":"levelo://app?vid=1d2b9dd2-dd0d-4ae9-b348-535b47b5faa4","ios":"levelo://app?vid=1d2b9dd2-dd0d-4ae9-b348-535b47b5faa4"},"vehicle_type_id":"4","last_reported":1721513297,"current_range_meters":5600,"station_id":"ce4bgt12rcd13ifvqce0","pricing_plan_id":"cebpf4jnsgd1na2vs0mg"},{"bike_id":"27d26313-9c14-4546-b923-b442bd7abc55","system_id":"levelo_inurba_marseille","lat":43.304606,"lon":5.379026,"is_reserved":false,"is_disabled":false,"rental_uris":{"android":"levelo://app?vid=27d26313-9c14-4546-b923-b442bd7abc55","ios":"levelo://app?vid=27d26313-9c14-4546-b923-b442bd7abc55"},"vehicle_type_id":"4","last_reported":1721513297,"current_range_meters":31600,"station_id":"ce4bgup2rcd13ifvqcn0","pricing_plan_id":"cebpf4jnsgd1na2vs0mg"},{"bike_id":"7ba5b38d-c1b0-42aa-8892-1414d67219da","system_id":"levelo_inurba_marseille","lat":43.324771,"lon":5.36557,"is_reserved":false,"is_disabled":false,"rental_uris":{"android":"levelo://app?vid=7ba5b38d-c1b0-42aa-8892-1414d67219da","ios":"levelo://app?vid=7ba5b38d-c1b0-42aa-8892-1414d67219da"},"vehicle_type_id":"4","last_reported":1721513297,"current_range_meters":7600,"station_id":"ce4bhs12rcd13ifvqhvg","pricing_plan_id":"cebpf4jnsgd1na2vs0mg"},{"bike_id":"15b44dca-640b-4240-9fb2-965909d7cc81","system_id":"levelo_inurba_marseille","lat":43.304606,"lon":5.379026,"is_reserved":false,"is_disabled":false,"rental_uris":{"android":"levelo://app?vid=15b44dca-640b-4240-9fb2-965909d7cc81","ios":"levelo://app?vid=15b44dca-640b-4240-9fb2-965909d7cc81"},"vehicle_type_id":"4","last_reported":1721513297,"current_range_meters":30400,"station_id":"ce4bgup2rcd13ifvqcn0","pricing_plan_id":"cebpf4jnsgd1na2vs0mg"},{"bike_id":"751b495a-ded5-440d-924d-2bf060460f69","system_id":"levelo_inurba_marseille","lat":43.324757,"lon":5.365747,"is_reserved":false,"is_disabled":false,"rental_uris":{"android":"levelo://app?vid=751b495a-ded5-440d-924d-2bf060460f69","ios":"levelo://app?vid=751b495a-ded5-440d-924d-2bf060460f69"},"vehicle_type_id":"4","last_reported":1721513297,"current_range_meters":16400,"station_id":"ce4bhs12rcd13ifvqhvg","pricing_plan_id":"cebpf4jnsgd1na2vs0mg"},{"bike_id":"b32653a6-eced-4061-82a4-11bf0d00e36c","system_id":"levelo_inurba_marseille","lat":43.32477,"lon":5.36565,"is_reserved":false,"is_disabled":false,"rental_uris":{"android":"levelo://app?vid=b32653a6-eced-4061-82a4-11bf0d00e36c","ios":"levelo://app?vid=b32653a6-eced-4061-82a4-11bf0d00e36c"},"vehicle_type_id":"4","last_reported":1721513297,"current_range_meters":6000,"station_id":"ce4bhs12rcd13ifvqhvg","pricing_plan_id":"cebpf4jnsgd1na2vs0mg"},{"bike_id":"249abbc2-e92e-45b1-b839-e010147e148e","system_id":"levelo_inurba_marseille","lat":43.324771,"lon":5.36557,"is_reserved":false,"is_disabled":false,"rental_uris":{"android":"levelo://app?vid=249abbc2-e92e-45b1-b839-e010147e148e","ios":"levelo://app?vid=249abbc2-e92e-45b1-b839-e010147e148e"},"vehicle_type_id":"4","last_reported":1721513297,"current_range_meters":4400,"station_id":"ce4bhs12rcd13ifvqhvg","pricing_plan_id":"cebpf4jnsgd1na2vs0mg"},{"bike_id":"7d11714e-96d7-41dd-a4a9-54f2adc58df2","system_id":"levelo_inurba_marseille","lat":43.32479,"lon":5.3657,"is_reserved":false,"is_disabled":false,"rental_uris":{"android":"levelo://app?vid=7d11714e-96d7-41dd-a4a9-54f2adc58df2","ios":"levelo://app?vid=7d11714e-96d7-41dd-a4a9-54f2adc58df2"},"vehicle_type_id":"4","last_reported":1721513297,"current_range_meters":0,"station_id":"ce4bhs12rcd13ifvqhvg","pricing_plan_id":"cebpf4jnsgd1na2vs0mg"},{"bike_id":"96190691-5c79-4f2a-af95-3f66f23d1b5b","system_id":"levelo_inurba_marseille","lat":43.32483,"lon":5.365825,"is_reserved":false,"is_disabled":false,"rental_uris":{"android":"levelo://app?vid=96190691-5c79-4f2a-af95-3f66f23d1b5b","ios":"levelo://app?vid=96190691-5c79-4f2a-af95-3f66f23d1b5b"},"vehicle_type_id":"4","last_reported":1721513297,"current_range_meters":400,"station_id":"ce4bhs12rcd13ifvqhvg","pricing_plan_id":"cebpf4jnsgd1na2vs0mg"},{"bike_id":"2baca4ef-0d69-4564-91f0-6aa88a9ace5b","system_id":"levelo_inurba_marseille","lat":43.324846,"lon":5.365769,"is_reserved":false,"is_disabled":false,"rental_uris":{"android":"levelo://app?vid=2baca4ef-0d69-4564-91f0-6aa88a9ace5b","ios":"levelo://app?vid=2baca4ef-0d69-4564-91f0-6aa88a9ace5b"},"vehicle_type_id":"4","last_reported":1721513297,"current_range_meters":10400,"station_id":"ce4bhs12rcd13ifvqhvg","pricing_plan_id":"cebpf4jnsgd1na2vs0mg"},{"bike_id":"52b54f02-976b-4e33-8fde-f03092e37688","system_id":"levelo_inurba_marseille","lat":43.310804,"lon":5.38359,"is_reserved":false,"is_disabled":false,"rental_uris":{"android":"levelo://app?vid=52b54f02-976b-4e33-8fde-f03092e37688","ios":"levelo://app?vid=52b54f02-976b-4e33-8fde-f03092e37688"},"vehicle_type_id":"4","last_reported":1721513297,"current_range_meters":14000,"station_id":"ce4bgv92rcd13ifvqcr0","pricing_plan_id":"cebpf4jnsgd1na2vs0mg"},{"bike_id":"e441cf2b-360b-4c99-88dd-63d8cb55db3b","system_id":"levelo_inurba_marseille","lat":43.31072,"lon":5.38357,"is_reserved":false,"is_disabled":false,"rental_uris":{"android":"levelo://app?vid=e441cf2b-360b-4c99-88dd-63d8cb55db3b","ios":"levelo://app?vid=e441cf2b-360b-4c99-88dd-63d8cb55db3b"},"vehicle_type_id":"4","last_reported":1721513297,"current_range_meters":13600,"station_id":"ce4bgv92rcd13ifvqcr0","pricing_plan_id":"cebpf4jnsgd1na2vs0mg"},{"bike_id":"0da0a799-e618-49cd-9bfb-88e6346ba3c5","system_id":"levelo_inurba_marseille","lat":43.31076,"lon":5.38364,"is_reserved":false,"is_disabled":false,"rental_uris":{"android":"levelo://app?vid=0da0a799-e618-49cd-9bfb-88e6346ba3c5","ios":"levelo://app?vid=0da0a799-e618-49cd-9bfb-88e6346ba3c5"},"vehicle_type_id":"4","last_reported":1721513297,"current_range_meters":3200,"station_id":"ce4bgv92rcd13ifvqcr0","pricing_plan_id":"cebpf4jnsgd1na2vs0mg"},{"bike_id":"d2b5fa00-a0f9-4187-afd2-71566a43becc","system_id":"levelo_inurba_marseille","lat":43.30277,"lon":5.37712,"is_reserved":false,"is_disabled":false,"rental_uris":{"android":"levelo://app?vid=d2b5fa00-a0f9-4187-afd2-71566a43becc","ios":"levelo://app?vid=d2b5fa00-a0f9-4187-afd2-71566a43becc"},"vehicle_type_id":"4","last_reported":1721513297,"current_range_meters":8800,"station_id":"ce4bguh2rcd13ifvqcj0","pricing_plan_id":"cebpf4jnsgd1na2vs0mg"},{"bike_id":"7c82dfbc-6aef-44f5-a394-37a20b6eb864","system_id":"levelo_inurba_marseille","lat":43.30143,"lon":5.37413,"is_reserved":false,"is_disabled":false,"rental_uris":{"android":"levelo://app?vid=7c82dfbc-6aef-44f5-a394-37a20b6eb864","ios":"levelo://app?vid=7c82dfbc-6aef-44f5-a394-37a20b6eb864"},"vehicle_type_id":"4","last_reported":1721513297,"current_range_meters":6400,"station_id":"ce4bgs92rcd13ifvqcc0","pricing_plan_id":"cebpf4jnsgd1na2vs0mg"},{"bike_id":"df35b2e9-d92f-470d-bfac-4a8cd0f2c083","system_id":"levelo_inurba_marseille","lat":43.313571,"lon":5.384829,"is_reserved":false,"is_disabled":false,"rental_uris":{"android":"levelo://app?vid=df35b2e9-d92f-470d-bfac-4a8cd0f2c083","ios":"levelo://app?vid=df35b2e9-d92f-470d-bfac-4a8cd0f2c083"},"vehicle_type_id":"4","last_reported":1721513297,"current_range_meters":8800,"station_id":"ce4bgt92rcd13ifvqcf0","pricing_plan_id":"cebpf4jnsgd1na2vs0mg"},{"bike_id":"639350f5-70e6-48f5-b44c-1bfab11aeb95","system_id":"levelo_inurba_marseille","lat":43.313657,"lon":5.384927,"is_reserved":false,"is_disabled":false,"rental_uris":{"android":"levelo://app?vid=639350f5-70e6-48f5-b44c-1bfab11aeb95","ios":"levelo://app?vid=639350f5-70e6-48f5-b44c-1bfab11aeb95"},"vehicle_type_id":"4","last_reported":1721513297,"current_range_meters":0,"station_id":"ce4bgt92rcd13ifvqcf0","pricing_plan_id":"cebpf4jnsgd1na2vs0mg"},{"bike_id":"016b2c0c-79ed-494a-9332-326140c7ea0f","system_id":"levelo_inurba_marseille","lat":43.313571,"lon":5.384829,"is_reserved":false,"is_disabled":false,"rental_uris":{"android":"levelo://app?vid=016b2c0c-79ed-494a-9332-326140c7ea0f","ios":"levelo://app?vid=016b2c0c-79ed-494a-9332-326140c7ea0f"},"vehicle_type_id":"4","last_reported":1721513297,"current_range_meters":31200,"station_id":"ce4bgt92rcd13ifvqcf0","pricing_plan_id":"cebpf4jnsgd1na2vs0mg"},{"bike_id":"60382999-651e-40a8-822a-e9cfcd0ac3a9","system_id":"levelo_inurba_marseille","lat":43.313571,"lon":5.384829,"is_reserved":false,"is_disabled":false,"rental_uris":{"android":"levelo://app?vid=60382999-651e-40a8-822a-e9cfcd0ac3a9","ios":"levelo://app?vid=60382999-651e-40a8-822a-e9cfcd0ac3a9"},"vehicle_type_id":"4","last_reported":1721513297,"current_range_meters":0,"station_id":"ce4bgt92rcd13ifvqcf0","pricing_plan_id":"cebpf4jnsgd1na2vs0mg"},{"bike_id":"13fe1bff-6161-4a26-b41f-51d237f835f3","system_id":"levelo_inurba_marseille","lat":43.313571,"lon":5.384829,"is_reserved":false,"is_disabled":false,"rental_uris":{"android":"levelo://app?vid=13fe1bff-6161-4a26-b41f-51d237f835f3","ios":"levelo://app?vid=13fe1bff-6161-4a26-b41f-51d237f835f3"},"vehicle_type_id":"4","last_reported":1721513297,"current_range_meters":19200,"station_id":"ce4bgt92rcd13ifvqcf0","pricing_plan_id":"cebpf4jnsgd1na2vs0mg"},{"bike_id":"abf05532-e93f-4fe0-9914-8e51691f197a","system_id":"levelo_inurba_marseille","lat":43.313571,"lon":5.384829,"is_reserved":false,"is_disabled":false,"rental_uris":{"android":"levelo://app?vid=abf05532-e93f-4fe0-9914-8e51691f197a","ios":"levelo://app?vid=abf05532-e93f-4fe0-9914-8e51691f197a"},"vehicle_type_id":"4","last_reported":1721513297,"current_range_meters":24000,"station_id":"ce4bgt92rcd13ifvqcf0","pricing_plan_id":"cebpf4jnsgd1na2vs0mg"},{"bike_id":"cd80081e-f231-4fea-ad42-9e7bd446b909","system_id":"levelo_inurba_marseille","lat":43.298433,"lon":5.362774,"is_reserved":false,"is_disabled":false,"rental_uris":{"android":"levelo://app?vid=cd80081e-f231-4fea-ad42-9e7bd446b909","ios":"levelo://app?vid=cd80081e-f231-4fea-ad42-9e7bd446b909"},"vehicle_type_id":"4","last_reported":1721513297,"current_range_meters":2000,"station_id":"ce4bgpp2rcd13ifvqc3g","pricing_plan_id":"cebpf4jnsgd1na2vs0mg"},{"bike_id":"a8caa26b-2af4-4f31-a549-00819c4f30d4","system_id":"levelo_inurba_marseille","lat":43.298433,"lon":5.362774,"is_reserved":false,"is_disabled":false,"rental_uris":{"android":"levelo://app?vid=a8caa26b-2af4-4f31-a549-00819c4f30d4","ios":"levelo://app?vid=a8caa26b-2af4-4f31-a549-00819c4f30d4"},"vehicle_type_id":"4","last_reported":1721513297,"current_range_meters":29600,"station_id":"ce4bgpp2rcd13ifvqc3g","pricing_plan_id":"cebpf4jnsgd1na2vs0mg"},{"bike_id":"25e7a3c9-7ecc-40af-a6b5-a5e905e5450e","system_id":"levelo_inurba_marseille","lat":43.299243,"lon":5.37481,"is_reserved":false,"is_disabled":false,"rental_uris":{"android":"levelo://app?vid=25e7a3c9-7ecc-40af-a6b5-a5e905e5450e","ios":"levelo://app?vid=25e7a3c9-7ecc-40af-a6b5-a5e905e5450e"},"vehicle_type_id":"4","last_reported":1721513297,"current_range_meters":20000,"station_id":"ce4bgjh2rcd13ifvqbg0","pricing_plan_id":"cebpf4jnsgd1na2vs0mg"},{"bike_id":"95a90ae0-e722-456b-989f-39017398790a","system_id":"levelo_inurba_marseille","lat":43.305364,"lon":5.384119,"is_reserved":false,"is_disabled":false,"rental_uris":{"android":"levelo://app?vid=95a90ae0-e722-456b-989f-39017398790a","ios":"levelo://app?vid=95a90ae0-e722-456b-989f-39017398790a"},"vehicle_type_id":"4","last_reported":1721513297,"current_range_meters":7600,"station_id":"ce4bgg92rcd13ifvqb30","pricing_plan_id":"cebpf4jnsgd1na2vs0mg"},{"bike_id":"fa58a701-9c9e-44d6-9773-2d309b34f248","system_id":"levelo_inurba_marseille","lat":43.311722,"lon":5.387247,"is_reserved":false,"is_disabled":false,"rental_uris":{"android":"levelo://app?vid=fa58a701-9c9e-44d6-9773-2d309b34f248","ios":"levelo://app?vid=fa58a701-9c9e-44d6-9773-2d309b34f248"},"vehicle_type_id":"4","last_reported":1721513297,"current_range_meters":400,"station_id":"ce4bgv12rcd13ifvqcp0","pricing_plan_id":"cebpf4jnsgd1na2vs0mg"},{"bike_id":"0ffe8fa2-a52a-4a82-a1b7-da56fc90b1dd","system_id":"levelo_inurba_marseille","lat":43.29797,"lon":5.36294,"is_reserved":false,"is_disabled":false,"rental_uris":{"android":"levelo://app?vid=0ffe8fa2-a52a-4a82-a1b7-da56fc90b1dd","ios":"levelo://app?vid=0ffe8fa2-a52a-4a82-a1b7-da56fc90b1dd"},"vehicle_type_id":"4","last_reported":1721513297,"current_range_meters":0,"station_id":"","pricing_plan_id":"cebpf4jnsgd1na2vs0mg"},{"bike_id":"b1012c4d-d416-4b02-a2f4-3498c40b05aa","system_id":"levelo_inurba_marseille","lat":43.316286,"lon":5.387955,"is_reserved":false,"is_disabled":false,"rental_uris":{"android":"levelo://app?vid=b1012c4d-d416-4b02-a2f4-3498c40b05aa","ios":"levelo://app?vid=b1012c4d-d416-4b02-a2f4-3498c40b05aa"},"vehicle_type_id":"4","last_reported":1721513297,"current_range_meters":18400,"station_id":"","pricing_plan_id":"cebpf4jnsgd1na2vs0mg"},{"bike_id":"8685c198-af2d-428e-9013-e4de515249d2","system_id":"levelo_inurba_marseille","lat":43.29702,"lon":5.36619,"is_reserved":false,"is_disabled":false,"rental_uris":{"android":"levelo://app?vid=8685c198-af2d-428e-9013-e4de515249d2","ios":"levelo://app?vid=8685c198-af2d-428e-9013-e4de515249d2"},"vehicle_type_id":"4","last_reported":1721513297,"current_range_meters":31200,"station_id":"ce4bgn12rcd13ifvqbt0","pricing_plan_id":"cebpf4jnsgd1na2vs0mg"},{"bike_id":"05bdae84-1067-465f-ae1f-1f8e13b8e143","system_id":"levelo_inurba_marseille","lat":43.32905,"lon":5.36705,"is_reserved":false,"is_disabled":false,"rental_uris":{"android":"levelo://app?vid=05bdae84-1067-465f-ae1f-1f8e13b8e143","ios":"levelo://app?vid=05bdae84-1067-465f-ae1f-1f8e13b8e143"},"vehicle_type_id":"4","last_reported":1721513297,"current_range_meters":2000,"station_id":"","pricing_plan_id":"cebpf4jnsgd1na2vs0mg"},{"bike_id":"bdede3ea-ef07-41d2-a0ec-0fd52a3b9d0e","system_id":"levelo_inurba_marseille","lat":43.317557,"lon":5.390173,"is_reserved":false,"is_disabled":false,"rental_uris":{"android":"levelo://app?vid=bdede3ea-ef07-41d2-a0ec-0fd52a3b9d0e","ios":"levelo://app?vid=bdede3ea-ef07-41d2-a0ec-0fd52a3b9d0e"},"vehicle_type_id":"4","last_reported":1721513297,"current_range_meters":0,"station_id":"ce4bhqp2rcd13ifvqhng","pricing_plan_id":"cebpf4jnsgd1na2vs0mg"},{"bike_id":"183d913a-5725-4ad9-97f8-fa939119866d","system_id":"levelo_inurba_marseille","lat":43.317557,"lon":5.390173,"is_reserved":false,"is_disabled":false,"rental_uris":{"android":"levelo://app?vid=183d913a-5725-4ad9-97f8-fa939119866d","ios":"levelo://app?vid=183d913a-5725-4ad9-97f8-fa939119866d"},"vehicle_type_id":"4","last_reported":1721513297,"current_range_meters":16400,"station_id":"ce4bhqp2rcd13ifvqhng","pricing_plan_id":"cebpf4jnsgd1na2vs0mg"},{"bike_id":"0751cf2f-da76-4e90-bb5c-c491dd0b61c3","system_id":"levelo_inurba_marseille","lat":43.317557,"lon":5.390173,"is_reserved":false,"is_disabled":false,"rental_uris":{"android":"levelo://app?vid=0751cf2f-da76-4e90-bb5c-c491dd0b61c3","ios":"levelo://app?vid=0751cf2f-da76-4e90-bb5c-c491dd0b61c3"},"vehicle_type_id":"4","last_reported":1721513297,"current_range_meters":28400,"station_id":"ce4bhqp2rcd13ifvqhng","pricing_plan_id":"cebpf4jnsgd1na2vs0mg"},{"bike_id":"b8fa19f3-b682-41cb-a662-56e43c97e7f0","system_id":"levelo_inurba_marseille","lat":43.317557,"lon":5.390173,"is_reserved":false,"is_disabled":false,"rental_uris":{"android":"levelo://app?vid=b8fa19f3-b682-41cb-a662-56e43c97e7f0","ios":"levelo://app?vid=b8fa19f3-b682-41cb-a662-56e43c97e7f0"},"vehicle_type_id":"4","last_reported":1721513297,"current_range_meters":6400,"station_id":"ce4bhqp2rcd13ifvqhng","pricing_plan_id":"cebpf4jnsgd1na2vs0mg"},{"bike_id":"022b4a4e-b017-495b-841e-19e50a2b17bc","system_id":"levelo_inurba_marseille","lat":43.298037,"lon":5.381066,"is_reserved":false,"is_disabled":false,"rental_uris":{"android":"levelo://app?vid=022b4a4e-b017-495b-841e-19e50a2b17bc","ios":"levelo://app?vid=022b4a4e-b017-495b-841e-19e50a2b17bc"},"vehicle_type_id":"4","last_reported":1721513297,"current_range_meters":400,"station_id":"ce4bgip2rcd13ifvqbb0","pricing_plan_id":"cebpf4jnsgd1na2vs0mg"},{"bike_id":"767b298b-f610-47db-8ab7-a4729a6fe9b0","system_id":"levelo_inurba_marseille","lat":43.30434,"lon":5.3889,"is_reserved":false,"is_disabled":false,"rental_uris":{"android":"levelo://app?vid=767b298b-f610-47db-8ab7-a4729a6fe9b0","ios":"levelo://app?vid=767b298b-f610-47db-8ab7-a4729a6fe9b0"},"vehicle_type_id":"4","last_reported":1721513297,"current_range_meters":5200,"station_id":"ce4bgk12rcd13ifvqbi0","pricing_plan_id":"cebpf4jnsgd1na2vs0mg"},{"bike_id":"6785b61e-1cd8-4e63-9ec7-7979cfdb6ce1","system_id":"levelo_inurba_marseille","lat":43.304274,"lon":5.388873,"is_reserved":false,"is_disabled":false,"rental_uris":{"android":"levelo://app?vid=6785b61e-1cd8-4e63-9ec7-7979cfdb6ce1","ios":"levelo://app?vid=6785b61e-1cd8-4e63-9ec7-7979cfdb6ce1"},"vehicle_type_id":"4","last_reported":1721513297,"current_range_meters":20800,"station_id":"ce4bgk12rcd13ifvqbi0","pricing_plan_id":"cebpf4jnsgd1na2vs0mg"},{"bike_id":"8aa2dc3e-7336-4f94-b387-0dcd6eacee32","system_id":"levelo_inurba_marseille","lat":43.30425,"lon":5.3889,"is_reserved":false,"is_disabled":false,"rental_uris":{"android":"levelo://app?vid=8aa2dc3e-7336-4f94-b387-0dcd6eacee32","ios":"levelo://app?vid=8aa2dc3e-7336-4f94-b387-0dcd6eacee32"},"vehicle_type_id":"4","last_reported":1721513297,"current_range_meters":0,"station_id":"ce4bgk12rcd13ifvqbi0","pricing_plan_id":"cebpf4jnsgd1na2vs0mg"},{"bike_id":"0bc30c93-5c65-4ac8-9772-72e8164eda24","system_id":"levelo_inurba_marseille","lat":43.304278,"lon":5.388868,"is_reserved":false,"is_disabled":false,"rental_uris":{"android":"levelo://app?vid=0bc30c93-5c65-4ac8-9772-72e8164eda24","ios":"levelo://app?vid=0bc30c93-5c65-4ac8-9772-72e8164eda24"},"vehicle_type_id":"4","last_reported":1721513297,"current_range_meters":14800,"station_id":"ce4bgk12rcd13ifvqbi0","pricing_plan_id":"cebpf4jnsgd1na2vs0mg"},{"bike_id":"d01cea74-85bb-452d-9b80-d16c2669d3a6","system_id":"levelo_inurba_marseille","lat":43.286595,"lon":5.386795,"is_reserved":false,"is_disabled":false,"rental_uris":{"android":"levelo://app?vid=d01cea74-85bb-452d-9b80-d16c2669d3a6","ios":"levelo://app?vid=d01cea74-85bb-452d-9b80-d16c2669d3a6"},"vehicle_type_id":"4","last_reported":1721513297,"current_range_meters":20000,"station_id":"ce4bh492rcd13ifvqdug","pricing_plan_id":"cebpf4jnsgd1na2vs0mg"},{"bike_id":"5e1981ba-1285-4681-bc6e-87c796b4f759","system_id":"levelo_inurba_marseille","lat":43.299724,"lon":5.384848,"is_reserved":false,"is_disabled":false,"rental_uris":{"android":"levelo://app?vid=5e1981ba-1285-4681-bc6e-87c796b4f759","ios":"levelo://app?vid=5e1981ba-1285-4681-bc6e-87c796b4f759"},"vehicle_type_id":"4","last_reported":1721513297,"current_range_meters":4000,"station_id":"ce4bgj92rcd13ifvqbd0","pricing_plan_id":"cebpf4jnsgd1na2vs0mg"},{"bike_id":"18491e9b-089a-423d-92a6-2224fb4ac1cb","system_id":"levelo_inurba_marseille","lat":43.30473,"lon":5.39011,"is_reserved":false,"is_disabled":false,"rental_uris":{"android":"levelo://app?vid=18491e9b-089a-423d-92a6-2224fb4ac1cb","ios":"levelo://app?vid=18491e9b-089a-423d-92a6-2224fb4ac1cb"},"vehicle_type_id":"4","last_reported":1721513297,"current_range_meters":2400,"station_id":"","pricing_plan_id":"cebpf4jnsgd1na2vs0mg"},{"bike_id":"21865f1f-a9d2-48a4-a8c4-c33bc95476f6","system_id":"levelo_inurba_marseille","lat":43.301396,"lon":5.387812,"is_reserved":false,"is_disabled":false,"rental_uris":{"android":"levelo://app?vid=21865f1f-a9d2-48a4-a8c4-c33bc95476f6","ios":"levelo://app?vid=21865f1f-a9d2-48a4-a8c4-c33bc95476f6"},"vehicle_type_id":"4","last_reported":1721513297,"current_range_meters":31600,"station_id":"ce4bghh2rcd13ifvqb60","pricing_plan_id":"cebpf4jnsgd1na2vs0mg"},{"bike_id":"b1a4c943-d97e-4571-8451-61a1bacf1009","system_id":"levelo_inurba_marseille","lat":43.29658,"lon":5.38137,"is_reserved":false,"is_disabled":false,"rental_uris":{"android":"levelo://app?vid=b1a4c943-d97e-4571-8451-61a1bacf1009","ios":"levelo://app?vid=b1a4c943-d97e-4571-8451-61a1bacf1009"},"vehicle_type_id":"4","last_reported":1721513297,"current_range_meters":24800,"station_id":"","pricing_plan_id":"cebpf4jnsgd1na2vs0mg"},{"bike_id":"b0e86925-2587-4289-9efb-325479c6f615","system_id":"levelo_inurba_marseille","lat":43.32367,"lon":5.388836,"is_reserved":false,"is_disabled":false,"rental_uris":{"android":"levelo://app?vid=b0e86925-2587-4289-9efb-325479c6f615","ios":"levelo://app?vid=b0e86925-2587-4289-9efb-325479c6f615"},"vehicle_type_id":"4","last_reported":1721513297,"current_range_meters":1600,"station_id":"ce4bhqp2rcd13ifvqhog","pricing_plan_id":"cebpf4jnsgd1na2vs0mg"},{"bike_id":"5b46c555-81a4-4d11-bec8-11588f937b4c","system_id":"levelo_inurba_marseille","lat":43.32367,"lon":5.388836,"is_reserved":false,"is_disabled":false,"rental_uris":{"android":"levelo://app?vid=5b46c555-81a4-4d11-bec8-11588f937b4c","ios":"levelo://app?vid=5b46c555-81a4-4d11-bec8-11588f937b4c"},"vehicle_type_id":"4","last_reported":1721513297,"current_range_meters":22000,"station_id":"ce4bhqp2rcd13ifvqhog","pricing_plan_id":"cebpf4jnsgd1na2vs0mg"},{"bike_id":"a714632d-44c0-4d33-8aa9-55a02a942e0d","system_id":"levelo_inurba_marseille","lat":43.325048,"lon":5.387875,"is_reserved":false,"is_disabled":false,"rental_uris":{"android":"levelo://app?vid=a714632d-44c0-4d33-8aa9-55a02a942e0d","ios":"levelo://app?vid=a714632d-44c0-4d33-8aa9-55a02a942e0d"},"vehicle_type_id":"4","last_reported":1721513297,"current_range_meters":11600,"station_id":"","pricing_plan_id":"cebpf4jnsgd1na2vs0mg"},{"bike_id":"3550819d-63e2-4de0-bd5a-03d305859c4a","system_id":"levelo_inurba_marseille","lat":43.29602,"lon":5.381084,"is_reserved":false,"is_disabled":false,"rental_uris":{"android":"levelo://app?vid=3550819d-63e2-4de0-bd5a-03d305859c4a","ios":"levelo://app?vid=3550819d-63e2-4de0-bd5a-03d305859c4a"},"vehicle_type_id":"4","last_reported":1721513297,"current_range_meters":14800,"station_id":"ce4bgl12rcd13ifvqbo0","pricing_plan_id":"cebpf4jnsgd1na2vs0mg"},{"bike_id":"7387c621-653b-46c1-80ba-1b1a52df7e5b","system_id":"levelo_inurba_marseille","lat":43.29593,"lon":5.38103,"is_reserved":false,"is_disabled":false,"rental_uris":{"android":"levelo://app?vid=7387c621-653b-46c1-80ba-1b1a52df7e5b","ios":"levelo://app?vid=7387c621-653b-46c1-80ba-1b1a52df7e5b"},"vehicle_type_id":"4","last_reported":1721513297,"current_range_meters":1200,"station_id":"ce4bgl12rcd13ifvqbo0","pricing_plan_id":"cebpf4jnsgd1na2vs0mg"},{"bike_id":"5ababb3c-ab86-4a30-b7bd-5cd464210e47","system_id":"levelo_inurba_marseille","lat":43.29602,"lon":5.381084,"is_reserved":false,"is_disabled":false,"rental_uris":{"android":"levelo://app?vid=5ababb3c-ab86-4a30-b7bd-5cd464210e47","ios":"levelo://app?vid=5ababb3c-ab86-4a30-b7bd-5cd464210e47"},"vehicle_type_id":"4","last_reported":1721513297,"current_range_meters":400,"station_id":"ce4bgl12rcd13ifvqbo0","pricing_plan_id":"cebpf4jnsgd1na2vs0mg"},{"bike_id":"8b1ca2f5-6fbd-4cd9-9aac-c01e59ec7cfc","system_id":"levelo_inurba_marseille","lat":43.292749,"lon":5.368398,"is_reserved":false,"is_disabled":false,"rental_uris":{"android":"levelo://app?vid=8b1ca2f5-6fbd-4cd9-9aac-c01e59ec7cfc","ios":"levelo://app?vid=8b1ca2f5-6fbd-4cd9-9aac-c01e59ec7cfc"},"vehicle_type_id":"4","last_reported":1721513297,"current_range_meters":5200,"station_id":"ce4bhbp2rcd13ifvqesg","pricing_plan_id":"cebpf4jnsgd1na2vs0mg"},{"bike_id":"2bb6f90a-bf1e-486b-8751-7df49e5f89de","system_id":"levelo_inurba_marseille","lat":43.332711,"lon":5.362564,"is_reserved":false,"is_disabled":false,"rental_uris":{"android":"levelo://app?vid=2bb6f90a-bf1e-486b-8751-7df49e5f89de","ios":"levelo://app?vid=2bb6f90a-bf1e-486b-8751-7df49e5f89de"},"vehicle_type_id":"4","last_reported":1721513297,"current_range_meters":6800,"station_id":"","pricing_plan_id":"cebpf4jnsgd1na2vs0mg"},{"bike_id":"fdefebf8-ca5a-4072-b5ac-9eb792095345","system_id":"levelo_inurba_marseille","lat":43.293,"lon":5.3746,"is_reserved":false,"is_disabled":false,"rental_uris":{"android":"levelo://app?vid=fdefebf8-ca5a-4072-b5ac-9eb792095345","ios":"levelo://app?vid=fdefebf8-ca5a-4072-b5ac-9eb792095345"},"vehicle_type_id":"4","last_reported":1721513297,"current_range_meters":0,"station_id":"ce4bgi12rcd13ifvqb70","pricing_plan_id":"cebpf4jnsgd1na2vs0mg"},{"bike_id":"d210b4f6-7086-46c8-9a86-cf42edd23fbd","system_id":"levelo_inurba_marseille","lat":43.293009,"lon":5.374584,"is_reserved":false,"is_disabled":false,"rental_uris":{"android":"levelo://app?vid=d210b4f6-7086-46c8-9a86-cf42edd23fbd","ios":"levelo://app?vid=d210b4f6-7086-46c8-9a86-cf42edd23fbd"},"vehicle_type_id":"4","last_reported":1721513297,"current_range_meters":400,"station_id":"ce4bgi12rcd13ifvqb70","pricing_plan_id":"cebpf4jnsgd1na2vs0mg"},{"bike_id":"c7e3dea3-2e6b-418b-8422-d714870bbf2d","system_id":"levelo_inurba_marseille","lat":43.305994,"lon":5.393687,"is_reserved":false,"is_disabled":false,"rental_uris":{"android":"levelo://app?vid=c7e3dea3-2e6b-418b-8422-d714870bbf2d","ios":"levelo://app?vid=c7e3dea3-2e6b-418b-8422-d714870bbf2d"},"vehicle_type_id":"4","last_reported":1721513297,"current_range_meters":16400,"station_id":"ce4bh0p2rcd13ifvqd80","pricing_plan_id":"cebpf4jnsgd1na2vs0mg"},{"bike_id":"c0e46319-7d1d-47c7-9c24-870f1e723c6b","system_id":"levelo_inurba_marseille","lat":43.29276,"lon":5.37483,"is_reserved":false,"is_disabled":false,"rental_uris":{"android":"levelo://app?vid=c0e46319-7d1d-47c7-9c24-870f1e723c6b","ios":"levelo://app?vid=c0e46319-7d1d-47c7-9c24-870f1e723c6b"},"vehicle_type_id":"4","last_reported":1721513297,"current_range_meters":1600,"station_id":"","pricing_plan_id":"cebpf4jnsgd1na2vs0mg"},{"bike_id":"eb2d7e89-3bd2-44d3-8076-5be56b67de12","system_id":"levelo_inurba_marseille","lat":43.2936,"lon":5.37835,"is_reserved":false,"is_disabled":false,"rental_uris":{"android":"levelo://app?vid=eb2d7e89-3bd2-44d3-8076-5be56b67de12","ios":"levelo://app?vid=eb2d7e89-3bd2-44d3-8076-5be56b67de12"},"vehicle_type_id":"4","last_reported":1721513297,"current_range_meters":16800,"station_id":"ce4bgjh2rcd13ifvqbf0","pricing_plan_id":"cebpf4jnsgd1na2vs0mg"},{"bike_id":"adbadfa8-8624-433d-8e88-02797a52a200","system_id":"levelo_inurba_marseille","lat":43.29273,"lon":5.37481,"is_reserved":false,"is_disabled":false,"rental_uris":{"android":"levelo://app?vid=adbadfa8-8624-433d-8e88-02797a52a200","ios":"levelo://app?vid=adbadfa8-8624-433d-8e88-02797a52a200"},"vehicle_type_id":"4","last_reported":1721513297,"current_range_meters":22000,"station_id":"","pricing_plan_id":"cebpf4jnsgd1na2vs0mg"},{"bike_id":"8c449df3-8faf-4ed9-a503-6c1ba764be0e","system_id":"levelo_inurba_marseille","lat":43.293721,"lon":5.378593,"is_reserved":false,"is_disabled":false,"rental_uris":{"android":"levelo://app?vid=8c449df3-8faf-4ed9-a503-6c1ba764be0e","ios":"levelo://app?vid=8c449df3-8faf-4ed9-a503-6c1ba764be0e"},"vehicle_type_id":"4","last_reported":1721513297,"current_range_meters":0,"station_id":"ce4bgjh2rcd13ifvqbf0","pricing_plan_id":"cebpf4jnsgd1na2vs0mg"},{"bike_id":"80ad9331-de50-4e7f-9130-91bd326ad418","system_id":"levelo_inurba_marseille","lat":43.292311,"lon":5.360731,"is_reserved":false,"is_disabled":false,"rental_uris":{"android":"levelo://app?vid=80ad9331-de50-4e7f-9130-91bd326ad418","ios":"levelo://app?vid=80ad9331-de50-4e7f-9130-91bd326ad418"},"vehicle_type_id":"4","last_reported":1721513297,"current_range_meters":2800,"station_id":"ce4bhbh2rcd13ifvqeqg","pricing_plan_id":"cebpf4jnsgd1na2vs0mg"},{"bike_id":"04285caa-ff4b-4769-b10a-077e24b0e58f","system_id":"levelo_inurba_marseille","lat":43.29372,"lon":5.37863,"is_reserved":false,"is_disabled":false,"rental_uris":{"android":"levelo://app?vid=04285caa-ff4b-4769-b10a-077e24b0e58f","ios":"levelo://app?vid=04285caa-ff4b-4769-b10a-077e24b0e58f"},"vehicle_type_id":"4","last_reported":1721513297,"current_range_meters":0,"station_id":"ce4bgjh2rcd13ifvqbf0","pricing_plan_id":"cebpf4jnsgd1na2vs0mg"},{"bike_id":"f2eea2c5-63b2-4b6d-b714-26c469f57626","system_id":"levelo_inurba_marseille","lat":43.2936,"lon":5.37835,"is_reserved":false,"is_disabled":false,"rental_uris":{"android":"levelo://app?vid=f2eea2c5-63b2-4b6d-b714-26c469f57626","ios":"levelo://app?vid=f2eea2c5-63b2-4b6d-b714-26c469f57626"},"vehicle_type_id":"4","last_reported":1721513297,"current_range_meters":0,"station_id":"ce4bgjh2rcd13ifvqbf0","pricing_plan_id":"cebpf4jnsgd1na2vs0mg"},{"bike_id":"c2c0cca1-dcd4-42ac-866d-dba291965acc","system_id":"levelo_inurba_marseille","lat":43.29244,"lon":5.37498,"is_reserved":false,"is_disabled":false,"rental_uris":{"android":"levelo://app?vid=c2c0cca1-dcd4-42ac-866d-dba291965acc","ios":"levelo://app?vid=c2c0cca1-dcd4-42ac-866d-dba291965acc"},"vehicle_type_id":"4","last_reported":1721513297,"current_range_meters":2800,"station_id":"","pricing_plan_id":"cebpf4jnsgd1na2vs0mg"},{"bike_id":"59177313-ecf8-4e3d-9c95-99b974a37557","system_id":"levelo_inurba_marseille","lat":43.291671,"lon":5.371575,"is_reserved":false,"is_disabled":false,"rental_uris":{"android":"levelo://app?vid=59177313-ecf8-4e3d-9c95-99b974a37557","ios":"levelo://app?vid=59177313-ecf8-4e3d-9c95-99b974a37557"},"vehicle_type_id":"4","last_reported":1721513297,"current_range_meters":6000,"station_id":"ce4bha92rcd13ifvqeh0","pricing_plan_id":"cebpf4jnsgd1na2vs0mg"},{"bike_id":"c112cb4a-189f-4c58-a10a-07d96c7e291b","system_id":"levelo_inurba_marseille","lat":43.291671,"lon":5.371575,"is_reserved":false,"is_disabled":false,"rental_uris":{"android":"levelo://app?vid=c112cb4a-189f-4c58-a10a-07d96c7e291b","ios":"levelo://app?vid=c112cb4a-189f-4c58-a10a-07d96c7e291b"},"vehicle_type_id":"4","last_reported":1721513297,"current_range_meters":20400,"station_id":"ce4bha92rcd13ifvqeh0","pricing_plan_id":"cebpf4jnsgd1na2vs0mg"},{"bike_id":"218d37ed-028a-43c6-8519-3e08117c8dbe","system_id":"levelo_inurba_marseille","lat":43.291671,"lon":5.371575,"is_reserved":false,"is_disabled":false,"rental_uris":{"android":"levelo://app?vid=218d37ed-028a-43c6-8519-3e08117c8dbe","ios":"levelo://app?vid=218d37ed-028a-43c6-8519-3e08117c8dbe"},"vehicle_type_id":"4","last_reported":1721513297,"current_range_meters":4800,"station_id":"ce4bha92rcd13ifvqeh0","pricing_plan_id":"cebpf4jnsgd1na2vs0mg"},{"bike_id":"33771627-e105-4129-aa44-5af9aa26f38a","system_id":"levelo_inurba_marseille","lat":43.309038,"lon":5.396546,"is_reserved":false,"is_disabled":false,"rental_uris":{"android":"levelo://app?vid=33771627-e105-4129-aa44-5af9aa26f38a","ios":"levelo://app?vid=33771627-e105-4129-aa44-5af9aa26f38a"},"vehicle_type_id":"4","last_reported":1721513297,"current_range_meters":15600,"station_id":"ce4bh012rcd13ifvqcv0","pricing_plan_id":"cebpf4jnsgd1na2vs0mg"},{"bike_id":"920caefd-62a6-47dd-b538-1d86025d0922","system_id":"levelo_inurba_marseille","lat":43.309038,"lon":5.396546,"is_reserved":false,"is_disabled":false,"rental_uris":{"android":"levelo://app?vid=920caefd-62a6-47dd-b538-1d86025d0922","ios":"levelo://app?vid=920caefd-62a6-47dd-b538-1d86025d0922"},"vehicle_type_id":"4","last_reported":1721513297,"current_range_meters":26800,"station_id":"ce4bh012rcd13ifvqcv0","pricing_plan_id":"cebpf4jnsgd1na2vs0mg"},{"bike_id":"52558ca6-e30c-44f5-a845-60501bc926b7","system_id":"levelo_inurba_marseille","lat":43.31324,"lon":5.39686,"is_reserved":false,"is_disabled":false,"rental_uris":{"android":"levelo://app?vid=52558ca6-e30c-44f5-a845-60501bc926b7","ios":"levelo://app?vid=52558ca6-e30c-44f5-a845-60501bc926b7"},"vehicle_type_id":"4","last_reported":1721513297,"current_range_meters":27600,"station_id":"ce4bgvp2rcd13ifvqcu0","pricing_plan_id":"cebpf4jnsgd1na2vs0mg"},{"bike_id":"411a8b4f-6dc1-497d-9a00-f755e7343cc0","system_id":"levelo_inurba_marseille","lat":43.309038,"lon":5.396546,"is_reserved":false,"is_disabled":false,"rental_uris":{"android":"levelo://app?vid=411a8b4f-6dc1-497d-9a00-f755e7343cc0","ios":"levelo://app?vid=411a8b4f-6dc1-497d-9a00-f755e7343cc0"},"vehicle_type_id":"4","last_reported":1721513297,"current_range_meters":13600,"station_id":"ce4bh012rcd13ifvqcv0","pricing_plan_id":"cebpf4jnsgd1na2vs0mg"},{"bike_id":"df8aec4d-0a74-4e5d-8a69-34de9d291cae","system_id":"levelo_inurba_marseille","lat":43.3133,"lon":5.39687,"is_reserved":false,"is_disabled":false,"rental_uris":{"android":"levelo://app?vid=df8aec4d-0a74-4e5d-8a69-34de9d291cae","ios":"levelo://app?vid=df8aec4d-0a74-4e5d-8a69-34de9d291cae"},"vehicle_type_id":"4","last_reported":1721513297,"current_range_meters":6800,"station_id":"ce4bgvp2rcd13ifvqcu0","pricing_plan_id":"cebpf4jnsgd1na2vs0mg"},{"bike_id":"940b5027-55e6-465b-810b-d398b04da51d","system_id":"levelo_inurba_marseille","lat":43.29195,"lon":5.35791,"is_reserved":false,"is_disabled":false,"rental_uris":{"android":"levelo://app?vid=940b5027-55e6-465b-810b-d398b04da51d","ios":"levelo://app?vid=940b5027-55e6-465b-810b-d398b04da51d"},"vehicle_type_id":"4","last_reported":1721513297,"current_range_meters":0,"station_id":"ce4bhb12rcd13ifvqel0","pricing_plan_id":"cebpf4jnsgd1na2vs0mg"},{"bike_id":"6894a2b7-dd4b-4f92-bed0-32c77bb5431d","system_id":"levelo_inurba_marseille","lat":43.309047,"lon":5.396551,"is_reserved":false,"is_disabled":false,"rental_uris":{"android":"levelo://app?vid=6894a2b7-dd4b-4f92-bed0-32c77bb5431d","ios":"levelo://app?vid=6894a2b7-dd4b-4f92-bed0-32c77bb5431d"},"vehicle_type_id":"4","last_reported":1721513297,"current_range_meters":2800,"station_id":"ce4bh012rcd13ifvqcv0","pricing_plan_id":"cebpf4jnsgd1na2vs0mg"},{"bike_id":"1e1b59b5-f070-4e8a-89b9-4c3ca1556e2a","system_id":"levelo_inurba_marseille","lat":43.309038,"lon":5.396546,"is_reserved":false,"is_disabled":false,"rental_uris":{"android":"levelo://app?vid=1e1b59b5-f070-4e8a-89b9-4c3ca1556e2a","ios":"levelo://app?vid=1e1b59b5-f070-4e8a-89b9-4c3ca1556e2a"},"vehicle_type_id":"4","last_reported":1721513297,"current_range_meters":26400,"station_id":"ce4bh012rcd13ifvqcv0","pricing_plan_id":"cebpf4jnsgd1na2vs0mg"},{"bike_id":"14b292e0-df09-4726-8366-cf77a19171a9","system_id":"levelo_inurba_marseille","lat":43.313291,"lon":5.396838,"is_reserved":false,"is_disabled":false,"rental_uris":{"android":"levelo://app?vid=14b292e0-df09-4726-8366-cf77a19171a9","ios":"levelo://app?vid=14b292e0-df09-4726-8366-cf77a19171a9"},"vehicle_type_id":"4","last_reported":1721513297,"current_range_meters":18800,"station_id":"ce4bgvp2rcd13ifvqcu0","pricing_plan_id":"cebpf4jnsgd1na2vs0mg"},{"bike_id":"b5855b7d-2f84-48cb-b937-23fdebdb1d18","system_id":"levelo_inurba_marseille","lat":43.313291,"lon":5.396838,"is_reserved":false,"is_disabled":false,"rental_uris":{"android":"levelo://app?vid=b5855b7d-2f84-48cb-b937-23fdebdb1d18","ios":"levelo://app?vid=b5855b7d-2f84-48cb-b937-23fdebdb1d18"},"vehicle_type_id":"4","last_reported":1721513297,"current_range_meters":6800,"station_id":"ce4bgvp2rcd13ifvqcu0","pricing_plan_id":"cebpf4jnsgd1na2vs0mg"},{"bike_id":"e3d2e934-2f64-40eb-85e5-9e205a7adc41","system_id":"levelo_inurba_marseille","lat":43.313291,"lon":5.396838,"is_reserved":false,"is_disabled":false,"rental_uris":{"android":"levelo://app?vid=e3d2e934-2f64-40eb-85e5-9e205a7adc41","ios":"levelo://app?vid=e3d2e934-2f64-40eb-85e5-9e205a7adc41"},"vehicle_type_id":"4","last_reported":1721513297,"current_range_meters":0,"station_id":"ce4bgvp2rcd13ifvqcu0","pricing_plan_id":"cebpf4jnsgd1na2vs0mg"},{"bike_id":"3234afc0-8a4e-40a2-ba0e-de29995d98e3","system_id":"levelo_inurba_marseille","lat":43.309047,"lon":5.396551,"is_reserved":false,"is_disabled":false,"rental_uris":{"android":"levelo://app?vid=3234afc0-8a4e-40a2-ba0e-de29995d98e3","ios":"levelo://app?vid=3234afc0-8a4e-40a2-ba0e-de29995d98e3"},"vehicle_type_id":"4","last_reported":1721513297,"current_range_meters":19200,"station_id":"ce4bh012rcd13ifvqcv0","pricing_plan_id":"cebpf4jnsgd1na2vs0mg"},{"bike_id":"c9846bbd-183d-444a-9dd3-b33f1ae4ef89","system_id":"levelo_inurba_marseille","lat":43.309038,"lon":5.396546,"is_reserved":false,"is_disabled":false,"rental_uris":{"android":"levelo://app?vid=c9846bbd-183d-444a-9dd3-b33f1ae4ef89","ios":"levelo://app?vid=c9846bbd-183d-444a-9dd3-b33f1ae4ef89"},"vehicle_type_id":"4","last_reported":1721513297,"current_range_meters":24800,"station_id":"ce4bh012rcd13ifvqcv0","pricing_plan_id":"cebpf4jnsgd1na2vs0mg"},{"bike_id":"b9138ac3-7a6c-4a81-b2bd-5be0492cd9c1","system_id":"levelo_inurba_marseille","lat":43.309047,"lon":5.396551,"is_reserved":false,"is_disabled":false,"rental_uris":{"android":"levelo://app?vid=b9138ac3-7a6c-4a81-b2bd-5be0492cd9c1","ios":"levelo://app?vid=b9138ac3-7a6c-4a81-b2bd-5be0492cd9c1"},"vehicle_type_id":"4","last_reported":1721513297,"current_range_meters":10800,"station_id":"ce4bh012rcd13ifvqcv0","pricing_plan_id":"cebpf4jnsgd1na2vs0mg"},{"bike_id":"4cdd5f22-46ef-46d6-bb53-c8f8b7ed6db0","system_id":"levelo_inurba_marseille","lat":43.31331,"lon":5.39702,"is_reserved":false,"is_disabled":false,"rental_uris":{"android":"levelo://app?vid=4cdd5f22-46ef-46d6-bb53-c8f8b7ed6db0","ios":"levelo://app?vid=4cdd5f22-46ef-46d6-bb53-c8f8b7ed6db0"},"vehicle_type_id":"4","last_reported":1721513297,"current_range_meters":10400,"station_id":"ce4bgvp2rcd13ifvqcu0","pricing_plan_id":"cebpf4jnsgd1na2vs0mg"},{"bike_id":"a1f5becb-c21a-45b9-9296-dc381aba2eb3","system_id":"levelo_inurba_marseille","lat":43.309047,"lon":5.396551,"is_reserved":false,"is_disabled":false,"rental_uris":{"android":"levelo://app?vid=a1f5becb-c21a-45b9-9296-dc381aba2eb3","ios":"levelo://app?vid=a1f5becb-c21a-45b9-9296-dc381aba2eb3"},"vehicle_type_id":"4","last_reported":1721513297,"current_range_meters":10000,"station_id":"ce4bh012rcd13ifvqcv0","pricing_plan_id":"cebpf4jnsgd1na2vs0mg"},{"bike_id":"d565a7d1-8284-4160-80f1-9d7b98a77c18","system_id":"levelo_inurba_marseille","lat":43.29538,"lon":5.38553,"is_reserved":false,"is_disabled":false,"rental_uris":{"android":"levelo://app?vid=d565a7d1-8284-4160-80f1-9d7b98a77c18","ios":"levelo://app?vid=d565a7d1-8284-4160-80f1-9d7b98a77c18"},"vehicle_type_id":"4","last_reported":1721513297,"current_range_meters":30800,"station_id":"ce4bgih2rcd13ifvqba0","pricing_plan_id":"cebpf4jnsgd1na2vs0mg"},{"bike_id":"dbce3027-f1b1-46a4-a3d3-fd7e93c1d4ba","system_id":"levelo_inurba_marseille","lat":43.332406,"lon":5.380534,"is_reserved":false,"is_disabled":false,"rental_uris":{"android":"levelo://app?vid=dbce3027-f1b1-46a4-a3d3-fd7e93c1d4ba","ios":"levelo://app?vid=dbce3027-f1b1-46a4-a3d3-fd7e93c1d4ba"},"vehicle_type_id":"4","last_reported":1721513297,"current_range_meters":0,"station_id":"","pricing_plan_id":"cebpf4jnsgd1na2vs0mg"},{"bike_id":"86da704b-37c5-4cab-bce2-5dd0fcbe0a1e","system_id":"levelo_inurba_marseille","lat":43.302008,"lon":5.394694,"is_reserved":false,"is_disabled":false,"rental_uris":{"android":"levelo://app?vid=86da704b-37c5-4cab-bce2-5dd0fcbe0a1e","ios":"levelo://app?vid=86da704b-37c5-4cab-bce2-5dd0fcbe0a1e"},"vehicle_type_id":"4","last_reported":1721513297,"current_range_meters":2000,"station_id":"ce4bh0p2rcd13ifvqd70","pricing_plan_id":"cebpf4jnsgd1na2vs0mg"},{"bike_id":"7633d94b-9b74-4bac-aa5d-17adff451c89","system_id":"levelo_inurba_marseille","lat":43.290631,"lon":5.359244,"is_reserved":false,"is_disabled":false,"rental_uris":{"android":"levelo://app?vid=7633d94b-9b74-4bac-aa5d-17adff451c89","ios":"levelo://app?vid=7633d94b-9b74-4bac-aa5d-17adff451c89"},"vehicle_type_id":"4","last_reported":1721513297,"current_range_meters":25600,"station_id":"ce4bha92rcd13ifvqeg0","pricing_plan_id":"cebpf4jnsgd1na2vs0mg"},{"bike_id":"4d8eac3c-8a13-457e-bb05-912549e26d95","system_id":"levelo_inurba_marseille","lat":43.290402,"lon":5.375051,"is_reserved":false,"is_disabled":false,"rental_uris":{"android":"levelo://app?vid=4d8eac3c-8a13-457e-bb05-912549e26d95","ios":"levelo://app?vid=4d8eac3c-8a13-457e-bb05-912549e26d95"},"vehicle_type_id":"4","last_reported":1721513297,"current_range_meters":4000,"station_id":"","pricing_plan_id":"cebpf4jnsgd1na2vs0mg"},{"bike_id":"8eac3f96-0178-49d8-9ab2-9426862a4a5f","system_id":"levelo_inurba_marseille","lat":43.29042,"lon":5.37559,"is_reserved":false,"is_disabled":false,"rental_uris":{"android":"levelo://app?vid=8eac3f96-0178-49d8-9ab2-9426862a4a5f","ios":"levelo://app?vid=8eac3f96-0178-49d8-9ab2-9426862a4a5f"},"vehicle_type_id":"4","last_reported":1721513297,"current_range_meters":17600,"station_id":"ce4bh692rcd13ifvqe90","pricing_plan_id":"cebpf4jnsgd1na2vs0mg"},{"bike_id":"512cb0b9-20ff-4097-92be-e5895d70da3c","system_id":"levelo_inurba_marseille","lat":43.29041,"lon":5.37561,"is_reserved":false,"is_disabled":false,"rental_uris":{"android":"levelo://app?vid=512cb0b9-20ff-4097-92be-e5895d70da3c","ios":"levelo://app?vid=512cb0b9-20ff-4097-92be-e5895d70da3c"},"vehicle_type_id":"4","last_reported":1721513297,"current_range_meters":15200,"station_id":"ce4bh692rcd13ifvqe90","pricing_plan_id":"cebpf4jnsgd1na2vs0mg"},{"bike_id":"5423cb67-66dc-4285-8c57-1fbb90568e03","system_id":"levelo_inurba_marseille","lat":43.2942,"lon":5.38623,"is_reserved":false,"is_disabled":false,"rental_uris":{"android":"levelo://app?vid=5423cb67-66dc-4285-8c57-1fbb90568e03","ios":"levelo://app?vid=5423cb67-66dc-4285-8c57-1fbb90568e03"},"vehicle_type_id":"4","last_reported":1721513297,"current_range_meters":0,"station_id":"ce4bh2h2rcd13ifvqdh0","pricing_plan_id":"cebpf4jnsgd1na2vs0mg"},{"bike_id":"8be4e453-f616-459e-b4d8-20163846997e","system_id":"levelo_inurba_marseille","lat":43.294162,"lon":5.386292,"is_reserved":false,"is_disabled":false,"rental_uris":{"android":"levelo://app?vid=8be4e453-f616-459e-b4d8-20163846997e","ios":"levelo://app?vid=8be4e453-f616-459e-b4d8-20163846997e"},"vehicle_type_id":"4","last_reported":1721513297,"current_range_meters":1600,"station_id":"ce4bh2h2rcd13ifvqdh0","pricing_plan_id":"cebpf4jnsgd1na2vs0mg"},{"bike_id":"cdf58e68-369f-4aec-b383-94e2978ca491","system_id":"levelo_inurba_marseille","lat":43.29034,"lon":5.37566,"is_reserved":false,"is_disabled":false,"rental_uris":{"android":"levelo://app?vid=cdf58e68-369f-4aec-b383-94e2978ca491","ios":"levelo://app?vid=cdf58e68-369f-4aec-b383-94e2978ca491"},"vehicle_type_id":"4","last_reported":1721513297,"current_range_meters":11200,"station_id":"ce4bh692rcd13ifvqe90","pricing_plan_id":"cebpf4jnsgd1na2vs0mg"},{"bike_id":"b3a42b9d-13db-42d9-a916-72b68a16cad2","system_id":"levelo_inurba_marseille","lat":43.29416,"lon":5.38622,"is_reserved":false,"is_disabled":false,"rental_uris":{"android":"levelo://app?vid=b3a42b9d-13db-42d9-a916-72b68a16cad2","ios":"levelo://app?vid=b3a42b9d-13db-42d9-a916-72b68a16cad2"},"vehicle_type_id":"4","last_reported":1721513297,"current_range_meters":0,"station_id":"ce4bh2h2rcd13ifvqdh0","pricing_plan_id":"cebpf4jnsgd1na2vs0mg"},{"bike_id":"2876fd78-d587-4943-960e-6cebb4b40993","system_id":"levelo_inurba_marseille","lat":43.29031,"lon":5.37554,"is_reserved":false,"is_disabled":false,"rental_uris":{"android":"levelo://app?vid=2876fd78-d587-4943-960e-6cebb4b40993","ios":"levelo://app?vid=2876fd78-d587-4943-960e-6cebb4b40993"},"vehicle_type_id":"4","last_reported":1721513297,"current_range_meters":0,"station_id":"ce4bh692rcd13ifvqe90","pricing_plan_id":"cebpf4jnsgd1na2vs0mg"},{"bike_id":"98d87c28-5a16-4f98-900d-e8660d9e846e","system_id":"levelo_inurba_marseille","lat":43.29417,"lon":5.38628,"is_reserved":false,"is_disabled":false,"rental_uris":{"android":"levelo://app?vid=98d87c28-5a16-4f98-900d-e8660d9e846e","ios":"levelo://app?vid=98d87c28-5a16-4f98-900d-e8660d9e846e"},"vehicle_type_id":"4","last_reported":1721513297,"current_range_meters":0,"station_id":"ce4bh2h2rcd13ifvqdh0","pricing_plan_id":"cebpf4jnsgd1na2vs0mg"},{"bike_id":"4ceab3ae-e81f-4236-90cd-0e2808aec381","system_id":"levelo_inurba_marseille","lat":43.29416,"lon":5.38627,"is_reserved":false,"is_disabled":false,"rental_uris":{"android":"levelo://app?vid=4ceab3ae-e81f-4236-90cd-0e2808aec381","ios":"levelo://app?vid=4ceab3ae-e81f-4236-90cd-0e2808aec381"},"vehicle_type_id":"4","last_reported":1721513297,"current_range_meters":0,"station_id":"ce4bh2h2rcd13ifvqdh0","pricing_plan_id":"cebpf4jnsgd1na2vs0mg"},{"bike_id":"9245d8be-159d-4308-af39-63872afc0344","system_id":"levelo_inurba_marseille","lat":43.294162,"lon":5.386292,"is_reserved":false,"is_disabled":false,"rental_uris":{"android":"levelo://app?vid=9245d8be-159d-4308-af39-63872afc0344","ios":"levelo://app?vid=9245d8be-159d-4308-af39-63872afc0344"},"vehicle_type_id":"4","last_reported":1721513297,"current_range_meters":0,"station_id":"ce4bh2h2rcd13ifvqdh0","pricing_plan_id":"cebpf4jnsgd1na2vs0mg"},{"bike_id":"92f3f10f-1380-4002-9e67-971e3d5a6f35","system_id":"levelo_inurba_marseille","lat":43.29417,"lon":5.38629,"is_reserved":false,"is_disabled":false,"rental_uris":{"android":"levelo://app?vid=92f3f10f-1380-4002-9e67-971e3d5a6f35","ios":"levelo://app?vid=92f3f10f-1380-4002-9e67-971e3d5a6f35"},"vehicle_type_id":"4","last_reported":1721513297,"current_range_meters":0,"station_id":"ce4bh2h2rcd13ifvqdh0","pricing_plan_id":"cebpf4jnsgd1na2vs0mg"},{"bike_id":"16b7c680-44a7-463b-94ec-0c7a5fcf84e0","system_id":"levelo_inurba_marseille","lat":43.289468,"lon":5.363719,"is_reserved":false,"is_disabled":false,"rental_uris":{"android":"levelo://app?vid=16b7c680-44a7-463b-94ec-0c7a5fcf84e0","ios":"levelo://app?vid=16b7c680-44a7-463b-94ec-0c7a5fcf84e0"},"vehicle_type_id":"4","last_reported":1721513297,"current_range_meters":800,"station_id":"ce4bhc92rcd13ifvqetg","pricing_plan_id":"cebpf4jnsgd1na2vs0mg"},{"bike_id":"ef02f2ea-6af4-4cca-ba2c-7ca370e79522","system_id":"levelo_inurba_marseille","lat":43.289184,"lon":5.366408,"is_reserved":false,"is_disabled":false,"rental_uris":{"android":"levelo://app?vid=ef02f2ea-6af4-4cca-ba2c-7ca370e79522","ios":"levelo://app?vid=ef02f2ea-6af4-4cca-ba2c-7ca370e79522"},"vehicle_type_id":"4","last_reported":1721513297,"current_range_meters":9200,"station_id":"ce4bhap2rcd13ifvqek0","pricing_plan_id":"cebpf4jnsgd1na2vs0mg"},{"bike_id":"4c2a9225-ece9-4676-944b-2ec33caf41b8","system_id":"levelo_inurba_marseille","lat":43.29412,"lon":5.38627,"is_reserved":false,"is_disabled":false,"rental_uris":{"android":"levelo://app?vid=4c2a9225-ece9-4676-944b-2ec33caf41b8","ios":"levelo://app?vid=4c2a9225-ece9-4676-944b-2ec33caf41b8"},"vehicle_type_id":"4","last_reported":1721513297,"current_range_meters":0,"station_id":"ce4bh2h2rcd13ifvqdh0","pricing_plan_id":"cebpf4jnsgd1na2vs0mg"},{"bike_id":"8ebff9c3-84b9-4d09-8500-181601616e84","system_id":"levelo_inurba_marseille","lat":43.289184,"lon":5.366408,"is_reserved":false,"is_disabled":false,"rental_uris":{"android":"levelo://app?vid=8ebff9c3-84b9-4d09-8500-181601616e84","ios":"levelo://app?vid=8ebff9c3-84b9-4d09-8500-181601616e84"},"vehicle_type_id":"4","last_reported":1721513297,"current_range_meters":20800,"station_id":"ce4bhap2rcd13ifvqek0","pricing_plan_id":"cebpf4jnsgd1na2vs0mg"},{"bike_id":"505078a5-0ca9-43b2-b849-2a1d42687205","system_id":"levelo_inurba_marseille","lat":43.29269,"lon":5.38437,"is_reserved":false,"is_disabled":false,"rental_uris":{"android":"levelo://app?vid=505078a5-0ca9-43b2-b849-2a1d42687205","ios":"levelo://app?vid=505078a5-0ca9-43b2-b849-2a1d42687205"},"vehicle_type_id":"4","last_reported":1721513297,"current_range_meters":0,"station_id":"ce4bh692rcd13ifvqea0","pricing_plan_id":"cebpf4jnsgd1na2vs0mg"},{"bike_id":"2d15ebb8-ad66-4006-9b63-c047dfebd362","system_id":"levelo_inurba_marseille","lat":43.304274,"lon":5.397513,"is_reserved":false,"is_disabled":false,"rental_uris":{"android":"levelo://app?vid=2d15ebb8-ad66-4006-9b63-c047dfebd362","ios":"levelo://app?vid=2d15ebb8-ad66-4006-9b63-c047dfebd362"},"vehicle_type_id":"4","last_reported":1721513297,"current_range_meters":14000,"station_id":"ce4bh092rcd13ifvqd20","pricing_plan_id":"cebpf4jnsgd1na2vs0mg"},{"bike_id":"448dd913-3dd5-4f63-ae2b-de2034a4fc99","system_id":"levelo_inurba_marseille","lat":43.304274,"lon":5.397513,"is_reserved":false,"is_disabled":false,"rental_uris":{"android":"levelo://app?vid=448dd913-3dd5-4f63-ae2b-de2034a4fc99","ios":"levelo://app?vid=448dd913-3dd5-4f63-ae2b-de2034a4fc99"},"vehicle_type_id":"4","last_reported":1721513297,"current_range_meters":20400,"station_id":"ce4bh092rcd13ifvqd20","pricing_plan_id":"cebpf4jnsgd1na2vs0mg"},{"bike_id":"4e93009d-1bea-40e7-a183-6423531cd4c9","system_id":"levelo_inurba_marseille","lat":43.29269,"lon":5.38449,"is_reserved":false,"is_disabled":false,"rental_uris":{"android":"levelo://app?vid=4e93009d-1bea-40e7-a183-6423531cd4c9","ios":"levelo://app?vid=4e93009d-1bea-40e7-a183-6423531cd4c9"},"vehicle_type_id":"4","last_reported":1721513297,"current_range_meters":0,"station_id":"ce4bh692rcd13ifvqea0","pricing_plan_id":"cebpf4jnsgd1na2vs0mg"},{"bike_id":"e918e0cc-5311-4bd4-a3c1-a16703bf7547","system_id":"levelo_inurba_marseille","lat":43.292642,"lon":5.384254,"is_reserved":false,"is_disabled":false,"rental_uris":{"android":"levelo://app?vid=e918e0cc-5311-4bd4-a3c1-a16703bf7547","ios":"levelo://app?vid=e918e0cc-5311-4bd4-a3c1-a16703bf7547"},"vehicle_type_id":"4","last_reported":1721513297,"current_range_meters":0,"station_id":"ce4bh692rcd13ifvqea0","pricing_plan_id":"cebpf4jnsgd1na2vs0mg"},{"bike_id":"09fc221a-3870-4d29-b878-386ac982b053","system_id":"levelo_inurba_marseille","lat":43.304296,"lon":5.397513,"is_reserved":false,"is_disabled":false,"rental_uris":{"android":"levelo://app?vid=09fc221a-3870-4d29-b878-386ac982b053","ios":"levelo://app?vid=09fc221a-3870-4d29-b878-386ac982b053"},"vehicle_type_id":"4","last_reported":1721513297,"current_range_meters":13600,"station_id":"ce4bh092rcd13ifvqd20","pricing_plan_id":"cebpf4jnsgd1na2vs0mg"},{"bike_id":"84acf8d9-215c-4c69-ba70-d2f4957475dc","system_id":"levelo_inurba_marseille","lat":43.304274,"lon":5.397513,"is_reserved":false,"is_disabled":false,"rental_uris":{"android":"levelo://app?vid=84acf8d9-215c-4c69-ba70-d2f4957475dc","ios":"levelo://app?vid=84acf8d9-215c-4c69-ba70-d2f4957475dc"},"vehicle_type_id":"4","last_reported":1721513297,"current_range_meters":18000,"station_id":"ce4bh092rcd13ifvqd20","pricing_plan_id":"cebpf4jnsgd1na2vs0mg"},{"bike_id":"83d0497b-6cd9-406b-ba0d-c3ef4c4f9063","system_id":"levelo_inurba_marseille","lat":43.304296,"lon":5.397513,"is_reserved":false,"is_disabled":false,"rental_uris":{"android":"levelo://app?vid=83d0497b-6cd9-406b-ba0d-c3ef4c4f9063","ios":"levelo://app?vid=83d0497b-6cd9-406b-ba0d-c3ef4c4f9063"},"vehicle_type_id":"4","last_reported":1721513297,"current_range_meters":18400,"station_id":"ce4bh092rcd13ifvqd20","pricing_plan_id":"cebpf4jnsgd1na2vs0mg"},{"bike_id":"004c3503-2a48-47c7-9aba-6102f985c588","system_id":"levelo_inurba_marseille","lat":43.29259,"lon":5.384403,"is_reserved":false,"is_disabled":false,"rental_uris":{"android":"levelo://app?vid=004c3503-2a48-47c7-9aba-6102f985c588","ios":"levelo://app?vid=004c3503-2a48-47c7-9aba-6102f985c588"},"vehicle_type_id":"4","last_reported":1721513297,"current_range_meters":0,"station_id":"ce4bh692rcd13ifvqea0","pricing_plan_id":"cebpf4jnsgd1na2vs0mg"},{"bike_id":"f694815e-b925-4d83-bcf4-9bf2b1345bb5","system_id":"levelo_inurba_marseille","lat":43.2926,"lon":5.3845,"is_reserved":false,"is_disabled":false,"rental_uris":{"android":"levelo://app?vid=f694815e-b925-4d83-bcf4-9bf2b1345bb5","ios":"levelo://app?vid=f694815e-b925-4d83-bcf4-9bf2b1345bb5"},"vehicle_type_id":"4","last_reported":1721513297,"current_range_meters":0,"station_id":"ce4bh692rcd13ifvqea0","pricing_plan_id":"cebpf4jnsgd1na2vs0mg"},{"bike_id":"dfce5b97-39b5-4b07-a041-15fd1721cfdd","system_id":"levelo_inurba_marseille","lat":43.290104,"lon":5.356111,"is_reserved":false,"is_disabled":false,"rental_uris":{"android":"levelo://app?vid=dfce5b97-39b5-4b07-a041-15fd1721cfdd","ios":"levelo://app?vid=dfce5b97-39b5-4b07-a041-15fd1721cfdd"},"vehicle_type_id":"4","last_reported":1721513297,"current_range_meters":400,"station_id":"ce4bhb92rcd13ifvqen0","pricing_plan_id":"cebpf4jnsgd1na2vs0mg"},{"bike_id":"77cf18d0-2a79-46d0-97c3-34e1c8073d7d","system_id":"levelo_inurba_marseille","lat":43.29105,"lon":5.38145,"is_reserved":false,"is_disabled":false,"rental_uris":{"android":"levelo://app?vid=77cf18d0-2a79-46d0-97c3-34e1c8073d7d","ios":"levelo://app?vid=77cf18d0-2a79-46d0-97c3-34e1c8073d7d"},"vehicle_type_id":"4","last_reported":1721513297,"current_range_meters":0,"station_id":"ce4bh512rcd13ifvqe2g","pricing_plan_id":"cebpf4jnsgd1na2vs0mg"},{"bike_id":"0d3ba3b8-3577-44c9-a15a-ede8f9219f7c","system_id":"levelo_inurba_marseille","lat":43.297807,"lon":5.393533,"is_reserved":false,"is_disabled":false,"rental_uris":{"android":"levelo://app?vid=0d3ba3b8-3577-44c9-a15a-ede8f9219f7c","ios":"levelo://app?vid=0d3ba3b8-3577-44c9-a15a-ede8f9219f7c"},"vehicle_type_id":"4","last_reported":1721513297,"current_range_meters":7600,"station_id":"chh1huq6cuj3fo74tm60","pricing_plan_id":"cebpf4jnsgd1na2vs0mg"},{"bike_id":"3992961e-5698-472e-9c79-bd3ff6e8a9b5","system_id":"levelo_inurba_marseille","lat":43.28979,"lon":5.3783,"is_reserved":false,"is_disabled":false,"rental_uris":{"android":"levelo://app?vid=3992961e-5698-472e-9c79-bd3ff6e8a9b5","ios":"levelo://app?vid=3992961e-5698-472e-9c79-bd3ff6e8a9b5"},"vehicle_type_id":"4","last_reported":1721513297,"current_range_meters":0,"station_id":"ce4bh9p2rcd13ifvqed0","pricing_plan_id":"cebpf4jnsgd1na2vs0mg"},{"bike_id":"bee761b4-9228-4cf3-82bf-e1088ff31759","system_id":"levelo_inurba_marseille","lat":43.297815,"lon":5.393548,"is_reserved":false,"is_disabled":false,"rental_uris":{"android":"levelo://app?vid=bee761b4-9228-4cf3-82bf-e1088ff31759","ios":"levelo://app?vid=bee761b4-9228-4cf3-82bf-e1088ff31759"},"vehicle_type_id":"4","last_reported":1721513297,"current_range_meters":2800,"station_id":"chh1huq6cuj3fo74tm60","pricing_plan_id":"cebpf4jnsgd1na2vs0mg"},{"bike_id":"873bd8e6-81c9-4ac9-bcd8-7efc0d23213e","system_id":"levelo_inurba_marseille","lat":43.330442,"lon":5.389148,"is_reserved":false,"is_disabled":false,"rental_uris":{"android":"levelo://app?vid=873bd8e6-81c9-4ac9-bcd8-7efc0d23213e","ios":"levelo://app?vid=873bd8e6-81c9-4ac9-bcd8-7efc0d23213e"},"vehicle_type_id":"4","last_reported":1721513297,"current_range_meters":2000,"station_id":"ce4bhr92rcd13ifvqhrg","pricing_plan_id":"cebpf4jnsgd1na2vs0mg"},{"bike_id":"6e276623-2584-4bab-af54-57fa6c553707","system_id":"levelo_inurba_marseille","lat":43.330442,"lon":5.389148,"is_reserved":false,"is_disabled":false,"rental_uris":{"android":"levelo://app?vid=6e276623-2584-4bab-af54-57fa6c553707","ios":"levelo://app?vid=6e276623-2584-4bab-af54-57fa6c553707"},"vehicle_type_id":"4","last_reported":1721513297,"current_range_meters":1600,"station_id":"ce4bhr92rcd13ifvqhrg","pricing_plan_id":"cebpf4jnsgd1na2vs0mg"},{"bike_id":"f7f27b00-f0ae-414e-b731-d4d17b9b5928","system_id":"levelo_inurba_marseille","lat":43.330442,"lon":5.389148,"is_reserved":false,"is_disabled":false,"rental_uris":{"android":"levelo://app?vid=f7f27b00-f0ae-414e-b731-d4d17b9b5928","ios":"levelo://app?vid=f7f27b00-f0ae-414e-b731-d4d17b9b5928"},"vehicle_type_id":"4","last_reported":1721513297,"current_range_meters":22400,"station_id":"ce4bhr92rcd13ifvqhrg","pricing_plan_id":"cebpf4jnsgd1na2vs0mg"},{"bike_id":"3f948297-240f-4f4e-b127-457767ad6119","system_id":"levelo_inurba_marseille","lat":43.33023,"lon":5.39044,"is_reserved":false,"is_disabled":false,"rental_uris":{"android":"levelo://app?vid=3f948297-240f-4f4e-b127-457767ad6119","ios":"levelo://app?vid=3f948297-240f-4f4e-b127-457767ad6119"},"vehicle_type_id":"4","last_reported":1721513297,"current_range_meters":5600,"station_id":"ce4bhr92rcd13ifvqhrg","pricing_plan_id":"cebpf4jnsgd1na2vs0mg"},{"bike_id":"e7419046-5805-4c0f-86a5-bf1f95f9ca9b","system_id":"levelo_inurba_marseille","lat":43.290094,"lon":5.381264,"is_reserved":false,"is_disabled":false,"rental_uris":{"android":"levelo://app?vid=e7419046-5805-4c0f-86a5-bf1f95f9ca9b","ios":"levelo://app?vid=e7419046-5805-4c0f-86a5-bf1f95f9ca9b"},"vehicle_type_id":"4","last_reported":1721513297,"current_range_meters":6400,"station_id":"ce4bh4p2rcd13ifvqe1g","pricing_plan_id":"cebpf4jnsgd1na2vs0mg"},{"bike_id":"8edc7c14-abc8-4a6d-bc5f-4687cc8699ba","system_id":"levelo_inurba_marseille","lat":43.290094,"lon":5.381264,"is_reserved":false,"is_disabled":false,"rental_uris":{"android":"levelo://app?vid=8edc7c14-abc8-4a6d-bc5f-4687cc8699ba","ios":"levelo://app?vid=8edc7c14-abc8-4a6d-bc5f-4687cc8699ba"},"vehicle_type_id":"4","last_reported":1721513297,"current_range_meters":0,"station_id":"ce4bh4p2rcd13ifvqe1g","pricing_plan_id":"cebpf4jnsgd1na2vs0mg"},{"bike_id":"baaab877-b0cc-4e2f-9fb5-179dbe9957d3","system_id":"levelo_inurba_marseille","lat":43.312609,"lon":5.401662,"is_reserved":false,"is_disabled":false,"rental_uris":{"android":"levelo://app?vid=baaab877-b0cc-4e2f-9fb5-179dbe9957d3","ios":"levelo://app?vid=baaab877-b0cc-4e2f-9fb5-179dbe9957d3"},"vehicle_type_id":"4","last_reported":1721513297,"current_range_meters":3200,"station_id":"ce4bh092rcd13ifvqd30","pricing_plan_id":"cebpf4jnsgd1na2vs0mg"},{"bike_id":"3a20127f-d3d2-47e2-8032-bb96e7d604d5","system_id":"levelo_inurba_marseille","lat":43.28856,"lon":5.358371,"is_reserved":false,"is_disabled":false,"rental_uris":{"android":"levelo://app?vid=3a20127f-d3d2-47e2-8032-bb96e7d604d5","ios":"levelo://app?vid=3a20127f-d3d2-47e2-8032-bb96e7d604d5"},"vehicle_type_id":"4","last_reported":1721513297,"current_range_meters":9600,"station_id":"ce4bhb12rcd13ifvqem0","pricing_plan_id":"cebpf4jnsgd1na2vs0mg"},{"bike_id":"a38e5ebe-5f35-42c0-8e3f-d936e6af3c68","system_id":"levelo_inurba_marseille","lat":43.31281,"lon":5.40164,"is_reserved":false,"is_disabled":false,"rental_uris":{"android":"levelo://app?vid=a38e5ebe-5f35-42c0-8e3f-d936e6af3c68","ios":"levelo://app?vid=a38e5ebe-5f35-42c0-8e3f-d936e6af3c68"},"vehicle_type_id":"4","last_reported":1721513297,"current_range_meters":17600,"station_id":"ce4bh092rcd13ifvqd30","pricing_plan_id":"cebpf4jnsgd1na2vs0mg"},{"bike_id":"b1048006-c7d3-4894-99fe-8594aaf9d1cc","system_id":"levelo_inurba_marseille","lat":43.309371,"lon":5.401449,"is_reserved":false,"is_disabled":false,"rental_uris":{"android":"levelo://app?vid=b1048006-c7d3-4894-99fe-8594aaf9d1cc","ios":"levelo://app?vid=b1048006-c7d3-4894-99fe-8594aaf9d1cc"},"vehicle_type_id":"4","last_reported":1721513297,"current_range_meters":7200,"station_id":"ce4bgvp2rcd13ifvqct0","pricing_plan_id":"cebpf4jnsgd1na2vs0mg"},{"bike_id":"9458a255-a47a-41f1-849e-755dc4612ffe","system_id":"levelo_inurba_marseille","lat":43.337458,"lon":5.374524,"is_reserved":false,"is_disabled":false,"rental_uris":{"android":"levelo://app?vid=9458a255-a47a-41f1-849e-755dc4612ffe","ios":"levelo://app?vid=9458a255-a47a-41f1-849e-755dc4612ffe"},"vehicle_type_id":"4","last_reported":1721513297,"current_range_meters":20400,"station_id":"","pricing_plan_id":"cebpf4jnsgd1na2vs0mg"},{"bike_id":"1c8e15cd-28e9-4d58-940a-b801c54c74d3","system_id":"levelo_inurba_marseille","lat":43.309371,"lon":5.401449,"is_reserved":false,"is_disabled":false,"rental_uris":{"android":"levelo://app?vid=1c8e15cd-28e9-4d58-940a-b801c54c74d3","ios":"levelo://app?vid=1c8e15cd-28e9-4d58-940a-b801c54c74d3"},"vehicle_type_id":"4","last_reported":1721513297,"current_range_meters":14000,"station_id":"ce4bgvp2rcd13ifvqct0","pricing_plan_id":"cebpf4jnsgd1na2vs0mg"},{"bike_id":"119eb573-11c6-4519-be11-eb457e0bc63e","system_id":"levelo_inurba_marseille","lat":43.309371,"lon":5.401449,"is_reserved":false,"is_disabled":false,"rental_uris":{"android":"levelo://app?vid=119eb573-11c6-4519-be11-eb457e0bc63e","ios":"levelo://app?vid=119eb573-11c6-4519-be11-eb457e0bc63e"},"vehicle_type_id":"4","last_reported":1721513297,"current_range_meters":26400,"station_id":"ce4bgvp2rcd13ifvqct0","pricing_plan_id":"cebpf4jnsgd1na2vs0mg"},{"bike_id":"f2b0285e-2a10-45e4-9f01-200e462fb2d2","system_id":"levelo_inurba_marseille","lat":43.309371,"lon":5.401449,"is_reserved":false,"is_disabled":false,"rental_uris":{"android":"levelo://app?vid=f2b0285e-2a10-45e4-9f01-200e462fb2d2","ios":"levelo://app?vid=f2b0285e-2a10-45e4-9f01-200e462fb2d2"},"vehicle_type_id":"4","last_reported":1721513297,"current_range_meters":5600,"station_id":"ce4bgvp2rcd13ifvqct0","pricing_plan_id":"cebpf4jnsgd1na2vs0mg"},{"bike_id":"8c4ed729-f159-4178-9c24-ecf948d2b598","system_id":"levelo_inurba_marseille","lat":43.30937,"lon":5.40146,"is_reserved":false,"is_disabled":false,"rental_uris":{"android":"levelo://app?vid=8c4ed729-f159-4178-9c24-ecf948d2b598","ios":"levelo://app?vid=8c4ed729-f159-4178-9c24-ecf948d2b598"},"vehicle_type_id":"4","last_reported":1721513297,"current_range_meters":31200,"station_id":"ce4bgvp2rcd13ifvqct0","pricing_plan_id":"cebpf4jnsgd1na2vs0mg"},{"bike_id":"da1ef795-4411-4787-a704-e9710fe27f7e","system_id":"levelo_inurba_marseille","lat":43.337472,"lon":5.374599,"is_reserved":false,"is_disabled":false,"rental_uris":{"android":"levelo://app?vid=da1ef795-4411-4787-a704-e9710fe27f7e","ios":"levelo://app?vid=da1ef795-4411-4787-a704-e9710fe27f7e"},"vehicle_type_id":"4","last_reported":1721513297,"current_range_meters":21200,"station_id":"","pricing_plan_id":"cebpf4jnsgd1na2vs0mg"},{"bike_id":"072629c3-6d0f-4a59-a5af-80ebe0873b7d","system_id":"levelo_inurba_marseille","lat":43.309371,"lon":5.401449,"is_reserved":false,"is_disabled":false,"rental_uris":{"android":"levelo://app?vid=072629c3-6d0f-4a59-a5af-80ebe0873b7d","ios":"levelo://app?vid=072629c3-6d0f-4a59-a5af-80ebe0873b7d"},"vehicle_type_id":"4","last_reported":1721513297,"current_range_meters":32000,"station_id":"ce4bgvp2rcd13ifvqct0","pricing_plan_id":"cebpf4jnsgd1na2vs0mg"},{"bike_id":"d648bcfa-7c9c-47c4-b338-e4c53079ff68","system_id":"levelo_inurba_marseille","lat":43.309371,"lon":5.401449,"is_reserved":false,"is_disabled":false,"rental_uris":{"android":"levelo://app?vid=d648bcfa-7c9c-47c4-b338-e4c53079ff68","ios":"levelo://app?vid=d648bcfa-7c9c-47c4-b338-e4c53079ff68"},"vehicle_type_id":"4","last_reported":1721513297,"current_range_meters":11600,"station_id":"ce4bgvp2rcd13ifvqct0","pricing_plan_id":"cebpf4jnsgd1na2vs0mg"},{"bike_id":"e85c6621-89f3-4d16-a2cd-521c690124dc","system_id":"levelo_inurba_marseille","lat":43.30926,"lon":5.40149,"is_reserved":false,"is_disabled":false,"rental_uris":{"android":"levelo://app?vid=e85c6621-89f3-4d16-a2cd-521c690124dc","ios":"levelo://app?vid=e85c6621-89f3-4d16-a2cd-521c690124dc"},"vehicle_type_id":"4","last_reported":1721513297,"current_range_meters":21200,"station_id":"ce4bgvp2rcd13ifvqct0","pricing_plan_id":"cebpf4jnsgd1na2vs0mg"},{"bike_id":"0ad3db73-21e8-41b5-aad3-7f410c37748d","system_id":"levelo_inurba_marseille","lat":43.33754,"lon":5.37454,"is_reserved":false,"is_disabled":false,"rental_uris":{"android":"levelo://app?vid=0ad3db73-21e8-41b5-aad3-7f410c37748d","ios":"levelo://app?vid=0ad3db73-21e8-41b5-aad3-7f410c37748d"},"vehicle_type_id":"4","last_reported":1721513297,"current_range_meters":12800,"station_id":"","pricing_plan_id":"cebpf4jnsgd1na2vs0mg"},{"bike_id":"9fd23b8b-c7c3-4b5a-b11d-8284b8e4dfa2","system_id":"levelo_inurba_marseille","lat":43.337578,"lon":5.374428,"is_reserved":false,"is_disabled":false,"rental_uris":{"android":"levelo://app?vid=9fd23b8b-c7c3-4b5a-b11d-8284b8e4dfa2","ios":"levelo://app?vid=9fd23b8b-c7c3-4b5a-b11d-8284b8e4dfa2"},"vehicle_type_id":"4","last_reported":1721513297,"current_range_meters":25200,"station_id":"","pricing_plan_id":"cebpf4jnsgd1na2vs0mg"},{"bike_id":"44c30d2e-200e-4e74-a7b6-aad8d31bce62","system_id":"levelo_inurba_marseille","lat":43.306412,"lon":5.401035,"is_reserved":false,"is_disabled":false,"rental_uris":{"android":"levelo://app?vid=44c30d2e-200e-4e74-a7b6-aad8d31bce62","ios":"levelo://app?vid=44c30d2e-200e-4e74-a7b6-aad8d31bce62"},"vehicle_type_id":"4","last_reported":1721513297,"current_range_meters":16000,"station_id":"ce4bh112rcd13ifvqda0","pricing_plan_id":"cebpf4jnsgd1na2vs0mg"},{"bike_id":"d0723523-f35a-472e-b198-a5153fc33bb6","system_id":"levelo_inurba_marseille","lat":43.337583,"lon":5.37479,"is_reserved":false,"is_disabled":false,"rental_uris":{"android":"levelo://app?vid=d0723523-f35a-472e-b198-a5153fc33bb6","ios":"levelo://app?vid=d0723523-f35a-472e-b198-a5153fc33bb6"},"vehicle_type_id":"4","last_reported":1721513297,"current_range_meters":20400,"station_id":"","pricing_plan_id":"cebpf4jnsgd1na2vs0mg"},{"bike_id":"fb5f1507-dcbf-4659-be17-db7bd4f1e765","system_id":"levelo_inurba_marseille","lat":43.306412,"lon":5.401035,"is_reserved":false,"is_disabled":false,"rental_uris":{"android":"levelo://app?vid=fb5f1507-dcbf-4659-be17-db7bd4f1e765","ios":"levelo://app?vid=fb5f1507-dcbf-4659-be17-db7bd4f1e765"},"vehicle_type_id":"4","last_reported":1721513297,"current_range_meters":21200,"station_id":"ce4bh112rcd13ifvqda0","pricing_plan_id":"cebpf4jnsgd1na2vs0mg"},{"bike_id":"f4f97782-f988-43e1-8ce3-c0d5033a1491","system_id":"levelo_inurba_marseille","lat":43.30642,"lon":5.401031,"is_reserved":false,"is_disabled":false,"rental_uris":{"android":"levelo://app?vid=f4f97782-f988-43e1-8ce3-c0d5033a1491","ios":"levelo://app?vid=f4f97782-f988-43e1-8ce3-c0d5033a1491"},"vehicle_type_id":"4","last_reported":1721513297,"current_range_meters":20400,"station_id":"ce4bh112rcd13ifvqda0","pricing_plan_id":"cebpf4jnsgd1na2vs0mg"},{"bike_id":"ac377a63-6a02-42fa-8a70-d5bb9b7546c9","system_id":"levelo_inurba_marseille","lat":43.337716,"lon":5.374374,"is_reserved":false,"is_disabled":false,"rental_uris":{"android":"levelo://app?vid=ac377a63-6a02-42fa-8a70-d5bb9b7546c9","ios":"levelo://app?vid=ac377a63-6a02-42fa-8a70-d5bb9b7546c9"},"vehicle_type_id":"4","last_reported":1721513297,"current_range_meters":19200,"station_id":"","pricing_plan_id":"cebpf4jnsgd1na2vs0mg"},{"bike_id":"5a4a559d-c7ce-49d4-b883-405b3f3a3eb2","system_id":"levelo_inurba_marseille","lat":43.30642,"lon":5.401031,"is_reserved":false,"is_disabled":false,"rental_uris":{"android":"levelo://app?vid=5a4a559d-c7ce-49d4-b883-405b3f3a3eb2","ios":"levelo://app?vid=5a4a559d-c7ce-49d4-b883-405b3f3a3eb2"},"vehicle_type_id":"4","last_reported":1721513297,"current_range_meters":21600,"station_id":"ce4bh112rcd13ifvqda0","pricing_plan_id":"cebpf4jnsgd1na2vs0mg"},{"bike_id":"3f0fc716-2a9b-4f16-b023-3cd73f8a1e40","system_id":"levelo_inurba_marseille","lat":43.28727,"lon":5.36078,"is_reserved":false,"is_disabled":false,"rental_uris":{"android":"levelo://app?vid=3f0fc716-2a9b-4f16-b023-3cd73f8a1e40","ios":"levelo://app?vid=3f0fc716-2a9b-4f16-b023-3cd73f8a1e40"},"vehicle_type_id":"4","last_reported":1721513297,"current_range_meters":26800,"station_id":"cki0cbj6b192h4jlfktg","pricing_plan_id":"cebpf4jnsgd1na2vs0mg"},{"bike_id":"27783107-cce1-4524-a38f-24c4ac856328","system_id":"levelo_inurba_marseille","lat":43.306412,"lon":5.401035,"is_reserved":false,"is_disabled":false,"rental_uris":{"android":"levelo://app?vid=27783107-cce1-4524-a38f-24c4ac856328","ios":"levelo://app?vid=27783107-cce1-4524-a38f-24c4ac856328"},"vehicle_type_id":"4","last_reported":1721513297,"current_range_meters":24000,"station_id":"ce4bh112rcd13ifvqda0","pricing_plan_id":"cebpf4jnsgd1na2vs0mg"},{"bike_id":"e88e110d-7ebf-4611-afdf-788738fbdc02","system_id":"levelo_inurba_marseille","lat":43.306412,"lon":5.401035,"is_reserved":false,"is_disabled":false,"rental_uris":{"android":"levelo://app?vid=e88e110d-7ebf-4611-afdf-788738fbdc02","ios":"levelo://app?vid=e88e110d-7ebf-4611-afdf-788738fbdc02"},"vehicle_type_id":"4","last_reported":1721513297,"current_range_meters":20800,"station_id":"ce4bh112rcd13ifvqda0","pricing_plan_id":"cebpf4jnsgd1na2vs0mg"},{"bike_id":"1a845b70-af23-4f4e-be45-f50295336e8f","system_id":"levelo_inurba_marseille","lat":43.30642,"lon":5.401031,"is_reserved":false,"is_disabled":false,"rental_uris":{"android":"levelo://app?vid=1a845b70-af23-4f4e-be45-f50295336e8f","ios":"levelo://app?vid=1a845b70-af23-4f4e-be45-f50295336e8f"},"vehicle_type_id":"4","last_reported":1721513297,"current_range_meters":23600,"station_id":"ce4bh112rcd13ifvqda0","pricing_plan_id":"cebpf4jnsgd1na2vs0mg"},{"bike_id":"a6f51d88-3b35-4ad2-b134-f60d9d3d13cd","system_id":"levelo_inurba_marseille","lat":43.33142,"lon":5.39124,"is_reserved":false,"is_disabled":false,"rental_uris":{"android":"levelo://app?vid=a6f51d88-3b35-4ad2-b134-f60d9d3d13cd","ios":"levelo://app?vid=a6f51d88-3b35-4ad2-b134-f60d9d3d13cd"},"vehicle_type_id":"4","last_reported":1721513297,"current_range_meters":25600,"station_id":"","pricing_plan_id":"cebpf4jnsgd1na2vs0mg"},{"bike_id":"60cbad40-7d1d-4ced-8939-fd0adaa7074b","system_id":"levelo_inurba_marseille","lat":43.301431,"lon":5.398683,"is_reserved":false,"is_disabled":false,"rental_uris":{"android":"levelo://app?vid=60cbad40-7d1d-4ced-8939-fd0adaa7074b","ios":"levelo://app?vid=60cbad40-7d1d-4ced-8939-fd0adaa7074b"},"vehicle_type_id":"4","last_reported":1721513297,"current_range_meters":0,"station_id":"ce4bh0h2rcd13ifvqd40","pricing_plan_id":"cebpf4jnsgd1na2vs0mg"},{"bike_id":"89ba526f-9181-4824-bbcd-7de76a8ce9d2","system_id":"levelo_inurba_marseille","lat":43.28727,"lon":5.36078,"is_reserved":false,"is_disabled":false,"rental_uris":{"android":"levelo://app?vid=89ba526f-9181-4824-bbcd-7de76a8ce9d2","ios":"levelo://app?vid=89ba526f-9181-4824-bbcd-7de76a8ce9d2"},"vehicle_type_id":"4","last_reported":1721513297,"current_range_meters":4400,"station_id":"cki0cbj6b192h4jlfktg","pricing_plan_id":"cebpf4jnsgd1na2vs0mg"},{"bike_id":"01772f89-d92c-47c9-9ccf-6c851be6bd6b","system_id":"levelo_inurba_marseille","lat":43.286591,"lon":5.363346,"is_reserved":false,"is_disabled":false,"rental_uris":{"android":"levelo://app?vid=01772f89-d92c-47c9-9ccf-6c851be6bd6b","ios":"levelo://app?vid=01772f89-d92c-47c9-9ccf-6c851be6bd6b"},"vehicle_type_id":"4","last_reported":1721513297,"current_range_meters":5200,"station_id":"ce4bhah2rcd13ifvqej0","pricing_plan_id":"cebpf4jnsgd1na2vs0mg"},{"bike_id":"547b40a9-47f8-4cb2-9c47-ca4ad6125526","system_id":"levelo_inurba_marseille","lat":43.286593,"lon":5.363346,"is_reserved":false,"is_disabled":false,"rental_uris":{"android":"levelo://app?vid=547b40a9-47f8-4cb2-9c47-ca4ad6125526","ios":"levelo://app?vid=547b40a9-47f8-4cb2-9c47-ca4ad6125526"},"vehicle_type_id":"4","last_reported":1721513297,"current_range_meters":5600,"station_id":"ce4bhah2rcd13ifvqej0","pricing_plan_id":"cebpf4jnsgd1na2vs0mg"},{"bike_id":"c28f1a2f-35c5-46ac-8c87-00ad29017e4d","system_id":"levelo_inurba_marseille","lat":43.286593,"lon":5.363346,"is_reserved":false,"is_disabled":false,"rental_uris":{"android":"levelo://app?vid=c28f1a2f-35c5-46ac-8c87-00ad29017e4d","ios":"levelo://app?vid=c28f1a2f-35c5-46ac-8c87-00ad29017e4d"},"vehicle_type_id":"4","last_reported":1721513297,"current_range_meters":0,"station_id":"ce4bhah2rcd13ifvqej0","pricing_plan_id":"cebpf4jnsgd1na2vs0mg"},{"bike_id":"045413e7-3244-406a-9738-c75a6c10321e","system_id":"levelo_inurba_marseille","lat":43.289307,"lon":5.38406,"is_reserved":false,"is_disabled":false,"rental_uris":{"android":"levelo://app?vid=045413e7-3244-406a-9738-c75a6c10321e","ios":"levelo://app?vid=045413e7-3244-406a-9738-c75a6c10321e"},"vehicle_type_id":"4","last_reported":1721513297,"current_range_meters":0,"station_id":"ce4bh612rcd13ifvqe6g","pricing_plan_id":"cebpf4jnsgd1na2vs0mg"},{"bike_id":"a878fc24-83ea-4698-b7ff-e36421bb8a94","system_id":"levelo_inurba_marseille","lat":43.289307,"lon":5.38406,"is_reserved":false,"is_disabled":false,"rental_uris":{"android":"levelo://app?vid=a878fc24-83ea-4698-b7ff-e36421bb8a94","ios":"levelo://app?vid=a878fc24-83ea-4698-b7ff-e36421bb8a94"},"vehicle_type_id":"4","last_reported":1721513297,"current_range_meters":400,"station_id":"ce4bh612rcd13ifvqe6g","pricing_plan_id":"cebpf4jnsgd1na2vs0mg"},{"bike_id":"a8cb3bc8-804e-4f72-8d96-3c83c46cb078","system_id":"levelo_inurba_marseille","lat":43.326072,"lon":5.398394,"is_reserved":false,"is_disabled":false,"rental_uris":{"android":"levelo://app?vid=a8cb3bc8-804e-4f72-8d96-3c83c46cb078","ios":"levelo://app?vid=a8cb3bc8-804e-4f72-8d96-3c83c46cb078"},"vehicle_type_id":"4","last_reported":1721513297,"current_range_meters":28000,"station_id":"","pricing_plan_id":"cebpf4jnsgd1na2vs0mg"},{"bike_id":"a35fc465-5ef0-44d8-b669-b77d12a807c7","system_id":"levelo_inurba_marseille","lat":43.290336,"lon":5.386425,"is_reserved":false,"is_disabled":false,"rental_uris":{"android":"levelo://app?vid=a35fc465-5ef0-44d8-b669-b77d12a807c7","ios":"levelo://app?vid=a35fc465-5ef0-44d8-b669-b77d12a807c7"},"vehicle_type_id":"4","last_reported":1721513297,"current_range_meters":30400,"station_id":"ce4bh4p2rcd13ifvqe0g","pricing_plan_id":"cebpf4jnsgd1na2vs0mg"},{"bike_id":"4c6483d3-9ec9-4565-b114-6132c39416ed","system_id":"levelo_inurba_marseille","lat":43.30249,"lon":5.40057,"is_reserved":false,"is_disabled":false,"rental_uris":{"android":"levelo://app?vid=4c6483d3-9ec9-4565-b114-6132c39416ed","ios":"levelo://app?vid=4c6483d3-9ec9-4565-b114-6132c39416ed"},"vehicle_type_id":"4","last_reported":1721513297,"current_range_meters":0,"station_id":"ce4bgvh2rcd13ifvqcs0","pricing_plan_id":"cebpf4jnsgd1na2vs0mg"},{"bike_id":"7dd78597-ece6-4a24-b994-4f920ecff035","system_id":"levelo_inurba_marseille","lat":43.302759,"lon":5.400793,"is_reserved":false,"is_disabled":false,"rental_uris":{"android":"levelo://app?vid=7dd78597-ece6-4a24-b994-4f920ecff035","ios":"levelo://app?vid=7dd78597-ece6-4a24-b994-4f920ecff035"},"vehicle_type_id":"4","last_reported":1721513297,"current_range_meters":8400,"station_id":"ce4bgvh2rcd13ifvqcs0","pricing_plan_id":"cebpf4jnsgd1na2vs0mg"},{"bike_id":"c962f2fb-de24-4eb9-a335-a6d6135aee80","system_id":"levelo_inurba_marseille","lat":43.290315,"lon":5.386455,"is_reserved":false,"is_disabled":false,"rental_uris":{"android":"levelo://app?vid=c962f2fb-de24-4eb9-a335-a6d6135aee80","ios":"levelo://app?vid=c962f2fb-de24-4eb9-a335-a6d6135aee80"},"vehicle_type_id":"4","last_reported":1721513297,"current_range_meters":0,"station_id":"ce4bh4p2rcd13ifvqe0g","pricing_plan_id":"cebpf4jnsgd1na2vs0mg"},{"bike_id":"c87d597a-e2a2-41af-a3c2-a5577f732da4","system_id":"levelo_inurba_marseille","lat":43.29031,"lon":5.38646,"is_reserved":false,"is_disabled":false,"rental_uris":{"android":"levelo://app?vid=c87d597a-e2a2-41af-a3c2-a5577f732da4","ios":"levelo://app?vid=c87d597a-e2a2-41af-a3c2-a5577f732da4"},"vehicle_type_id":"4","last_reported":1721513297,"current_range_meters":5600,"station_id":"ce4bh4p2rcd13ifvqe0g","pricing_plan_id":"cebpf4jnsgd1na2vs0mg"},{"bike_id":"9b4d3593-ac77-4213-b7a2-2023264cfd31","system_id":"levelo_inurba_marseille","lat":43.29028,"lon":5.38642,"is_reserved":false,"is_disabled":false,"rental_uris":{"android":"levelo://app?vid=9b4d3593-ac77-4213-b7a2-2023264cfd31","ios":"levelo://app?vid=9b4d3593-ac77-4213-b7a2-2023264cfd31"},"vehicle_type_id":"4","last_reported":1721513297,"current_range_meters":0,"station_id":"ce4bh4p2rcd13ifvqe0g","pricing_plan_id":"cebpf4jnsgd1na2vs0mg"},{"bike_id":"5604a52b-991f-4aa2-aa22-9017ed0ff007","system_id":"levelo_inurba_marseille","lat":43.29033,"lon":5.38659,"is_reserved":false,"is_disabled":false,"rental_uris":{"android":"levelo://app?vid=5604a52b-991f-4aa2-aa22-9017ed0ff007","ios":"levelo://app?vid=5604a52b-991f-4aa2-aa22-9017ed0ff007"},"vehicle_type_id":"4","last_reported":1721513297,"current_range_meters":1200,"station_id":"ce4bh4p2rcd13ifvqe0g","pricing_plan_id":"cebpf4jnsgd1na2vs0mg"},{"bike_id":"831b4299-3f9b-439e-8c6a-32efaf7e2517","system_id":"levelo_inurba_marseille","lat":43.30254,"lon":5.40068,"is_reserved":false,"is_disabled":false,"rental_uris":{"android":"levelo://app?vid=831b4299-3f9b-439e-8c6a-32efaf7e2517","ios":"levelo://app?vid=831b4299-3f9b-439e-8c6a-32efaf7e2517"},"vehicle_type_id":"4","last_reported":1721513297,"current_range_meters":0,"station_id":"ce4bgvh2rcd13ifvqcs0","pricing_plan_id":"cebpf4jnsgd1na2vs0mg"},{"bike_id":"806bcef7-365f-4537-bcce-e4d10276ac0a","system_id":"levelo_inurba_marseille","lat":43.30255,"lon":5.40077,"is_reserved":false,"is_disabled":false,"rental_uris":{"android":"levelo://app?vid=806bcef7-365f-4537-bcce-e4d10276ac0a","ios":"levelo://app?vid=806bcef7-365f-4537-bcce-e4d10276ac0a"},"vehicle_type_id":"4","last_reported":1721513297,"current_range_meters":13600,"station_id":"ce4bgvh2rcd13ifvqcs0","pricing_plan_id":"cebpf4jnsgd1na2vs0mg"},{"bike_id":"4a0aa169-e899-4bba-ae84-b6aacc69c66f","system_id":"levelo_inurba_marseille","lat":43.286039,"lon":5.370679,"is_reserved":false,"is_disabled":false,"rental_uris":{"android":"levelo://app?vid=4a0aa169-e899-4bba-ae84-b6aacc69c66f","ios":"levelo://app?vid=4a0aa169-e899-4bba-ae84-b6aacc69c66f"},"vehicle_type_id":"4","last_reported":1721513297,"current_range_meters":0,"station_id":"ce4bht12rcd13ifvqi60","pricing_plan_id":"cebpf4jnsgd1na2vs0mg"},{"bike_id":"9a5d7446-d245-4567-9246-7a49e6e3bc2f","system_id":"levelo_inurba_marseille","lat":43.28724,"lon":5.37935,"is_reserved":false,"is_disabled":false,"rental_uris":{"android":"levelo://app?vid=9a5d7446-d245-4567-9246-7a49e6e3bc2f","ios":"levelo://app?vid=9a5d7446-d245-4567-9246-7a49e6e3bc2f"},"vehicle_type_id":"4","last_reported":1721513297,"current_range_meters":23200,"station_id":"ce4bh9p2rcd13ifvqec0","pricing_plan_id":"cebpf4jnsgd1na2vs0mg"},{"bike_id":"38d2ebcd-4c91-4e17-8c0c-f729e90bd5c9","system_id":"levelo_inurba_marseille","lat":43.316828,"lon":5.404723,"is_reserved":false,"is_disabled":false,"rental_uris":{"android":"levelo://app?vid=38d2ebcd-4c91-4e17-8c0c-f729e90bd5c9","ios":"levelo://app?vid=38d2ebcd-4c91-4e17-8c0c-f729e90bd5c9"},"vehicle_type_id":"4","last_reported":1721513297,"current_range_meters":17600,"station_id":"ce4bh012rcd13ifvqd00","pricing_plan_id":"cebpf4jnsgd1na2vs0mg"},{"bike_id":"d8a43f41-571b-4177-aa6d-629995365b00","system_id":"levelo_inurba_marseille","lat":43.316828,"lon":5.404723,"is_reserved":false,"is_disabled":false,"rental_uris":{"android":"levelo://app?vid=d8a43f41-571b-4177-aa6d-629995365b00","ios":"levelo://app?vid=d8a43f41-571b-4177-aa6d-629995365b00"},"vehicle_type_id":"4","last_reported":1721513297,"current_range_meters":29200,"station_id":"ce4bh012rcd13ifvqd00","pricing_plan_id":"cebpf4jnsgd1na2vs0mg"},{"bike_id":"3c6b8bb6-b5f7-4e67-ada8-446c5498fd5b","system_id":"levelo_inurba_marseille","lat":43.316821,"lon":5.404737,"is_reserved":false,"is_disabled":false,"rental_uris":{"android":"levelo://app?vid=3c6b8bb6-b5f7-4e67-ada8-446c5498fd5b","ios":"levelo://app?vid=3c6b8bb6-b5f7-4e67-ada8-446c5498fd5b"},"vehicle_type_id":"4","last_reported":1721513297,"current_range_meters":28800,"station_id":"ce4bh012rcd13ifvqd00","pricing_plan_id":"cebpf4jnsgd1na2vs0mg"},{"bike_id":"21a04838-9ff7-4cad-b694-ed812b0e094f","system_id":"levelo_inurba_marseille","lat":43.316821,"lon":5.404737,"is_reserved":false,"is_disabled":false,"rental_uris":{"android":"levelo://app?vid=21a04838-9ff7-4cad-b694-ed812b0e094f","ios":"levelo://app?vid=21a04838-9ff7-4cad-b694-ed812b0e094f"},"vehicle_type_id":"4","last_reported":1721513297,"current_range_meters":31200,"station_id":"ce4bh012rcd13ifvqd00","pricing_plan_id":"cebpf4jnsgd1na2vs0mg"},{"bike_id":"7ab8ce64-1652-4530-985e-0c0b2cc8777f","system_id":"levelo_inurba_marseille","lat":43.291994,"lon":5.392907,"is_reserved":false,"is_disabled":false,"rental_uris":{"android":"levelo://app?vid=7ab8ce64-1652-4530-985e-0c0b2cc8777f","ios":"levelo://app?vid=7ab8ce64-1652-4530-985e-0c0b2cc8777f"},"vehicle_type_id":"4","last_reported":1721513297,"current_range_meters":21200,"station_id":"ce4bh192rcd13ifvqdd0","pricing_plan_id":"cebpf4jnsgd1na2vs0mg"},{"bike_id":"1c915f9d-aced-41e5-b907-e89469c0b4c3","system_id":"levelo_inurba_marseille","lat":43.291994,"lon":5.392907,"is_reserved":false,"is_disabled":false,"rental_uris":{"android":"levelo://app?vid=1c915f9d-aced-41e5-b907-e89469c0b4c3","ios":"levelo://app?vid=1c915f9d-aced-41e5-b907-e89469c0b4c3"},"vehicle_type_id":"4","last_reported":1721513297,"current_range_meters":8800,"station_id":"ce4bh192rcd13ifvqdd0","pricing_plan_id":"cebpf4jnsgd1na2vs0mg"},{"bike_id":"5214cc8c-7dfc-4216-88e3-71f5acc5a422","system_id":"levelo_inurba_marseille","lat":43.29192,"lon":5.39322,"is_reserved":false,"is_disabled":false,"rental_uris":{"android":"levelo://app?vid=5214cc8c-7dfc-4216-88e3-71f5acc5a422","ios":"levelo://app?vid=5214cc8c-7dfc-4216-88e3-71f5acc5a422"},"vehicle_type_id":"4","last_reported":1721513297,"current_range_meters":0,"station_id":"ce4bh192rcd13ifvqdd0","pricing_plan_id":"cebpf4jnsgd1na2vs0mg"},{"bike_id":"7f20d148-79b3-452e-9520-a6849bd092fb","system_id":"levelo_inurba_marseille","lat":43.291994,"lon":5.392907,"is_reserved":false,"is_disabled":false,"rental_uris":{"android":"levelo://app?vid=7f20d148-79b3-452e-9520-a6849bd092fb","ios":"levelo://app?vid=7f20d148-79b3-452e-9520-a6849bd092fb"},"vehicle_type_id":"4","last_reported":1721513297,"current_range_meters":12800,"station_id":"ce4bh192rcd13ifvqdd0","pricing_plan_id":"cebpf4jnsgd1na2vs0mg"},{"bike_id":"c8a448b0-612f-4a16-a99b-f1893589db71","system_id":"levelo_inurba_marseille","lat":43.284534,"lon":5.358662,"is_reserved":false,"is_disabled":false,"rental_uris":{"android":"levelo://app?vid=c8a448b0-612f-4a16-a99b-f1893589db71","ios":"levelo://app?vid=c8a448b0-612f-4a16-a99b-f1893589db71"},"vehicle_type_id":"4","last_reported":1721513297,"current_range_meters":20000,"station_id":"ce4bhah2rcd13ifvqei0","pricing_plan_id":"cebpf4jnsgd1na2vs0mg"},{"bike_id":"2b09f276-1e06-4228-ae93-7b289ca8870c","system_id":"levelo_inurba_marseille","lat":43.284538,"lon":5.358657,"is_reserved":false,"is_disabled":false,"rental_uris":{"android":"levelo://app?vid=2b09f276-1e06-4228-ae93-7b289ca8870c","ios":"levelo://app?vid=2b09f276-1e06-4228-ae93-7b289ca8870c"},"vehicle_type_id":"4","last_reported":1721513297,"current_range_meters":6800,"station_id":"ce4bhah2rcd13ifvqei0","pricing_plan_id":"cebpf4jnsgd1na2vs0mg"},{"bike_id":"356cb77c-efe5-4fd0-a968-06400ab0b6fa","system_id":"levelo_inurba_marseille","lat":43.284534,"lon":5.358662,"is_reserved":false,"is_disabled":false,"rental_uris":{"android":"levelo://app?vid=356cb77c-efe5-4fd0-a968-06400ab0b6fa","ios":"levelo://app?vid=356cb77c-efe5-4fd0-a968-06400ab0b6fa"},"vehicle_type_id":"4","last_reported":1721513297,"current_range_meters":20800,"station_id":"ce4bhah2rcd13ifvqei0","pricing_plan_id":"cebpf4jnsgd1na2vs0mg"},{"bike_id":"bc548b03-361b-4aec-a826-c60a9ac8265c","system_id":"levelo_inurba_marseille","lat":43.2859,"lon":5.35075,"is_reserved":false,"is_disabled":false,"rental_uris":{"android":"levelo://app?vid=bc548b03-361b-4aec-a826-c60a9ac8265c","ios":"levelo://app?vid=bc548b03-361b-4aec-a826-c60a9ac8265c"},"vehicle_type_id":"4","last_reported":1721513297,"current_range_meters":19600,"station_id":"ce4bhch2rcd13ifvqeug","pricing_plan_id":"cebpf4jnsgd1na2vs0mg"},{"bike_id":"982705c8-434b-4984-840a-d1e0da4b6124","system_id":"levelo_inurba_marseille","lat":43.29956,"lon":5.402958,"is_reserved":false,"is_disabled":false,"rental_uris":{"android":"levelo://app?vid=982705c8-434b-4984-840a-d1e0da4b6124","ios":"levelo://app?vid=982705c8-434b-4984-840a-d1e0da4b6124"},"vehicle_type_id":"4","last_reported":1721513297,"current_range_meters":14400,"station_id":"","pricing_plan_id":"cebpf4jnsgd1na2vs0mg"},{"bike_id":"fd2be22f-d10d-4f0c-9ff6-813b92635c24","system_id":"levelo_inurba_marseille","lat":43.286595,"lon":5.386795,"is_reserved":false,"is_disabled":false,"rental_uris":{"android":"levelo://app?vid=fd2be22f-d10d-4f0c-9ff6-813b92635c24","ios":"levelo://app?vid=fd2be22f-d10d-4f0c-9ff6-813b92635c24"},"vehicle_type_id":"4","last_reported":1721513297,"current_range_meters":25200,"station_id":"ce4bh492rcd13ifvqdug","pricing_plan_id":"cebpf4jnsgd1na2vs0mg"},{"bike_id":"d82abade-a1b8-4bad-a271-c65dfe0e7dc0","system_id":"levelo_inurba_marseille","lat":43.286595,"lon":5.386795,"is_reserved":false,"is_disabled":false,"rental_uris":{"android":"levelo://app?vid=d82abade-a1b8-4bad-a271-c65dfe0e7dc0","ios":"levelo://app?vid=d82abade-a1b8-4bad-a271-c65dfe0e7dc0"},"vehicle_type_id":"4","last_reported":1721513297,"current_range_meters":29200,"station_id":"ce4bh492rcd13ifvqdug","pricing_plan_id":"cebpf4jnsgd1na2vs0mg"},{"bike_id":"8f24d554-4697-4e40-9ea6-fffbd5b9f596","system_id":"levelo_inurba_marseille","lat":43.319179,"lon":5.407725,"is_reserved":false,"is_disabled":false,"rental_uris":{"android":"levelo://app?vid=8f24d554-4697-4e40-9ea6-fffbd5b9f596","ios":"levelo://app?vid=8f24d554-4697-4e40-9ea6-fffbd5b9f596"},"vehicle_type_id":"4","last_reported":1721513297,"current_range_meters":20400,"station_id":"ce4bhq12rcd13ifvqhig","pricing_plan_id":"cebpf4jnsgd1na2vs0mg"},{"bike_id":"c88a2533-b03e-49e9-8e0f-90fcae18cfdb","system_id":"levelo_inurba_marseille","lat":43.319179,"lon":5.407725,"is_reserved":false,"is_disabled":false,"rental_uris":{"android":"levelo://app?vid=c88a2533-b03e-49e9-8e0f-90fcae18cfdb","ios":"levelo://app?vid=c88a2533-b03e-49e9-8e0f-90fcae18cfdb"},"vehicle_type_id":"4","last_reported":1721513297,"current_range_meters":30000,"station_id":"ce4bhq12rcd13ifvqhig","pricing_plan_id":"cebpf4jnsgd1na2vs0mg"},{"bike_id":"c6ef4f86-073d-424e-9d04-2cb70451baff","system_id":"levelo_inurba_marseille","lat":43.319179,"lon":5.407725,"is_reserved":false,"is_disabled":false,"rental_uris":{"android":"levelo://app?vid=c6ef4f86-073d-424e-9d04-2cb70451baff","ios":"levelo://app?vid=c6ef4f86-073d-424e-9d04-2cb70451baff"},"vehicle_type_id":"4","last_reported":1721513297,"current_range_meters":25600,"station_id":"ce4bhq12rcd13ifvqhig","pricing_plan_id":"cebpf4jnsgd1na2vs0mg"},{"bike_id":"4f071ffb-ae52-429f-bc2e-669cd2ae2229","system_id":"levelo_inurba_marseille","lat":43.28836,"lon":5.39127,"is_reserved":false,"is_disabled":false,"rental_uris":{"android":"levelo://app?vid=4f071ffb-ae52-429f-bc2e-669cd2ae2229","ios":"levelo://app?vid=4f071ffb-ae52-429f-bc2e-669cd2ae2229"},"vehicle_type_id":"4","last_reported":1721513297,"current_range_meters":18800,"station_id":"","pricing_plan_id":"cebpf4jnsgd1na2vs0mg"},{"bike_id":"2b457cdb-03e4-40e8-b518-2628bdd0f2b3","system_id":"levelo_inurba_marseille","lat":43.33717,"lon":5.391857,"is_reserved":false,"is_disabled":false,"rental_uris":{"android":"levelo://app?vid=2b457cdb-03e4-40e8-b518-2628bdd0f2b3","ios":"levelo://app?vid=2b457cdb-03e4-40e8-b518-2628bdd0f2b3"},"vehicle_type_id":"4","last_reported":1721513297,"current_range_meters":9600,"station_id":"ce4bhr92rcd13ifvqhsg","pricing_plan_id":"cebpf4jnsgd1na2vs0mg"},{"bike_id":"d8adf910-d5da-4fd5-b707-4c18d894a12b","system_id":"levelo_inurba_marseille","lat":43.323464,"lon":5.406297,"is_reserved":false,"is_disabled":false,"rental_uris":{"android":"levelo://app?vid=d8adf910-d5da-4fd5-b707-4c18d894a12b","ios":"levelo://app?vid=d8adf910-d5da-4fd5-b707-4c18d894a12b"},"vehicle_type_id":"4","last_reported":1721513297,"current_range_meters":20400,"station_id":"ce4bhq92rcd13ifvqhjg","pricing_plan_id":"cebpf4jnsgd1na2vs0mg"},{"bike_id":"095c779d-d2aa-4d11-bb31-1c1e7a1b6818","system_id":"levelo_inurba_marseille","lat":43.33717,"lon":5.391857,"is_reserved":false,"is_disabled":false,"rental_uris":{"android":"levelo://app?vid=095c779d-d2aa-4d11-bb31-1c1e7a1b6818","ios":"levelo://app?vid=095c779d-d2aa-4d11-bb31-1c1e7a1b6818"},