{"last_updated":1737548211,"ttl":60,"version":"2.2","data":{"bikes":[{"bike_id":"de2f4539-ccf4-4eb6-9b90-2fbe44b32730","system_id":"levelo_inurba_marseille","lat":43.28327,"lon":5.39278,"is_reserved":false,"is_disabled":false,"rental_uris":{"android":"levelo://app?vid=de2f4539-ccf4-4eb6-9b90-2fbe44b32730","ios":"levelo://app?vid=de2f4539-ccf4-4eb6-9b90-2fbe44b32730"},"vehicle_type_id":"4","last_reported":1737548211,"current_range_meters":12000,"station_id":"","pricing_plan_id":"cebpf4jnsgd1na2vs0mg"},{"bike_id":"18323fd3-f826-4341-bdcf-16d7892d33f9","system_id":"levelo_inurba_marseille","lat":43.30492,"lon":5.37908,"is_reserved":false,"is_disabled":false,"rental_uris":{"android":"levelo://app?vid=18323fd3-f826-4341-bdcf-16d7892d33f9","ios":"levelo://app?vid=18323fd3-f826-4341-bdcf-16d7892d33f9"},"vehicle_type_id":"4","last_reported":1737548211,"current_range_meters":27200,"station_id":"ce4bgup2rcd13ifvqcn0","pricing_plan_id":"cebpf4jnsgd1na2vs0mg"},{"bike_id":"52bd1362-589c-457d-bceb-056d515e97d5","system_id":"levelo_inurba_marseille","lat":43.2314,"lon":5.43716,"is_reserved":false,"is_disabled":false,"rental_uris":{"android":"levelo://app?vid=52bd1362-589c-457d-bceb-056d515e97d5","ios":"levelo://app?vid=52bd1362-589c-457d-bceb-056d515e97d5"},"vehicle_type_id":"4","last_reported":1737548211,"current_range_meters":19200,"station_id":"ce4bhmp2rcd13ifvqgog","pricing_plan_id":"cebpf4jnsgd1na2vs0mg"},{"bike_id":"a4fa50ac-f498-48af-a472-624159680442","system_id":"levelo_inurba_marseille","lat":43.27377,"lon":5.3626,"is_reserved":false,"is_disabled":false,"rental_uris":{"android":"levelo://app?vid=a4fa50ac-f498-48af-a472-624159680442","ios":"levelo://app?vid=a4fa50ac-f498-48af-a472-624159680442"},"vehicle_type_id":"4","last_reported":1737548211,"current_range_meters":36400,"station_id":"ce4bhbh2rcd13ifvqeo0","pricing_plan_id":"cebpf4jnsgd1na2vs0mg"},{"bike_id":"588640af-992b-489a-97c5-519825b255e5","system_id":"levelo_inurba_marseille","lat":43.2885,"lon":5.3931,"is_reserved":false,"is_disabled":false,"rental_uris":{"android":"levelo://app?vid=588640af-992b-489a-97c5-519825b255e5","ios":"levelo://app?vid=588640af-992b-489a-97c5-519825b255e5"},"vehicle_type_id":"4","last_reported":1737548211,"current_range_meters":12800,"station_id":"ce4bh2p2rcd13ifvqdi0","pricing_plan_id":"cebpf4jnsgd1na2vs0mg"},{"bike_id":"2766a0b3-bb7b-41ad-b363-4f9b16eac008","system_id":"levelo_inurba_marseille","lat":43.30268,"lon":5.37702,"is_reserved":false,"is_disabled":false,"rental_uris":{"android":"levelo://app?vid=2766a0b3-bb7b-41ad-b363-4f9b16eac008","ios":"levelo://app?vid=2766a0b3-bb7b-41ad-b363-4f9b16eac008"},"vehicle_type_id":"4","last_reported":1737548211,"current_range_meters":38000,"station_id":"ce4bguh2rcd13ifvqcj0","pricing_plan_id":"cebpf4jnsgd1na2vs0mg"},{"bike_id":"ac56ab6e-17f9-4c37-a633-143e28045cf0","system_id":"levelo_inurba_marseille","lat":43.3204,"lon":5.41571,"is_reserved":false,"is_disabled":false,"rental_uris":{"android":"levelo://app?vid=ac56ab6e-17f9-4c37-a633-143e28045cf0","ios":"levelo://app?vid=ac56ab6e-17f9-4c37-a633-143e28045cf0"},"vehicle_type_id":"4","last_reported":1737548211,"current_range_meters":24800,"station_id":"ce4bhq92rcd13ifvqhkg","pricing_plan_id":"cebpf4jnsgd1na2vs0mg"},{"bike_id":"b2b8944f-5df0-415d-9013-38fe441d9901","system_id":"levelo_inurba_marseille","lat":43.30634,"lon":5.37265,"is_reserved":false,"is_disabled":true,"rental_uris":{"android":"levelo://app?vid=b2b8944f-5df0-415d-9013-38fe441d9901","ios":"levelo://app?vid=b2b8944f-5df0-415d-9013-38fe441d9901"},"vehicle_type_id":"4","last_reported":1737548211,"current_range_meters":1200,"station_id":"ce4bgqh2rcd13ifvqc4g","pricing_plan_id":"cebpf4jnsgd1na2vs0mg"},{"bike_id":"bfb62230-2683-4e51-a165-d8eabb8755a4","system_id":"levelo_inurba_marseille","lat":43.278154,"lon":5.407248,"is_reserved":false,"is_disabled":false,"rental_uris":{"android":"levelo://app?vid=bfb62230-2683-4e51-a165-d8eabb8755a4","ios":"levelo://app?vid=bfb62230-2683-4e51-a165-d8eabb8755a4"},"vehicle_type_id":"4","last_reported":1737548211,"current_range_meters":32800,"station_id":"ce4bhnh2rcd13ifvqgtg","pricing_plan_id":"cebpf4jnsgd1na2vs0mg"},{"bike_id":"0b49530f-ec57-45b5-ac89-77dd7a74aa21","system_id":"levelo_inurba_marseille","lat":43.29626,"lon":5.37729,"is_reserved":false,"is_disabled":false,"rental_uris":{"android":"levelo://app?vid=0b49530f-ec57-45b5-ac89-77dd7a74aa21","ios":"levelo://app?vid=0b49530f-ec57-45b5-ac89-77dd7a74aa21"},"vehicle_type_id":"4","last_reported":1737548211,"current_range_meters":38800,"station_id":"ce4bgi92rcd13ifvqb90","pricing_plan_id":"cebpf4jnsgd1na2vs0mg"},{"bike_id":"07607162-ef7c-4e0b-ac07-a812f876ebce","system_id":"levelo_inurba_marseille","lat":43.296195,"lon":5.37173,"is_reserved":false,"is_disabled":false,"rental_uris":{"android":"levelo://app?vid=07607162-ef7c-4e0b-ac07-a812f876ebce","ios":"levelo://app?vid=07607162-ef7c-4e0b-ac07-a812f876ebce"},"vehicle_type_id":"4","last_reported":1737548211,"current_range_meters":38800,"station_id":"ce4bgnh2rcd13ifvqc0g","pricing_plan_id":"cebpf4jnsgd1na2vs0mg"},{"bike_id":"b369cafb-1e9f-4783-af23-b29ba297f9af","system_id":"levelo_inurba_marseille","lat":43.3302,"lon":5.39037,"is_reserved":false,"is_disabled":false,"rental_uris":{"android":"levelo://app?vid=b369cafb-1e9f-4783-af23-b29ba297f9af","ios":"levelo://app?vid=b369cafb-1e9f-4783-af23-b29ba297f9af"},"vehicle_type_id":"4","last_reported":1737548211,"current_range_meters":38800,"station_id":"ce4bhr92rcd13ifvqhrg","pricing_plan_id":"cebpf4jnsgd1na2vs0mg"},{"bike_id":"7a3150f3-3724-41da-897e-c23994bed659","system_id":"levelo_inurba_marseille","lat":43.22927,"lon":5.35379,"is_reserved":false,"is_disabled":false,"rental_uris":{"android":"levelo://app?vid=7a3150f3-3724-41da-897e-c23994bed659","ios":"levelo://app?vid=7a3150f3-3724-41da-897e-c23994bed659"},"vehicle_type_id":"4","last_reported":1737548211,"current_range_meters":36000,"station_id":"cpo3532slgdg3j2ikp40","pricing_plan_id":"cebpf4jnsgd1na2vs0mg"},{"bike_id":"5eaba206-d23c-46fd-b848-fb2f882db6a7","system_id":"levelo_inurba_marseille","lat":43.32478,"lon":5.36566,"is_reserved":false,"is_disabled":false,"rental_uris":{"android":"levelo://app?vid=5eaba206-d23c-46fd-b848-fb2f882db6a7","ios":"levelo://app?vid=5eaba206-d23c-46fd-b848-fb2f882db6a7"},"vehicle_type_id":"4","last_reported":1737548211,"current_range_meters":3600,"station_id":"ce4bhs12rcd13ifvqhvg","pricing_plan_id":"cebpf4jnsgd1na2vs0mg"},{"bike_id":"6d1593f0-c44f-4fc0-8450-96dd5c159537","system_id":"levelo_inurba_marseille","lat":43.26192,"lon":5.37453,"is_reserved":false,"is_disabled":false,"rental_uris":{"android":"levelo://app?vid=6d1593f0-c44f-4fc0-8450-96dd5c159537","ios":"levelo://app?vid=6d1593f0-c44f-4fc0-8450-96dd5c159537"},"vehicle_type_id":"4","last_reported":1737548211,"current_range_meters":32400,"station_id":"ce4bhgp2rcd13ifvqfc0","pricing_plan_id":"cebpf4jnsgd1na2vs0mg"},{"bike_id":"2aaf194b-e843-496b-800b-ffbb038c4de7","system_id":"levelo_inurba_marseille","lat":43.32287,"lon":5.3827,"is_reserved":false,"is_disabled":false,"rental_uris":{"android":"levelo://app?vid=2aaf194b-e843-496b-800b-ffbb038c4de7","ios":"levelo://app?vid=2aaf194b-e843-496b-800b-ffbb038c4de7"},"vehicle_type_id":"4","last_reported":1737548211,"current_range_meters":38800,"station_id":"ce4bhr12rcd13ifvqhqg","pricing_plan_id":"cebpf4jnsgd1na2vs0mg"},{"bike_id":"517f73f3-2e6e-45da-8231-89d8559ffe6b","system_id":"levelo_inurba_marseille","lat":43.28046,"lon":5.36949,"is_reserved":false,"is_disabled":false,"rental_uris":{"android":"levelo://app?vid=517f73f3-2e6e-45da-8231-89d8559ffe6b","ios":"levelo://app?vid=517f73f3-2e6e-45da-8231-89d8559ffe6b"},"vehicle_type_id":"4","last_reported":1737548211,"current_range_meters":36800,"station_id":"ce4bha12rcd13ifvqef0","pricing_plan_id":"cebpf4jnsgd1na2vs0mg"},{"bike_id":"32291b8c-f042-4090-b00c-b24ef92d5bba","system_id":"levelo_inurba_marseille","lat":43.28656,"lon":5.36361,"is_reserved":false,"is_disabled":false,"rental_uris":{"android":"levelo://app?vid=32291b8c-f042-4090-b00c-b24ef92d5bba","ios":"levelo://app?vid=32291b8c-f042-4090-b00c-b24ef92d5bba"},"vehicle_type_id":"4","last_reported":1737548211,"current_range_meters":18800,"station_id":"ce4bhah2rcd13ifvqej0","pricing_plan_id":"cebpf4jnsgd1na2vs0mg"},{"bike_id":"6661a075-3684-4dee-9c67-ef0b4376c594","system_id":"levelo_inurba_marseille","lat":43.23201,"lon":5.35556,"is_reserved":false,"is_disabled":false,"rental_uris":{"android":"levelo://app?vid=6661a075-3684-4dee-9c67-ef0b4376c594","ios":"levelo://app?vid=6661a075-3684-4dee-9c67-ef0b4376c594"},"vehicle_type_id":"4","last_reported":1737548211,"current_range_meters":38000,"station_id":"ce4bhu92rcd13ifvqi70","pricing_plan_id":"cebpf4jnsgd1na2vs0mg"},{"bike_id":"01f673e9-9f75-4f0c-ad1a-67f83cb20237","system_id":"levelo_inurba_marseille","lat":43.29978,"lon":5.37184,"is_reserved":false,"is_disabled":false,"rental_uris":{"android":"levelo://app?vid=01f673e9-9f75-4f0c-ad1a-67f83cb20237","ios":"levelo://app?vid=01f673e9-9f75-4f0c-ad1a-67f83cb20237"},"vehicle_type_id":"4","last_reported":1737548211,"current_range_meters":25200,"station_id":"ce4bgr92rcd13ifvqc7g","pricing_plan_id":"cebpf4jnsgd1na2vs0mg"},{"bike_id":"03029508-7ed2-4693-b735-f7deaf763344","system_id":"levelo_inurba_marseille","lat":43.25571,"lon":5.38241,"is_reserved":false,"is_disabled":false,"rental_uris":{"android":"levelo://app?vid=03029508-7ed2-4693-b735-f7deaf763344","ios":"levelo://app?vid=03029508-7ed2-4693-b735-f7deaf763344"},"vehicle_type_id":"4","last_reported":1737548211,"current_range_meters":22400,"station_id":"ce4bhih2rcd13ifvqfs0","pricing_plan_id":"cebpf4jnsgd1na2vs0mg"},{"bike_id":"ed525b36-d54d-4cb1-8043-ea9a939505b1","system_id":"levelo_inurba_marseille","lat":43.29729,"lon":5.37685,"is_reserved":false,"is_disabled":false,"rental_uris":{"android":"levelo://app?vid=ed525b36-d54d-4cb1-8043-ea9a939505b1","ios":"levelo://app?vid=ed525b36-d54d-4cb1-8043-ea9a939505b1"},"vehicle_type_id":"4","last_reported":1737548211,"current_range_meters":21600,"station_id":"ce4bgkh2rcd13ifvqbl0","pricing_plan_id":"cebpf4jnsgd1na2vs0mg"},{"bike_id":"ea486fe1-d3d3-4edc-881a-f0ae79603e88","system_id":"levelo_inurba_marseille","lat":43.25114,"lon":5.40324,"is_reserved":false,"is_disabled":false,"rental_uris":{"android":"levelo://app?vid=ea486fe1-d3d3-4edc-881a-f0ae79603e88","ios":"levelo://app?vid=ea486fe1-d3d3-4edc-881a-f0ae79603e88"},"vehicle_type_id":"4","last_reported":1737548211,"current_range_meters":30800,"station_id":"ce4bhlh2rcd13ifvqgig","pricing_plan_id":"cebpf4jnsgd1na2vs0mg"},{"bike_id":"465a47b7-ea5f-4514-a8aa-b6ad138f3761","system_id":"levelo_inurba_marseille","lat":43.24395,"lon":5.37062,"is_reserved":false,"is_disabled":false,"rental_uris":{"android":"levelo://app?vid=465a47b7-ea5f-4514-a8aa-b6ad138f3761","ios":"levelo://app?vid=465a47b7-ea5f-4514-a8aa-b6ad138f3761"},"vehicle_type_id":"4","last_reported":1737548211,"current_range_meters":24400,"station_id":"ce4bhhh2rcd13ifvqfk0","pricing_plan_id":"cebpf4jnsgd1na2vs0mg"},{"bike_id":"88851e03-71e6-4017-8e2a-ee6d6c1268c0","system_id":"levelo_inurba_marseille","lat":43.27069,"lon":5.42275,"is_reserved":false,"is_disabled":false,"rental_uris":{"android":"levelo://app?vid=88851e03-71e6-4017-8e2a-ee6d6c1268c0","ios":"levelo://app?vid=88851e03-71e6-4017-8e2a-ee6d6c1268c0"},"vehicle_type_id":"4","last_reported":1737548211,"current_range_meters":28800,"station_id":"ce4bhk92rcd13ifvqgb0","pricing_plan_id":"cebpf4jnsgd1na2vs0mg"},{"bike_id":"8b2fb933-ccc6-4beb-9e45-9dbbc569353d","system_id":"levelo_inurba_marseille","lat":43.29251,"lon":5.40916,"is_reserved":false,"is_disabled":false,"rental_uris":{"android":"levelo://app?vid=8b2fb933-ccc6-4beb-9e45-9dbbc569353d","ios":"levelo://app?vid=8b2fb933-ccc6-4beb-9e45-9dbbc569353d"},"vehicle_type_id":"4","last_reported":1737548211,"current_range_meters":22800,"station_id":"ce4bh192rcd13ifvqdc0","pricing_plan_id":"cebpf4jnsgd1na2vs0mg"},{"bike_id":"7a2809fc-0099-4c79-939a-8df140ba6979","system_id":"levelo_inurba_marseille","lat":43.29611,"lon":5.37721,"is_reserved":false,"is_disabled":false,"rental_uris":{"android":"levelo://app?vid=7a2809fc-0099-4c79-939a-8df140ba6979","ios":"levelo://app?vid=7a2809fc-0099-4c79-939a-8df140ba6979"},"vehicle_type_id":"4","last_reported":1737548211,"current_range_meters":10000,"station_id":"ce4bgi92rcd13ifvqb90","pricing_plan_id":"cebpf4jnsgd1na2vs0mg"},{"bike_id":"cac15169-486f-43a5-9e95-33c702c4876b","system_id":"levelo_inurba_marseille","lat":43.30805,"lon":5.43517,"is_reserved":false,"is_disabled":false,"rental_uris":{"android":"levelo://app?vid=cac15169-486f-43a5-9e95-33c702c4876b","ios":"levelo://app?vid=cac15169-486f-43a5-9e95-33c702c4876b"},"vehicle_type_id":"4","last_reported":1737548211,"current_range_meters":30400,"station_id":"ce4bhph2rcd13ifvqheg","pricing_plan_id":"cebpf4jnsgd1na2vs0mg"},{"bike_id":"8f39037d-6b70-4ec1-aca4-c32fd0dff772","system_id":"levelo_inurba_marseille","lat":43.31337,"lon":5.36725,"is_reserved":false,"is_disabled":false,"rental_uris":{"android":"levelo://app?vid=8f39037d-6b70-4ec1-aca4-c32fd0dff772","ios":"levelo://app?vid=8f39037d-6b70-4ec1-aca4-c32fd0dff772"},"vehicle_type_id":"4","last_reported":1737548211,"current_range_meters":19600,"station_id":"ce4bgr92rcd13ifvqc6g","pricing_plan_id":"cebpf4jnsgd1na2vs0mg"},{"bike_id":"e3d76a58-1761-4656-923a-c19c9b0f6727","system_id":"levelo_inurba_marseille","lat":43.30144,"lon":5.38078,"is_reserved":false,"is_disabled":false,"rental_uris":{"android":"levelo://app?vid=e3d76a58-1761-4656-923a-c19c9b0f6727","ios":"levelo://app?vid=e3d76a58-1761-4656-923a-c19c9b0f6727"},"vehicle_type_id":"4","last_reported":1737548211,"current_range_meters":31200,"station_id":"ce4bgjp2rcd13ifvqbh0","pricing_plan_id":"cebpf4jnsgd1na2vs0mg"},{"bike_id":"1e6813be-e894-4b79-9a9b-5838468483e1","system_id":"levelo_inurba_marseille","lat":43.24399,"lon":5.3707,"is_reserved":false,"is_disabled":false,"rental_uris":{"android":"levelo://app?vid=1e6813be-e894-4b79-9a9b-5838468483e1","ios":"levelo://app?vid=1e6813be-e894-4b79-9a9b-5838468483e1"},"vehicle_type_id":"4","last_reported":1737548211,"current_range_meters":28800,"station_id":"ce4bhhh2rcd13ifvqfk0","pricing_plan_id":"cebpf4jnsgd1na2vs0mg"},{"bike_id":"1743cc63-e9e7-44fa-a999-728d0f063951","system_id":"levelo_inurba_marseille","lat":43.26568,"lon":5.37291,"is_reserved":false,"is_disabled":false,"rental_uris":{"android":"levelo://app?vid=1743cc63-e9e7-44fa-a999-728d0f063951","ios":"levelo://app?vid=1743cc63-e9e7-44fa-a999-728d0f063951"},"vehicle_type_id":"4","last_reported":1737548211,"current_range_meters":36800,"station_id":"ce4bhg12rcd13ifvqf70","pricing_plan_id":"cebpf4jnsgd1na2vs0mg"},{"bike_id":"ff166635-89ce-46d9-9ece-cde7618c4423","system_id":"levelo_inurba_marseille","lat":43.29939,"lon":5.39756,"is_reserved":false,"is_disabled":false,"rental_uris":{"android":"levelo://app?vid=ff166635-89ce-46d9-9ece-cde7618c4423","ios":"levelo://app?vid=ff166635-89ce-46d9-9ece-cde7618c4423"},"vehicle_type_id":"4","last_reported":1737548211,"current_range_meters":15200,"station_id":"","pricing_plan_id":"cebpf4jnsgd1na2vs0mg"},{"bike_id":"d2758194-21eb-4813-ad01-e15493dd4661","system_id":"levelo_inurba_marseille","lat":43.26943,"lon":5.4026,"is_reserved":false,"is_disabled":false,"rental_uris":{"android":"levelo://app?vid=d2758194-21eb-4813-ad01-e15493dd4661","ios":"levelo://app?vid=d2758194-21eb-4813-ad01-e15493dd4661"},"vehicle_type_id":"4","last_reported":1737548211,"current_range_meters":38800,"station_id":"cjm6bp8fraef2m0cb0m0","pricing_plan_id":"cebpf4jnsgd1na2vs0mg"},{"bike_id":"aad26239-10ad-41bb-8bea-02c8883e1850","system_id":"levelo_inurba_marseille","lat":43.26958,"lon":5.38637,"is_reserved":false,"is_disabled":false,"rental_uris":{"android":"levelo://app?vid=aad26239-10ad-41bb-8bea-02c8883e1850","ios":"levelo://app?vid=aad26239-10ad-41bb-8bea-02c8883e1850"},"vehicle_type_id":"4","last_reported":1737548211,"current_range_meters":14800,"station_id":"ce4bhh92rcd13ifvqfh0","pricing_plan_id":"cebpf4jnsgd1na2vs0mg"},{"bike_id":"e29d5d6a-774f-4b30-92fa-7b0f5591c3c5","system_id":"levelo_inurba_marseille","lat":43.31712,"lon":5.43704,"is_reserved":false,"is_disabled":false,"rental_uris":{"android":"levelo://app?vid=e29d5d6a-774f-4b30-92fa-7b0f5591c3c5","ios":"levelo://app?vid=e29d5d6a-774f-4b30-92fa-7b0f5591c3c5"},"vehicle_type_id":"4","last_reported":1737548211,"current_range_meters":8400,"station_id":"ce4bhp92rcd13ifvqhcg","pricing_plan_id":"cebpf4jnsgd1na2vs0mg"},{"bike_id":"fb07722b-6c4a-4667-a97b-6fa04f98ca7a","system_id":"levelo_inurba_marseille","lat":43.29843,"lon":5.3628,"is_reserved":false,"is_disabled":false,"rental_uris":{"android":"levelo://app?vid=fb07722b-6c4a-4667-a97b-6fa04f98ca7a","ios":"levelo://app?vid=fb07722b-6c4a-4667-a97b-6fa04f98ca7a"},"vehicle_type_id":"4","last_reported":1737548211,"current_range_meters":38800,"station_id":"ce4bgpp2rcd13ifvqc3g","pricing_plan_id":"cebpf4jnsgd1na2vs0mg"},{"bike_id":"7efcb0c5-c5e2-4a34-817e-7f5c9bc05a78","system_id":"levelo_inurba_marseille","lat":43.31117,"lon":5.37773,"is_reserved":false,"is_disabled":false,"rental_uris":{"android":"levelo://app?vid=7efcb0c5-c5e2-4a34-817e-7f5c9bc05a78","ios":"levelo://app?vid=7efcb0c5-c5e2-4a34-817e-7f5c9bc05a78"},"vehicle_type_id":"4","last_reported":1737548211,"current_range_meters":30000,"station_id":"ce4bgt92rcd13ifvqcg0","pricing_plan_id":"cebpf4jnsgd1na2vs0mg"},{"bike_id":"bfd590de-53b0-4310-80d7-44e10ea04ac4","system_id":"levelo_inurba_marseille","lat":43.30954,"lon":5.39035,"is_reserved":false,"is_disabled":false,"rental_uris":{"android":"levelo://app?vid=bfd590de-53b0-4310-80d7-44e10ea04ac4","ios":"levelo://app?vid=bfd590de-53b0-4310-80d7-44e10ea04ac4"},"vehicle_type_id":"4","last_reported":1737548211,"current_range_meters":22800,"station_id":"ce4bgup2rcd13ifvqco0","pricing_plan_id":"cebpf4jnsgd1na2vs0mg"},{"bike_id":"674ce491-61c6-4603-bccf-12cb08529bac","system_id":"levelo_inurba_marseille","lat":43.336112,"lon":5.410327,"is_reserved":false,"is_disabled":false,"rental_uris":{"android":"levelo://app?vid=674ce491-61c6-4603-bccf-12cb08529bac","ios":"levelo://app?vid=674ce491-61c6-4603-bccf-12cb08529bac"},"vehicle_type_id":"4","last_reported":1737548211,"current_range_meters":30400,"station_id":"ce4bhqh2rcd13ifvqhmg","pricing_plan_id":"cebpf4jnsgd1na2vs0mg"},{"bike_id":"42ffd8be-59bd-4e3d-829a-b035d16c04f3","system_id":"levelo_inurba_marseille","lat":43.28416,"lon":5.37528,"is_reserved":false,"is_disabled":false,"rental_uris":{"android":"levelo://app?vid=42ffd8be-59bd-4e3d-829a-b035d16c04f3","ios":"levelo://app?vid=42ffd8be-59bd-4e3d-829a-b035d16c04f3"},"vehicle_type_id":"4","last_reported":1737548211,"current_range_meters":21600,"station_id":"ce4bh412rcd13ifvqds0","pricing_plan_id":"cebpf4jnsgd1na2vs0mg"},{"bike_id":"f4064b91-d50f-4faa-b80a-c4b38df2d08b","system_id":"levelo_inurba_marseille","lat":43.22942,"lon":5.35382,"is_reserved":false,"is_disabled":false,"rental_uris":{"android":"levelo://app?vid=f4064b91-d50f-4faa-b80a-c4b38df2d08b","ios":"levelo://app?vid=f4064b91-d50f-4faa-b80a-c4b38df2d08b"},"vehicle_type_id":"4","last_reported":1737548211,"current_range_meters":38800,"station_id":"cpo3532slgdg3j2ikp40","pricing_plan_id":"cebpf4jnsgd1na2vs0mg"},{"bike_id":"1c5c6c97-e589-4b16-a350-502643230369","system_id":"levelo_inurba_marseille","lat":43.23156,"lon":5.43694,"is_reserved":false,"is_disabled":false,"rental_uris":{"android":"levelo://app?vid=1c5c6c97-e589-4b16-a350-502643230369","ios":"levelo://app?vid=1c5c6c97-e589-4b16-a350-502643230369"},"vehicle_type_id":"4","last_reported":1737548211,"current_range_meters":37600,"station_id":"ce4bhmp2rcd13ifvqgog","pricing_plan_id":"cebpf4jnsgd1na2vs0mg"},{"bike_id":"c608a355-799a-42b0-8df8-e6a61a956853","system_id":"levelo_inurba_marseille","lat":43.31697,"lon":5.42426,"is_reserved":false,"is_disabled":false,"rental_uris":{"android":"levelo://app?vid=c608a355-799a-42b0-8df8-e6a61a956853","ios":"levelo://app?vid=c608a355-799a-42b0-8df8-e6a61a956853"},"vehicle_type_id":"4","last_reported":1737548211,"current_range_meters":38800,"station_id":"ce4bhp92rcd13ifvqhbg","pricing_plan_id":"cebpf4jnsgd1na2vs0mg"},{"bike_id":"41b9e971-fd43-4216-a93f-9058662c9ea0","system_id":"levelo_inurba_marseille","lat":43.25829,"lon":5.39434,"is_reserved":false,"is_disabled":false,"rental_uris":{"android":"levelo://app?vid=41b9e971-fd43-4216-a93f-9058662c9ea0","ios":"levelo://app?vid=41b9e971-fd43-4216-a93f-9058662c9ea0"},"vehicle_type_id":"4","last_reported":1737548211,"current_range_meters":7200,"station_id":"ce4bhip2rcd13ifvqft0","pricing_plan_id":"cebpf4jnsgd1na2vs0mg"},{"bike_id":"6591f624-82c8-491d-bc0e-8f962c14563c","system_id":"levelo_inurba_marseille","lat":43.29228,"lon":5.40891,"is_reserved":false,"is_disabled":false,"rental_uris":{"android":"levelo://app?vid=6591f624-82c8-491d-bc0e-8f962c14563c","ios":"levelo://app?vid=6591f624-82c8-491d-bc0e-8f962c14563c"},"vehicle_type_id":"4","last_reported":1737548211,"current_range_meters":38800,"station_id":"ce4bh192rcd13ifvqdc0","pricing_plan_id":"cebpf4jnsgd1na2vs0mg"},{"bike_id":"3c5b608b-1632-45f6-8b3b-8a22c5aed0a6","system_id":"levelo_inurba_marseille","lat":43.28354,"lon":5.38111,"is_reserved":false,"is_disabled":false,"rental_uris":{"android":"levelo://app?vid=3c5b608b-1632-45f6-8b3b-8a22c5aed0a6","ios":"levelo://app?vid=3c5b608b-1632-45f6-8b3b-8a22c5aed0a6"},"vehicle_type_id":"4","last_reported":1737548211,"current_range_meters":38800,"station_id":"ce4bh412rcd13ifvqdr0","pricing_plan_id":"cebpf4jnsgd1na2vs0mg"},{"bike_id":"4b766d21-35a9-4e2d-8535-3688332a270a","system_id":"levelo_inurba_marseille","lat":43.3108,"lon":5.42429,"is_reserved":false,"is_disabled":false,"rental_uris":{"android":"levelo://app?vid=4b766d21-35a9-4e2d-8535-3688332a270a","ios":"levelo://app?vid=4b766d21-35a9-4e2d-8535-3688332a270a"},"vehicle_type_id":"4","last_reported":1737548211,"current_range_meters":5600,"station_id":"ce4bhp92rcd13ifvqhag","pricing_plan_id":"cebpf4jnsgd1na2vs0mg"},{"bike_id":"bed079e3-b66e-4289-81fc-431bd0b5e8b5","system_id":"levelo_inurba_marseille","lat":43.30537,"lon":5.36544,"is_reserved":false,"is_disabled":false,"rental_uris":{"android":"levelo://app?vid=bed079e3-b66e-4289-81fc-431bd0b5e8b5","ios":"levelo://app?vid=bed079e3-b66e-4289-81fc-431bd0b5e8b5"},"vehicle_type_id":"4","last_reported":1737548211,"current_range_meters":34000,"station_id":"ce4bgs12rcd13ifvqcag","pricing_plan_id":"cebpf4jnsgd1na2vs0mg"},{"bike_id":"9b461bb7-61c5-4f25-8819-969a5d93af9e","system_id":"levelo_inurba_marseille","lat":43.2511,"lon":5.4033,"is_reserved":false,"is_disabled":false,"rental_uris":{"android":"levelo://app?vid=9b461bb7-61c5-4f25-8819-969a5d93af9e","ios":"levelo://app?vid=9b461bb7-61c5-4f25-8819-969a5d93af9e"},"vehicle_type_id":"4","last_reported":1737548211,"current_range_meters":38400,"station_id":"ce4bhlh2rcd13ifvqgig","pricing_plan_id":"cebpf4jnsgd1na2vs0mg"},{"bike_id":"2fc2ee69-aa4b-45f9-9488-21abae1e33f5","system_id":"levelo_inurba_marseille","lat":43.30442,"lon":5.379227,"is_reserved":false,"is_disabled":false,"rental_uris":{"android":"levelo://app?vid=2fc2ee69-aa4b-45f9-9488-21abae1e33f5","ios":"levelo://app?vid=2fc2ee69-aa4b-45f9-9488-21abae1e33f5"},"vehicle_type_id":"4","last_reported":1737548211,"current_range_meters":26800,"station_id":"ce4bgup2rcd13ifvqcn0","pricing_plan_id":"cebpf4jnsgd1na2vs0mg"},{"bike_id":"8a725843-205b-4bfa-b181-c5d4ae148cad","system_id":"levelo_inurba_marseille","lat":43.26682,"lon":5.38268,"is_reserved":false,"is_disabled":false,"rental_uris":{"android":"levelo://app?vid=8a725843-205b-4bfa-b181-c5d4ae148cad","ios":"levelo://app?vid=8a725843-205b-4bfa-b181-c5d4ae148cad"},"vehicle_type_id":"4","last_reported":1737548211,"current_range_meters":38800,"station_id":"ce4bhg92rcd13ifvqf90","pricing_plan_id":"cebpf4jnsgd1na2vs0mg"},{"bike_id":"d40d3d73-1abb-42c9-aa5c-bd8d35a27540","system_id":"levelo_inurba_marseille","lat":43.287,"lon":5.37397,"is_reserved":false,"is_disabled":false,"rental_uris":{"android":"levelo://app?vid=d40d3d73-1abb-42c9-aa5c-bd8d35a27540","ios":"levelo://app?vid=d40d3d73-1abb-42c9-aa5c-bd8d35a27540"},"vehicle_type_id":"4","last_reported":1737548211,"current_range_meters":32000,"station_id":"ce4bh3p2rcd13ifvqdq0","pricing_plan_id":"cebpf4jnsgd1na2vs0mg"},{"bike_id":"11864e56-3c6c-40e6-a2f3-a21fa722ad48","system_id":"levelo_inurba_marseille","lat":43.30546,"lon":5.36547,"is_reserved":false,"is_disabled":false,"rental_uris":{"android":"levelo://app?vid=11864e56-3c6c-40e6-a2f3-a21fa722ad48","ios":"levelo://app?vid=11864e56-3c6c-40e6-a2f3-a21fa722ad48"},"vehicle_type_id":"4","last_reported":1737548211,"current_range_meters":38000,"station_id":"ce4bgs12rcd13ifvqcag","pricing_plan_id":"cebpf4jnsgd1na2vs0mg"},{"bike_id":"cd45841f-7128-443a-9f5c-864e501c49b3","system_id":"levelo_inurba_marseille","lat":43.28367,"lon":5.381,"is_reserved":false,"is_disabled":false,"rental_uris":{"android":"levelo://app?vid=cd45841f-7128-443a-9f5c-864e501c49b3","ios":"levelo://app?vid=cd45841f-7128-443a-9f5c-864e501c49b3"},"vehicle_type_id":"4","last_reported":1737548211,"current_range_meters":25200,"station_id":"ce4bh412rcd13ifvqdr0","pricing_plan_id":"cebpf4jnsgd1na2vs0mg"},{"bike_id":"f3735232-5d15-4e84-82f3-d2ea82b3c299","system_id":"levelo_inurba_marseille","lat":43.32358,"lon":5.36761,"is_reserved":false,"is_disabled":false,"rental_uris":{"android":"levelo://app?vid=f3735232-5d15-4e84-82f3-d2ea82b3c299","ios":"levelo://app?vid=f3735232-5d15-4e84-82f3-d2ea82b3c299"},"vehicle_type_id":"4","last_reported":1737548211,"current_range_meters":28400,"station_id":"ce4bhsh2rcd13ifvqi2g","pricing_plan_id":"cebpf4jnsgd1na2vs0mg"},{"bike_id":"8b98cf62-9f2e-4a5b-957d-7bcf08dfd2a7","system_id":"levelo_inurba_marseille","lat":43.26557,"lon":5.37287,"is_reserved":false,"is_disabled":true,"rental_uris":{"android":"levelo://app?vid=8b98cf62-9f2e-4a5b-957d-7bcf08dfd2a7","ios":"levelo://app?vid=8b98cf62-9f2e-4a5b-957d-7bcf08dfd2a7"},"vehicle_type_id":"4","last_reported":1737548211,"current_range_meters":0,"station_id":"ce4bhg12rcd13ifvqf70","pricing_plan_id":"cebpf4jnsgd1na2vs0mg"},{"bike_id":"9d094da5-5fa4-4358-a503-db0f0481f1cc","system_id":"levelo_inurba_marseille","lat":43.29046,"lon":5.35913,"is_reserved":false,"is_disabled":false,"rental_uris":{"android":"levelo://app?vid=9d094da5-5fa4-4358-a503-db0f0481f1cc","ios":"levelo://app?vid=9d094da5-5fa4-4358-a503-db0f0481f1cc"},"vehicle_type_id":"4","last_reported":1737548211,"current_range_meters":38800,"station_id":"ce4bha92rcd13ifvqeg0","pricing_plan_id":"cebpf4jnsgd1na2vs0mg"},{"bike_id":"43e04d0f-bfd5-4908-b4cb-b8ec9fd1c016","system_id":"levelo_inurba_marseille","lat":43.25113,"lon":5.40322,"is_reserved":false,"is_disabled":false,"rental_uris":{"android":"levelo://app?vid=43e04d0f-bfd5-4908-b4cb-b8ec9fd1c016","ios":"levelo://app?vid=43e04d0f-bfd5-4908-b4cb-b8ec9fd1c016"},"vehicle_type_id":"4","last_reported":1737548211,"current_range_meters":19200,"station_id":"ce4bhlh2rcd13ifvqgig","pricing_plan_id":"cebpf4jnsgd1na2vs0mg"},{"bike_id":"07656937-ab32-4288-8757-0c43aa56903f","system_id":"levelo_inurba_marseille","lat":43.28458,"lon":5.35891,"is_reserved":false,"is_disabled":false,"rental_uris":{"android":"levelo://app?vid=07656937-ab32-4288-8757-0c43aa56903f","ios":"levelo://app?vid=07656937-ab32-4288-8757-0c43aa56903f"},"vehicle_type_id":"4","last_reported":1737548211,"current_range_meters":38800,"station_id":"ce4bhah2rcd13ifvqei0","pricing_plan_id":"cebpf4jnsgd1na2vs0mg"},{"bike_id":"329546d5-20c8-4c94-98ed-c5ec6037fca1","system_id":"levelo_inurba_marseille","lat":43.301473,"lon":5.380833,"is_reserved":false,"is_disabled":false,"rental_uris":{"android":"levelo://app?vid=329546d5-20c8-4c94-98ed-c5ec6037fca1","ios":"levelo://app?vid=329546d5-20c8-4c94-98ed-c5ec6037fca1"},"vehicle_type_id":"4","last_reported":1737548211,"current_range_meters":29600,"station_id":"ce4bgjp2rcd13ifvqbh0","pricing_plan_id":"cebpf4jnsgd1na2vs0mg"},{"bike_id":"fc7d0896-a0d9-4784-82a6-858cbf9807fe","system_id":"levelo_inurba_marseille","lat":43.30786,"lon":5.37655,"is_reserved":false,"is_disabled":false,"rental_uris":{"android":"levelo://app?vid=fc7d0896-a0d9-4784-82a6-858cbf9807fe","ios":"levelo://app?vid=fc7d0896-a0d9-4784-82a6-858cbf9807fe"},"vehicle_type_id":"4","last_reported":1737548211,"current_range_meters":28000,"station_id":"ce4bgv92rcd13ifvqcq0","pricing_plan_id":"cebpf4jnsgd1na2vs0mg"},{"bike_id":"7e034d53-14af-4f50-9dca-08e722d3e1df","system_id":"levelo_inurba_marseille","lat":43.313507,"lon":5.366963,"is_reserved":false,"is_disabled":false,"rental_uris":{"android":"levelo://app?vid=7e034d53-14af-4f50-9dca-08e722d3e1df","ios":"levelo://app?vid=7e034d53-14af-4f50-9dca-08e722d3e1df"},"vehicle_type_id":"4","last_reported":1737548211,"current_range_meters":27200,"station_id":"ce4bgr92rcd13ifvqc6g","pricing_plan_id":"cebpf4jnsgd1na2vs0mg"},{"bike_id":"110f4d36-27c9-49b8-86bf-d85558408b80","system_id":"levelo_inurba_marseille","lat":43.32367,"lon":5.38854,"is_reserved":false,"is_disabled":false,"rental_uris":{"android":"levelo://app?vid=110f4d36-27c9-49b8-86bf-d85558408b80","ios":"levelo://app?vid=110f4d36-27c9-49b8-86bf-d85558408b80"},"vehicle_type_id":"4","last_reported":1737548211,"current_range_meters":24000,"station_id":"ce4bhqp2rcd13ifvqhog","pricing_plan_id":"cebpf4jnsgd1na2vs0mg"},{"bike_id":"04b3bc81-80fe-492e-ad11-4bdb82b97680","system_id":"levelo_inurba_marseille","lat":43.30494,"lon":5.3791,"is_reserved":false,"is_disabled":true,"rental_uris":{"android":"levelo://app?vid=04b3bc81-80fe-492e-ad11-4bdb82b97680","ios":"levelo://app?vid=04b3bc81-80fe-492e-ad11-4bdb82b97680"},"vehicle_type_id":"4","last_reported":1737548211,"current_range_meters":38800,"station_id":"ce4bgup2rcd13ifvqcn0","pricing_plan_id":"cebpf4jnsgd1na2vs0mg"},{"bike_id":"e6b3f36e-2053-4232-9753-c3a59f46346e","system_id":"levelo_inurba_marseille","lat":43.29604,"lon":5.37199,"is_reserved":false,"is_disabled":false,"rental_uris":{"android":"levelo://app?vid=e6b3f36e-2053-4232-9753-c3a59f46346e","ios":"levelo://app?vid=e6b3f36e-2053-4232-9753-c3a59f46346e"},"vehicle_type_id":"4","last_reported":1737548211,"current_range_meters":24400,"station_id":"ce4bgnh2rcd13ifvqc0g","pricing_plan_id":"cebpf4jnsgd1na2vs0mg"},{"bike_id":"3bcd921d-810c-4845-87ab-d96c2ac5451e","system_id":"levelo_inurba_marseille","lat":43.27817,"lon":5.40725,"is_reserved":false,"is_disabled":true,"rental_uris":{"android":"levelo://app?vid=3bcd921d-810c-4845-87ab-d96c2ac5451e","ios":"levelo://app?vid=3bcd921d-810c-4845-87ab-d96c2ac5451e"},"vehicle_type_id":"4","last_reported":1737548211,"current_range_meters":14000,"station_id":"ce4bhnh2rcd13ifvqgtg","pricing_plan_id":"cebpf4jnsgd1na2vs0mg"},{"bike_id":"492741a9-7a01-4c84-a730-a955cd6628db","system_id":"levelo_inurba_marseille","lat":43.299153,"lon":5.374683,"is_reserved":false,"is_disabled":false,"rental_uris":{"android":"levelo://app?vid=492741a9-7a01-4c84-a730-a955cd6628db","ios":"levelo://app?vid=492741a9-7a01-4c84-a730-a955cd6628db"},"vehicle_type_id":"4","last_reported":1737548211,"current_range_meters":26000,"station_id":"ce4bgjh2rcd13ifvqbg0","pricing_plan_id":"cebpf4jnsgd1na2vs0mg"},{"bike_id":"c01ff322-934e-4fed-b8ab-096213fbdb3c","system_id":"levelo_inurba_marseille","lat":43.31998,"lon":5.38157,"is_reserved":false,"is_disabled":false,"rental_uris":{"android":"levelo://app?vid=c01ff322-934e-4fed-b8ab-096213fbdb3c","ios":"levelo://app?vid=c01ff322-934e-4fed-b8ab-096213fbdb3c"},"vehicle_type_id":"4","last_reported":1737548211,"current_range_meters":38800,"station_id":"ce4bhr12rcd13ifvqhpg","pricing_plan_id":"cebpf4jnsgd1na2vs0mg"},{"bike_id":"dbeb11ac-b209-4b3d-a11d-2d7ebde9aae7","system_id":"levelo_inurba_marseille","lat":43.2919,"lon":5.3932,"is_reserved":false,"is_disabled":false,"rental_uris":{"android":"levelo://app?vid=dbeb11ac-b209-4b3d-a11d-2d7ebde9aae7","ios":"levelo://app?vid=dbeb11ac-b209-4b3d-a11d-2d7ebde9aae7"},"vehicle_type_id":"4","last_reported":1737548211,"current_range_meters":38800,"station_id":"ce4bh192rcd13ifvqdd0","pricing_plan_id":"cebpf4jnsgd1na2vs0mg"},{"bike_id":"f4528a67-39bc-4d13-aaa5-6854f6f0626d","system_id":"levelo_inurba_marseille","lat":43.2396,"lon":5.36655,"is_reserved":false,"is_disabled":false,"rental_uris":{"android":"levelo://app?vid=f4528a67-39bc-4d13-aaa5-6854f6f0626d","ios":"levelo://app?vid=f4528a67-39bc-4d13-aaa5-6854f6f0626d"},"vehicle_type_id":"4","last_reported":1737548211,"current_range_meters":27200,"station_id":"ce4bhi12rcd13ifvqfp0","pricing_plan_id":"cebpf4jnsgd1na2vs0mg"},{"bike_id":"82bfa057-5292-4360-a798-0dbe029f2a3b","system_id":"levelo_inurba_marseille","lat":43.29961,"lon":5.38519,"is_reserved":false,"is_disabled":false,"rental_uris":{"android":"levelo://app?vid=82bfa057-5292-4360-a798-0dbe029f2a3b","ios":"levelo://app?vid=82bfa057-5292-4360-a798-0dbe029f2a3b"},"vehicle_type_id":"4","last_reported":1737548211,"current_range_meters":26800,"station_id":"ce4bgj92rcd13ifvqbd0","pricing_plan_id":"cebpf4jnsgd1na2vs0mg"},{"bike_id":"6440f376-b0ac-4979-8b74-813c76d7599b","system_id":"levelo_inurba_marseille","lat":43.24181,"lon":5.39726,"is_reserved":false,"is_disabled":false,"rental_uris":{"android":"levelo://app?vid=6440f376-b0ac-4979-8b74-813c76d7599b","ios":"levelo://app?vid=6440f376-b0ac-4979-8b74-813c76d7599b"},"vehicle_type_id":"4","last_reported":1737548211,"current_range_meters":27200,"station_id":"ce4bhn12rcd13ifvqgpg","pricing_plan_id":"cebpf4jnsgd1na2vs0mg"},{"bike_id":"399562cb-200c-42e5-9323-afe751683da6","system_id":"levelo_inurba_marseille","lat":43.324755,"lon":5.365631,"is_reserved":false,"is_disabled":false,"rental_uris":{"android":"levelo://app?vid=399562cb-200c-42e5-9323-afe751683da6","ios":"levelo://app?vid=399562cb-200c-42e5-9323-afe751683da6"},"vehicle_type_id":"4","last_reported":1737548211,"current_range_meters":26000,"station_id":"ce4bhs12rcd13ifvqhvg","pricing_plan_id":"cebpf4jnsgd1na2vs0mg"},{"bike_id":"87f6cf51-494c-42eb-b123-0d465580e8d6","system_id":"levelo_inurba_marseille","lat":43.25826,"lon":5.39458,"is_reserved":false,"is_disabled":false,"rental_uris":{"android":"levelo://app?vid=87f6cf51-494c-42eb-b123-0d465580e8d6","ios":"levelo://app?vid=87f6cf51-494c-42eb-b123-0d465580e8d6"},"vehicle_type_id":"4","last_reported":1737548211,"current_range_meters":36400,"station_id":"ce4bhip2rcd13ifvqft0","pricing_plan_id":"cebpf4jnsgd1na2vs0mg"},{"bike_id":"62890767-0d39-4a9a-bc92-f45b2c43cbde","system_id":"levelo_inurba_marseille","lat":43.30844,"lon":5.39664,"is_reserved":false,"is_disabled":false,"rental_uris":{"android":"levelo://app?vid=62890767-0d39-4a9a-bc92-f45b2c43cbde","ios":"levelo://app?vid=62890767-0d39-4a9a-bc92-f45b2c43cbde"},"vehicle_type_id":"4","last_reported":1737548211,"current_range_meters":28800,"station_id":"ce4bh012rcd13ifvqcv0","pricing_plan_id":"cebpf4jnsgd1na2vs0mg"},{"bike_id":"33a5ea3b-2c44-45dd-8767-aad86cf1dc7b","system_id":"levelo_inurba_marseille","lat":43.31667,"lon":5.3964,"is_reserved":false,"is_disabled":false,"rental_uris":{"android":"levelo://app?vid=33a5ea3b-2c44-45dd-8767-aad86cf1dc7b","ios":"levelo://app?vid=33a5ea3b-2c44-45dd-8767-aad86cf1dc7b"},"vehicle_type_id":"4","last_reported":1737548211,"current_range_meters":25600,"station_id":"","pricing_plan_id":"cebpf4jnsgd1na2vs0mg"},{"bike_id":"8d687d01-0086-487a-a814-0afe95bbf5e0","system_id":"levelo_inurba_marseille","lat":43.2847,"lon":5.35899,"is_reserved":false,"is_disabled":false,"rental_uris":{"android":"levelo://app?vid=8d687d01-0086-487a-a814-0afe95bbf5e0","ios":"levelo://app?vid=8d687d01-0086-487a-a814-0afe95bbf5e0"},"vehicle_type_id":"4","last_reported":1737548211,"current_range_meters":28400,"station_id":"ce4bhah2rcd13ifvqei0","pricing_plan_id":"cebpf4jnsgd1na2vs0mg"},{"bike_id":"ddd7bc84-115c-4d8c-9532-72b1331f7fe3","system_id":"levelo_inurba_marseille","lat":43.29583,"lon":5.36742,"is_reserved":false,"is_disabled":false,"rental_uris":{"android":"levelo://app?vid=ddd7bc84-115c-4d8c-9532-72b1331f7fe3","ios":"levelo://app?vid=ddd7bc84-115c-4d8c-9532-72b1331f7fe3"},"vehicle_type_id":"4","last_reported":1737548211,"current_range_meters":38800,"station_id":"ce4bgph2rcd13ifvqc2g","pricing_plan_id":"cebpf4jnsgd1na2vs0mg"},{"bike_id":"9cc87e38-2882-4c4f-9efd-0002b7e524d3","system_id":"levelo_inurba_marseille","lat":43.27818,"lon":5.40723,"is_reserved":false,"is_disabled":false,"rental_uris":{"android":"levelo://app?vid=9cc87e38-2882-4c4f-9efd-0002b7e524d3","ios":"levelo://app?vid=9cc87e38-2882-4c4f-9efd-0002b7e524d3"},"vehicle_type_id":"4","last_reported":1737548211,"current_range_meters":38400,"station_id":"ce4bhnh2rcd13ifvqgtg","pricing_plan_id":"cebpf4jnsgd1na2vs0mg"},{"bike_id":"19736d4d-26c1-4d09-a409-61d53f5cd6d4","system_id":"levelo_inurba_marseille","lat":43.30471,"lon":5.37898,"is_reserved":false,"is_disabled":false,"rental_uris":{"android":"levelo://app?vid=19736d4d-26c1-4d09-a409-61d53f5cd6d4","ios":"levelo://app?vid=19736d4d-26c1-4d09-a409-61d53f5cd6d4"},"vehicle_type_id":"4","last_reported":1737548211,"current_range_meters":32000,"station_id":"ce4bgup2rcd13ifvqcn0","pricing_plan_id":"cebpf4jnsgd1na2vs0mg"},{"bike_id":"521d441d-7e79-47a0-8bdd-736767eac068","system_id":"levelo_inurba_marseille","lat":43.313659,"lon":5.385042,"is_reserved":false,"is_disabled":true,"rental_uris":{"android":"levelo://app?vid=521d441d-7e79-47a0-8bdd-736767eac068","ios":"levelo://app?vid=521d441d-7e79-47a0-8bdd-736767eac068"},"vehicle_type_id":"4","last_reported":1737548211,"current_range_meters":0,"station_id":"ce4bgt92rcd13ifvqcf0","pricing_plan_id":"cebpf4jnsgd1na2vs0mg"},{"bike_id":"2965a976-302f-43d1-97a6-16afd2455155","system_id":"levelo_inurba_marseille","lat":43.273683,"lon":5.362539,"is_reserved":false,"is_disabled":false,"rental_uris":{"android":"levelo://app?vid=2965a976-302f-43d1-97a6-16afd2455155","ios":"levelo://app?vid=2965a976-302f-43d1-97a6-16afd2455155"},"vehicle_type_id":"4","last_reported":1737548211,"current_range_meters":25600,"station_id":"ce4bhbh2rcd13ifvqeo0","pricing_plan_id":"cebpf4jnsgd1na2vs0mg"},{"bike_id":"3b0b1d20-d14c-4dff-8f1e-351b19fdd947","system_id":"levelo_inurba_marseille","lat":43.32112,"lon":5.36769,"is_reserved":false,"is_disabled":false,"rental_uris":{"android":"levelo://app?vid=3b0b1d20-d14c-4dff-8f1e-351b19fdd947","ios":"levelo://app?vid=3b0b1d20-d14c-4dff-8f1e-351b19fdd947"},"vehicle_type_id":"4","last_reported":1737548211,"current_range_meters":35200,"station_id":"ce4bhrh2rcd13ifvqhug","pricing_plan_id":"cebpf4jnsgd1na2vs0mg"},{"bike_id":"9eeabac4-cc66-4446-9589-cd2264b98d29","system_id":"levelo_inurba_marseille","lat":43.33758,"lon":5.37474,"is_reserved":false,"is_disabled":false,"rental_uris":{"android":"levelo://app?vid=9eeabac4-cc66-4446-9589-cd2264b98d29","ios":"levelo://app?vid=9eeabac4-cc66-4446-9589-cd2264b98d29"},"vehicle_type_id":"4","last_reported":1737548211,"current_range_meters":38000,"station_id":"","pricing_plan_id":"cebpf4jnsgd1na2vs0mg"},{"bike_id":"8ab0346c-8001-4067-8852-009244e2b53d","system_id":"levelo_inurba_marseille","lat":43.31086,"lon":5.42433,"is_reserved":false,"is_disabled":false,"rental_uris":{"android":"levelo://app?vid=8ab0346c-8001-4067-8852-009244e2b53d","ios":"levelo://app?vid=8ab0346c-8001-4067-8852-009244e2b53d"},"vehicle_type_id":"4","last_reported":1737548211,"current_range_meters":38400,"station_id":"ce4bhp92rcd13ifvqhag","pricing_plan_id":"cebpf4jnsgd1na2vs0mg"},{"bike_id":"b4548c16-c192-4910-9c21-2ba57df40c73","system_id":"levelo_inurba_marseille","lat":43.29627,"lon":5.377363,"is_reserved":false,"is_disabled":false,"rental_uris":{"android":"levelo://app?vid=b4548c16-c192-4910-9c21-2ba57df40c73","ios":"levelo://app?vid=b4548c16-c192-4910-9c21-2ba57df40c73"},"vehicle_type_id":"4","last_reported":1737548211,"current_range_meters":37600,"station_id":"ce4bgi92rcd13ifvqb90","pricing_plan_id":"cebpf4jnsgd1na2vs0mg"},{"bike_id":"d6550eb1-0e0b-4eb8-b93c-dcb89f46c177","system_id":"levelo_inurba_marseille","lat":43.31689,"lon":5.37765,"is_reserved":false,"is_disabled":false,"rental_uris":{"android":"levelo://app?vid=d6550eb1-0e0b-4eb8-b93c-dcb89f46c177","ios":"levelo://app?vid=d6550eb1-0e0b-4eb8-b93c-dcb89f46c177"},"vehicle_type_id":"4","last_reported":1737548211,"current_range_meters":38800,"station_id":"ce4bgth2rcd13ifvqch0","pricing_plan_id":"cebpf4jnsgd1na2vs0mg"},{"bike_id":"e1a344b0-1af1-4839-9fc5-2bded306edb6","system_id":"levelo_inurba_marseille","lat":43.3026,"lon":5.37456,"is_reserved":false,"is_disabled":false,"rental_uris":{"android":"levelo://app?vid=e1a344b0-1af1-4839-9fc5-2bded306edb6","ios":"levelo://app?vid=e1a344b0-1af1-4839-9fc5-2bded306edb6"},"vehicle_type_id":"4","last_reported":1737548211,"current_range_meters":38800,"station_id":"ce4bgs92rcd13ifvqcc0","pricing_plan_id":"cebpf4jnsgd1na2vs0mg"},{"bike_id":"2bebf64d-2eff-4607-b617-986c9d9aab7f","system_id":"levelo_inurba_marseille","lat":43.26687,"lon":5.38269,"is_reserved":false,"is_disabled":false,"rental_uris":{"android":"levelo://app?vid=2bebf64d-2eff-4607-b617-986c9d9aab7f","ios":"levelo://app?vid=2bebf64d-2eff-4607-b617-986c9d9aab7f"},"vehicle_type_id":"4","last_reported":1737548211,"current_range_meters":38800,"station_id":"ce4bhg92rcd13ifvqf90","pricing_plan_id":"cebpf4jnsgd1na2vs0mg"},{"bike_id":"bb903e76-66e9-47a7-a21b-9c74eee3f530","system_id":"levelo_inurba_marseille","lat":43.25012,"lon":5.38941,"is_reserved":false,"is_disabled":false,"rental_uris":{"android":"levelo://app?vid=bb903e76-66e9-47a7-a21b-9c74eee3f530","ios":"levelo://app?vid=bb903e76-66e9-47a7-a21b-9c74eee3f530"},"vehicle_type_id":"4","last_reported":1737548211,"current_range_meters":38000,"station_id":"ce4bhgp2rcd13ifvqfd0","pricing_plan_id":"cebpf4jnsgd1na2vs0mg"},{"bike_id":"3c2852e8-3d8e-4b8c-9510-44a66e24c469","system_id":"levelo_inurba_marseille","lat":43.26203,"lon":5.37445,"is_reserved":false,"is_disabled":false,"rental_uris":{"android":"levelo://app?vid=3c2852e8-3d8e-4b8c-9510-44a66e24c469","ios":"levelo://app?vid=3c2852e8-3d8e-4b8c-9510-44a66e24c469"},"vehicle_type_id":"4","last_reported":1737548211,"current_range_meters":18800,"station_id":"ce4bhgp2rcd13ifvqfc0","pricing_plan_id":"cebpf4jnsgd1na2vs0mg"},{"bike_id":"51f9259f-ce80-40d8-83a3-20a81bad2134","system_id":"levelo_inurba_marseille","lat":43.31536,"lon":5.38013,"is_reserved":false,"is_disabled":false,"rental_uris":{"android":"levelo://app?vid=51f9259f-ce80-40d8-83a3-20a81bad2134","ios":"levelo://app?vid=51f9259f-ce80-40d8-83a3-20a81bad2134"},"vehicle_type_id":"4","last_reported":1737548211,"current_range_meters":38800,"station_id":"ce4bhsp2rcd13ifvqi50","pricing_plan_id":"cebpf4jnsgd1na2vs0mg"},{"bike_id":"49838f35-8770-4b60-b326-4d678d8fb3d2","system_id":"levelo_inurba_marseille","lat":43.2954,"lon":5.38552,"is_reserved":false,"is_disabled":false,"rental_uris":{"android":"levelo://app?vid=49838f35-8770-4b60-b326-4d678d8fb3d2","ios":"levelo://app?vid=49838f35-8770-4b60-b326-4d678d8fb3d2"},"vehicle_type_id":"4","last_reported":1737548211,"current_range_meters":38800,"station_id":"ce4bgih2rcd13ifvqba0","pricing_plan_id":"cebpf4jnsgd1na2vs0mg"},{"bike_id":"13293fe1-6d51-4eef-adcd-2b864415fded","system_id":"levelo_inurba_marseille","lat":43.26555,"lon":5.37286,"is_reserved":false,"is_disabled":false,"rental_uris":{"android":"levelo://app?vid=13293fe1-6d51-4eef-adcd-2b864415fded","ios":"levelo://app?vid=13293fe1-6d51-4eef-adcd-2b864415fded"},"vehicle_type_id":"4","last_reported":1737548211,"current_range_meters":26800,"station_id":"ce4bhg12rcd13ifvqf70","pricing_plan_id":"cebpf4jnsgd1na2vs0mg"},{"bike_id":"4d5be717-9cef-4815-a473-65552444d60f","system_id":"levelo_inurba_marseille","lat":43.30463,"lon":5.37904,"is_reserved":false,"is_disabled":false,"rental_uris":{"android":"levelo://app?vid=4d5be717-9cef-4815-a473-65552444d60f","ios":"levelo://app?vid=4d5be717-9cef-4815-a473-65552444d60f"},"vehicle_type_id":"4","last_reported":1737548211,"current_range_meters":32400,"station_id":"ce4bgup2rcd13ifvqcn0","pricing_plan_id":"cebpf4jnsgd1na2vs0mg"},{"bike_id":"18110634-8656-4425-868c-91f0e5cdb086","system_id":"levelo_inurba_marseille","lat":43.25082,"lon":5.39511,"is_reserved":false,"is_disabled":false,"rental_uris":{"android":"levelo://app?vid=18110634-8656-4425-868c-91f0e5cdb086","ios":"levelo://app?vid=18110634-8656-4425-868c-91f0e5cdb086"},"vehicle_type_id":"4","last_reported":1737548211,"current_range_meters":38800,"station_id":"ce4bhm12rcd13ifvqgkg","pricing_plan_id":"cebpf4jnsgd1na2vs0mg"},{"bike_id":"2c97d4ee-209b-45e9-a5e2-7e37e435291f","system_id":"levelo_inurba_marseille","lat":43.29983,"lon":5.37223,"is_reserved":false,"is_disabled":false,"rental_uris":{"android":"levelo://app?vid=2c97d4ee-209b-45e9-a5e2-7e37e435291f","ios":"levelo://app?vid=2c97d4ee-209b-45e9-a5e2-7e37e435291f"},"vehicle_type_id":"4","last_reported":1737548211,"current_range_meters":28000,"station_id":"ce4bgr92rcd13ifvqc7g","pricing_plan_id":"cebpf4jnsgd1na2vs0mg"},{"bike_id":"c59e854e-b7e1-4dd9-951c-c12cf587190e","system_id":"levelo_inurba_marseille","lat":43.25508,"lon":5.37643,"is_reserved":false,"is_disabled":false,"rental_uris":{"android":"levelo://app?vid=c59e854e-b7e1-4dd9-951c-c12cf587190e","ios":"levelo://app?vid=c59e854e-b7e1-4dd9-951c-c12cf587190e"},"vehicle_type_id":"4","last_reported":1737548211,"current_range_meters":28000,"station_id":"ce4bhh12rcd13ifvqff0","pricing_plan_id":"cebpf4jnsgd1na2vs0mg"},{"bike_id":"3a49b19f-39bd-44b9-9a64-b93b7e30fe3a","system_id":"levelo_inurba_marseille","lat":43.29957,"lon":5.38505,"is_reserved":false,"is_disabled":false,"rental_uris":{"android":"levelo://app?vid=3a49b19f-39bd-44b9-9a64-b93b7e30fe3a","ios":"levelo://app?vid=3a49b19f-39bd-44b9-9a64-b93b7e30fe3a"},"vehicle_type_id":"4","last_reported":1737548211,"current_range_meters":37600,"station_id":"ce4bgj92rcd13ifvqbd0","pricing_plan_id":"cebpf4jnsgd1na2vs0mg"},{"bike_id":"c1e1ebce-1e6c-4c78-a344-795d2b3564ce","system_id":"levelo_inurba_marseille","lat":43.24074,"lon":5.37763,"is_reserved":false,"is_disabled":true,"rental_uris":{"android":"levelo://app?vid=c1e1ebce-1e6c-4c78-a344-795d2b3564ce","ios":"levelo://app?vid=c1e1ebce-1e6c-4c78-a344-795d2b3564ce"},"vehicle_type_id":"4","last_reported":1737548211,"current_range_meters":4800,"station_id":"ce4bhnp2rcd13ifvqgvg","pricing_plan_id":"cebpf4jnsgd1na2vs0mg"},{"bike_id":"63a17825-b441-4fa5-ba41-ac1cef3f5249","system_id":"levelo_inurba_marseille","lat":43.27498,"lon":5.42453,"is_reserved":false,"is_disabled":false,"rental_uris":{"android":"levelo://app?vid=63a17825-b441-4fa5-ba41-ac1cef3f5249","ios":"levelo://app?vid=63a17825-b441-4fa5-ba41-ac1cef3f5249"},"vehicle_type_id":"4","last_reported":1737548211,"current_range_meters":37600,"station_id":"ce4bhn92rcd13ifvqgrg","pricing_plan_id":"cebpf4jnsgd1na2vs0mg"},{"bike_id":"47c814c0-6ef6-4d1f-befb-d3d5966eee57","system_id":"levelo_inurba_marseille","lat":43.30775,"lon":5.37656,"is_reserved":false,"is_disabled":false,"rental_uris":{"android":"levelo://app?vid=47c814c0-6ef6-4d1f-befb-d3d5966eee57","ios":"levelo://app?vid=47c814c0-6ef6-4d1f-befb-d3d5966eee57"},"vehicle_type_id":"4","last_reported":1737548211,"current_range_meters":16800,"station_id":"ce4bgv92rcd13ifvqcq0","pricing_plan_id":"cebpf4jnsgd1na2vs0mg"},{"bike_id":"9e74abcc-5895-4f3f-b47d-6e60ecbffd6c","system_id":"levelo_inurba_marseille","lat":43.29569,"lon":5.39982,"is_reserved":false,"is_disabled":false,"rental_uris":{"android":"levelo://app?vid=9e74abcc-5895-4f3f-b47d-6e60ecbffd6c","ios":"levelo://app?vid=9e74abcc-5895-4f3f-b47d-6e60ecbffd6c"},"vehicle_type_id":"4","last_reported":1737548211,"current_range_meters":38800,"station_id":"ce4bh312rcd13ifvqdj0","pricing_plan_id":"cebpf4jnsgd1na2vs0mg"},{"bike_id":"1450bd64-05c1-4364-83aa-daa0fb011f91","system_id":"levelo_inurba_marseille","lat":43.29969,"lon":5.41341,"is_reserved":false,"is_disabled":false,"rental_uris":{"android":"levelo://app?vid=1450bd64-05c1-4364-83aa-daa0fb011f91","ios":"levelo://app?vid=1450bd64-05c1-4364-83aa-daa0fb011f91"},"vehicle_type_id":"4","last_reported":1737548211,"current_range_meters":38000,"station_id":"ce4bhp12rcd13ifvqh9g","pricing_plan_id":"cebpf4jnsgd1na2vs0mg"},{"bike_id":"e1855db6-02b1-4277-9e81-82ef45031b9e","system_id":"levelo_inurba_marseille","lat":43.30671,"lon":5.39985,"is_reserved":false,"is_disabled":false,"rental_uris":{"android":"levelo://app?vid=e1855db6-02b1-4277-9e81-82ef45031b9e","ios":"levelo://app?vid=e1855db6-02b1-4277-9e81-82ef45031b9e"},"vehicle_type_id":"4","last_reported":1737548211,"current_range_meters":16400,"station_id":"ce4bh0p2rcd13ifvqd70","pricing_plan_id":"cebpf4jnsgd1na2vs0mg"},{"bike_id":"211e1bb1-6b64-4773-94db-3934afd29086","system_id":"levelo_inurba_marseille","lat":43.282417,"lon":5.352905,"is_reserved":false,"is_disabled":true,"rental_uris":{"android":"levelo://app?vid=211e1bb1-6b64-4773-94db-3934afd29086","ios":"levelo://app?vid=211e1bb1-6b64-4773-94db-3934afd29086"},"vehicle_type_id":"4","last_reported":1737548211,"current_range_meters":0,"station_id":"ce4bhbh2rcd13ifvqepg","pricing_plan_id":"cebpf4jnsgd1na2vs0mg"},{"bike_id":"e7ebdef9-55cf-4766-85b7-598a4a606e46","system_id":"levelo_inurba_marseille","lat":43.29609,"lon":5.37167,"is_reserved":false,"is_disabled":false,"rental_uris":{"android":"levelo://app?vid=e7ebdef9-55cf-4766-85b7-598a4a606e46","ios":"levelo://app?vid=e7ebdef9-55cf-4766-85b7-598a4a606e46"},"vehicle_type_id":"4","last_reported":1737548211,"current_range_meters":17600,"station_id":"ce4bgnh2rcd13ifvqc0g","pricing_plan_id":"cebpf4jnsgd1na2vs0mg"},{"bike_id":"f1a412fd-a768-4593-9ede-c0c3d8d21696","system_id":"levelo_inurba_marseille","lat":43.31761,"lon":5.37823,"is_reserved":false,"is_disabled":false,"rental_uris":{"android":"levelo://app?vid=f1a412fd-a768-4593-9ede-c0c3d8d21696","ios":"levelo://app?vid=f1a412fd-a768-4593-9ede-c0c3d8d21696"},"vehicle_type_id":"4","last_reported":1737548211,"current_range_meters":38800,"station_id":"ce4bgth2rcd13ifvqch0","pricing_plan_id":"cebpf4jnsgd1na2vs0mg"},{"bike_id":"c0fdcdfc-dfc2-4d5c-b419-6e6e05605887","system_id":"levelo_inurba_marseille","lat":43.28841,"lon":5.39315,"is_reserved":false,"is_disabled":false,"rental_uris":{"android":"levelo://app?vid=c0fdcdfc-dfc2-4d5c-b419-6e6e05605887","ios":"levelo://app?vid=c0fdcdfc-dfc2-4d5c-b419-6e6e05605887"},"vehicle_type_id":"4","last_reported":1737548211,"current_range_meters":17600,"station_id":"ce4bh2p2rcd13ifvqdi0","pricing_plan_id":"cebpf4jnsgd1na2vs0mg"},{"bike_id":"935b95c1-9614-4260-800d-a9d90768dbc4","system_id":"levelo_inurba_marseille","lat":43.29073,"lon":5.37164,"is_reserved":false,"is_disabled":false,"rental_uris":{"android":"levelo://app?vid=935b95c1-9614-4260-800d-a9d90768dbc4","ios":"levelo://app?vid=935b95c1-9614-4260-800d-a9d90768dbc4"},"vehicle_type_id":"4","last_reported":1737548211,"current_range_meters":27600,"station_id":"ce4bh5p2rcd13ifvqe4g","pricing_plan_id":"cebpf4jnsgd1na2vs0mg"},{"bike_id":"65dccb82-e0d5-464f-9ab0-52b1f760eca6","system_id":"levelo_inurba_marseille","lat":43.27361,"lon":5.36231,"is_reserved":false,"is_disabled":false,"rental_uris":{"android":"levelo://app?vid=65dccb82-e0d5-464f-9ab0-52b1f760eca6","ios":"levelo://app?vid=65dccb82-e0d5-464f-9ab0-52b1f760eca6"},"vehicle_type_id":"4","last_reported":1737548211,"current_range_meters":38000,"station_id":"ce4bhbh2rcd13ifvqeo0","pricing_plan_id":"cebpf4jnsgd1na2vs0mg"},{"bike_id":"fe2089a7-9e7b-4a7a-8bc3-781431ea9568","system_id":"levelo_inurba_marseille","lat":43.25911,"lon":5.40891,"is_reserved":false,"is_disabled":false,"rental_uris":{"android":"levelo://app?vid=fe2089a7-9e7b-4a7a-8bc3-781431ea9568","ios":"levelo://app?vid=fe2089a7-9e7b-4a7a-8bc3-781431ea9568"},"vehicle_type_id":"4","last_reported":1737548211,"current_range_meters":38800,"station_id":"ce4bhm92rcd13ifvqglg","pricing_plan_id":"cebpf4jnsgd1na2vs0mg"},{"bike_id":"d0cae785-4197-4664-82a9-07ebe2236019","system_id":"levelo_inurba_marseille","lat":43.26202,"lon":5.37451,"is_reserved":false,"is_disabled":false,"rental_uris":{"android":"levelo://app?vid=d0cae785-4197-4664-82a9-07ebe2236019","ios":"levelo://app?vid=d0cae785-4197-4664-82a9-07ebe2236019"},"vehicle_type_id":"4","last_reported":1737548211,"current_range_meters":38800,"station_id":"ce4bhgp2rcd13ifvqfc0","pricing_plan_id":"cebpf4jnsgd1na2vs0mg"},{"bike_id":"7d3a62e7-dc66-4cce-99b3-4d0e48129f5d","system_id":"levelo_inurba_marseille","lat":43.31358,"lon":5.36718,"is_reserved":false,"is_disabled":false,"rental_uris":{"android":"levelo://app?vid=7d3a62e7-dc66-4cce-99b3-4d0e48129f5d","ios":"levelo://app?vid=7d3a62e7-dc66-4cce-99b3-4d0e48129f5d"},"vehicle_type_id":"4","last_reported":1737548211,"current_range_meters":11200,"station_id":"ce4bgr92rcd13ifvqc6g","pricing_plan_id":"cebpf4jnsgd1na2vs0mg"},{"bike_id":"da7eeb68-fe22-438c-ba1a-abc151a4a620","system_id":"levelo_inurba_marseille","lat":43.30607,"lon":5.39361,"is_reserved":false,"is_disabled":false,"rental_uris":{"android":"levelo://app?vid=da7eeb68-fe22-438c-ba1a-abc151a4a620","ios":"levelo://app?vid=da7eeb68-fe22-438c-ba1a-abc151a4a620"},"vehicle_type_id":"4","last_reported":1737548211,"current_range_meters":35600,"station_id":"ce4bh0p2rcd13ifvqd80","pricing_plan_id":"cebpf4jnsgd1na2vs0mg"},{"bike_id":"28513575-b7c6-4140-bca2-6e6c02c6c39a","system_id":"levelo_inurba_marseille","lat":43.30306,"lon":5.37706,"is_reserved":false,"is_disabled":false,"rental_uris":{"android":"levelo://app?vid=28513575-b7c6-4140-bca2-6e6c02c6c39a","ios":"levelo://app?vid=28513575-b7c6-4140-bca2-6e6c02c6c39a"},"vehicle_type_id":"4","last_reported":1737548211,"current_range_meters":38000,"station_id":"ce4bguh2rcd13ifvqcj0","pricing_plan_id":"cebpf4jnsgd1na2vs0mg"},{"bike_id":"ab3af0c5-7ad6-4eca-b600-00bd11d690c7","system_id":"levelo_inurba_marseille","lat":43.24655,"lon":5.38913,"is_reserved":false,"is_disabled":false,"rental_uris":{"android":"levelo://app?vid=ab3af0c5-7ad6-4eca-b600-00bd11d690c7","ios":"levelo://app?vid=ab3af0c5-7ad6-4eca-b600-00bd11d690c7"},"vehicle_type_id":"4","last_reported":1737548211,"current_range_meters":38000,"station_id":"ce4bhg12rcd13ifvqf60","pricing_plan_id":"cebpf4jnsgd1na2vs0mg"},{"bike_id":"4784f4d0-8541-4160-ac19-b8ca95746303","system_id":"levelo_inurba_marseille","lat":43.250863,"lon":5.395244,"is_reserved":false,"is_disabled":false,"rental_uris":{"android":"levelo://app?vid=4784f4d0-8541-4160-ac19-b8ca95746303","ios":"levelo://app?vid=4784f4d0-8541-4160-ac19-b8ca95746303"},"vehicle_type_id":"4","last_reported":1737548211,"current_range_meters":38800,"station_id":"ce4bhm12rcd13ifvqgkg","pricing_plan_id":"cebpf4jnsgd1na2vs0mg"},{"bike_id":"dc7c28c2-2288-4581-80b1-41d66191fb14","system_id":"levelo_inurba_marseille","lat":43.30543,"lon":5.3653,"is_reserved":false,"is_disabled":false,"rental_uris":{"android":"levelo://app?vid=dc7c28c2-2288-4581-80b1-41d66191fb14","ios":"levelo://app?vid=dc7c28c2-2288-4581-80b1-41d66191fb14"},"vehicle_type_id":"4","last_reported":1737548211,"current_range_meters":33200,"station_id":"ce4bgs12rcd13ifvqcag","pricing_plan_id":"cebpf4jnsgd1na2vs0mg"},{"bike_id":"697c7688-551f-4a2c-be64-c01612435aa4","system_id":"levelo_inurba_marseille","lat":43.29277,"lon":5.40126,"is_reserved":false,"is_disabled":false,"rental_uris":{"android":"levelo://app?vid=697c7688-551f-4a2c-be64-c01612435aa4","ios":"levelo://app?vid=697c7688-551f-4a2c-be64-c01612435aa4"},"vehicle_type_id":"4","last_reported":1737548211,"current_range_meters":32000,"station_id":"ce4bh312rcd13ifvqdk0","pricing_plan_id":"cebpf4jnsgd1na2vs0mg"},{"bike_id":"b5fe735b-8b91-4689-bad7-baacf11c73ef","system_id":"levelo_inurba_marseille","lat":43.30786,"lon":5.3765,"is_reserved":false,"is_disabled":false,"rental_uris":{"android":"levelo://app?vid=b5fe735b-8b91-4689-bad7-baacf11c73ef","ios":"levelo://app?vid=b5fe735b-8b91-4689-bad7-baacf11c73ef"},"vehicle_type_id":"4","last_reported":1737548211,"current_range_meters":34800,"station_id":"ce4bgv92rcd13ifvqcq0","pricing_plan_id":"cebpf4jnsgd1na2vs0mg"},{"bike_id":"50dded3e-4013-4be8-8da7-f25cddf5bfd0","system_id":"levelo_inurba_marseille","lat":43.30595,"lon":5.39362,"is_reserved":false,"is_disabled":false,"rental_uris":{"android":"levelo://app?vid=50dded3e-4013-4be8-8da7-f25cddf5bfd0","ios":"levelo://app?vid=50dded3e-4013-4be8-8da7-f25cddf5bfd0"},"vehicle_type_id":"4","last_reported":1737548211,"current_range_meters":36400,"station_id":"ce4bh0p2rcd13ifvqd80","pricing_plan_id":"cebpf4jnsgd1na2vs0mg"},{"bike_id":"5abb4da4-c771-46cd-9b51-7f0233823284","system_id":"levelo_inurba_marseille","lat":43.26061,"lon":5.39393,"is_reserved":false,"is_disabled":false,"rental_uris":{"android":"levelo://app?vid=5abb4da4-c771-46cd-9b51-7f0233823284","ios":"levelo://app?vid=5abb4da4-c771-46cd-9b51-7f0233823284"},"vehicle_type_id":"4","last_reported":1737548211,"current_range_meters":38800,"station_id":"ce4bhh92rcd13ifvqfj0","pricing_plan_id":"cebpf4jnsgd1na2vs0mg"},{"bike_id":"4025d962-d7ca-4886-85ea-cc78018f53d6","system_id":"levelo_inurba_marseille","lat":43.30327,"lon":5.37778,"is_reserved":false,"is_disabled":false,"rental_uris":{"android":"levelo://app?vid=4025d962-d7ca-4886-85ea-cc78018f53d6","ios":"levelo://app?vid=4025d962-d7ca-4886-85ea-cc78018f53d6"},"vehicle_type_id":"4","last_reported":1737548211,"current_range_meters":3600,"station_id":"","pricing_plan_id":"cebpf4jnsgd1na2vs0mg"},{"bike_id":"86fce387-d25e-46bb-928c-c6923257e7fb","system_id":"levelo_inurba_marseille","lat":43.28411,"lon":5.37525,"is_reserved":false,"is_disabled":false,"rental_uris":{"android":"levelo://app?vid=86fce387-d25e-46bb-928c-c6923257e7fb","ios":"levelo://app?vid=86fce387-d25e-46bb-928c-c6923257e7fb"},"vehicle_type_id":"4","last_reported":1737548211,"current_range_meters":9600,"station_id":"ce4bh412rcd13ifvqds0","pricing_plan_id":"cebpf4jnsgd1na2vs0mg"},{"bike_id":"d7a28120-a7b4-4fe8-91f5-461f37dfeebd","system_id":"levelo_inurba_marseille","lat":43.30266,"lon":5.37716,"is_reserved":false,"is_disabled":false,"rental_uris":{"android":"levelo://app?vid=d7a28120-a7b4-4fe8-91f5-461f37dfeebd","ios":"levelo://app?vid=d7a28120-a7b4-4fe8-91f5-461f37dfeebd"},"vehicle_type_id":"4","last_reported":1737548211,"current_range_meters":16800,"station_id":"ce4bguh2rcd13ifvqcj0","pricing_plan_id":"cebpf4jnsgd1na2vs0mg"},{"bike_id":"d33489ae-32a4-4c11-ab80-8cbc6906d4f3","system_id":"levelo_inurba_marseille","lat":43.29912,"lon":5.37483,"is_reserved":false,"is_disabled":false,"rental_uris":{"android":"levelo://app?vid=d33489ae-32a4-4c11-ab80-8cbc6906d4f3","ios":"levelo://app?vid=d33489ae-32a4-4c11-ab80-8cbc6906d4f3"},"vehicle_type_id":"4","last_reported":1737548211,"current_range_meters":8400,"station_id":"ce4bgjh2rcd13ifvqbg0","pricing_plan_id":"cebpf4jnsgd1na2vs0mg"},{"bike_id":"da03f92c-2cc3-4e46-babd-ad47286635c7","system_id":"levelo_inurba_marseille","lat":43.29019,"lon":5.35612,"is_reserved":false,"is_disabled":false,"rental_uris":{"android":"levelo://app?vid=da03f92c-2cc3-4e46-babd-ad47286635c7","ios":"levelo://app?vid=da03f92c-2cc3-4e46-babd-ad47286635c7"},"vehicle_type_id":"4","last_reported":1737548211,"current_range_meters":36400,"station_id":"ce4bhb92rcd13ifvqen0","pricing_plan_id":"cebpf4jnsgd1na2vs0mg"},{"bike_id":"9863b7f9-4316-4322-9f6c-3cc66b0448e2","system_id":"levelo_inurba_marseille","lat":43.279439,"lon":5.389008,"is_reserved":false,"is_disabled":true,"rental_uris":{"android":"levelo://app?vid=9863b7f9-4316-4322-9f6c-3cc66b0448e2","ios":"levelo://app?vid=9863b7f9-4316-4322-9f6c-3cc66b0448e2"},"vehicle_type_id":"4","last_reported":1737548211,"current_range_meters":29600,"station_id":"","pricing_plan_id":"cebpf4jnsgd1na2vs0mg"},{"bike_id":"037e9669-22e2-4d76-bcac-1ef55e931bdd","system_id":"levelo_inurba_marseille","lat":43.30147,"lon":5.38096,"is_reserved":false,"is_disabled":false,"rental_uris":{"android":"levelo://app?vid=037e9669-22e2-4d76-bcac-1ef55e931bdd","ios":"levelo://app?vid=037e9669-22e2-4d76-bcac-1ef55e931bdd"},"vehicle_type_id":"4","last_reported":1737548211,"current_range_meters":30800,"station_id":"ce4bgjp2rcd13ifvqbh0","pricing_plan_id":"cebpf4jnsgd1na2vs0mg"},{"bike_id":"78577bd9-aa2e-4cc9-a28b-f63b627a4e35","system_id":"levelo_inurba_marseille","lat":43.30545,"lon":5.36557,"is_reserved":false,"is_disabled":true,"rental_uris":{"android":"levelo://app?vid=78577bd9-aa2e-4cc9-a28b-f63b627a4e35","ios":"levelo://app?vid=78577bd9-aa2e-4cc9-a28b-f63b627a4e35"},"vehicle_type_id":"4","last_reported":1737548211,"current_range_meters":0,"station_id":"ce4bgs12rcd13ifvqcag","pricing_plan_id":"cebpf4jnsgd1na2vs0mg"},{"bike_id":"8480fdd5-0499-492a-8f90-090d137451f7","system_id":"levelo_inurba_marseille","lat":43.32656,"lon":5.40997,"is_reserved":false,"is_disabled":false,"rental_uris":{"android":"levelo://app?vid=8480fdd5-0499-492a-8f90-090d137451f7","ios":"levelo://app?vid=8480fdd5-0499-492a-8f90-090d137451f7"},"vehicle_type_id":"4","last_reported":1737548211,"current_range_meters":38800,"station_id":"ce4bhpp2rcd13ifvqhgg","pricing_plan_id":"cebpf4jnsgd1na2vs0mg"},{"bike_id":"eddb6b89-082b-479c-b34f-44c352a03897","system_id":"levelo_inurba_marseille","lat":43.25513,"lon":5.37674,"is_reserved":false,"is_disabled":false,"rental_uris":{"android":"levelo://app?vid=eddb6b89-082b-479c-b34f-44c352a03897","ios":"levelo://app?vid=eddb6b89-082b-479c-b34f-44c352a03897"},"vehicle_type_id":"4","last_reported":1737548211,"current_range_meters":38800,"station_id":"ce4bhh12rcd13ifvqff0","pricing_plan_id":"cebpf4jnsgd1na2vs0mg"},{"bike_id":"ebeb268b-eff7-49dd-aa60-a6071a505737","system_id":"levelo_inurba_marseille","lat":43.29712,"lon":5.3769,"is_reserved":false,"is_disabled":false,"rental_uris":{"android":"levelo://app?vid=ebeb268b-eff7-49dd-aa60-a6071a505737","ios":"levelo://app?vid=ebeb268b-eff7-49dd-aa60-a6071a505737"},"vehicle_type_id":"4","last_reported":1737548211,"current_range_meters":24800,"station_id":"ce4bgkh2rcd13ifvqbl0","pricing_plan_id":"cebpf4jnsgd1na2vs0mg"},{"bike_id":"f315bc93-4512-466f-b8ea-ac633e98ac21","system_id":"levelo_inurba_marseille","lat":43.2844,"lon":5.35004,"is_reserved":false,"is_disabled":false,"rental_uris":{"android":"levelo://app?vid=f315bc93-4512-466f-b8ea-ac633e98ac21","ios":"levelo://app?vid=f315bc93-4512-466f-b8ea-ac633e98ac21"},"vehicle_type_id":"4","last_reported":1737548211,"current_range_meters":10800,"station_id":"ce4bhbh2rcd13ifvqepg","pricing_plan_id":"cebpf4jnsgd1na2vs0mg"},{"bike_id":"5d981eee-e647-4952-b788-f2087bdc17c4","system_id":"levelo_inurba_marseille","lat":43.31898,"lon":5.4073,"is_reserved":false,"is_disabled":false,"rental_uris":{"android":"levelo://app?vid=5d981eee-e647-4952-b788-f2087bdc17c4","ios":"levelo://app?vid=5d981eee-e647-4952-b788-f2087bdc17c4"},"vehicle_type_id":"4","last_reported":1737548211,"current_range_meters":20000,"station_id":"ce4bhq12rcd13ifvqhig","pricing_plan_id":"cebpf4jnsgd1na2vs0mg"},{"bike_id":"74e57c17-ccea-422d-bde0-642ffc3d4f80","system_id":"levelo_inurba_marseille","lat":43.2809,"lon":5.39636,"is_reserved":false,"is_disabled":false,"rental_uris":{"android":"levelo://app?vid=74e57c17-ccea-422d-bde0-642ffc3d4f80","ios":"levelo://app?vid=74e57c17-ccea-422d-bde0-642ffc3d4f80"},"vehicle_type_id":"4","last_reported":1737548211,"current_range_meters":31200,"station_id":"ce4bho12rcd13ifvqh2g","pricing_plan_id":"cebpf4jnsgd1na2vs0mg"},{"bike_id":"a5f856b1-4a50-440c-9d61-9af0baa8d786","system_id":"levelo_inurba_marseille","lat":43.29418,"lon":5.38625,"is_reserved":false,"is_disabled":false,"rental_uris":{"android":"levelo://app?vid=a5f856b1-4a50-440c-9d61-9af0baa8d786","ios":"levelo://app?vid=a5f856b1-4a50-440c-9d61-9af0baa8d786"},"vehicle_type_id":"4","last_reported":1737548211,"current_range_meters":34800,"station_id":"ce4bh2h2rcd13ifvqdh0","pricing_plan_id":"cebpf4jnsgd1na2vs0mg"},{"bike_id":"c13c5a90-81d4-46ba-8cf0-c46f064a6660","system_id":"levelo_inurba_marseille","lat":43.28618,"lon":5.37068,"is_reserved":false,"is_disabled":false,"rental_uris":{"android":"levelo://app?vid=c13c5a90-81d4-46ba-8cf0-c46f064a6660","ios":"levelo://app?vid=c13c5a90-81d4-46ba-8cf0-c46f064a6660"},"vehicle_type_id":"4","last_reported":1737548211,"current_range_meters":33600,"station_id":"ce4bht12rcd13ifvqi60","pricing_plan_id":"cebpf4jnsgd1na2vs0mg"},{"bike_id":"e3aa3f38-7cb9-4920-b43b-7baba0f4e664","system_id":"levelo_inurba_marseille","lat":43.26556,"lon":5.37293,"is_reserved":false,"is_disabled":true,"rental_uris":{"android":"levelo://app?vid=e3aa3f38-7cb9-4920-b43b-7baba0f4e664","ios":"levelo://app?vid=e3aa3f38-7cb9-4920-b43b-7baba0f4e664"},"vehicle_type_id":"4","last_reported":1737548211,"current_range_meters":0,"station_id":"ce4bhg12rcd13ifvqf70","pricing_plan_id":"cebpf4jnsgd1na2vs0mg"},{"bike_id":"0d555cab-a3ac-493c-97d1-05fb30170afc","system_id":"levelo_inurba_marseille","lat":43.27815,"lon":5.40702,"is_reserved":false,"is_disabled":false,"rental_uris":{"android":"levelo://app?vid=0d555cab-a3ac-493c-97d1-05fb30170afc","ios":"levelo://app?vid=0d555cab-a3ac-493c-97d1-05fb30170afc"},"vehicle_type_id":"4","last_reported":1737548211,"current_range_meters":10000,"station_id":"ce4bhnh2rcd13ifvqgtg","pricing_plan_id":"cebpf4jnsgd1na2vs0mg"},{"bike_id":"31a1a8bf-aef8-45a2-832a-da409b64645e","system_id":"levelo_inurba_marseille","lat":43.28659,"lon":5.36355,"is_reserved":false,"is_disabled":false,"rental_uris":{"android":"levelo://app?vid=31a1a8bf-aef8-45a2-832a-da409b64645e","ios":"levelo://app?vid=31a1a8bf-aef8-45a2-832a-da409b64645e"},"vehicle_type_id":"4","last_reported":1737548211,"current_range_meters":20400,"station_id":"ce4bhah2rcd13ifvqej0","pricing_plan_id":"cebpf4jnsgd1na2vs0mg"},{"bike_id":"e4261134-4427-4663-a176-8c03fab09833","system_id":"levelo_inurba_marseille","lat":43.30171,"lon":5.38087,"is_reserved":false,"is_disabled":false,"rental_uris":{"android":"levelo://app?vid=e4261134-4427-4663-a176-8c03fab09833","ios":"levelo://app?vid=e4261134-4427-4663-a176-8c03fab09833"},"vehicle_type_id":"4","last_reported":1737548211,"current_range_meters":24800,"station_id":"ce4bgjp2rcd13ifvqbh0","pricing_plan_id":"cebpf4jnsgd1na2vs0mg"},{"bike_id":"b66f0b5b-2dbb-4a8f-91af-b0d5995e5e1d","system_id":"levelo_inurba_marseille","lat":43.31365,"lon":5.36717,"is_reserved":false,"is_disabled":false,"rental_uris":{"android":"levelo://app?vid=b66f0b5b-2dbb-4a8f-91af-b0d5995e5e1d","ios":"levelo://app?vid=b66f0b5b-2dbb-4a8f-91af-b0d5995e5e1d"},"vehicle_type_id":"4","last_reported":1737548211,"current_range_meters":38000,"station_id":"ce4bgr92rcd13ifvqc6g","pricing_plan_id":"cebpf4jnsgd1na2vs0mg"},{"bike_id":"4868f9c1-f778-4932-8fcb-6f79138895b7","system_id":"levelo_inurba_marseille","lat":43.24407,"lon":5.37071,"is_reserved":false,"is_disabled":false,"rental_uris":{"android":"levelo://app?vid=4868f9c1-f778-4932-8fcb-6f79138895b7","ios":"levelo://app?vid=4868f9c1-f778-4932-8fcb-6f79138895b7"},"vehicle_type_id":"4","last_reported":1737548211,"current_range_meters":38800,"station_id":"ce4bhhh2rcd13ifvqfk0","pricing_plan_id":"cebpf4jnsgd1na2vs0mg"},{"bike_id":"fcd4837f-6e09-4786-bcf5-c3a686cbcfef","system_id":"levelo_inurba_marseille","lat":43.29895,"lon":5.43667,"is_reserved":false,"is_disabled":false,"rental_uris":{"android":"levelo://app?vid=fcd4837f-6e09-4786-bcf5-c3a686cbcfef","ios":"levelo://app?vid=fcd4837f-6e09-4786-bcf5-c3a686cbcfef"},"vehicle_type_id":"4","last_reported":1737548211,"current_range_meters":30000,"station_id":"ce4bhpp2rcd13ifvqhfg","pricing_plan_id":"cebpf4jnsgd1na2vs0mg"},{"bike_id":"7e30054b-a98f-4636-acb1-0772bfc040be","system_id":"levelo_inurba_marseille","lat":43.31087,"lon":5.42433,"is_reserved":false,"is_disabled":false,"rental_uris":{"android":"levelo://app?vid=7e30054b-a98f-4636-acb1-0772bfc040be","ios":"levelo://app?vid=7e30054b-a98f-4636-acb1-0772bfc040be"},"vehicle_type_id":"4","last_reported":1737548211,"current_range_meters":39200,"station_id":"ce4bhp92rcd13ifvqhag","pricing_plan_id":"cebpf4jnsgd1na2vs0mg"},{"bike_id":"e5651a4b-45cb-4670-a2a0-0cd70649d0e9","system_id":"levelo_inurba_marseille","lat":43.30159,"lon":5.38806,"is_reserved":false,"is_disabled":false,"rental_uris":{"android":"levelo://app?vid=e5651a4b-45cb-4670-a2a0-0cd70649d0e9","ios":"levelo://app?vid=e5651a4b-45cb-4670-a2a0-0cd70649d0e9"},"vehicle_type_id":"4","last_reported":1737548211,"current_range_meters":24800,"station_id":"ce4bghh2rcd13ifvqb60","pricing_plan_id":"cebpf4jnsgd1na2vs0mg"},{"bike_id":"720f1bd4-b805-4549-913b-58e0db646266","system_id":"levelo_inurba_marseille","lat":43.32356,"lon":5.36766,"is_reserved":false,"is_disabled":false,"rental_uris":{"android":"levelo://app?vid=720f1bd4-b805-4549-913b-58e0db646266","ios":"levelo://app?vid=720f1bd4-b805-4549-913b-58e0db646266"},"vehicle_type_id":"4","last_reported":1737548211,"current_range_meters":16800,"station_id":"ce4bhsh2rcd13ifvqi2g","pricing_plan_id":"cebpf4jnsgd1na2vs0mg"},{"bike_id":"39eb91e4-35e9-4fb2-bac7-49b41ba0de03","system_id":"levelo_inurba_marseille","lat":43.31722,"lon":5.37757,"is_reserved":false,"is_disabled":false,"rental_uris":{"android":"levelo://app?vid=39eb91e4-35e9-4fb2-bac7-49b41ba0de03","ios":"levelo://app?vid=39eb91e4-35e9-4fb2-bac7-49b41ba0de03"},"vehicle_type_id":"4","last_reported":1737548211,"current_range_meters":28800,"station_id":"ce4bgth2rcd13ifvqch0","pricing_plan_id":"cebpf4jnsgd1na2vs0mg"},{"bike_id":"afa5a597-eb8b-4989-8e47-0bc39787eb5a","system_id":"levelo_inurba_marseille","lat":43.30324,"lon":5.40438,"is_reserved":false,"is_disabled":false,"rental_uris":{"android":"levelo://app?vid=afa5a597-eb8b-4989-8e47-0bc39787eb5a","ios":"levelo://app?vid=afa5a597-eb8b-4989-8e47-0bc39787eb5a"},"vehicle_type_id":"4","last_reported":1737548211,"current_range_meters":37600,"station_id":"ce4bh012rcd13ifvqd10","pricing_plan_id":"cebpf4jnsgd1na2vs0mg"},{"bike_id":"61f488de-0e8a-4294-8c12-0963029cf453","system_id":"levelo_inurba_marseille","lat":43.25725,"lon":5.41114,"is_reserved":false,"is_disabled":false,"rental_uris":{"android":"levelo://app?vid=61f488de-0e8a-4294-8c12-0963029cf453","ios":"levelo://app?vid=61f488de-0e8a-4294-8c12-0963029cf453"},"vehicle_type_id":"4","last_reported":1737548211,"current_range_meters":38800,"station_id":"ce4bhkp2rcd13ifvqgd0","pricing_plan_id":"cebpf4jnsgd1na2vs0mg"},{"bike_id":"f14dc71a-66db-4337-af73-af7f94ea4b53","system_id":"levelo_inurba_marseille","lat":43.2315,"lon":5.43702,"is_reserved":false,"is_disabled":false,"rental_uris":{"android":"levelo://app?vid=f14dc71a-66db-4337-af73-af7f94ea4b53","ios":"levelo://app?vid=f14dc71a-66db-4337-af73-af7f94ea4b53"},"vehicle_type_id":"4","last_reported":1737548211,"current_range_meters":33600,"station_id":"ce4bhmp2rcd13ifvqgog","pricing_plan_id":"cebpf4jnsgd1na2vs0mg"},{"bike_id":"47cbef7a-1ef6-40c4-b644-ef78dea75b40","system_id":"levelo_inurba_marseille","lat":43.30124,"lon":5.38786,"is_reserved":false,"is_disabled":false,"rental_uris":{"android":"levelo://app?vid=47cbef7a-1ef6-40c4-b644-ef78dea75b40","ios":"levelo://app?vid=47cbef7a-1ef6-40c4-b644-ef78dea75b40"},"vehicle_type_id":"4","last_reported":1737548211,"current_range_meters":38800,"station_id":"ce4bghh2rcd13ifvqb60","pricing_plan_id":"cebpf4jnsgd1na2vs0mg"},{"bike_id":"ccfc9d74-fea2-4565-82ac-bc80f916c623","system_id":"levelo_inurba_marseille","lat":43.287,"lon":5.39993,"is_reserved":false,"is_disabled":false,"rental_uris":{"android":"levelo://app?vid=ccfc9d74-fea2-4565-82ac-bc80f916c623","ios":"levelo://app?vid=ccfc9d74-fea2-4565-82ac-bc80f916c623"},"vehicle_type_id":"4","last_reported":1737548211,"current_range_meters":33600,"station_id":"ce4bho92rcd13ifvqh3g","pricing_plan_id":"cebpf4jnsgd1na2vs0mg"},{"bike_id":"30049ba7-1f4d-4f56-803b-91326731ed6b","system_id":"levelo_inurba_marseille","lat":43.30146,"lon":5.38785,"is_reserved":false,"is_disabled":false,"rental_uris":{"android":"levelo://app?vid=30049ba7-1f4d-4f56-803b-91326731ed6b","ios":"levelo://app?vid=30049ba7-1f4d-4f56-803b-91326731ed6b"},"vehicle_type_id":"4","last_reported":1737548211,"current_range_meters":4400,"station_id":"ce4bhoh2rcd13ifvqh6g","pricing_plan_id":"cebpf4jnsgd1na2vs0mg"},{"bike_id":"67f2105b-9b76-4c4b-998d-2cda2af28b3f","system_id":"levelo_inurba_marseille","lat":43.27058,"lon":5.40252,"is_reserved":false,"is_disabled":false,"rental_uris":{"android":"levelo://app?vid=67f2105b-9b76-4c4b-998d-2cda2af28b3f","ios":"levelo://app?vid=67f2105b-9b76-4c4b-998d-2cda2af28b3f"},"vehicle_type_id":"4","last_reported":1737548211,"current_range_meters":18000,"station_id":"ce4bhk92rcd13ifvqgc0","pricing_plan_id":"cebpf4jnsgd1na2vs0mg"},{"bike_id":"e99fd1fc-8351-45b5-ba1a-e5fee695a58f","system_id":"levelo_inurba_marseille","lat":43.3372,"lon":5.39171,"is_reserved":false,"is_disabled":false,"rental_uris":{"android":"levelo://app?vid=e99fd1fc-8351-45b5-ba1a-e5fee695a58f","ios":"levelo://app?vid=e99fd1fc-8351-45b5-ba1a-e5fee695a58f"},"vehicle_type_id":"4","last_reported":1737548211,"current_range_meters":35200,"station_id":"ce4bhr92rcd13ifvqhsg","pricing_plan_id":"cebpf4jnsgd1na2vs0mg"},{"bike_id":"298c42be-ec2d-4ea1-a639-d24a5cbdd049","system_id":"levelo_inurba_marseille","lat":43.3047,"lon":5.37912,"is_reserved":false,"is_disabled":false,"rental_uris":{"android":"levelo://app?vid=298c42be-ec2d-4ea1-a639-d24a5cbdd049","ios":"levelo://app?vid=298c42be-ec2d-4ea1-a639-d24a5cbdd049"},"vehicle_type_id":"4","last_reported":1737548211,"current_range_meters":38800,"station_id":"ce4bgup2rcd13ifvqcn0","pricing_plan_id":"cebpf4jnsgd1na2vs0mg"},{"bike_id":"816fb48d-2910-4e57-bdec-923f1a84e6bb","system_id":"levelo_inurba_marseille","lat":43.24645,"lon":5.38901,"is_reserved":false,"is_disabled":false,"rental_uris":{"android":"levelo://app?vid=816fb48d-2910-4e57-bdec-923f1a84e6bb","ios":"levelo://app?vid=816fb48d-2910-4e57-bdec-923f1a84e6bb"},"vehicle_type_id":"4","last_reported":1737548211,"current_range_meters":25600,"station_id":"ce4bhg12rcd13ifvqf60","pricing_plan_id":"cebpf4jnsgd1na2vs0mg"},{"bike_id":"cff1680f-636c-4c21-adec-aee2428512db","system_id":"levelo_inurba_marseille","lat":43.28563,"lon":5.3701,"is_reserved":false,"is_disabled":false,"rental_uris":{"android":"levelo://app?vid=cff1680f-636c-4c21-adec-aee2428512db","ios":"levelo://app?vid=cff1680f-636c-4c21-adec-aee2428512db"},"vehicle_type_id":"4","last_reported":1737548211,"current_range_meters":38400,"station_id":"ce4bht12rcd13ifvqi60","pricing_plan_id":"cebpf4jnsgd1na2vs0mg"},{"bike_id":"13ff516e-16cf-4543-8540-9030b8b296b4","system_id":"levelo_inurba_marseille","lat":43.23188,"lon":5.35558,"is_reserved":false,"is_disabled":false,"rental_uris":{"android":"levelo://app?vid=13ff516e-16cf-4543-8540-9030b8b296b4","ios":"levelo://app?vid=13ff516e-16cf-4543-8540-9030b8b296b4"},"vehicle_type_id":"4","last_reported":1737548211,"current_range_meters":34000,"station_id":"ce4bhu92rcd13ifvqi70","pricing_plan_id":"cebpf4jnsgd1na2vs0mg"},{"bike_id":"81f2072d-317e-4ceb-a4f5-594b967ebaaf","system_id":"levelo_inurba_marseille","lat":43.28419,"lon":5.37517,"is_reserved":false,"is_disabled":false,"rental_uris":{"android":"levelo://app?vid=81f2072d-317e-4ceb-a4f5-594b967ebaaf","ios":"levelo://app?vid=81f2072d-317e-4ceb-a4f5-594b967ebaaf"},"vehicle_type_id":"4","last_reported":1737548211,"current_range_meters":31200,"station_id":"ce4bh412rcd13ifvqds0","pricing_plan_id":"cebpf4jnsgd1na2vs0mg"},{"bike_id":"9984a19d-448e-4ed2-8c95-d1103fd0e167","system_id":"levelo_inurba_marseille","lat":43.31751,"lon":5.3903,"is_reserved":false,"is_disabled":true,"rental_uris":{"android":"levelo://app?vid=9984a19d-448e-4ed2-8c95-d1103fd0e167","ios":"levelo://app?vid=9984a19d-448e-4ed2-8c95-d1103fd0e167"},"vehicle_type_id":"4","last_reported":1737548211,"current_range_meters":0,"station_id":"ce4bhqp2rcd13ifvqhng","pricing_plan_id":"cebpf4jnsgd1na2vs0mg"},{"bike_id":"dc9afc0d-d533-431b-a32f-6f6423d7880b","system_id":"levelo_inurba_marseille","lat":43.31723,"lon":5.42418,"is_reserved":false,"is_disabled":false,"rental_uris":{"android":"levelo://app?vid=dc9afc0d-d533-431b-a32f-6f6423d7880b","ios":"levelo://app?vid=dc9afc0d-d533-431b-a32f-6f6423d7880b"},"vehicle_type_id":"4","last_reported":1737548211,"current_range_meters":35600,"station_id":"ce4bhp92rcd13ifvqhbg","pricing_plan_id":"cebpf4jnsgd1na2vs0mg"},{"bike_id":"a7f3c160-c351-4b7c-85a7-03df9006e355","system_id":"levelo_inurba_marseille","lat":43.24179,"lon":5.36364,"is_reserved":false,"is_disabled":false,"rental_uris":{"android":"levelo://app?vid=a7f3c160-c351-4b7c-85a7-03df9006e355","ios":"levelo://app?vid=a7f3c160-c351-4b7c-85a7-03df9006e355"},"vehicle_type_id":"4","last_reported":1737548211,"current_range_meters":38800,"station_id":"cpo36qri1sfpv3e86is0","pricing_plan_id":"cebpf4jnsgd1na2vs0mg"},{"bike_id":"7d38a8d7-356a-430f-9866-33e957a4367b","system_id":"levelo_inurba_marseille","lat":43.28619,"lon":5.37027,"is_reserved":false,"is_disabled":false,"rental_uris":{"android":"levelo://app?vid=7d38a8d7-356a-430f-9866-33e957a4367b","ios":"levelo://app?vid=7d38a8d7-356a-430f-9866-33e957a4367b"},"vehicle_type_id":"4","last_reported":1737548211,"current_range_meters":11200,"station_id":"ce4bht12rcd13ifvqi60","pricing_plan_id":"cebpf4jnsgd1na2vs0mg"},{"bike_id":"fa01b258-7c04-42f2-8c05-a1c359f6b225","system_id":"levelo_inurba_marseille","lat":43.28461,"lon":5.35889,"is_reserved":false,"is_disabled":false,"rental_uris":{"android":"levelo://app?vid=fa01b258-7c04-42f2-8c05-a1c359f6b225","ios":"levelo://app?vid=fa01b258-7c04-42f2-8c05-a1c359f6b225"},"vehicle_type_id":"4","last_reported":1737548211,"current_range_meters":1200,"station_id":"ce4bhah2rcd13ifvqei0","pricing_plan_id":"cebpf4jnsgd1na2vs0mg"},{"bike_id":"8cbda713-ec20-4163-adca-68316f725380","system_id":"levelo_inurba_marseille","lat":43.33024,"lon":5.39033,"is_reserved":false,"is_disabled":false,"rental_uris":{"android":"levelo://app?vid=8cbda713-ec20-4163-adca-68316f725380","ios":"levelo://app?vid=8cbda713-ec20-4163-adca-68316f725380"},"vehicle_type_id":"4","last_reported":1737548211,"current_range_meters":3200,"station_id":"ce4bhr92rcd13ifvqhrg","pricing_plan_id":"cebpf4jnsgd1na2vs0mg"},{"bike_id":"357536c7-1f45-4617-b06e-0042bcc2bbca","system_id":"levelo_inurba_marseille","lat":43.23953,"lon":5.36631,"is_reserved":false,"is_disabled":false,"rental_uris":{"android":"levelo://app?vid=357536c7-1f45-4617-b06e-0042bcc2bbca","ios":"levelo://app?vid=357536c7-1f45-4617-b06e-0042bcc2bbca"},"vehicle_type_id":"4","last_reported":1737548211,"current_range_meters":24800,"station_id":"ce4bhi12rcd13ifvqfp0","pricing_plan_id":"cebpf4jnsgd1na2vs0mg"},{"bike_id":"85ae3dc4-5ff3-4a83-bde0-efccb589284c","system_id":"levelo_inurba_marseille","lat":43.30184,"lon":5.37416,"is_reserved":false,"is_disabled":false,"rental_uris":{"android":"levelo://app?vid=85ae3dc4-5ff3-4a83-bde0-efccb589284c","ios":"levelo://app?vid=85ae3dc4-5ff3-4a83-bde0-efccb589284c"},"vehicle_type_id":"4","last_reported":1737548211,"current_range_meters":26000,"station_id":"ce4bgs92rcd13ifvqcc0","pricing_plan_id":"cebpf4jnsgd1na2vs0mg"},{"bike_id":"5e99ae82-a48e-4218-afc7-21de9b165b7b","system_id":"levelo_inurba_marseille","lat":43.30784,"lon":5.37658,"is_reserved":false,"is_disabled":false,"rental_uris":{"android":"levelo://app?vid=5e99ae82-a48e-4218-afc7-21de9b165b7b","ios":"levelo://app?vid=5e99ae82-a48e-4218-afc7-21de9b165b7b"},"vehicle_type_id":"4","last_reported":1737548211,"current_range_meters":16000,"station_id":"ce4bgv92rcd13ifvqcq0","pricing_plan_id":"cebpf4jnsgd1na2vs0mg"},{"bike_id":"43cc0c90-c5c6-4217-8091-8d2f897538df","system_id":"levelo_inurba_marseille","lat":43.30602,"lon":5.39357,"is_reserved":false,"is_disabled":false,"rental_uris":{"android":"levelo://app?vid=43cc0c90-c5c6-4217-8091-8d2f897538df","ios":"levelo://app?vid=43cc0c90-c5c6-4217-8091-8d2f897538df"},"vehicle_type_id":"4","last_reported":1737548211,"current_range_meters":36800,"station_id":"ce4bh0p2rcd13ifvqd80","pricing_plan_id":"cebpf4jnsgd1na2vs0mg"},{"bike_id":"8cefa966-6b41-4750-b476-d277a4610101","system_id":"levelo_inurba_marseille","lat":43.30148,"lon":5.38084,"is_reserved":false,"is_disabled":false,"rental_uris":{"android":"levelo://app?vid=8cefa966-6b41-4750-b476-d277a4610101","ios":"levelo://app?vid=8cefa966-6b41-4750-b476-d277a4610101"},"vehicle_type_id":"4","last_reported":1737548211,"current_range_meters":38800,"station_id":"ce4bgjp2rcd13ifvqbh0","pricing_plan_id":"cebpf4jnsgd1na2vs0mg"},{"bike_id":"d25bd425-6815-43e4-975a-24891a0a0ca0","system_id":"levelo_inurba_marseille","lat":43.3041,"lon":5.41284,"is_reserved":false,"is_disabled":true,"rental_uris":{"android":"levelo://app?vid=d25bd425-6815-43e4-975a-24891a0a0ca0","ios":"levelo://app?vid=d25bd425-6815-43e4-975a-24891a0a0ca0"},"vehicle_type_id":"4","last_reported":1737548211,"current_range_meters":1200,"station_id":"ce4bhop2rcd13ifvqh8g","pricing_plan_id":"cebpf4jnsgd1na2vs0mg"},{"bike_id":"631bc281-1e9b-43cb-a2f7-94e15f21259e","system_id":"levelo_inurba_marseille","lat":43.3032,"lon":5.40438,"is_reserved":false,"is_disabled":false,"rental_uris":{"android":"levelo://app?vid=631bc281-1e9b-43cb-a2f7-94e15f21259e","ios":"levelo://app?vid=631bc281-1e9b-43cb-a2f7-94e15f21259e"},"vehicle_type_id":"4","last_reported":1737548211,"current_range_meters":27600,"station_id":"ce4bh012rcd13ifvqd10","pricing_plan_id":"cebpf4jnsgd1na2vs0mg"},{"bike_id":"13911699-0577-4679-ac2d-b9fc0255de34","system_id":"levelo_inurba_marseille","lat":43.29552,"lon":5.42289,"is_reserved":false,"is_disabled":false,"rental_uris":{"android":"levelo://app?vid=13911699-0577-4679-ac2d-b9fc0255de34","ios":"levelo://app?vid=13911699-0577-4679-ac2d-b9fc0255de34"},"vehicle_type_id":"4","last_reported":1737548211,"current_range_meters":38000,"station_id":"ce4bhph2rcd13ifvqhdg","pricing_plan_id":"cebpf4jnsgd1na2vs0mg"},{"bike_id":"cc3cf73e-b8dc-4fbd-82a1-4b1f9fb93d35","system_id":"levelo_inurba_marseille","lat":43.33733,"lon":5.37463,"is_reserved":false,"is_disabled":false,"rental_uris":{"android":"levelo://app?vid=cc3cf73e-b8dc-4fbd-82a1-4b1f9fb93d35","ios":"levelo://app?vid=cc3cf73e-b8dc-4fbd-82a1-4b1f9fb93d35"},"vehicle_type_id":"4","last_reported":1737548211,"current_range_meters":37600,"station_id":"","pricing_plan_id":"cebpf4jnsgd1na2vs0mg"},{"bike_id":"262612a0-7ded-4117-8043-874725ae06d8","system_id":"levelo_inurba_marseille","lat":43.26779,"lon":5.39419,"is_reserved":false,"is_disabled":true,"rental_uris":{"android":"levelo://app?vid=262612a0-7ded-4117-8043-874725ae06d8","ios":"levelo://app?vid=262612a0-7ded-4117-8043-874725ae06d8"},"vehicle_type_id":"4","last_reported":1737548211,"current_range_meters":38400,"station_id":"ce4bhh12rcd13ifvqfg0","pricing_plan_id":"cebpf4jnsgd1na2vs0mg"},{"bike_id":"28dc1301-7f54-45d0-ae6b-1206acd62d4e","system_id":"levelo_inurba_marseille","lat":43.29972,"lon":5.38499,"is_reserved":false,"is_disabled":false,"rental_uris":{"android":"levelo://app?vid=28dc1301-7f54-45d0-ae6b-1206acd62d4e","ios":"levelo://app?vid=28dc1301-7f54-45d0-ae6b-1206acd62d4e"},"vehicle_type_id":"4","last_reported":1737548211,"current_range_meters":27200,"station_id":"ce4bgj92rcd13ifvqbd0","pricing_plan_id":"cebpf4jnsgd1na2vs0mg"},{"bike_id":"2f29cda3-8380-4b2f-92d8-b866e4dcbe88","system_id":"levelo_inurba_marseille","lat":43.29006,"lon":5.35608,"is_reserved":false,"is_disabled":false,"rental_uris":{"android":"levelo://app?vid=2f29cda3-8380-4b2f-92d8-b866e4dcbe88","ios":"levelo://app?vid=2f29cda3-8380-4b2f-92d8-b866e4dcbe88"},"vehicle_type_id":"4","last_reported":1737548211,"current_range_meters":23200,"station_id":"ce4bhb92rcd13ifvqen0","pricing_plan_id":"cebpf4jnsgd1na2vs0mg"},{"bike_id":"7b75cee9-f0c6-44ed-b261-d7b2bfcccd1d","system_id":"levelo_inurba_marseille","lat":43.296283,"lon":5.371698,"is_reserved":false,"is_disabled":false,"rental_uris":{"android":"levelo://app?vid=7b75cee9-f0c6-44ed-b261-d7b2bfcccd1d","ios":"levelo://app?vid=7b75cee9-f0c6-44ed-b261-d7b2bfcccd1d"},"vehicle_type_id":"4","last_reported":1737548211,"current_range_meters":38000,"station_id":"ce4bgnh2rcd13ifvqc0g","pricing_plan_id":"cebpf4jnsgd1na2vs0mg"},{"bike_id":"a4ffcc1c-f07a-4480-8f2e-95f5309cc93e","system_id":"levelo_inurba_marseille","lat":43.25497,"lon":5.37649,"is_reserved":false,"is_disabled":false,"rental_uris":{"android":"levelo://app?vid=a4ffcc1c-f07a-4480-8f2e-95f5309cc93e","ios":"levelo://app?vid=a4ffcc1c-f07a-4480-8f2e-95f5309cc93e"},"vehicle_type_id":"4","last_reported":1737548211,"current_range_meters":27600,"station_id":"ce4bhh12rcd13ifvqff0","pricing_plan_id":"cebpf4jnsgd1na2vs0mg"},{"bike_id":"d0f83ca8-9ae5-472a-a447-2229d84a32d1","system_id":"levelo_inurba_marseille","lat":43.32359,"lon":5.36766,"is_reserved":false,"is_disabled":false,"rental_uris":{"android":"levelo://app?vid=d0f83ca8-9ae5-472a-a447-2229d84a32d1","ios":"levelo://app?vid=d0f83ca8-9ae5-472a-a447-2229d84a32d1"},"vehicle_type_id":"4","last_reported":1737548211,"current_range_meters":28000,"station_id":"ce4bhsh2rcd13ifvqi2g","pricing_plan_id":"cebpf4jnsgd1na2vs0mg"},{"bike_id":"a7f3d204-687c-46a0-85c8-c51cbdc06728","system_id":"levelo_inurba_marseille","lat":43.27494,"lon":5.42446,"is_reserved":false,"is_disabled":false,"rental_uris":{"android":"levelo://app?vid=a7f3d204-687c-46a0-85c8-c51cbdc06728","ios":"levelo://app?vid=a7f3d204-687c-46a0-85c8-c51cbdc06728"},"vehicle_type_id":"4","last_reported":1737548211,"current_range_meters":28400,"station_id":"ce4bhn92rcd13ifvqgrg","pricing_plan_id":"cebpf4jnsgd1na2vs0mg"},{"bike_id":"6f824729-72f6-40e3-a22d-9f70ac2c6041","system_id":"levelo_inurba_marseille","lat":43.30518,"lon":5.36554,"is_reserved":false,"is_disabled":false,"rental_uris":{"android":"levelo://app?vid=6f824729-72f6-40e3-a22d-9f70ac2c6041","ios":"levelo://app?vid=6f824729-72f6-40e3-a22d-9f70ac2c6041"},"vehicle_type_id":"4","last_reported":1737548211,"current_range_meters":30800,"station_id":"ce4bgs12rcd13ifvqcag","pricing_plan_id":"cebpf4jnsgd1na2vs0mg"},{"bike_id":"f5b52696-dada-4db8-ac63-486420d431ea","system_id":"levelo_inurba_marseille","lat":43.2465,"lon":5.38916,"is_reserved":false,"is_disabled":false,"rental_uris":{"android":"levelo://app?vid=f5b52696-dada-4db8-ac63-486420d431ea","ios":"levelo://app?vid=f5b52696-dada-4db8-ac63-486420d431ea"},"vehicle_type_id":"4","last_reported":1737548211,"current_range_meters":38800,"station_id":"ce4bhg12rcd13ifvqf60","pricing_plan_id":"cebpf4jnsgd1na2vs0mg"},{"bike_id":"68029cd7-1e60-45ef-b2bc-93ee5d39e0b5","system_id":"levelo_inurba_marseille","lat":43.29258,"lon":5.40913,"is_reserved":false,"is_disabled":false,"rental_uris":{"android":"levelo://app?vid=68029cd7-1e60-45ef-b2bc-93ee5d39e0b5","ios":"levelo://app?vid=68029cd7-1e60-45ef-b2bc-93ee5d39e0b5"},"vehicle_type_id":"4","last_reported":1737548211,"current_range_meters":38800,"station_id":"ce4bh192rcd13ifvqdc0","pricing_plan_id":"cebpf4jnsgd1na2vs0mg"},{"bike_id":"67406dea-6b4a-4664-a7b5-eb12a6267ed8","system_id":"levelo_inurba_marseille","lat":43.32278,"lon":5.38262,"is_reserved":false,"is_disabled":false,"rental_uris":{"android":"levelo://app?vid=67406dea-6b4a-4664-a7b5-eb12a6267ed8","ios":"levelo://app?vid=67406dea-6b4a-4664-a7b5-eb12a6267ed8"},"vehicle_type_id":"4","last_reported":1737548211,"current_range_meters":24400,"station_id":"ce4bhr12rcd13ifvqhqg","pricing_plan_id":"cebpf4jnsgd1na2vs0mg"},{"bike_id":"f6af6aef-3841-40a7-9b6f-9e2ad2b736bf","system_id":"levelo_inurba_marseille","lat":43.29008,"lon":5.3562,"is_reserved":false,"is_disabled":false,"rental_uris":{"android":"levelo://app?vid=f6af6aef-3841-40a7-9b6f-9e2ad2b736bf","ios":"levelo://app?vid=f6af6aef-3841-40a7-9b6f-9e2ad2b736bf"},"vehicle_type_id":"4","last_reported":1737548211,"current_range_meters":38800,"station_id":"ce4bhb92rcd13ifvqen0","pricing_plan_id":"cebpf4jnsgd1na2vs0mg"},{"bike_id":"7a8983ee-7738-4159-89a4-44f01d4343a4","system_id":"levelo_inurba_marseille","lat":43.29847,"lon":5.36285,"is_reserved":false,"is_disabled":false,"rental_uris":{"android":"levelo://app?vid=7a8983ee-7738-4159-89a4-44f01d4343a4","ios":"levelo://app?vid=7a8983ee-7738-4159-89a4-44f01d4343a4"},"vehicle_type_id":"4","last_reported":1737548211,"current_range_meters":36800,"station_id":"ce4bgpp2rcd13ifvqc3g","pricing_plan_id":"cebpf4jnsgd1na2vs0mg"},{"bike_id":"9d897738-a396-404a-8b40-b317117a1268","system_id":"levelo_inurba_marseille","lat":43.28159,"lon":5.42645,"is_reserved":false,"is_disabled":true,"rental_uris":{"android":"levelo://app?vid=9d897738-a396-404a-8b40-b317117a1268","ios":"levelo://app?vid=9d897738-a396-404a-8b40-b317117a1268"},"vehicle_type_id":"4","last_reported":1737548211,"current_range_meters":0,"station_id":"ce4bhnh2rcd13ifvqgug","pricing_plan_id":"cebpf4jnsgd1na2vs0mg"},{"bike_id":"8607ff84-bf66-4d54-86b8-25d67ebc52ce","system_id":"levelo_inurba_marseille","lat":43.29621,"lon":5.371494,"is_reserved":false,"is_disabled":false,"rental_uris":{"android":"levelo://app?vid=8607ff84-bf66-4d54-86b8-25d67ebc52ce","ios":"levelo://app?vid=8607ff84-bf66-4d54-86b8-25d67ebc52ce"},"vehicle_type_id":"4","last_reported":1737548211,"current_range_meters":39200,"station_id":"ce4bgnh2rcd13ifvqc0g","pricing_plan_id":"cebpf4jnsgd1na2vs0mg"},{"bike_id":"1cacc39b-8464-4517-8719-a5b46245be93","system_id":"levelo_inurba_marseille","lat":43.31087,"lon":5.42432,"is_reserved":false,"is_disabled":false,"rental_uris":{"android":"levelo://app?vid=1cacc39b-8464-4517-8719-a5b46245be93","ios":"levelo://app?vid=1cacc39b-8464-4517-8719-a5b46245be93"},"vehicle_type_id":"4","last_reported":1737548211,"current_range_meters":39200,"station_id":"ce4bhp92rcd13ifvqhag","pricing_plan_id":"cebpf4jnsgd1na2vs0mg"},{"bike_id":"cc8dd4d9-c41b-4e62-8f16-686e77afe1cc","system_id":"levelo_inurba_marseille","lat":43.27826,"lon":5.40706,"is_reserved":false,"is_disabled":false,"rental_uris":{"android":"levelo://app?vid=cc8dd4d9-c41b-4e62-8f16-686e77afe1cc","ios":"levelo://app?vid=cc8dd4d9-c41b-4e62-8f16-686e77afe1cc"},"vehicle_type_id":"4","last_reported":1737548211,"current_range_meters":38800,"station_id":"ce4bhnh2rcd13ifvqgtg","pricing_plan_id":"cebpf4jnsgd1na2vs0mg"},{"bike_id":"1f31567f-bbaf-49df-a2fc-bd7d6eaeae13","system_id":"levelo_inurba_marseille","lat":43.2962,"lon":5.37179,"is_reserved":false,"is_disabled":false,"rental_uris":{"android":"levelo://app?vid=1f31567f-bbaf-49df-a2fc-bd7d6eaeae13","ios":"levelo://app?vid=1f31567f-bbaf-49df-a2fc-bd7d6eaeae13"},"vehicle_type_id":"4","last_reported":1737548211,"current_range_meters":23200,"station_id":"ce4bgnh2rcd13ifvqc0g","pricing_plan_id":"cebpf4jnsgd1na2vs0mg"},{"bike_id":"713b4e02-a459-45c2-8b7f-670ded946bdb","system_id":"levelo_inurba_marseille","lat":43.296236,"lon":5.371567,"is_reserved":false,"is_disabled":false,"rental_uris":{"android":"levelo://app?vid=713b4e02-a459-45c2-8b7f-670ded946bdb","ios":"levelo://app?vid=713b4e02-a459-45c2-8b7f-670ded946bdb"},"vehicle_type_id":"4","last_reported":1737548211,"current_range_meters":38800,"station_id":"ce4bgnh2rcd13ifvqc0g","pricing_plan_id":"cebpf4jnsgd1na2vs0mg"},{"bike_id":"bc0cbca8-91ba-486e-b76b-984efc0acd3c","system_id":"levelo_inurba_marseille","lat":43.29974,"lon":5.38504,"is_reserved":false,"is_disabled":false,"rental_uris":{"android":"levelo://app?vid=bc0cbca8-91ba-486e-b76b-984efc0acd3c","ios":"levelo://app?vid=bc0cbca8-91ba-486e-b76b-984efc0acd3c"},"vehicle_type_id":"4","last_reported":1737548211,"current_range_meters":29600,"station_id":"ce4bgj92rcd13ifvqbd0","pricing_plan_id":"cebpf4jnsgd1na2vs0mg"},{"bike_id":"140793bc-36b3-4c22-9111-6078a281f786","system_id":"levelo_inurba_marseille","lat":43.29967,"lon":5.38516,"is_reserved":false,"is_disabled":false,"rental_uris":{"android":"levelo://app?vid=140793bc-36b3-4c22-9111-6078a281f786","ios":"levelo://app?vid=140793bc-36b3-4c22-9111-6078a281f786"},"vehicle_type_id":"4","last_reported":1737548211,"current_range_meters":20400,"station_id":"ce4bgj92rcd13ifvqbd0","pricing_plan_id":"cebpf4jnsgd1na2vs0mg"},{"bike_id":"38a62f0f-5642-4b4d-ab65-8ce22514d290","system_id":"levelo_inurba_marseille","lat":43.24653,"lon":5.38937,"is_reserved":false,"is_disabled":false,"rental_uris":{"android":"levelo://app?vid=38a62f0f-5642-4b4d-ab65-8ce22514d290","ios":"levelo://app?vid=38a62f0f-5642-4b4d-ab65-8ce22514d290"},"vehicle_type_id":"4","last_reported":1737548211,"current_range_meters":38800,"station_id":"ce4bhg12rcd13ifvqf60","pricing_plan_id":"cebpf4jnsgd1na2vs0mg"},{"bike_id":"17cf236c-50c0-4a3f-90c3-7ce245744067","system_id":"levelo_inurba_marseille","lat":43.2655,"lon":5.37316,"is_reserved":false,"is_disabled":false,"rental_uris":{"android":"levelo://app?vid=17cf236c-50c0-4a3f-90c3-7ce245744067","ios":"levelo://app?vid=17cf236c-50c0-4a3f-90c3-7ce245744067"},"vehicle_type_id":"4","last_reported":1737548211,"current_range_meters":17600,"station_id":"ce4bhg12rcd13ifvqf70","pricing_plan_id":"cebpf4jnsgd1na2vs0mg"},{"bike_id":"88ea7f03-7552-4bce-81ca-15e4a595fcdc","system_id":"levelo_inurba_marseille","lat":43.32043,"lon":5.41558,"is_reserved":false,"is_disabled":false,"rental_uris":{"android":"levelo://app?vid=88ea7f03-7552-4bce-81ca-15e4a595fcdc","ios":"levelo://app?vid=88ea7f03-7552-4bce-81ca-15e4a595fcdc"},"vehicle_type_id":"4","last_reported":1737548211,"current_range_meters":23200,"station_id":"ce4bhq92rcd13ifvqhkg","pricing_plan_id":"cebpf4jnsgd1na2vs0mg"},{"bike_id":"71982b72-be52-4482-bf6e-465ac623ec8c","system_id":"levelo_inurba_marseille","lat":43.27506,"lon":5.39782,"is_reserved":false,"is_disabled":false,"rental_uris":{"android":"levelo://app?vid=71982b72-be52-4482-bf6e-465ac623ec8c","ios":"levelo://app?vid=71982b72-be52-4482-bf6e-465ac623ec8c"},"vehicle_type_id":"4","last_reported":1737548211,"current_range_meters":8800,"station_id":"","pricing_plan_id":"cebpf4jnsgd1na2vs0mg"},{"bike_id":"1f7c87db-d399-4f13-923d-8a98a4f000e9","system_id":"levelo_inurba_marseille","lat":43.23962,"lon":5.36642,"is_reserved":false,"is_disabled":false,"rental_uris":{"android":"levelo://app?vid=1f7c87db-d399-4f13-923d-8a98a4f000e9","ios":"levelo://app?vid=1f7c87db-d399-4f13-923d-8a98a4f000e9"},"vehicle_type_id":"4","last_reported":1737548211,"current_range_meters":9200,"station_id":"ce4bhi12rcd13ifvqfp0","pricing_plan_id":"cebpf4jnsgd1na2vs0mg"},{"bike_id":"50537ac8-98c1-440f-9c64-8d280d06a39b","system_id":"levelo_inurba_marseille","lat":43.29537,"lon":5.38552,"is_reserved":false,"is_disabled":true,"rental_uris":{"android":"levelo://app?vid=50537ac8-98c1-440f-9c64-8d280d06a39b","ios":"levelo://app?vid=50537ac8-98c1-440f-9c64-8d280d06a39b"},"vehicle_type_id":"4","last_reported":1737548211,"current_range_meters":0,"station_id":"ce4bgih2rcd13ifvqba0","pricing_plan_id":"cebpf4jnsgd1na2vs0mg"},{"bike_id":"729adabf-d72e-4662-a3bb-ca095d1ac5d3","system_id":"levelo_inurba_marseille","lat":43.292725,"lon":5.407331,"is_reserved":false,"is_disabled":false,"rental_uris":{"android":"levelo://app?vid=729adabf-d72e-4662-a3bb-ca095d1ac5d3","ios":"levelo://app?vid=729adabf-d72e-4662-a3bb-ca095d1ac5d3"},"vehicle_type_id":"4","last_reported":1737548211,"current_range_meters":9200,"station_id":"ce4bh192rcd13ifvqdc0","pricing_plan_id":"cebpf4jnsgd1na2vs0mg"},{"bike_id":"cb7322b4-1ac1-4114-8157-c83aeac75b76","system_id":"levelo_inurba_marseille","lat":43.32117,"lon":5.36762,"is_reserved":false,"is_disabled":false,"rental_uris":{"android":"levelo://app?vid=cb7322b4-1ac1-4114-8157-c83aeac75b76","ios":"levelo://app?vid=cb7322b4-1ac1-4114-8157-c83aeac75b76"},"vehicle_type_id":"4","last_reported":1737548211,"current_range_meters":22000,"station_id":"ce4bhrh2rcd13ifvqhug","pricing_plan_id":"cebpf4jnsgd1na2vs0mg"},{"bike_id":"ac5e9094-6e01-4a43-8ee7-189da8fe965a","system_id":"levelo_inurba_marseille","lat":43.32664,"lon":5.40993,"is_reserved":false,"is_disabled":false,"rental_uris":{"android":"levelo://app?vid=ac5e9094-6e01-4a43-8ee7-189da8fe965a","ios":"levelo://app?vid=ac5e9094-6e01-4a43-8ee7-189da8fe965a"},"vehicle_type_id":"4","last_reported":1737548211,"current_range_meters":6400,"station_id":"ce4bhpp2rcd13ifvqhgg","pricing_plan_id":"cebpf4jnsgd1na2vs0mg"},{"bike_id":"76fe8171-a171-4602-bb26-90651dd3df6e","system_id":"levelo_inurba_marseille","lat":43.27913,"lon":5.41202,"is_reserved":false,"is_disabled":true,"rental_uris":{"android":"levelo://app?vid=76fe8171-a171-4602-bb26-90651dd3df6e","ios":"levelo://app?vid=76fe8171-a171-4602-bb26-90651dd3df6e"},"vehicle_type_id":"4","last_reported":1737548211,"current_range_meters":0,"station_id":"","pricing_plan_id":"cebpf4jnsgd1na2vs0mg"},{"bike_id":"2c115182-c42c-491c-9297-b7a7447bfbd5","system_id":"levelo_inurba_marseille","lat":43.292254,"lon":5.360597,"is_reserved":false,"is_disabled":false,"rental_uris":{"android":"levelo://app?vid=2c115182-c42c-491c-9297-b7a7447bfbd5","ios":"levelo://app?vid=2c115182-c42c-491c-9297-b7a7447bfbd5"},"vehicle_type_id":"4","last_reported":1737548211,"current_range_meters":35200,"station_id":"ce4bhbh2rcd13ifvqeqg","pricing_plan_id":"cebpf4jnsgd1na2vs0mg"},{"bike_id":"56695ee2-5c42-4573-ad28-6559f7b9aca4","system_id":"levelo_inurba_marseille","lat":43.32359,"lon":5.40636,"is_reserved":false,"is_disabled":false,"rental_uris":{"android":"levelo://app?vid=56695ee2-5c42-4573-ad28-6559f7b9aca4","ios":"levelo://app?vid=56695ee2-5c42-4573-ad28-6559f7b9aca4"},"vehicle_type_id":"4","last_reported":1737548211,"current_range_meters":22000,"station_id":"ce4bhq92rcd13ifvqhjg","pricing_plan_id":"cebpf4jnsgd1na2vs0mg"},{"bike_id":"31d5385b-3ddc-4b37-a170-ccf874a94649","system_id":"levelo_inurba_marseille","lat":43.3127,"lon":5.40173,"is_reserved":false,"is_disabled":false,"rental_uris":{"android":"levelo://app?vid=31d5385b-3ddc-4b37-a170-ccf874a94649","ios":"levelo://app?vid=31d5385b-3ddc-4b37-a170-ccf874a94649"},"vehicle_type_id":"4","last_reported":1737548211,"current_range_meters":37600,"station_id":"ce4bh092rcd13ifvqd30","pricing_plan_id":"cebpf4jnsgd1na2vs0mg"},{"bike_id":"05eefeca-618b-4f43-bbb2-cd86ee63b097","system_id":"levelo_inurba_marseille","lat":43.23199,"lon":5.35532,"is_reserved":false,"is_disabled":false,"rental_uris":{"android":"levelo://app?vid=05eefeca-618b-4f43-bbb2-cd86ee63b097","ios":"levelo://app?vid=05eefeca-618b-4f43-bbb2-cd86ee63b097"},"vehicle_type_id":"4","last_reported":1737548211,"current_range_meters":30400,"station_id":"ce4bhu92rcd13ifvqi70","pricing_plan_id":"cebpf4jnsgd1na2vs0mg"},{"bike_id":"ca0e4b84-3ae7-4b85-8b7a-124ecd47a885","system_id":"levelo_inurba_marseille","lat":43.30356,"lon":5.41877,"is_reserved":false,"is_disabled":false,"rental_uris":{"android":"levelo://app?vid=ca0e4b84-3ae7-4b85-8b7a-124ecd47a885","ios":"levelo://app?vid=ca0e4b84-3ae7-4b85-8b7a-124ecd47a885"},"vehicle_type_id":"4","last_reported":1737548211,"current_range_meters":37600,"station_id":"ce4bhop2rcd13ifvqh7g","pricing_plan_id":"cebpf4jnsgd1na2vs0mg"},{"bike_id":"66af6a21-136c-488c-a2d1-a85012fbfa02","system_id":"levelo_inurba_marseille","lat":43.23155,"lon":5.43703,"is_reserved":false,"is_disabled":false,"rental_uris":{"android":"levelo://app?vid=66af6a21-136c-488c-a2d1-a85012fbfa02","ios":"levelo://app?vid=66af6a21-136c-488c-a2d1-a85012fbfa02"},"vehicle_type_id":"4","last_reported":1737548211,"current_range_meters":2000,"station_id":"ce4bhmp2rcd13ifvqgog","pricing_plan_id":"cebpf4jnsgd1na2vs0mg"},{"bike_id":"cd4b7aa7-2d83-4909-8ad5-c1b427f082b0","system_id":"levelo_inurba_marseille","lat":43.2886,"lon":5.35869,"is_reserved":false,"is_disabled":false,"rental_uris":{"android":"levelo://app?vid=cd4b7aa7-2d83-4909-8ad5-c1b427f082b0","ios":"levelo://app?vid=cd4b7aa7-2d83-4909-8ad5-c1b427f082b0"},"vehicle_type_id":"4","last_reported":1737548211,"current_range_meters":20000,"station_id":"ce4bhb12rcd13ifvqem0","pricing_plan_id":"cebpf4jnsgd1na2vs0mg"},{"bike_id":"64cdc2d3-d6ec-4254-8a08-fc3c9a17f77c","system_id":"levelo_inurba_marseille","lat":43.23197,"lon":5.39998,"is_reserved":false,"is_disabled":false,"rental_uris":{"android":"levelo://app?vid=64cdc2d3-d6ec-4254-8a08-fc3c9a17f77c","ios":"levelo://app?vid=64cdc2d3-d6ec-4254-8a08-fc3c9a17f77c"},"vehicle_type_id":"4","last_reported":1737548211,"current_range_meters":20800,"station_id":"ce4bhn12rcd13ifvqgqg","pricing_plan_id":"cebpf4jnsgd1na2vs0mg"},{"bike_id":"f148ed57-60fc-4ede-9622-558e2dd0a034","system_id":"levelo_inurba_marseille","lat":43.30792,"lon":5.43519,"is_reserved":false,"is_disabled":true,"rental_uris":{"android":"levelo://app?vid=f148ed57-60fc-4ede-9622-558e2dd0a034","ios":"levelo://app?vid=f148ed57-60fc-4ede-9622-558e2dd0a034"},"vehicle_type_id":"4","last_reported":1737548211,"current_range_meters":1600,"station_id":"ce4bhph2rcd13ifvqheg","pricing_plan_id":"cebpf4jnsgd1na2vs0mg"},