{"last_updated":1729527043,"ttl":60,"version":"2.2","data":{"bikes":[{"bike_id":"c2706d63-c59d-4e03-9a04-f928d243525e","system_id":"levelo_inurba_marseille","lat":43.25115,"lon":5.40321,"is_reserved":false,"is_disabled":false,"rental_uris":{"android":"levelo://app?vid=c2706d63-c59d-4e03-9a04-f928d243525e","ios":"levelo://app?vid=c2706d63-c59d-4e03-9a04-f928d243525e"},"vehicle_type_id":"4","last_reported":1729527044,"current_range_meters":27200,"station_id":"ce4bhlh2rcd13ifvqgig","pricing_plan_id":"cebpf4jnsgd1na2vs0mg"},{"bike_id":"a057fcc1-7013-42ba-ac01-60ff0a17fd6d","system_id":"levelo_inurba_marseille","lat":43.27616,"lon":5.36118,"is_reserved":false,"is_disabled":false,"rental_uris":{"android":"levelo://app?vid=a057fcc1-7013-42ba-ac01-60ff0a17fd6d","ios":"levelo://app?vid=a057fcc1-7013-42ba-ac01-60ff0a17fd6d"},"vehicle_type_id":"4","last_reported":1729527044,"current_range_meters":21600,"station_id":"ce4bgj92rcd13ifvqbe0","pricing_plan_id":"cebpf4jnsgd1na2vs0mg"},{"bike_id":"f90a981d-2b36-4551-85c9-3de9cb19f5ae","system_id":"levelo_inurba_marseille","lat":43.28404,"lon":5.37523,"is_reserved":false,"is_disabled":false,"rental_uris":{"android":"levelo://app?vid=f90a981d-2b36-4551-85c9-3de9cb19f5ae","ios":"levelo://app?vid=f90a981d-2b36-4551-85c9-3de9cb19f5ae"},"vehicle_type_id":"4","last_reported":1729527044,"current_range_meters":27600,"station_id":"ce4bh412rcd13ifvqds0","pricing_plan_id":"cebpf4jnsgd1na2vs0mg"},{"bike_id":"df025753-e05e-452c-9321-2d98955f0ad9","system_id":"levelo_inurba_marseille","lat":43.27176,"lon":5.40993,"is_reserved":false,"is_disabled":false,"rental_uris":{"android":"levelo://app?vid=df025753-e05e-452c-9321-2d98955f0ad9","ios":"levelo://app?vid=df025753-e05e-452c-9321-2d98955f0ad9"},"vehicle_type_id":"4","last_reported":1729527044,"current_range_meters":4000,"station_id":"ce4bhl12rcd13ifvqgf0","pricing_plan_id":"cebpf4jnsgd1na2vs0mg"},{"bike_id":"51b68765-da36-4804-8b27-d95823e0de04","system_id":"levelo_inurba_marseille","lat":43.28152,"lon":5.42647,"is_reserved":false,"is_disabled":false,"rental_uris":{"android":"levelo://app?vid=51b68765-da36-4804-8b27-d95823e0de04","ios":"levelo://app?vid=51b68765-da36-4804-8b27-d95823e0de04"},"vehicle_type_id":"4","last_reported":1729527044,"current_range_meters":3600,"station_id":"ce4bhnh2rcd13ifvqgug","pricing_plan_id":"cebpf4jnsgd1na2vs0mg"},{"bike_id":"53b5cfa9-cea2-44a2-a93f-ffe40df82b23","system_id":"levelo_inurba_marseille","lat":43.28413,"lon":5.3499,"is_reserved":false,"is_disabled":false,"rental_uris":{"android":"levelo://app?vid=53b5cfa9-cea2-44a2-a93f-ffe40df82b23","ios":"levelo://app?vid=53b5cfa9-cea2-44a2-a93f-ffe40df82b23"},"vehicle_type_id":"4","last_reported":1729527044,"current_range_meters":38800,"station_id":"ce4bhbh2rcd13ifvqepg","pricing_plan_id":"cebpf4jnsgd1na2vs0mg"},{"bike_id":"f0e311bc-6b3a-4ccb-88d9-45089ff7a3c4","system_id":"levelo_inurba_marseille","lat":43.31688,"lon":5.4047,"is_reserved":false,"is_disabled":false,"rental_uris":{"android":"levelo://app?vid=f0e311bc-6b3a-4ccb-88d9-45089ff7a3c4","ios":"levelo://app?vid=f0e311bc-6b3a-4ccb-88d9-45089ff7a3c4"},"vehicle_type_id":"4","last_reported":1729527044,"current_range_meters":40000,"station_id":"ce4bh012rcd13ifvqd00","pricing_plan_id":"cebpf4jnsgd1na2vs0mg"},{"bike_id":"ad756b3e-998a-40e1-8af0-30388dd93141","system_id":"levelo_inurba_marseille","lat":43.29801,"lon":5.40415,"is_reserved":false,"is_disabled":false,"rental_uris":{"android":"levelo://app?vid=ad756b3e-998a-40e1-8af0-30388dd93141","ios":"levelo://app?vid=ad756b3e-998a-40e1-8af0-30388dd93141"},"vehicle_type_id":"4","last_reported":1729527044,"current_range_meters":6800,"station_id":"ce4bh112rcd13ifvqd90","pricing_plan_id":"cebpf4jnsgd1na2vs0mg"},{"bike_id":"eb69d266-7f9f-4bad-bf4b-cb0a701a9511","system_id":"levelo_inurba_marseille","lat":43.2793,"lon":5.41772,"is_reserved":false,"is_disabled":false,"rental_uris":{"android":"levelo://app?vid=eb69d266-7f9f-4bad-bf4b-cb0a701a9511","ios":"levelo://app?vid=eb69d266-7f9f-4bad-bf4b-cb0a701a9511"},"vehicle_type_id":"4","last_reported":1729527044,"current_range_meters":20400,"station_id":"","pricing_plan_id":"cebpf4jnsgd1na2vs0mg"},{"bike_id":"27deaf80-80f5-4a2b-87ea-8b529781f2c2","system_id":"levelo_inurba_marseille","lat":43.229218,"lon":5.35372,"is_reserved":false,"is_disabled":false,"rental_uris":{"android":"levelo://app?vid=27deaf80-80f5-4a2b-87ea-8b529781f2c2","ios":"levelo://app?vid=27deaf80-80f5-4a2b-87ea-8b529781f2c2"},"vehicle_type_id":"4","last_reported":1729527044,"current_range_meters":37600,"station_id":"cpo3532slgdg3j2ikp40","pricing_plan_id":"cebpf4jnsgd1na2vs0mg"},{"bike_id":"b6bea632-68f4-4bb7-a08b-9c834117faa0","system_id":"levelo_inurba_marseille","lat":43.23964,"lon":5.36638,"is_reserved":false,"is_disabled":false,"rental_uris":{"android":"levelo://app?vid=b6bea632-68f4-4bb7-a08b-9c834117faa0","ios":"levelo://app?vid=b6bea632-68f4-4bb7-a08b-9c834117faa0"},"vehicle_type_id":"4","last_reported":1729527044,"current_range_meters":26800,"station_id":"ce4bhi12rcd13ifvqfp0","pricing_plan_id":"cebpf4jnsgd1na2vs0mg"},{"bike_id":"fb93626b-ddf6-49f4-82be-d1f24ffc4c82","system_id":"levelo_inurba_marseille","lat":43.296265,"lon":5.377235,"is_reserved":false,"is_disabled":false,"rental_uris":{"android":"levelo://app?vid=fb93626b-ddf6-49f4-82be-d1f24ffc4c82","ios":"levelo://app?vid=fb93626b-ddf6-49f4-82be-d1f24ffc4c82"},"vehicle_type_id":"4","last_reported":1729527044,"current_range_meters":27600,"station_id":"ce4bgi92rcd13ifvqb90","pricing_plan_id":"cebpf4jnsgd1na2vs0mg"},{"bike_id":"c37f3a8f-43b9-4437-9372-fa33359d5506","system_id":"levelo_inurba_marseille","lat":43.231506,"lon":5.437043,"is_reserved":false,"is_disabled":false,"rental_uris":{"android":"levelo://app?vid=c37f3a8f-43b9-4437-9372-fa33359d5506","ios":"levelo://app?vid=c37f3a8f-43b9-4437-9372-fa33359d5506"},"vehicle_type_id":"4","last_reported":1729527044,"current_range_meters":800,"station_id":"ce4bhmp2rcd13ifvqgog","pricing_plan_id":"cebpf4jnsgd1na2vs0mg"},{"bike_id":"0df58e98-a264-4687-96df-1b556d873a26","system_id":"levelo_inurba_marseille","lat":43.32109,"lon":5.36778,"is_reserved":false,"is_disabled":false,"rental_uris":{"android":"levelo://app?vid=0df58e98-a264-4687-96df-1b556d873a26","ios":"levelo://app?vid=0df58e98-a264-4687-96df-1b556d873a26"},"vehicle_type_id":"4","last_reported":1729527044,"current_range_meters":9600,"station_id":"ce4bhrh2rcd13ifvqhug","pricing_plan_id":"cebpf4jnsgd1na2vs0mg"},{"bike_id":"48a4787b-8518-429c-bfa8-55991697b2ff","system_id":"levelo_inurba_marseille","lat":43.27051,"lon":5.38836,"is_reserved":false,"is_disabled":false,"rental_uris":{"android":"levelo://app?vid=48a4787b-8518-429c-bfa8-55991697b2ff","ios":"levelo://app?vid=48a4787b-8518-429c-bfa8-55991697b2ff"},"vehicle_type_id":"4","last_reported":1729527044,"current_range_meters":9600,"station_id":"ce4bhl92rcd13ifvqghg","pricing_plan_id":"cebpf4jnsgd1na2vs0mg"},{"bike_id":"885ac4a7-7dad-4016-a286-f6c226180f64","system_id":"levelo_inurba_marseille","lat":43.23197,"lon":5.35557,"is_reserved":false,"is_disabled":false,"rental_uris":{"android":"levelo://app?vid=885ac4a7-7dad-4016-a286-f6c226180f64","ios":"levelo://app?vid=885ac4a7-7dad-4016-a286-f6c226180f64"},"vehicle_type_id":"4","last_reported":1729527044,"current_range_meters":34800,"station_id":"ce4bhu92rcd13ifvqi70","pricing_plan_id":"cebpf4jnsgd1na2vs0mg"},{"bike_id":"d6213354-81da-420d-9b59-61cede9afd7c","system_id":"levelo_inurba_marseille","lat":43.2737,"lon":5.3626,"is_reserved":false,"is_disabled":false,"rental_uris":{"android":"levelo://app?vid=d6213354-81da-420d-9b59-61cede9afd7c","ios":"levelo://app?vid=d6213354-81da-420d-9b59-61cede9afd7c"},"vehicle_type_id":"4","last_reported":1729527044,"current_range_meters":10000,"station_id":"ce4bhbh2rcd13ifvqeo0","pricing_plan_id":"cebpf4jnsgd1na2vs0mg"},{"bike_id":"d3c7e31c-9108-4a41-a2db-6d085e593fca","system_id":"levelo_inurba_marseille","lat":43.28764,"lon":5.3889,"is_reserved":false,"is_disabled":false,"rental_uris":{"android":"levelo://app?vid=d3c7e31c-9108-4a41-a2db-6d085e593fca","ios":"levelo://app?vid=d3c7e31c-9108-4a41-a2db-6d085e593fca"},"vehicle_type_id":"4","last_reported":1729527044,"current_range_meters":15200,"station_id":"","pricing_plan_id":"cebpf4jnsgd1na2vs0mg"},{"bike_id":"b12dea19-d735-4a4c-8d4c-1a708c87f259","system_id":"levelo_inurba_marseille","lat":43.2971,"lon":5.36611,"is_reserved":false,"is_disabled":false,"rental_uris":{"android":"levelo://app?vid=b12dea19-d735-4a4c-8d4c-1a708c87f259","ios":"levelo://app?vid=b12dea19-d735-4a4c-8d4c-1a708c87f259"},"vehicle_type_id":"4","last_reported":1729527044,"current_range_meters":36800,"station_id":"ce4bgn12rcd13ifvqbt0","pricing_plan_id":"cebpf4jnsgd1na2vs0mg"},{"bike_id":"730f5f04-9cef-4a3d-8954-779ca2382258","system_id":"levelo_inurba_marseille","lat":43.32104,"lon":5.36784,"is_reserved":false,"is_disabled":false,"rental_uris":{"android":"levelo://app?vid=730f5f04-9cef-4a3d-8954-779ca2382258","ios":"levelo://app?vid=730f5f04-9cef-4a3d-8954-779ca2382258"},"vehicle_type_id":"4","last_reported":1729527044,"current_range_meters":38800,"station_id":"ce4bhrh2rcd13ifvqhug","pricing_plan_id":"cebpf4jnsgd1na2vs0mg"},{"bike_id":"0d9fea0d-5188-4ebc-a956-c466b2766e8c","system_id":"levelo_inurba_marseille","lat":43.27491,"lon":5.42457,"is_reserved":false,"is_disabled":false,"rental_uris":{"android":"levelo://app?vid=0d9fea0d-5188-4ebc-a956-c466b2766e8c","ios":"levelo://app?vid=0d9fea0d-5188-4ebc-a956-c466b2766e8c"},"vehicle_type_id":"4","last_reported":1729527044,"current_range_meters":7200,"station_id":"ce4bhn92rcd13ifvqgrg","pricing_plan_id":"cebpf4jnsgd1na2vs0mg"},{"bike_id":"3c2e9290-6792-4e2d-b00d-712b965be0bd","system_id":"levelo_inurba_marseille","lat":43.26424,"lon":5.38683,"is_reserved":false,"is_disabled":false,"rental_uris":{"android":"levelo://app?vid=3c2e9290-6792-4e2d-b00d-712b965be0bd","ios":"levelo://app?vid=3c2e9290-6792-4e2d-b00d-712b965be0bd"},"vehicle_type_id":"4","last_reported":1729527044,"current_range_meters":12400,"station_id":"","pricing_plan_id":"cebpf4jnsgd1na2vs0mg"},{"bike_id":"bbb5ccde-0bb0-4703-add0-182ace011dc2","system_id":"levelo_inurba_marseille","lat":43.290468,"lon":5.359175,"is_reserved":false,"is_disabled":false,"rental_uris":{"android":"levelo://app?vid=bbb5ccde-0bb0-4703-add0-182ace011dc2","ios":"levelo://app?vid=bbb5ccde-0bb0-4703-add0-182ace011dc2"},"vehicle_type_id":"4","last_reported":1729527044,"current_range_meters":34800,"station_id":"ce4bha92rcd13ifvqeg0","pricing_plan_id":"cebpf4jnsgd1na2vs0mg"},{"bike_id":"ba3898f4-3501-4781-a570-60992e86193e","system_id":"levelo_inurba_marseille","lat":43.28397,"lon":5.34989,"is_reserved":false,"is_disabled":false,"rental_uris":{"android":"levelo://app?vid=ba3898f4-3501-4781-a570-60992e86193e","ios":"levelo://app?vid=ba3898f4-3501-4781-a570-60992e86193e"},"vehicle_type_id":"4","last_reported":1729527044,"current_range_meters":12400,"station_id":"ce4bhbh2rcd13ifvqepg","pricing_plan_id":"cebpf4jnsgd1na2vs0mg"},{"bike_id":"ab1295d8-40ea-43fa-92fa-abdc33824b2f","system_id":"levelo_inurba_marseille","lat":43.26066,"lon":5.38552,"is_reserved":false,"is_disabled":false,"rental_uris":{"android":"levelo://app?vid=ab1295d8-40ea-43fa-92fa-abdc33824b2f","ios":"levelo://app?vid=ab1295d8-40ea-43fa-92fa-abdc33824b2f"},"vehicle_type_id":"4","last_reported":1729527044,"current_range_meters":12800,"station_id":"","pricing_plan_id":"cebpf4jnsgd1na2vs0mg"},{"bike_id":"39d81f02-3d2e-4031-bc15-886f60be85f2","system_id":"levelo_inurba_marseille","lat":43.24177,"lon":5.39722,"is_reserved":false,"is_disabled":false,"rental_uris":{"android":"levelo://app?vid=39d81f02-3d2e-4031-bc15-886f60be85f2","ios":"levelo://app?vid=39d81f02-3d2e-4031-bc15-886f60be85f2"},"vehicle_type_id":"4","last_reported":1729527044,"current_range_meters":6400,"station_id":"ce4bhn12rcd13ifvqgpg","pricing_plan_id":"cebpf4jnsgd1na2vs0mg"},{"bike_id":"c37f7b49-8c87-4a1a-9296-36ba8ad10d6a","system_id":"levelo_inurba_marseille","lat":43.25769,"lon":5.38722,"is_reserved":false,"is_disabled":false,"rental_uris":{"android":"levelo://app?vid=c37f7b49-8c87-4a1a-9296-36ba8ad10d6a","ios":"levelo://app?vid=c37f7b49-8c87-4a1a-9296-36ba8ad10d6a"},"vehicle_type_id":"4","last_reported":1729527044,"current_range_meters":9600,"station_id":"","pricing_plan_id":"cebpf4jnsgd1na2vs0mg"},{"bike_id":"39ee9764-c305-469f-9d9c-27c097ea855c","system_id":"levelo_inurba_marseille","lat":43.23965,"lon":5.36641,"is_reserved":false,"is_disabled":false,"rental_uris":{"android":"levelo://app?vid=39ee9764-c305-469f-9d9c-27c097ea855c","ios":"levelo://app?vid=39ee9764-c305-469f-9d9c-27c097ea855c"},"vehicle_type_id":"4","last_reported":1729527044,"current_range_meters":4000,"station_id":"ce4bhi12rcd13ifvqfp0","pricing_plan_id":"cebpf4jnsgd1na2vs0mg"},{"bike_id":"311cb3b2-2a0e-46dc-ab94-c796a4e42e1c","system_id":"levelo_inurba_marseille","lat":43.28457,"lon":5.359,"is_reserved":false,"is_disabled":false,"rental_uris":{"android":"levelo://app?vid=311cb3b2-2a0e-46dc-ab94-c796a4e42e1c","ios":"levelo://app?vid=311cb3b2-2a0e-46dc-ab94-c796a4e42e1c"},"vehicle_type_id":"4","last_reported":1729527044,"current_range_meters":36000,"station_id":"ce4bhah2rcd13ifvqei0","pricing_plan_id":"cebpf4jnsgd1na2vs0mg"},{"bike_id":"b7caf2ba-da56-4cb6-a472-7c28d4fefd7b","system_id":"levelo_inurba_marseille","lat":43.28149,"lon":5.42658,"is_reserved":false,"is_disabled":false,"rental_uris":{"android":"levelo://app?vid=b7caf2ba-da56-4cb6-a472-7c28d4fefd7b","ios":"levelo://app?vid=b7caf2ba-da56-4cb6-a472-7c28d4fefd7b"},"vehicle_type_id":"4","last_reported":1729527044,"current_range_meters":17600,"station_id":"ce4bhnh2rcd13ifvqgug","pricing_plan_id":"cebpf4jnsgd1na2vs0mg"},{"bike_id":"ae8c63a0-9296-4699-b196-2cf4d142b4b5","system_id":"levelo_inurba_marseille","lat":43.31326,"lon":5.39694,"is_reserved":false,"is_disabled":false,"rental_uris":{"android":"levelo://app?vid=ae8c63a0-9296-4699-b196-2cf4d142b4b5","ios":"levelo://app?vid=ae8c63a0-9296-4699-b196-2cf4d142b4b5"},"vehicle_type_id":"4","last_reported":1729527044,"current_range_meters":38800,"station_id":"ce4bgvp2rcd13ifvqcu0","pricing_plan_id":"cebpf4jnsgd1na2vs0mg"},{"bike_id":"8f801b8b-8af1-4e0a-882d-ed5112ee5489","system_id":"levelo_inurba_marseille","lat":43.25078,"lon":5.38992,"is_reserved":false,"is_disabled":false,"rental_uris":{"android":"levelo://app?vid=8f801b8b-8af1-4e0a-882d-ed5112ee5489","ios":"levelo://app?vid=8f801b8b-8af1-4e0a-882d-ed5112ee5489"},"vehicle_type_id":"4","last_reported":1729527044,"current_range_meters":7200,"station_id":"ce4bhm12rcd13ifvqgkg","pricing_plan_id":"cebpf4jnsgd1na2vs0mg"},{"bike_id":"435b1d0c-5f22-46b8-9e5d-78a095f418b8","system_id":"levelo_inurba_marseille","lat":43.32482,"lon":5.3657,"is_reserved":false,"is_disabled":false,"rental_uris":{"android":"levelo://app?vid=435b1d0c-5f22-46b8-9e5d-78a095f418b8","ios":"levelo://app?vid=435b1d0c-5f22-46b8-9e5d-78a095f418b8"},"vehicle_type_id":"4","last_reported":1729527044,"current_range_meters":18000,"station_id":"ce4bhs12rcd13ifvqhvg","pricing_plan_id":"cebpf4jnsgd1na2vs0mg"},{"bike_id":"b68da86b-8d8e-4904-af36-2aeda4f4286b","system_id":"levelo_inurba_marseille","lat":43.27369,"lon":5.36261,"is_reserved":false,"is_disabled":false,"rental_uris":{"android":"levelo://app?vid=b68da86b-8d8e-4904-af36-2aeda4f4286b","ios":"levelo://app?vid=b68da86b-8d8e-4904-af36-2aeda4f4286b"},"vehicle_type_id":"4","last_reported":1729527044,"current_range_meters":6800,"station_id":"ce4bhbh2rcd13ifvqeo0","pricing_plan_id":"cebpf4jnsgd1na2vs0mg"},{"bike_id":"0ee5f8d4-8b08-4f86-8562-42867513a9b9","system_id":"levelo_inurba_marseille","lat":43.31896,"lon":5.40734,"is_reserved":false,"is_disabled":false,"rental_uris":{"android":"levelo://app?vid=0ee5f8d4-8b08-4f86-8562-42867513a9b9","ios":"levelo://app?vid=0ee5f8d4-8b08-4f86-8562-42867513a9b9"},"vehicle_type_id":"4","last_reported":1729527044,"current_range_meters":38800,"station_id":"ce4bhq12rcd13ifvqhig","pricing_plan_id":"cebpf4jnsgd1na2vs0mg"},{"bike_id":"c237e343-0a63-4b8f-bb1d-b6f275ad67d9","system_id":"levelo_inurba_marseille","lat":43.2846,"lon":5.35887,"is_reserved":false,"is_disabled":false,"rental_uris":{"android":"levelo://app?vid=c237e343-0a63-4b8f-bb1d-b6f275ad67d9","ios":"levelo://app?vid=c237e343-0a63-4b8f-bb1d-b6f275ad67d9"},"vehicle_type_id":"4","last_reported":1729527044,"current_range_meters":20400,"station_id":"ce4bhah2rcd13ifvqei0","pricing_plan_id":"cebpf4jnsgd1na2vs0mg"},{"bike_id":"17fef0ad-636f-499e-999d-0dd42b9402fe","system_id":"levelo_inurba_marseille","lat":43.27564,"lon":5.38435,"is_reserved":false,"is_disabled":false,"rental_uris":{"android":"levelo://app?vid=17fef0ad-636f-499e-999d-0dd42b9402fe","ios":"levelo://app?vid=17fef0ad-636f-499e-999d-0dd42b9402fe"},"vehicle_type_id":"4","last_reported":1729527044,"current_range_meters":36800,"station_id":"ce4bhh92rcd13ifvqfi0","pricing_plan_id":"cebpf4jnsgd1na2vs0mg"},{"bike_id":"7a2acaa5-50b5-4298-873f-a3a244261ee5","system_id":"levelo_inurba_marseille","lat":43.26059,"lon":5.39392,"is_reserved":false,"is_disabled":false,"rental_uris":{"android":"levelo://app?vid=7a2acaa5-50b5-4298-873f-a3a244261ee5","ios":"levelo://app?vid=7a2acaa5-50b5-4298-873f-a3a244261ee5"},"vehicle_type_id":"4","last_reported":1729527044,"current_range_meters":38800,"station_id":"ce4bhh92rcd13ifvqfj0","pricing_plan_id":"cebpf4jnsgd1na2vs0mg"},{"bike_id":"0728974d-1ad5-4181-91f2-6035aab7157d","system_id":"levelo_inurba_marseille","lat":43.23189,"lon":5.3555,"is_reserved":false,"is_disabled":false,"rental_uris":{"android":"levelo://app?vid=0728974d-1ad5-4181-91f2-6035aab7157d","ios":"levelo://app?vid=0728974d-1ad5-4181-91f2-6035aab7157d"},"vehicle_type_id":"4","last_reported":1729527044,"current_range_meters":39200,"station_id":"ce4bhu92rcd13ifvqi70","pricing_plan_id":"cebpf4jnsgd1na2vs0mg"},{"bike_id":"e3227fe8-85ba-4eb5-98d7-418c667c1cf1","system_id":"levelo_inurba_marseille","lat":43.31679,"lon":5.37547,"is_reserved":false,"is_disabled":false,"rental_uris":{"android":"levelo://app?vid=e3227fe8-85ba-4eb5-98d7-418c667c1cf1","ios":"levelo://app?vid=e3227fe8-85ba-4eb5-98d7-418c667c1cf1"},"vehicle_type_id":"4","last_reported":1729527044,"current_range_meters":16000,"station_id":"","pricing_plan_id":"cebpf4jnsgd1na2vs0mg"},{"bike_id":"581c408e-0ea5-4fb1-8842-f1d09a193a19","system_id":"levelo_inurba_marseille","lat":43.23191,"lon":5.3555,"is_reserved":false,"is_disabled":false,"rental_uris":{"android":"levelo://app?vid=581c408e-0ea5-4fb1-8842-f1d09a193a19","ios":"levelo://app?vid=581c408e-0ea5-4fb1-8842-f1d09a193a19"},"vehicle_type_id":"4","last_reported":1729527044,"current_range_meters":37600,"station_id":"ce4bhu92rcd13ifvqi70","pricing_plan_id":"cebpf4jnsgd1na2vs0mg"},{"bike_id":"a4a38902-e235-44aa-8fc9-21d746e6c06c","system_id":"levelo_inurba_marseille","lat":43.29534,"lon":5.39046,"is_reserved":false,"is_disabled":false,"rental_uris":{"android":"levelo://app?vid=a4a38902-e235-44aa-8fc9-21d746e6c06c","ios":"levelo://app?vid=a4a38902-e235-44aa-8fc9-21d746e6c06c"},"vehicle_type_id":"4","last_reported":1729527044,"current_range_meters":3600,"station_id":"ce4bh3p2rcd13ifvqdp0","pricing_plan_id":"cebpf4jnsgd1na2vs0mg"},{"bike_id":"79a1e020-318b-42a1-a8c0-a424b1daf69e","system_id":"levelo_inurba_marseille","lat":43.296,"lon":5.36142,"is_reserved":false,"is_disabled":false,"rental_uris":{"android":"levelo://app?vid=79a1e020-318b-42a1-a8c0-a424b1daf69e","ios":"levelo://app?vid=79a1e020-318b-42a1-a8c0-a424b1daf69e"},"vehicle_type_id":"4","last_reported":1729527044,"current_range_meters":9600,"station_id":"","pricing_plan_id":"cebpf4jnsgd1na2vs0mg"},{"bike_id":"73a3960e-c174-4032-aee2-e8a581affe91","system_id":"levelo_inurba_marseille","lat":43.30925,"lon":5.40152,"is_reserved":false,"is_disabled":false,"rental_uris":{"android":"levelo://app?vid=73a3960e-c174-4032-aee2-e8a581affe91","ios":"levelo://app?vid=73a3960e-c174-4032-aee2-e8a581affe91"},"vehicle_type_id":"4","last_reported":1729527044,"current_range_meters":16000,"station_id":"ce4bgvp2rcd13ifvqct0","pricing_plan_id":"cebpf4jnsgd1na2vs0mg"},{"bike_id":"916089e6-7c68-4026-9185-b7c8222214d3","system_id":"levelo_inurba_marseille","lat":43.2841,"lon":5.34998,"is_reserved":false,"is_disabled":false,"rental_uris":{"android":"levelo://app?vid=916089e6-7c68-4026-9185-b7c8222214d3","ios":"levelo://app?vid=916089e6-7c68-4026-9185-b7c8222214d3"},"vehicle_type_id":"4","last_reported":1729527044,"current_range_meters":18000,"station_id":"ce4bhbh2rcd13ifvqepg","pricing_plan_id":"cebpf4jnsgd1na2vs0mg"},{"bike_id":"e0e81d38-2cc3-4eb7-81a8-4a1f1af1ea46","system_id":"levelo_inurba_marseille","lat":43.29876,"lon":5.38912,"is_reserved":false,"is_disabled":false,"rental_uris":{"android":"levelo://app?vid=e0e81d38-2cc3-4eb7-81a8-4a1f1af1ea46","ios":"levelo://app?vid=e0e81d38-2cc3-4eb7-81a8-4a1f1af1ea46"},"vehicle_type_id":"4","last_reported":1729527044,"current_range_meters":28800,"station_id":"ce4bh392rcd13ifvqdl0","pricing_plan_id":"cebpf4jnsgd1na2vs0mg"},{"bike_id":"7adf842b-4b8c-4356-a23f-1be0cbaf4d21","system_id":"levelo_inurba_marseille","lat":43.2319,"lon":5.35549,"is_reserved":false,"is_disabled":false,"rental_uris":{"android":"levelo://app?vid=7adf842b-4b8c-4356-a23f-1be0cbaf4d21","ios":"levelo://app?vid=7adf842b-4b8c-4356-a23f-1be0cbaf4d21"},"vehicle_type_id":"4","last_reported":1729527044,"current_range_meters":15200,"station_id":"ce4bhu92rcd13ifvqi70","pricing_plan_id":"cebpf4jnsgd1na2vs0mg"},{"bike_id":"5878ac2d-e259-4e32-a9e6-e16ca4ac7334","system_id":"levelo_inurba_marseille","lat":43.28156,"lon":5.42648,"is_reserved":false,"is_disabled":false,"rental_uris":{"android":"levelo://app?vid=5878ac2d-e259-4e32-a9e6-e16ca4ac7334","ios":"levelo://app?vid=5878ac2d-e259-4e32-a9e6-e16ca4ac7334"},"vehicle_type_id":"4","last_reported":1729527044,"current_range_meters":20400,"station_id":"ce4bhnh2rcd13ifvqgug","pricing_plan_id":"cebpf4jnsgd1na2vs0mg"},{"bike_id":"1250ad4c-0516-44c8-a076-8d3124d6f868","system_id":"levelo_inurba_marseille","lat":43.27053,"lon":5.40263,"is_reserved":false,"is_disabled":false,"rental_uris":{"android":"levelo://app?vid=1250ad4c-0516-44c8-a076-8d3124d6f868","ios":"levelo://app?vid=1250ad4c-0516-44c8-a076-8d3124d6f868"},"vehicle_type_id":"4","last_reported":1729527044,"current_range_meters":22400,"station_id":"ce4bhk92rcd13ifvqgc0","pricing_plan_id":"cebpf4jnsgd1na2vs0mg"},{"bike_id":"4ac0ff5c-ee66-41d4-befb-6ecbfb08dddb","system_id":"levelo_inurba_marseille","lat":43.28457,"lon":5.35889,"is_reserved":false,"is_disabled":false,"rental_uris":{"android":"levelo://app?vid=4ac0ff5c-ee66-41d4-befb-6ecbfb08dddb","ios":"levelo://app?vid=4ac0ff5c-ee66-41d4-befb-6ecbfb08dddb"},"vehicle_type_id":"4","last_reported":1729527044,"current_range_meters":22400,"station_id":"ce4bhah2rcd13ifvqei0","pricing_plan_id":"cebpf4jnsgd1na2vs0mg"},{"bike_id":"c8eb936a-e31c-408c-9241-9ba78ae33b85","system_id":"levelo_inurba_marseille","lat":43.29195,"lon":5.35802,"is_reserved":false,"is_disabled":false,"rental_uris":{"android":"levelo://app?vid=c8eb936a-e31c-408c-9241-9ba78ae33b85","ios":"levelo://app?vid=c8eb936a-e31c-408c-9241-9ba78ae33b85"},"vehicle_type_id":"4","last_reported":1729527044,"current_range_meters":20400,"station_id":"ce4bhb12rcd13ifvqel0","pricing_plan_id":"cebpf4jnsgd1na2vs0mg"},{"bike_id":"a0ff7283-0988-4ce5-b3e0-ffffde9e493a","system_id":"levelo_inurba_marseille","lat":43.29576,"lon":5.3674,"is_reserved":false,"is_disabled":false,"rental_uris":{"android":"levelo://app?vid=a0ff7283-0988-4ce5-b3e0-ffffde9e493a","ios":"levelo://app?vid=a0ff7283-0988-4ce5-b3e0-ffffde9e493a"},"vehicle_type_id":"4","last_reported":1729527044,"current_range_meters":14000,"station_id":"ce4bgph2rcd13ifvqc2g","pricing_plan_id":"cebpf4jnsgd1na2vs0mg"},{"bike_id":"648579de-7adb-48b1-87ec-ca54a905f07a","system_id":"levelo_inurba_marseille","lat":43.27904,"lon":5.38014,"is_reserved":false,"is_disabled":false,"rental_uris":{"android":"levelo://app?vid=648579de-7adb-48b1-87ec-ca54a905f07a","ios":"levelo://app?vid=648579de-7adb-48b1-87ec-ca54a905f07a"},"vehicle_type_id":"4","last_reported":1729527044,"current_range_meters":5600,"station_id":"ce4bhf92rcd13ifvqf50","pricing_plan_id":"cebpf4jnsgd1na2vs0mg"},{"bike_id":"8ccac13e-2d17-4ec0-b2b5-9452d943ce86","system_id":"levelo_inurba_marseille","lat":43.28152,"lon":5.42648,"is_reserved":false,"is_disabled":false,"rental_uris":{"android":"levelo://app?vid=8ccac13e-2d17-4ec0-b2b5-9452d943ce86","ios":"levelo://app?vid=8ccac13e-2d17-4ec0-b2b5-9452d943ce86"},"vehicle_type_id":"4","last_reported":1729527044,"current_range_meters":6000,"station_id":"ce4bhnh2rcd13ifvqgug","pricing_plan_id":"cebpf4jnsgd1na2vs0mg"},{"bike_id":"1b72abe6-5436-4aa2-9df9-ebbc35273047","system_id":"levelo_inurba_marseille","lat":43.23178,"lon":5.39988,"is_reserved":false,"is_disabled":false,"rental_uris":{"android":"levelo://app?vid=1b72abe6-5436-4aa2-9df9-ebbc35273047","ios":"levelo://app?vid=1b72abe6-5436-4aa2-9df9-ebbc35273047"},"vehicle_type_id":"4","last_reported":1729527044,"current_range_meters":17600,"station_id":"ce4bhn12rcd13ifvqgqg","pricing_plan_id":"cebpf4jnsgd1na2vs0mg"},{"bike_id":"6941b4f2-cd5f-43e0-ac43-5eb0301d5ec6","system_id":"levelo_inurba_marseille","lat":43.31069,"lon":5.38353,"is_reserved":false,"is_disabled":false,"rental_uris":{"android":"levelo://app?vid=6941b4f2-cd5f-43e0-ac43-5eb0301d5ec6","ios":"levelo://app?vid=6941b4f2-cd5f-43e0-ac43-5eb0301d5ec6"},"vehicle_type_id":"4","last_reported":1729527044,"current_range_meters":19600,"station_id":"ce4bgv92rcd13ifvqcr0","pricing_plan_id":"cebpf4jnsgd1na2vs0mg"},{"bike_id":"c3945b60-e38d-4106-8f18-92c7f436cc4f","system_id":"levelo_inurba_marseille","lat":43.33757,"lon":5.37448,"is_reserved":false,"is_disabled":false,"rental_uris":{"android":"levelo://app?vid=c3945b60-e38d-4106-8f18-92c7f436cc4f","ios":"levelo://app?vid=c3945b60-e38d-4106-8f18-92c7f436cc4f"},"vehicle_type_id":"4","last_reported":1729527044,"current_range_meters":35600,"station_id":"","pricing_plan_id":"cebpf4jnsgd1na2vs0mg"},{"bike_id":"324ad3b0-2ced-48ec-b2e0-e5019c5244a9","system_id":"levelo_inurba_marseille","lat":43.28461,"lon":5.35886,"is_reserved":false,"is_disabled":false,"rental_uris":{"android":"levelo://app?vid=324ad3b0-2ced-48ec-b2e0-e5019c5244a9","ios":"levelo://app?vid=324ad3b0-2ced-48ec-b2e0-e5019c5244a9"},"vehicle_type_id":"4","last_reported":1729527044,"current_range_meters":28800,"station_id":"ce4bhah2rcd13ifvqei0","pricing_plan_id":"cebpf4jnsgd1na2vs0mg"},{"bike_id":"de1ff86d-3061-40a1-be1e-8be446e6115e","system_id":"levelo_inurba_marseille","lat":43.29592,"lon":5.38165,"is_reserved":false,"is_disabled":false,"rental_uris":{"android":"levelo://app?vid=de1ff86d-3061-40a1-be1e-8be446e6115e","ios":"levelo://app?vid=de1ff86d-3061-40a1-be1e-8be446e6115e"},"vehicle_type_id":"4","last_reported":1729527044,"current_range_meters":19200,"station_id":"ce4bgl12rcd13ifvqbo0","pricing_plan_id":"cebpf4jnsgd1na2vs0mg"},{"bike_id":"3cb6d853-d34a-4728-aa02-160b45e8b87a","system_id":"levelo_inurba_marseille","lat":43.27943,"lon":5.41055,"is_reserved":false,"is_disabled":false,"rental_uris":{"android":"levelo://app?vid=3cb6d853-d34a-4728-aa02-160b45e8b87a","ios":"levelo://app?vid=3cb6d853-d34a-4728-aa02-160b45e8b87a"},"vehicle_type_id":"4","last_reported":1729527044,"current_range_meters":15200,"station_id":"ce4bhnp2rcd13ifvqh0g","pricing_plan_id":"cebpf4jnsgd1na2vs0mg"},{"bike_id":"f97e407b-7172-4959-904b-3b1a22abb1bd","system_id":"levelo_inurba_marseille","lat":43.31117,"lon":5.37772,"is_reserved":false,"is_disabled":false,"rental_uris":{"android":"levelo://app?vid=f97e407b-7172-4959-904b-3b1a22abb1bd","ios":"levelo://app?vid=f97e407b-7172-4959-904b-3b1a22abb1bd"},"vehicle_type_id":"4","last_reported":1729527044,"current_range_meters":8800,"station_id":"ce4bgt92rcd13ifvqcg0","pricing_plan_id":"cebpf4jnsgd1na2vs0mg"},{"bike_id":"1fa65f43-6399-4a5b-8eb5-1d84aa887833","system_id":"levelo_inurba_marseille","lat":43.29888,"lon":5.389,"is_reserved":false,"is_disabled":false,"rental_uris":{"android":"levelo://app?vid=1fa65f43-6399-4a5b-8eb5-1d84aa887833","ios":"levelo://app?vid=1fa65f43-6399-4a5b-8eb5-1d84aa887833"},"vehicle_type_id":"4","last_reported":1729527044,"current_range_meters":11200,"station_id":"ce4bh392rcd13ifvqdl0","pricing_plan_id":"cebpf4jnsgd1na2vs0mg"},{"bike_id":"752a3df8-d3e4-4e31-b1c3-9775190d8e61","system_id":"levelo_inurba_marseille","lat":43.27372,"lon":5.36261,"is_reserved":false,"is_disabled":false,"rental_uris":{"android":"levelo://app?vid=752a3df8-d3e4-4e31-b1c3-9775190d8e61","ios":"levelo://app?vid=752a3df8-d3e4-4e31-b1c3-9775190d8e61"},"vehicle_type_id":"4","last_reported":1729527044,"current_range_meters":20800,"station_id":"ce4bhbh2rcd13ifvqeo0","pricing_plan_id":"cebpf4jnsgd1na2vs0mg"},{"bike_id":"67ac4a66-57f4-4591-9c2c-75822748057f","system_id":"levelo_inurba_marseille","lat":43.23181,"lon":5.39984,"is_reserved":false,"is_disabled":false,"rental_uris":{"android":"levelo://app?vid=67ac4a66-57f4-4591-9c2c-75822748057f","ios":"levelo://app?vid=67ac4a66-57f4-4591-9c2c-75822748057f"},"vehicle_type_id":"4","last_reported":1729527044,"current_range_meters":32800,"station_id":"ce4bhn12rcd13ifvqgqg","pricing_plan_id":"cebpf4jnsgd1na2vs0mg"},{"bike_id":"03b3d582-3f09-46ab-aa1d-0d3cab7c3ef0","system_id":"levelo_inurba_marseille","lat":43.29868,"lon":5.39742,"is_reserved":false,"is_disabled":false,"rental_uris":{"android":"levelo://app?vid=03b3d582-3f09-46ab-aa1d-0d3cab7c3ef0","ios":"levelo://app?vid=03b3d582-3f09-46ab-aa1d-0d3cab7c3ef0"},"vehicle_type_id":"4","last_reported":1729527044,"current_range_meters":23200,"station_id":"ce4bh0h2rcd13ifvqd50","pricing_plan_id":"cebpf4jnsgd1na2vs0mg"},{"bike_id":"8e6e2140-9018-4bfb-9d04-7fbfa5dde3a5","system_id":"levelo_inurba_marseille","lat":43.32105,"lon":5.36775,"is_reserved":false,"is_disabled":false,"rental_uris":{"android":"levelo://app?vid=8e6e2140-9018-4bfb-9d04-7fbfa5dde3a5","ios":"levelo://app?vid=8e6e2140-9018-4bfb-9d04-7fbfa5dde3a5"},"vehicle_type_id":"4","last_reported":1729527044,"current_range_meters":36400,"station_id":"ce4bhrh2rcd13ifvqhug","pricing_plan_id":"cebpf4jnsgd1na2vs0mg"},{"bike_id":"80b51f89-516b-461b-a0ef-cf6b1d188f16","system_id":"levelo_inurba_marseille","lat":43.24179,"lon":5.3973,"is_reserved":false,"is_disabled":false,"rental_uris":{"android":"levelo://app?vid=80b51f89-516b-461b-a0ef-cf6b1d188f16","ios":"levelo://app?vid=80b51f89-516b-461b-a0ef-cf6b1d188f16"},"vehicle_type_id":"4","last_reported":1729527044,"current_range_meters":36000,"station_id":"ce4bhn12rcd13ifvqgpg","pricing_plan_id":"cebpf4jnsgd1na2vs0mg"},{"bike_id":"7f8408b7-3649-494f-aae8-09a28063d31d","system_id":"levelo_inurba_marseille","lat":43.27372,"lon":5.36257,"is_reserved":false,"is_disabled":false,"rental_uris":{"android":"levelo://app?vid=7f8408b7-3649-494f-aae8-09a28063d31d","ios":"levelo://app?vid=7f8408b7-3649-494f-aae8-09a28063d31d"},"vehicle_type_id":"4","last_reported":1729527044,"current_range_meters":36000,"station_id":"ce4bhbh2rcd13ifvqeo0","pricing_plan_id":"cebpf4jnsgd1na2vs0mg"},{"bike_id":"e6c7954c-3ca7-433d-8b98-c48894f77018","system_id":"levelo_inurba_marseille","lat":43.3088,"lon":5.39658,"is_reserved":false,"is_disabled":false,"rental_uris":{"android":"levelo://app?vid=e6c7954c-3ca7-433d-8b98-c48894f77018","ios":"levelo://app?vid=e6c7954c-3ca7-433d-8b98-c48894f77018"},"vehicle_type_id":"4","last_reported":1729527044,"current_range_meters":9200,"station_id":"ce4bh012rcd13ifvqcv0","pricing_plan_id":"cebpf4jnsgd1na2vs0mg"},{"bike_id":"88df4261-bac0-4800-8e08-007d3003bf23","system_id":"levelo_inurba_marseille","lat":43.269398,"lon":5.402562,"is_reserved":false,"is_disabled":false,"rental_uris":{"android":"levelo://app?vid=88df4261-bac0-4800-8e08-007d3003bf23","ios":"levelo://app?vid=88df4261-bac0-4800-8e08-007d3003bf23"},"vehicle_type_id":"4","last_reported":1729527044,"current_range_meters":20400,"station_id":"cjm6bp8fraef2m0cb0m0","pricing_plan_id":"cebpf4jnsgd1na2vs0mg"},{"bike_id":"93b134c1-f5b4-467b-829d-db83d1ce0ea5","system_id":"levelo_inurba_marseille","lat":43.2319,"lon":5.35546,"is_reserved":false,"is_disabled":false,"rental_uris":{"android":"levelo://app?vid=93b134c1-f5b4-467b-829d-db83d1ce0ea5","ios":"levelo://app?vid=93b134c1-f5b4-467b-829d-db83d1ce0ea5"},"vehicle_type_id":"4","last_reported":1729527044,"current_range_meters":36800,"station_id":"ce4bhu92rcd13ifvqi70","pricing_plan_id":"cebpf4jnsgd1na2vs0mg"},{"bike_id":"d63637cf-b16b-4325-b30a-582fda6eb3c4","system_id":"levelo_inurba_marseille","lat":43.28419,"lon":5.34988,"is_reserved":false,"is_disabled":false,"rental_uris":{"android":"levelo://app?vid=d63637cf-b16b-4325-b30a-582fda6eb3c4","ios":"levelo://app?vid=d63637cf-b16b-4325-b30a-582fda6eb3c4"},"vehicle_type_id":"4","last_reported":1729527044,"current_range_meters":8000,"station_id":"ce4bhbh2rcd13ifvqepg","pricing_plan_id":"cebpf4jnsgd1na2vs0mg"},{"bike_id":"052cf3f4-1f43-4250-bc67-2372def116a5","system_id":"levelo_inurba_marseille","lat":43.28417,"lon":5.34988,"is_reserved":false,"is_disabled":false,"rental_uris":{"android":"levelo://app?vid=052cf3f4-1f43-4250-bc67-2372def116a5","ios":"levelo://app?vid=052cf3f4-1f43-4250-bc67-2372def116a5"},"vehicle_type_id":"4","last_reported":1729527044,"current_range_meters":39200,"station_id":"ce4bhbh2rcd13ifvqepg","pricing_plan_id":"cebpf4jnsgd1na2vs0mg"},{"bike_id":"815dd284-1bd2-4bb9-992a-b2116e2485bc","system_id":"levelo_inurba_marseille","lat":43.32899,"lon":5.36366,"is_reserved":false,"is_disabled":false,"rental_uris":{"android":"levelo://app?vid=815dd284-1bd2-4bb9-992a-b2116e2485bc","ios":"levelo://app?vid=815dd284-1bd2-4bb9-992a-b2116e2485bc"},"vehicle_type_id":"4","last_reported":1729527044,"current_range_meters":37600,"station_id":"","pricing_plan_id":"cebpf4jnsgd1na2vs0mg"},{"bike_id":"2916617a-ce17-4863-88e4-4503b60e8d32","system_id":"levelo_inurba_marseille","lat":43.27416,"lon":5.39402,"is_reserved":false,"is_disabled":false,"rental_uris":{"android":"levelo://app?vid=2916617a-ce17-4863-88e4-4503b60e8d32","ios":"levelo://app?vid=2916617a-ce17-4863-88e4-4503b60e8d32"},"vehicle_type_id":"4","last_reported":1729527044,"current_range_meters":12000,"station_id":"ce4bhdp2rcd13ifvqf20","pricing_plan_id":"cebpf4jnsgd1na2vs0mg"},{"bike_id":"e53c7e5b-3d06-42d3-9eb5-ea36506d84c1","system_id":"levelo_inurba_marseille","lat":43.255,"lon":5.37655,"is_reserved":false,"is_disabled":false,"rental_uris":{"android":"levelo://app?vid=e53c7e5b-3d06-42d3-9eb5-ea36506d84c1","ios":"levelo://app?vid=e53c7e5b-3d06-42d3-9eb5-ea36506d84c1"},"vehicle_type_id":"4","last_reported":1729527044,"current_range_meters":28400,"station_id":"ce4bhh12rcd13ifvqff0","pricing_plan_id":"cebpf4jnsgd1na2vs0mg"},{"bike_id":"d8ec9578-3eea-4b16-8d5d-148f7299cc42","system_id":"levelo_inurba_marseille","lat":43.27494,"lon":5.42451,"is_reserved":false,"is_disabled":false,"rental_uris":{"android":"levelo://app?vid=d8ec9578-3eea-4b16-8d5d-148f7299cc42","ios":"levelo://app?vid=d8ec9578-3eea-4b16-8d5d-148f7299cc42"},"vehicle_type_id":"4","last_reported":1729527044,"current_range_meters":35600,"station_id":"ce4bhn92rcd13ifvqgrg","pricing_plan_id":"cebpf4jnsgd1na2vs0mg"},{"bike_id":"5d82eb44-49d0-477f-8167-d5700ec00be5","system_id":"levelo_inurba_marseille","lat":43.27373,"lon":5.36252,"is_reserved":false,"is_disabled":false,"rental_uris":{"android":"levelo://app?vid=5d82eb44-49d0-477f-8167-d5700ec00be5","ios":"levelo://app?vid=5d82eb44-49d0-477f-8167-d5700ec00be5"},"vehicle_type_id":"4","last_reported":1729527044,"current_range_meters":16400,"station_id":"ce4bhbh2rcd13ifvqeo0","pricing_plan_id":"cebpf4jnsgd1na2vs0mg"},{"bike_id":"09cb8207-c804-47c7-9699-59cc1a14b677","system_id":"levelo_inurba_marseille","lat":43.23061,"lon":5.3549,"is_reserved":false,"is_disabled":false,"rental_uris":{"android":"levelo://app?vid=09cb8207-c804-47c7-9699-59cc1a14b677","ios":"levelo://app?vid=09cb8207-c804-47c7-9699-59cc1a14b677"},"vehicle_type_id":"4","last_reported":1729527044,"current_range_meters":36800,"station_id":"cpo3342slgdg3j2ifvpg","pricing_plan_id":"cebpf4jnsgd1na2vs0mg"},{"bike_id":"407773a7-bafd-4994-a1fd-8a73c9328a48","system_id":"levelo_inurba_marseille","lat":43.28399,"lon":5.34997,"is_reserved":false,"is_disabled":false,"rental_uris":{"android":"levelo://app?vid=407773a7-bafd-4994-a1fd-8a73c9328a48","ios":"levelo://app?vid=407773a7-bafd-4994-a1fd-8a73c9328a48"},"vehicle_type_id":"4","last_reported":1729527044,"current_range_meters":20800,"station_id":"ce4bhbh2rcd13ifvqepg","pricing_plan_id":"cebpf4jnsgd1na2vs0mg"},{"bike_id":"09ce582e-e647-4acf-ba69-fef589f4e655","system_id":"levelo_inurba_marseille","lat":43.25574,"lon":5.38242,"is_reserved":false,"is_disabled":false,"rental_uris":{"android":"levelo://app?vid=09ce582e-e647-4acf-ba69-fef589f4e655","ios":"levelo://app?vid=09ce582e-e647-4acf-ba69-fef589f4e655"},"vehicle_type_id":"4","last_reported":1729527044,"current_range_meters":8000,"station_id":"ce4bhih2rcd13ifvqfs0","pricing_plan_id":"cebpf4jnsgd1na2vs0mg"},{"bike_id":"d6056c03-fd9a-4318-ab01-54fcb42b30ff","system_id":"levelo_inurba_marseille","lat":43.27606,"lon":5.36117,"is_reserved":false,"is_disabled":false,"rental_uris":{"android":"levelo://app?vid=d6056c03-fd9a-4318-ab01-54fcb42b30ff","ios":"levelo://app?vid=d6056c03-fd9a-4318-ab01-54fcb42b30ff"},"vehicle_type_id":"4","last_reported":1729527044,"current_range_meters":24000,"station_id":"ce4bgj92rcd13ifvqbe0","pricing_plan_id":"cebpf4jnsgd1na2vs0mg"},{"bike_id":"ae3fcb04-be9a-4eda-86cc-c69683243e47","system_id":"levelo_inurba_marseille","lat":43.23959,"lon":5.36633,"is_reserved":false,"is_disabled":false,"rental_uris":{"android":"levelo://app?vid=ae3fcb04-be9a-4eda-86cc-c69683243e47","ios":"levelo://app?vid=ae3fcb04-be9a-4eda-86cc-c69683243e47"},"vehicle_type_id":"4","last_reported":1729527044,"current_range_meters":36000,"station_id":"ce4bhi12rcd13ifvqfp0","pricing_plan_id":"cebpf4jnsgd1na2vs0mg"},{"bike_id":"e01af3fb-a46a-472a-a9ce-4d0d6e75d0db","system_id":"levelo_inurba_marseille","lat":43.2846,"lon":5.35883,"is_reserved":false,"is_disabled":false,"rental_uris":{"android":"levelo://app?vid=e01af3fb-a46a-472a-a9ce-4d0d6e75d0db","ios":"levelo://app?vid=e01af3fb-a46a-472a-a9ce-4d0d6e75d0db"},"vehicle_type_id":"4","last_reported":1729527044,"current_range_meters":39200,"station_id":"ce4bhah2rcd13ifvqei0","pricing_plan_id":"cebpf4jnsgd1na2vs0mg"},{"bike_id":"5a8044cc-c96f-4fb3-82de-b86cdef2d358","system_id":"levelo_inurba_marseille","lat":43.28279,"lon":5.39048,"is_reserved":false,"is_disabled":false,"rental_uris":{"android":"levelo://app?vid=5a8044cc-c96f-4fb3-82de-b86cdef2d358","ios":"levelo://app?vid=5a8044cc-c96f-4fb3-82de-b86cdef2d358"},"vehicle_type_id":"4","last_reported":1729527044,"current_range_meters":26800,"station_id":"","pricing_plan_id":"cebpf4jnsgd1na2vs0mg"},{"bike_id":"268e89ba-5da1-4100-8d82-a515710fe92f","system_id":"levelo_inurba_marseille","lat":43.33025,"lon":5.39039,"is_reserved":false,"is_disabled":false,"rental_uris":{"android":"levelo://app?vid=268e89ba-5da1-4100-8d82-a515710fe92f","ios":"levelo://app?vid=268e89ba-5da1-4100-8d82-a515710fe92f"},"vehicle_type_id":"4","last_reported":1729527044,"current_range_meters":3200,"station_id":"ce4bhr92rcd13ifvqhrg","pricing_plan_id":"cebpf4jnsgd1na2vs0mg"},{"bike_id":"46d1f027-259d-4f6e-9be3-a16cc3a2c169","system_id":"levelo_inurba_marseille","lat":43.305267,"lon":5.373117,"is_reserved":false,"is_disabled":false,"rental_uris":{"android":"levelo://app?vid=46d1f027-259d-4f6e-9be3-a16cc3a2c169","ios":"levelo://app?vid=46d1f027-259d-4f6e-9be3-a16cc3a2c169"},"vehicle_type_id":"4","last_reported":1729527044,"current_range_meters":30400,"station_id":"cki0cbj6b192h4jlfktg","pricing_plan_id":"cebpf4jnsgd1na2vs0mg"},{"bike_id":"505c2ed0-c748-4bc4-9512-95a207478e5f","system_id":"levelo_inurba_marseille","lat":43.27371,"lon":5.36245,"is_reserved":false,"is_disabled":false,"rental_uris":{"android":"levelo://app?vid=505c2ed0-c748-4bc4-9512-95a207478e5f","ios":"levelo://app?vid=505c2ed0-c748-4bc4-9512-95a207478e5f"},"vehicle_type_id":"4","last_reported":1729527044,"current_range_meters":38800,"station_id":"ce4bhbh2rcd13ifvqeo0","pricing_plan_id":"cebpf4jnsgd1na2vs0mg"},{"bike_id":"d464c206-3e2b-4dfe-96bc-fdfdb23f53f0","system_id":"levelo_inurba_marseille","lat":43.29041,"lon":5.35918,"is_reserved":false,"is_disabled":false,"rental_uris":{"android":"levelo://app?vid=d464c206-3e2b-4dfe-96bc-fdfdb23f53f0","ios":"levelo://app?vid=d464c206-3e2b-4dfe-96bc-fdfdb23f53f0"},"vehicle_type_id":"4","last_reported":1729527044,"current_range_meters":37600,"station_id":"ce4bha92rcd13ifvqeg0","pricing_plan_id":"cebpf4jnsgd1na2vs0mg"},{"bike_id":"6cf2b6be-1c8e-4ba5-9c28-acc120ee1a7c","system_id":"levelo_inurba_marseille","lat":43.28895,"lon":5.360714,"is_reserved":false,"is_disabled":false,"rental_uris":{"android":"levelo://app?vid=6cf2b6be-1c8e-4ba5-9c28-acc120ee1a7c","ios":"levelo://app?vid=6cf2b6be-1c8e-4ba5-9c28-acc120ee1a7c"},"vehicle_type_id":"4","last_reported":1729527044,"current_range_meters":23200,"station_id":"ce4bhb12rcd13ifvqem0","pricing_plan_id":"cebpf4jnsgd1na2vs0mg"},{"bike_id":"54b22530-90c5-41af-8a09-c0f181abe19a","system_id":"levelo_inurba_marseille","lat":43.264989,"lon":5.395409,"is_reserved":false,"is_disabled":false,"rental_uris":{"android":"levelo://app?vid=54b22530-90c5-41af-8a09-c0f181abe19a","ios":"levelo://app?vid=54b22530-90c5-41af-8a09-c0f181abe19a"},"vehicle_type_id":"4","last_reported":1729527044,"current_range_meters":5600,"station_id":"ce4bhnh2rcd13ifvqgtg","pricing_plan_id":"cebpf4jnsgd1na2vs0mg"},{"bike_id":"dc1bee65-e82b-420b-9f1c-3b158095b308","system_id":"levelo_inurba_marseille","lat":43.24167,"lon":5.36392,"is_reserved":false,"is_disabled":false,"rental_uris":{"android":"levelo://app?vid=dc1bee65-e82b-420b-9f1c-3b158095b308","ios":"levelo://app?vid=dc1bee65-e82b-420b-9f1c-3b158095b308"},"vehicle_type_id":"4","last_reported":1729527044,"current_range_meters":18800,"station_id":"cpo36qri1sfpv3e86is0","pricing_plan_id":"cebpf4jnsgd1na2vs0mg"},{"bike_id":"3bff3b13-2f25-40da-b332-855b9069a2c7","system_id":"levelo_inurba_marseille","lat":43.3043,"lon":5.38893,"is_reserved":false,"is_disabled":false,"rental_uris":{"android":"levelo://app?vid=3bff3b13-2f25-40da-b332-855b9069a2c7","ios":"levelo://app?vid=3bff3b13-2f25-40da-b332-855b9069a2c7"},"vehicle_type_id":"4","last_reported":1729527044,"current_range_meters":5600,"station_id":"ce4bgk12rcd13ifvqbi0","pricing_plan_id":"cebpf4jnsgd1na2vs0mg"},{"bike_id":"68715265-6161-4020-9a34-18e563cb6e80","system_id":"levelo_inurba_marseille","lat":43.28152,"lon":5.42649,"is_reserved":false,"is_disabled":false,"rental_uris":{"android":"levelo://app?vid=68715265-6161-4020-9a34-18e563cb6e80","ios":"levelo://app?vid=68715265-6161-4020-9a34-18e563cb6e80"},"vehicle_type_id":"4","last_reported":1729527044,"current_range_meters":25600,"station_id":"ce4bhnh2rcd13ifvqgug","pricing_plan_id":"cebpf4jnsgd1na2vs0mg"},{"bike_id":"6ba8d470-cbab-4026-b29c-1f446d66d6e6","system_id":"levelo_inurba_marseille","lat":43.29507,"lon":5.38186,"is_reserved":false,"is_disabled":false,"rental_uris":{"android":"levelo://app?vid=6ba8d470-cbab-4026-b29c-1f446d66d6e6","ios":"levelo://app?vid=6ba8d470-cbab-4026-b29c-1f446d66d6e6"},"vehicle_type_id":"4","last_reported":1729527044,"current_range_meters":28000,"station_id":"","pricing_plan_id":"cebpf4jnsgd1na2vs0mg"},{"bike_id":"1a12e159-ac8f-4167-aa94-25ab4223d8cc","system_id":"levelo_inurba_marseille","lat":43.27398,"lon":5.41954,"is_reserved":false,"is_disabled":false,"rental_uris":{"android":"levelo://app?vid=1a12e159-ac8f-4167-aa94-25ab4223d8cc","ios":"levelo://app?vid=1a12e159-ac8f-4167-aa94-25ab4223d8cc"},"vehicle_type_id":"4","last_reported":1729527044,"current_range_meters":1600,"station_id":"","pricing_plan_id":"cebpf4jnsgd1na2vs0mg"},{"bike_id":"4b321f9c-d240-4200-bb60-7b70406f810a","system_id":"levelo_inurba_marseille","lat":43.25084,"lon":5.39526,"is_reserved":false,"is_disabled":false,"rental_uris":{"android":"levelo://app?vid=4b321f9c-d240-4200-bb60-7b70406f810a","ios":"levelo://app?vid=4b321f9c-d240-4200-bb60-7b70406f810a"},"vehicle_type_id":"4","last_reported":1729527044,"current_range_meters":17200,"station_id":"ce4bhm12rcd13ifvqgkg","pricing_plan_id":"cebpf4jnsgd1na2vs0mg"},{"bike_id":"d4d04251-444c-4026-8f2b-82698ac17eab","system_id":"levelo_inurba_marseille","lat":43.26939,"lon":5.40251,"is_reserved":false,"is_disabled":false,"rental_uris":{"android":"levelo://app?vid=d4d04251-444c-4026-8f2b-82698ac17eab","ios":"levelo://app?vid=d4d04251-444c-4026-8f2b-82698ac17eab"},"vehicle_type_id":"4","last_reported":1729527044,"current_range_meters":20800,"station_id":"cjm6bp8fraef2m0cb0m0","pricing_plan_id":"cebpf4jnsgd1na2vs0mg"},{"bike_id":"71c25a9d-d62a-4728-9598-92f1a37a4350","system_id":"levelo_inurba_marseille","lat":43.26566,"lon":5.39013,"is_reserved":false,"is_disabled":false,"rental_uris":{"android":"levelo://app?vid=71c25a9d-d62a-4728-9598-92f1a37a4350","ios":"levelo://app?vid=71c25a9d-d62a-4728-9598-92f1a37a4350"},"vehicle_type_id":"4","last_reported":1729527044,"current_range_meters":33200,"station_id":"ce4bhe12rcd13ifvqf30","pricing_plan_id":"cebpf4jnsgd1na2vs0mg"},{"bike_id":"ea4fc42c-f649-48b6-9895-3b26e16b9d90","system_id":"levelo_inurba_marseille","lat":43.28416,"lon":5.34986,"is_reserved":false,"is_disabled":false,"rental_uris":{"android":"levelo://app?vid=ea4fc42c-f649-48b6-9895-3b26e16b9d90","ios":"levelo://app?vid=ea4fc42c-f649-48b6-9895-3b26e16b9d90"},"vehicle_type_id":"4","last_reported":1729527044,"current_range_meters":27200,"station_id":"ce4bhbh2rcd13ifvqepg","pricing_plan_id":"cebpf4jnsgd1na2vs0mg"},{"bike_id":"8cf25936-2256-420f-98b0-28fd5567f2cc","system_id":"levelo_inurba_marseille","lat":43.27172,"lon":5.40998,"is_reserved":false,"is_disabled":false,"rental_uris":{"android":"levelo://app?vid=8cf25936-2256-420f-98b0-28fd5567f2cc","ios":"levelo://app?vid=8cf25936-2256-420f-98b0-28fd5567f2cc"},"vehicle_type_id":"4","last_reported":1729527044,"current_range_meters":9600,"station_id":"ce4bhl12rcd13ifvqgf0","pricing_plan_id":"cebpf4jnsgd1na2vs0mg"},{"bike_id":"ecc86385-6e01-4507-b18f-6b1c0cb00f62","system_id":"levelo_inurba_marseille","lat":43.27809,"lon":5.40715,"is_reserved":false,"is_disabled":false,"rental_uris":{"android":"levelo://app?vid=ecc86385-6e01-4507-b18f-6b1c0cb00f62","ios":"levelo://app?vid=ecc86385-6e01-4507-b18f-6b1c0cb00f62"},"vehicle_type_id":"4","last_reported":1729527044,"current_range_meters":9600,"station_id":"ce4bhnh2rcd13ifvqgtg","pricing_plan_id":"cebpf4jnsgd1na2vs0mg"},{"bike_id":"d9bb0502-0cdb-41e4-a12e-f60308786a9a","system_id":"levelo_inurba_marseille","lat":43.28485,"lon":5.38542,"is_reserved":false,"is_disabled":false,"rental_uris":{"android":"levelo://app?vid=d9bb0502-0cdb-41e4-a12e-f60308786a9a","ios":"levelo://app?vid=d9bb0502-0cdb-41e4-a12e-f60308786a9a"},"vehicle_type_id":"4","last_reported":1729527044,"current_range_meters":35600,"station_id":"ce4bh8p2rcd13ifvqeb0","pricing_plan_id":"cebpf4jnsgd1na2vs0mg"},{"bike_id":"7c186560-49a1-4cc8-8384-50ce735a4424","system_id":"levelo_inurba_marseille","lat":43.30579,"lon":5.41313,"is_reserved":false,"is_disabled":false,"rental_uris":{"android":"levelo://app?vid=7c186560-49a1-4cc8-8384-50ce735a4424","ios":"levelo://app?vid=7c186560-49a1-4cc8-8384-50ce735a4424"},"vehicle_type_id":"4","last_reported":1729527044,"current_range_meters":9600,"station_id":"","pricing_plan_id":"cebpf4jnsgd1na2vs0mg"},{"bike_id":"40dfd9ed-9f93-4639-8a4f-7e42fb19b223","system_id":"levelo_inurba_marseille","lat":43.30878,"lon":5.39647,"is_reserved":false,"is_disabled":false,"rental_uris":{"android":"levelo://app?vid=40dfd9ed-9f93-4639-8a4f-7e42fb19b223","ios":"levelo://app?vid=40dfd9ed-9f93-4639-8a4f-7e42fb19b223"},"vehicle_type_id":"4","last_reported":1729527044,"current_range_meters":19200,"station_id":"ce4bh012rcd13ifvqcv0","pricing_plan_id":"cebpf4jnsgd1na2vs0mg"},{"bike_id":"18404c4d-f6c9-44ab-ab1b-3299e6604c6a","system_id":"levelo_inurba_marseille","lat":43.31327,"lon":5.39691,"is_reserved":false,"is_disabled":false,"rental_uris":{"android":"levelo://app?vid=18404c4d-f6c9-44ab-ab1b-3299e6604c6a","ios":"levelo://app?vid=18404c4d-f6c9-44ab-ab1b-3299e6604c6a"},"vehicle_type_id":"4","last_reported":1729527044,"current_range_meters":17600,"station_id":"ce4bgvp2rcd13ifvqcu0","pricing_plan_id":"cebpf4jnsgd1na2vs0mg"},{"bike_id":"504f0aee-f348-4069-b50d-8eb1cda3f9c3","system_id":"levelo_inurba_marseille","lat":43.30882,"lon":5.39661,"is_reserved":false,"is_disabled":false,"rental_uris":{"android":"levelo://app?vid=504f0aee-f348-4069-b50d-8eb1cda3f9c3","ios":"levelo://app?vid=504f0aee-f348-4069-b50d-8eb1cda3f9c3"},"vehicle_type_id":"4","last_reported":1729527044,"current_range_meters":2000,"station_id":"ce4bh012rcd13ifvqcv0","pricing_plan_id":"cebpf4jnsgd1na2vs0mg"},{"bike_id":"926c78b5-c75d-49f7-b847-bce505991a66","system_id":"levelo_inurba_marseille","lat":43.323408,"lon":5.406256,"is_reserved":false,"is_disabled":false,"rental_uris":{"android":"levelo://app?vid=926c78b5-c75d-49f7-b847-bce505991a66","ios":"levelo://app?vid=926c78b5-c75d-49f7-b847-bce505991a66"},"vehicle_type_id":"4","last_reported":1729527044,"current_range_meters":24400,"station_id":"ce4bhq92rcd13ifvqhjg","pricing_plan_id":"cebpf4jnsgd1na2vs0mg"},{"bike_id":"4cbcee5c-befc-4f2f-9a36-6348a5f4dca2","system_id":"levelo_inurba_marseille","lat":43.29712,"lon":5.36613,"is_reserved":false,"is_disabled":false,"rental_uris":{"android":"levelo://app?vid=4cbcee5c-befc-4f2f-9a36-6348a5f4dca2","ios":"levelo://app?vid=4cbcee5c-befc-4f2f-9a36-6348a5f4dca2"},"vehicle_type_id":"4","last_reported":1729527044,"current_range_meters":7200,"station_id":"ce4bgn12rcd13ifvqbt0","pricing_plan_id":"cebpf4jnsgd1na2vs0mg"},{"bike_id":"f6f55f72-1de4-43fe-9616-166aa83f3c58","system_id":"levelo_inurba_marseille","lat":43.28153,"lon":5.42642,"is_reserved":false,"is_disabled":false,"rental_uris":{"android":"levelo://app?vid=f6f55f72-1de4-43fe-9616-166aa83f3c58","ios":"levelo://app?vid=f6f55f72-1de4-43fe-9616-166aa83f3c58"},"vehicle_type_id":"4","last_reported":1729527044,"current_range_meters":6400,"station_id":"ce4bhnh2rcd13ifvqgug","pricing_plan_id":"cebpf4jnsgd1na2vs0mg"},{"bike_id":"4c211a16-75ce-42ac-8075-6510c1f588ac","system_id":"levelo_inurba_marseille","lat":43.2407,"lon":5.37767,"is_reserved":false,"is_disabled":false,"rental_uris":{"android":"levelo://app?vid=4c211a16-75ce-42ac-8075-6510c1f588ac","ios":"levelo://app?vid=4c211a16-75ce-42ac-8075-6510c1f588ac"},"vehicle_type_id":"4","last_reported":1729527044,"current_range_meters":3200,"station_id":"ce4bhnp2rcd13ifvqgvg","pricing_plan_id":"cebpf4jnsgd1na2vs0mg"},{"bike_id":"87d5a97c-bc9b-4586-b180-e63247ace56c","system_id":"levelo_inurba_marseille","lat":43.24179,"lon":5.39737,"is_reserved":false,"is_disabled":false,"rental_uris":{"android":"levelo://app?vid=87d5a97c-bc9b-4586-b180-e63247ace56c","ios":"levelo://app?vid=87d5a97c-bc9b-4586-b180-e63247ace56c"},"vehicle_type_id":"4","last_reported":1729527044,"current_range_meters":27200,"station_id":"ce4bhn12rcd13ifvqgpg","pricing_plan_id":"cebpf4jnsgd1na2vs0mg"},{"bike_id":"586c981b-51f6-4859-a43e-098987459617","system_id":"levelo_inurba_marseille","lat":43.23192,"lon":5.35558,"is_reserved":false,"is_disabled":false,"rental_uris":{"android":"levelo://app?vid=586c981b-51f6-4859-a43e-098987459617","ios":"levelo://app?vid=586c981b-51f6-4859-a43e-098987459617"},"vehicle_type_id":"4","last_reported":1729527044,"current_range_meters":39200,"station_id":"ce4bhu92rcd13ifvqi70","pricing_plan_id":"cebpf4jnsgd1na2vs0mg"},{"bike_id":"e868d24d-a495-4582-a68d-fd804fa4e77b","system_id":"levelo_inurba_marseille","lat":43.22927,"lon":5.35376,"is_reserved":false,"is_disabled":false,"rental_uris":{"android":"levelo://app?vid=e868d24d-a495-4582-a68d-fd804fa4e77b","ios":"levelo://app?vid=e868d24d-a495-4582-a68d-fd804fa4e77b"},"vehicle_type_id":"4","last_reported":1729527044,"current_range_meters":36000,"station_id":"cpo3532slgdg3j2ikp40","pricing_plan_id":"cebpf4jnsgd1na2vs0mg"},{"bike_id":"446372b2-f98c-4de6-b5a1-cd765b1a74a0","system_id":"levelo_inurba_marseille","lat":43.26553,"lon":5.37289,"is_reserved":false,"is_disabled":false,"rental_uris":{"android":"levelo://app?vid=446372b2-f98c-4de6-b5a1-cd765b1a74a0","ios":"levelo://app?vid=446372b2-f98c-4de6-b5a1-cd765b1a74a0"},"vehicle_type_id":"4","last_reported":1729527044,"current_range_meters":8400,"station_id":"ce4bhg12rcd13ifvqf70","pricing_plan_id":"cebpf4jnsgd1na2vs0mg"},{"bike_id":"a65bd1da-3721-4f1e-ba04-b2194587e72c","system_id":"levelo_inurba_marseille","lat":43.28152,"lon":5.42647,"is_reserved":false,"is_disabled":false,"rental_uris":{"android":"levelo://app?vid=a65bd1da-3721-4f1e-ba04-b2194587e72c","ios":"levelo://app?vid=a65bd1da-3721-4f1e-ba04-b2194587e72c"},"vehicle_type_id":"4","last_reported":1729527044,"current_range_meters":8400,"station_id":"ce4bhnh2rcd13ifvqgug","pricing_plan_id":"cebpf4jnsgd1na2vs0mg"},{"bike_id":"7e52449c-a415-46d7-a160-12971f171598","system_id":"levelo_inurba_marseille","lat":43.2768,"lon":5.38879,"is_reserved":false,"is_disabled":false,"rental_uris":{"android":"levelo://app?vid=7e52449c-a415-46d7-a160-12971f171598","ios":"levelo://app?vid=7e52449c-a415-46d7-a160-12971f171598"},"vehicle_type_id":"4","last_reported":1729527044,"current_range_meters":26800,"station_id":"ce4bhi12rcd13ifvqfo0","pricing_plan_id":"cebpf4jnsgd1na2vs0mg"},{"bike_id":"ccc06b32-d1d4-4f93-b4f5-086da0059fff","system_id":"levelo_inurba_marseille","lat":43.29967,"lon":5.38498,"is_reserved":false,"is_disabled":false,"rental_uris":{"android":"levelo://app?vid=ccc06b32-d1d4-4f93-b4f5-086da0059fff","ios":"levelo://app?vid=ccc06b32-d1d4-4f93-b4f5-086da0059fff"},"vehicle_type_id":"4","last_reported":1729527044,"current_range_meters":36800,"station_id":"ce4bgj92rcd13ifvqbd0","pricing_plan_id":"cebpf4jnsgd1na2vs0mg"},{"bike_id":"bbc0ea5c-c162-4dee-b01c-e09452812e7c","system_id":"levelo_inurba_marseille","lat":43.29188,"lon":5.35795,"is_reserved":false,"is_disabled":false,"rental_uris":{"android":"levelo://app?vid=bbc0ea5c-c162-4dee-b01c-e09452812e7c","ios":"levelo://app?vid=bbc0ea5c-c162-4dee-b01c-e09452812e7c"},"vehicle_type_id":"4","last_reported":1729527044,"current_range_meters":38000,"station_id":"ce4bhb12rcd13ifvqel0","pricing_plan_id":"cebpf4jnsgd1na2vs0mg"},{"bike_id":"d5f61984-dae9-4a48-bd8b-f7eec710348b","system_id":"levelo_inurba_marseille","lat":43.27617,"lon":5.36113,"is_reserved":false,"is_disabled":false,"rental_uris":{"android":"levelo://app?vid=d5f61984-dae9-4a48-bd8b-f7eec710348b","ios":"levelo://app?vid=d5f61984-dae9-4a48-bd8b-f7eec710348b"},"vehicle_type_id":"4","last_reported":1729527044,"current_range_meters":28800,"station_id":"ce4bgj92rcd13ifvqbe0","pricing_plan_id":"cebpf4jnsgd1na2vs0mg"},{"bike_id":"3923580c-7109-48e1-99e0-8e42cfc86945","system_id":"levelo_inurba_marseille","lat":43.3108,"lon":5.42429,"is_reserved":false,"is_disabled":false,"rental_uris":{"android":"levelo://app?vid=3923580c-7109-48e1-99e0-8e42cfc86945","ios":"levelo://app?vid=3923580c-7109-48e1-99e0-8e42cfc86945"},"vehicle_type_id":"4","last_reported":1729527044,"current_range_meters":14800,"station_id":"ce4bhp92rcd13ifvqhag","pricing_plan_id":"cebpf4jnsgd1na2vs0mg"},{"bike_id":"cdbac84e-ae52-4307-8b90-5e184f952607","system_id":"levelo_inurba_marseille","lat":43.28482,"lon":5.38416,"is_reserved":false,"is_disabled":false,"rental_uris":{"android":"levelo://app?vid=cdbac84e-ae52-4307-8b90-5e184f952607","ios":"levelo://app?vid=cdbac84e-ae52-4307-8b90-5e184f952607"},"vehicle_type_id":"4","last_reported":1729527044,"current_range_meters":0,"station_id":"ce4bh512rcd13ifvqe3g","pricing_plan_id":"cebpf4jnsgd1na2vs0mg"},{"bike_id":"c5d7ec4d-ce82-4875-8710-4b1ddcbf4cc8","system_id":"levelo_inurba_marseille","lat":43.26942,"lon":5.40252,"is_reserved":false,"is_disabled":false,"rental_uris":{"android":"levelo://app?vid=c5d7ec4d-ce82-4875-8710-4b1ddcbf4cc8","ios":"levelo://app?vid=c5d7ec4d-ce82-4875-8710-4b1ddcbf4cc8"},"vehicle_type_id":"4","last_reported":1729527044,"current_range_meters":36000,"station_id":"cjm6bp8fraef2m0cb0m0","pricing_plan_id":"cebpf4jnsgd1na2vs0mg"},{"bike_id":"b502c8c0-010a-404e-b403-c4bce07782f8","system_id":"levelo_inurba_marseille","lat":43.24165,"lon":5.36397,"is_reserved":false,"is_disabled":false,"rental_uris":{"android":"levelo://app?vid=b502c8c0-010a-404e-b403-c4bce07782f8","ios":"levelo://app?vid=b502c8c0-010a-404e-b403-c4bce07782f8"},"vehicle_type_id":"4","last_reported":1729527044,"current_range_meters":6400,"station_id":"cpo36qri1sfpv3e86is0","pricing_plan_id":"cebpf4jnsgd1na2vs0mg"},{"bike_id":"690c0104-e813-4c1a-a1c6-4de19e980f84","system_id":"levelo_inurba_marseille","lat":43.28408,"lon":5.34994,"is_reserved":false,"is_disabled":false,"rental_uris":{"android":"levelo://app?vid=690c0104-e813-4c1a-a1c6-4de19e980f84","ios":"levelo://app?vid=690c0104-e813-4c1a-a1c6-4de19e980f84"},"vehicle_type_id":"4","last_reported":1729527044,"current_range_meters":28000,"station_id":"ce4bhbh2rcd13ifvqepg","pricing_plan_id":"cebpf4jnsgd1na2vs0mg"},{"bike_id":"c61500c1-0937-46df-91f8-fb733d921d6c","system_id":"levelo_inurba_marseille","lat":43.28725,"lon":5.37951,"is_reserved":false,"is_disabled":false,"rental_uris":{"android":"levelo://app?vid=c61500c1-0937-46df-91f8-fb733d921d6c","ios":"levelo://app?vid=c61500c1-0937-46df-91f8-fb733d921d6c"},"vehicle_type_id":"4","last_reported":1729527044,"current_range_meters":16800,"station_id":"ce4bh9p2rcd13ifvqec0","pricing_plan_id":"cebpf4jnsgd1na2vs0mg"},{"bike_id":"2c82046e-85d8-4bdd-bbb8-f6732506c187","system_id":"levelo_inurba_marseille","lat":43.33022,"lon":5.39043,"is_reserved":false,"is_disabled":false,"rental_uris":{"android":"levelo://app?vid=2c82046e-85d8-4bdd-bbb8-f6732506c187","ios":"levelo://app?vid=2c82046e-85d8-4bdd-bbb8-f6732506c187"},"vehicle_type_id":"4","last_reported":1729527044,"current_range_meters":12800,"station_id":"ce4bhr92rcd13ifvqhrg","pricing_plan_id":"cebpf4jnsgd1na2vs0mg"},{"bike_id":"ee541585-4361-4853-a124-0982aed13541","system_id":"levelo_inurba_marseille","lat":43.29787,"lon":5.39336,"is_reserved":false,"is_disabled":false,"rental_uris":{"android":"levelo://app?vid=ee541585-4361-4853-a124-0982aed13541","ios":"levelo://app?vid=ee541585-4361-4853-a124-0982aed13541"},"vehicle_type_id":"4","last_reported":1729527044,"current_range_meters":22400,"station_id":"chh1huq6cuj3fo74tm60","pricing_plan_id":"cebpf4jnsgd1na2vs0mg"},{"bike_id":"d6d3a748-b401-418c-b9f4-cbf8544b5ecc","system_id":"levelo_inurba_marseille","lat":43.24374,"lon":5.37074,"is_reserved":false,"is_disabled":false,"rental_uris":{"android":"levelo://app?vid=d6d3a748-b401-418c-b9f4-cbf8544b5ecc","ios":"levelo://app?vid=d6d3a748-b401-418c-b9f4-cbf8544b5ecc"},"vehicle_type_id":"4","last_reported":1729527044,"current_range_meters":35200,"station_id":"ce4bhn92rcd13ifvqgrg","pricing_plan_id":"cebpf4jnsgd1na2vs0mg"},{"bike_id":"6c2f6dbd-f805-4659-80f4-819308ad0ba8","system_id":"levelo_inurba_marseille","lat":43.3064,"lon":5.40071,"is_reserved":false,"is_disabled":false,"rental_uris":{"android":"levelo://app?vid=6c2f6dbd-f805-4659-80f4-819308ad0ba8","ios":"levelo://app?vid=6c2f6dbd-f805-4659-80f4-819308ad0ba8"},"vehicle_type_id":"4","last_reported":1729527044,"current_range_meters":20800,"station_id":"ce4bh112rcd13ifvqda0","pricing_plan_id":"cebpf4jnsgd1na2vs0mg"},{"bike_id":"097c0d1d-741e-4751-bc5a-04f0eeef4cdb","system_id":"levelo_inurba_marseille","lat":43.32108,"lon":5.36779,"is_reserved":false,"is_disabled":false,"rental_uris":{"android":"levelo://app?vid=097c0d1d-741e-4751-bc5a-04f0eeef4cdb","ios":"levelo://app?vid=097c0d1d-741e-4751-bc5a-04f0eeef4cdb"},"vehicle_type_id":"4","last_reported":1729527044,"current_range_meters":25600,"station_id":"ce4bhrh2rcd13ifvqhug","pricing_plan_id":"cebpf4jnsgd1na2vs0mg"},{"bike_id":"a34466a4-7387-4e53-b86d-123081f9c487","system_id":"levelo_inurba_marseille","lat":43.27994,"lon":5.41663,"is_reserved":false,"is_disabled":false,"rental_uris":{"android":"levelo://app?vid=a34466a4-7387-4e53-b86d-123081f9c487","ios":"levelo://app?vid=a34466a4-7387-4e53-b86d-123081f9c487"},"vehicle_type_id":"4","last_reported":1729527044,"current_range_meters":8000,"station_id":"ce4bho12rcd13ifvqh1g","pricing_plan_id":"cebpf4jnsgd1na2vs0mg"},{"bike_id":"93d60362-46ab-4e95-a9c2-c4dcd5367e06","system_id":"levelo_inurba_marseille","lat":43.28351,"lon":5.38107,"is_reserved":false,"is_disabled":false,"rental_uris":{"android":"levelo://app?vid=93d60362-46ab-4e95-a9c2-c4dcd5367e06","ios":"levelo://app?vid=93d60362-46ab-4e95-a9c2-c4dcd5367e06"},"vehicle_type_id":"4","last_reported":1729527044,"current_range_meters":22400,"station_id":"ce4bh412rcd13ifvqdr0","pricing_plan_id":"cebpf4jnsgd1na2vs0mg"},{"bike_id":"b2f129aa-fec3-42e0-9506-8472430ac251","system_id":"levelo_inurba_marseille","lat":43.32289,"lon":5.38273,"is_reserved":false,"is_disabled":false,"rental_uris":{"android":"levelo://app?vid=b2f129aa-fec3-42e0-9506-8472430ac251","ios":"levelo://app?vid=b2f129aa-fec3-42e0-9506-8472430ac251"},"vehicle_type_id":"4","last_reported":1729527044,"current_range_meters":9200,"station_id":"ce4bhr12rcd13ifvqhqg","pricing_plan_id":"cebpf4jnsgd1na2vs0mg"},{"bike_id":"ae0a2aa4-10a3-4479-af8f-70a6ad45c263","system_id":"levelo_inurba_marseille","lat":43.2621,"lon":5.37446,"is_reserved":false,"is_disabled":false,"rental_uris":{"android":"levelo://app?vid=ae0a2aa4-10a3-4479-af8f-70a6ad45c263","ios":"levelo://app?vid=ae0a2aa4-10a3-4479-af8f-70a6ad45c263"},"vehicle_type_id":"4","last_reported":1729527044,"current_range_meters":28400,"station_id":"ce4bhgp2rcd13ifvqfc0","pricing_plan_id":"cebpf4jnsgd1na2vs0mg"},{"bike_id":"bcd261ae-e6e9-4cf2-a864-92b93daeabb2","system_id":"levelo_inurba_marseille","lat":43.29892,"lon":5.436683,"is_reserved":false,"is_disabled":false,"rental_uris":{"android":"levelo://app?vid=bcd261ae-e6e9-4cf2-a864-92b93daeabb2","ios":"levelo://app?vid=bcd261ae-e6e9-4cf2-a864-92b93daeabb2"},"vehicle_type_id":"4","last_reported":1729527044,"current_range_meters":14400,"station_id":"ce4bhpp2rcd13ifvqhfg","pricing_plan_id":"cebpf4jnsgd1na2vs0mg"},{"bike_id":"f664508d-c703-410b-8571-546ad2f855e9","system_id":"levelo_inurba_marseille","lat":43.22931,"lon":5.35389,"is_reserved":false,"is_disabled":false,"rental_uris":{"android":"levelo://app?vid=f664508d-c703-410b-8571-546ad2f855e9","ios":"levelo://app?vid=f664508d-c703-410b-8571-546ad2f855e9"},"vehicle_type_id":"4","last_reported":1729527044,"current_range_meters":38400,"station_id":"cpo3532slgdg3j2ikp40","pricing_plan_id":"cebpf4jnsgd1na2vs0mg"},{"bike_id":"67663885-a01f-4cfa-a966-96c205f89ceb","system_id":"levelo_inurba_marseille","lat":43.27614,"lon":5.36108,"is_reserved":false,"is_disabled":false,"rental_uris":{"android":"levelo://app?vid=67663885-a01f-4cfa-a966-96c205f89ceb","ios":"levelo://app?vid=67663885-a01f-4cfa-a966-96c205f89ceb"},"vehicle_type_id":"4","last_reported":1729527044,"current_range_meters":10800,"station_id":"ce4bgj92rcd13ifvqbe0","pricing_plan_id":"cebpf4jnsgd1na2vs0mg"},{"bike_id":"352dc937-837f-4f98-9d8c-ca8da16061fe","system_id":"levelo_inurba_marseille","lat":43.28609,"lon":5.35111,"is_reserved":false,"is_disabled":false,"rental_uris":{"android":"levelo://app?vid=352dc937-837f-4f98-9d8c-ca8da16061fe","ios":"levelo://app?vid=352dc937-837f-4f98-9d8c-ca8da16061fe"},"vehicle_type_id":"4","last_reported":1729527044,"current_range_meters":28000,"station_id":"ce4bhch2rcd13ifvqeug","pricing_plan_id":"cebpf4jnsgd1na2vs0mg"},{"bike_id":"13f958c4-0feb-4541-a834-ef632a6bfd99","system_id":"levelo_inurba_marseille","lat":43.27619,"lon":5.36114,"is_reserved":false,"is_disabled":false,"rental_uris":{"android":"levelo://app?vid=13f958c4-0feb-4541-a834-ef632a6bfd99","ios":"levelo://app?vid=13f958c4-0feb-4541-a834-ef632a6bfd99"},"vehicle_type_id":"4","last_reported":1729527044,"current_range_meters":25200,"station_id":"ce4bgj92rcd13ifvqbe0","pricing_plan_id":"cebpf4jnsgd1na2vs0mg"},{"bike_id":"61397f89-090d-4c07-b34f-57a4ddc030ed","system_id":"levelo_inurba_marseille","lat":43.29037,"lon":5.39987,"is_reserved":false,"is_disabled":false,"rental_uris":{"android":"levelo://app?vid=61397f89-090d-4c07-b34f-57a4ddc030ed","ios":"levelo://app?vid=61397f89-090d-4c07-b34f-57a4ddc030ed"},"vehicle_type_id":"4","last_reported":1729527044,"current_range_meters":20000,"station_id":"ce4bh392rcd13ifvqdm0","pricing_plan_id":"cebpf4jnsgd1na2vs0mg"},{"bike_id":"348bc04f-7e0c-4aca-95c5-cdd8beff206e","system_id":"levelo_inurba_marseille","lat":43.28391,"lon":5.34985,"is_reserved":false,"is_disabled":false,"rental_uris":{"android":"levelo://app?vid=348bc04f-7e0c-4aca-95c5-cdd8beff206e","ios":"levelo://app?vid=348bc04f-7e0c-4aca-95c5-cdd8beff206e"},"vehicle_type_id":"4","last_reported":1729527044,"current_range_meters":17600,"station_id":"ce4bhbh2rcd13ifvqepg","pricing_plan_id":"cebpf4jnsgd1na2vs0mg"},{"bike_id":"723c448c-f4f6-4e10-9599-a891eb37bc4d","system_id":"levelo_inurba_marseille","lat":43.28468,"lon":5.39227,"is_reserved":false,"is_disabled":false,"rental_uris":{"android":"levelo://app?vid=723c448c-f4f6-4e10-9599-a891eb37bc4d","ios":"levelo://app?vid=723c448c-f4f6-4e10-9599-a891eb37bc4d"},"vehicle_type_id":"4","last_reported":1729527044,"current_range_meters":30000,"station_id":"ce4bhoh2rcd13ifvqh5g","pricing_plan_id":"cebpf4jnsgd1na2vs0mg"},{"bike_id":"7fe7b692-04de-4078-8f29-33638d6cc3b7","system_id":"levelo_inurba_marseille","lat":43.28411,"lon":5.34988,"is_reserved":false,"is_disabled":false,"rental_uris":{"android":"levelo://app?vid=7fe7b692-04de-4078-8f29-33638d6cc3b7","ios":"levelo://app?vid=7fe7b692-04de-4078-8f29-33638d6cc3b7"},"vehicle_type_id":"4","last_reported":1729527044,"current_range_meters":26000,"station_id":"ce4bhbh2rcd13ifvqepg","pricing_plan_id":"cebpf4jnsgd1na2vs0mg"},{"bike_id":"10aa8f6d-3adf-4422-8cd4-9c945439a501","system_id":"levelo_inurba_marseille","lat":43.29552,"lon":5.42284,"is_reserved":false,"is_disabled":false,"rental_uris":{"android":"levelo://app?vid=10aa8f6d-3adf-4422-8cd4-9c945439a501","ios":"levelo://app?vid=10aa8f6d-3adf-4422-8cd4-9c945439a501"},"vehicle_type_id":"4","last_reported":1729527044,"current_range_meters":36400,"station_id":"ce4bhph2rcd13ifvqhdg","pricing_plan_id":"cebpf4jnsgd1na2vs0mg"},{"bike_id":"b5bb4d9c-2234-45e1-b0e1-a7c6fb90fc0a","system_id":"levelo_inurba_marseille","lat":43.22937,"lon":5.35381,"is_reserved":false,"is_disabled":false,"rental_uris":{"android":"levelo://app?vid=b5bb4d9c-2234-45e1-b0e1-a7c6fb90fc0a","ios":"levelo://app?vid=b5bb4d9c-2234-45e1-b0e1-a7c6fb90fc0a"},"vehicle_type_id":"4","last_reported":1729527044,"current_range_meters":36400,"station_id":"cpo3532slgdg3j2ikp40","pricing_plan_id":"cebpf4jnsgd1na2vs0mg"},{"bike_id":"86df21b7-64a7-4c7a-bdd0-38cce4cf5506","system_id":"levelo_inurba_marseille","lat":43.28444,"lon":5.39209,"is_reserved":false,"is_disabled":false,"rental_uris":{"android":"levelo://app?vid=86df21b7-64a7-4c7a-bdd0-38cce4cf5506","ios":"levelo://app?vid=86df21b7-64a7-4c7a-bdd0-38cce4cf5506"},"vehicle_type_id":"4","last_reported":1729527044,"current_range_meters":10800,"station_id":"ce4bhoh2rcd13ifvqh5g","pricing_plan_id":"cebpf4jnsgd1na2vs0mg"},{"bike_id":"1542c255-d07f-49f3-a967-21c7bc80590e","system_id":"levelo_inurba_marseille","lat":43.27566,"lon":5.38422,"is_reserved":false,"is_disabled":false,"rental_uris":{"android":"levelo://app?vid=1542c255-d07f-49f3-a967-21c7bc80590e","ios":"levelo://app?vid=1542c255-d07f-49f3-a967-21c7bc80590e"},"vehicle_type_id":"4","last_reported":1729527044,"current_range_meters":12000,"station_id":"ce4bhh92rcd13ifvqfi0","pricing_plan_id":"cebpf4jnsgd1na2vs0mg"},{"bike_id":"65b0414e-18f9-47b7-a88f-b1e1128e4a89","system_id":"levelo_inurba_marseille","lat":43.28996,"lon":5.35611,"is_reserved":false,"is_disabled":false,"rental_uris":{"android":"levelo://app?vid=65b0414e-18f9-47b7-a88f-b1e1128e4a89","ios":"levelo://app?vid=65b0414e-18f9-47b7-a88f-b1e1128e4a89"},"vehicle_type_id":"4","last_reported":1729527044,"current_range_meters":38400,"station_id":"ce4bhb92rcd13ifvqen0","pricing_plan_id":"cebpf4jnsgd1na2vs0mg"},{"bike_id":"64add515-a856-470f-ae79-dd8527b64cfc","system_id":"levelo_inurba_marseille","lat":43.27376,"lon":5.36256,"is_reserved":false,"is_disabled":false,"rental_uris":{"android":"levelo://app?vid=64add515-a856-470f-ae79-dd8527b64cfc","ios":"levelo://app?vid=64add515-a856-470f-ae79-dd8527b64cfc"},"vehicle_type_id":"4","last_reported":1729527044,"current_range_meters":32400,"station_id":"ce4bhbh2rcd13ifvqeo0","pricing_plan_id":"cebpf4jnsgd1na2vs0mg"},{"bike_id":"6ceb7dc2-af01-43e0-aad2-a8463c34d324","system_id":"levelo_inurba_marseille","lat":43.23963,"lon":5.36628,"is_reserved":false,"is_disabled":false,"rental_uris":{"android":"levelo://app?vid=6ceb7dc2-af01-43e0-aad2-a8463c34d324","ios":"levelo://app?vid=6ceb7dc2-af01-43e0-aad2-a8463c34d324"},"vehicle_type_id":"4","last_reported":1729527044,"current_range_meters":15200,"station_id":"ce4bhi12rcd13ifvqfp0","pricing_plan_id":"cebpf4jnsgd1na2vs0mg"},{"bike_id":"e2c2af48-d9b5-462b-a4d5-c52eb1baab46","system_id":"levelo_inurba_marseille","lat":43.27939,"lon":5.41033,"is_reserved":false,"is_disabled":false,"rental_uris":{"android":"levelo://app?vid=e2c2af48-d9b5-462b-a4d5-c52eb1baab46","ios":"levelo://app?vid=e2c2af48-d9b5-462b-a4d5-c52eb1baab46"},"vehicle_type_id":"4","last_reported":1729527044,"current_range_meters":28000,"station_id":"ce4bhnp2rcd13ifvqh0g","pricing_plan_id":"cebpf4jnsgd1na2vs0mg"},{"bike_id":"ded61ba6-7c45-4705-b329-5155c36e8096","system_id":"levelo_inurba_marseille","lat":43.291992,"lon":5.358074,"is_reserved":false,"is_disabled":false,"rental_uris":{"android":"levelo://app?vid=ded61ba6-7c45-4705-b329-5155c36e8096","ios":"levelo://app?vid=ded61ba6-7c45-4705-b329-5155c36e8096"},"vehicle_type_id":"4","last_reported":1729527044,"current_range_meters":4400,"station_id":"ce4bgih2rcd13ifvqba0","pricing_plan_id":"cebpf4jnsgd1na2vs0mg"},{"bike_id":"bb136e01-b274-4fe1-98e8-3875b06b505d","system_id":"levelo_inurba_marseille","lat":43.2668,"lon":5.38267,"is_reserved":false,"is_disabled":false,"rental_uris":{"android":"levelo://app?vid=bb136e01-b274-4fe1-98e8-3875b06b505d","ios":"levelo://app?vid=bb136e01-b274-4fe1-98e8-3875b06b505d"},"vehicle_type_id":"4","last_reported":1729527044,"current_range_meters":38400,"station_id":"ce4bhg92rcd13ifvqf90","pricing_plan_id":"cebpf4jnsgd1na2vs0mg"},{"bike_id":"9871ad8b-6fe7-4d97-960a-7e89e674c218","system_id":"levelo_inurba_marseille","lat":43.31067,"lon":5.40093,"is_reserved":false,"is_disabled":false,"rental_uris":{"android":"levelo://app?vid=9871ad8b-6fe7-4d97-960a-7e89e674c218","ios":"levelo://app?vid=9871ad8b-6fe7-4d97-960a-7e89e674c218"},"vehicle_type_id":"4","last_reported":1729527044,"current_range_meters":27200,"station_id":"","pricing_plan_id":"cebpf4jnsgd1na2vs0mg"},{"bike_id":"f1228999-1d9b-4b6f-834c-677ef6b80fa4","system_id":"levelo_inurba_marseille","lat":43.27611,"lon":5.36108,"is_reserved":false,"is_disabled":false,"rental_uris":{"android":"levelo://app?vid=f1228999-1d9b-4b6f-834c-677ef6b80fa4","ios":"levelo://app?vid=f1228999-1d9b-4b6f-834c-677ef6b80fa4"},"vehicle_type_id":"4","last_reported":1729527044,"current_range_meters":35200,"station_id":"ce4bgj92rcd13ifvqbe0","pricing_plan_id":"cebpf4jnsgd1na2vs0mg"},{"bike_id":"6d98ba95-3b15-401a-b54b-0522f437cd0d","system_id":"levelo_inurba_marseille","lat":43.27993,"lon":5.4166,"is_reserved":false,"is_disabled":false,"rental_uris":{"android":"levelo://app?vid=6d98ba95-3b15-401a-b54b-0522f437cd0d","ios":"levelo://app?vid=6d98ba95-3b15-401a-b54b-0522f437cd0d"},"vehicle_type_id":"4","last_reported":1729527044,"current_range_meters":2800,"station_id":"ce4bho12rcd13ifvqh1g","pricing_plan_id":"cebpf4jnsgd1na2vs0mg"},{"bike_id":"bc4896bf-a2de-4fa3-bdbb-5967c261eebf","system_id":"levelo_inurba_marseille","lat":43.30248,"lon":5.40071,"is_reserved":false,"is_disabled":false,"rental_uris":{"android":"levelo://app?vid=bc4896bf-a2de-4fa3-bdbb-5967c261eebf","ios":"levelo://app?vid=bc4896bf-a2de-4fa3-bdbb-5967c261eebf"},"vehicle_type_id":"4","last_reported":1729527044,"current_range_meters":36400,"station_id":"ce4bgvh2rcd13ifvqcs0","pricing_plan_id":"cebpf4jnsgd1na2vs0mg"},{"bike_id":"56aea588-6de4-4742-8215-1e813fb197c2","system_id":"levelo_inurba_marseille","lat":43.28459,"lon":5.35893,"is_reserved":false,"is_disabled":false,"rental_uris":{"android":"levelo://app?vid=56aea588-6de4-4742-8215-1e813fb197c2","ios":"levelo://app?vid=56aea588-6de4-4742-8215-1e813fb197c2"},"vehicle_type_id":"4","last_reported":1729527044,"current_range_meters":39200,"station_id":"ce4bhah2rcd13ifvqei0","pricing_plan_id":"cebpf4jnsgd1na2vs0mg"},{"bike_id":"73245fa1-0a7e-48e5-adec-5d48d7d77c1f","system_id":"levelo_inurba_marseille","lat":43.24165,"lon":5.36389,"is_reserved":false,"is_disabled":false,"rental_uris":{"android":"levelo://app?vid=73245fa1-0a7e-48e5-adec-5d48d7d77c1f","ios":"levelo://app?vid=73245fa1-0a7e-48e5-adec-5d48d7d77c1f"},"vehicle_type_id":"4","last_reported":1729527044,"current_range_meters":12000,"station_id":"cpo36qri1sfpv3e86is0","pricing_plan_id":"cebpf4jnsgd1na2vs0mg"},{"bike_id":"f7bace9e-5228-4606-998b-882adb71cd4b","system_id":"levelo_inurba_marseille","lat":43.26026,"lon":5.37555,"is_reserved":false,"is_disabled":false,"rental_uris":{"android":"levelo://app?vid=f7bace9e-5228-4606-998b-882adb71cd4b","ios":"levelo://app?vid=f7bace9e-5228-4606-998b-882adb71cd4b"},"vehicle_type_id":"4","last_reported":1729527044,"current_range_meters":19200,"station_id":"ce4bhgh2rcd13ifvqfa0","pricing_plan_id":"cebpf4jnsgd1na2vs0mg"},{"bike_id":"9c3ec319-b6cb-4a46-87c9-6bd4afcfdd08","system_id":"levelo_inurba_marseille","lat":43.27937,"lon":5.41055,"is_reserved":false,"is_disabled":false,"rental_uris":{"android":"levelo://app?vid=9c3ec319-b6cb-4a46-87c9-6bd4afcfdd08","ios":"levelo://app?vid=9c3ec319-b6cb-4a46-87c9-6bd4afcfdd08"},"vehicle_type_id":"4","last_reported":1729527044,"current_range_meters":17600,"station_id":"ce4bhnp2rcd13ifvqh0g","pricing_plan_id":"cebpf4jnsgd1na2vs0mg"},{"bike_id":"616913b7-87e5-49eb-bf93-ba938925d327","system_id":"levelo_inurba_marseille","lat":43.31743,"lon":5.39022,"is_reserved":false,"is_disabled":false,"rental_uris":{"android":"levelo://app?vid=616913b7-87e5-49eb-bf93-ba938925d327","ios":"levelo://app?vid=616913b7-87e5-49eb-bf93-ba938925d327"},"vehicle_type_id":"4","last_reported":1729527044,"current_range_meters":38800,"station_id":"ce4bhqp2rcd13ifvqhng","pricing_plan_id":"cebpf4jnsgd1na2vs0mg"},{"bike_id":"cb742500-b6a3-43f3-8d39-6de736b45622","system_id":"levelo_inurba_marseille","lat":43.29199,"lon":5.35798,"is_reserved":false,"is_disabled":false,"rental_uris":{"android":"levelo://app?vid=cb742500-b6a3-43f3-8d39-6de736b45622","ios":"levelo://app?vid=cb742500-b6a3-43f3-8d39-6de736b45622"},"vehicle_type_id":"4","last_reported":1729527044,"current_range_meters":0,"station_id":"ce4bhb12rcd13ifvqel0","pricing_plan_id":"cebpf4jnsgd1na2vs0mg"},{"bike_id":"c0b063d9-2671-44eb-ae39-bfc8ad831cde","system_id":"levelo_inurba_marseille","lat":43.25494,"lon":5.37651,"is_reserved":false,"is_disabled":false,"rental_uris":{"android":"levelo://app?vid=c0b063d9-2671-44eb-ae39-bfc8ad831cde","ios":"levelo://app?vid=c0b063d9-2671-44eb-ae39-bfc8ad831cde"},"vehicle_type_id":"4","last_reported":1729527044,"current_range_meters":2000,"station_id":"ce4bhh12rcd13ifvqff0","pricing_plan_id":"cebpf4jnsgd1na2vs0mg"},{"bike_id":"24e9ff04-09cd-4d3c-b4b9-6a3c53f1128e","system_id":"levelo_inurba_marseille","lat":43.30883,"lon":5.39656,"is_reserved":false,"is_disabled":false,"rental_uris":{"android":"levelo://app?vid=24e9ff04-09cd-4d3c-b4b9-6a3c53f1128e","ios":"levelo://app?vid=24e9ff04-09cd-4d3c-b4b9-6a3c53f1128e"},"vehicle_type_id":"4","last_reported":1729527044,"current_range_meters":33600,"station_id":"ce4bh012rcd13ifvqcv0","pricing_plan_id":"cebpf4jnsgd1na2vs0mg"},{"bike_id":"2950a200-9d49-4c08-95f9-2c44fd52becb","system_id":"levelo_inurba_marseille","lat":43.28608,"lon":5.37051,"is_reserved":false,"is_disabled":false,"rental_uris":{"android":"levelo://app?vid=2950a200-9d49-4c08-95f9-2c44fd52becb","ios":"levelo://app?vid=2950a200-9d49-4c08-95f9-2c44fd52becb"},"vehicle_type_id":"4","last_reported":1729527044,"current_range_meters":14000,"station_id":"ce4bht12rcd13ifvqi60","pricing_plan_id":"cebpf4jnsgd1na2vs0mg"},{"bike_id":"42097c31-fb0e-4c57-9f90-d060189d686c","system_id":"levelo_inurba_marseille","lat":43.28463,"lon":5.35898,"is_reserved":false,"is_disabled":false,"rental_uris":{"android":"levelo://app?vid=42097c31-fb0e-4c57-9f90-d060189d686c","ios":"levelo://app?vid=42097c31-fb0e-4c57-9f90-d060189d686c"},"vehicle_type_id":"4","last_reported":1729527044,"current_range_meters":38000,"station_id":"ce4bhah2rcd13ifvqei0","pricing_plan_id":"cebpf4jnsgd1na2vs0mg"},{"bike_id":"abf09926-51b6-41f8-a4b6-bb22a8407af5","system_id":"levelo_inurba_marseille","lat":43.23064,"lon":5.3549,"is_reserved":false,"is_disabled":false,"rental_uris":{"android":"levelo://app?vid=abf09926-51b6-41f8-a4b6-bb22a8407af5","ios":"levelo://app?vid=abf09926-51b6-41f8-a4b6-bb22a8407af5"},"vehicle_type_id":"4","last_reported":1729527044,"current_range_meters":8000,"station_id":"cpo3342slgdg3j2ifvpg","pricing_plan_id":"cebpf4jnsgd1na2vs0mg"},{"bike_id":"e8e4e8ac-3e2c-40f6-9044-0af46ced52a3","system_id":"levelo_inurba_marseille","lat":43.28941,"lon":5.3664,"is_reserved":false,"is_disabled":false,"rental_uris":{"android":"levelo://app?vid=e8e4e8ac-3e2c-40f6-9044-0af46ced52a3","ios":"levelo://app?vid=e8e4e8ac-3e2c-40f6-9044-0af46ced52a3"},"vehicle_type_id":"4","last_reported":1729527044,"current_range_meters":26000,"station_id":"ce4bhap2rcd13ifvqek0","pricing_plan_id":"cebpf4jnsgd1na2vs0mg"},{"bike_id":"39d461cb-c16c-4531-a107-b4beeb8883a8","system_id":"levelo_inurba_marseille","lat":43.28414,"lon":5.34994,"is_reserved":false,"is_disabled":false,"rental_uris":{"android":"levelo://app?vid=39d461cb-c16c-4531-a107-b4beeb8883a8","ios":"levelo://app?vid=39d461cb-c16c-4531-a107-b4beeb8883a8"},"vehicle_type_id":"4","last_reported":1729527044,"current_range_meters":20800,"station_id":"ce4bhbh2rcd13ifvqepg","pricing_plan_id":"cebpf4jnsgd1na2vs0mg"},{"bike_id":"3fc81568-5ea7-422b-8d03-f574117f09cc","system_id":"levelo_inurba_marseille","lat":43.33022,"lon":5.39042,"is_reserved":false,"is_disabled":false,"rental_uris":{"android":"levelo://app?vid=3fc81568-5ea7-422b-8d03-f574117f09cc","ios":"levelo://app?vid=3fc81568-5ea7-422b-8d03-f574117f09cc"},"vehicle_type_id":"4","last_reported":1729527044,"current_range_meters":30000,"station_id":"ce4bhr92rcd13ifvqhrg","pricing_plan_id":"cebpf4jnsgd1na2vs0mg"},{"bike_id":"cb438502-67fc-43c4-bea3-3f479c5a0eb0","system_id":"levelo_inurba_marseille","lat":43.23194,"lon":5.35551,"is_reserved":false,"is_disabled":false,"rental_uris":{"android":"levelo://app?vid=cb438502-67fc-43c4-bea3-3f479c5a0eb0","ios":"levelo://app?vid=cb438502-67fc-43c4-bea3-3f479c5a0eb0"},"vehicle_type_id":"4","last_reported":1729527044,"current_range_meters":27600,"station_id":"ce4bhu92rcd13ifvqi70","pricing_plan_id":"cebpf4jnsgd1na2vs0mg"},{"bike_id":"5310214d-2e12-4b68-8d39-c1f7ef35167c","system_id":"levelo_inurba_marseille","lat":43.33718,"lon":5.39189,"is_reserved":false,"is_disabled":false,"rental_uris":{"android":"levelo://app?vid=5310214d-2e12-4b68-8d39-c1f7ef35167c","ios":"levelo://app?vid=5310214d-2e12-4b68-8d39-c1f7ef35167c"},"vehicle_type_id":"4","last_reported":1729527044,"current_range_meters":16400,"station_id":"ce4bhr92rcd13ifvqhsg","pricing_plan_id":"cebpf4jnsgd1na2vs0mg"},{"bike_id":"e9c89c89-23c3-4e6b-af46-b8c063acc8b1","system_id":"levelo_inurba_marseille","lat":43.32039,"lon":5.41574,"is_reserved":false,"is_disabled":false,"rental_uris":{"android":"levelo://app?vid=e9c89c89-23c3-4e6b-af46-b8c063acc8b1","ios":"levelo://app?vid=e9c89c89-23c3-4e6b-af46-b8c063acc8b1"},"vehicle_type_id":"4","last_reported":1729527044,"current_range_meters":36400,"station_id":"ce4bhq92rcd13ifvqhkg","pricing_plan_id":"cebpf4jnsgd1na2vs0mg"},{"bike_id":"d0d36b61-252e-4a4a-9d07-60518a1323d4","system_id":"levelo_inurba_marseille","lat":43.29274,"lon":5.36841,"is_reserved":false,"is_disabled":false,"rental_uris":{"android":"levelo://app?vid=d0d36b61-252e-4a4a-9d07-60518a1323d4","ios":"levelo://app?vid=d0d36b61-252e-4a4a-9d07-60518a1323d4"},"vehicle_type_id":"4","last_reported":1729527044,"current_range_meters":18000,"station_id":"ce4bhbp2rcd13ifvqesg","pricing_plan_id":"cebpf4jnsgd1na2vs0mg"},{"bike_id":"b7a5d685-76a3-49a0-a59f-fa1758593c59","system_id":"levelo_inurba_marseille","lat":43.29189,"lon":5.39318,"is_reserved":false,"is_disabled":false,"rental_uris":{"android":"levelo://app?vid=b7a5d685-76a3-49a0-a59f-fa1758593c59","ios":"levelo://app?vid=b7a5d685-76a3-49a0-a59f-fa1758593c59"},"vehicle_type_id":"4","last_reported":1729527044,"current_range_meters":32800,"station_id":"ce4bh192rcd13ifvqdd0","pricing_plan_id":"cebpf4jnsgd1na2vs0mg"},{"bike_id":"f48dc64d-b068-4ba5-8ba0-821808430b43","system_id":"levelo_inurba_marseille","lat":43.25574,"lon":5.38225,"is_reserved":false,"is_disabled":false,"rental_uris":{"android":"levelo://app?vid=f48dc64d-b068-4ba5-8ba0-821808430b43","ios":"levelo://app?vid=f48dc64d-b068-4ba5-8ba0-821808430b43"},"vehicle_type_id":"4","last_reported":1729527044,"current_range_meters":4800,"station_id":"ce4bhih2rcd13ifvqfs0","pricing_plan_id":"cebpf4jnsgd1na2vs0mg"},{"bike_id":"932ba0a1-8659-458a-a935-2533d5a66f37","system_id":"levelo_inurba_marseille","lat":43.31356,"lon":5.38514,"is_reserved":false,"is_disabled":false,"rental_uris":{"android":"levelo://app?vid=932ba0a1-8659-458a-a935-2533d5a66f37","ios":"levelo://app?vid=932ba0a1-8659-458a-a935-2533d5a66f37"},"vehicle_type_id":"4","last_reported":1729527044,"current_range_meters":25600,"station_id":"ce4bgth2rcd13ifvqch0","pricing_plan_id":"cebpf4jnsgd1na2vs0mg"},{"bike_id":"2af090a3-4ae6-4a3c-9b0c-e9007927d4d8","system_id":"levelo_inurba_marseille","lat":43.24179,"lon":5.39728,"is_reserved":false,"is_disabled":false,"rental_uris":{"android":"levelo://app?vid=2af090a3-4ae6-4a3c-9b0c-e9007927d4d8","ios":"levelo://app?vid=2af090a3-4ae6-4a3c-9b0c-e9007927d4d8"},"vehicle_type_id":"4","last_reported":1729527044,"current_range_meters":24800,"station_id":"ce4bhn12rcd13ifvqgpg","pricing_plan_id":"cebpf4jnsgd1na2vs0mg"},{"bike_id":"c062b90d-5f9d-41d0-97c6-07a0b5767d55","system_id":"levelo_inurba_marseille","lat":43.24662,"lon":5.3817,"is_reserved":false,"is_disabled":false,"rental_uris":{"android":"levelo://app?vid=c062b90d-5f9d-41d0-97c6-07a0b5767d55","ios":"levelo://app?vid=c062b90d-5f9d-41d0-97c6-07a0b5767d55"},"vehicle_type_id":"4","last_reported":1729527044,"current_range_meters":27200,"station_id":"ce4bhih2rcd13ifvqfr0","pricing_plan_id":"cebpf4jnsgd1na2vs0mg"},{"bike_id":"760ab10f-b0a5-4a33-88bb-9f266cc049a9","system_id":"levelo_inurba_marseille","lat":43.27568,"lon":5.38429,"is_reserved":false,"is_disabled":false,"rental_uris":{"android":"levelo://app?vid=760ab10f-b0a5-4a33-88bb-9f266cc049a9","ios":"levelo://app?vid=760ab10f-b0a5-4a33-88bb-9f266cc049a9"},"vehicle_type_id":"4","last_reported":1729527044,"current_range_meters":18000,"station_id":"ce4bhh92rcd13ifvqfi0","pricing_plan_id":"cebpf4jnsgd1na2vs0mg"},{"bike_id":"afd5ffd8-430e-4d62-bef8-5e8e2ee25289","system_id":"levelo_inurba_marseille","lat":43.33098,"lon":5.4194,"is_reserved":false,"is_disabled":false,"rental_uris":{"android":"levelo://app?vid=afd5ffd8-430e-4d62-bef8-5e8e2ee25289","ios":"levelo://app?vid=afd5ffd8-430e-4d62-bef8-5e8e2ee25289"},"vehicle_type_id":"4","last_reported":1729527044,"current_range_meters":20400,"station_id":"ce4bhq12rcd13ifvqhhg","pricing_plan_id":"cebpf4jnsgd1na2vs0mg"},{"bike_id":"5d9340f2-efde-4e63-8158-b7fa5899745f","system_id":"levelo_inurba_marseille","lat":43.27364,"lon":5.36253,"is_reserved":false,"is_disabled":false,"rental_uris":{"android":"levelo://app?vid=5d9340f2-efde-4e63-8158-b7fa5899745f","ios":"levelo://app?vid=5d9340f2-efde-4e63-8158-b7fa5899745f"},"vehicle_type_id":"4","last_reported":1729527044,"current_range_meters":11200,"station_id":"ce4bhbh2rcd13ifvqeo0","pricing_plan_id":"cebpf4jnsgd1na2vs0mg"},{"bike_id":"4f87878a-4628-4805-9f54-29c7ef8d5dc5","system_id":"levelo_inurba_marseille","lat":43.32451,"lon":5.38405,"is_reserved":false,"is_disabled":false,"rental_uris":{"android":"levelo://app?vid=4f87878a-4628-4805-9f54-29c7ef8d5dc5","ios":"levelo://app?vid=4f87878a-4628-4805-9f54-29c7ef8d5dc5"},"vehicle_type_id":"4","last_reported":1729527044,"current_range_meters":10800,"station_id":"ce4bhr12rcd13ifvqhqg","pricing_plan_id":"cebpf4jnsgd1na2vs0mg"},{"bike_id":"49a20a9d-a68e-4d6d-92f5-40d7b424cb2a","system_id":"levelo_inurba_marseille","lat":43.3025,"lon":5.40081,"is_reserved":false,"is_disabled":false,"rental_uris":{"android":"levelo://app?vid=49a20a9d-a68e-4d6d-92f5-40d7b424cb2a","ios":"levelo://app?vid=49a20a9d-a68e-4d6d-92f5-40d7b424cb2a"},"vehicle_type_id":"4","last_reported":1729527044,"current_range_meters":22400,"station_id":"ce4bgvh2rcd13ifvqcs0","pricing_plan_id":"cebpf4jnsgd1na2vs0mg"},{"bike_id":"7f2a417e-832d-42e5-aa44-4342b03abc67","system_id":"levelo_inurba_marseille","lat":43.290985,"lon":5.380203,"is_reserved":false,"is_disabled":false,"rental_uris":{"android":"levelo://app?vid=7f2a417e-832d-42e5-aa44-4342b03abc67","ios":"levelo://app?vid=7f2a417e-832d-42e5-aa44-4342b03abc67"},"vehicle_type_id":"4","last_reported":1729527044,"current_range_meters":20400,"station_id":"ce4bhhp2rcd13ifvqfm0","pricing_plan_id":"cebpf4jnsgd1na2vs0mg"},{"bike_id":"353e4e5a-23d1-4492-a107-e6d86c5ddb97","system_id":"levelo_inurba_marseille","lat":43.23192,"lon":5.43658,"is_reserved":false,"is_disabled":false,"rental_uris":{"android":"levelo://app?vid=353e4e5a-23d1-4492-a107-e6d86c5ddb97","ios":"levelo://app?vid=353e4e5a-23d1-4492-a107-e6d86c5ddb97"},"vehicle_type_id":"4","last_reported":1729527044,"current_range_meters":16800,"station_id":"ce4bhmp2rcd13ifvqgog","pricing_plan_id":"cebpf4jnsgd1na2vs0mg"},{"bike_id":"2044b9f4-d6ca-4948-b14e-5e8a76605455","system_id":"levelo_inurba_marseille","lat":43.28421,"lon":5.34993,"is_reserved":false,"is_disabled":false,"rental_uris":{"android":"levelo://app?vid=2044b9f4-d6ca-4948-b14e-5e8a76605455","ios":"levelo://app?vid=2044b9f4-d6ca-4948-b14e-5e8a76605455"},"vehicle_type_id":"4","last_reported":1729527044,"current_range_meters":35600,"station_id":"ce4bhbh2rcd13ifvqepg","pricing_plan_id":"cebpf4jnsgd1na2vs0mg"},{"bike_id":"ce31e567-f9f4-4c95-b612-a0cf1f61d74f","system_id":"levelo_inurba_marseille","lat":43.26568,"lon":5.39007,"is_reserved":false,"is_disabled":false,"rental_uris":{"android":"levelo://app?vid=ce31e567-f9f4-4c95-b612-a0cf1f61d74f","ios":"levelo://app?vid=ce31e567-f9f4-4c95-b612-a0cf1f61d74f"},"vehicle_type_id":"4","last_reported":1729527044,"current_range_meters":8000,"station_id":"ce4bhe12rcd13ifvqf30","pricing_plan_id":"cebpf4jnsgd1na2vs0mg"},{"bike_id":"8cb7a3d5-28a5-4caa-b71e-1425f38391d2","system_id":"levelo_inurba_marseille","lat":43.264771,"lon":5.395506,"is_reserved":false,"is_disabled":false,"rental_uris":{"android":"levelo://app?vid=8cb7a3d5-28a5-4caa-b71e-1425f38391d2","ios":"levelo://app?vid=8cb7a3d5-28a5-4caa-b71e-1425f38391d2"},"vehicle_type_id":"4","last_reported":1729527044,"current_range_meters":8800,"station_id":"ce4bhi12rcd13ifvqfq0","pricing_plan_id":"cebpf4jnsgd1na2vs0mg"},{"bike_id":"550a0540-8ebe-440e-a767-55764d6ce147","system_id":"levelo_inurba_marseille","lat":43.32658,"lon":5.40993,"is_reserved":false,"is_disabled":false,"rental_uris":{"android":"levelo://app?vid=550a0540-8ebe-440e-a767-55764d6ce147","ios":"levelo://app?vid=550a0540-8ebe-440e-a767-55764d6ce147"},"vehicle_type_id":"4","last_reported":1729527044,"current_range_meters":1600,"station_id":"ce4bhpp2rcd13ifvqhgg","pricing_plan_id":"cebpf4jnsgd1na2vs0mg"},{"bike_id":"8b7131a0-ec7c-40ba-83f9-f4a6d8226d1f","system_id":"levelo_inurba_marseille","lat":43.24164,"lon":5.3639,"is_reserved":false,"is_disabled":false,"rental_uris":{"android":"levelo://app?vid=8b7131a0-ec7c-40ba-83f9-f4a6d8226d1f","ios":"levelo://app?vid=8b7131a0-ec7c-40ba-83f9-f4a6d8226d1f"},"vehicle_type_id":"4","last_reported":1729527044,"current_range_meters":19200,"station_id":"cpo36qri1sfpv3e86is0","pricing_plan_id":"cebpf4jnsgd1na2vs0mg"},{"bike_id":"f0be9ef1-5954-4e94-a62d-682e16095961","system_id":"levelo_inurba_marseille","lat":43.28784,"lon":5.36519,"is_reserved":false,"is_disabled":false,"rental_uris":{"android":"levelo://app?vid=f0be9ef1-5954-4e94-a62d-682e16095961","ios":"levelo://app?vid=f0be9ef1-5954-4e94-a62d-682e16095961"},"vehicle_type_id":"4","last_reported":1729527044,"current_range_meters":27200,"station_id":"","pricing_plan_id":"cebpf4jnsgd1na2vs0mg"},{"bike_id":"d1538a39-b0d6-4b2c-849b-9016542cac2d","system_id":"levelo_inurba_marseille","lat":43.24656,"lon":5.38163,"is_reserved":false,"is_disabled":false,"rental_uris":{"android":"levelo://app?vid=d1538a39-b0d6-4b2c-849b-9016542cac2d","ios":"levelo://app?vid=d1538a39-b0d6-4b2c-849b-9016542cac2d"},"vehicle_type_id":"4","last_reported":1729527044,"current_range_meters":22000,"station_id":"ce4bhih2rcd13ifvqfr0","pricing_plan_id":"cebpf4jnsgd1na2vs0mg"},{"bike_id":"bac90f60-0a67-43b8-b6cc-e5284a64f320","system_id":"levelo_inurba_marseille","lat":43.22932,"lon":5.35375,"is_reserved":false,"is_disabled":false,"rental_uris":{"android":"levelo://app?vid=bac90f60-0a67-43b8-b6cc-e5284a64f320","ios":"levelo://app?vid=bac90f60-0a67-43b8-b6cc-e5284a64f320"},"vehicle_type_id":"4","last_reported":1729527044,"current_range_meters":23200,"station_id":"cpo3532slgdg3j2ikp40","pricing_plan_id":"cebpf4jnsgd1na2vs0mg"},{"bike_id":"98e2d871-0c70-46f6-bbc2-1acd07b0c0e3","system_id":"levelo_inurba_marseille","lat":43.27488,"lon":5.4246,"is_reserved":false,"is_disabled":false,"rental_uris":{"android":"levelo://app?vid=98e2d871-0c70-46f6-bbc2-1acd07b0c0e3","ios":"levelo://app?vid=98e2d871-0c70-46f6-bbc2-1acd07b0c0e3"},"vehicle_type_id":"4","last_reported":1729527044,"current_range_meters":36800,"station_id":"ce4bhn92rcd13ifvqgrg","pricing_plan_id":"cebpf4jnsgd1na2vs0mg"},{"bike_id":"28499576-aec0-4afc-a441-9301361984d8","system_id":"levelo_inurba_marseille","lat":43.2737,"lon":5.36256,"is_reserved":false,"is_disabled":false,"rental_uris":{"android":"levelo://app?vid=28499576-aec0-4afc-a441-9301361984d8","ios":"levelo://app?vid=28499576-aec0-4afc-a441-9301361984d8"},"vehicle_type_id":"4","last_reported":1729527044,"current_range_meters":32800,"station_id":"ce4bhbh2rcd13ifvqeo0","pricing_plan_id":"cebpf4jnsgd1na2vs0mg"},{"bike_id":"da837a6b-bcd4-4d9f-aefc-6a9514881200","system_id":"levelo_inurba_marseille","lat":43.27941,"lon":5.41049,"is_reserved":false,"is_disabled":false,"rental_uris":{"android":"levelo://app?vid=da837a6b-bcd4-4d9f-aefc-6a9514881200","ios":"levelo://app?vid=da837a6b-bcd4-4d9f-aefc-6a9514881200"},"vehicle_type_id":"4","last_reported":1729527044,"current_range_meters":8800,"station_id":"ce4bhnp2rcd13ifvqh0g","pricing_plan_id":"cebpf4jnsgd1na2vs0mg"},{"bike_id":"e36c00d5-9a02-44a3-ac77-6b3ae65d0993","system_id":"levelo_inurba_marseille","lat":43.28456,"lon":5.35896,"is_reserved":false,"is_disabled":false,"rental_uris":{"android":"levelo://app?vid=e36c00d5-9a02-44a3-ac77-6b3ae65d0993","ios":"levelo://app?vid=e36c00d5-9a02-44a3-ac77-6b3ae65d0993"},"vehicle_type_id":"4","last_reported":1729527044,"current_range_meters":38800,"station_id":"ce4bhah2rcd13ifvqei0","pricing_plan_id":"cebpf4jnsgd1na2vs0mg"},{"bike_id":"ba5668ab-72c6-43e8-abaa-48b4e59fed44","system_id":"levelo_inurba_marseille","lat":43.29963,"lon":5.41329,"is_reserved":false,"is_disabled":false,"rental_uris":{"android":"levelo://app?vid=ba5668ab-72c6-43e8-abaa-48b4e59fed44","ios":"levelo://app?vid=ba5668ab-72c6-43e8-abaa-48b4e59fed44"},"vehicle_type_id":"4","last_reported":1729527044,"current_range_meters":28000,"station_id":"ce4bhp12rcd13ifvqh9g","pricing_plan_id":"cebpf4jnsgd1na2vs0mg"},{"bike_id":"96c0a00a-b1a6-44c5-98a9-676b046896c7","system_id":"levelo_inurba_marseille","lat":43.22931,"lon":5.35379,"is_reserved":false,"is_disabled":false,"rental_uris":{"android":"levelo://app?vid=96c0a00a-b1a6-44c5-98a9-676b046896c7","ios":"levelo://app?vid=96c0a00a-b1a6-44c5-98a9-676b046896c7"},"vehicle_type_id":"4","last_reported":1729527044,"current_range_meters":24400,"station_id":"cpo3532slgdg3j2ikp40","pricing_plan_id":"cebpf4jnsgd1na2vs0mg"},{"bike_id":"54c8228f-f5a0-460b-81b2-76c244b29a50","system_id":"levelo_inurba_marseille","lat":43.28409,"lon":5.34987,"is_reserved":false,"is_disabled":false,"rental_uris":{"android":"levelo://app?vid=54c8228f-f5a0-460b-81b2-76c244b29a50","ios":"levelo://app?vid=54c8228f-f5a0-460b-81b2-76c244b29a50"},"vehicle_type_id":"4","last_reported":1729527044,"current_range_meters":39200,"station_id":"ce4bhbh2rcd13ifvqepg","pricing_plan_id":"cebpf4jnsgd1na2vs0mg"},{"bike_id":"afb978c9-254d-46ed-aa6f-2df45b0909c3","system_id":"levelo_inurba_marseille","lat":43.29251,"lon":5.40914,"is_reserved":false,"is_disabled":false,"rental_uris":{"android":"levelo://app?vid=afb978c9-254d-46ed-aa6f-2df45b0909c3","ios":"levelo://app?vid=afb978c9-254d-46ed-aa6f-2df45b0909c3"},"vehicle_type_id":"4","last_reported":1729527044,"current_range_meters":6800,"station_id":"ce4bh192rcd13ifvqdc0","pricing_plan_id":"cebpf4jnsgd1na2vs0mg"},{"bike_id":"f8d59792-5a87-4c4f-b3af-bd01f8cb37b2","system_id":"levelo_inurba_marseille","lat":43.30131,"lon":5.39846,"is_reserved":false,"is_disabled":false,"rental_uris":{"android":"levelo://app?vid=f8d59792-5a87-4c4f-b3af-bd01f8cb37b2","ios":"levelo://app?vid=f8d59792-5a87-4c4f-b3af-bd01f8cb37b2"},"vehicle_type_id":"4","last_reported":1729527044,"current_range_meters":24800,"station_id":"ce4bh0h2rcd13ifvqd40","pricing_plan_id":"cebpf4jnsgd1na2vs0mg"},{"bike_id":"d02fba9c-3f5b-42cf-ba0e-4e50ccf03a0b","system_id":"levelo_inurba_marseille","lat":43.24802,"lon":5.3746,"is_reserved":false,"is_disabled":false,"rental_uris":{"android":"levelo://app?vid=d02fba9c-3f5b-42cf-ba0e-4e50ccf03a0b","ios":"levelo://app?vid=d02fba9c-3f5b-42cf-ba0e-4e50ccf03a0b"},"vehicle_type_id":"4","last_reported":1729527044,"current_range_meters":2800,"station_id":"ce4bhgh2rcd13ifvqfb0","pricing_plan_id":"cebpf4jnsgd1na2vs0mg"},{"bike_id":"e6ad55f7-623a-478e-bfc7-b913cb198262","system_id":"levelo_inurba_marseille","lat":43.25493,"lon":5.3765,"is_reserved":false,"is_disabled":false,"rental_uris":{"android":"levelo://app?vid=e6ad55f7-623a-478e-bfc7-b913cb198262","ios":"levelo://app?vid=e6ad55f7-623a-478e-bfc7-b913cb198262"},"vehicle_type_id":"4","last_reported":1729527044,"current_range_meters":6000,"station_id":"ce4bhh12rcd13ifvqff0","pricing_plan_id":"cebpf4jnsgd1na2vs0mg"},{"bike_id":"fd91a2d4-082c-4a79-bbcb-76a662af0b1c","system_id":"levelo_inurba_marseille","lat":43.28166,"lon":5.40377,"is_reserved":false,"is_disabled":false,"rental_uris":{"android":"levelo://app?vid=fd91a2d4-082c-4a79-bbcb-76a662af0b1c","ios":"levelo://app?vid=fd91a2d4-082c-4a79-bbcb-76a662af0b1c"},"vehicle_type_id":"4","last_reported":1729527044,"current_range_meters":37600,"station_id":"","pricing_plan_id":"cebpf4jnsgd1na2vs0mg"},{"bike_id":"dd791ca3-2271-4861-8558-eee8f07e09d4","system_id":"levelo_inurba_marseille","lat":43.28669,"lon":5.36358,"is_reserved":false,"is_disabled":false,"rental_uris":{"android":"levelo://app?vid=dd791ca3-2271-4861-8558-eee8f07e09d4","ios":"levelo://app?vid=dd791ca3-2271-4861-8558-eee8f07e09d4"},"vehicle_type_id":"4","last_reported":1729527044,"current_range_meters":2000,"station_id":"ce4bhah2rcd13ifvqej0","pricing_plan_id":"cebpf4jnsgd1na2vs0mg"},{"bike_id":"e592d8be-e06c-44ae-86d8-caf974bc75f2","system_id":"levelo_inurba_marseille","lat":43.28266,"lon":5.35085,"is_reserved":false,"is_disabled":false,"rental_uris":{"android":"levelo://app?vid=e592d8be-e06c-44ae-86d8-caf974bc75f2","ios":"levelo://app?vid=e592d8be-e06c-44ae-86d8-caf974bc75f2"},"vehicle_type_id":"4","last_reported":1729527044,"current_range_meters":2800,"station_id":"ce4bhbp2rcd13ifvqerg","pricing_plan_id":"cebpf4jnsgd1na2vs0mg"},{"bike_id":"a6a1608a-70c1-47ec-a3d0-80c9aaf1fe47","system_id":"levelo_inurba_marseille","lat":43.22932,"lon":5.35382,"is_reserved":false,"is_disabled":false,"rental_uris":{"android":"levelo://app?vid=a6a1608a-70c1-47ec-a3d0-80c9aaf1fe47","ios":"levelo://app?vid=a6a1608a-70c1-47ec-a3d0-80c9aaf1fe47"},"vehicle_type_id":"4","last_reported":1729527044,"current_range_meters":24400,"station_id":"cpo3532slgdg3j2ikp40","pricing_plan_id":"cebpf4jnsgd1na2vs0mg"},{"bike_id":"63419666-d87c-405f-9098-f0abae30deb9","system_id":"levelo_inurba_marseille","lat":43.25,"lon":5.38924,"is_reserved":false,"is_disabled":false,"rental_uris":{"android":"levelo://app?vid=63419666-d87c-405f-9098-f0abae30deb9","ios":"levelo://app?vid=63419666-d87c-405f-9098-f0abae30deb9"},"vehicle_type_id":"4","last_reported":1729527044,"current_range_meters":11200,"station_id":"ce4bhgp2rcd13ifvqfd0","pricing_plan_id":"cebpf4jnsgd1na2vs0mg"},{"bike_id":"91248d05-ddcd-45d6-a61a-ca02ef8cd3ea","system_id":"levelo_inurba_marseille","lat":43.29711,"lon":5.37695,"is_reserved":false,"is_disabled":false,"rental_uris":{"android":"levelo://app?vid=91248d05-ddcd-45d6-a61a-ca02ef8cd3ea","ios":"levelo://app?vid=91248d05-ddcd-45d6-a61a-ca02ef8cd3ea"},"vehicle_type_id":"4","last_reported":1729527044,"current_range_meters":19600,"station_id":"ce4bgkh2rcd13ifvqbl0","pricing_plan_id":"cebpf4jnsgd1na2vs0mg"},{"bike_id":"d23ae0ab-06fe-4c5a-aeff-1b676152ccc6","system_id":"levelo_inurba_marseille","lat":43.27054,"lon":5.40263,"is_reserved":false,"is_disabled":false,"rental_uris":{"android":"levelo://app?vid=d23ae0ab-06fe-4c5a-aeff-1b676152ccc6","ios":"levelo://app?vid=d23ae0ab-06fe-4c5a-aeff-1b676152ccc6"},"vehicle_type_id":"4","last_reported":1729527044,"current_range_meters":9600,"station_id":"ce4bhk92rcd13ifvqgc0","pricing_plan_id":"cebpf4jnsgd1na2vs0mg"},{"bike_id":"99306a5e-942e-4bd1-b10e-4125c7d5275e","system_id":"levelo_inurba_marseille","lat":43.2919,"lon":5.35791,"is_reserved":false,"is_disabled":false,"rental_uris":{"android":"levelo://app?vid=99306a5e-942e-4bd1-b10e-4125c7d5275e","ios":"levelo://app?vid=99306a5e-942e-4bd1-b10e-4125c7d5275e"},"vehicle_type_id":"4","last_reported":1729527044,"current_range_meters":24000,"station_id":"ce4bhb12rcd13ifvqel0","pricing_plan_id":"cebpf4jnsgd1na2vs0mg"},{"bike_id":"c34b501f-0f40-4476-b13f-55bf0b2ef75d","system_id":"levelo_inurba_marseille","lat":43.24664,"lon":5.38166,"is_reserved":false,"is_disabled":false,"rental_uris":{"android":"levelo://app?vid=c34b501f-0f40-4476-b13f-55bf0b2ef75d","ios":"levelo://app?vid=c34b501f-0f40-4476-b13f-55bf0b2ef75d"},"vehicle_type_id":"4","last_reported":1729527044,"current_range_meters":6800,"station_id":"ce4bhih2rcd13ifvqfr0","pricing_plan_id":"cebpf4jnsgd1na2vs0mg"},{"bike_id":"96462796-370e-4d78-b05a-8de5935b7fb2","system_id":"levelo_inurba_marseille","lat":43.27058,"lon":5.40269,"is_reserved":false,"is_disabled":false,"rental_uris":{"android":"levelo://app?vid=96462796-370e-4d78-b05a-8de5935b7fb2","ios":"levelo://app?vid=96462796-370e-4d78-b05a-8de5935b7fb2"},"vehicle_type_id":"4","last_reported":1729527044,"current_range_meters":25200,"station_id":"ce4bhk92rcd13ifvqgc0","pricing_plan_id":"cebpf4jnsgd1na2vs0mg"},{"bike_id":"07bfb1e2-dc85-4f81-9a0c-e6913612b4fe","system_id":"levelo_inurba_marseille","lat":43.29198,"lon":5.35797,"is_reserved":false,"is_disabled":false,"rental_uris":{"android":"levelo://app?vid=07bfb1e2-dc85-4f81-9a0c-e6913612b4fe","ios":"levelo://app?vid=07bfb1e2-dc85-4f81-9a0c-e6913612b4fe"},"vehicle_type_id":"4","last_reported":1729527044,"current_range_meters":28000,"station_id":"ce4bhb12rcd13ifvqel0","pricing_plan_id":"cebpf4jnsgd1na2vs0mg"},{"bike_id":"4aed61cf-f3ea-4a6e-b26f-167a4de16173","system_id":"levelo_inurba_marseille","lat":43.28412,"lon":5.38573,"is_reserved":false,"is_disabled":false,"rental_uris":{"android":"levelo://app?vid=4aed61cf-f3ea-4a6e-b26f-167a4de16173","ios":"levelo://app?vid=4aed61cf-f3ea-4a6e-b26f-167a4de16173"},"vehicle_type_id":"4","last_reported":1729527044,"current_range_meters":5600,"station_id":"ce4bh8p2rcd13ifvqeb0","pricing_plan_id":"cebpf4jnsgd1na2vs0mg"},