{"last_updated":1744633173,"ttl":60,"version":"2.2","data":{"bikes":[{"bike_id":"1130922e-9ccc-463b-9207-aadecd794edb","system_id":"levelo_inurba_marseille","lat":43.31997,"lon":5.38152,"is_reserved":false,"is_disabled":false,"rental_uris":{"android":"levelo://app?vid=1130922e-9ccc-463b-9207-aadecd794edb","ios":"levelo://app?vid=1130922e-9ccc-463b-9207-aadecd794edb"},"vehicle_type_id":"4","last_reported":1744633173,"current_range_meters":2800,"station_id":"ce4bhr12rcd13ifvqhpg","pricing_plan_id":"cebpf4jnsgd1na2vs0mg"},{"bike_id":"2fc95e6a-2708-462b-b6bb-8734eb69a062","system_id":"levelo_inurba_marseille","lat":43.32337,"lon":5.36719,"is_reserved":false,"is_disabled":false,"rental_uris":{"android":"levelo://app?vid=2fc95e6a-2708-462b-b6bb-8734eb69a062","ios":"levelo://app?vid=2fc95e6a-2708-462b-b6bb-8734eb69a062"},"vehicle_type_id":"4","last_reported":1744633173,"current_range_meters":2800,"station_id":"ce4bhsh2rcd13ifvqi2g","pricing_plan_id":"cebpf4jnsgd1na2vs0mg"},{"bike_id":"55f8bf6a-fa5b-4e0c-95f7-e1e33cda94d2","system_id":"levelo_inurba_marseille","lat":43.324906,"lon":5.366082,"is_reserved":false,"is_disabled":false,"rental_uris":{"android":"levelo://app?vid=55f8bf6a-fa5b-4e0c-95f7-e1e33cda94d2","ios":"levelo://app?vid=55f8bf6a-fa5b-4e0c-95f7-e1e33cda94d2"},"vehicle_type_id":"4","last_reported":1744633173,"current_range_meters":3200,"station_id":"ce4bhs12rcd13ifvqhvg","pricing_plan_id":"cebpf4jnsgd1na2vs0mg"},{"bike_id":"4a0973b0-92a0-41e8-9b0d-a99e944bafe0","system_id":"levelo_inurba_marseille","lat":43.34481,"lon":5.41292,"is_reserved":false,"is_disabled":false,"rental_uris":{"android":"levelo://app?vid=4a0973b0-92a0-41e8-9b0d-a99e944bafe0","ios":"levelo://app?vid=4a0973b0-92a0-41e8-9b0d-a99e944bafe0"},"vehicle_type_id":"4","last_reported":1744633173,"current_range_meters":3200,"station_id":"","pricing_plan_id":"cebpf4jnsgd1na2vs0mg"},{"bike_id":"21667ef3-908c-4907-8b68-847576af4171","system_id":"levelo_inurba_marseille","lat":43.30435,"lon":5.38878,"is_reserved":false,"is_disabled":false,"rental_uris":{"android":"levelo://app?vid=21667ef3-908c-4907-8b68-847576af4171","ios":"levelo://app?vid=21667ef3-908c-4907-8b68-847576af4171"},"vehicle_type_id":"4","last_reported":1744633173,"current_range_meters":3200,"station_id":"ce4bgk12rcd13ifvqbi0","pricing_plan_id":"cebpf4jnsgd1na2vs0mg"},{"bike_id":"ada0736c-b218-4c5a-9e2c-50512fed3a53","system_id":"levelo_inurba_marseille","lat":43.27911,"lon":5.39582,"is_reserved":false,"is_disabled":false,"rental_uris":{"android":"levelo://app?vid=ada0736c-b218-4c5a-9e2c-50512fed3a53","ios":"levelo://app?vid=ada0736c-b218-4c5a-9e2c-50512fed3a53"},"vehicle_type_id":"4","last_reported":1744633173,"current_range_meters":3600,"station_id":"ce4bhf92rcd13ifvqf40","pricing_plan_id":"cebpf4jnsgd1na2vs0mg"},{"bike_id":"493cde9e-7859-4c26-a2e6-f744ee5d8553","system_id":"levelo_inurba_marseille","lat":43.3141,"lon":5.37308,"is_reserved":false,"is_disabled":false,"rental_uris":{"android":"levelo://app?vid=493cde9e-7859-4c26-a2e6-f744ee5d8553","ios":"levelo://app?vid=493cde9e-7859-4c26-a2e6-f744ee5d8553"},"vehicle_type_id":"4","last_reported":1744633173,"current_range_meters":3600,"station_id":"","pricing_plan_id":"cebpf4jnsgd1na2vs0mg"},{"bike_id":"072b8ba7-61fb-4d89-a75f-9702e0891de0","system_id":"levelo_inurba_marseille","lat":43.24169,"lon":5.36396,"is_reserved":false,"is_disabled":false,"rental_uris":{"android":"levelo://app?vid=072b8ba7-61fb-4d89-a75f-9702e0891de0","ios":"levelo://app?vid=072b8ba7-61fb-4d89-a75f-9702e0891de0"},"vehicle_type_id":"4","last_reported":1744633173,"current_range_meters":3600,"station_id":"cpo36qri1sfpv3e86is0","pricing_plan_id":"cebpf4jnsgd1na2vs0mg"},{"bike_id":"5b77a833-8185-45c2-9fe3-07eb40df54ca","system_id":"levelo_inurba_marseille","lat":43.33995,"lon":5.38057,"is_reserved":false,"is_disabled":false,"rental_uris":{"android":"levelo://app?vid=5b77a833-8185-45c2-9fe3-07eb40df54ca","ios":"levelo://app?vid=5b77a833-8185-45c2-9fe3-07eb40df54ca"},"vehicle_type_id":"4","last_reported":1744633173,"current_range_meters":3600,"station_id":"","pricing_plan_id":"cebpf4jnsgd1na2vs0mg"},{"bike_id":"8a7c02b4-f271-40a6-88b2-581e6d053034","system_id":"levelo_inurba_marseille","lat":43.29191,"lon":5.3932,"is_reserved":false,"is_disabled":true,"rental_uris":{"android":"levelo://app?vid=8a7c02b4-f271-40a6-88b2-581e6d053034","ios":"levelo://app?vid=8a7c02b4-f271-40a6-88b2-581e6d053034"},"vehicle_type_id":"4","last_reported":1744633173,"current_range_meters":4000,"station_id":"ce4bh192rcd13ifvqdd0","pricing_plan_id":"cebpf4jnsgd1na2vs0mg"},{"bike_id":"f540b838-0bb0-4274-bdae-d1e22694aa45","system_id":"levelo_inurba_marseille","lat":43.28478,"lon":5.38547,"is_reserved":false,"is_disabled":false,"rental_uris":{"android":"levelo://app?vid=f540b838-0bb0-4274-bdae-d1e22694aa45","ios":"levelo://app?vid=f540b838-0bb0-4274-bdae-d1e22694aa45"},"vehicle_type_id":"4","last_reported":1744633173,"current_range_meters":4400,"station_id":"ce4bh8p2rcd13ifvqeb0","pricing_plan_id":"cebpf4jnsgd1na2vs0mg"},{"bike_id":"42ade35e-17ac-4649-a039-db952febe446","system_id":"levelo_inurba_marseille","lat":43.30539,"lon":5.36523,"is_reserved":false,"is_disabled":false,"rental_uris":{"android":"levelo://app?vid=42ade35e-17ac-4649-a039-db952febe446","ios":"levelo://app?vid=42ade35e-17ac-4649-a039-db952febe446"},"vehicle_type_id":"4","last_reported":1744633173,"current_range_meters":4400,"station_id":"ce4bgs12rcd13ifvqcag","pricing_plan_id":"cebpf4jnsgd1na2vs0mg"},{"bike_id":"fe01d741-bbbe-4beb-9448-95f4918537c0","system_id":"levelo_inurba_marseille","lat":43.27673,"lon":5.38852,"is_reserved":false,"is_disabled":false,"rental_uris":{"android":"levelo://app?vid=fe01d741-bbbe-4beb-9448-95f4918537c0","ios":"levelo://app?vid=fe01d741-bbbe-4beb-9448-95f4918537c0"},"vehicle_type_id":"4","last_reported":1744633173,"current_range_meters":4800,"station_id":"ce4bhi12rcd13ifvqfo0","pricing_plan_id":"cebpf4jnsgd1na2vs0mg"},{"bike_id":"2f5bc015-0a98-4a0d-a50f-f7181e1d6abe","system_id":"levelo_inurba_marseille","lat":43.23418,"lon":5.41266,"is_reserved":false,"is_disabled":false,"rental_uris":{"android":"levelo://app?vid=2f5bc015-0a98-4a0d-a50f-f7181e1d6abe","ios":"levelo://app?vid=2f5bc015-0a98-4a0d-a50f-f7181e1d6abe"},"vehicle_type_id":"4","last_reported":1744633173,"current_range_meters":4800,"station_id":"","pricing_plan_id":"cebpf4jnsgd1na2vs0mg"},{"bike_id":"a8b89d78-2450-42d8-855d-8566c79069ad","system_id":"levelo_inurba_marseille","lat":43.32035,"lon":5.415578,"is_reserved":false,"is_disabled":false,"rental_uris":{"android":"levelo://app?vid=a8b89d78-2450-42d8-855d-8566c79069ad","ios":"levelo://app?vid=a8b89d78-2450-42d8-855d-8566c79069ad"},"vehicle_type_id":"4","last_reported":1744633173,"current_range_meters":4800,"station_id":"ce4bhq92rcd13ifvqhkg","pricing_plan_id":"cebpf4jnsgd1na2vs0mg"},{"bike_id":"0c2e3d58-ffd3-46bc-a20a-99e8a9447a57","system_id":"levelo_inurba_marseille","lat":43.25121,"lon":5.40317,"is_reserved":false,"is_disabled":false,"rental_uris":{"android":"levelo://app?vid=0c2e3d58-ffd3-46bc-a20a-99e8a9447a57","ios":"levelo://app?vid=0c2e3d58-ffd3-46bc-a20a-99e8a9447a57"},"vehicle_type_id":"4","last_reported":1744633173,"current_range_meters":4800,"station_id":"ce4bhlh2rcd13ifvqgig","pricing_plan_id":"cebpf4jnsgd1na2vs0mg"},{"bike_id":"3d16c2e3-7c12-4342-883a-029e0fc16b05","system_id":"levelo_inurba_marseille","lat":43.31044,"lon":5.3712,"is_reserved":false,"is_disabled":false,"rental_uris":{"android":"levelo://app?vid=3d16c2e3-7c12-4342-883a-029e0fc16b05","ios":"levelo://app?vid=3d16c2e3-7c12-4342-883a-029e0fc16b05"},"vehicle_type_id":"4","last_reported":1744633173,"current_range_meters":4800,"station_id":"","pricing_plan_id":"cebpf4jnsgd1na2vs0mg"},{"bike_id":"944bddab-9f41-4da7-80e2-b3e803e6b9a5","system_id":"levelo_inurba_marseille","lat":43.23064,"lon":5.35492,"is_reserved":false,"is_disabled":false,"rental_uris":{"android":"levelo://app?vid=944bddab-9f41-4da7-80e2-b3e803e6b9a5","ios":"levelo://app?vid=944bddab-9f41-4da7-80e2-b3e803e6b9a5"},"vehicle_type_id":"4","last_reported":1744633173,"current_range_meters":4800,"station_id":"cpo3342slgdg3j2ifvpg","pricing_plan_id":"cebpf4jnsgd1na2vs0mg"},{"bike_id":"cf675099-ac1b-4818-b622-5e6e28428c4a","system_id":"levelo_inurba_marseille","lat":43.229406,"lon":5.353744,"is_reserved":false,"is_disabled":false,"rental_uris":{"android":"levelo://app?vid=cf675099-ac1b-4818-b622-5e6e28428c4a","ios":"levelo://app?vid=cf675099-ac1b-4818-b622-5e6e28428c4a"},"vehicle_type_id":"4","last_reported":1744633173,"current_range_meters":5600,"station_id":"cpo3532slgdg3j2ikp40","pricing_plan_id":"cebpf4jnsgd1na2vs0mg"},{"bike_id":"4f38e127-be9f-468e-8871-e9cd4f365dca","system_id":"levelo_inurba_marseille","lat":43.24692,"lon":5.41163,"is_reserved":false,"is_disabled":false,"rental_uris":{"android":"levelo://app?vid=4f38e127-be9f-468e-8871-e9cd4f365dca","ios":"levelo://app?vid=4f38e127-be9f-468e-8871-e9cd4f365dca"},"vehicle_type_id":"4","last_reported":1744633173,"current_range_meters":5600,"station_id":"","pricing_plan_id":"cebpf4jnsgd1na2vs0mg"},{"bike_id":"718dcdcd-cb42-4fe2-917a-8cd3e63c1ce6","system_id":"levelo_inurba_marseille","lat":43.302571,"lon":5.400943,"is_reserved":false,"is_disabled":false,"rental_uris":{"android":"levelo://app?vid=718dcdcd-cb42-4fe2-917a-8cd3e63c1ce6","ios":"levelo://app?vid=718dcdcd-cb42-4fe2-917a-8cd3e63c1ce6"},"vehicle_type_id":"4","last_reported":1744633173,"current_range_meters":5600,"station_id":"ce4bgvh2rcd13ifvqcs0","pricing_plan_id":"cebpf4jnsgd1na2vs0mg"},{"bike_id":"7990abb6-76ec-4665-bb5b-54a1849077ec","system_id":"levelo_inurba_marseille","lat":43.24996,"lon":5.38934,"is_reserved":false,"is_disabled":false,"rental_uris":{"android":"levelo://app?vid=7990abb6-76ec-4665-bb5b-54a1849077ec","ios":"levelo://app?vid=7990abb6-76ec-4665-bb5b-54a1849077ec"},"vehicle_type_id":"4","last_reported":1744633173,"current_range_meters":6000,"station_id":"ce4bhgp2rcd13ifvqfd0","pricing_plan_id":"cebpf4jnsgd1na2vs0mg"},{"bike_id":"ba8e5a73-9586-4987-9570-0c8f95aa394b","system_id":"levelo_inurba_marseille","lat":43.31246,"lon":5.36789,"is_reserved":false,"is_disabled":false,"rental_uris":{"android":"levelo://app?vid=ba8e5a73-9586-4987-9570-0c8f95aa394b","ios":"levelo://app?vid=ba8e5a73-9586-4987-9570-0c8f95aa394b"},"vehicle_type_id":"4","last_reported":1744633173,"current_range_meters":6000,"station_id":"","pricing_plan_id":"cebpf4jnsgd1na2vs0mg"},{"bike_id":"e0011279-3f6c-43bc-8755-06e1226c3693","system_id":"levelo_inurba_marseille","lat":43.286721,"lon":5.384083,"is_reserved":false,"is_disabled":false,"rental_uris":{"android":"levelo://app?vid=e0011279-3f6c-43bc-8755-06e1226c3693","ios":"levelo://app?vid=e0011279-3f6c-43bc-8755-06e1226c3693"},"vehicle_type_id":"4","last_reported":1744633173,"current_range_meters":6000,"station_id":"ce4bhjp2rcd13ifvqga0","pricing_plan_id":"cebpf4jnsgd1na2vs0mg"},{"bike_id":"d5298e72-80b1-4c4e-b4a1-f00cb333279e","system_id":"levelo_inurba_marseille","lat":43.27204,"lon":5.3919,"is_reserved":false,"is_disabled":false,"rental_uris":{"android":"levelo://app?vid=d5298e72-80b1-4c4e-b4a1-f00cb333279e","ios":"levelo://app?vid=d5298e72-80b1-4c4e-b4a1-f00cb333279e"},"vehicle_type_id":"4","last_reported":1744633173,"current_range_meters":6000,"station_id":"ce4bhhp2rcd13ifvqfm0","pricing_plan_id":"cebpf4jnsgd1na2vs0mg"},{"bike_id":"17fdf434-5bf8-4757-8a31-a5cbccbc0030","system_id":"levelo_inurba_marseille","lat":43.23178,"lon":5.39985,"is_reserved":false,"is_disabled":false,"rental_uris":{"android":"levelo://app?vid=17fdf434-5bf8-4757-8a31-a5cbccbc0030","ios":"levelo://app?vid=17fdf434-5bf8-4757-8a31-a5cbccbc0030"},"vehicle_type_id":"4","last_reported":1744633173,"current_range_meters":6400,"station_id":"ce4bhn12rcd13ifvqgqg","pricing_plan_id":"cebpf4jnsgd1na2vs0mg"},{"bike_id":"76450c2c-888f-4d08-a5c0-d825237615aa","system_id":"levelo_inurba_marseille","lat":43.27226,"lon":5.42307,"is_reserved":false,"is_disabled":false,"rental_uris":{"android":"levelo://app?vid=76450c2c-888f-4d08-a5c0-d825237615aa","ios":"levelo://app?vid=76450c2c-888f-4d08-a5c0-d825237615aa"},"vehicle_type_id":"4","last_reported":1744633173,"current_range_meters":6800,"station_id":"","pricing_plan_id":"cebpf4jnsgd1na2vs0mg"},{"bike_id":"e3e6ba67-be51-4ea1-87b5-c5669597f4cb","system_id":"levelo_inurba_marseille","lat":43.30377,"lon":5.42494,"is_reserved":false,"is_disabled":false,"rental_uris":{"android":"levelo://app?vid=e3e6ba67-be51-4ea1-87b5-c5669597f4cb","ios":"levelo://app?vid=e3e6ba67-be51-4ea1-87b5-c5669597f4cb"},"vehicle_type_id":"4","last_reported":1744633173,"current_range_meters":6000,"station_id":"ce4bhoh2rcd13ifvqh6g","pricing_plan_id":"cebpf4jnsgd1na2vs0mg"},{"bike_id":"bbe8c3d1-30b6-4166-ae09-eeb82d1a6005","system_id":"levelo_inurba_marseille","lat":43.29261,"lon":5.37652,"is_reserved":false,"is_disabled":false,"rental_uris":{"android":"levelo://app?vid=bbe8c3d1-30b6-4166-ae09-eeb82d1a6005","ios":"levelo://app?vid=bbe8c3d1-30b6-4166-ae09-eeb82d1a6005"},"vehicle_type_id":"4","last_reported":1744633173,"current_range_meters":6800,"station_id":"ce4bgi12rcd13ifvqb80","pricing_plan_id":"cebpf4jnsgd1na2vs0mg"},{"bike_id":"c127d1a8-0150-4856-a57b-18fd29314b2c","system_id":"levelo_inurba_marseille","lat":43.32493,"lon":5.36566,"is_reserved":false,"is_disabled":false,"rental_uris":{"android":"levelo://app?vid=c127d1a8-0150-4856-a57b-18fd29314b2c","ios":"levelo://app?vid=c127d1a8-0150-4856-a57b-18fd29314b2c"},"vehicle_type_id":"4","last_reported":1744633173,"current_range_meters":6800,"station_id":"ce4bhs12rcd13ifvqhvg","pricing_plan_id":"cebpf4jnsgd1na2vs0mg"},{"bike_id":"9bf4b27f-11bd-4bc9-9c7a-4e39a8b9523a","system_id":"levelo_inurba_marseille","lat":43.30549,"lon":5.36557,"is_reserved":false,"is_disabled":false,"rental_uris":{"android":"levelo://app?vid=9bf4b27f-11bd-4bc9-9c7a-4e39a8b9523a","ios":"levelo://app?vid=9bf4b27f-11bd-4bc9-9c7a-4e39a8b9523a"},"vehicle_type_id":"4","last_reported":1744633173,"current_range_meters":6800,"station_id":"ce4bgs12rcd13ifvqcag","pricing_plan_id":"cebpf4jnsgd1na2vs0mg"},{"bike_id":"bca1fa3d-96ed-4a6c-af60-fe0f4f410f45","system_id":"levelo_inurba_marseille","lat":43.310802,"lon":5.424307,"is_reserved":false,"is_disabled":false,"rental_uris":{"android":"levelo://app?vid=bca1fa3d-96ed-4a6c-af60-fe0f4f410f45","ios":"levelo://app?vid=bca1fa3d-96ed-4a6c-af60-fe0f4f410f45"},"vehicle_type_id":"4","last_reported":1744633173,"current_range_meters":7200,"station_id":"ce4bhp12rcd13ifvqh9g","pricing_plan_id":"cebpf4jnsgd1na2vs0mg"},{"bike_id":"a5f72b2f-0493-41b5-be17-c5d6c69ee620","system_id":"levelo_inurba_marseille","lat":43.28271,"lon":5.35066,"is_reserved":false,"is_disabled":false,"rental_uris":{"android":"levelo://app?vid=a5f72b2f-0493-41b5-be17-c5d6c69ee620","ios":"levelo://app?vid=a5f72b2f-0493-41b5-be17-c5d6c69ee620"},"vehicle_type_id":"4","last_reported":1744633173,"current_range_meters":6400,"station_id":"ce4bhbp2rcd13ifvqerg","pricing_plan_id":"cebpf4jnsgd1na2vs0mg"},{"bike_id":"8d77eca9-482b-49f8-a493-6136dd158a1e","system_id":"levelo_inurba_marseille","lat":43.31705,"lon":5.43725,"is_reserved":false,"is_disabled":false,"rental_uris":{"android":"levelo://app?vid=8d77eca9-482b-49f8-a493-6136dd158a1e","ios":"levelo://app?vid=8d77eca9-482b-49f8-a493-6136dd158a1e"},"vehicle_type_id":"4","last_reported":1744633173,"current_range_meters":7200,"station_id":"ce4bhp92rcd13ifvqhcg","pricing_plan_id":"cebpf4jnsgd1na2vs0mg"},{"bike_id":"78b4ae7d-e190-44e1-924f-0a2dcce366e1","system_id":"levelo_inurba_marseille","lat":43.28369,"lon":5.38632,"is_reserved":false,"is_disabled":false,"rental_uris":{"android":"levelo://app?vid=78b4ae7d-e190-44e1-924f-0a2dcce366e1","ios":"levelo://app?vid=78b4ae7d-e190-44e1-924f-0a2dcce366e1"},"vehicle_type_id":"4","last_reported":1744633173,"current_range_meters":2000,"station_id":"ce4bh492rcd13ifvqdvg","pricing_plan_id":"cebpf4jnsgd1na2vs0mg"},{"bike_id":"cc91703e-d57e-4554-ad39-a0d090c6cfa5","system_id":"levelo_inurba_marseille","lat":43.30459,"lon":5.37906,"is_reserved":false,"is_disabled":false,"rental_uris":{"android":"levelo://app?vid=cc91703e-d57e-4554-ad39-a0d090c6cfa5","ios":"levelo://app?vid=cc91703e-d57e-4554-ad39-a0d090c6cfa5"},"vehicle_type_id":"4","last_reported":1744633173,"current_range_meters":9600,"station_id":"ce4bgup2rcd13ifvqcn0","pricing_plan_id":"cebpf4jnsgd1na2vs0mg"},{"bike_id":"1354834f-1a16-4e38-8ad6-544f05e905f6","system_id":"levelo_inurba_marseille","lat":43.24165,"lon":5.36397,"is_reserved":false,"is_disabled":false,"rental_uris":{"android":"levelo://app?vid=1354834f-1a16-4e38-8ad6-544f05e905f6","ios":"levelo://app?vid=1354834f-1a16-4e38-8ad6-544f05e905f6"},"vehicle_type_id":"4","last_reported":1744633173,"current_range_meters":8000,"station_id":"cpo36qri1sfpv3e86is0","pricing_plan_id":"cebpf4jnsgd1na2vs0mg"},{"bike_id":"b55dd5e7-54b2-4035-b945-7b626dd7afc7","system_id":"levelo_inurba_marseille","lat":43.275597,"lon":5.40912,"is_reserved":false,"is_disabled":false,"rental_uris":{"android":"levelo://app?vid=b55dd5e7-54b2-4035-b945-7b626dd7afc7","ios":"levelo://app?vid=b55dd5e7-54b2-4035-b945-7b626dd7afc7"},"vehicle_type_id":"4","last_reported":1744633173,"current_range_meters":8000,"station_id":"","pricing_plan_id":"cebpf4jnsgd1na2vs0mg"},{"bike_id":"84534c75-afab-43e1-bed1-cacf782229e5","system_id":"levelo_inurba_marseille","lat":43.24898,"lon":5.39415,"is_reserved":false,"is_disabled":false,"rental_uris":{"android":"levelo://app?vid=84534c75-afab-43e1-bed1-cacf782229e5","ios":"levelo://app?vid=84534c75-afab-43e1-bed1-cacf782229e5"},"vehicle_type_id":"4","last_reported":1744633173,"current_range_meters":8000,"station_id":"","pricing_plan_id":"cebpf4jnsgd1na2vs0mg"},{"bike_id":"0f5a9d40-30bf-4437-98f2-7414cc0804f7","system_id":"levelo_inurba_marseille","lat":43.24171,"lon":5.39722,"is_reserved":false,"is_disabled":false,"rental_uris":{"android":"levelo://app?vid=0f5a9d40-30bf-4437-98f2-7414cc0804f7","ios":"levelo://app?vid=0f5a9d40-30bf-4437-98f2-7414cc0804f7"},"vehicle_type_id":"4","last_reported":1744633173,"current_range_meters":8000,"station_id":"ce4bhn12rcd13ifvqgpg","pricing_plan_id":"cebpf4jnsgd1na2vs0mg"},{"bike_id":"efd328ca-f8bf-4550-bd94-c2fd75978f3c","system_id":"levelo_inurba_marseille","lat":43.33056,"lon":5.380813,"is_reserved":false,"is_disabled":false,"rental_uris":{"android":"levelo://app?vid=efd328ca-f8bf-4550-bd94-c2fd75978f3c","ios":"levelo://app?vid=efd328ca-f8bf-4550-bd94-c2fd75978f3c"},"vehicle_type_id":"4","last_reported":1744633173,"current_range_meters":8000,"station_id":"","pricing_plan_id":"cebpf4jnsgd1na2vs0mg"},{"bike_id":"17b2f462-7fc3-42f8-b144-7d700597a464","system_id":"levelo_inurba_marseille","lat":43.290039,"lon":5.356122,"is_reserved":false,"is_disabled":false,"rental_uris":{"android":"levelo://app?vid=17b2f462-7fc3-42f8-b144-7d700597a464","ios":"levelo://app?vid=17b2f462-7fc3-42f8-b144-7d700597a464"},"vehicle_type_id":"4","last_reported":1744633173,"current_range_meters":8400,"station_id":"ce4bhb92rcd13ifvqen0","pricing_plan_id":"cebpf4jnsgd1na2vs0mg"},{"bike_id":"f4c6fd18-b2ed-404d-9b02-9921cb6c1386","system_id":"levelo_inurba_marseille","lat":43.270692,"lon":5.422687,"is_reserved":false,"is_disabled":false,"rental_uris":{"android":"levelo://app?vid=f4c6fd18-b2ed-404d-9b02-9921cb6c1386","ios":"levelo://app?vid=f4c6fd18-b2ed-404d-9b02-9921cb6c1386"},"vehicle_type_id":"4","last_reported":1744633173,"current_range_meters":8400,"station_id":"ce4bhk92rcd13ifvqgb0","pricing_plan_id":"cebpf4jnsgd1na2vs0mg"},{"bike_id":"c8f9a407-ac58-46d0-b246-a0dfb747aa44","system_id":"levelo_inurba_marseille","lat":43.30298,"lon":5.39211,"is_reserved":false,"is_disabled":false,"rental_uris":{"android":"levelo://app?vid=c8f9a407-ac58-46d0-b246-a0dfb747aa44","ios":"levelo://app?vid=c8f9a407-ac58-46d0-b246-a0dfb747aa44"},"vehicle_type_id":"4","last_reported":1744633173,"current_range_meters":8400,"station_id":"ce4bgkh2rcd13ifvqbk0","pricing_plan_id":"cebpf4jnsgd1na2vs0mg"},{"bike_id":"d5a203fe-29bf-4d72-b015-b0dcbf8f77c2","system_id":"levelo_inurba_marseille","lat":43.30537,"lon":5.36561,"is_reserved":false,"is_disabled":false,"rental_uris":{"android":"levelo://app?vid=d5a203fe-29bf-4d72-b015-b0dcbf8f77c2","ios":"levelo://app?vid=d5a203fe-29bf-4d72-b015-b0dcbf8f77c2"},"vehicle_type_id":"4","last_reported":1744633173,"current_range_meters":8400,"station_id":"ce4bgs12rcd13ifvqcag","pricing_plan_id":"cebpf4jnsgd1na2vs0mg"},{"bike_id":"9279ff74-2a93-4f9e-acdc-bbe7caecb052","system_id":"levelo_inurba_marseille","lat":43.2893,"lon":5.3841,"is_reserved":false,"is_disabled":false,"rental_uris":{"android":"levelo://app?vid=9279ff74-2a93-4f9e-acdc-bbe7caecb052","ios":"levelo://app?vid=9279ff74-2a93-4f9e-acdc-bbe7caecb052"},"vehicle_type_id":"4","last_reported":1744633173,"current_range_meters":8800,"station_id":"ce4bh612rcd13ifvqe6g","pricing_plan_id":"cebpf4jnsgd1na2vs0mg"},{"bike_id":"012851f7-56cd-4d98-8bad-d55b07e5c5ae","system_id":"levelo_inurba_marseille","lat":43.28627,"lon":5.3511,"is_reserved":false,"is_disabled":false,"rental_uris":{"android":"levelo://app?vid=012851f7-56cd-4d98-8bad-d55b07e5c5ae","ios":"levelo://app?vid=012851f7-56cd-4d98-8bad-d55b07e5c5ae"},"vehicle_type_id":"4","last_reported":1744633173,"current_range_meters":9200,"station_id":"ce4bhch2rcd13ifvqeug","pricing_plan_id":"cebpf4jnsgd1na2vs0mg"},{"bike_id":"acd575b5-64e2-46d0-9647-d1a5da5ae732","system_id":"levelo_inurba_marseille","lat":43.23142,"lon":5.43719,"is_reserved":false,"is_disabled":false,"rental_uris":{"android":"levelo://app?vid=acd575b5-64e2-46d0-9647-d1a5da5ae732","ios":"levelo://app?vid=acd575b5-64e2-46d0-9647-d1a5da5ae732"},"vehicle_type_id":"4","last_reported":1744633173,"current_range_meters":9200,"station_id":"ce4bhmp2rcd13ifvqgog","pricing_plan_id":"cebpf4jnsgd1na2vs0mg"},{"bike_id":"8373f4b7-de31-4655-8c12-fa2eb584d200","system_id":"levelo_inurba_marseille","lat":43.28615,"lon":5.35105,"is_reserved":false,"is_disabled":false,"rental_uris":{"android":"levelo://app?vid=8373f4b7-de31-4655-8c12-fa2eb584d200","ios":"levelo://app?vid=8373f4b7-de31-4655-8c12-fa2eb584d200"},"vehicle_type_id":"4","last_reported":1744633173,"current_range_meters":9200,"station_id":"ce4bhch2rcd13ifvqeug","pricing_plan_id":"cebpf4jnsgd1na2vs0mg"},{"bike_id":"e837cd78-5648-4a3f-8280-332eca0da16f","system_id":"levelo_inurba_marseille","lat":43.26491,"lon":5.39559,"is_reserved":false,"is_disabled":false,"rental_uris":{"android":"levelo://app?vid=e837cd78-5648-4a3f-8280-332eca0da16f","ios":"levelo://app?vid=e837cd78-5648-4a3f-8280-332eca0da16f"},"vehicle_type_id":"4","last_reported":1744633173,"current_range_meters":9600,"station_id":"ce4bhi12rcd13ifvqfq0","pricing_plan_id":"cebpf4jnsgd1na2vs0mg"},{"bike_id":"1f671a7c-fa42-4090-a4ec-798af79b9a7e","system_id":"levelo_inurba_marseille","lat":43.30301,"lon":5.39219,"is_reserved":false,"is_disabled":false,"rental_uris":{"android":"levelo://app?vid=1f671a7c-fa42-4090-a4ec-798af79b9a7e","ios":"levelo://app?vid=1f671a7c-fa42-4090-a4ec-798af79b9a7e"},"vehicle_type_id":"4","last_reported":1744633173,"current_range_meters":9600,"station_id":"ce4bgkh2rcd13ifvqbk0","pricing_plan_id":"cebpf4jnsgd1na2vs0mg"},{"bike_id":"72ebdd68-4727-45bd-ae87-df9c54928155","system_id":"levelo_inurba_marseille","lat":43.325428,"lon":5.410668,"is_reserved":false,"is_disabled":false,"rental_uris":{"android":"levelo://app?vid=72ebdd68-4727-45bd-ae87-df9c54928155","ios":"levelo://app?vid=72ebdd68-4727-45bd-ae87-df9c54928155"},"vehicle_type_id":"4","last_reported":1744633173,"current_range_meters":9600,"station_id":"","pricing_plan_id":"cebpf4jnsgd1na2vs0mg"},{"bike_id":"6a003e47-a1cc-4c38-b762-6e37af426d05","system_id":"levelo_inurba_marseille","lat":43.323644,"lon":5.367604,"is_reserved":false,"is_disabled":false,"rental_uris":{"android":"levelo://app?vid=6a003e47-a1cc-4c38-b762-6e37af426d05","ios":"levelo://app?vid=6a003e47-a1cc-4c38-b762-6e37af426d05"},"vehicle_type_id":"4","last_reported":1744633173,"current_range_meters":9600,"station_id":"ce4bhsh2rcd13ifvqi2g","pricing_plan_id":"cebpf4jnsgd1na2vs0mg"},{"bike_id":"5cacdac6-936a-44c6-9e06-3d5924e24ab3","system_id":"levelo_inurba_marseille","lat":43.28438,"lon":5.34996,"is_reserved":false,"is_disabled":false,"rental_uris":{"android":"levelo://app?vid=5cacdac6-936a-44c6-9e06-3d5924e24ab3","ios":"levelo://app?vid=5cacdac6-936a-44c6-9e06-3d5924e24ab3"},"vehicle_type_id":"4","last_reported":1744633173,"current_range_meters":10000,"station_id":"ce4bhbh2rcd13ifvqepg","pricing_plan_id":"cebpf4jnsgd1na2vs0mg"},{"bike_id":"b230476e-493a-411c-8365-e4f96a6a1bcd","system_id":"levelo_inurba_marseille","lat":43.29278,"lon":5.36843,"is_reserved":false,"is_disabled":false,"rental_uris":{"android":"levelo://app?vid=b230476e-493a-411c-8365-e4f96a6a1bcd","ios":"levelo://app?vid=b230476e-493a-411c-8365-e4f96a6a1bcd"},"vehicle_type_id":"4","last_reported":1744633173,"current_range_meters":10000,"station_id":"ce4bhbp2rcd13ifvqesg","pricing_plan_id":"cebpf4jnsgd1na2vs0mg"},{"bike_id":"52467ef2-bb23-4d5a-aebd-2782338dc161","system_id":"levelo_inurba_marseille","lat":43.21201,"lon":5.35077,"is_reserved":false,"is_disabled":false,"rental_uris":{"android":"levelo://app?vid=52467ef2-bb23-4d5a-aebd-2782338dc161","ios":"levelo://app?vid=52467ef2-bb23-4d5a-aebd-2782338dc161"},"vehicle_type_id":"4","last_reported":1744633173,"current_range_meters":10000,"station_id":"st_cvj6sg6p6f1abm77japg","pricing_plan_id":"cebpf4jnsgd1na2vs0mg"},{"bike_id":"11b70944-05ec-4b03-9695-409ca8dd702e","system_id":"levelo_inurba_marseille","lat":43.28714,"lon":5.37934,"is_reserved":false,"is_disabled":false,"rental_uris":{"android":"levelo://app?vid=11b70944-05ec-4b03-9695-409ca8dd702e","ios":"levelo://app?vid=11b70944-05ec-4b03-9695-409ca8dd702e"},"vehicle_type_id":"4","last_reported":1744633173,"current_range_meters":10000,"station_id":"ce4bh9p2rcd13ifvqec0","pricing_plan_id":"cebpf4jnsgd1na2vs0mg"},{"bike_id":"76ac45a7-b0e5-4dae-9b9f-8bdc8b5f43d4","system_id":"levelo_inurba_marseille","lat":43.311198,"lon":5.388664,"is_reserved":false,"is_disabled":false,"rental_uris":{"android":"levelo://app?vid=76ac45a7-b0e5-4dae-9b9f-8bdc8b5f43d4","ios":"levelo://app?vid=76ac45a7-b0e5-4dae-9b9f-8bdc8b5f43d4"},"vehicle_type_id":"4","last_reported":1744633173,"current_range_meters":10000,"station_id":"ce4bgv12rcd13ifvqcp0","pricing_plan_id":"cebpf4jnsgd1na2vs0mg"},{"bike_id":"4ab318a4-09e5-4d66-9049-a4b2c7959c31","system_id":"levelo_inurba_marseille","lat":43.295853,"lon":5.399702,"is_reserved":false,"is_disabled":false,"rental_uris":{"android":"levelo://app?vid=4ab318a4-09e5-4d66-9049-a4b2c7959c31","ios":"levelo://app?vid=4ab318a4-09e5-4d66-9049-a4b2c7959c31"},"vehicle_type_id":"4","last_reported":1744633173,"current_range_meters":10000,"station_id":"ce4bh312rcd13ifvqdj0","pricing_plan_id":"cebpf4jnsgd1na2vs0mg"},{"bike_id":"62d57370-6454-4cf3-8230-8b21f4885c6e","system_id":"levelo_inurba_marseille","lat":43.31121,"lon":5.37767,"is_reserved":false,"is_disabled":false,"rental_uris":{"android":"levelo://app?vid=62d57370-6454-4cf3-8230-8b21f4885c6e","ios":"levelo://app?vid=62d57370-6454-4cf3-8230-8b21f4885c6e"},"vehicle_type_id":"4","last_reported":1744633173,"current_range_meters":10800,"station_id":"ce4bgt92rcd13ifvqcg0","pricing_plan_id":"cebpf4jnsgd1na2vs0mg"},{"bike_id":"e931a8f5-1078-4a04-a56d-8cfff48676c5","system_id":"levelo_inurba_marseille","lat":43.26954,"lon":5.40325,"is_reserved":false,"is_disabled":true,"rental_uris":{"android":"levelo://app?vid=e931a8f5-1078-4a04-a56d-8cfff48676c5","ios":"levelo://app?vid=e931a8f5-1078-4a04-a56d-8cfff48676c5"},"vehicle_type_id":"4","last_reported":1744633173,"current_range_meters":10800,"station_id":"cjm6bp8fraef2m0cb0m0","pricing_plan_id":"cebpf4jnsgd1na2vs0mg"},{"bike_id":"50b1ad83-b765-4dfc-8c19-b49560836c7f","system_id":"levelo_inurba_marseille","lat":43.30127,"lon":5.39877,"is_reserved":false,"is_disabled":false,"rental_uris":{"android":"levelo://app?vid=50b1ad83-b765-4dfc-8c19-b49560836c7f","ios":"levelo://app?vid=50b1ad83-b765-4dfc-8c19-b49560836c7f"},"vehicle_type_id":"4","last_reported":1744633173,"current_range_meters":10800,"station_id":"ce4bh0h2rcd13ifvqd40","pricing_plan_id":"cebpf4jnsgd1na2vs0mg"},{"bike_id":"bccad579-4de4-4beb-8d06-bb1d50057ca3","system_id":"levelo_inurba_marseille","lat":43.311698,"lon":5.387197,"is_reserved":false,"is_disabled":false,"rental_uris":{"android":"levelo://app?vid=bccad579-4de4-4beb-8d06-bb1d50057ca3","ios":"levelo://app?vid=bccad579-4de4-4beb-8d06-bb1d50057ca3"},"vehicle_type_id":"4","last_reported":1744633173,"current_range_meters":10800,"station_id":"ce4bgs92rcd13ifvqcc0","pricing_plan_id":"cebpf4jnsgd1na2vs0mg"},{"bike_id":"e654e523-849c-4f04-8e39-f201a550baf0","system_id":"levelo_inurba_marseille","lat":43.29568,"lon":5.423,"is_reserved":false,"is_disabled":false,"rental_uris":{"android":"levelo://app?vid=e654e523-849c-4f04-8e39-f201a550baf0","ios":"levelo://app?vid=e654e523-849c-4f04-8e39-f201a550baf0"},"vehicle_type_id":"4","last_reported":1744633173,"current_range_meters":11200,"station_id":"ce4bhph2rcd13ifvqhdg","pricing_plan_id":"cebpf4jnsgd1na2vs0mg"},{"bike_id":"66387d47-ab35-47ea-b7ba-834d424802e2","system_id":"levelo_inurba_marseille","lat":43.22934,"lon":5.353767,"is_reserved":false,"is_disabled":false,"rental_uris":{"android":"levelo://app?vid=66387d47-ab35-47ea-b7ba-834d424802e2","ios":"levelo://app?vid=66387d47-ab35-47ea-b7ba-834d424802e2"},"vehicle_type_id":"4","last_reported":1744633173,"current_range_meters":11200,"station_id":"cpo3532slgdg3j2ikp40","pricing_plan_id":"cebpf4jnsgd1na2vs0mg"},{"bike_id":"48b7de01-2542-4f37-9ec7-c1fda2be3d48","system_id":"levelo_inurba_marseille","lat":43.25487,"lon":5.37646,"is_reserved":false,"is_disabled":false,"rental_uris":{"android":"levelo://app?vid=48b7de01-2542-4f37-9ec7-c1fda2be3d48","ios":"levelo://app?vid=48b7de01-2542-4f37-9ec7-c1fda2be3d48"},"vehicle_type_id":"4","last_reported":1744633173,"current_range_meters":11200,"station_id":"ce4bhh12rcd13ifvqff0","pricing_plan_id":"cebpf4jnsgd1na2vs0mg"},{"bike_id":"6923bb3d-bb33-4897-8089-cfeb8778c7de","system_id":"levelo_inurba_marseille","lat":43.284758,"lon":5.386108,"is_reserved":false,"is_disabled":false,"rental_uris":{"android":"levelo://app?vid=6923bb3d-bb33-4897-8089-cfeb8778c7de","ios":"levelo://app?vid=6923bb3d-bb33-4897-8089-cfeb8778c7de"},"vehicle_type_id":"4","last_reported":1744633173,"current_range_meters":11200,"station_id":"ce4bh8p2rcd13ifvqeb0","pricing_plan_id":"cebpf4jnsgd1na2vs0mg"},{"bike_id":"60aa41ac-b1d1-4588-9afb-4f27f39d22f6","system_id":"levelo_inurba_marseille","lat":43.28105,"lon":5.37841,"is_reserved":false,"is_disabled":false,"rental_uris":{"android":"levelo://app?vid=60aa41ac-b1d1-4588-9afb-4f27f39d22f6","ios":"levelo://app?vid=60aa41ac-b1d1-4588-9afb-4f27f39d22f6"},"vehicle_type_id":"4","last_reported":1744633173,"current_range_meters":11200,"station_id":"ce4bha12rcd13ifvqee0","pricing_plan_id":"cebpf4jnsgd1na2vs0mg"},{"bike_id":"a92d32b7-3eb3-4558-8c61-0436825bb550","system_id":"levelo_inurba_marseille","lat":43.31496,"lon":5.37318,"is_reserved":false,"is_disabled":false,"rental_uris":{"android":"levelo://app?vid=a92d32b7-3eb3-4558-8c61-0436825bb550","ios":"levelo://app?vid=a92d32b7-3eb3-4558-8c61-0436825bb550"},"vehicle_type_id":"4","last_reported":1744633173,"current_range_meters":11600,"station_id":"ce4bgt12rcd13ifvqcd0","pricing_plan_id":"cebpf4jnsgd1na2vs0mg"},{"bike_id":"baf2a1e6-8572-41ea-a7aa-7e85b0540488","system_id":"levelo_inurba_marseille","lat":43.21193,"lon":5.35073,"is_reserved":false,"is_disabled":false,"rental_uris":{"android":"levelo://app?vid=baf2a1e6-8572-41ea-a7aa-7e85b0540488","ios":"levelo://app?vid=baf2a1e6-8572-41ea-a7aa-7e85b0540488"},"vehicle_type_id":"4","last_reported":1744633173,"current_range_meters":12000,"station_id":"st_cvj6sg6p6f1abm77japg","pricing_plan_id":"cebpf4jnsgd1na2vs0mg"},{"bike_id":"ae06a8f5-3b5d-4dbe-b08e-da4853588f3b","system_id":"levelo_inurba_marseille","lat":43.29038,"lon":5.3996,"is_reserved":false,"is_disabled":false,"rental_uris":{"android":"levelo://app?vid=ae06a8f5-3b5d-4dbe-b08e-da4853588f3b","ios":"levelo://app?vid=ae06a8f5-3b5d-4dbe-b08e-da4853588f3b"},"vehicle_type_id":"4","last_reported":1744633173,"current_range_meters":12400,"station_id":"ce4bh392rcd13ifvqdm0","pricing_plan_id":"cebpf4jnsgd1na2vs0mg"},{"bike_id":"65cf5d7e-cd14-4850-9cb0-6315e83f0415","system_id":"levelo_inurba_marseille","lat":43.33595,"lon":5.4101,"is_reserved":false,"is_disabled":false,"rental_uris":{"android":"levelo://app?vid=65cf5d7e-cd14-4850-9cb0-6315e83f0415","ios":"levelo://app?vid=65cf5d7e-cd14-4850-9cb0-6315e83f0415"},"vehicle_type_id":"4","last_reported":1744633173,"current_range_meters":12400,"station_id":"ce4bhqh2rcd13ifvqhmg","pricing_plan_id":"cebpf4jnsgd1na2vs0mg"},{"bike_id":"4f307195-178e-4a27-9ace-fe2e85518a75","system_id":"levelo_inurba_marseille","lat":43.29199,"lon":5.3932,"is_reserved":false,"is_disabled":false,"rental_uris":{"android":"levelo://app?vid=4f307195-178e-4a27-9ace-fe2e85518a75","ios":"levelo://app?vid=4f307195-178e-4a27-9ace-fe2e85518a75"},"vehicle_type_id":"4","last_reported":1744633173,"current_range_meters":12800,"station_id":"ce4bh192rcd13ifvqdd0","pricing_plan_id":"cebpf4jnsgd1na2vs0mg"},{"bike_id":"e73ad3ef-6b64-4125-a9f7-9ff8a89e17fd","system_id":"levelo_inurba_marseille","lat":43.2439,"lon":5.37063,"is_reserved":false,"is_disabled":false,"rental_uris":{"android":"levelo://app?vid=e73ad3ef-6b64-4125-a9f7-9ff8a89e17fd","ios":"levelo://app?vid=e73ad3ef-6b64-4125-a9f7-9ff8a89e17fd"},"vehicle_type_id":"4","last_reported":1744633173,"current_range_meters":12800,"station_id":"ce4bhhh2rcd13ifvqfk0","pricing_plan_id":"cebpf4jnsgd1na2vs0mg"},{"bike_id":"7f0b55db-ed6e-4b41-81d8-18700b1d8f89","system_id":"levelo_inurba_marseille","lat":43.31489,"lon":5.3731,"is_reserved":false,"is_disabled":false,"rental_uris":{"android":"levelo://app?vid=7f0b55db-ed6e-4b41-81d8-18700b1d8f89","ios":"levelo://app?vid=7f0b55db-ed6e-4b41-81d8-18700b1d8f89"},"vehicle_type_id":"4","last_reported":1744633173,"current_range_meters":12800,"station_id":"ce4bgt12rcd13ifvqcd0","pricing_plan_id":"cebpf4jnsgd1na2vs0mg"},{"bike_id":"8ca30d38-1f4d-4b2d-a859-63efb06f85a7","system_id":"levelo_inurba_marseille","lat":43.23964,"lon":5.36631,"is_reserved":false,"is_disabled":false,"rental_uris":{"android":"levelo://app?vid=8ca30d38-1f4d-4b2d-a859-63efb06f85a7","ios":"levelo://app?vid=8ca30d38-1f4d-4b2d-a859-63efb06f85a7"},"vehicle_type_id":"4","last_reported":1744633173,"current_range_meters":14000,"station_id":"ce4bhi12rcd13ifvqfp0","pricing_plan_id":"cebpf4jnsgd1na2vs0mg"},{"bike_id":"fb13c941-1858-46a4-86ad-2a5e302996c3","system_id":"levelo_inurba_marseille","lat":43.25859,"lon":5.39915,"is_reserved":false,"is_disabled":true,"rental_uris":{"android":"levelo://app?vid=fb13c941-1858-46a4-86ad-2a5e302996c3","ios":"levelo://app?vid=fb13c941-1858-46a4-86ad-2a5e302996c3"},"vehicle_type_id":"4","last_reported":1744633173,"current_range_meters":14000,"station_id":"ce4bhl92rcd13ifvqghg","pricing_plan_id":"cebpf4jnsgd1na2vs0mg"},{"bike_id":"9032fd9f-8258-4b06-828f-3216c8110290","system_id":"levelo_inurba_marseille","lat":43.30981,"lon":5.41746,"is_reserved":false,"is_disabled":true,"rental_uris":{"android":"levelo://app?vid=9032fd9f-8258-4b06-828f-3216c8110290","ios":"levelo://app?vid=9032fd9f-8258-4b06-828f-3216c8110290"},"vehicle_type_id":"4","last_reported":1744633173,"current_range_meters":14000,"station_id":"","pricing_plan_id":"cebpf4jnsgd1na2vs0mg"},{"bike_id":"87075890-e5ba-46d5-9a93-7cad8009d4fc","system_id":"levelo_inurba_marseille","lat":43.26496,"lon":5.39546,"is_reserved":false,"is_disabled":false,"rental_uris":{"android":"levelo://app?vid=87075890-e5ba-46d5-9a93-7cad8009d4fc","ios":"levelo://app?vid=87075890-e5ba-46d5-9a93-7cad8009d4fc"},"vehicle_type_id":"4","last_reported":1744633173,"current_range_meters":14400,"station_id":"ce4bhi12rcd13ifvqfq0","pricing_plan_id":"cebpf4jnsgd1na2vs0mg"},{"bike_id":"02efc35b-2bc0-4b06-96ac-817f469a9790","system_id":"levelo_inurba_marseille","lat":43.28484,"lon":5.38417,"is_reserved":false,"is_disabled":false,"rental_uris":{"android":"levelo://app?vid=02efc35b-2bc0-4b06-96ac-817f469a9790","ios":"levelo://app?vid=02efc35b-2bc0-4b06-96ac-817f469a9790"},"vehicle_type_id":"4","last_reported":1744633173,"current_range_meters":14400,"station_id":"ce4bh512rcd13ifvqe3g","pricing_plan_id":"cebpf4jnsgd1na2vs0mg"},{"bike_id":"9087ee42-5ffd-4201-a2e8-24fc4be84699","system_id":"levelo_inurba_marseille","lat":43.29372,"lon":5.378692,"is_reserved":false,"is_disabled":false,"rental_uris":{"android":"levelo://app?vid=9087ee42-5ffd-4201-a2e8-24fc4be84699","ios":"levelo://app?vid=9087ee42-5ffd-4201-a2e8-24fc4be84699"},"vehicle_type_id":"4","last_reported":1744633173,"current_range_meters":14400,"station_id":"ce4bgjh2rcd13ifvqbf0","pricing_plan_id":"cebpf4jnsgd1na2vs0mg"},{"bike_id":"216a8464-4ea5-4b56-8cd6-224becea39c4","system_id":"levelo_inurba_marseille","lat":43.27816,"lon":5.40731,"is_reserved":false,"is_disabled":false,"rental_uris":{"android":"levelo://app?vid=216a8464-4ea5-4b56-8cd6-224becea39c4","ios":"levelo://app?vid=216a8464-4ea5-4b56-8cd6-224becea39c4"},"vehicle_type_id":"4","last_reported":1744633173,"current_range_meters":14400,"station_id":"ce4bhnh2rcd13ifvqgtg","pricing_plan_id":"cebpf4jnsgd1na2vs0mg"},{"bike_id":"70f664fc-dc6d-4561-a6b8-06a3c7e671b8","system_id":"levelo_inurba_marseille","lat":43.26679,"lon":5.38271,"is_reserved":false,"is_disabled":false,"rental_uris":{"android":"levelo://app?vid=70f664fc-dc6d-4561-a6b8-06a3c7e671b8","ios":"levelo://app?vid=70f664fc-dc6d-4561-a6b8-06a3c7e671b8"},"vehicle_type_id":"4","last_reported":1744633173,"current_range_meters":14400,"station_id":"ce4bhg92rcd13ifvqf90","pricing_plan_id":"cebpf4jnsgd1na2vs0mg"},{"bike_id":"26f66251-49be-46ed-903f-d83387d6a390","system_id":"levelo_inurba_marseille","lat":43.30297,"lon":5.39216,"is_reserved":false,"is_disabled":false,"rental_uris":{"android":"levelo://app?vid=26f66251-49be-46ed-903f-d83387d6a390","ios":"levelo://app?vid=26f66251-49be-46ed-903f-d83387d6a390"},"vehicle_type_id":"4","last_reported":1744633173,"current_range_meters":14800,"station_id":"ce4bgkh2rcd13ifvqbk0","pricing_plan_id":"cebpf4jnsgd1na2vs0mg"},{"bike_id":"53dc27fa-d036-4e19-9f96-4fa31745837e","system_id":"levelo_inurba_marseille","lat":43.27949,"lon":5.4106,"is_reserved":false,"is_disabled":false,"rental_uris":{"android":"levelo://app?vid=53dc27fa-d036-4e19-9f96-4fa31745837e","ios":"levelo://app?vid=53dc27fa-d036-4e19-9f96-4fa31745837e"},"vehicle_type_id":"4","last_reported":1744633173,"current_range_meters":14800,"station_id":"ce4bhnp2rcd13ifvqh0g","pricing_plan_id":"cebpf4jnsgd1na2vs0mg"},{"bike_id":"ab25c2fd-d40e-4278-b08f-3a702154e771","system_id":"levelo_inurba_marseille","lat":43.30167,"lon":5.38089,"is_reserved":false,"is_disabled":false,"rental_uris":{"android":"levelo://app?vid=ab25c2fd-d40e-4278-b08f-3a702154e771","ios":"levelo://app?vid=ab25c2fd-d40e-4278-b08f-3a702154e771"},"vehicle_type_id":"4","last_reported":1744633173,"current_range_meters":14800,"station_id":"ce4bgjp2rcd13ifvqbh0","pricing_plan_id":"cebpf4jnsgd1na2vs0mg"},{"bike_id":"27a55245-8dd2-4f1a-af63-95a9d7b71690","system_id":"levelo_inurba_marseille","lat":43.31066,"lon":5.37838,"is_reserved":false,"is_disabled":true,"rental_uris":{"android":"levelo://app?vid=27a55245-8dd2-4f1a-af63-95a9d7b71690","ios":"levelo://app?vid=27a55245-8dd2-4f1a-af63-95a9d7b71690"},"vehicle_type_id":"4","last_reported":1744633173,"current_range_meters":14800,"station_id":"","pricing_plan_id":"cebpf4jnsgd1na2vs0mg"},{"bike_id":"06d31ebf-7ff5-40d2-9dc7-1b042c4c1422","system_id":"levelo_inurba_marseille","lat":43.30539,"lon":5.38428,"is_reserved":false,"is_disabled":false,"rental_uris":{"android":"levelo://app?vid=06d31ebf-7ff5-40d2-9dc7-1b042c4c1422","ios":"levelo://app?vid=06d31ebf-7ff5-40d2-9dc7-1b042c4c1422"},"vehicle_type_id":"4","last_reported":1744633173,"current_range_meters":15200,"station_id":"ce4bgg92rcd13ifvqb30","pricing_plan_id":"cebpf4jnsgd1na2vs0mg"},{"bike_id":"d2f6a288-7d44-4be4-b798-932022d90e9d","system_id":"levelo_inurba_marseille","lat":43.30279,"lon":5.37693,"is_reserved":false,"is_disabled":false,"rental_uris":{"android":"levelo://app?vid=d2f6a288-7d44-4be4-b798-932022d90e9d","ios":"levelo://app?vid=d2f6a288-7d44-4be4-b798-932022d90e9d"},"vehicle_type_id":"4","last_reported":1744633173,"current_range_meters":15200,"station_id":"ce4bguh2rcd13ifvqcj0","pricing_plan_id":"cebpf4jnsgd1na2vs0mg"},{"bike_id":"cbef0eef-6f0f-4f55-9a86-b27ef73ad1ee","system_id":"levelo_inurba_marseille","lat":43.29857,"lon":5.3628,"is_reserved":false,"is_disabled":false,"rental_uris":{"android":"levelo://app?vid=cbef0eef-6f0f-4f55-9a86-b27ef73ad1ee","ios":"levelo://app?vid=cbef0eef-6f0f-4f55-9a86-b27ef73ad1ee"},"vehicle_type_id":"4","last_reported":1744633173,"current_range_meters":16000,"station_id":"ce4bgpp2rcd13ifvqc3g","pricing_plan_id":"cebpf4jnsgd1na2vs0mg"},{"bike_id":"203b4267-a586-449a-91c4-6e4bec2a08e5","system_id":"levelo_inurba_marseille","lat":43.32476,"lon":5.3658,"is_reserved":false,"is_disabled":false,"rental_uris":{"android":"levelo://app?vid=203b4267-a586-449a-91c4-6e4bec2a08e5","ios":"levelo://app?vid=203b4267-a586-449a-91c4-6e4bec2a08e5"},"vehicle_type_id":"4","last_reported":1744633173,"current_range_meters":15200,"station_id":"ce4bhs12rcd13ifvqhvg","pricing_plan_id":"cebpf4jnsgd1na2vs0mg"},{"bike_id":"d5a25843-a862-432c-b9b2-e2627b892a44","system_id":"levelo_inurba_marseille","lat":43.31448,"lon":5.36711,"is_reserved":false,"is_disabled":false,"rental_uris":{"android":"levelo://app?vid=d5a25843-a862-432c-b9b2-e2627b892a44","ios":"levelo://app?vid=d5a25843-a862-432c-b9b2-e2627b892a44"},"vehicle_type_id":"4","last_reported":1744633173,"current_range_meters":16000,"station_id":"","pricing_plan_id":"cebpf4jnsgd1na2vs0mg"},{"bike_id":"61377ee4-fd99-4c2f-b5ad-a5ac167d945b","system_id":"levelo_inurba_marseille","lat":43.23172,"lon":5.43692,"is_reserved":false,"is_disabled":false,"rental_uris":{"android":"levelo://app?vid=61377ee4-fd99-4c2f-b5ad-a5ac167d945b","ios":"levelo://app?vid=61377ee4-fd99-4c2f-b5ad-a5ac167d945b"},"vehicle_type_id":"4","last_reported":1744633173,"current_range_meters":16000,"station_id":"ce4bhmp2rcd13ifvqgog","pricing_plan_id":"cebpf4jnsgd1na2vs0mg"},{"bike_id":"40db818b-5b9e-46bf-8274-264778958c39","system_id":"levelo_inurba_marseille","lat":43.2316,"lon":5.43712,"is_reserved":false,"is_disabled":false,"rental_uris":{"android":"levelo://app?vid=40db818b-5b9e-46bf-8274-264778958c39","ios":"levelo://app?vid=40db818b-5b9e-46bf-8274-264778958c39"},"vehicle_type_id":"4","last_reported":1744633173,"current_range_meters":16000,"station_id":"ce4bhmp2rcd13ifvqgog","pricing_plan_id":"cebpf4jnsgd1na2vs0mg"},{"bike_id":"2706522f-ceeb-453f-b3d1-07be1e166568","system_id":"levelo_inurba_marseille","lat":43.28482,"lon":5.38582,"is_reserved":false,"is_disabled":false,"rental_uris":{"android":"levelo://app?vid=2706522f-ceeb-453f-b3d1-07be1e166568","ios":"levelo://app?vid=2706522f-ceeb-453f-b3d1-07be1e166568"},"vehicle_type_id":"4","last_reported":1744633173,"current_range_meters":16400,"station_id":"ce4bh8p2rcd13ifvqeb0","pricing_plan_id":"cebpf4jnsgd1na2vs0mg"},{"bike_id":"7068e823-0ef7-4bec-9d46-9774d9ea3ba0","system_id":"levelo_inurba_marseille","lat":43.31492,"lon":5.373,"is_reserved":false,"is_disabled":false,"rental_uris":{"android":"levelo://app?vid=7068e823-0ef7-4bec-9d46-9774d9ea3ba0","ios":"levelo://app?vid=7068e823-0ef7-4bec-9d46-9774d9ea3ba0"},"vehicle_type_id":"4","last_reported":1744633173,"current_range_meters":16400,"station_id":"ce4bgt12rcd13ifvqcd0","pricing_plan_id":"cebpf4jnsgd1na2vs0mg"},{"bike_id":"661fac09-c588-4dc1-94f4-64dc29c5cd50","system_id":"levelo_inurba_marseille","lat":43.29609,"lon":5.37727,"is_reserved":false,"is_disabled":false,"rental_uris":{"android":"levelo://app?vid=661fac09-c588-4dc1-94f4-64dc29c5cd50","ios":"levelo://app?vid=661fac09-c588-4dc1-94f4-64dc29c5cd50"},"vehicle_type_id":"4","last_reported":1744633173,"current_range_meters":16400,"station_id":"ce4bgi92rcd13ifvqb90","pricing_plan_id":"cebpf4jnsgd1na2vs0mg"},{"bike_id":"9481a4d4-998c-4242-822b-0b8fa3017440","system_id":"levelo_inurba_marseille","lat":43.28862,"lon":5.3935,"is_reserved":false,"is_disabled":true,"rental_uris":{"android":"levelo://app?vid=9481a4d4-998c-4242-822b-0b8fa3017440","ios":"levelo://app?vid=9481a4d4-998c-4242-822b-0b8fa3017440"},"vehicle_type_id":"4","last_reported":1744633173,"current_range_meters":16400,"station_id":"ce4bh2p2rcd13ifvqdi0","pricing_plan_id":"cebpf4jnsgd1na2vs0mg"},{"bike_id":"56135a82-d19f-45ea-a72c-58b1131d0fcb","system_id":"levelo_inurba_marseille","lat":43.280841,"lon":5.396646,"is_reserved":false,"is_disabled":true,"rental_uris":{"android":"levelo://app?vid=56135a82-d19f-45ea-a72c-58b1131d0fcb","ios":"levelo://app?vid=56135a82-d19f-45ea-a72c-58b1131d0fcb"},"vehicle_type_id":"4","last_reported":1744633173,"current_range_meters":16400,"station_id":"ce4bho12rcd13ifvqh2g","pricing_plan_id":"cebpf4jnsgd1na2vs0mg"},{"bike_id":"4c7e3872-2a7d-46f3-b581-3ef46671ef50","system_id":"levelo_inurba_marseille","lat":43.26811,"lon":5.4027,"is_reserved":false,"is_disabled":false,"rental_uris":{"android":"levelo://app?vid=4c7e3872-2a7d-46f3-b581-3ef46671ef50","ios":"levelo://app?vid=4c7e3872-2a7d-46f3-b581-3ef46671ef50"},"vehicle_type_id":"4","last_reported":1744633173,"current_range_meters":16800,"station_id":"ce501612rcd8frsf0b60","pricing_plan_id":"cebpf4jnsgd1na2vs0mg"},{"bike_id":"a818834f-725d-4dbb-9bab-d3518b1b13c4","system_id":"levelo_inurba_marseille","lat":43.32221,"lon":5.36533,"is_reserved":false,"is_disabled":false,"rental_uris":{"android":"levelo://app?vid=a818834f-725d-4dbb-9bab-d3518b1b13c4","ios":"levelo://app?vid=a818834f-725d-4dbb-9bab-d3518b1b13c4"},"vehicle_type_id":"4","last_reported":1744633173,"current_range_meters":16800,"station_id":"ce4bhsh2rcd13ifvqi2g","pricing_plan_id":"cebpf4jnsgd1na2vs0mg"},{"bike_id":"c80afc84-5fe3-4817-888f-eb9d8bae565c","system_id":"levelo_inurba_marseille","lat":43.29717,"lon":5.36605,"is_reserved":false,"is_disabled":false,"rental_uris":{"android":"levelo://app?vid=c80afc84-5fe3-4817-888f-eb9d8bae565c","ios":"levelo://app?vid=c80afc84-5fe3-4817-888f-eb9d8bae565c"},"vehicle_type_id":"4","last_reported":1744633173,"current_range_meters":16800,"station_id":"ce4bgn12rcd13ifvqbt0","pricing_plan_id":"cebpf4jnsgd1na2vs0mg"},{"bike_id":"08e69920-6699-44a2-bf5e-065531bec167","system_id":"levelo_inurba_marseille","lat":43.29261,"lon":5.40137,"is_reserved":false,"is_disabled":true,"rental_uris":{"android":"levelo://app?vid=08e69920-6699-44a2-bf5e-065531bec167","ios":"levelo://app?vid=08e69920-6699-44a2-bf5e-065531bec167"},"vehicle_type_id":"4","last_reported":1744633173,"current_range_meters":16800,"station_id":"ce4bh312rcd13ifvqdk0","pricing_plan_id":"cebpf4jnsgd1na2vs0mg"},{"bike_id":"cae5cb7a-b5a0-4962-b670-708b44fc2a06","system_id":"levelo_inurba_marseille","lat":43.30542,"lon":5.36537,"is_reserved":false,"is_disabled":false,"rental_uris":{"android":"levelo://app?vid=cae5cb7a-b5a0-4962-b670-708b44fc2a06","ios":"levelo://app?vid=cae5cb7a-b5a0-4962-b670-708b44fc2a06"},"vehicle_type_id":"4","last_reported":1744633173,"current_range_meters":16800,"station_id":"ce4bgs12rcd13ifvqcag","pricing_plan_id":"cebpf4jnsgd1na2vs0mg"},{"bike_id":"64a142f1-8513-4855-a8d9-499abefa2012","system_id":"levelo_inurba_marseille","lat":43.311477,"lon":5.370905,"is_reserved":false,"is_disabled":false,"rental_uris":{"android":"levelo://app?vid=64a142f1-8513-4855-a8d9-499abefa2012","ios":"levelo://app?vid=64a142f1-8513-4855-a8d9-499abefa2012"},"vehicle_type_id":"4","last_reported":1744633173,"current_range_meters":16400,"station_id":"ce4bgt92rcd13ifvqcg0","pricing_plan_id":"cebpf4jnsgd1na2vs0mg"},{"bike_id":"f19430ea-e069-4a18-8196-e80a3e0b39d0","system_id":"levelo_inurba_marseille","lat":43.29267,"lon":5.3844,"is_reserved":false,"is_disabled":false,"rental_uris":{"android":"levelo://app?vid=f19430ea-e069-4a18-8196-e80a3e0b39d0","ios":"levelo://app?vid=f19430ea-e069-4a18-8196-e80a3e0b39d0"},"vehicle_type_id":"4","last_reported":1744633173,"current_range_meters":17200,"station_id":"ce4bh692rcd13ifvqea0","pricing_plan_id":"cebpf4jnsgd1na2vs0mg"},{"bike_id":"e37d0f53-9dff-452b-be03-57fbab08bad4","system_id":"levelo_inurba_marseille","lat":43.27208,"lon":5.39187,"is_reserved":false,"is_disabled":false,"rental_uris":{"android":"levelo://app?vid=e37d0f53-9dff-452b-be03-57fbab08bad4","ios":"levelo://app?vid=e37d0f53-9dff-452b-be03-57fbab08bad4"},"vehicle_type_id":"4","last_reported":1744633173,"current_range_meters":16800,"station_id":"ce4bhhp2rcd13ifvqfm0","pricing_plan_id":"cebpf4jnsgd1na2vs0mg"},{"bike_id":"301f53d6-0a8d-48c7-b250-860880def1f4","system_id":"levelo_inurba_marseille","lat":43.3103,"lon":5.37122,"is_reserved":false,"is_disabled":false,"rental_uris":{"android":"levelo://app?vid=301f53d6-0a8d-48c7-b250-860880def1f4","ios":"levelo://app?vid=301f53d6-0a8d-48c7-b250-860880def1f4"},"vehicle_type_id":"4","last_reported":1744633173,"current_range_meters":17200,"station_id":"","pricing_plan_id":"cebpf4jnsgd1na2vs0mg"},{"bike_id":"388444d1-f5ea-46ab-8460-639b8a22d278","system_id":"levelo_inurba_marseille","lat":43.3091,"lon":5.3686,"is_reserved":false,"is_disabled":false,"rental_uris":{"android":"levelo://app?vid=388444d1-f5ea-46ab-8460-639b8a22d278","ios":"levelo://app?vid=388444d1-f5ea-46ab-8460-639b8a22d278"},"vehicle_type_id":"4","last_reported":1744633173,"current_range_meters":17200,"station_id":"ce4bgn92rcd13ifvqbvg","pricing_plan_id":"cebpf4jnsgd1na2vs0mg"},{"bike_id":"98f1ad2d-9ddc-42d6-82bf-b6c56a8de94a","system_id":"levelo_inurba_marseille","lat":43.29602,"lon":5.37716,"is_reserved":false,"is_disabled":true,"rental_uris":{"android":"levelo://app?vid=98f1ad2d-9ddc-42d6-82bf-b6c56a8de94a","ios":"levelo://app?vid=98f1ad2d-9ddc-42d6-82bf-b6c56a8de94a"},"vehicle_type_id":"4","last_reported":1744633173,"current_range_meters":17200,"station_id":"ce4bgi92rcd13ifvqb90","pricing_plan_id":"cebpf4jnsgd1na2vs0mg"},{"bike_id":"86507adb-43c1-4a89-acc7-c74cd80a099f","system_id":"levelo_inurba_marseille","lat":43.23127,"lon":5.36671,"is_reserved":false,"is_disabled":false,"rental_uris":{"android":"levelo://app?vid=86507adb-43c1-4a89-acc7-c74cd80a099f","ios":"levelo://app?vid=86507adb-43c1-4a89-acc7-c74cd80a099f"},"vehicle_type_id":"4","last_reported":1744633173,"current_range_meters":17200,"station_id":"","pricing_plan_id":"cebpf4jnsgd1na2vs0mg"},{"bike_id":"40410179-24a8-4b29-a06b-e3a9f4a97686","system_id":"levelo_inurba_marseille","lat":43.279754,"lon":5.387464,"is_reserved":false,"is_disabled":false,"rental_uris":{"android":"levelo://app?vid=40410179-24a8-4b29-a06b-e3a9f4a97686","ios":"levelo://app?vid=40410179-24a8-4b29-a06b-e3a9f4a97686"},"vehicle_type_id":"4","last_reported":1744633173,"current_range_meters":17600,"station_id":"ce4bhhh2rcd13ifvqfk0","pricing_plan_id":"cebpf4jnsgd1na2vs0mg"},{"bike_id":"ec55715f-50ef-4b62-b932-d89df8729be7","system_id":"levelo_inurba_marseille","lat":43.31587,"lon":5.38842,"is_reserved":false,"is_disabled":false,"rental_uris":{"android":"levelo://app?vid=ec55715f-50ef-4b62-b932-d89df8729be7","ios":"levelo://app?vid=ec55715f-50ef-4b62-b932-d89df8729be7"},"vehicle_type_id":"4","last_reported":1744633173,"current_range_meters":17600,"station_id":"","pricing_plan_id":"cebpf4jnsgd1na2vs0mg"},{"bike_id":"3edba730-ae53-418a-9817-9bc4e8fa7da5","system_id":"levelo_inurba_marseille","lat":43.324439,"lon":5.387464,"is_reserved":false,"is_disabled":false,"rental_uris":{"android":"levelo://app?vid=3edba730-ae53-418a-9817-9bc4e8fa7da5","ios":"levelo://app?vid=3edba730-ae53-418a-9817-9bc4e8fa7da5"},"vehicle_type_id":"4","last_reported":1744633173,"current_range_meters":17600,"station_id":"ce4bhr12rcd13ifvqhqg","pricing_plan_id":"cebpf4jnsgd1na2vs0mg"},{"bike_id":"9ccaf1e8-d14c-4218-be36-430bac425c11","system_id":"levelo_inurba_marseille","lat":43.30587,"lon":5.39383,"is_reserved":false,"is_disabled":true,"rental_uris":{"android":"levelo://app?vid=9ccaf1e8-d14c-4218-be36-430bac425c11","ios":"levelo://app?vid=9ccaf1e8-d14c-4218-be36-430bac425c11"},"vehicle_type_id":"4","last_reported":1744633173,"current_range_meters":18000,"station_id":"ce4bh0p2rcd13ifvqd80","pricing_plan_id":"cebpf4jnsgd1na2vs0mg"},{"bike_id":"5bd4080e-cdba-49c5-a829-9c3dae7d98e5","system_id":"levelo_inurba_marseille","lat":43.21757,"lon":5.34612,"is_reserved":false,"is_disabled":false,"rental_uris":{"android":"levelo://app?vid=5bd4080e-cdba-49c5-a829-9c3dae7d98e5","ios":"levelo://app?vid=5bd4080e-cdba-49c5-a829-9c3dae7d98e5"},"vehicle_type_id":"4","last_reported":1744633173,"current_range_meters":18000,"station_id":"st_cvj6r9ubvosntc0bgbag","pricing_plan_id":"cebpf4jnsgd1na2vs0mg"},{"bike_id":"0906b8a8-30b1-4d53-b4fe-79466a071e20","system_id":"levelo_inurba_marseille","lat":43.30326,"lon":5.40433,"is_reserved":false,"is_disabled":false,"rental_uris":{"android":"levelo://app?vid=0906b8a8-30b1-4d53-b4fe-79466a071e20","ios":"levelo://app?vid=0906b8a8-30b1-4d53-b4fe-79466a071e20"},"vehicle_type_id":"4","last_reported":1744633173,"current_range_meters":18000,"station_id":"ce4bh012rcd13ifvqd10","pricing_plan_id":"cebpf4jnsgd1na2vs0mg"},{"bike_id":"d9f0bed3-e57d-415e-b370-0382804a871f","system_id":"levelo_inurba_marseille","lat":43.24387,"lon":5.37064,"is_reserved":false,"is_disabled":false,"rental_uris":{"android":"levelo://app?vid=d9f0bed3-e57d-415e-b370-0382804a871f","ios":"levelo://app?vid=d9f0bed3-e57d-415e-b370-0382804a871f"},"vehicle_type_id":"4","last_reported":1744633173,"current_range_meters":16800,"station_id":"ce4bhhh2rcd13ifvqfk0","pricing_plan_id":"cebpf4jnsgd1na2vs0mg"},{"bike_id":"b01c0c14-6100-4b8a-b7f1-e7135adc6a45","system_id":"levelo_inurba_marseille","lat":43.3017,"lon":5.37346,"is_reserved":false,"is_disabled":false,"rental_uris":{"android":"levelo://app?vid=b01c0c14-6100-4b8a-b7f1-e7135adc6a45","ios":"levelo://app?vid=b01c0c14-6100-4b8a-b7f1-e7135adc6a45"},"vehicle_type_id":"4","last_reported":1744633173,"current_range_meters":18000,"station_id":"ce4bgs92rcd13ifvqcc0","pricing_plan_id":"cebpf4jnsgd1na2vs0mg"},{"bike_id":"3ceb0e6e-57c6-4a13-81ee-5c6c8631a2b0","system_id":"levelo_inurba_marseille","lat":43.26942,"lon":5.40239,"is_reserved":false,"is_disabled":false,"rental_uris":{"android":"levelo://app?vid=3ceb0e6e-57c6-4a13-81ee-5c6c8631a2b0","ios":"levelo://app?vid=3ceb0e6e-57c6-4a13-81ee-5c6c8631a2b0"},"vehicle_type_id":"4","last_reported":1744633173,"current_range_meters":18000,"station_id":"cjm6bp8fraef2m0cb0m0","pricing_plan_id":"cebpf4jnsgd1na2vs0mg"},{"bike_id":"f6c8f6a9-e39a-4139-94fa-41f49afbecc9","system_id":"levelo_inurba_marseille","lat":43.30538,"lon":5.36526,"is_reserved":false,"is_disabled":false,"rental_uris":{"android":"levelo://app?vid=f6c8f6a9-e39a-4139-94fa-41f49afbecc9","ios":"levelo://app?vid=f6c8f6a9-e39a-4139-94fa-41f49afbecc9"},"vehicle_type_id":"4","last_reported":1744633173,"current_range_meters":18000,"station_id":"ce4bgs12rcd13ifvqcag","pricing_plan_id":"cebpf4jnsgd1na2vs0mg"},{"bike_id":"b243132a-d37d-4334-8dce-3d86a0f83fca","system_id":"levelo_inurba_marseille","lat":43.258184,"lon":5.394416,"is_reserved":false,"is_disabled":false,"rental_uris":{"android":"levelo://app?vid=b243132a-d37d-4334-8dce-3d86a0f83fca","ios":"levelo://app?vid=b243132a-d37d-4334-8dce-3d86a0f83fca"},"vehicle_type_id":"4","last_reported":1744633173,"current_range_meters":18000,"station_id":"ce4bhip2rcd13ifvqft0","pricing_plan_id":"cebpf4jnsgd1na2vs0mg"},{"bike_id":"382a1a40-cce5-4bcf-8677-ad51fb5a2457","system_id":"levelo_inurba_marseille","lat":43.28855,"lon":5.39363,"is_reserved":false,"is_disabled":true,"rental_uris":{"android":"levelo://app?vid=382a1a40-cce5-4bcf-8677-ad51fb5a2457","ios":"levelo://app?vid=382a1a40-cce5-4bcf-8677-ad51fb5a2457"},"vehicle_type_id":"4","last_reported":1744633173,"current_range_meters":18000,"station_id":"ce4bh2p2rcd13ifvqdi0","pricing_plan_id":"cebpf4jnsgd1na2vs0mg"},{"bike_id":"0c81ec6a-9cbc-4d0b-8fbb-4373d4464f2d","system_id":"levelo_inurba_marseille","lat":43.3013,"lon":5.38777,"is_reserved":false,"is_disabled":false,"rental_uris":{"android":"levelo://app?vid=0c81ec6a-9cbc-4d0b-8fbb-4373d4464f2d","ios":"levelo://app?vid=0c81ec6a-9cbc-4d0b-8fbb-4373d4464f2d"},"vehicle_type_id":"4","last_reported":1744633173,"current_range_meters":18000,"station_id":"ce4bghh2rcd13ifvqb60","pricing_plan_id":"cebpf4jnsgd1na2vs0mg"},{"bike_id":"a539b2b1-f58a-4524-80ab-1c71bf79ecde","system_id":"levelo_inurba_marseille","lat":43.29194,"lon":5.39304,"is_reserved":false,"is_disabled":false,"rental_uris":{"android":"levelo://app?vid=a539b2b1-f58a-4524-80ab-1c71bf79ecde","ios":"levelo://app?vid=a539b2b1-f58a-4524-80ab-1c71bf79ecde"},"vehicle_type_id":"4","last_reported":1744633173,"current_range_meters":18800,"station_id":"ce4bh192rcd13ifvqdd0","pricing_plan_id":"cebpf4jnsgd1na2vs0mg"},{"bike_id":"d2d37f01-fa46-4fbc-a721-7789f4003663","system_id":"levelo_inurba_marseille","lat":43.24972,"lon":5.38951,"is_reserved":false,"is_disabled":false,"rental_uris":{"android":"levelo://app?vid=d2d37f01-fa46-4fbc-a721-7789f4003663","ios":"levelo://app?vid=d2d37f01-fa46-4fbc-a721-7789f4003663"},"vehicle_type_id":"4","last_reported":1744633173,"current_range_meters":18800,"station_id":"ce4bhgp2rcd13ifvqfd0","pricing_plan_id":"cebpf4jnsgd1na2vs0mg"},{"bike_id":"85732ddb-8399-49d6-a41e-e00dbdf23169","system_id":"levelo_inurba_marseille","lat":43.32494,"lon":5.36564,"is_reserved":false,"is_disabled":false,"rental_uris":{"android":"levelo://app?vid=85732ddb-8399-49d6-a41e-e00dbdf23169","ios":"levelo://app?vid=85732ddb-8399-49d6-a41e-e00dbdf23169"},"vehicle_type_id":"4","last_reported":1744633173,"current_range_meters":18800,"station_id":"ce4bhs12rcd13ifvqhvg","pricing_plan_id":"cebpf4jnsgd1na2vs0mg"},{"bike_id":"504ebeda-7a78-4e61-92b4-5aec980ab708","system_id":"levelo_inurba_marseille","lat":43.26581,"lon":5.38999,"is_reserved":false,"is_disabled":false,"rental_uris":{"android":"levelo://app?vid=504ebeda-7a78-4e61-92b4-5aec980ab708","ios":"levelo://app?vid=504ebeda-7a78-4e61-92b4-5aec980ab708"},"vehicle_type_id":"4","last_reported":1744633173,"current_range_meters":18800,"station_id":"ce4bhe12rcd13ifvqf30","pricing_plan_id":"cebpf4jnsgd1na2vs0mg"},{"bike_id":"205a676e-388e-4b5d-b5d4-92bca6b76c07","system_id":"levelo_inurba_marseille","lat":43.31155,"lon":5.38016,"is_reserved":false,"is_disabled":true,"rental_uris":{"android":"levelo://app?vid=205a676e-388e-4b5d-b5d4-92bca6b76c07","ios":"levelo://app?vid=205a676e-388e-4b5d-b5d4-92bca6b76c07"},"vehicle_type_id":"4","last_reported":1744633173,"current_range_meters":18800,"station_id":"","pricing_plan_id":"cebpf4jnsgd1na2vs0mg"},{"bike_id":"8219ad35-60a5-47e6-a4b6-d3c1e9726111","system_id":"levelo_inurba_marseille","lat":43.26803,"lon":5.40263,"is_reserved":false,"is_disabled":false,"rental_uris":{"android":"levelo://app?vid=8219ad35-60a5-47e6-a4b6-d3c1e9726111","ios":"levelo://app?vid=8219ad35-60a5-47e6-a4b6-d3c1e9726111"},"vehicle_type_id":"4","last_reported":1744633173,"current_range_meters":19200,"station_id":"ce501612rcd8frsf0b60","pricing_plan_id":"cebpf4jnsgd1na2vs0mg"},{"bike_id":"0f7b614e-f0e3-4894-a4af-c9c31672f5ae","system_id":"levelo_inurba_marseille","lat":43.30307,"lon":5.39209,"is_reserved":false,"is_disabled":false,"rental_uris":{"android":"levelo://app?vid=0f7b614e-f0e3-4894-a4af-c9c31672f5ae","ios":"levelo://app?vid=0f7b614e-f0e3-4894-a4af-c9c31672f5ae"},"vehicle_type_id":"4","last_reported":1744633173,"current_range_meters":19200,"station_id":"ce4bgkh2rcd13ifvqbk0","pricing_plan_id":"cebpf4jnsgd1na2vs0mg"},{"bike_id":"62cdf341-30c5-4656-afa4-6ff5f91a96d1","system_id":"levelo_inurba_marseille","lat":43.26497,"lon":5.39553,"is_reserved":false,"is_disabled":false,"rental_uris":{"android":"levelo://app?vid=62cdf341-30c5-4656-afa4-6ff5f91a96d1","ios":"levelo://app?vid=62cdf341-30c5-4656-afa4-6ff5f91a96d1"},"vehicle_type_id":"4","last_reported":1744633173,"current_range_meters":19200,"station_id":"ce4bhi12rcd13ifvqfq0","pricing_plan_id":"cebpf4jnsgd1na2vs0mg"},{"bike_id":"c72b10cd-9368-4331-980c-02d2e7f8f983","system_id":"levelo_inurba_marseille","lat":43.32049,"lon":5.41545,"is_reserved":false,"is_disabled":false,"rental_uris":{"android":"levelo://app?vid=c72b10cd-9368-4331-980c-02d2e7f8f983","ios":"levelo://app?vid=c72b10cd-9368-4331-980c-02d2e7f8f983"},"vehicle_type_id":"4","last_reported":1744633173,"current_range_meters":19200,"station_id":"ce4bhq92rcd13ifvqhkg","pricing_plan_id":"cebpf4jnsgd1na2vs0mg"},{"bike_id":"b3ea20ce-5604-45b6-ace7-cad39f4f56d5","system_id":"levelo_inurba_marseille","lat":43.29695,"lon":5.36373,"is_reserved":false,"is_disabled":false,"rental_uris":{"android":"levelo://app?vid=b3ea20ce-5604-45b6-ace7-cad39f4f56d5","ios":"levelo://app?vid=b3ea20ce-5604-45b6-ace7-cad39f4f56d5"},"vehicle_type_id":"4","last_reported":1744633173,"current_range_meters":19200,"station_id":"","pricing_plan_id":"cebpf4jnsgd1na2vs0mg"},{"bike_id":"8ba8da06-09b4-4e35-9af5-e823a105a352","system_id":"levelo_inurba_marseille","lat":43.23082,"lon":5.35497,"is_reserved":false,"is_disabled":false,"rental_uris":{"android":"levelo://app?vid=8ba8da06-09b4-4e35-9af5-e823a105a352","ios":"levelo://app?vid=8ba8da06-09b4-4e35-9af5-e823a105a352"},"vehicle_type_id":"4","last_reported":1744633173,"current_range_meters":19200,"station_id":"cpo3342slgdg3j2ifvpg","pricing_plan_id":"cebpf4jnsgd1na2vs0mg"},{"bike_id":"76d1f08b-9805-4165-b8c8-d7ce2295b614","system_id":"levelo_inurba_marseille","lat":43.29685,"lon":5.37309,"is_reserved":false,"is_disabled":false,"rental_uris":{"android":"levelo://app?vid=76d1f08b-9805-4165-b8c8-d7ce2295b614","ios":"levelo://app?vid=76d1f08b-9805-4165-b8c8-d7ce2295b614"},"vehicle_type_id":"4","last_reported":1744633173,"current_range_meters":19200,"station_id":"ce4bgk12rcd13ifvqbj0","pricing_plan_id":"cebpf4jnsgd1na2vs0mg"},{"bike_id":"469cac9e-0c72-4c46-a796-98a152ab1135","system_id":"levelo_inurba_marseille","lat":43.2354,"lon":5.41363,"is_reserved":false,"is_disabled":false,"rental_uris":{"android":"levelo://app?vid=469cac9e-0c72-4c46-a796-98a152ab1135","ios":"levelo://app?vid=469cac9e-0c72-4c46-a796-98a152ab1135"},"vehicle_type_id":"4","last_reported":1744633173,"current_range_meters":19200,"station_id":"","pricing_plan_id":"cebpf4jnsgd1na2vs0mg"},{"bike_id":"fbacecab-fdbc-437f-ad37-ef07ea1c1eac","system_id":"levelo_inurba_marseille","lat":43.30551,"lon":5.36514,"is_reserved":false,"is_disabled":false,"rental_uris":{"android":"levelo://app?vid=fbacecab-fdbc-437f-ad37-ef07ea1c1eac","ios":"levelo://app?vid=fbacecab-fdbc-437f-ad37-ef07ea1c1eac"},"vehicle_type_id":"4","last_reported":1744633173,"current_range_meters":19600,"station_id":"ce4bgs12rcd13ifvqcag","pricing_plan_id":"cebpf4jnsgd1na2vs0mg"},{"bike_id":"d438473a-bd86-41ff-afbd-6224fb5d5a87","system_id":"levelo_inurba_marseille","lat":43.23188,"lon":5.39984,"is_reserved":false,"is_disabled":false,"rental_uris":{"android":"levelo://app?vid=d438473a-bd86-41ff-afbd-6224fb5d5a87","ios":"levelo://app?vid=d438473a-bd86-41ff-afbd-6224fb5d5a87"},"vehicle_type_id":"4","last_reported":1744633173,"current_range_meters":19600,"station_id":"ce4bhn12rcd13ifvqgqg","pricing_plan_id":"cebpf4jnsgd1na2vs0mg"},{"bike_id":"69330968-31be-4072-8333-3419318ec490","system_id":"levelo_inurba_marseille","lat":43.292564,"lon":5.376204,"is_reserved":false,"is_disabled":false,"rental_uris":{"android":"levelo://app?vid=69330968-31be-4072-8333-3419318ec490","ios":"levelo://app?vid=69330968-31be-4072-8333-3419318ec490"},"vehicle_type_id":"4","last_reported":1744633173,"current_range_meters":19600,"station_id":"ce4bgi12rcd13ifvqb80","pricing_plan_id":"cebpf4jnsgd1na2vs0mg"},{"bike_id":"40e32cee-9c94-4ec8-8cc1-dfc745c5629a","system_id":"levelo_inurba_marseille","lat":43.2418,"lon":5.364,"is_reserved":false,"is_disabled":false,"rental_uris":{"android":"levelo://app?vid=40e32cee-9c94-4ec8-8cc1-dfc745c5629a","ios":"levelo://app?vid=40e32cee-9c94-4ec8-8cc1-dfc745c5629a"},"vehicle_type_id":"4","last_reported":1744633173,"current_range_meters":19600,"station_id":"cpo36qri1sfpv3e86is0","pricing_plan_id":"cebpf4jnsgd1na2vs0mg"},{"bike_id":"fe3bbc1f-7f75-4eef-b028-c7730d1645d3","system_id":"levelo_inurba_marseille","lat":43.26217,"lon":5.40466,"is_reserved":false,"is_disabled":false,"rental_uris":{"android":"levelo://app?vid=fe3bbc1f-7f75-4eef-b028-c7730d1645d3","ios":"levelo://app?vid=fe3bbc1f-7f75-4eef-b028-c7730d1645d3"},"vehicle_type_id":"4","last_reported":1744633173,"current_range_meters":19600,"station_id":"ce4bhmh2rcd13ifvqgmg","pricing_plan_id":"cebpf4jnsgd1na2vs0mg"},{"bike_id":"8ba444c2-d8e1-42ae-9dd8-6b48744e7629","system_id":"levelo_inurba_marseille","lat":43.3092,"lon":5.36676,"is_reserved":false,"is_disabled":true,"rental_uris":{"android":"levelo://app?vid=8ba444c2-d8e1-42ae-9dd8-6b48744e7629","ios":"levelo://app?vid=8ba444c2-d8e1-42ae-9dd8-6b48744e7629"},"vehicle_type_id":"4","last_reported":1744633173,"current_range_meters":20000,"station_id":"","pricing_plan_id":"cebpf4jnsgd1na2vs0mg"},{"bike_id":"41f001d3-31a8-4f18-98fd-480d3637133d","system_id":"levelo_inurba_marseille","lat":43.29265,"lon":5.38453,"is_reserved":false,"is_disabled":false,"rental_uris":{"android":"levelo://app?vid=41f001d3-31a8-4f18-98fd-480d3637133d","ios":"levelo://app?vid=41f001d3-31a8-4f18-98fd-480d3637133d"},"vehicle_type_id":"4","last_reported":1744633173,"current_range_meters":20000,"station_id":"ce4bh692rcd13ifvqea0","pricing_plan_id":"cebpf4jnsgd1na2vs0mg"},{"bike_id":"1b799948-7265-4e54-90fc-c3a9fef9aca2","system_id":"levelo_inurba_marseille","lat":43.26558,"lon":5.37286,"is_reserved":false,"is_disabled":false,"rental_uris":{"android":"levelo://app?vid=1b799948-7265-4e54-90fc-c3a9fef9aca2","ios":"levelo://app?vid=1b799948-7265-4e54-90fc-c3a9fef9aca2"},"vehicle_type_id":"4","last_reported":1744633173,"current_range_meters":20000,"station_id":"ce4bhg12rcd13ifvqf70","pricing_plan_id":"cebpf4jnsgd1na2vs0mg"},{"bike_id":"8e583e60-27bf-4b14-8f59-d7f99715403a","system_id":"levelo_inurba_marseille","lat":43.27815,"lon":5.40718,"is_reserved":false,"is_disabled":false,"rental_uris":{"android":"levelo://app?vid=8e583e60-27bf-4b14-8f59-d7f99715403a","ios":"levelo://app?vid=8e583e60-27bf-4b14-8f59-d7f99715403a"},"vehicle_type_id":"4","last_reported":1744633173,"current_range_meters":20000,"station_id":"ce4bhnh2rcd13ifvqgtg","pricing_plan_id":"cebpf4jnsgd1na2vs0mg"},{"bike_id":"2d541472-b9e5-4657-a7ae-e9eff04a911a","system_id":"levelo_inurba_marseille","lat":43.25493,"lon":5.37654,"is_reserved":false,"is_disabled":false,"rental_uris":{"android":"levelo://app?vid=2d541472-b9e5-4657-a7ae-e9eff04a911a","ios":"levelo://app?vid=2d541472-b9e5-4657-a7ae-e9eff04a911a"},"vehicle_type_id":"4","last_reported":1744633173,"current_range_meters":20000,"station_id":"ce4bhh12rcd13ifvqff0","pricing_plan_id":"cebpf4jnsgd1na2vs0mg"},{"bike_id":"5720f33f-c818-4a09-b4ce-4621bd350068","system_id":"levelo_inurba_marseille","lat":43.29872,"lon":5.39735,"is_reserved":false,"is_disabled":false,"rental_uris":{"android":"levelo://app?vid=5720f33f-c818-4a09-b4ce-4621bd350068","ios":"levelo://app?vid=5720f33f-c818-4a09-b4ce-4621bd350068"},"vehicle_type_id":"4","last_reported":1744633173,"current_range_meters":22000,"station_id":"ce4bh0h2rcd13ifvqd50","pricing_plan_id":"cebpf4jnsgd1na2vs0mg"},{"bike_id":"90a234f5-34cc-4241-a1bc-751c61d0bd08","system_id":"levelo_inurba_marseille","lat":43.30495,"lon":5.37911,"is_reserved":false,"is_disabled":false,"rental_uris":{"android":"levelo://app?vid=90a234f5-34cc-4241-a1bc-751c61d0bd08","ios":"levelo://app?vid=90a234f5-34cc-4241-a1bc-751c61d0bd08"},"vehicle_type_id":"4","last_reported":1744633173,"current_range_meters":20000,"station_id":"ce4bgup2rcd13ifvqcn0","pricing_plan_id":"cebpf4jnsgd1na2vs0mg"},{"bike_id":"d3a0e309-41d2-4981-b517-0536179b4cff","system_id":"levelo_inurba_marseille","lat":43.336069,"lon":5.410277,"is_reserved":false,"is_disabled":false,"rental_uris":{"android":"levelo://app?vid=d3a0e309-41d2-4981-b517-0536179b4cff","ios":"levelo://app?vid=d3a0e309-41d2-4981-b517-0536179b4cff"},"vehicle_type_id":"4","last_reported":1744633173,"current_range_meters":20000,"station_id":"ce4bhqh2rcd13ifvqhmg","pricing_plan_id":"cebpf4jnsgd1na2vs0mg"},{"bike_id":"ead76048-b707-4f9c-b0c9-6d3e58ff823a","system_id":"levelo_inurba_marseille","lat":43.28441,"lon":5.38428,"is_reserved":false,"is_disabled":false,"rental_uris":{"android":"levelo://app?vid=ead76048-b707-4f9c-b0c9-6d3e58ff823a","ios":"levelo://app?vid=ead76048-b707-4f9c-b0c9-6d3e58ff823a"},"vehicle_type_id":"4","last_reported":1744633173,"current_range_meters":20000,"station_id":"ce4bh512rcd13ifvqe3g","pricing_plan_id":"cebpf4jnsgd1na2vs0mg"},{"bike_id":"9ca31a42-82c7-4ed8-9359-87e23b83dd80","system_id":"levelo_inurba_marseille","lat":43.29366,"lon":5.37843,"is_reserved":false,"is_disabled":false,"rental_uris":{"android":"levelo://app?vid=9ca31a42-82c7-4ed8-9359-87e23b83dd80","ios":"levelo://app?vid=9ca31a42-82c7-4ed8-9359-87e23b83dd80"},"vehicle_type_id":"4","last_reported":1744633173,"current_range_meters":20000,"station_id":"ce4bgjh2rcd13ifvqbf0","pricing_plan_id":"cebpf4jnsgd1na2vs0mg"},{"bike_id":"3af6890d-0c64-4859-92aa-f5698cb094b3","system_id":"levelo_inurba_marseille","lat":43.23195,"lon":5.35559,"is_reserved":false,"is_disabled":false,"rental_uris":{"android":"levelo://app?vid=3af6890d-0c64-4859-92aa-f5698cb094b3","ios":"levelo://app?vid=3af6890d-0c64-4859-92aa-f5698cb094b3"},"vehicle_type_id":"4","last_reported":1744633173,"current_range_meters":20400,"station_id":"ce4bhu92rcd13ifvqi70","pricing_plan_id":"cebpf4jnsgd1na2vs0mg"},{"bike_id":"523fbb61-58e0-4c31-a77b-73533dfa08a3","system_id":"levelo_inurba_marseille","lat":43.32483,"lon":5.36565,"is_reserved":false,"is_disabled":false,"rental_uris":{"android":"levelo://app?vid=523fbb61-58e0-4c31-a77b-73533dfa08a3","ios":"levelo://app?vid=523fbb61-58e0-4c31-a77b-73533dfa08a3"},"vehicle_type_id":"4","last_reported":1744633173,"current_range_meters":20400,"station_id":"ce4bhs12rcd13ifvqhvg","pricing_plan_id":"cebpf4jnsgd1na2vs0mg"},{"bike_id":"a4f5419a-50a0-419f-bbd9-3fd2e6b6f619","system_id":"levelo_inurba_marseille","lat":43.23153,"lon":5.43713,"is_reserved":false,"is_disabled":false,"rental_uris":{"android":"levelo://app?vid=a4f5419a-50a0-419f-bbd9-3fd2e6b6f619","ios":"levelo://app?vid=a4f5419a-50a0-419f-bbd9-3fd2e6b6f619"},"vehicle_type_id":"4","last_reported":1744633173,"current_range_meters":20400,"station_id":"ce4bhmp2rcd13ifvqgog","pricing_plan_id":"cebpf4jnsgd1na2vs0mg"},{"bike_id":"33f29b75-f4e6-4e71-a299-29a3904a9b72","system_id":"levelo_inurba_marseille","lat":43.34159,"lon":5.40896,"is_reserved":false,"is_disabled":false,"rental_uris":{"android":"levelo://app?vid=33f29b75-f4e6-4e71-a299-29a3904a9b72","ios":"levelo://app?vid=33f29b75-f4e6-4e71-a299-29a3904a9b72"},"vehicle_type_id":"4","last_reported":1744633173,"current_range_meters":20400,"station_id":"ce4bhqh2rcd13ifvqhlg","pricing_plan_id":"cebpf4jnsgd1na2vs0mg"},{"bike_id":"9605f080-3935-4ba5-9f38-2a6f14f2a17d","system_id":"levelo_inurba_marseille","lat":43.29531,"lon":5.38552,"is_reserved":false,"is_disabled":false,"rental_uris":{"android":"levelo://app?vid=9605f080-3935-4ba5-9f38-2a6f14f2a17d","ios":"levelo://app?vid=9605f080-3935-4ba5-9f38-2a6f14f2a17d"},"vehicle_type_id":"4","last_reported":1744633173,"current_range_meters":20400,"station_id":"ce4bgih2rcd13ifvqba0","pricing_plan_id":"cebpf4jnsgd1na2vs0mg"},{"bike_id":"33fee0d6-be41-4eb8-ba49-0436c300cb71","system_id":"levelo_inurba_marseille","lat":43.31335,"lon":5.36713,"is_reserved":false,"is_disabled":false,"rental_uris":{"android":"levelo://app?vid=33fee0d6-be41-4eb8-ba49-0436c300cb71","ios":"levelo://app?vid=33fee0d6-be41-4eb8-ba49-0436c300cb71"},"vehicle_type_id":"4","last_reported":1744633173,"current_range_meters":20400,"station_id":"ce4bgr92rcd13ifvqc6g","pricing_plan_id":"cebpf4jnsgd1na2vs0mg"},{"bike_id":"358178ea-3473-4a8f-a77b-f775cb425afd","system_id":"levelo_inurba_marseille","lat":43.31076,"lon":5.3836,"is_reserved":false,"is_disabled":false,"rental_uris":{"android":"levelo://app?vid=358178ea-3473-4a8f-a77b-f775cb425afd","ios":"levelo://app?vid=358178ea-3473-4a8f-a77b-f775cb425afd"},"vehicle_type_id":"4","last_reported":1744633173,"current_range_meters":20800,"station_id":"ce4bgv92rcd13ifvqcr0","pricing_plan_id":"cebpf4jnsgd1na2vs0mg"},{"bike_id":"968f5b76-026d-4220-b001-63f4e79a6cb0","system_id":"levelo_inurba_marseille","lat":43.2926,"lon":5.40898,"is_reserved":false,"is_disabled":false,"rental_uris":{"android":"levelo://app?vid=968f5b76-026d-4220-b001-63f4e79a6cb0","ios":"levelo://app?vid=968f5b76-026d-4220-b001-63f4e79a6cb0"},"vehicle_type_id":"4","last_reported":1744633173,"current_range_meters":20800,"station_id":"ce4bh192rcd13ifvqdc0","pricing_plan_id":"cebpf4jnsgd1na2vs0mg"},{"bike_id":"e2b5c1c3-8a61-4de4-a851-cf768b759e51","system_id":"levelo_inurba_marseille","lat":43.24184,"lon":5.39713,"is_reserved":false,"is_disabled":false,"rental_uris":{"android":"levelo://app?vid=e2b5c1c3-8a61-4de4-a851-cf768b759e51","ios":"levelo://app?vid=e2b5c1c3-8a61-4de4-a851-cf768b759e51"},"vehicle_type_id":"4","last_reported":1744633173,"current_range_meters":20800,"station_id":"ce4bhn12rcd13ifvqgpg","pricing_plan_id":"cebpf4jnsgd1na2vs0mg"},{"bike_id":"870ec60e-8149-44fb-89c6-0bc9b661ef62","system_id":"levelo_inurba_marseille","lat":43.24801,"lon":5.37464,"is_reserved":false,"is_disabled":false,"rental_uris":{"android":"levelo://app?vid=870ec60e-8149-44fb-89c6-0bc9b661ef62","ios":"levelo://app?vid=870ec60e-8149-44fb-89c6-0bc9b661ef62"},"vehicle_type_id":"4","last_reported":1744633173,"current_range_meters":21600,"station_id":"ce4bhgh2rcd13ifvqfb0","pricing_plan_id":"cebpf4jnsgd1na2vs0mg"},{"bike_id":"77098909-6870-450c-bac4-dea1caf4f9cb","system_id":"levelo_inurba_marseille","lat":43.32656,"lon":5.41084,"is_reserved":false,"is_disabled":false,"rental_uris":{"android":"levelo://app?vid=77098909-6870-450c-bac4-dea1caf4f9cb","ios":"levelo://app?vid=77098909-6870-450c-bac4-dea1caf4f9cb"},"vehicle_type_id":"4","last_reported":1744633173,"current_range_meters":20400,"station_id":"ce4bhpp2rcd13ifvqhgg","pricing_plan_id":"cebpf4jnsgd1na2vs0mg"},{"bike_id":"0dbb8451-6fbf-4474-9639-bd687b68c8c2","system_id":"levelo_inurba_marseille","lat":43.3259,"lon":5.36157,"is_reserved":false,"is_disabled":false,"rental_uris":{"android":"levelo://app?vid=0dbb8451-6fbf-4474-9639-bd687b68c8c2","ios":"levelo://app?vid=0dbb8451-6fbf-4474-9639-bd687b68c8c2"},"vehicle_type_id":"4","last_reported":1744633173,"current_range_meters":20800,"station_id":"","pricing_plan_id":"cebpf4jnsgd1na2vs0mg"},{"bike_id":"0e513986-075d-4b4d-a356-89a5504ba1a7","system_id":"levelo_inurba_marseille","lat":43.26557,"lon":5.37286,"is_reserved":false,"is_disabled":false,"rental_uris":{"android":"levelo://app?vid=0e513986-075d-4b4d-a356-89a5504ba1a7","ios":"levelo://app?vid=0e513986-075d-4b4d-a356-89a5504ba1a7"},"vehicle_type_id":"4","last_reported":1744633173,"current_range_meters":20800,"station_id":"ce4bhg12rcd13ifvqf70","pricing_plan_id":"cebpf4jnsgd1na2vs0mg"},{"bike_id":"f6375cd8-5ddf-4b3f-b398-501a93558e36","system_id":"levelo_inurba_marseille","lat":43.24164,"lon":5.36408,"is_reserved":false,"is_disabled":false,"rental_uris":{"android":"levelo://app?vid=f6375cd8-5ddf-4b3f-b398-501a93558e36","ios":"levelo://app?vid=f6375cd8-5ddf-4b3f-b398-501a93558e36"},"vehicle_type_id":"4","last_reported":1744633173,"current_range_meters":20800,"station_id":"cpo36qri1sfpv3e86is0","pricing_plan_id":"cebpf4jnsgd1na2vs0mg"},{"bike_id":"9b85360a-9bc5-4eb7-b830-6be08e531d56","system_id":"levelo_inurba_marseille","lat":43.25503,"lon":5.37656,"is_reserved":false,"is_disabled":false,"rental_uris":{"android":"levelo://app?vid=9b85360a-9bc5-4eb7-b830-6be08e531d56","ios":"levelo://app?vid=9b85360a-9bc5-4eb7-b830-6be08e531d56"},"vehicle_type_id":"4","last_reported":1744633173,"current_range_meters":21600,"station_id":"ce4bhh12rcd13ifvqff0","pricing_plan_id":"cebpf4jnsgd1na2vs0mg"},{"bike_id":"b22d70ef-733d-44b9-b485-bf91a6062680","system_id":"levelo_inurba_marseille","lat":43.32107,"lon":5.36771,"is_reserved":false,"is_disabled":false,"rental_uris":{"android":"levelo://app?vid=b22d70ef-733d-44b9-b485-bf91a6062680","ios":"levelo://app?vid=b22d70ef-733d-44b9-b485-bf91a6062680"},"vehicle_type_id":"4","last_reported":1744633173,"current_range_meters":21600,"station_id":"ce4bhrh2rcd13ifvqhug","pricing_plan_id":"cebpf4jnsgd1na2vs0mg"},{"bike_id":"ed68620f-d445-41ca-9e05-d4d0a9949320","system_id":"levelo_inurba_marseille","lat":43.29005,"lon":5.35614,"is_reserved":false,"is_disabled":false,"rental_uris":{"android":"levelo://app?vid=ed68620f-d445-41ca-9e05-d4d0a9949320","ios":"levelo://app?vid=ed68620f-d445-41ca-9e05-d4d0a9949320"},"vehicle_type_id":"4","last_reported":1744633173,"current_range_meters":19600,"station_id":"ce4bhb92rcd13ifvqen0","pricing_plan_id":"cebpf4jnsgd1na2vs0mg"},{"bike_id":"7c75f1a2-2527-46fb-9d49-2fb6eb41b0d7","system_id":"levelo_inurba_marseille","lat":43.28713,"lon":5.37934,"is_reserved":false,"is_disabled":false,"rental_uris":{"android":"levelo://app?vid=7c75f1a2-2527-46fb-9d49-2fb6eb41b0d7","ios":"levelo://app?vid=7c75f1a2-2527-46fb-9d49-2fb6eb41b0d7"},"vehicle_type_id":"4","last_reported":1744633173,"current_range_meters":21600,"station_id":"ce4bh9p2rcd13ifvqec0","pricing_plan_id":"cebpf4jnsgd1na2vs0mg"},{"bike_id":"f4142409-da8f-4396-ba94-4dfddf00dc2f","system_id":"levelo_inurba_marseille","lat":43.29523,"lon":5.39055,"is_reserved":false,"is_disabled":false,"rental_uris":{"android":"levelo://app?vid=f4142409-da8f-4396-ba94-4dfddf00dc2f","ios":"levelo://app?vid=f4142409-da8f-4396-ba94-4dfddf00dc2f"},"vehicle_type_id":"4","last_reported":1744633173,"current_range_meters":21600,"station_id":"ce4bh3p2rcd13ifvqdp0","pricing_plan_id":"cebpf4jnsgd1na2vs0mg"},{"bike_id":"98d87c4d-5713-4192-b62d-ccff0659b802","system_id":"levelo_inurba_marseille","lat":43.26229,"lon":5.37453,"is_reserved":false,"is_disabled":false,"rental_uris":{"android":"levelo://app?vid=98d87c4d-5713-4192-b62d-ccff0659b802","ios":"levelo://app?vid=98d87c4d-5713-4192-b62d-ccff0659b802"},"vehicle_type_id":"4","last_reported":1744633173,"current_range_meters":21600,"station_id":"ce4bhgp2rcd13ifvqfc0","pricing_plan_id":"cebpf4jnsgd1na2vs0mg"},{"bike_id":"c203adb5-99bd-4c0a-af6b-fad821e5cd38","system_id":"levelo_inurba_marseille","lat":43.30155,"lon":5.38104,"is_reserved":false,"is_disabled":false,"rental_uris":{"android":"levelo://app?vid=c203adb5-99bd-4c0a-af6b-fad821e5cd38","ios":"levelo://app?vid=c203adb5-99bd-4c0a-af6b-fad821e5cd38"},"vehicle_type_id":"4","last_reported":1744633173,"current_range_meters":21600,"station_id":"ce4bgjp2rcd13ifvqbh0","pricing_plan_id":"cebpf4jnsgd1na2vs0mg"},{"bike_id":"61788b27-74ee-400b-92ea-fa87486fb4d1","system_id":"levelo_inurba_marseille","lat":43.329991,"lon":5.438593,"is_reserved":false,"is_disabled":false,"rental_uris":{"android":"levelo://app?vid=61788b27-74ee-400b-92ea-fa87486fb4d1","ios":"levelo://app?vid=61788b27-74ee-400b-92ea-fa87486fb4d1"},"vehicle_type_id":"4","last_reported":1744633173,"current_range_meters":22000,"station_id":"","pricing_plan_id":"cebpf4jnsgd1na2vs0mg"},{"bike_id":"65467d9d-9e27-4f84-97d9-77bb69ae2ff0","system_id":"levelo_inurba_marseille","lat":43.30154,"lon":5.38087,"is_reserved":false,"is_disabled":false,"rental_uris":{"android":"levelo://app?vid=65467d9d-9e27-4f84-97d9-77bb69ae2ff0","ios":"levelo://app?vid=65467d9d-9e27-4f84-97d9-77bb69ae2ff0"},"vehicle_type_id":"4","last_reported":1744633173,"current_range_meters":22000,"station_id":"ce4bgjp2rcd13ifvqbh0","pricing_plan_id":"cebpf4jnsgd1na2vs0mg"},{"bike_id":"08a2c2b1-ac71-46d9-8c32-b65b65726c80","system_id":"levelo_inurba_marseille","lat":43.26559,"lon":5.37285,"is_reserved":false,"is_disabled":false,"rental_uris":{"android":"levelo://app?vid=08a2c2b1-ac71-46d9-8c32-b65b65726c80","ios":"levelo://app?vid=08a2c2b1-ac71-46d9-8c32-b65b65726c80"},"vehicle_type_id":"4","last_reported":1744633173,"current_range_meters":22000,"station_id":"ce4bhg12rcd13ifvqf70","pricing_plan_id":"cebpf4jnsgd1na2vs0mg"},{"bike_id":"d23af7c0-9a9a-4781-be5a-d0e68de2db26","system_id":"levelo_inurba_marseille","lat":43.28856,"lon":5.35865,"is_reserved":false,"is_disabled":false,"rental_uris":{"android":"levelo://app?vid=d23af7c0-9a9a-4781-be5a-d0e68de2db26","ios":"levelo://app?vid=d23af7c0-9a9a-4781-be5a-d0e68de2db26"},"vehicle_type_id":"4","last_reported":1744633173,"current_range_meters":22000,"station_id":"ce4bhb12rcd13ifvqem0","pricing_plan_id":"cebpf4jnsgd1na2vs0mg"},{"bike_id":"10d8789e-4d26-4521-92c0-8ae244d5fb7f","system_id":"levelo_inurba_marseille","lat":43.265701,"lon":5.37327,"is_reserved":false,"is_disabled":false,"rental_uris":{"android":"levelo://app?vid=10d8789e-4d26-4521-92c0-8ae244d5fb7f","ios":"levelo://app?vid=10d8789e-4d26-4521-92c0-8ae244d5fb7f"},"vehicle_type_id":"4","last_reported":1744633173,"current_range_meters":22000,"station_id":"ce4bhg12rcd13ifvqf70","pricing_plan_id":"cebpf4jnsgd1na2vs0mg"},{"bike_id":"deb416d8-f4b1-431e-904b-7013df4def54","system_id":"levelo_inurba_marseille","lat":43.24543,"lon":5.39528,"is_reserved":false,"is_disabled":false,"rental_uris":{"android":"levelo://app?vid=deb416d8-f4b1-431e-904b-7013df4def54","ios":"levelo://app?vid=deb416d8-f4b1-431e-904b-7013df4def54"},"vehicle_type_id":"4","last_reported":1744633173,"current_range_meters":22000,"station_id":"ce4bhlp2rcd13ifvqgjg","pricing_plan_id":"cebpf4jnsgd1na2vs0mg"},{"bike_id":"a5eb8ed8-10e4-45b2-a006-31cc2028fbca","system_id":"levelo_inurba_marseille","lat":43.29536,"lon":5.38545,"is_reserved":false,"is_disabled":false,"rental_uris":{"android":"levelo://app?vid=a5eb8ed8-10e4-45b2-a006-31cc2028fbca","ios":"levelo://app?vid=a5eb8ed8-10e4-45b2-a006-31cc2028fbca"},"vehicle_type_id":"4","last_reported":1744633173,"current_range_meters":22000,"station_id":"ce4bgih2rcd13ifvqba0","pricing_plan_id":"cebpf4jnsgd1na2vs0mg"},{"bike_id":"e66e4f51-a050-4e48-9033-8d7a2ec2d288","system_id":"levelo_inurba_marseille","lat":43.21198,"lon":5.35067,"is_reserved":false,"is_disabled":false,"rental_uris":{"android":"levelo://app?vid=e66e4f51-a050-4e48-9033-8d7a2ec2d288","ios":"levelo://app?vid=e66e4f51-a050-4e48-9033-8d7a2ec2d288"},"vehicle_type_id":"4","last_reported":1744633173,"current_range_meters":22000,"station_id":"st_cvj6sg6p6f1abm77japg","pricing_plan_id":"cebpf4jnsgd1na2vs0mg"},{"bike_id":"05664e36-336b-404a-b8de-2ca42d4238f0","system_id":"levelo_inurba_marseille","lat":43.25003,"lon":5.38196,"is_reserved":false,"is_disabled":false,"rental_uris":{"android":"levelo://app?vid=05664e36-336b-404a-b8de-2ca42d4238f0","ios":"levelo://app?vid=05664e36-336b-404a-b8de-2ca42d4238f0"},"vehicle_type_id":"4","last_reported":1744633173,"current_range_meters":22000,"station_id":"","pricing_plan_id":"cebpf4jnsgd1na2vs0mg"},{"bike_id":"398c9e66-2add-45e7-a5a8-1519b873b904","system_id":"levelo_inurba_marseille","lat":43.30546,"lon":5.36549,"is_reserved":false,"is_disabled":false,"rental_uris":{"android":"levelo://app?vid=398c9e66-2add-45e7-a5a8-1519b873b904","ios":"levelo://app?vid=398c9e66-2add-45e7-a5a8-1519b873b904"},"vehicle_type_id":"4","last_reported":1744633173,"current_range_meters":22400,"station_id":"ce4bgs12rcd13ifvqcag","pricing_plan_id":"cebpf4jnsgd1na2vs0mg"},{"bike_id":"9a8da75c-4f95-4dd3-a8ae-c251bc651046","system_id":"levelo_inurba_marseille","lat":43.25116,"lon":5.40306,"is_reserved":false,"is_disabled":false,"rental_uris":{"android":"levelo://app?vid=9a8da75c-4f95-4dd3-a8ae-c251bc651046","ios":"levelo://app?vid=9a8da75c-4f95-4dd3-a8ae-c251bc651046"},"vehicle_type_id":"4","last_reported":1744633173,"current_range_meters":22400,"station_id":"ce4bhlh2rcd13ifvqgig","pricing_plan_id":"cebpf4jnsgd1na2vs0mg"},{"bike_id":"c5a5ea8b-6316-4b24-b946-fc5f84533a62","system_id":"levelo_inurba_marseille","lat":43.27067,"lon":5.42283,"is_reserved":false,"is_disabled":false,"rental_uris":{"android":"levelo://app?vid=c5a5ea8b-6316-4b24-b946-fc5f84533a62","ios":"levelo://app?vid=c5a5ea8b-6316-4b24-b946-fc5f84533a62"},"vehicle_type_id":"4","last_reported":1744633173,"current_range_meters":22400,"station_id":"ce4bhk92rcd13ifvqgb0","pricing_plan_id":"cebpf4jnsgd1na2vs0mg"},{"bike_id":"1ac6cae9-5a5f-4765-b8d5-20772275ca89","system_id":"levelo_inurba_marseille","lat":43.233221,"lon":5.361383,"is_reserved":false,"is_disabled":false,"rental_uris":{"android":"levelo://app?vid=1ac6cae9-5a5f-4765-b8d5-20772275ca89","ios":"levelo://app?vid=1ac6cae9-5a5f-4765-b8d5-20772275ca89"},"vehicle_type_id":"4","last_reported":1744633173,"current_range_meters":22400,"station_id":"","pricing_plan_id":"cebpf4jnsgd1na2vs0mg"},{"bike_id":"a7abb0fc-6c99-4038-ad56-02ad4877377b","system_id":"levelo_inurba_marseille","lat":43.29895,"lon":5.381481,"is_reserved":false,"is_disabled":false,"rental_uris":{"android":"levelo://app?vid=a7abb0fc-6c99-4038-ad56-02ad4877377b","ios":"levelo://app?vid=a7abb0fc-6c99-4038-ad56-02ad4877377b"},"vehicle_type_id":"4","last_reported":1744633173,"current_range_meters":22400,"station_id":"ce4bgj12rcd13ifvqbc0","pricing_plan_id":"cebpf4jnsgd1na2vs0mg"},{"bike_id":"58bde2bc-8256-4c44-8436-16a3613e058a","system_id":"levelo_inurba_marseille","lat":43.28699,"lon":5.37398,"is_reserved":false,"is_disabled":false,"rental_uris":{"android":"levelo://app?vid=58bde2bc-8256-4c44-8436-16a3613e058a","ios":"levelo://app?vid=58bde2bc-8256-4c44-8436-16a3613e058a"},"vehicle_type_id":"4","last_reported":1744633173,"current_range_meters":22400,"station_id":"ce4bh3p2rcd13ifvqdq0","pricing_plan_id":"cebpf4jnsgd1na2vs0mg"},{"bike_id":"83804290-090b-49b6-8b70-b0f8f2370b53","system_id":"levelo_inurba_marseille","lat":43.287074,"lon":5.399885,"is_reserved":false,"is_disabled":false,"rental_uris":{"android":"levelo://app?vid=83804290-090b-49b6-8b70-b0f8f2370b53","ios":"levelo://app?vid=83804290-090b-49b6-8b70-b0f8f2370b53"},"vehicle_type_id":"4","last_reported":1744633173,"current_range_meters":22400,"station_id":"ce4bho92rcd13ifvqh3g","pricing_plan_id":"cebpf4jnsgd1na2vs0mg"},{"bike_id":"1d092fc0-dbc0-406e-b2ff-beadae051068","system_id":"levelo_inurba_marseille","lat":43.31046,"lon":5.37308,"is_reserved":false,"is_disabled":false,"rental_uris":{"android":"levelo://app?vid=1d092fc0-dbc0-406e-b2ff-beadae051068","ios":"levelo://app?vid=1d092fc0-dbc0-406e-b2ff-beadae051068"},"vehicle_type_id":"4","last_reported":1744633173,"current_range_meters":22400,"station_id":"","pricing_plan_id":"cebpf4jnsgd1na2vs0mg"},{"bike_id":"f5937a56-2053-48c6-a25a-972606402463","system_id":"levelo_inurba_marseille","lat":43.27074,"lon":5.42289,"is_reserved":false,"is_disabled":false,"rental_uris":{"android":"levelo://app?vid=f5937a56-2053-48c6-a25a-972606402463","ios":"levelo://app?vid=f5937a56-2053-48c6-a25a-972606402463"},"vehicle_type_id":"4","last_reported":1744633173,"current_range_meters":22400,"station_id":"ce4bhk92rcd13ifvqgb0","pricing_plan_id":"cebpf4jnsgd1na2vs0mg"},{"bike_id":"e87dfab2-647c-4c1a-9f36-e5ea04741125","system_id":"levelo_inurba_marseille","lat":43.29276,"lon":5.36848,"is_reserved":false,"is_disabled":false,"rental_uris":{"android":"levelo://app?vid=e87dfab2-647c-4c1a-9f36-e5ea04741125","ios":"levelo://app?vid=e87dfab2-647c-4c1a-9f36-e5ea04741125"},"vehicle_type_id":"4","last_reported":1744633173,"current_range_meters":22800,"station_id":"ce4bhbp2rcd13ifvqesg","pricing_plan_id":"cebpf4jnsgd1na2vs0mg"},{"bike_id":"dab92ad9-845f-45dd-8fad-a49bfcfc531b","system_id":"levelo_inurba_marseille","lat":43.30919,"lon":5.36856,"is_reserved":false,"is_disabled":false,"rental_uris":{"android":"levelo://app?vid=dab92ad9-845f-45dd-8fad-a49bfcfc531b","ios":"levelo://app?vid=dab92ad9-845f-45dd-8fad-a49bfcfc531b"},"vehicle_type_id":"4","last_reported":1744633173,"current_range_meters":22800,"station_id":"ce4bgn92rcd13ifvqbvg","pricing_plan_id":"cebpf4jnsgd1na2vs0mg"},{"bike_id":"373f0642-e9b8-43a2-a358-8174e0c5e3e9","system_id":"levelo_inurba_marseille","lat":43.27938,"lon":5.41033,"is_reserved":false,"is_disabled":false,"rental_uris":{"android":"levelo://app?vid=373f0642-e9b8-43a2-a358-8174e0c5e3e9","ios":"levelo://app?vid=373f0642-e9b8-43a2-a358-8174e0c5e3e9"},"vehicle_type_id":"4","last_reported":1744633173,"current_range_meters":22800,"station_id":"ce4bhnp2rcd13ifvqh0g","pricing_plan_id":"cebpf4jnsgd1na2vs0mg"},{"bike_id":"3d71d07f-330c-407c-b9f0-b5eb650bcd9d","system_id":"levelo_inurba_marseille","lat":43.30461,"lon":5.37902,"is_reserved":false,"is_disabled":false,"rental_uris":{"android":"levelo://app?vid=3d71d07f-330c-407c-b9f0-b5eb650bcd9d","ios":"levelo://app?vid=3d71d07f-330c-407c-b9f0-b5eb650bcd9d"},"vehicle_type_id":"4","last_reported":1744633173,"current_range_meters":22800,"station_id":"ce4bgup2rcd13ifvqcn0","pricing_plan_id":"cebpf4jnsgd1na2vs0mg"},{"bike_id":"e190b69d-bffe-41bb-b19d-d016459a4501","system_id":"levelo_inurba_marseille","lat":43.30919,"lon":5.36855,"is_reserved":false,"is_disabled":false,"rental_uris":{"android":"levelo://app?vid=e190b69d-bffe-41bb-b19d-d016459a4501","ios":"levelo://app?vid=e190b69d-bffe-41bb-b19d-d016459a4501"},"vehicle_type_id":"4","last_reported":1744633173,"current_range_meters":22800,"station_id":"ce4bgn92rcd13ifvqbvg","pricing_plan_id":"cebpf4jnsgd1na2vs0mg"},{"bike_id":"ea623806-daed-47c1-92d2-6c11b0853d87","system_id":"levelo_inurba_marseille","lat":43.31509,"lon":5.37278,"is_reserved":false,"is_disabled":false,"rental_uris":{"android":"levelo://app?vid=ea623806-daed-47c1-92d2-6c11b0853d87","ios":"levelo://app?vid=ea623806-daed-47c1-92d2-6c11b0853d87"},"vehicle_type_id":"4","last_reported":1744633173,"current_range_meters":22800,"station_id":"ce4bgt12rcd13ifvqcd0","pricing_plan_id":"cebpf4jnsgd1na2vs0mg"},{"bike_id":"29d95d95-9e17-4f7a-b230-abb382bf24ac","system_id":"levelo_inurba_marseille","lat":43.324845,"lon":5.36569,"is_reserved":false,"is_disabled":false,"rental_uris":{"android":"levelo://app?vid=29d95d95-9e17-4f7a-b230-abb382bf24ac","ios":"levelo://app?vid=29d95d95-9e17-4f7a-b230-abb382bf24ac"},"vehicle_type_id":"4","last_reported":1744633173,"current_range_meters":22800,"station_id":"ce4bhs12rcd13ifvqhvg","pricing_plan_id":"cebpf4jnsgd1na2vs0mg"},{"bike_id":"6d61d5ef-e608-419e-8e98-cb87785ada58","system_id":"levelo_inurba_marseille","lat":43.26215,"lon":5.37443,"is_reserved":false,"is_disabled":false,"rental_uris":{"android":"levelo://app?vid=6d61d5ef-e608-419e-8e98-cb87785ada58","ios":"levelo://app?vid=6d61d5ef-e608-419e-8e98-cb87785ada58"},"vehicle_type_id":"4","last_reported":1744633173,"current_range_meters":20400,"station_id":"ce4bhgp2rcd13ifvqfc0","pricing_plan_id":"cebpf4jnsgd1na2vs0mg"},{"bike_id":"6f9ef2c6-883e-412b-8947-8bc32c601f3e","system_id":"levelo_inurba_marseille","lat":43.26188,"lon":5.37422,"is_reserved":false,"is_disabled":false,"rental_uris":{"android":"levelo://app?vid=6f9ef2c6-883e-412b-8947-8bc32c601f3e","ios":"levelo://app?vid=6f9ef2c6-883e-412b-8947-8bc32c601f3e"},"vehicle_type_id":"4","last_reported":1744633173,"current_range_meters":22800,"station_id":"ce4bhgp2rcd13ifvqfc0","pricing_plan_id":"cebpf4jnsgd1na2vs0mg"},{"bike_id":"9504a23f-fc70-4d3f-8c43-d3abc49fba6f","system_id":"levelo_inurba_marseille","lat":43.25951,"lon":5.40908,"is_reserved":false,"is_disabled":false,"rental_uris":{"android":"levelo://app?vid=9504a23f-fc70-4d3f-8c43-d3abc49fba6f","ios":"levelo://app?vid=9504a23f-fc70-4d3f-8c43-d3abc49fba6f"},"vehicle_type_id":"4","last_reported":1744633173,"current_range_meters":22800,"station_id":"ce4bhm92rcd13ifvqglg","pricing_plan_id":"cebpf4jnsgd1na2vs0mg"},{"bike_id":"907eeb8d-3cdf-4ed8-a0e9-0a3e3a0e9c78","system_id":"levelo_inurba_marseille","lat":43.2718,"lon":5.40992,"is_reserved":false,"is_disabled":false,"rental_uris":{"android":"levelo://app?vid=907eeb8d-3cdf-4ed8-a0e9-0a3e3a0e9c78","ios":"levelo://app?vid=907eeb8d-3cdf-4ed8-a0e9-0a3e3a0e9c78"},"vehicle_type_id":"4","last_reported":1744633173,"current_range_meters":22800,"station_id":"ce4bhl12rcd13ifvqgf0","pricing_plan_id":"cebpf4jnsgd1na2vs0mg"},{"bike_id":"1edd0335-5567-4b31-988d-fee46610ec88","system_id":"levelo_inurba_marseille","lat":43.30883,"lon":5.39663,"is_reserved":false,"is_disabled":false,"rental_uris":{"android":"levelo://app?vid=1edd0335-5567-4b31-988d-fee46610ec88","ios":"levelo://app?vid=1edd0335-5567-4b31-988d-fee46610ec88"},"vehicle_type_id":"4","last_reported":1744633173,"current_range_meters":22800,"station_id":"ce4bh012rcd13ifvqcv0","pricing_plan_id":"cebpf4jnsgd1na2vs0mg"},{"bike_id":"b035f8ab-1633-42ac-9aa2-e0f018b270f8","system_id":"levelo_inurba_marseille","lat":43.26045,"lon":5.37539,"is_reserved":false,"is_disabled":false,"rental_uris":{"android":"levelo://app?vid=b035f8ab-1633-42ac-9aa2-e0f018b270f8","ios":"levelo://app?vid=b035f8ab-1633-42ac-9aa2-e0f018b270f8"},"vehicle_type_id":"4","last_reported":1744633173,"current_range_meters":23200,"station_id":"ce4bhgh2rcd13ifvqfa0","pricing_plan_id":"cebpf4jnsgd1na2vs0mg"},{"bike_id":"e0145f6f-fd6d-4add-bf6b-aee917ae6fb8","system_id":"levelo_inurba_marseille","lat":43.24386,"lon":5.37063,"is_reserved":false,"is_disabled":false,"rental_uris":{"android":"levelo://app?vid=e0145f6f-fd6d-4add-bf6b-aee917ae6fb8","ios":"levelo://app?vid=e0145f6f-fd6d-4add-bf6b-aee917ae6fb8"},"vehicle_type_id":"4","last_reported":1744633173,"current_range_meters":23200,"station_id":"ce4bhhh2rcd13ifvqfk0","pricing_plan_id":"cebpf4jnsgd1na2vs0mg"},{"bike_id":"c377b7b0-0eae-475a-b6d4-71f739707f81","system_id":"levelo_inurba_marseille","lat":43.27317,"lon":5.39076,"is_reserved":false,"is_disabled":false,"rental_uris":{"android":"levelo://app?vid=c377b7b0-0eae-475a-b6d4-71f739707f81","ios":"levelo://app?vid=c377b7b0-0eae-475a-b6d4-71f739707f81"},"vehicle_type_id":"4","last_reported":1744633173,"current_range_meters":24800,"station_id":"ce4bhgp2rcd13ifvqfe0","pricing_plan_id":"cebpf4jnsgd1na2vs0mg"},{"bike_id":"da41f7af-7184-4efd-942e-41ce0bcdceb9","system_id":"levelo_inurba_marseille","lat":43.231528,"lon":5.437115,"is_reserved":false,"is_disabled":false,"rental_uris":{"android":"levelo://app?vid=da41f7af-7184-4efd-942e-41ce0bcdceb9","ios":"levelo://app?vid=da41f7af-7184-4efd-942e-41ce0bcdceb9"},"vehicle_type_id":"4","last_reported":1744633173,"current_range_meters":23200,"station_id":"ce4bhmp2rcd13ifvqgog","pricing_plan_id":"cebpf4jnsgd1na2vs0mg"},{"bike_id":"a079eb5a-fad5-41ff-aca3-81b75db04b00","system_id":"levelo_inurba_marseille","lat":43.30497,"lon":5.36611,"is_reserved":false,"is_disabled":false,"rental_uris":{"android":"levelo://app?vid=a079eb5a-fad5-41ff-aca3-81b75db04b00","ios":"levelo://app?vid=a079eb5a-fad5-41ff-aca3-81b75db04b00"},"vehicle_type_id":"4","last_reported":1744633173,"current_range_meters":23200,"station_id":"","pricing_plan_id":"cebpf4jnsgd1na2vs0mg"},{"bike_id":"24acbce7-260f-46c8-9ba2-af24377b2147","system_id":"levelo_inurba_marseille","lat":43.21764,"lon":5.34594,"is_reserved":false,"is_disabled":false,"rental_uris":{"android":"levelo://app?vid=24acbce7-260f-46c8-9ba2-af24377b2147","ios":"levelo://app?vid=24acbce7-260f-46c8-9ba2-af24377b2147"},"vehicle_type_id":"4","last_reported":1744633173,"current_range_meters":23200,"station_id":"","pricing_plan_id":"cebpf4jnsgd1na2vs0mg"},{"bike_id":"80581a5c-f0ad-4895-a131-36c495c1c1df","system_id":"levelo_inurba_marseille","lat":43.305443,"lon":5.365363,"is_reserved":false,"is_disabled":false,"rental_uris":{"android":"levelo://app?vid=80581a5c-f0ad-4895-a131-36c495c1c1df","ios":"levelo://app?vid=80581a5c-f0ad-4895-a131-36c495c1c1df"},"vehicle_type_id":"4","last_reported":1744633173,"current_range_meters":23200,"station_id":"","pricing_plan_id":"cebpf4jnsgd1na2vs0mg"},{"bike_id":"7eacb872-0584-4b06-8fad-feb612d3799a","system_id":"levelo_inurba_marseille","lat":43.30159,"lon":5.38089,"is_reserved":false,"is_disabled":false,"rental_uris":{"android":"levelo://app?vid=7eacb872-0584-4b06-8fad-feb612d3799a","ios":"levelo://app?vid=7eacb872-0584-4b06-8fad-feb612d3799a"},"vehicle_type_id":"4","last_reported":1744633173,"current_range_meters":23200,"station_id":"ce4bgjp2rcd13ifvqbh0","pricing_plan_id":"cebpf4jnsgd1na2vs0mg"},{"bike_id":"58865f51-d34a-49ac-8f37-d14aa3ef6ace","system_id":"levelo_inurba_marseille","lat":43.32418,"lon":5.39106,"is_reserved":false,"is_disabled":false,"rental_uris":{"android":"levelo://app?vid=58865f51-d34a-49ac-8f37-d14aa3ef6ace","ios":"levelo://app?vid=58865f51-d34a-49ac-8f37-d14aa3ef6ace"},"vehicle_type_id":"4","last_reported":1744633173,"current_range_meters":23200,"station_id":"","pricing_plan_id":"cebpf4jnsgd1na2vs0mg"},{"bike_id":"09e27f96-55e6-42b2-b6b0-c7d769d0be7b","system_id":"levelo_inurba_marseille","lat":43.33593,"lon":5.40967,"is_reserved":false,"is_disabled":true,"rental_uris":{"android":"levelo://app?vid=09e27f96-55e6-42b2-b6b0-c7d769d0be7b","ios":"levelo://app?vid=09e27f96-55e6-42b2-b6b0-c7d769d0be7b"},"vehicle_type_id":"4","last_reported":1744633173,"current_range_meters":23200,"station_id":"ce4bhqh2rcd13ifvqhmg","pricing_plan_id":"cebpf4jnsgd1na2vs0mg"},{"bike_id":"0bd74514-075c-4332-8717-eaf12dfff18e","system_id":"levelo_inurba_marseille","lat":43.29842,"lon":5.36275,"is_reserved":false,"is_disabled":false,"rental_uris":{"android":"levelo://app?vid=0bd74514-075c-4332-8717-eaf12dfff18e","ios":"levelo://app?vid=0bd74514-075c-4332-8717-eaf12dfff18e"},"vehicle_type_id":"4","last_reported":1744633173,"current_range_meters":23200,"station_id":"ce4bgpp2rcd13ifvqc3g","pricing_plan_id":"cebpf4jnsgd1na2vs0mg"},{"bike_id":"7184a8f5-8b38-4050-b949-b83e362d5f74","system_id":"levelo_inurba_marseille","lat":43.32483,"lon":5.36572,"is_reserved":false,"is_disabled":false,"rental_uris":{"android":"levelo://app?vid=7184a8f5-8b38-4050-b949-b83e362d5f74","ios":"levelo://app?vid=7184a8f5-8b38-4050-b949-b83e362d5f74"},"vehicle_type_id":"4","last_reported":1744633173,"current_range_meters":23200,"station_id":"ce4bhs12rcd13ifvqhvg","pricing_plan_id":"cebpf4jnsgd1na2vs0mg"},{"bike_id":"14f8005a-df7a-4691-96c2-fb0aab2aad7c","system_id":"levelo_inurba_marseille","lat":43.324733,"lon":5.365722,"is_reserved":false,"is_disabled":false,"rental_uris":{"android":"levelo://app?vid=14f8005a-df7a-4691-96c2-fb0aab2aad7c","ios":"levelo://app?vid=14f8005a-df7a-4691-96c2-fb0aab2aad7c"},"vehicle_type_id":"4","last_reported":1744633173,"current_range_meters":23200,"station_id":"ce4bh392rcd13ifvqdl0","pricing_plan_id":"cebpf4jnsgd1na2vs0mg"},{"bike_id":"8532e4e5-ab0a-48f3-baf3-7a36a59c4f84","system_id":"levelo_inurba_marseille","lat":43.29005,"lon":5.35615,"is_reserved":false,"is_disabled":false,"rental_uris":{"android":"levelo://app?vid=8532e4e5-ab0a-48f3-baf3-7a36a59c4f84","ios":"levelo://app?vid=8532e4e5-ab0a-48f3-baf3-7a36a59c4f84"},"vehicle_type_id":"4","last_reported":1744633173,"current_range_meters":24000,"station_id":"ce4bhb92rcd13ifvqen0","pricing_plan_id":"cebpf4jnsgd1na2vs0mg"},{"bike_id":"c8577a26-7e73-46df-8e82-914727f13f86","system_id":"levelo_inurba_marseille","lat":43.30146,"lon":5.38102,"is_reserved":false,"is_disabled":true,"rental_uris":{"android":"levelo://app?vid=c8577a26-7e73-46df-8e82-914727f13f86","ios":"levelo://app?vid=c8577a26-7e73-46df-8e82-914727f13f86"},"vehicle_type_id":"4","last_reported":1744633173,"current_range_meters":24000,"station_id":"ce4bgjp2rcd13ifvqbh0","pricing_plan_id":"cebpf4jnsgd1na2vs0mg"},{"bike_id":"923729a8-55df-41bd-baca-4fb729804166","system_id":"levelo_inurba_marseille","lat":43.30326,"lon":5.40433,"is_reserved":false,"is_disabled":false,"rental_uris":{"android":"levelo://app?vid=923729a8-55df-41bd-baca-4fb729804166","ios":"levelo://app?vid=923729a8-55df-41bd-baca-4fb729804166"},"vehicle_type_id":"4","last_reported":1744633173,"current_range_meters":24800,"station_id":"ce4bh012rcd13ifvqd10","pricing_plan_id":"cebpf4jnsgd1na2vs0mg"},{"bike_id":"dadb54cc-34e6-41e2-8eec-c57b52489ce7","system_id":"levelo_inurba_marseille","lat":43.29969,"lon":5.38527,"is_reserved":false,"is_disabled":false,"rental_uris":{"android":"levelo://app?vid=dadb54cc-34e6-41e2-8eec-c57b52489ce7","ios":"levelo://app?vid=dadb54cc-34e6-41e2-8eec-c57b52489ce7"},"vehicle_type_id":"4","last_reported":1744633173,"current_range_meters":24000,"station_id":"ce4bgj92rcd13ifvqbd0","pricing_plan_id":"cebpf4jnsgd1na2vs0mg"},