{"last_updated":1748275916,"ttl":60,"version":"2.2","data":{"bikes":[{"bike_id":"c0b9fd4f-e181-46ce-b0bf-f5119973334f","system_id":"levelo_inurba_marseille","lat":43.33771,"lon":5.37424,"is_reserved":false,"is_disabled":true,"rental_uris":{"android":"levelo://app?vid=c0b9fd4f-e181-46ce-b0bf-f5119973334f","ios":"levelo://app?vid=c0b9fd4f-e181-46ce-b0bf-f5119973334f"},"vehicle_type_id":"4","last_reported":1748275916,"current_range_meters":0,"station_id":"","pricing_plan_id":"cebpf4jnsgd1na2vs0mg"},{"bike_id":"cd3479a6-a621-4d06-973e-9a921ffbd027","system_id":"levelo_inurba_marseille","lat":43.26556,"lon":5.40329,"is_reserved":false,"is_disabled":true,"rental_uris":{"android":"levelo://app?vid=cd3479a6-a621-4d06-973e-9a921ffbd027","ios":"levelo://app?vid=cd3479a6-a621-4d06-973e-9a921ffbd027"},"vehicle_type_id":"4","last_reported":1748275916,"current_range_meters":0,"station_id":"","pricing_plan_id":"cebpf4jnsgd1na2vs0mg"},{"bike_id":"6b31d584-7ec8-4d7f-974f-dd6b8b914518","system_id":"levelo_inurba_marseille","lat":43.27086,"lon":5.39218,"is_reserved":false,"is_disabled":true,"rental_uris":{"android":"levelo://app?vid=6b31d584-7ec8-4d7f-974f-dd6b8b914518","ios":"levelo://app?vid=6b31d584-7ec8-4d7f-974f-dd6b8b914518"},"vehicle_type_id":"4","last_reported":1748275916,"current_range_meters":0,"station_id":"","pricing_plan_id":"cebpf4jnsgd1na2vs0mg"},{"bike_id":"68dd4df3-b4ab-477d-ba1f-083f8077ecbb","system_id":"levelo_inurba_marseille","lat":43.25639,"lon":5.37522,"is_reserved":false,"is_disabled":true,"rental_uris":{"android":"levelo://app?vid=68dd4df3-b4ab-477d-ba1f-083f8077ecbb","ios":"levelo://app?vid=68dd4df3-b4ab-477d-ba1f-083f8077ecbb"},"vehicle_type_id":"4","last_reported":1748275916,"current_range_meters":0,"station_id":"","pricing_plan_id":"cebpf4jnsgd1na2vs0mg"},{"bike_id":"3fe3d6c4-138a-47df-b6b4-e6f19e8f7d46","system_id":"levelo_inurba_marseille","lat":43.21411,"lon":5.34114,"is_reserved":false,"is_disabled":true,"rental_uris":{"android":"levelo://app?vid=3fe3d6c4-138a-47df-b6b4-e6f19e8f7d46","ios":"levelo://app?vid=3fe3d6c4-138a-47df-b6b4-e6f19e8f7d46"},"vehicle_type_id":"4","last_reported":1748275916,"current_range_meters":0,"station_id":"","pricing_plan_id":"cebpf4jnsgd1na2vs0mg"},{"bike_id":"fd133867-b5d2-4fd2-aa0a-382781ea3f5a","system_id":"levelo_inurba_marseille","lat":43.29097,"lon":5.43267,"is_reserved":false,"is_disabled":true,"rental_uris":{"android":"levelo://app?vid=fd133867-b5d2-4fd2-aa0a-382781ea3f5a","ios":"levelo://app?vid=fd133867-b5d2-4fd2-aa0a-382781ea3f5a"},"vehicle_type_id":"4","last_reported":1748275916,"current_range_meters":0,"station_id":"","pricing_plan_id":"cebpf4jnsgd1na2vs0mg"},{"bike_id":"18d91d21-3fbd-44ec-8ea5-ad154289350f","system_id":"levelo_inurba_marseille","lat":43.31102,"lon":5.37306,"is_reserved":false,"is_disabled":true,"rental_uris":{"android":"levelo://app?vid=18d91d21-3fbd-44ec-8ea5-ad154289350f","ios":"levelo://app?vid=18d91d21-3fbd-44ec-8ea5-ad154289350f"},"vehicle_type_id":"4","last_reported":1748275916,"current_range_meters":0,"station_id":"","pricing_plan_id":"cebpf4jnsgd1na2vs0mg"},{"bike_id":"4a2a47fa-fb4e-41f8-93fc-61bb4186107f","system_id":"levelo_inurba_marseille","lat":43.27773,"lon":5.39872,"is_reserved":false,"is_disabled":true,"rental_uris":{"android":"levelo://app?vid=4a2a47fa-fb4e-41f8-93fc-61bb4186107f","ios":"levelo://app?vid=4a2a47fa-fb4e-41f8-93fc-61bb4186107f"},"vehicle_type_id":"4","last_reported":1748275916,"current_range_meters":0,"station_id":"","pricing_plan_id":"cebpf4jnsgd1na2vs0mg"},{"bike_id":"15dcdbbd-a41e-43eb-9ed6-26ec15ce7a50","system_id":"levelo_inurba_marseille","lat":43.21411,"lon":5.34113,"is_reserved":false,"is_disabled":true,"rental_uris":{"android":"levelo://app?vid=15dcdbbd-a41e-43eb-9ed6-26ec15ce7a50","ios":"levelo://app?vid=15dcdbbd-a41e-43eb-9ed6-26ec15ce7a50"},"vehicle_type_id":"4","last_reported":1748275916,"current_range_meters":0,"station_id":"","pricing_plan_id":"cebpf4jnsgd1na2vs0mg"},{"bike_id":"377e997d-76fa-49cd-a9c9-778bc42231c4","system_id":"levelo_inurba_marseille","lat":43.25701,"lon":5.41913,"is_reserved":false,"is_disabled":true,"rental_uris":{"android":"levelo://app?vid=377e997d-76fa-49cd-a9c9-778bc42231c4","ios":"levelo://app?vid=377e997d-76fa-49cd-a9c9-778bc42231c4"},"vehicle_type_id":"4","last_reported":1748275916,"current_range_meters":0,"station_id":"","pricing_plan_id":"cebpf4jnsgd1na2vs0mg"},{"bike_id":"f9fb40c0-1fcd-48cb-8e26-3f2dc0fb2451","system_id":"levelo_inurba_marseille","lat":43.33751,"lon":5.37509,"is_reserved":false,"is_disabled":true,"rental_uris":{"android":"levelo://app?vid=f9fb40c0-1fcd-48cb-8e26-3f2dc0fb2451","ios":"levelo://app?vid=f9fb40c0-1fcd-48cb-8e26-3f2dc0fb2451"},"vehicle_type_id":"4","last_reported":1748275916,"current_range_meters":0,"station_id":"","pricing_plan_id":"cebpf4jnsgd1na2vs0mg"},{"bike_id":"55486e59-addd-4d7a-be46-bc6476992a64","system_id":"levelo_inurba_marseille","lat":43.27792,"lon":5.38845,"is_reserved":false,"is_disabled":true,"rental_uris":{"android":"levelo://app?vid=55486e59-addd-4d7a-be46-bc6476992a64","ios":"levelo://app?vid=55486e59-addd-4d7a-be46-bc6476992a64"},"vehicle_type_id":"4","last_reported":1748275916,"current_range_meters":0,"station_id":"","pricing_plan_id":"cebpf4jnsgd1na2vs0mg"},{"bike_id":"d9b5650d-9652-4389-81c8-9e7dd1dc104a","system_id":"levelo_inurba_marseille","lat":43.31008,"lon":5.37122,"is_reserved":false,"is_disabled":true,"rental_uris":{"android":"levelo://app?vid=d9b5650d-9652-4389-81c8-9e7dd1dc104a","ios":"levelo://app?vid=d9b5650d-9652-4389-81c8-9e7dd1dc104a"},"vehicle_type_id":"4","last_reported":1748275916,"current_range_meters":0,"station_id":"","pricing_plan_id":"cebpf4jnsgd1na2vs0mg"},{"bike_id":"e9dd3aa4-b5e7-4480-926d-d7f537719bfa","system_id":"levelo_inurba_marseille","lat":43.230331,"lon":5.401847,"is_reserved":false,"is_disabled":true,"rental_uris":{"android":"levelo://app?vid=e9dd3aa4-b5e7-4480-926d-d7f537719bfa","ios":"levelo://app?vid=e9dd3aa4-b5e7-4480-926d-d7f537719bfa"},"vehicle_type_id":"4","last_reported":1748275916,"current_range_meters":0,"station_id":"","pricing_plan_id":"cebpf4jnsgd1na2vs0mg"},{"bike_id":"dcd075ea-b4af-4d6d-90b2-1236858b7bc1","system_id":"levelo_inurba_marseille","lat":43.27609,"lon":5.35873,"is_reserved":false,"is_disabled":true,"rental_uris":{"android":"levelo://app?vid=dcd075ea-b4af-4d6d-90b2-1236858b7bc1","ios":"levelo://app?vid=dcd075ea-b4af-4d6d-90b2-1236858b7bc1"},"vehicle_type_id":"4","last_reported":1748275916,"current_range_meters":0,"station_id":"","pricing_plan_id":"cebpf4jnsgd1na2vs0mg"},{"bike_id":"eee33d96-590a-4411-9c1a-8016ac70c7a1","system_id":"levelo_inurba_marseille","lat":43.31073,"lon":5.38359,"is_reserved":false,"is_disabled":true,"rental_uris":{"android":"levelo://app?vid=eee33d96-590a-4411-9c1a-8016ac70c7a1","ios":"levelo://app?vid=eee33d96-590a-4411-9c1a-8016ac70c7a1"},"vehicle_type_id":"4","last_reported":1748275916,"current_range_meters":0,"station_id":"ce4bgv92rcd13ifvqcr0","pricing_plan_id":"cebpf4jnsgd1na2vs0mg"},{"bike_id":"d1aa7c4f-13e9-4d65-8587-b77fd356ca4a","system_id":"levelo_inurba_marseille","lat":43.30421,"lon":5.39736,"is_reserved":false,"is_disabled":true,"rental_uris":{"android":"levelo://app?vid=d1aa7c4f-13e9-4d65-8587-b77fd356ca4a","ios":"levelo://app?vid=d1aa7c4f-13e9-4d65-8587-b77fd356ca4a"},"vehicle_type_id":"4","last_reported":1748275916,"current_range_meters":0,"station_id":"ce4bh092rcd13ifvqd20","pricing_plan_id":"cebpf4jnsgd1na2vs0mg"},{"bike_id":"a2531e30-0176-49dc-aa5b-079a47b44e19","system_id":"levelo_inurba_marseille","lat":43.30651,"lon":5.40078,"is_reserved":false,"is_disabled":true,"rental_uris":{"android":"levelo://app?vid=a2531e30-0176-49dc-aa5b-079a47b44e19","ios":"levelo://app?vid=a2531e30-0176-49dc-aa5b-079a47b44e19"},"vehicle_type_id":"4","last_reported":1748275916,"current_range_meters":0,"station_id":"ce4bh112rcd13ifvqda0","pricing_plan_id":"cebpf4jnsgd1na2vs0mg"},{"bike_id":"0ab3acb9-7491-4fa8-8dfc-c46aa5817568","system_id":"levelo_inurba_marseille","lat":43.29256,"lon":5.38453,"is_reserved":false,"is_disabled":true,"rental_uris":{"android":"levelo://app?vid=0ab3acb9-7491-4fa8-8dfc-c46aa5817568","ios":"levelo://app?vid=0ab3acb9-7491-4fa8-8dfc-c46aa5817568"},"vehicle_type_id":"4","last_reported":1748275916,"current_range_meters":0,"station_id":"ce4bh692rcd13ifvqea0","pricing_plan_id":"cebpf4jnsgd1na2vs0mg"},{"bike_id":"27cbe11c-b0ff-4409-8ee1-89a4db4428bb","system_id":"levelo_inurba_marseille","lat":43.29259,"lon":5.38443,"is_reserved":false,"is_disabled":true,"rental_uris":{"android":"levelo://app?vid=27cbe11c-b0ff-4409-8ee1-89a4db4428bb","ios":"levelo://app?vid=27cbe11c-b0ff-4409-8ee1-89a4db4428bb"},"vehicle_type_id":"4","last_reported":1748275916,"current_range_meters":0,"station_id":"ce4bh692rcd13ifvqea0","pricing_plan_id":"cebpf4jnsgd1na2vs0mg"},{"bike_id":"f954ea2d-1480-4be8-be7e-3165027ba170","system_id":"levelo_inurba_marseille","lat":43.28945,"lon":5.36637,"is_reserved":false,"is_disabled":true,"rental_uris":{"android":"levelo://app?vid=f954ea2d-1480-4be8-be7e-3165027ba170","ios":"levelo://app?vid=f954ea2d-1480-4be8-be7e-3165027ba170"},"vehicle_type_id":"4","last_reported":1748275916,"current_range_meters":0,"station_id":"ce4bhap2rcd13ifvqek0","pricing_plan_id":"cebpf4jnsgd1na2vs0mg"},{"bike_id":"d7745b52-2215-46b0-8205-b9a478ae62f6","system_id":"levelo_inurba_marseille","lat":43.26557,"lon":5.37282,"is_reserved":false,"is_disabled":true,"rental_uris":{"android":"levelo://app?vid=d7745b52-2215-46b0-8205-b9a478ae62f6","ios":"levelo://app?vid=d7745b52-2215-46b0-8205-b9a478ae62f6"},"vehicle_type_id":"4","last_reported":1748275916,"current_range_meters":0,"station_id":"ce4bhg12rcd13ifvqf70","pricing_plan_id":"cebpf4jnsgd1na2vs0mg"},{"bike_id":"f5bb42fa-3ad5-44da-a22e-b1acb71f6060","system_id":"levelo_inurba_marseille","lat":43.25531,"lon":5.37644,"is_reserved":false,"is_disabled":true,"rental_uris":{"android":"levelo://app?vid=f5bb42fa-3ad5-44da-a22e-b1acb71f6060","ios":"levelo://app?vid=f5bb42fa-3ad5-44da-a22e-b1acb71f6060"},"vehicle_type_id":"4","last_reported":1748275916,"current_range_meters":0,"station_id":"ce4bhh12rcd13ifvqff0","pricing_plan_id":"cebpf4jnsgd1na2vs0mg"},{"bike_id":"77f8a88b-a755-46d0-877b-f073e7ac6238","system_id":"levelo_inurba_marseille","lat":43.26786,"lon":5.39421,"is_reserved":false,"is_disabled":true,"rental_uris":{"android":"levelo://app?vid=77f8a88b-a755-46d0-877b-f073e7ac6238","ios":"levelo://app?vid=77f8a88b-a755-46d0-877b-f073e7ac6238"},"vehicle_type_id":"4","last_reported":1748275916,"current_range_meters":0,"station_id":"ce4bhh12rcd13ifvqfg0","pricing_plan_id":"cebpf4jnsgd1na2vs0mg"},{"bike_id":"2c9028fa-919f-4483-ba86-cbb9eb18e014","system_id":"levelo_inurba_marseille","lat":43.246568,"lon":5.381602,"is_reserved":false,"is_disabled":true,"rental_uris":{"android":"levelo://app?vid=2c9028fa-919f-4483-ba86-cbb9eb18e014","ios":"levelo://app?vid=2c9028fa-919f-4483-ba86-cbb9eb18e014"},"vehicle_type_id":"4","last_reported":1748275916,"current_range_meters":0,"station_id":"ce4bhih2rcd13ifvqfr0","pricing_plan_id":"cebpf4jnsgd1na2vs0mg"},{"bike_id":"6e2e0567-8797-4b92-b0fa-d1d7d1c62c25","system_id":"levelo_inurba_marseille","lat":43.25873,"lon":5.39907,"is_reserved":false,"is_disabled":true,"rental_uris":{"android":"levelo://app?vid=6e2e0567-8797-4b92-b0fa-d1d7d1c62c25","ios":"levelo://app?vid=6e2e0567-8797-4b92-b0fa-d1d7d1c62c25"},"vehicle_type_id":"4","last_reported":1748275916,"current_range_meters":0,"station_id":"ce4bhl92rcd13ifvqghg","pricing_plan_id":"cebpf4jnsgd1na2vs0mg"},{"bike_id":"d7ccd615-2c21-44cf-b3bd-60206a40201b","system_id":"levelo_inurba_marseille","lat":43.25119,"lon":5.40325,"is_reserved":false,"is_disabled":true,"rental_uris":{"android":"levelo://app?vid=d7ccd615-2c21-44cf-b3bd-60206a40201b","ios":"levelo://app?vid=d7ccd615-2c21-44cf-b3bd-60206a40201b"},"vehicle_type_id":"4","last_reported":1748275916,"current_range_meters":0,"station_id":"ce4bhlh2rcd13ifvqgig","pricing_plan_id":"cebpf4jnsgd1na2vs0mg"},{"bike_id":"c6abb61d-4342-40c3-b753-8164150f4e14","system_id":"levelo_inurba_marseille","lat":43.280817,"lon":5.396483,"is_reserved":false,"is_disabled":true,"rental_uris":{"android":"levelo://app?vid=c6abb61d-4342-40c3-b753-8164150f4e14","ios":"levelo://app?vid=c6abb61d-4342-40c3-b753-8164150f4e14"},"vehicle_type_id":"4","last_reported":1748275916,"current_range_meters":0,"station_id":"ce4bho12rcd13ifvqh2g","pricing_plan_id":"cebpf4jnsgd1na2vs0mg"},{"bike_id":"47136cd9-bfec-4082-94a0-f3107ab23805","system_id":"levelo_inurba_marseille","lat":43.29556,"lon":5.42282,"is_reserved":false,"is_disabled":true,"rental_uris":{"android":"levelo://app?vid=47136cd9-bfec-4082-94a0-f3107ab23805","ios":"levelo://app?vid=47136cd9-bfec-4082-94a0-f3107ab23805"},"vehicle_type_id":"4","last_reported":1748275916,"current_range_meters":0,"station_id":"ce4bhph2rcd13ifvqhdg","pricing_plan_id":"cebpf4jnsgd1na2vs0mg"},{"bike_id":"fa9040cb-6f75-4844-b106-1e6202cc5853","system_id":"levelo_inurba_marseille","lat":43.29898,"lon":5.43671,"is_reserved":false,"is_disabled":true,"rental_uris":{"android":"levelo://app?vid=fa9040cb-6f75-4844-b106-1e6202cc5853","ios":"levelo://app?vid=fa9040cb-6f75-4844-b106-1e6202cc5853"},"vehicle_type_id":"4","last_reported":1748275916,"current_range_meters":0,"station_id":"ce4bhpp2rcd13ifvqhfg","pricing_plan_id":"cebpf4jnsgd1na2vs0mg"},{"bike_id":"50d55e54-af5f-4a84-9494-ffb493180627","system_id":"levelo_inurba_marseille","lat":43.29787,"lon":5.39325,"is_reserved":false,"is_disabled":true,"rental_uris":{"android":"levelo://app?vid=50d55e54-af5f-4a84-9494-ffb493180627","ios":"levelo://app?vid=50d55e54-af5f-4a84-9494-ffb493180627"},"vehicle_type_id":"4","last_reported":1748275916,"current_range_meters":0,"station_id":"chh1huq6cuj3fo74tm60","pricing_plan_id":"cebpf4jnsgd1na2vs0mg"},{"bike_id":"f9413a03-5f8f-4964-9069-c6db9e7b18db","system_id":"levelo_inurba_marseille","lat":43.27919,"lon":5.3959,"is_reserved":false,"is_disabled":true,"rental_uris":{"android":"levelo://app?vid=f9413a03-5f8f-4964-9069-c6db9e7b18db","ios":"levelo://app?vid=f9413a03-5f8f-4964-9069-c6db9e7b18db"},"vehicle_type_id":"4","last_reported":1748275916,"current_range_meters":400,"station_id":"ce4bhf92rcd13ifvqf40","pricing_plan_id":"cebpf4jnsgd1na2vs0mg"},{"bike_id":"c8492931-ad09-46d8-8538-7b78bc51682d","system_id":"levelo_inurba_marseille","lat":43.27904,"lon":5.3802,"is_reserved":false,"is_disabled":true,"rental_uris":{"android":"levelo://app?vid=c8492931-ad09-46d8-8538-7b78bc51682d","ios":"levelo://app?vid=c8492931-ad09-46d8-8538-7b78bc51682d"},"vehicle_type_id":"4","last_reported":1748275916,"current_range_meters":400,"station_id":"ce4bhf92rcd13ifvqf50","pricing_plan_id":"cebpf4jnsgd1na2vs0mg"},{"bike_id":"017ebfa1-b938-4452-a17d-1634f1006921","system_id":"levelo_inurba_marseille","lat":43.27314,"lon":5.39059,"is_reserved":false,"is_disabled":true,"rental_uris":{"android":"levelo://app?vid=017ebfa1-b938-4452-a17d-1634f1006921","ios":"levelo://app?vid=017ebfa1-b938-4452-a17d-1634f1006921"},"vehicle_type_id":"4","last_reported":1748275916,"current_range_meters":400,"station_id":"ce4bhgp2rcd13ifvqfe0","pricing_plan_id":"cebpf4jnsgd1na2vs0mg"},{"bike_id":"cdeaa374-71ec-4bf7-80a7-959fcdf40cb2","system_id":"levelo_inurba_marseille","lat":43.3236,"lon":5.3888,"is_reserved":false,"is_disabled":true,"rental_uris":{"android":"levelo://app?vid=cdeaa374-71ec-4bf7-80a7-959fcdf40cb2","ios":"levelo://app?vid=cdeaa374-71ec-4bf7-80a7-959fcdf40cb2"},"vehicle_type_id":"4","last_reported":1748275916,"current_range_meters":400,"station_id":"ce4bhqp2rcd13ifvqhog","pricing_plan_id":"cebpf4jnsgd1na2vs0mg"},{"bike_id":"72f88558-5368-49b2-befa-013464fcbccb","system_id":"levelo_inurba_marseille","lat":43.29967,"lon":5.38497,"is_reserved":false,"is_disabled":true,"rental_uris":{"android":"levelo://app?vid=72f88558-5368-49b2-befa-013464fcbccb","ios":"levelo://app?vid=72f88558-5368-49b2-befa-013464fcbccb"},"vehicle_type_id":"4","last_reported":1748275916,"current_range_meters":800,"station_id":"ce4bgj92rcd13ifvqbd0","pricing_plan_id":"cebpf4jnsgd1na2vs0mg"},{"bike_id":"47800e92-087c-4d90-9710-e9595df23a86","system_id":"levelo_inurba_marseille","lat":43.30456,"lon":5.37905,"is_reserved":false,"is_disabled":true,"rental_uris":{"android":"levelo://app?vid=47800e92-087c-4d90-9710-e9595df23a86","ios":"levelo://app?vid=47800e92-087c-4d90-9710-e9595df23a86"},"vehicle_type_id":"4","last_reported":1748275916,"current_range_meters":800,"station_id":"ce4bgup2rcd13ifvqcn0","pricing_plan_id":"cebpf4jnsgd1na2vs0mg"},{"bike_id":"d697f64f-573f-4e3d-98cd-9c3bfe9ed384","system_id":"levelo_inurba_marseille","lat":43.30308,"lon":5.36879,"is_reserved":false,"is_disabled":true,"rental_uris":{"android":"levelo://app?vid=d697f64f-573f-4e3d-98cd-9c3bfe9ed384","ios":"levelo://app?vid=d697f64f-573f-4e3d-98cd-9c3bfe9ed384"},"vehicle_type_id":"4","last_reported":1748275916,"current_range_meters":1200,"station_id":"ce4bgqh2rcd13ifvqc5g","pricing_plan_id":"cebpf4jnsgd1na2vs0mg"},{"bike_id":"1f73540f-5312-4c46-9f21-6816c5b00029","system_id":"levelo_inurba_marseille","lat":43.293126,"lon":5.371749,"is_reserved":false,"is_disabled":true,"rental_uris":{"android":"levelo://app?vid=1f73540f-5312-4c46-9f21-6816c5b00029","ios":"levelo://app?vid=1f73540f-5312-4c46-9f21-6816c5b00029"},"vehicle_type_id":"4","last_reported":1748275916,"current_range_meters":1600,"station_id":"ce4bgh92rcd13ifvqb40","pricing_plan_id":"cebpf4jnsgd1na2vs0mg"},{"bike_id":"17d989d6-c0ce-4cb8-bf16-c3b1dd981d05","system_id":"levelo_inurba_marseille","lat":43.31231,"lon":5.36863,"is_reserved":false,"is_disabled":true,"rental_uris":{"android":"levelo://app?vid=17d989d6-c0ce-4cb8-bf16-c3b1dd981d05","ios":"levelo://app?vid=17d989d6-c0ce-4cb8-bf16-c3b1dd981d05"},"vehicle_type_id":"4","last_reported":1748275916,"current_range_meters":1600,"station_id":"ce4bgl92rcd13ifvqbq0","pricing_plan_id":"cebpf4jnsgd1na2vs0mg"},{"bike_id":"e578f31f-41db-462e-adb6-2bc22ae72fa2","system_id":"levelo_inurba_marseille","lat":43.31152,"lon":5.38678,"is_reserved":false,"is_disabled":true,"rental_uris":{"android":"levelo://app?vid=e578f31f-41db-462e-adb6-2bc22ae72fa2","ios":"levelo://app?vid=e578f31f-41db-462e-adb6-2bc22ae72fa2"},"vehicle_type_id":"4","last_reported":1748275916,"current_range_meters":1600,"station_id":"ce4bgv12rcd13ifvqcp0","pricing_plan_id":"cebpf4jnsgd1na2vs0mg"},{"bike_id":"a73a5d87-03b6-4e27-8411-ed6d8e1075bc","system_id":"levelo_inurba_marseille","lat":43.30929,"lon":5.4013,"is_reserved":false,"is_disabled":true,"rental_uris":{"android":"levelo://app?vid=a73a5d87-03b6-4e27-8411-ed6d8e1075bc","ios":"levelo://app?vid=a73a5d87-03b6-4e27-8411-ed6d8e1075bc"},"vehicle_type_id":"4","last_reported":1748275916,"current_range_meters":1600,"station_id":"ce4bgvp2rcd13ifvqct0","pricing_plan_id":"cebpf4jnsgd1na2vs0mg"},{"bike_id":"cf4de0dd-83c0-43d4-bb6a-a8471fb9488c","system_id":"levelo_inurba_marseille","lat":43.30646,"lon":5.40098,"is_reserved":false,"is_disabled":true,"rental_uris":{"android":"levelo://app?vid=cf4de0dd-83c0-43d4-bb6a-a8471fb9488c","ios":"levelo://app?vid=cf4de0dd-83c0-43d4-bb6a-a8471fb9488c"},"vehicle_type_id":"4","last_reported":1748275916,"current_range_meters":1600,"station_id":"ce4bh112rcd13ifvqda0","pricing_plan_id":"cebpf4jnsgd1na2vs0mg"},{"bike_id":"09cf586a-dbf4-4f12-a9f9-9407f04b9ac7","system_id":"levelo_inurba_marseille","lat":43.2903,"lon":5.37544,"is_reserved":false,"is_disabled":true,"rental_uris":{"android":"levelo://app?vid=09cf586a-dbf4-4f12-a9f9-9407f04b9ac7","ios":"levelo://app?vid=09cf586a-dbf4-4f12-a9f9-9407f04b9ac7"},"vehicle_type_id":"4","last_reported":1748275916,"current_range_meters":1600,"station_id":"ce4bh692rcd13ifvqe90","pricing_plan_id":"cebpf4jnsgd1na2vs0mg"},{"bike_id":"b6f0a57d-2b5f-42ce-a997-bbc9d610d668","system_id":"levelo_inurba_marseille","lat":43.266079,"lon":5.372728,"is_reserved":false,"is_disabled":true,"rental_uris":{"android":"levelo://app?vid=b6f0a57d-2b5f-42ce-a997-bbc9d610d668","ios":"levelo://app?vid=b6f0a57d-2b5f-42ce-a997-bbc9d610d668"},"vehicle_type_id":"4","last_reported":1748275916,"current_range_meters":1600,"station_id":"ce4bhgp2rcd13ifvqfc0","pricing_plan_id":"cebpf4jnsgd1na2vs0mg"},{"bike_id":"c227660f-2ad4-42d3-8dd9-2c8839f36dce","system_id":"levelo_inurba_marseille","lat":43.24663,"lon":5.38145,"is_reserved":false,"is_disabled":true,"rental_uris":{"android":"levelo://app?vid=c227660f-2ad4-42d3-8dd9-2c8839f36dce","ios":"levelo://app?vid=c227660f-2ad4-42d3-8dd9-2c8839f36dce"},"vehicle_type_id":"4","last_reported":1748275916,"current_range_meters":1600,"station_id":"ce4bhih2rcd13ifvqfr0","pricing_plan_id":"cebpf4jnsgd1na2vs0mg"},{"bike_id":"c03f7ad7-5aeb-4e72-ab2d-f249c1c22e01","system_id":"levelo_inurba_marseille","lat":43.28008,"lon":5.41671,"is_reserved":false,"is_disabled":true,"rental_uris":{"android":"levelo://app?vid=c03f7ad7-5aeb-4e72-ab2d-f249c1c22e01","ios":"levelo://app?vid=c03f7ad7-5aeb-4e72-ab2d-f249c1c22e01"},"vehicle_type_id":"4","last_reported":1748275916,"current_range_meters":1600,"station_id":"ce4bho12rcd13ifvqh1g","pricing_plan_id":"cebpf4jnsgd1na2vs0mg"},{"bike_id":"3fb85001-888b-4639-8981-19ceb1111a17","system_id":"levelo_inurba_marseille","lat":43.29892,"lon":5.43675,"is_reserved":false,"is_disabled":true,"rental_uris":{"android":"levelo://app?vid=3fb85001-888b-4639-8981-19ceb1111a17","ios":"levelo://app?vid=3fb85001-888b-4639-8981-19ceb1111a17"},"vehicle_type_id":"4","last_reported":1748275916,"current_range_meters":1600,"station_id":"ce4bhpp2rcd13ifvqhfg","pricing_plan_id":"cebpf4jnsgd1na2vs0mg"},{"bike_id":"3581c28c-41f2-4cb7-b494-0448776c0438","system_id":"levelo_inurba_marseille","lat":43.296323,"lon":5.360319,"is_reserved":false,"is_disabled":true,"rental_uris":{"android":"levelo://app?vid=3581c28c-41f2-4cb7-b494-0448776c0438","ios":"levelo://app?vid=3581c28c-41f2-4cb7-b494-0448776c0438"},"vehicle_type_id":"4","last_reported":1748275916,"current_range_meters":2000,"station_id":"","pricing_plan_id":"cebpf4jnsgd1na2vs0mg"},{"bike_id":"a58d4ecf-adc8-4b6b-82e7-4bf3409b00a5","system_id":"levelo_inurba_marseille","lat":43.23965,"lon":5.36631,"is_reserved":false,"is_disabled":true,"rental_uris":{"android":"levelo://app?vid=a58d4ecf-adc8-4b6b-82e7-4bf3409b00a5","ios":"levelo://app?vid=a58d4ecf-adc8-4b6b-82e7-4bf3409b00a5"},"vehicle_type_id":"4","last_reported":1748275916,"current_range_meters":2000,"station_id":"ce4bhi12rcd13ifvqfp0","pricing_plan_id":"cebpf4jnsgd1na2vs0mg"},{"bike_id":"1831e4b1-6c61-4fc3-b4f6-491c4b44f3fe","system_id":"levelo_inurba_marseille","lat":43.2737,"lon":5.36261,"is_reserved":false,"is_disabled":false,"rental_uris":{"android":"levelo://app?vid=1831e4b1-6c61-4fc3-b4f6-491c4b44f3fe","ios":"levelo://app?vid=1831e4b1-6c61-4fc3-b4f6-491c4b44f3fe"},"vehicle_type_id":"4","last_reported":1748275916,"current_range_meters":2800,"station_id":"ce4bhbh2rcd13ifvqeo0","pricing_plan_id":"cebpf4jnsgd1na2vs0mg"},{"bike_id":"a15046b4-d974-40d4-8d26-427e46a2e66d","system_id":"levelo_inurba_marseille","lat":43.28939,"lon":5.36399,"is_reserved":false,"is_disabled":false,"rental_uris":{"android":"levelo://app?vid=a15046b4-d974-40d4-8d26-427e46a2e66d","ios":"levelo://app?vid=a15046b4-d974-40d4-8d26-427e46a2e66d"},"vehicle_type_id":"4","last_reported":1748275916,"current_range_meters":2800,"station_id":"ce4bhc92rcd13ifvqetg","pricing_plan_id":"cebpf4jnsgd1na2vs0mg"},{"bike_id":"629fd812-28b2-43f7-8b7f-6b84e8434418","system_id":"levelo_inurba_marseille","lat":43.279157,"lon":5.395847,"is_reserved":false,"is_disabled":false,"rental_uris":{"android":"levelo://app?vid=629fd812-28b2-43f7-8b7f-6b84e8434418","ios":"levelo://app?vid=629fd812-28b2-43f7-8b7f-6b84e8434418"},"vehicle_type_id":"4","last_reported":1748275916,"current_range_meters":2800,"station_id":"ce4bhf92rcd13ifvqf40","pricing_plan_id":"cebpf4jnsgd1na2vs0mg"},{"bike_id":"4d6e45c6-d45f-48ed-9317-a5b2fb3579b1","system_id":"levelo_inurba_marseille","lat":43.26786,"lon":5.39418,"is_reserved":false,"is_disabled":false,"rental_uris":{"android":"levelo://app?vid=4d6e45c6-d45f-48ed-9317-a5b2fb3579b1","ios":"levelo://app?vid=4d6e45c6-d45f-48ed-9317-a5b2fb3579b1"},"vehicle_type_id":"4","last_reported":1748275916,"current_range_meters":2800,"station_id":"ce4bhh12rcd13ifvqfg0","pricing_plan_id":"cebpf4jnsgd1na2vs0mg"},{"bike_id":"ecbd75a3-7175-427d-8899-510f8b0c179d","system_id":"levelo_inurba_marseille","lat":43.2997,"lon":5.37174,"is_reserved":false,"is_disabled":false,"rental_uris":{"android":"levelo://app?vid=ecbd75a3-7175-427d-8899-510f8b0c179d","ios":"levelo://app?vid=ecbd75a3-7175-427d-8899-510f8b0c179d"},"vehicle_type_id":"4","last_reported":1748275916,"current_range_meters":3200,"station_id":"ce4bgr92rcd13ifvqc7g","pricing_plan_id":"cebpf4jnsgd1na2vs0mg"},{"bike_id":"428968c4-4a11-4fae-a190-500844c34e6d","system_id":"levelo_inurba_marseille","lat":43.232,"lon":5.3998,"is_reserved":false,"is_disabled":false,"rental_uris":{"android":"levelo://app?vid=428968c4-4a11-4fae-a190-500844c34e6d","ios":"levelo://app?vid=428968c4-4a11-4fae-a190-500844c34e6d"},"vehicle_type_id":"4","last_reported":1748275916,"current_range_meters":3200,"station_id":"ce4bhn12rcd13ifvqgqg","pricing_plan_id":"cebpf4jnsgd1na2vs0mg"},{"bike_id":"ced6091f-4331-410d-a643-8529afc1c879","system_id":"levelo_inurba_marseille","lat":43.28703,"lon":5.39994,"is_reserved":false,"is_disabled":false,"rental_uris":{"android":"levelo://app?vid=ced6091f-4331-410d-a643-8529afc1c879","ios":"levelo://app?vid=ced6091f-4331-410d-a643-8529afc1c879"},"vehicle_type_id":"4","last_reported":1748275916,"current_range_meters":3200,"station_id":"ce4bho92rcd13ifvqh3g","pricing_plan_id":"cebpf4jnsgd1na2vs0mg"},{"bike_id":"df231429-681f-49f7-ba82-877c764cfac7","system_id":"levelo_inurba_marseille","lat":43.24167,"lon":5.36412,"is_reserved":false,"is_disabled":false,"rental_uris":{"android":"levelo://app?vid=df231429-681f-49f7-ba82-877c764cfac7","ios":"levelo://app?vid=df231429-681f-49f7-ba82-877c764cfac7"},"vehicle_type_id":"4","last_reported":1748275916,"current_range_meters":3200,"station_id":"cpo36qri1sfpv3e86is0","pricing_plan_id":"cebpf4jnsgd1na2vs0mg"},{"bike_id":"a8d115d6-7120-45d6-b844-1bdc16fe78ed","system_id":"levelo_inurba_marseille","lat":43.2671,"lon":5.38286,"is_reserved":false,"is_disabled":false,"rental_uris":{"android":"levelo://app?vid=a8d115d6-7120-45d6-b844-1bdc16fe78ed","ios":"levelo://app?vid=a8d115d6-7120-45d6-b844-1bdc16fe78ed"},"vehicle_type_id":"4","last_reported":1748275916,"current_range_meters":3600,"station_id":"ce4bhg92rcd13ifvqf90","pricing_plan_id":"cebpf4jnsgd1na2vs0mg"},{"bike_id":"73b3b35b-b8c8-47db-9eaa-e525c560a217","system_id":"levelo_inurba_marseille","lat":43.25822,"lon":5.39438,"is_reserved":false,"is_disabled":false,"rental_uris":{"android":"levelo://app?vid=73b3b35b-b8c8-47db-9eaa-e525c560a217","ios":"levelo://app?vid=73b3b35b-b8c8-47db-9eaa-e525c560a217"},"vehicle_type_id":"4","last_reported":1748275916,"current_range_meters":3600,"station_id":"ce4bhip2rcd13ifvqft0","pricing_plan_id":"cebpf4jnsgd1na2vs0mg"},{"bike_id":"985dfe2e-48ab-4438-8b44-7034bccf028e","system_id":"levelo_inurba_marseille","lat":43.26981,"lon":5.39843,"is_reserved":false,"is_disabled":false,"rental_uris":{"android":"levelo://app?vid=985dfe2e-48ab-4438-8b44-7034bccf028e","ios":"levelo://app?vid=985dfe2e-48ab-4438-8b44-7034bccf028e"},"vehicle_type_id":"4","last_reported":1748275916,"current_range_meters":4000,"station_id":"","pricing_plan_id":"cebpf4jnsgd1na2vs0mg"},{"bike_id":"1da35f9f-f4ec-4f7e-81f7-49dd3c19bd7a","system_id":"levelo_inurba_marseille","lat":43.264785,"lon":5.418812,"is_reserved":false,"is_disabled":false,"rental_uris":{"android":"levelo://app?vid=1da35f9f-f4ec-4f7e-81f7-49dd3c19bd7a","ios":"levelo://app?vid=1da35f9f-f4ec-4f7e-81f7-49dd3c19bd7a"},"vehicle_type_id":"4","last_reported":1748275916,"current_range_meters":4000,"station_id":"","pricing_plan_id":"cebpf4jnsgd1na2vs0mg"},{"bike_id":"d9fa0449-e47c-4bbe-a91c-4939cab5d888","system_id":"levelo_inurba_marseille","lat":43.28551,"lon":5.42604,"is_reserved":false,"is_disabled":false,"rental_uris":{"android":"levelo://app?vid=d9fa0449-e47c-4bbe-a91c-4939cab5d888","ios":"levelo://app?vid=d9fa0449-e47c-4bbe-a91c-4939cab5d888"},"vehicle_type_id":"4","last_reported":1748275916,"current_range_meters":4000,"station_id":"","pricing_plan_id":"cebpf4jnsgd1na2vs0mg"},{"bike_id":"a7c87931-ef0f-4a64-9c78-fb1c510483ec","system_id":"levelo_inurba_marseille","lat":43.25112,"lon":5.40393,"is_reserved":false,"is_disabled":false,"rental_uris":{"android":"levelo://app?vid=a7c87931-ef0f-4a64-9c78-fb1c510483ec","ios":"levelo://app?vid=a7c87931-ef0f-4a64-9c78-fb1c510483ec"},"vehicle_type_id":"4","last_reported":1748275916,"current_range_meters":4000,"station_id":"","pricing_plan_id":"cebpf4jnsgd1na2vs0mg"},{"bike_id":"ef9414ff-9da8-4355-b2d5-4530b1e0cc98","system_id":"levelo_inurba_marseille","lat":43.29615,"lon":5.37711,"is_reserved":false,"is_disabled":false,"rental_uris":{"android":"levelo://app?vid=ef9414ff-9da8-4355-b2d5-4530b1e0cc98","ios":"levelo://app?vid=ef9414ff-9da8-4355-b2d5-4530b1e0cc98"},"vehicle_type_id":"4","last_reported":1748275916,"current_range_meters":4000,"station_id":"ce4bgi92rcd13ifvqb90","pricing_plan_id":"cebpf4jnsgd1na2vs0mg"},{"bike_id":"7555b153-b944-49f4-9000-05dc11124e4b","system_id":"levelo_inurba_marseille","lat":43.2668,"lon":5.3827,"is_reserved":false,"is_disabled":false,"rental_uris":{"android":"levelo://app?vid=7555b153-b944-49f4-9000-05dc11124e4b","ios":"levelo://app?vid=7555b153-b944-49f4-9000-05dc11124e4b"},"vehicle_type_id":"4","last_reported":1748275916,"current_range_meters":4000,"station_id":"ce4bhg92rcd13ifvqf90","pricing_plan_id":"cebpf4jnsgd1na2vs0mg"},{"bike_id":"024fa25b-8cdf-4813-bfb9-af55ed7ffd87","system_id":"levelo_inurba_marseille","lat":43.27314,"lon":5.39077,"is_reserved":false,"is_disabled":false,"rental_uris":{"android":"levelo://app?vid=024fa25b-8cdf-4813-bfb9-af55ed7ffd87","ios":"levelo://app?vid=024fa25b-8cdf-4813-bfb9-af55ed7ffd87"},"vehicle_type_id":"4","last_reported":1748275916,"current_range_meters":4000,"station_id":"ce4bhgp2rcd13ifvqfe0","pricing_plan_id":"cebpf4jnsgd1na2vs0mg"},{"bike_id":"da453a88-f81b-4e0f-9781-5a7f6c1d364c","system_id":"levelo_inurba_marseille","lat":43.337499,"lon":5.374469,"is_reserved":false,"is_disabled":false,"rental_uris":{"android":"levelo://app?vid=da453a88-f81b-4e0f-9781-5a7f6c1d364c","ios":"levelo://app?vid=da453a88-f81b-4e0f-9781-5a7f6c1d364c"},"vehicle_type_id":"4","last_reported":1748275916,"current_range_meters":4400,"station_id":"","pricing_plan_id":"cebpf4jnsgd1na2vs0mg"},{"bike_id":"a6be63d9-0059-44b4-8f21-839cf9c85a6a","system_id":"levelo_inurba_marseille","lat":43.27609,"lon":5.36113,"is_reserved":false,"is_disabled":false,"rental_uris":{"android":"levelo://app?vid=a6be63d9-0059-44b4-8f21-839cf9c85a6a","ios":"levelo://app?vid=a6be63d9-0059-44b4-8f21-839cf9c85a6a"},"vehicle_type_id":"4","last_reported":1748275916,"current_range_meters":4400,"station_id":"ce4bgj92rcd13ifvqbe0","pricing_plan_id":"cebpf4jnsgd1na2vs0mg"},{"bike_id":"18d08165-c43f-405c-a09f-4a298e972564","system_id":"levelo_inurba_marseille","lat":43.27624,"lon":5.36105,"is_reserved":false,"is_disabled":false,"rental_uris":{"android":"levelo://app?vid=18d08165-c43f-405c-a09f-4a298e972564","ios":"levelo://app?vid=18d08165-c43f-405c-a09f-4a298e972564"},"vehicle_type_id":"4","last_reported":1748275916,"current_range_meters":4400,"station_id":"ce4bgj92rcd13ifvqbe0","pricing_plan_id":"cebpf4jnsgd1na2vs0mg"},{"bike_id":"5e66668a-73f4-4e1b-a3f8-abde7398ac9a","system_id":"levelo_inurba_marseille","lat":43.31358,"lon":5.38499,"is_reserved":false,"is_disabled":false,"rental_uris":{"android":"levelo://app?vid=5e66668a-73f4-4e1b-a3f8-abde7398ac9a","ios":"levelo://app?vid=5e66668a-73f4-4e1b-a3f8-abde7398ac9a"},"vehicle_type_id":"4","last_reported":1748275916,"current_range_meters":4400,"station_id":"ce4bgt92rcd13ifvqcf0","pricing_plan_id":"cebpf4jnsgd1na2vs0mg"},{"bike_id":"ecf8d55d-674b-4d0e-a724-a61401e5dd05","system_id":"levelo_inurba_marseille","lat":43.29296,"lon":5.37636,"is_reserved":false,"is_disabled":false,"rental_uris":{"android":"levelo://app?vid=ecf8d55d-674b-4d0e-a724-a61401e5dd05","ios":"levelo://app?vid=ecf8d55d-674b-4d0e-a724-a61401e5dd05"},"vehicle_type_id":"4","last_reported":1748275916,"current_range_meters":4800,"station_id":"ce4bgi12rcd13ifvqb80","pricing_plan_id":"cebpf4jnsgd1na2vs0mg"},{"bike_id":"5f57e5d9-798f-4531-bc03-71673a2a0003","system_id":"levelo_inurba_marseille","lat":43.29917,"lon":5.37469,"is_reserved":false,"is_disabled":false,"rental_uris":{"android":"levelo://app?vid=5f57e5d9-798f-4531-bc03-71673a2a0003","ios":"levelo://app?vid=5f57e5d9-798f-4531-bc03-71673a2a0003"},"vehicle_type_id":"4","last_reported":1748275916,"current_range_meters":4800,"station_id":"ce4bgjh2rcd13ifvqbg0","pricing_plan_id":"cebpf4jnsgd1na2vs0mg"},{"bike_id":"98ebf65e-e651-43eb-bbd4-161cddcbd829","system_id":"levelo_inurba_marseille","lat":43.284768,"lon":5.384156,"is_reserved":false,"is_disabled":false,"rental_uris":{"android":"levelo://app?vid=98ebf65e-e651-43eb-bbd4-161cddcbd829","ios":"levelo://app?vid=98ebf65e-e651-43eb-bbd4-161cddcbd829"},"vehicle_type_id":"4","last_reported":1748275916,"current_range_meters":4800,"station_id":"ce4bh512rcd13ifvqe3g","pricing_plan_id":"cebpf4jnsgd1na2vs0mg"},{"bike_id":"16d1e843-30b1-4731-8fac-68201786f02d","system_id":"levelo_inurba_marseille","lat":43.28856,"lon":5.35854,"is_reserved":false,"is_disabled":false,"rental_uris":{"android":"levelo://app?vid=16d1e843-30b1-4731-8fac-68201786f02d","ios":"levelo://app?vid=16d1e843-30b1-4731-8fac-68201786f02d"},"vehicle_type_id":"4","last_reported":1748275916,"current_range_meters":4800,"station_id":"ce4bhb12rcd13ifvqem0","pricing_plan_id":"cebpf4jnsgd1na2vs0mg"},{"bike_id":"ab3cfbba-f006-4cce-8ae4-b18af8d05466","system_id":"levelo_inurba_marseille","lat":43.27374,"lon":5.36253,"is_reserved":false,"is_disabled":false,"rental_uris":{"android":"levelo://app?vid=ab3cfbba-f006-4cce-8ae4-b18af8d05466","ios":"levelo://app?vid=ab3cfbba-f006-4cce-8ae4-b18af8d05466"},"vehicle_type_id":"4","last_reported":1748275916,"current_range_meters":4800,"station_id":"ce4bhbh2rcd13ifvqeo0","pricing_plan_id":"cebpf4jnsgd1na2vs0mg"},{"bike_id":"01e85817-67cb-433e-9f5e-578d891ad93e","system_id":"levelo_inurba_marseille","lat":43.2842,"lon":5.34978,"is_reserved":false,"is_disabled":false,"rental_uris":{"android":"levelo://app?vid=01e85817-67cb-433e-9f5e-578d891ad93e","ios":"levelo://app?vid=01e85817-67cb-433e-9f5e-578d891ad93e"},"vehicle_type_id":"4","last_reported":1748275916,"current_range_meters":4800,"station_id":"ce4bhbh2rcd13ifvqepg","pricing_plan_id":"cebpf4jnsgd1na2vs0mg"},{"bike_id":"c4cc1ae9-9c34-4ca1-9a0b-d4365f9a0a6b","system_id":"levelo_inurba_marseille","lat":43.25584,"lon":5.3823,"is_reserved":false,"is_disabled":false,"rental_uris":{"android":"levelo://app?vid=c4cc1ae9-9c34-4ca1-9a0b-d4365f9a0a6b","ios":"levelo://app?vid=c4cc1ae9-9c34-4ca1-9a0b-d4365f9a0a6b"},"vehicle_type_id":"4","last_reported":1748275916,"current_range_meters":4800,"station_id":"ce4bhih2rcd13ifvqfs0","pricing_plan_id":"cebpf4jnsgd1na2vs0mg"},{"bike_id":"fbf44674-74d5-4106-bee3-4b7f0c029530","system_id":"levelo_inurba_marseille","lat":43.25577,"lon":5.38237,"is_reserved":false,"is_disabled":false,"rental_uris":{"android":"levelo://app?vid=fbf44674-74d5-4106-bee3-4b7f0c029530","ios":"levelo://app?vid=fbf44674-74d5-4106-bee3-4b7f0c029530"},"vehicle_type_id":"4","last_reported":1748275916,"current_range_meters":4800,"station_id":"ce4bhih2rcd13ifvqfs0","pricing_plan_id":"cebpf4jnsgd1na2vs0mg"},{"bike_id":"c4a8c66e-fcf3-4dcc-b307-45b5e04c1c93","system_id":"levelo_inurba_marseille","lat":43.25723,"lon":5.41107,"is_reserved":false,"is_disabled":false,"rental_uris":{"android":"levelo://app?vid=c4a8c66e-fcf3-4dcc-b307-45b5e04c1c93","ios":"levelo://app?vid=c4a8c66e-fcf3-4dcc-b307-45b5e04c1c93"},"vehicle_type_id":"4","last_reported":1748275916,"current_range_meters":4800,"station_id":"ce4bhkp2rcd13ifvqgd0","pricing_plan_id":"cebpf4jnsgd1na2vs0mg"},{"bike_id":"dab7ee0d-f820-455c-89c6-13e25f106faf","system_id":"levelo_inurba_marseille","lat":43.323836,"lon":5.42065,"is_reserved":false,"is_disabled":false,"rental_uris":{"android":"levelo://app?vid=dab7ee0d-f820-455c-89c6-13e25f106faf","ios":"levelo://app?vid=dab7ee0d-f820-455c-89c6-13e25f106faf"},"vehicle_type_id":"4","last_reported":1748275916,"current_range_meters":5600,"station_id":"","pricing_plan_id":"cebpf4jnsgd1na2vs0mg"},{"bike_id":"a6dc1c78-7845-437e-ab8f-79c6f75d9e7e","system_id":"levelo_inurba_marseille","lat":43.28862,"lon":5.35841,"is_reserved":false,"is_disabled":false,"rental_uris":{"android":"levelo://app?vid=a6dc1c78-7845-437e-ab8f-79c6f75d9e7e","ios":"levelo://app?vid=a6dc1c78-7845-437e-ab8f-79c6f75d9e7e"},"vehicle_type_id":"4","last_reported":1748275916,"current_range_meters":5600,"station_id":"ce4bhb12rcd13ifvqem0","pricing_plan_id":"cebpf4jnsgd1na2vs0mg"},{"bike_id":"7b36fa1c-d304-4904-9a50-4a971fa50df4","system_id":"levelo_inurba_marseille","lat":43.29008,"lon":5.35612,"is_reserved":false,"is_disabled":false,"rental_uris":{"android":"levelo://app?vid=7b36fa1c-d304-4904-9a50-4a971fa50df4","ios":"levelo://app?vid=7b36fa1c-d304-4904-9a50-4a971fa50df4"},"vehicle_type_id":"4","last_reported":1748275916,"current_range_meters":5600,"station_id":"ce4bhb92rcd13ifvqen0","pricing_plan_id":"cebpf4jnsgd1na2vs0mg"},{"bike_id":"91abe450-0a66-4b50-b31a-19884378570f","system_id":"levelo_inurba_marseille","lat":43.27912,"lon":5.39569,"is_reserved":false,"is_disabled":false,"rental_uris":{"android":"levelo://app?vid=91abe450-0a66-4b50-b31a-19884378570f","ios":"levelo://app?vid=91abe450-0a66-4b50-b31a-19884378570f"},"vehicle_type_id":"4","last_reported":1748275916,"current_range_meters":5600,"station_id":"ce4bhf92rcd13ifvqf40","pricing_plan_id":"cebpf4jnsgd1na2vs0mg"},{"bike_id":"f148fcf4-b3dc-4c28-8295-905d1ea537ec","system_id":"levelo_inurba_marseille","lat":43.25501,"lon":5.37657,"is_reserved":false,"is_disabled":false,"rental_uris":{"android":"levelo://app?vid=f148fcf4-b3dc-4c28-8295-905d1ea537ec","ios":"levelo://app?vid=f148fcf4-b3dc-4c28-8295-905d1ea537ec"},"vehicle_type_id":"4","last_reported":1748275916,"current_range_meters":5600,"station_id":"ce4bhh12rcd13ifvqff0","pricing_plan_id":"cebpf4jnsgd1na2vs0mg"},{"bike_id":"dde4b381-2d7e-4d93-ba5c-19738e156313","system_id":"levelo_inurba_marseille","lat":43.27673,"lon":5.38873,"is_reserved":false,"is_disabled":false,"rental_uris":{"android":"levelo://app?vid=dde4b381-2d7e-4d93-ba5c-19738e156313","ios":"levelo://app?vid=dde4b381-2d7e-4d93-ba5c-19738e156313"},"vehicle_type_id":"4","last_reported":1748275916,"current_range_meters":5600,"station_id":"ce4bhi12rcd13ifvqfo0","pricing_plan_id":"cebpf4jnsgd1na2vs0mg"},{"bike_id":"3e5581dc-de59-496f-846c-4f8da3f9ba6c","system_id":"levelo_inurba_marseille","lat":43.23963,"lon":5.36626,"is_reserved":false,"is_disabled":false,"rental_uris":{"android":"levelo://app?vid=3e5581dc-de59-496f-846c-4f8da3f9ba6c","ios":"levelo://app?vid=3e5581dc-de59-496f-846c-4f8da3f9ba6c"},"vehicle_type_id":"4","last_reported":1748275916,"current_range_meters":5600,"station_id":"ce4bhi12rcd13ifvqfp0","pricing_plan_id":"cebpf4jnsgd1na2vs0mg"},{"bike_id":"e4953e32-8e12-440d-9a39-6d5ae58b1e04","system_id":"levelo_inurba_marseille","lat":43.2844,"lon":5.39208,"is_reserved":false,"is_disabled":false,"rental_uris":{"android":"levelo://app?vid=e4953e32-8e12-440d-9a39-6d5ae58b1e04","ios":"levelo://app?vid=e4953e32-8e12-440d-9a39-6d5ae58b1e04"},"vehicle_type_id":"4","last_reported":1748275916,"current_range_meters":5600,"station_id":"ce4bhoh2rcd13ifvqh5g","pricing_plan_id":"cebpf4jnsgd1na2vs0mg"},{"bike_id":"6855135c-85c8-4d16-9178-8450739d31b2","system_id":"levelo_inurba_marseille","lat":43.31015,"lon":5.37926,"is_reserved":false,"is_disabled":false,"rental_uris":{"android":"levelo://app?vid=6855135c-85c8-4d16-9178-8450739d31b2","ios":"levelo://app?vid=6855135c-85c8-4d16-9178-8450739d31b2"},"vehicle_type_id":"4","last_reported":1748275916,"current_range_meters":6000,"station_id":"","pricing_plan_id":"cebpf4jnsgd1na2vs0mg"},{"bike_id":"95a44f98-eeab-4b1c-8c48-ff8730887d8e","system_id":"levelo_inurba_marseille","lat":43.29867,"lon":5.38909,"is_reserved":false,"is_disabled":false,"rental_uris":{"android":"levelo://app?vid=95a44f98-eeab-4b1c-8c48-ff8730887d8e","ios":"levelo://app?vid=95a44f98-eeab-4b1c-8c48-ff8730887d8e"},"vehicle_type_id":"4","last_reported":1748275916,"current_range_meters":6000,"station_id":"ce4bh392rcd13ifvqdl0","pricing_plan_id":"cebpf4jnsgd1na2vs0mg"},{"bike_id":"072e21e2-307a-4097-9672-48210e154bf0","system_id":"levelo_inurba_marseille","lat":43.273707,"lon":5.362587,"is_reserved":false,"is_disabled":false,"rental_uris":{"android":"levelo://app?vid=072e21e2-307a-4097-9672-48210e154bf0","ios":"levelo://app?vid=072e21e2-307a-4097-9672-48210e154bf0"},"vehicle_type_id":"4","last_reported":1748275916,"current_range_meters":6000,"station_id":"ce4bhbh2rcd13ifvqeo0","pricing_plan_id":"cebpf4jnsgd1na2vs0mg"},{"bike_id":"8a45606e-2096-4a22-88d7-26c191e9986d","system_id":"levelo_inurba_marseille","lat":43.327652,"lon":5.384622,"is_reserved":false,"is_disabled":false,"rental_uris":{"android":"levelo://app?vid=8a45606e-2096-4a22-88d7-26c191e9986d","ios":"levelo://app?vid=8a45606e-2096-4a22-88d7-26c191e9986d"},"vehicle_type_id":"4","last_reported":1748275916,"current_range_meters":6000,"station_id":"ce4bhr92rcd13ifvqhrg","pricing_plan_id":"cebpf4jnsgd1na2vs0mg"},{"bike_id":"0b0dceeb-bff8-40e2-83ca-823611033ba6","system_id":"levelo_inurba_marseille","lat":43.31554,"lon":5.36879,"is_reserved":false,"is_disabled":false,"rental_uris":{"android":"levelo://app?vid=0b0dceeb-bff8-40e2-83ca-823611033ba6","ios":"levelo://app?vid=0b0dceeb-bff8-40e2-83ca-823611033ba6"},"vehicle_type_id":"4","last_reported":1748275916,"current_range_meters":6400,"station_id":"","pricing_plan_id":"cebpf4jnsgd1na2vs0mg"},{"bike_id":"6abb9ab4-3976-4e3e-b994-f2f72ee02055","system_id":"levelo_inurba_marseille","lat":43.31794,"lon":5.36762,"is_reserved":false,"is_disabled":false,"rental_uris":{"android":"levelo://app?vid=6abb9ab4-3976-4e3e-b994-f2f72ee02055","ios":"levelo://app?vid=6abb9ab4-3976-4e3e-b994-f2f72ee02055"},"vehicle_type_id":"4","last_reported":1748275916,"current_range_meters":6400,"station_id":"","pricing_plan_id":"cebpf4jnsgd1na2vs0mg"},{"bike_id":"b959b480-51d3-49ad-a210-87f08e308e3a","system_id":"levelo_inurba_marseille","lat":43.30799,"lon":5.38154,"is_reserved":false,"is_disabled":false,"rental_uris":{"android":"levelo://app?vid=b959b480-51d3-49ad-a210-87f08e308e3a","ios":"levelo://app?vid=b959b480-51d3-49ad-a210-87f08e308e3a"},"vehicle_type_id":"4","last_reported":1748275916,"current_range_meters":6400,"station_id":"ce4bgt12rcd13ifvqce0","pricing_plan_id":"cebpf4jnsgd1na2vs0mg"},{"bike_id":"eb8ab4e1-a14f-4955-aa70-3afac10a051b","system_id":"levelo_inurba_marseille","lat":43.29416,"lon":5.38613,"is_reserved":false,"is_disabled":false,"rental_uris":{"android":"levelo://app?vid=eb8ab4e1-a14f-4955-aa70-3afac10a051b","ios":"levelo://app?vid=eb8ab4e1-a14f-4955-aa70-3afac10a051b"},"vehicle_type_id":"4","last_reported":1748275916,"current_range_meters":6400,"station_id":"ce4bh2h2rcd13ifvqdh0","pricing_plan_id":"cebpf4jnsgd1na2vs0mg"},{"bike_id":"d2f6b88b-979d-490c-a258-4fe2e1e819d8","system_id":"levelo_inurba_marseille","lat":43.29129,"lon":5.38102,"is_reserved":false,"is_disabled":false,"rental_uris":{"android":"levelo://app?vid=d2f6b88b-979d-490c-a258-4fe2e1e819d8","ios":"levelo://app?vid=d2f6b88b-979d-490c-a258-4fe2e1e819d8"},"vehicle_type_id":"4","last_reported":1748275916,"current_range_meters":6400,"station_id":"ce4bh512rcd13ifvqe2g","pricing_plan_id":"cebpf4jnsgd1na2vs0mg"},{"bike_id":"e51833df-71b5-4977-a46c-9248d6e3543a","system_id":"levelo_inurba_marseille","lat":43.26556,"lon":5.37284,"is_reserved":false,"is_disabled":false,"rental_uris":{"android":"levelo://app?vid=e51833df-71b5-4977-a46c-9248d6e3543a","ios":"levelo://app?vid=e51833df-71b5-4977-a46c-9248d6e3543a"},"vehicle_type_id":"4","last_reported":1748275916,"current_range_meters":6400,"station_id":"ce4bhg12rcd13ifvqf70","pricing_plan_id":"cebpf4jnsgd1na2vs0mg"},{"bike_id":"09c8b96b-6753-41cf-83c4-4c60e3801dbe","system_id":"levelo_inurba_marseille","lat":43.31329,"lon":5.39687,"is_reserved":false,"is_disabled":false,"rental_uris":{"android":"levelo://app?vid=09c8b96b-6753-41cf-83c4-4c60e3801dbe","ios":"levelo://app?vid=09c8b96b-6753-41cf-83c4-4c60e3801dbe"},"vehicle_type_id":"4","last_reported":1748275916,"current_range_meters":6800,"station_id":"ce4bgvp2rcd13ifvqcu0","pricing_plan_id":"cebpf4jnsgd1na2vs0mg"},{"bike_id":"ab485184-dee6-4278-8ed8-78cb97c31dd5","system_id":"levelo_inurba_marseille","lat":43.2921,"lon":5.35824,"is_reserved":false,"is_disabled":false,"rental_uris":{"android":"levelo://app?vid=ab485184-dee6-4278-8ed8-78cb97c31dd5","ios":"levelo://app?vid=ab485184-dee6-4278-8ed8-78cb97c31dd5"},"vehicle_type_id":"4","last_reported":1748275916,"current_range_meters":7200,"station_id":"","pricing_plan_id":"cebpf4jnsgd1na2vs0mg"},{"bike_id":"770e1edc-fb58-4dc1-af3b-bd2cdebb09a3","system_id":"levelo_inurba_marseille","lat":43.29326,"lon":5.41164,"is_reserved":false,"is_disabled":false,"rental_uris":{"android":"levelo://app?vid=770e1edc-fb58-4dc1-af3b-bd2cdebb09a3","ios":"levelo://app?vid=770e1edc-fb58-4dc1-af3b-bd2cdebb09a3"},"vehicle_type_id":"4","last_reported":1748275916,"current_range_meters":7200,"station_id":"","pricing_plan_id":"cebpf4jnsgd1na2vs0mg"},{"bike_id":"24ce857c-4da5-429a-b031-e4641cc88257","system_id":"levelo_inurba_marseille","lat":43.260721,"lon":5.393996,"is_reserved":false,"is_disabled":false,"rental_uris":{"android":"levelo://app?vid=24ce857c-4da5-429a-b031-e4641cc88257","ios":"levelo://app?vid=24ce857c-4da5-429a-b031-e4641cc88257"},"vehicle_type_id":"4","last_reported":1748275916,"current_range_meters":7200,"station_id":"ce4bhh92rcd13ifvqfj0","pricing_plan_id":"cebpf4jnsgd1na2vs0mg"},{"bike_id":"20aedc1a-3258-494a-9b0e-5afc4945dd89","system_id":"levelo_inurba_marseille","lat":43.23186,"lon":5.399805,"is_reserved":false,"is_disabled":false,"rental_uris":{"android":"levelo://app?vid=20aedc1a-3258-494a-9b0e-5afc4945dd89","ios":"levelo://app?vid=20aedc1a-3258-494a-9b0e-5afc4945dd89"},"vehicle_type_id":"4","last_reported":1748275916,"current_range_meters":7200,"station_id":"ce4bhn12rcd13ifvqgqg","pricing_plan_id":"cebpf4jnsgd1na2vs0mg"},{"bike_id":"5abb8a77-fbf0-4d21-805b-29790cff0e49","system_id":"levelo_inurba_marseille","lat":43.31113,"lon":5.42433,"is_reserved":false,"is_disabled":false,"rental_uris":{"android":"levelo://app?vid=5abb8a77-fbf0-4d21-805b-29790cff0e49","ios":"levelo://app?vid=5abb8a77-fbf0-4d21-805b-29790cff0e49"},"vehicle_type_id":"4","last_reported":1748275916,"current_range_meters":7200,"station_id":"ce4bhp92rcd13ifvqhag","pricing_plan_id":"cebpf4jnsgd1na2vs0mg"},{"bike_id":"0daf0986-c963-4ea4-aa04-888284e22117","system_id":"levelo_inurba_marseille","lat":43.28731,"lon":5.36082,"is_reserved":false,"is_disabled":false,"rental_uris":{"android":"levelo://app?vid=0daf0986-c963-4ea4-aa04-888284e22117","ios":"levelo://app?vid=0daf0986-c963-4ea4-aa04-888284e22117"},"vehicle_type_id":"4","last_reported":1748275916,"current_range_meters":7200,"station_id":"cki0cbj6b192h4jlfktg","pricing_plan_id":"cebpf4jnsgd1na2vs0mg"},{"bike_id":"dabc077c-bf8d-431d-a5ea-dcd441e9b7b1","system_id":"levelo_inurba_marseille","lat":43.24872,"lon":5.39744,"is_reserved":false,"is_disabled":false,"rental_uris":{"android":"levelo://app?vid=dabc077c-bf8d-431d-a5ea-dcd441e9b7b1","ios":"levelo://app?vid=dabc077c-bf8d-431d-a5ea-dcd441e9b7b1"},"vehicle_type_id":"4","last_reported":1748275916,"current_range_meters":8000,"station_id":"","pricing_plan_id":"cebpf4jnsgd1na2vs0mg"},{"bike_id":"e915754c-4911-4029-9200-a74a7e4df473","system_id":"levelo_inurba_marseille","lat":43.30594,"lon":5.39362,"is_reserved":false,"is_disabled":false,"rental_uris":{"android":"levelo://app?vid=e915754c-4911-4029-9200-a74a7e4df473","ios":"levelo://app?vid=e915754c-4911-4029-9200-a74a7e4df473"},"vehicle_type_id":"4","last_reported":1748275916,"current_range_meters":8000,"station_id":"ce4bh0p2rcd13ifvqd80","pricing_plan_id":"cebpf4jnsgd1na2vs0mg"},{"bike_id":"02683e1c-0dae-474a-82e8-7f7265d2b503","system_id":"levelo_inurba_marseille","lat":43.2904,"lon":5.39956,"is_reserved":false,"is_disabled":false,"rental_uris":{"android":"levelo://app?vid=02683e1c-0dae-474a-82e8-7f7265d2b503","ios":"levelo://app?vid=02683e1c-0dae-474a-82e8-7f7265d2b503"},"vehicle_type_id":"4","last_reported":1748275916,"current_range_meters":8000,"station_id":"ce4bh392rcd13ifvqdm0","pricing_plan_id":"cebpf4jnsgd1na2vs0mg"},{"bike_id":"3bce2518-5e62-477a-bff2-c2bd8dc0de4a","system_id":"levelo_inurba_marseille","lat":43.28721,"lon":5.37949,"is_reserved":false,"is_disabled":false,"rental_uris":{"android":"levelo://app?vid=3bce2518-5e62-477a-bff2-c2bd8dc0de4a","ios":"levelo://app?vid=3bce2518-5e62-477a-bff2-c2bd8dc0de4a"},"vehicle_type_id":"4","last_reported":1748275916,"current_range_meters":8000,"station_id":"ce4bh9p2rcd13ifvqec0","pricing_plan_id":"cebpf4jnsgd1na2vs0mg"},{"bike_id":"42409b29-8507-4322-a38f-17cc15489e44","system_id":"levelo_inurba_marseille","lat":43.28984,"lon":5.37847,"is_reserved":false,"is_disabled":false,"rental_uris":{"android":"levelo://app?vid=42409b29-8507-4322-a38f-17cc15489e44","ios":"levelo://app?vid=42409b29-8507-4322-a38f-17cc15489e44"},"vehicle_type_id":"4","last_reported":1748275916,"current_range_meters":8000,"station_id":"ce4bh9p2rcd13ifvqed0","pricing_plan_id":"cebpf4jnsgd1na2vs0mg"},{"bike_id":"e5e036d5-91cd-41ca-916e-a86d296a6267","system_id":"levelo_inurba_marseille","lat":43.25584,"lon":5.38256,"is_reserved":false,"is_disabled":false,"rental_uris":{"android":"levelo://app?vid=e5e036d5-91cd-41ca-916e-a86d296a6267","ios":"levelo://app?vid=e5e036d5-91cd-41ca-916e-a86d296a6267"},"vehicle_type_id":"4","last_reported":1748275916,"current_range_meters":8000,"station_id":"ce4bhih2rcd13ifvqfs0","pricing_plan_id":"cebpf4jnsgd1na2vs0mg"},{"bike_id":"bf17dd2d-b727-4037-8066-e58fade2f91e","system_id":"levelo_inurba_marseille","lat":43.2783,"lon":5.39213,"is_reserved":false,"is_disabled":false,"rental_uris":{"android":"levelo://app?vid=bf17dd2d-b727-4037-8066-e58fade2f91e","ios":"levelo://app?vid=bf17dd2d-b727-4037-8066-e58fade2f91e"},"vehicle_type_id":"4","last_reported":1748275916,"current_range_meters":8000,"station_id":"ce4bhjp2rcd13ifvqga0","pricing_plan_id":"cebpf4jnsgd1na2vs0mg"},{"bike_id":"5eee5bfe-c637-41e7-89e6-eed9d6f74058","system_id":"levelo_inurba_marseille","lat":43.27946,"lon":5.41054,"is_reserved":false,"is_disabled":false,"rental_uris":{"android":"levelo://app?vid=5eee5bfe-c637-41e7-89e6-eed9d6f74058","ios":"levelo://app?vid=5eee5bfe-c637-41e7-89e6-eed9d6f74058"},"vehicle_type_id":"4","last_reported":1748275916,"current_range_meters":8000,"station_id":"ce4bhnp2rcd13ifvqh0g","pricing_plan_id":"cebpf4jnsgd1na2vs0mg"},{"bike_id":"eceb09b7-177e-49f3-96a3-60ac0e9cd6e3","system_id":"levelo_inurba_marseille","lat":43.27998,"lon":5.41661,"is_reserved":false,"is_disabled":false,"rental_uris":{"android":"levelo://app?vid=eceb09b7-177e-49f3-96a3-60ac0e9cd6e3","ios":"levelo://app?vid=eceb09b7-177e-49f3-96a3-60ac0e9cd6e3"},"vehicle_type_id":"4","last_reported":1748275916,"current_range_meters":8000,"station_id":"ce4bho12rcd13ifvqh1g","pricing_plan_id":"cebpf4jnsgd1na2vs0mg"},{"bike_id":"681a4d05-37ff-4069-affc-c79df2703811","system_id":"levelo_inurba_marseille","lat":43.32365,"lon":5.38889,"is_reserved":false,"is_disabled":false,"rental_uris":{"android":"levelo://app?vid=681a4d05-37ff-4069-affc-c79df2703811","ios":"levelo://app?vid=681a4d05-37ff-4069-affc-c79df2703811"},"vehicle_type_id":"4","last_reported":1748275916,"current_range_meters":8000,"station_id":"ce4bhqp2rcd13ifvqhog","pricing_plan_id":"cebpf4jnsgd1na2vs0mg"},{"bike_id":"bd11f05a-a9d6-43bb-b6c5-ac1b6aa6327a","system_id":"levelo_inurba_marseille","lat":43.29274,"lon":5.36846,"is_reserved":false,"is_disabled":false,"rental_uris":{"android":"levelo://app?vid=bd11f05a-a9d6-43bb-b6c5-ac1b6aa6327a","ios":"levelo://app?vid=bd11f05a-a9d6-43bb-b6c5-ac1b6aa6327a"},"vehicle_type_id":"4","last_reported":1748275916,"current_range_meters":8400,"station_id":"ce4bhbp2rcd13ifvqesg","pricing_plan_id":"cebpf4jnsgd1na2vs0mg"},{"bike_id":"e9496718-b841-4999-823d-28c5bee5d6f1","system_id":"levelo_inurba_marseille","lat":43.26546,"lon":5.39017,"is_reserved":false,"is_disabled":false,"rental_uris":{"android":"levelo://app?vid=e9496718-b841-4999-823d-28c5bee5d6f1","ios":"levelo://app?vid=e9496718-b841-4999-823d-28c5bee5d6f1"},"vehicle_type_id":"4","last_reported":1748275916,"current_range_meters":8400,"station_id":"ce4bhe12rcd13ifvqf30","pricing_plan_id":"cebpf4jnsgd1na2vs0mg"},{"bike_id":"700614b0-7c0e-4e96-99af-34870b12b9d8","system_id":"levelo_inurba_marseille","lat":43.27049,"lon":5.39275,"is_reserved":false,"is_disabled":false,"rental_uris":{"android":"levelo://app?vid=700614b0-7c0e-4e96-99af-34870b12b9d8","ios":"levelo://app?vid=700614b0-7c0e-4e96-99af-34870b12b9d8"},"vehicle_type_id":"4","last_reported":1748275916,"current_range_meters":8800,"station_id":"","pricing_plan_id":"cebpf4jnsgd1na2vs0mg"},{"bike_id":"3844698f-3307-4e79-8c48-c114873787b1","system_id":"levelo_inurba_marseille","lat":43.29597,"lon":5.380994,"is_reserved":false,"is_disabled":false,"rental_uris":{"android":"levelo://app?vid=3844698f-3307-4e79-8c48-c114873787b1","ios":"levelo://app?vid=3844698f-3307-4e79-8c48-c114873787b1"},"vehicle_type_id":"4","last_reported":1748275916,"current_range_meters":8800,"station_id":"ce4bgl12rcd13ifvqbo0","pricing_plan_id":"cebpf4jnsgd1na2vs0mg"},{"bike_id":"0d1b9aa6-52d9-4804-bbde-0063be1b3156","system_id":"levelo_inurba_marseille","lat":43.30127,"lon":5.39865,"is_reserved":false,"is_disabled":false,"rental_uris":{"android":"levelo://app?vid=0d1b9aa6-52d9-4804-bbde-0063be1b3156","ios":"levelo://app?vid=0d1b9aa6-52d9-4804-bbde-0063be1b3156"},"vehicle_type_id":"4","last_reported":1748275916,"current_range_meters":8800,"station_id":"ce4bh0h2rcd13ifvqd40","pricing_plan_id":"cebpf4jnsgd1na2vs0mg"},{"bike_id":"459962eb-af2a-49fe-bfba-46afc07a0616","system_id":"levelo_inurba_marseille","lat":43.23189,"lon":5.39971,"is_reserved":false,"is_disabled":false,"rental_uris":{"android":"levelo://app?vid=459962eb-af2a-49fe-bfba-46afc07a0616","ios":"levelo://app?vid=459962eb-af2a-49fe-bfba-46afc07a0616"},"vehicle_type_id":"4","last_reported":1748275916,"current_range_meters":8800,"station_id":"ce4bhn12rcd13ifvqgqg","pricing_plan_id":"cebpf4jnsgd1na2vs0mg"},{"bike_id":"22f8b856-738b-490d-bbd8-d4db00c3f914","system_id":"levelo_inurba_marseille","lat":43.27963,"lon":5.41029,"is_reserved":false,"is_disabled":false,"rental_uris":{"android":"levelo://app?vid=22f8b856-738b-490d-bbd8-d4db00c3f914","ios":"levelo://app?vid=22f8b856-738b-490d-bbd8-d4db00c3f914"},"vehicle_type_id":"4","last_reported":1748275916,"current_range_meters":8800,"station_id":"ce4bhnp2rcd13ifvqh0g","pricing_plan_id":"cebpf4jnsgd1na2vs0mg"},{"bike_id":"89c46193-ecdf-414c-90b1-3b60f1f3d135","system_id":"levelo_inurba_marseille","lat":43.23194,"lon":5.35553,"is_reserved":false,"is_disabled":false,"rental_uris":{"android":"levelo://app?vid=89c46193-ecdf-414c-90b1-3b60f1f3d135","ios":"levelo://app?vid=89c46193-ecdf-414c-90b1-3b60f1f3d135"},"vehicle_type_id":"4","last_reported":1748275916,"current_range_meters":8800,"station_id":"ce4bhu92rcd13ifvqi70","pricing_plan_id":"cebpf4jnsgd1na2vs0mg"},{"bike_id":"44ff75c7-dfd4-4122-8ac9-272898612357","system_id":"levelo_inurba_marseille","lat":43.217513,"lon":5.34609,"is_reserved":false,"is_disabled":false,"rental_uris":{"android":"levelo://app?vid=44ff75c7-dfd4-4122-8ac9-272898612357","ios":"levelo://app?vid=44ff75c7-dfd4-4122-8ac9-272898612357"},"vehicle_type_id":"4","last_reported":1748275916,"current_range_meters":8800,"station_id":"st_cvj6r9ubvosntc0bgbag","pricing_plan_id":"cebpf4jnsgd1na2vs0mg"},{"bike_id":"fc56555b-396d-4667-b896-0ad86036e39e","system_id":"levelo_inurba_marseille","lat":43.25949,"lon":5.38025,"is_reserved":false,"is_disabled":false,"rental_uris":{"android":"levelo://app?vid=fc56555b-396d-4667-b896-0ad86036e39e","ios":"levelo://app?vid=fc56555b-396d-4667-b896-0ad86036e39e"},"vehicle_type_id":"4","last_reported":1748275916,"current_range_meters":9200,"station_id":"","pricing_plan_id":"cebpf4jnsgd1na2vs0mg"},{"bike_id":"a4aef2b9-b7e8-4e2d-8340-592d28bc6c85","system_id":"levelo_inurba_marseille","lat":43.337654,"lon":5.37434,"is_reserved":false,"is_disabled":false,"rental_uris":{"android":"levelo://app?vid=a4aef2b9-b7e8-4e2d-8340-592d28bc6c85","ios":"levelo://app?vid=a4aef2b9-b7e8-4e2d-8340-592d28bc6c85"},"vehicle_type_id":"4","last_reported":1748275916,"current_range_meters":9200,"station_id":"","pricing_plan_id":"cebpf4jnsgd1na2vs0mg"},{"bike_id":"efd698cb-2450-498f-9f0b-bfc662548e61","system_id":"levelo_inurba_marseille","lat":43.265732,"lon":5.403288,"is_reserved":false,"is_disabled":false,"rental_uris":{"android":"levelo://app?vid=efd698cb-2450-498f-9f0b-bfc662548e61","ios":"levelo://app?vid=efd698cb-2450-498f-9f0b-bfc662548e61"},"vehicle_type_id":"4","last_reported":1748275916,"current_range_meters":9200,"station_id":"","pricing_plan_id":"cebpf4jnsgd1na2vs0mg"},{"bike_id":"ede017e1-e7c0-43c3-8fd0-f30e7db5204d","system_id":"levelo_inurba_marseille","lat":43.3106,"lon":5.40075,"is_reserved":false,"is_disabled":false,"rental_uris":{"android":"levelo://app?vid=ede017e1-e7c0-43c3-8fd0-f30e7db5204d","ios":"levelo://app?vid=ede017e1-e7c0-43c3-8fd0-f30e7db5204d"},"vehicle_type_id":"4","last_reported":1748275916,"current_range_meters":9200,"station_id":"","pricing_plan_id":"cebpf4jnsgd1na2vs0mg"},{"bike_id":"0a3c15c6-abb6-495c-93dc-67bd0be53be5","system_id":"levelo_inurba_marseille","lat":43.30301,"lon":5.39233,"is_reserved":false,"is_disabled":false,"rental_uris":{"android":"levelo://app?vid=0a3c15c6-abb6-495c-93dc-67bd0be53be5","ios":"levelo://app?vid=0a3c15c6-abb6-495c-93dc-67bd0be53be5"},"vehicle_type_id":"4","last_reported":1748275916,"current_range_meters":9200,"station_id":"ce4bgkh2rcd13ifvqbk0","pricing_plan_id":"cebpf4jnsgd1na2vs0mg"},{"bike_id":"0d159f92-b36b-415b-82a4-2e76e76b87a9","system_id":"levelo_inurba_marseille","lat":43.26209,"lon":5.37443,"is_reserved":false,"is_disabled":false,"rental_uris":{"android":"levelo://app?vid=0d159f92-b36b-415b-82a4-2e76e76b87a9","ios":"levelo://app?vid=0d159f92-b36b-415b-82a4-2e76e76b87a9"},"vehicle_type_id":"4","last_reported":1748275916,"current_range_meters":9200,"station_id":"ce4bhgp2rcd13ifvqfc0","pricing_plan_id":"cebpf4jnsgd1na2vs0mg"},{"bike_id":"4b9f4b24-cc33-4e08-8e43-356ffcf44991","system_id":"levelo_inurba_marseille","lat":43.29896,"lon":5.43666,"is_reserved":false,"is_disabled":false,"rental_uris":{"android":"levelo://app?vid=4b9f4b24-cc33-4e08-8e43-356ffcf44991","ios":"levelo://app?vid=4b9f4b24-cc33-4e08-8e43-356ffcf44991"},"vehicle_type_id":"4","last_reported":1748275916,"current_range_meters":9200,"station_id":"ce4bhpp2rcd13ifvqhfg","pricing_plan_id":"cebpf4jnsgd1na2vs0mg"},{"bike_id":"a6b2030b-dbf4-4b40-bfd2-a8e2c0da812d","system_id":"levelo_inurba_marseille","lat":43.29787,"lon":5.39348,"is_reserved":false,"is_disabled":false,"rental_uris":{"android":"levelo://app?vid=a6b2030b-dbf4-4b40-bfd2-a8e2c0da812d","ios":"levelo://app?vid=a6b2030b-dbf4-4b40-bfd2-a8e2c0da812d"},"vehicle_type_id":"4","last_reported":1748275916,"current_range_meters":9200,"station_id":"chh1huq6cuj3fo74tm60","pricing_plan_id":"cebpf4jnsgd1na2vs0mg"},{"bike_id":"755099d0-d77b-4fc5-a6f3-ef8634799310","system_id":"levelo_inurba_marseille","lat":43.21749,"lon":5.34604,"is_reserved":false,"is_disabled":false,"rental_uris":{"android":"levelo://app?vid=755099d0-d77b-4fc5-a6f3-ef8634799310","ios":"levelo://app?vid=755099d0-d77b-4fc5-a6f3-ef8634799310"},"vehicle_type_id":"4","last_reported":1748275916,"current_range_meters":9200,"station_id":"st_cvj6r9ubvosntc0bgbag","pricing_plan_id":"cebpf4jnsgd1na2vs0mg"},{"bike_id":"db5be3b4-7e27-4b25-b860-e53de44a8a34","system_id":"levelo_inurba_marseille","lat":43.26611,"lon":5.40312,"is_reserved":false,"is_disabled":false,"rental_uris":{"android":"levelo://app?vid=db5be3b4-7e27-4b25-b860-e53de44a8a34","ios":"levelo://app?vid=db5be3b4-7e27-4b25-b860-e53de44a8a34"},"vehicle_type_id":"4","last_reported":1748275916,"current_range_meters":9600,"station_id":"","pricing_plan_id":"cebpf4jnsgd1na2vs0mg"},{"bike_id":"b744080c-dd77-486d-9609-00c9cf60c1ad","system_id":"levelo_inurba_marseille","lat":43.236141,"lon":5.392076,"is_reserved":false,"is_disabled":false,"rental_uris":{"android":"levelo://app?vid=b744080c-dd77-486d-9609-00c9cf60c1ad","ios":"levelo://app?vid=b744080c-dd77-486d-9609-00c9cf60c1ad"},"vehicle_type_id":"4","last_reported":1748275916,"current_range_meters":9600,"station_id":"","pricing_plan_id":"cebpf4jnsgd1na2vs0mg"},{"bike_id":"2b11c958-97d9-4807-b6f6-51cd0b20227e","system_id":"levelo_inurba_marseille","lat":43.315757,"lon":5.372873,"is_reserved":false,"is_disabled":false,"rental_uris":{"android":"levelo://app?vid=2b11c958-97d9-4807-b6f6-51cd0b20227e","ios":"levelo://app?vid=2b11c958-97d9-4807-b6f6-51cd0b20227e"},"vehicle_type_id":"4","last_reported":1748275916,"current_range_meters":9600,"station_id":"","pricing_plan_id":"cebpf4jnsgd1na2vs0mg"},{"bike_id":"68bb8526-e786-400a-9768-720ad874796c","system_id":"levelo_inurba_marseille","lat":43.290009,"lon":5.356104,"is_reserved":false,"is_disabled":false,"rental_uris":{"android":"levelo://app?vid=68bb8526-e786-400a-9768-720ad874796c","ios":"levelo://app?vid=68bb8526-e786-400a-9768-720ad874796c"},"vehicle_type_id":"4","last_reported":1748275916,"current_range_meters":9600,"station_id":"ce4bhb92rcd13ifvqen0","pricing_plan_id":"cebpf4jnsgd1na2vs0mg"},{"bike_id":"1cd94d4a-0ad1-418a-bf7f-c1ae80d4112b","system_id":"levelo_inurba_marseille","lat":43.23972,"lon":5.36619,"is_reserved":false,"is_disabled":false,"rental_uris":{"android":"levelo://app?vid=1cd94d4a-0ad1-418a-bf7f-c1ae80d4112b","ios":"levelo://app?vid=1cd94d4a-0ad1-418a-bf7f-c1ae80d4112b"},"vehicle_type_id":"4","last_reported":1748275916,"current_range_meters":9600,"station_id":"ce4bhi12rcd13ifvqfp0","pricing_plan_id":"cebpf4jnsgd1na2vs0mg"},{"bike_id":"e0c25e07-4c7a-4f3c-b21c-026342f4ce53","system_id":"levelo_inurba_marseille","lat":43.23964,"lon":5.36632,"is_reserved":false,"is_disabled":false,"rental_uris":{"android":"levelo://app?vid=e0c25e07-4c7a-4f3c-b21c-026342f4ce53","ios":"levelo://app?vid=e0c25e07-4c7a-4f3c-b21c-026342f4ce53"},"vehicle_type_id":"4","last_reported":1748275916,"current_range_meters":9600,"station_id":"ce4bhi12rcd13ifvqfp0","pricing_plan_id":"cebpf4jnsgd1na2vs0mg"},{"bike_id":"0b6f1caa-4d88-49c1-9e3e-b5cdaceb55b9","system_id":"levelo_inurba_marseille","lat":43.25106,"lon":5.40307,"is_reserved":false,"is_disabled":false,"rental_uris":{"android":"levelo://app?vid=0b6f1caa-4d88-49c1-9e3e-b5cdaceb55b9","ios":"levelo://app?vid=0b6f1caa-4d88-49c1-9e3e-b5cdaceb55b9"},"vehicle_type_id":"4","last_reported":1748275916,"current_range_meters":9600,"station_id":"ce4bhlh2rcd13ifvqgig","pricing_plan_id":"cebpf4jnsgd1na2vs0mg"},{"bike_id":"03a7192a-add9-4149-be83-3f3716cbfc97","system_id":"levelo_inurba_marseille","lat":43.27991,"lon":5.41666,"is_reserved":false,"is_disabled":false,"rental_uris":{"android":"levelo://app?vid=03a7192a-add9-4149-be83-3f3716cbfc97","ios":"levelo://app?vid=03a7192a-add9-4149-be83-3f3716cbfc97"},"vehicle_type_id":"4","last_reported":1748275916,"current_range_meters":9600,"station_id":"ce4bho12rcd13ifvqh1g","pricing_plan_id":"cebpf4jnsgd1na2vs0mg"},{"bike_id":"41d795fd-6b15-4eca-98cc-80356500dbfe","system_id":"levelo_inurba_marseille","lat":43.24171,"lon":5.36397,"is_reserved":false,"is_disabled":false,"rental_uris":{"android":"levelo://app?vid=41d795fd-6b15-4eca-98cc-80356500dbfe","ios":"levelo://app?vid=41d795fd-6b15-4eca-98cc-80356500dbfe"},"vehicle_type_id":"4","last_reported":1748275916,"current_range_meters":9600,"station_id":"cpo36qri1sfpv3e86is0","pricing_plan_id":"cebpf4jnsgd1na2vs0mg"},{"bike_id":"6a4612f8-d511-472f-9784-e69bac545256","system_id":"levelo_inurba_marseille","lat":43.29017,"lon":5.36628,"is_reserved":false,"is_disabled":false,"rental_uris":{"android":"levelo://app?vid=6a4612f8-d511-472f-9784-e69bac545256","ios":"levelo://app?vid=6a4612f8-d511-472f-9784-e69bac545256"},"vehicle_type_id":"4","last_reported":1748275916,"current_range_meters":10000,"station_id":"","pricing_plan_id":"cebpf4jnsgd1na2vs0mg"},{"bike_id":"73ca7b90-e2e9-49d6-89b3-ccdc962c247d","system_id":"levelo_inurba_marseille","lat":43.29268,"lon":5.3844,"is_reserved":false,"is_disabled":false,"rental_uris":{"android":"levelo://app?vid=73ca7b90-e2e9-49d6-89b3-ccdc962c247d","ios":"levelo://app?vid=73ca7b90-e2e9-49d6-89b3-ccdc962c247d"},"vehicle_type_id":"4","last_reported":1748275916,"current_range_meters":10000,"station_id":"ce4bh692rcd13ifvqea0","pricing_plan_id":"cebpf4jnsgd1na2vs0mg"},{"bike_id":"783c73d3-b3c9-43c6-a399-07ea80a5474d","system_id":"levelo_inurba_marseille","lat":43.28458,"lon":5.3588,"is_reserved":false,"is_disabled":false,"rental_uris":{"android":"levelo://app?vid=783c73d3-b3c9-43c6-a399-07ea80a5474d","ios":"levelo://app?vid=783c73d3-b3c9-43c6-a399-07ea80a5474d"},"vehicle_type_id":"4","last_reported":1748275916,"current_range_meters":10000,"station_id":"ce4bhah2rcd13ifvqei0","pricing_plan_id":"cebpf4jnsgd1na2vs0mg"},{"bike_id":"512ab3e0-2b38-4fde-8056-94bb805c6a31","system_id":"levelo_inurba_marseille","lat":43.25004,"lon":5.38925,"is_reserved":false,"is_disabled":false,"rental_uris":{"android":"levelo://app?vid=512ab3e0-2b38-4fde-8056-94bb805c6a31","ios":"levelo://app?vid=512ab3e0-2b38-4fde-8056-94bb805c6a31"},"vehicle_type_id":"4","last_reported":1748275916,"current_range_meters":10000,"station_id":"ce4bhgp2rcd13ifvqfd0","pricing_plan_id":"cebpf4jnsgd1na2vs0mg"},{"bike_id":"ed3f8e5f-07ec-4445-b8bb-c7e8b5ea2950","system_id":"levelo_inurba_marseille","lat":43.27176,"lon":5.40988,"is_reserved":false,"is_disabled":false,"rental_uris":{"android":"levelo://app?vid=ed3f8e5f-07ec-4445-b8bb-c7e8b5ea2950","ios":"levelo://app?vid=ed3f8e5f-07ec-4445-b8bb-c7e8b5ea2950"},"vehicle_type_id":"4","last_reported":1748275916,"current_range_meters":10000,"station_id":"ce4bhl12rcd13ifvqgf0","pricing_plan_id":"cebpf4jnsgd1na2vs0mg"},{"bike_id":"5e66b624-5b62-45e6-91b3-f683934a172d","system_id":"levelo_inurba_marseille","lat":43.28417,"lon":5.3499,"is_reserved":false,"is_disabled":false,"rental_uris":{"android":"levelo://app?vid=5e66b624-5b62-45e6-91b3-f683934a172d","ios":"levelo://app?vid=5e66b624-5b62-45e6-91b3-f683934a172d"},"vehicle_type_id":"4","last_reported":1748275916,"current_range_meters":10800,"station_id":"ce4bhbh2rcd13ifvqepg","pricing_plan_id":"cebpf4jnsgd1na2vs0mg"},{"bike_id":"70115ec2-9c85-4539-ac3a-8dd8f06b39f5","system_id":"levelo_inurba_marseille","lat":43.26213,"lon":5.37443,"is_reserved":false,"is_disabled":false,"rental_uris":{"android":"levelo://app?vid=70115ec2-9c85-4539-ac3a-8dd8f06b39f5","ios":"levelo://app?vid=70115ec2-9c85-4539-ac3a-8dd8f06b39f5"},"vehicle_type_id":"4","last_reported":1748275916,"current_range_meters":10800,"station_id":"ce4bhgp2rcd13ifvqfc0","pricing_plan_id":"cebpf4jnsgd1na2vs0mg"},{"bike_id":"461cf793-a607-4b2c-8096-fdd8d5b26327","system_id":"levelo_inurba_marseille","lat":43.2621,"lon":5.3744,"is_reserved":false,"is_disabled":false,"rental_uris":{"android":"levelo://app?vid=461cf793-a607-4b2c-8096-fdd8d5b26327","ios":"levelo://app?vid=461cf793-a607-4b2c-8096-fdd8d5b26327"},"vehicle_type_id":"4","last_reported":1748275916,"current_range_meters":10800,"station_id":"ce4bhgp2rcd13ifvqfc0","pricing_plan_id":"cebpf4jnsgd1na2vs0mg"},{"bike_id":"31cbeaaf-e387-4fa6-b483-ce052f253657","system_id":"levelo_inurba_marseille","lat":43.28151,"lon":5.42647,"is_reserved":false,"is_disabled":false,"rental_uris":{"android":"levelo://app?vid=31cbeaaf-e387-4fa6-b483-ce052f253657","ios":"levelo://app?vid=31cbeaaf-e387-4fa6-b483-ce052f253657"},"vehicle_type_id":"4","last_reported":1748275916,"current_range_meters":10800,"station_id":"ce4bhnh2rcd13ifvqgug","pricing_plan_id":"cebpf4jnsgd1na2vs0mg"},{"bike_id":"b784ac63-cd40-47ac-9a60-554b4bf98a63","system_id":"levelo_inurba_marseille","lat":43.29899,"lon":5.43667,"is_reserved":false,"is_disabled":false,"rental_uris":{"android":"levelo://app?vid=b784ac63-cd40-47ac-9a60-554b4bf98a63","ios":"levelo://app?vid=b784ac63-cd40-47ac-9a60-554b4bf98a63"},"vehicle_type_id":"4","last_reported":1748275916,"current_range_meters":10800,"station_id":"ce4bhpp2rcd13ifvqhfg","pricing_plan_id":"cebpf4jnsgd1na2vs0mg"},{"bike_id":"8767c780-d551-48e0-8137-cf2fdfd30d4d","system_id":"levelo_inurba_marseille","lat":43.2872,"lon":5.36082,"is_reserved":false,"is_disabled":false,"rental_uris":{"android":"levelo://app?vid=8767c780-d551-48e0-8137-cf2fdfd30d4d","ios":"levelo://app?vid=8767c780-d551-48e0-8137-cf2fdfd30d4d"},"vehicle_type_id":"4","last_reported":1748275916,"current_range_meters":10800,"station_id":"cki0cbj6b192h4jlfktg","pricing_plan_id":"cebpf4jnsgd1na2vs0mg"},{"bike_id":"80593eb9-28b8-4102-8b88-40f735cf6129","system_id":"levelo_inurba_marseille","lat":43.27369,"lon":5.362543,"is_reserved":false,"is_disabled":false,"rental_uris":{"android":"levelo://app?vid=80593eb9-28b8-4102-8b88-40f735cf6129","ios":"levelo://app?vid=80593eb9-28b8-4102-8b88-40f735cf6129"},"vehicle_type_id":"4","last_reported":1748275916,"current_range_meters":11200,"station_id":"ce4bhbh2rcd13ifvqeo0","pricing_plan_id":"cebpf4jnsgd1na2vs0mg"},{"bike_id":"96fbf527-a891-4bdb-8f0a-99e581d95e20","system_id":"levelo_inurba_marseille","lat":43.24649,"lon":5.38894,"is_reserved":false,"is_disabled":false,"rental_uris":{"android":"levelo://app?vid=96fbf527-a891-4bdb-8f0a-99e581d95e20","ios":"levelo://app?vid=96fbf527-a891-4bdb-8f0a-99e581d95e20"},"vehicle_type_id":"4","last_reported":1748275916,"current_range_meters":11200,"station_id":"ce4bhg12rcd13ifvqf60","pricing_plan_id":"cebpf4jnsgd1na2vs0mg"},{"bike_id":"de41673a-f192-40fc-bc88-cddbf90da3a8","system_id":"levelo_inurba_marseille","lat":43.29255,"lon":5.37611,"is_reserved":false,"is_disabled":false,"rental_uris":{"android":"levelo://app?vid=de41673a-f192-40fc-bc88-cddbf90da3a8","ios":"levelo://app?vid=de41673a-f192-40fc-bc88-cddbf90da3a8"},"vehicle_type_id":"4","last_reported":1748275916,"current_range_meters":11600,"station_id":"ce4bgi12rcd13ifvqb80","pricing_plan_id":"cebpf4jnsgd1na2vs0mg"},{"bike_id":"34d75933-8031-4605-8c0a-cb147f7533ec","system_id":"levelo_inurba_marseille","lat":43.27378,"lon":5.36254,"is_reserved":false,"is_disabled":false,"rental_uris":{"android":"levelo://app?vid=34d75933-8031-4605-8c0a-cb147f7533ec","ios":"levelo://app?vid=34d75933-8031-4605-8c0a-cb147f7533ec"},"vehicle_type_id":"4","last_reported":1748275916,"current_range_meters":11600,"station_id":"ce4bhbh2rcd13ifvqeo0","pricing_plan_id":"cebpf4jnsgd1na2vs0mg"},{"bike_id":"6cb37dfd-2986-459e-9fa5-55b8bd1f07d3","system_id":"levelo_inurba_marseille","lat":43.23966,"lon":5.36632,"is_reserved":false,"is_disabled":false,"rental_uris":{"android":"levelo://app?vid=6cb37dfd-2986-459e-9fa5-55b8bd1f07d3","ios":"levelo://app?vid=6cb37dfd-2986-459e-9fa5-55b8bd1f07d3"},"vehicle_type_id":"4","last_reported":1748275916,"current_range_meters":11600,"station_id":"ce4bhi12rcd13ifvqfp0","pricing_plan_id":"cebpf4jnsgd1na2vs0mg"},{"bike_id":"c40d7824-c355-4c62-9956-d3d553caed5b","system_id":"levelo_inurba_marseille","lat":43.26933,"lon":5.40262,"is_reserved":false,"is_disabled":false,"rental_uris":{"android":"levelo://app?vid=c40d7824-c355-4c62-9956-d3d553caed5b","ios":"levelo://app?vid=c40d7824-c355-4c62-9956-d3d553caed5b"},"vehicle_type_id":"4","last_reported":1748275916,"current_range_meters":11600,"station_id":"cjm6bp8fraef2m0cb0m0","pricing_plan_id":"cebpf4jnsgd1na2vs0mg"},{"bike_id":"761918e0-d6a0-4f40-96ce-babda69bc7f4","system_id":"levelo_inurba_marseille","lat":43.229584,"lon":5.354042,"is_reserved":false,"is_disabled":false,"rental_uris":{"android":"levelo://app?vid=761918e0-d6a0-4f40-96ce-babda69bc7f4","ios":"levelo://app?vid=761918e0-d6a0-4f40-96ce-babda69bc7f4"},"vehicle_type_id":"4","last_reported":1748275916,"current_range_meters":11600,"station_id":"cpo3532slgdg3j2ikp40","pricing_plan_id":"cebpf4jnsgd1na2vs0mg"},{"bike_id":"ae6e6868-2635-4f49-b7c1-b03759c58ec7","system_id":"levelo_inurba_marseille","lat":43.2728,"lon":5.41611,"is_reserved":false,"is_disabled":false,"rental_uris":{"android":"levelo://app?vid=ae6e6868-2635-4f49-b7c1-b03759c58ec7","ios":"levelo://app?vid=ae6e6868-2635-4f49-b7c1-b03759c58ec7"},"vehicle_type_id":"4","last_reported":1748275916,"current_range_meters":12000,"station_id":"","pricing_plan_id":"cebpf4jnsgd1na2vs0mg"},{"bike_id":"f5ae3080-2b63-49bb-80c7-58f068c3a42a","system_id":"levelo_inurba_marseille","lat":43.30837,"lon":5.37244,"is_reserved":false,"is_disabled":false,"rental_uris":{"android":"levelo://app?vid=f5ae3080-2b63-49bb-80c7-58f068c3a42a","ios":"levelo://app?vid=f5ae3080-2b63-49bb-80c7-58f068c3a42a"},"vehicle_type_id":"4","last_reported":1748275916,"current_range_meters":12000,"station_id":"","pricing_plan_id":"cebpf4jnsgd1na2vs0mg"},{"bike_id":"34fff8c5-a201-414f-b7a4-b52d5144c306","system_id":"levelo_inurba_marseille","lat":43.254969,"lon":5.37649,"is_reserved":false,"is_disabled":false,"rental_uris":{"android":"levelo://app?vid=34fff8c5-a201-414f-b7a4-b52d5144c306","ios":"levelo://app?vid=34fff8c5-a201-414f-b7a4-b52d5144c306"},"vehicle_type_id":"4","last_reported":1748275916,"current_range_meters":12000,"station_id":"","pricing_plan_id":"cebpf4jnsgd1na2vs0mg"},{"bike_id":"81a92f56-188d-4b22-aabf-1e9cb2c5d549","system_id":"levelo_inurba_marseille","lat":43.289387,"lon":5.396178,"is_reserved":false,"is_disabled":false,"rental_uris":{"android":"levelo://app?vid=81a92f56-188d-4b22-aabf-1e9cb2c5d549","ios":"levelo://app?vid=81a92f56-188d-4b22-aabf-1e9cb2c5d549"},"vehicle_type_id":"4","last_reported":1748275916,"current_range_meters":12000,"station_id":"ce4bh3h2rcd13ifvqdn0","pricing_plan_id":"cebpf4jnsgd1na2vs0mg"},{"bike_id":"7bab96aa-0d51-42a7-8e54-ce7be4281b06","system_id":"levelo_inurba_marseille","lat":43.28459,"lon":5.35887,"is_reserved":false,"is_disabled":false,"rental_uris":{"android":"levelo://app?vid=7bab96aa-0d51-42a7-8e54-ce7be4281b06","ios":"levelo://app?vid=7bab96aa-0d51-42a7-8e54-ce7be4281b06"},"vehicle_type_id":"4","last_reported":1748275916,"current_range_meters":12000,"station_id":"ce4bhah2rcd13ifvqei0","pricing_plan_id":"cebpf4jnsgd1na2vs0mg"},{"bike_id":"e3be5269-9755-41a5-a989-6178bddf442f","system_id":"levelo_inurba_marseille","lat":43.28413,"lon":5.34975,"is_reserved":false,"is_disabled":false,"rental_uris":{"android":"levelo://app?vid=e3be5269-9755-41a5-a989-6178bddf442f","ios":"levelo://app?vid=e3be5269-9755-41a5-a989-6178bddf442f"},"vehicle_type_id":"4","last_reported":1748275916,"current_range_meters":12000,"station_id":"ce4bhbh2rcd13ifvqepg","pricing_plan_id":"cebpf4jnsgd1na2vs0mg"},{"bike_id":"5148f8b2-1ecb-4c76-b37d-928f8d5cde64","system_id":"levelo_inurba_marseille","lat":43.32325,"lon":5.3679,"is_reserved":false,"is_disabled":false,"rental_uris":{"android":"levelo://app?vid=5148f8b2-1ecb-4c76-b37d-928f8d5cde64","ios":"levelo://app?vid=5148f8b2-1ecb-4c76-b37d-928f8d5cde64"},"vehicle_type_id":"4","last_reported":1748275916,"current_range_meters":12000,"station_id":"ce4bhsh2rcd13ifvqi2g","pricing_plan_id":"cebpf4jnsgd1na2vs0mg"},{"bike_id":"1a0998e5-8bb9-474f-a827-53cad24c9e8f","system_id":"levelo_inurba_marseille","lat":43.320255,"lon":5.449515,"is_reserved":false,"is_disabled":false,"rental_uris":{"android":"levelo://app?vid=1a0998e5-8bb9-474f-a827-53cad24c9e8f","ios":"levelo://app?vid=1a0998e5-8bb9-474f-a827-53cad24c9e8f"},"vehicle_type_id":"4","last_reported":1748275916,"current_range_meters":12400,"station_id":"","pricing_plan_id":"cebpf4jnsgd1na2vs0mg"},{"bike_id":"731e254e-1dfb-4da1-bc89-39f632214b89","system_id":"levelo_inurba_marseille","lat":43.295197,"lon":5.393989,"is_reserved":false,"is_disabled":false,"rental_uris":{"android":"levelo://app?vid=731e254e-1dfb-4da1-bc89-39f632214b89","ios":"levelo://app?vid=731e254e-1dfb-4da1-bc89-39f632214b89"},"vehicle_type_id":"4","last_reported":1748275916,"current_range_meters":12400,"station_id":"ce4bh292rcd13ifvqdf0","pricing_plan_id":"cebpf4jnsgd1na2vs0mg"},{"bike_id":"064497a8-2d79-44b1-a6f2-00760a818e1a","system_id":"levelo_inurba_marseille","lat":43.28571,"lon":5.395,"is_reserved":false,"is_disabled":false,"rental_uris":{"android":"levelo://app?vid=064497a8-2d79-44b1-a6f2-00760a818e1a","ios":"levelo://app?vid=064497a8-2d79-44b1-a6f2-00760a818e1a"},"vehicle_type_id":"4","last_reported":1748275916,"current_range_meters":12400,"station_id":"ce4bh292rcd13ifvqdg0","pricing_plan_id":"cebpf4jnsgd1na2vs0mg"},{"bike_id":"94783af6-147b-471b-8cc9-3fb261bee209","system_id":"levelo_inurba_marseille","lat":43.23964,"lon":5.36632,"is_reserved":false,"is_disabled":false,"rental_uris":{"android":"levelo://app?vid=94783af6-147b-471b-8cc9-3fb261bee209","ios":"levelo://app?vid=94783af6-147b-471b-8cc9-3fb261bee209"},"vehicle_type_id":"4","last_reported":1748275916,"current_range_meters":12400,"station_id":"ce4bhi12rcd13ifvqfp0","pricing_plan_id":"cebpf4jnsgd1na2vs0mg"},{"bike_id":"f6414e6b-0c89-478f-8cc8-a243631a69c0","system_id":"levelo_inurba_marseille","lat":43.25,"lon":5.38936,"is_reserved":false,"is_disabled":false,"rental_uris":{"android":"levelo://app?vid=f6414e6b-0c89-478f-8cc8-a243631a69c0","ios":"levelo://app?vid=f6414e6b-0c89-478f-8cc8-a243631a69c0"},"vehicle_type_id":"4","last_reported":1748275916,"current_range_meters":12800,"station_id":"ce4bhgp2rcd13ifvqfd0","pricing_plan_id":"cebpf4jnsgd1na2vs0mg"},{"bike_id":"4e039f41-5254-4c58-bad4-dbecad2989bc","system_id":"levelo_inurba_marseille","lat":43.27206,"lon":5.3918,"is_reserved":false,"is_disabled":false,"rental_uris":{"android":"levelo://app?vid=4e039f41-5254-4c58-bad4-dbecad2989bc","ios":"levelo://app?vid=4e039f41-5254-4c58-bad4-dbecad2989bc"},"vehicle_type_id":"4","last_reported":1748275916,"current_range_meters":12800,"station_id":"ce4bhhp2rcd13ifvqfm0","pricing_plan_id":"cebpf4jnsgd1na2vs0mg"},{"bike_id":"c83ff79f-df1f-4b67-8cca-e682dfe675a9","system_id":"levelo_inurba_marseille","lat":43.28441,"lon":5.392023,"is_reserved":false,"is_disabled":false,"rental_uris":{"android":"levelo://app?vid=c83ff79f-df1f-4b67-8cca-e682dfe675a9","ios":"levelo://app?vid=c83ff79f-df1f-4b67-8cca-e682dfe675a9"},"vehicle_type_id":"4","last_reported":1748275916,"current_range_meters":12800,"station_id":"ce4bhoh2rcd13ifvqh5g","pricing_plan_id":"cebpf4jnsgd1na2vs0mg"},{"bike_id":"ce5ca2cb-2535-42d1-8c9c-391382c973c7","system_id":"levelo_inurba_marseille","lat":43.2835,"lon":5.39763,"is_reserved":false,"is_disabled":false,"rental_uris":{"android":"levelo://app?vid=ce5ca2cb-2535-42d1-8c9c-391382c973c7","ios":"levelo://app?vid=ce5ca2cb-2535-42d1-8c9c-391382c973c7"},"vehicle_type_id":"4","last_reported":1748275916,"current_range_meters":13600,"station_id":"","pricing_plan_id":"cebpf4jnsgd1na2vs0mg"},{"bike_id":"d888e6c8-548c-486d-9d21-35b1ac366105","system_id":"levelo_inurba_marseille","lat":43.27633,"lon":5.36144,"is_reserved":false,"is_disabled":false,"rental_uris":{"android":"levelo://app?vid=d888e6c8-548c-486d-9d21-35b1ac366105","ios":"levelo://app?vid=d888e6c8-548c-486d-9d21-35b1ac366105"},"vehicle_type_id":"4","last_reported":1748275916,"current_range_meters":13600,"station_id":"ce4bgj92rcd13ifvqbe0","pricing_plan_id":"cebpf4jnsgd1na2vs0mg"},{"bike_id":"06d61e53-7436-41ce-ac42-c81ba2a52f83","system_id":"levelo_inurba_marseille","lat":43.29367,"lon":5.37835,"is_reserved":false,"is_disabled":false,"rental_uris":{"android":"levelo://app?vid=06d61e53-7436-41ce-ac42-c81ba2a52f83","ios":"levelo://app?vid=06d61e53-7436-41ce-ac42-c81ba2a52f83"},"vehicle_type_id":"4","last_reported":1748275916,"current_range_meters":13600,"station_id":"ce4bgjh2rcd13ifvqbf0","pricing_plan_id":"cebpf4jnsgd1na2vs0mg"},{"bike_id":"2c3b66f2-be8d-4fc8-934e-91fa2f0235f2","system_id":"levelo_inurba_marseille","lat":43.24166,"lon":5.36398,"is_reserved":false,"is_disabled":false,"rental_uris":{"android":"levelo://app?vid=2c3b66f2-be8d-4fc8-934e-91fa2f0235f2","ios":"levelo://app?vid=2c3b66f2-be8d-4fc8-934e-91fa2f0235f2"},"vehicle_type_id":"4","last_reported":1748275916,"current_range_meters":13600,"station_id":"cpo36qri1sfpv3e86is0","pricing_plan_id":"cebpf4jnsgd1na2vs0mg"},{"bike_id":"6c1b368d-1738-4ee8-be26-aa1c6e4e0016","system_id":"levelo_inurba_marseille","lat":43.29259,"lon":5.409,"is_reserved":false,"is_disabled":false,"rental_uris":{"android":"levelo://app?vid=6c1b368d-1738-4ee8-be26-aa1c6e4e0016","ios":"levelo://app?vid=6c1b368d-1738-4ee8-be26-aa1c6e4e0016"},"vehicle_type_id":"4","last_reported":1748275916,"current_range_meters":14000,"station_id":"ce4bh192rcd13ifvqdc0","pricing_plan_id":"cebpf4jnsgd1na2vs0mg"},{"bike_id":"1a66f53b-44ff-4f4e-9c6c-12e54c7fd272","system_id":"levelo_inurba_marseille","lat":43.28352,"lon":5.38104,"is_reserved":false,"is_disabled":false,"rental_uris":{"android":"levelo://app?vid=1a66f53b-44ff-4f4e-9c6c-12e54c7fd272","ios":"levelo://app?vid=1a66f53b-44ff-4f4e-9c6c-12e54c7fd272"},"vehicle_type_id":"4","last_reported":1748275916,"current_range_meters":14000,"station_id":"ce4bh412rcd13ifvqdr0","pricing_plan_id":"cebpf4jnsgd1na2vs0mg"},{"bike_id":"05c4f5c3-5a1f-436a-96ca-8e9f0ec5432f","system_id":"levelo_inurba_marseille","lat":43.28389,"lon":5.38546,"is_reserved":false,"is_disabled":false,"rental_uris":{"android":"levelo://app?vid=05c4f5c3-5a1f-436a-96ca-8e9f0ec5432f","ios":"levelo://app?vid=05c4f5c3-5a1f-436a-96ca-8e9f0ec5432f"},"vehicle_type_id":"4","last_reported":1748275916,"current_range_meters":14000,"station_id":"ce4bh492rcd13ifvqdvg","pricing_plan_id":"cebpf4jnsgd1na2vs0mg"},{"bike_id":"e03a0d5e-b227-420d-969f-f1f548321079","system_id":"levelo_inurba_marseille","lat":43.28936,"lon":5.36679,"is_reserved":false,"is_disabled":false,"rental_uris":{"android":"levelo://app?vid=e03a0d5e-b227-420d-969f-f1f548321079","ios":"levelo://app?vid=e03a0d5e-b227-420d-969f-f1f548321079"},"vehicle_type_id":"4","last_reported":1748275916,"current_range_meters":14000,"station_id":"ce4bhap2rcd13ifvqek0","pricing_plan_id":"cebpf4jnsgd1na2vs0mg"},{"bike_id":"f6de3b20-b7aa-4aef-b5b1-6fe687d70286","system_id":"levelo_inurba_marseille","lat":43.262101,"lon":5.374456,"is_reserved":false,"is_disabled":false,"rental_uris":{"android":"levelo://app?vid=f6de3b20-b7aa-4aef-b5b1-6fe687d70286","ios":"levelo://app?vid=f6de3b20-b7aa-4aef-b5b1-6fe687d70286"},"vehicle_type_id":"4","last_reported":1748275916,"current_range_meters":14000,"station_id":"ce4bhgp2rcd13ifvqfc0","pricing_plan_id":"cebpf4jnsgd1na2vs0mg"},{"bike_id":"f0411750-aea1-49da-8751-edb569a8282b","system_id":"levelo_inurba_marseille","lat":43.26926,"lon":5.38916,"is_reserved":false,"is_disabled":false,"rental_uris":{"android":"levelo://app?vid=f0411750-aea1-49da-8751-edb569a8282b","ios":"levelo://app?vid=f0411750-aea1-49da-8751-edb569a8282b"},"vehicle_type_id":"4","last_reported":1748275916,"current_range_meters":14000,"station_id":"ce4bhhh2rcd13ifvqfl0","pricing_plan_id":"cebpf4jnsgd1na2vs0mg"},{"bike_id":"1a775a5e-1792-4706-b4f6-ec50ef749d53","system_id":"levelo_inurba_marseille","lat":43.255796,"lon":5.38223,"is_reserved":false,"is_disabled":false,"rental_uris":{"android":"levelo://app?vid=1a775a5e-1792-4706-b4f6-ec50ef749d53","ios":"levelo://app?vid=1a775a5e-1792-4706-b4f6-ec50ef749d53"},"vehicle_type_id":"4","last_reported":1748275916,"current_range_meters":14000,"station_id":"ce4bhih2rcd13ifvqfs0","pricing_plan_id":"cebpf4jnsgd1na2vs0mg"},{"bike_id":"52da6684-0a1f-4e5c-8d8b-49dd7abe2c17","system_id":"levelo_inurba_marseille","lat":43.23187,"lon":5.39982,"is_reserved":false,"is_disabled":false,"rental_uris":{"android":"levelo://app?vid=52da6684-0a1f-4e5c-8d8b-49dd7abe2c17","ios":"levelo://app?vid=52da6684-0a1f-4e5c-8d8b-49dd7abe2c17"},"vehicle_type_id":"4","last_reported":1748275916,"current_range_meters":14000,"station_id":"ce4bhn12rcd13ifvqgqg","pricing_plan_id":"cebpf4jnsgd1na2vs0mg"},{"bike_id":"af13c573-9200-4221-bec5-f2a67f274dca","system_id":"levelo_inurba_marseille","lat":43.21751,"lon":5.34605,"is_reserved":false,"is_disabled":false,"rental_uris":{"android":"levelo://app?vid=af13c573-9200-4221-bec5-f2a67f274dca","ios":"levelo://app?vid=af13c573-9200-4221-bec5-f2a67f274dca"},"vehicle_type_id":"4","last_reported":1748275916,"current_range_meters":14000,"station_id":"st_cvj6r9ubvosntc0bgbag","pricing_plan_id":"cebpf4jnsgd1na2vs0mg"},{"bike_id":"eb060acd-d403-4c33-9f13-e709466da355","system_id":"levelo_inurba_marseille","lat":43.296143,"lon":5.377079,"is_reserved":false,"is_disabled":false,"rental_uris":{"android":"levelo://app?vid=eb060acd-d403-4c33-9f13-e709466da355","ios":"levelo://app?vid=eb060acd-d403-4c33-9f13-e709466da355"},"vehicle_type_id":"4","last_reported":1748275916,"current_range_meters":14400,"station_id":"","pricing_plan_id":"cebpf4jnsgd1na2vs0mg"},{"bike_id":"f5b1aa50-af32-4b67-af03-fc8d46feddb5","system_id":"levelo_inurba_marseille","lat":43.292694,"lon":5.401271,"is_reserved":false,"is_disabled":false,"rental_uris":{"android":"levelo://app?vid=f5b1aa50-af32-4b67-af03-fc8d46feddb5","ios":"levelo://app?vid=f5b1aa50-af32-4b67-af03-fc8d46feddb5"},"vehicle_type_id":"4","last_reported":1748275916,"current_range_meters":14400,"station_id":"","pricing_plan_id":"cebpf4jnsgd1na2vs0mg"},{"bike_id":"de4ca578-6fc9-4b96-88ce-df50ef275896","system_id":"levelo_inurba_marseille","lat":43.30427,"lon":5.38889,"is_reserved":false,"is_disabled":false,"rental_uris":{"android":"levelo://app?vid=de4ca578-6fc9-4b96-88ce-df50ef275896","ios":"levelo://app?vid=de4ca578-6fc9-4b96-88ce-df50ef275896"},"vehicle_type_id":"4","last_reported":1748275916,"current_range_meters":14400,"station_id":"ce4bgk12rcd13ifvqbi0","pricing_plan_id":"cebpf4jnsgd1na2vs0mg"},{"bike_id":"32e158ee-7a7b-43fb-93d9-72a099ad7d71","system_id":"levelo_inurba_marseille","lat":43.30956,"lon":5.39027,"is_reserved":false,"is_disabled":false,"rental_uris":{"android":"levelo://app?vid=32e158ee-7a7b-43fb-93d9-72a099ad7d71","ios":"levelo://app?vid=32e158ee-7a7b-43fb-93d9-72a099ad7d71"},"vehicle_type_id":"4","last_reported":1748275916,"current_range_meters":14400,"station_id":"ce4bgup2rcd13ifvqco0","pricing_plan_id":"cebpf4jnsgd1na2vs0mg"},{"bike_id":"4e56ec1a-5bd1-4730-be5c-d48ebc79db14","system_id":"levelo_inurba_marseille","lat":43.2657,"lon":5.39016,"is_reserved":false,"is_disabled":false,"rental_uris":{"android":"levelo://app?vid=4e56ec1a-5bd1-4730-be5c-d48ebc79db14","ios":"levelo://app?vid=4e56ec1a-5bd1-4730-be5c-d48ebc79db14"},"vehicle_type_id":"4","last_reported":1748275916,"current_range_meters":14400,"station_id":"ce4bhe12rcd13ifvqf30","pricing_plan_id":"cebpf4jnsgd1na2vs0mg"},{"bike_id":"beeda0b6-6240-4ce8-9349-b649ba259891","system_id":"levelo_inurba_marseille","lat":43.23177,"lon":5.39987,"is_reserved":false,"is_disabled":false,"rental_uris":{"android":"levelo://app?vid=beeda0b6-6240-4ce8-9349-b649ba259891","ios":"levelo://app?vid=beeda0b6-6240-4ce8-9349-b649ba259891"},"vehicle_type_id":"4","last_reported":1748275916,"current_range_meters":14400,"station_id":"ce4bhn12rcd13ifvqgqg","pricing_plan_id":"cebpf4jnsgd1na2vs0mg"},{"bike_id":"e6c65de3-7d92-4979-809c-6677188473c0","system_id":"levelo_inurba_marseille","lat":43.337684,"lon":5.37432,"is_reserved":false,"is_disabled":false,"rental_uris":{"android":"levelo://app?vid=e6c65de3-7d92-4979-809c-6677188473c0","ios":"levelo://app?vid=e6c65de3-7d92-4979-809c-6677188473c0"},"vehicle_type_id":"4","last_reported":1748275916,"current_range_meters":14800,"station_id":"","pricing_plan_id":"cebpf4jnsgd1na2vs0mg"},{"bike_id":"6ef27e84-462a-46f9-afe5-e09b209cc7f0","system_id":"levelo_inurba_marseille","lat":43.331135,"lon":5.362036,"is_reserved":false,"is_disabled":false,"rental_uris":{"android":"levelo://app?vid=6ef27e84-462a-46f9-afe5-e09b209cc7f0","ios":"levelo://app?vid=6ef27e84-462a-46f9-afe5-e09b209cc7f0"},"vehicle_type_id":"4","last_reported":1748275916,"current_range_meters":14800,"station_id":"","pricing_plan_id":"cebpf4jnsgd1na2vs0mg"},{"bike_id":"2a046dee-b3af-48c9-9659-b7d30ba20af5","system_id":"levelo_inurba_marseille","lat":43.24308,"lon":5.38,"is_reserved":false,"is_disabled":false,"rental_uris":{"android":"levelo://app?vid=2a046dee-b3af-48c9-9659-b7d30ba20af5","ios":"levelo://app?vid=2a046dee-b3af-48c9-9659-b7d30ba20af5"},"vehicle_type_id":"4","last_reported":1748275916,"current_range_meters":15200,"station_id":"","pricing_plan_id":"cebpf4jnsgd1na2vs0mg"},{"bike_id":"52186628-3317-4c4a-8a2e-33385bdffa91","system_id":"levelo_inurba_marseille","lat":43.29571,"lon":5.37527,"is_reserved":false,"is_disabled":false,"rental_uris":{"android":"levelo://app?vid=52186628-3317-4c4a-8a2e-33385bdffa91","ios":"levelo://app?vid=52186628-3317-4c4a-8a2e-33385bdffa91"},"vehicle_type_id":"4","last_reported":1748275916,"current_range_meters":15200,"station_id":"ce4bgh92rcd13ifvqb50","pricing_plan_id":"cebpf4jnsgd1na2vs0mg"},{"bike_id":"ed70ed49-6d43-4ad5-b451-af73e6dac101","system_id":"levelo_inurba_marseille","lat":43.28463,"lon":5.35882,"is_reserved":false,"is_disabled":false,"rental_uris":{"android":"levelo://app?vid=ed70ed49-6d43-4ad5-b451-af73e6dac101","ios":"levelo://app?vid=ed70ed49-6d43-4ad5-b451-af73e6dac101"},"vehicle_type_id":"4","last_reported":1748275916,"current_range_meters":15200,"station_id":"ce4bhah2rcd13ifvqei0","pricing_plan_id":"cebpf4jnsgd1na2vs0mg"},{"bike_id":"6b482028-512e-4dbe-b943-3138dd0f6f46","system_id":"levelo_inurba_marseille","lat":43.296753,"lon":5.368844,"is_reserved":false,"is_disabled":false,"rental_uris":{"android":"levelo://app?vid=6b482028-512e-4dbe-b943-3138dd0f6f46","ios":"levelo://app?vid=6b482028-512e-4dbe-b943-3138dd0f6f46"},"vehicle_type_id":"4","last_reported":1748275916,"current_range_meters":16000,"station_id":"","pricing_plan_id":"cebpf4jnsgd1na2vs0mg"},{"bike_id":"b10c9b3f-b40d-4bb4-8a2a-615ae445425d","system_id":"levelo_inurba_marseille","lat":43.2953,"lon":5.38542,"is_reserved":false,"is_disabled":false,"rental_uris":{"android":"levelo://app?vid=b10c9b3f-b40d-4bb4-8a2a-615ae445425d","ios":"levelo://app?vid=b10c9b3f-b40d-4bb4-8a2a-615ae445425d"},"vehicle_type_id":"4","last_reported":1748275916,"current_range_meters":16000,"station_id":"ce4bgih2rcd13ifvqba0","pricing_plan_id":"cebpf4jnsgd1na2vs0mg"},{"bike_id":"b3fe3b69-a2f6-4131-afb9-c94da900be2c","system_id":"levelo_inurba_marseille","lat":43.30215,"lon":5.39473,"is_reserved":false,"is_disabled":false,"rental_uris":{"android":"levelo://app?vid=b3fe3b69-a2f6-4131-afb9-c94da900be2c","ios":"levelo://app?vid=b3fe3b69-a2f6-4131-afb9-c94da900be2c"},"vehicle_type_id":"4","last_reported":1748275916,"current_range_meters":16000,"station_id":"ce4bh0p2rcd13ifvqd70","pricing_plan_id":"cebpf4jnsgd1na2vs0mg"},{"bike_id":"7c9cb328-d658-41ac-8b9f-fc46a0cd2fb7","system_id":"levelo_inurba_marseille","lat":43.28401,"lon":5.37515,"is_reserved":false,"is_disabled":false,"rental_uris":{"android":"levelo://app?vid=7c9cb328-d658-41ac-8b9f-fc46a0cd2fb7","ios":"levelo://app?vid=7c9cb328-d658-41ac-8b9f-fc46a0cd2fb7"},"vehicle_type_id":"4","last_reported":1748275916,"current_range_meters":16000,"station_id":"ce4bh412rcd13ifvqds0","pricing_plan_id":"cebpf4jnsgd1na2vs0mg"},{"bike_id":"a1604fc4-11be-44e0-9e40-71d3c01192fe","system_id":"levelo_inurba_marseille","lat":43.28036,"lon":5.36944,"is_reserved":false,"is_disabled":false,"rental_uris":{"android":"levelo://app?vid=a1604fc4-11be-44e0-9e40-71d3c01192fe","ios":"levelo://app?vid=a1604fc4-11be-44e0-9e40-71d3c01192fe"},"vehicle_type_id":"4","last_reported":1748275916,"current_range_meters":16000,"station_id":"ce4bha12rcd13ifvqef0","pricing_plan_id":"cebpf4jnsgd1na2vs0mg"},{"bike_id":"4500dcc1-4058-4628-99e9-bf500b45952b","system_id":"levelo_inurba_marseille","lat":43.24651,"lon":5.38893,"is_reserved":false,"is_disabled":false,"rental_uris":{"android":"levelo://app?vid=4500dcc1-4058-4628-99e9-bf500b45952b","ios":"levelo://app?vid=4500dcc1-4058-4628-99e9-bf500b45952b"},"vehicle_type_id":"4","last_reported":1748275916,"current_range_meters":16000,"station_id":"ce4bhg12rcd13ifvqf60","pricing_plan_id":"cebpf4jnsgd1na2vs0mg"},{"bike_id":"ba089e44-8e69-48cf-ae1d-e67b7ae6d238","system_id":"levelo_inurba_marseille","lat":43.26209,"lon":5.37433,"is_reserved":false,"is_disabled":false,"rental_uris":{"android":"levelo://app?vid=ba089e44-8e69-48cf-ae1d-e67b7ae6d238","ios":"levelo://app?vid=ba089e44-8e69-48cf-ae1d-e67b7ae6d238"},"vehicle_type_id":"4","last_reported":1748275916,"current_range_meters":16000,"station_id":"ce4bhgp2rcd13ifvqfc0","pricing_plan_id":"cebpf4jnsgd1na2vs0mg"},{"bike_id":"48cd0317-1c6f-4804-9cd1-21cb1ebe5af3","system_id":"levelo_inurba_marseille","lat":43.25497,"lon":5.37641,"is_reserved":false,"is_disabled":false,"rental_uris":{"android":"levelo://app?vid=48cd0317-1c6f-4804-9cd1-21cb1ebe5af3","ios":"levelo://app?vid=48cd0317-1c6f-4804-9cd1-21cb1ebe5af3"},"vehicle_type_id":"4","last_reported":1748275916,"current_range_meters":16000,"station_id":"ce4bhh12rcd13ifvqff0","pricing_plan_id":"cebpf4jnsgd1na2vs0mg"},{"bike_id":"2323797b-75aa-4077-9bf6-37f55f9e1e83","system_id":"levelo_inurba_marseille","lat":43.286011,"lon":5.379819,"is_reserved":false,"is_disabled":false,"rental_uris":{"android":"levelo://app?vid=2323797b-75aa-4077-9bf6-37f55f9e1e83","ios":"levelo://app?vid=2323797b-75aa-4077-9bf6-37f55f9e1e83"},"vehicle_type_id":"4","last_reported":1748275916,"current_range_meters":16000,"station_id":"ce4bhi12rcd13ifvqfo0","pricing_plan_id":"cebpf4jnsgd1na2vs0mg"},{"bike_id":"d69fa4d4-fca3-4b7a-9d97-e1e4785512b7","system_id":"levelo_inurba_marseille","lat":43.25098,"lon":5.3951,"is_reserved":false,"is_disabled":false,"rental_uris":{"android":"levelo://app?vid=d69fa4d4-fca3-4b7a-9d97-e1e4785512b7","ios":"levelo://app?vid=d69fa4d4-fca3-4b7a-9d97-e1e4785512b7"},"vehicle_type_id":"4","last_reported":1748275916,"current_range_meters":16000,"station_id":"ce4bhm12rcd13ifvqgkg","pricing_plan_id":"cebpf4jnsgd1na2vs0mg"},{"bike_id":"fa2d9970-e16e-4980-9c47-48965375583c","system_id":"levelo_inurba_marseille","lat":43.29279,"lon":5.40122,"is_reserved":false,"is_disabled":false,"rental_uris":{"android":"levelo://app?vid=fa2d9970-e16e-4980-9c47-48965375583c","ios":"levelo://app?vid=fa2d9970-e16e-4980-9c47-48965375583c"},"vehicle_type_id":"4","last_reported":1748275916,"current_range_meters":16400,"station_id":"ce4bh312rcd13ifvqdk0","pricing_plan_id":"cebpf4jnsgd1na2vs0mg"},{"bike_id":"c6eaf893-6d38-48c8-aa81-0fb5661575f0","system_id":"levelo_inurba_marseille","lat":43.28698,"lon":5.39992,"is_reserved":false,"is_disabled":false,"rental_uris":{"android":"levelo://app?vid=c6eaf893-6d38-48c8-aa81-0fb5661575f0","ios":"levelo://app?vid=c6eaf893-6d38-48c8-aa81-0fb5661575f0"},"vehicle_type_id":"4","last_reported":1748275916,"current_range_meters":16400,"station_id":"ce4bho92rcd13ifvqh3g","pricing_plan_id":"cebpf4jnsgd1na2vs0mg"},{"bike_id":"8dd88446-c109-43b3-a107-2b4a6e1b330a","system_id":"levelo_inurba_marseille","lat":43.31717,"lon":5.43706,"is_reserved":false,"is_disabled":false,"rental_uris":{"android":"levelo://app?vid=8dd88446-c109-43b3-a107-2b4a6e1b330a","ios":"levelo://app?vid=8dd88446-c109-43b3-a107-2b4a6e1b330a"},"vehicle_type_id":"4","last_reported":1748275916,"current_range_meters":16400,"station_id":"ce4bhp92rcd13ifvqhcg","pricing_plan_id":"cebpf4jnsgd1na2vs0mg"},{"bike_id":"16bd752d-c138-4574-af48-160e183676bc","system_id":"levelo_inurba_marseille","lat":43.24177,"lon":5.36392,"is_reserved":false,"is_disabled":false,"rental_uris":{"android":"levelo://app?vid=16bd752d-c138-4574-af48-160e183676bc","ios":"levelo://app?vid=16bd752d-c138-4574-af48-160e183676bc"},"vehicle_type_id":"4","last_reported":1748275916,"current_range_meters":16400,"station_id":"cpo36qri1sfpv3e86is0","pricing_plan_id":"cebpf4jnsgd1na2vs0mg"},{"bike_id":"2908bb99-d973-4d3f-9702-35f6fa61c3b5","system_id":"levelo_inurba_marseille","lat":43.21748,"lon":5.34606,"is_reserved":false,"is_disabled":false,"rental_uris":{"android":"levelo://app?vid=2908bb99-d973-4d3f-9702-35f6fa61c3b5","ios":"levelo://app?vid=2908bb99-d973-4d3f-9702-35f6fa61c3b5"},"vehicle_type_id":"4","last_reported":1748275916,"current_range_meters":16400,"station_id":"st_cvj6r9ubvosntc0bgbag","pricing_plan_id":"cebpf4jnsgd1na2vs0mg"},{"bike_id":"ceb81090-b40e-47dd-bc35-8598d269ef58","system_id":"levelo_inurba_marseille","lat":43.26663,"lon":5.38431,"is_reserved":false,"is_disabled":false,"rental_uris":{"android":"levelo://app?vid=ceb81090-b40e-47dd-bc35-8598d269ef58","ios":"levelo://app?vid=ceb81090-b40e-47dd-bc35-8598d269ef58"},"vehicle_type_id":"4","last_reported":1748275916,"current_range_meters":16800,"station_id":"","pricing_plan_id":"cebpf4jnsgd1na2vs0mg"},{"bike_id":"c3edfede-9ab8-45b2-823a-9113168e6834","system_id":"levelo_inurba_marseille","lat":43.28854,"lon":5.3586,"is_reserved":false,"is_disabled":false,"rental_uris":{"android":"levelo://app?vid=c3edfede-9ab8-45b2-823a-9113168e6834","ios":"levelo://app?vid=c3edfede-9ab8-45b2-823a-9113168e6834"},"vehicle_type_id":"4","last_reported":1748275916,"current_range_meters":16800,"station_id":"ce4bhb12rcd13ifvqem0","pricing_plan_id":"cebpf4jnsgd1na2vs0mg"},{"bike_id":"24695fcc-1634-4887-9a04-00f71eb609f0","system_id":"levelo_inurba_marseille","lat":43.2319,"lon":5.39989,"is_reserved":false,"is_disabled":false,"rental_uris":{"android":"levelo://app?vid=24695fcc-1634-4887-9a04-00f71eb609f0","ios":"levelo://app?vid=24695fcc-1634-4887-9a04-00f71eb609f0"},"vehicle_type_id":"4","last_reported":1748275916,"current_range_meters":16800,"station_id":"ce4bhn12rcd13ifvqgqg","pricing_plan_id":"cebpf4jnsgd1na2vs0mg"},{"bike_id":"30e949a6-9a21-45c6-8b78-d17c7d943515","system_id":"levelo_inurba_marseille","lat":43.26809,"lon":5.40263,"is_reserved":false,"is_disabled":false,"rental_uris":{"android":"levelo://app?vid=30e949a6-9a21-45c6-8b78-d17c7d943515","ios":"levelo://app?vid=30e949a6-9a21-45c6-8b78-d17c7d943515"},"vehicle_type_id":"4","last_reported":1748275916,"current_range_meters":16800,"station_id":"ce501612rcd8frsf0b60","pricing_plan_id":"cebpf4jnsgd1na2vs0mg"},{"bike_id":"7e9a5916-5dd4-47a0-819e-c8f8dbbe9d74","system_id":"levelo_inurba_marseille","lat":43.229357,"lon":5.353851,"is_reserved":false,"is_disabled":false,"rental_uris":{"android":"levelo://app?vid=7e9a5916-5dd4-47a0-819e-c8f8dbbe9d74","ios":"levelo://app?vid=7e9a5916-5dd4-47a0-819e-c8f8dbbe9d74"},"vehicle_type_id":"4","last_reported":1748275916,"current_range_meters":16800,"station_id":"cpo3532slgdg3j2ikp40","pricing_plan_id":"cebpf4jnsgd1na2vs0mg"},{"bike_id":"90823fe5-9418-45f4-b9cb-b769d3dab4d0","system_id":"levelo_inurba_marseille","lat":43.29712,"lon":5.36592,"is_reserved":false,"is_disabled":false,"rental_uris":{"android":"levelo://app?vid=90823fe5-9418-45f4-b9cb-b769d3dab4d0","ios":"levelo://app?vid=90823fe5-9418-45f4-b9cb-b769d3dab4d0"},"vehicle_type_id":"4","last_reported":1748275916,"current_range_meters":17200,"station_id":"ce4bgn12rcd13ifvqbt0","pricing_plan_id":"cebpf4jnsgd1na2vs0mg"},{"bike_id":"f002af81-a54c-4c64-8660-0aecd90cee38","system_id":"levelo_inurba_marseille","lat":43.29265,"lon":5.38438,"is_reserved":false,"is_disabled":false,"rental_uris":{"android":"levelo://app?vid=f002af81-a54c-4c64-8660-0aecd90cee38","ios":"levelo://app?vid=f002af81-a54c-4c64-8660-0aecd90cee38"},"vehicle_type_id":"4","last_reported":1748275916,"current_range_meters":17200,"station_id":"ce4bh692rcd13ifvqea0","pricing_plan_id":"cebpf4jnsgd1na2vs0mg"},{"bike_id":"b6b3c91f-578d-4ae3-9eb1-cb68c4af869a","system_id":"levelo_inurba_marseille","lat":43.27376,"lon":5.36255,"is_reserved":false,"is_disabled":false,"rental_uris":{"android":"levelo://app?vid=b6b3c91f-578d-4ae3-9eb1-cb68c4af869a","ios":"levelo://app?vid=b6b3c91f-578d-4ae3-9eb1-cb68c4af869a"},"vehicle_type_id":"4","last_reported":1748275916,"current_range_meters":17200,"station_id":"ce4bhbh2rcd13ifvqeo0","pricing_plan_id":"cebpf4jnsgd1na2vs0mg"},