{"last_updated":1702411656,"ttl":30,"version":"2.2","data":{"bikes":[{"bike_id":"8f95410e-5846-4c4a-b5d5-606e8bf15508","system_id":"levelo_inurba_marseille","lat":43.309076,"lon":5.368465,"is_reserved":false,"is_disabled":false,"rental_uris":{"android":"levelo://app?vid=8f95410e-5846-4c4a-b5d5-606e8bf15508","ios":"levelo://app?vid=8f95410e-5846-4c4a-b5d5-606e8bf15508"},"vehicle_type_id":"4","last_reported":1702411656,"current_range_meters":19600,"station_id":"ce4bgn92rcd13ifvqbvg","pricing_plan_id":"free"},{"bike_id":"51680990-549e-4510-9532-27e16a6557bd","system_id":"levelo_inurba_marseille","lat":43.309076,"lon":5.368465,"is_reserved":false,"is_disabled":false,"rental_uris":{"android":"levelo://app?vid=51680990-549e-4510-9532-27e16a6557bd","ios":"levelo://app?vid=51680990-549e-4510-9532-27e16a6557bd"},"vehicle_type_id":"4","last_reported":1702411656,"current_range_meters":10800,"station_id":"ce4bgn92rcd13ifvqbvg","pricing_plan_id":"free"},{"bike_id":"f601babd-3d1d-41ce-91e8-d6a701c2085f","system_id":"levelo_inurba_marseille","lat":43.309076,"lon":5.368465,"is_reserved":false,"is_disabled":false,"rental_uris":{"android":"levelo://app?vid=f601babd-3d1d-41ce-91e8-d6a701c2085f","ios":"levelo://app?vid=f601babd-3d1d-41ce-91e8-d6a701c2085f"},"vehicle_type_id":"4","last_reported":1702411656,"current_range_meters":8000,"station_id":"ce4bgn92rcd13ifvqbvg","pricing_plan_id":"free"},{"bike_id":"fa71a62c-8ab2-44fc-853a-b7c2085191ea","system_id":"levelo_inurba_marseille","lat":43.309039,"lon":5.371797,"is_reserved":false,"is_disabled":false,"rental_uris":{"android":"levelo://app?vid=fa71a62c-8ab2-44fc-853a-b7c2085191ea","ios":"levelo://app?vid=fa71a62c-8ab2-44fc-853a-b7c2085191ea"},"vehicle_type_id":"4","last_reported":1702411656,"current_range_meters":5200,"station_id":"ce4bguh2rcd13ifvqckg","pricing_plan_id":"free"},{"bike_id":"276dd448-3f14-4c5a-abf2-3f5e5f3a491e","system_id":"levelo_inurba_marseille","lat":43.305339,"lon":5.367347,"is_reserved":false,"is_disabled":false,"rental_uris":{"android":"levelo://app?vid=276dd448-3f14-4c5a-abf2-3f5e5f3a491e","ios":"levelo://app?vid=276dd448-3f14-4c5a-abf2-3f5e5f3a491e"},"vehicle_type_id":"4","last_reported":1702411656,"current_range_meters":22000,"station_id":"ce4bgrp2rcd13ifvqc9g","pricing_plan_id":"free"},{"bike_id":"955e4ab2-16e5-44e8-a986-a2f50ff96c06","system_id":"levelo_inurba_marseille","lat":43.305382,"lon":5.365389,"is_reserved":false,"is_disabled":false,"rental_uris":{"android":"levelo://app?vid=955e4ab2-16e5-44e8-a986-a2f50ff96c06","ios":"levelo://app?vid=955e4ab2-16e5-44e8-a986-a2f50ff96c06"},"vehicle_type_id":"4","last_reported":1702411656,"current_range_meters":29600,"station_id":"","pricing_plan_id":"free"},{"bike_id":"dc68debd-6203-4696-b9a5-55eea857c5a0","system_id":"levelo_inurba_marseille","lat":43.317167,"lon":5.376783,"is_reserved":false,"is_disabled":false,"rental_uris":{"android":"levelo://app?vid=dc68debd-6203-4696-b9a5-55eea857c5a0","ios":"levelo://app?vid=dc68debd-6203-4696-b9a5-55eea857c5a0"},"vehicle_type_id":"4","last_reported":1702411656,"current_range_meters":26800,"station_id":"ce4bgth2rcd13ifvqch0","pricing_plan_id":"free"},{"bike_id":"53f7a3f6-4c3f-4842-a5fb-6bd67f8e160e","system_id":"levelo_inurba_marseille","lat":43.303046,"lon":5.368981,"is_reserved":false,"is_disabled":false,"rental_uris":{"android":"levelo://app?vid=53f7a3f6-4c3f-4842-a5fb-6bd67f8e160e","ios":"levelo://app?vid=53f7a3f6-4c3f-4842-a5fb-6bd67f8e160e"},"vehicle_type_id":"4","last_reported":1702411656,"current_range_meters":14400,"station_id":"ce4bgqh2rcd13ifvqc5g","pricing_plan_id":"free"},{"bike_id":"bc4a43e8-ca8d-4828-9276-4045f150cf80","system_id":"levelo_inurba_marseille","lat":43.303046,"lon":5.368981,"is_reserved":false,"is_disabled":false,"rental_uris":{"android":"levelo://app?vid=bc4a43e8-ca8d-4828-9276-4045f150cf80","ios":"levelo://app?vid=bc4a43e8-ca8d-4828-9276-4045f150cf80"},"vehicle_type_id":"4","last_reported":1702411656,"current_range_meters":9600,"station_id":"ce4bgqh2rcd13ifvqc5g","pricing_plan_id":"free"},{"bike_id":"9586a073-33c9-444f-8d14-8e114629d888","system_id":"levelo_inurba_marseille","lat":43.303046,"lon":5.368981,"is_reserved":false,"is_disabled":false,"rental_uris":{"android":"levelo://app?vid=9586a073-33c9-444f-8d14-8e114629d888","ios":"levelo://app?vid=9586a073-33c9-444f-8d14-8e114629d888"},"vehicle_type_id":"4","last_reported":1702411656,"current_range_meters":21600,"station_id":"ce4bgqh2rcd13ifvqc5g","pricing_plan_id":"free"},{"bike_id":"54734980-c88d-4a1c-b2f1-dccd4095275f","system_id":"levelo_inurba_marseille","lat":43.303046,"lon":5.368981,"is_reserved":false,"is_disabled":false,"rental_uris":{"android":"levelo://app?vid=54734980-c88d-4a1c-b2f1-dccd4095275f","ios":"levelo://app?vid=54734980-c88d-4a1c-b2f1-dccd4095275f"},"vehicle_type_id":"4","last_reported":1702411656,"current_range_meters":9200,"station_id":"ce4bgqh2rcd13ifvqc5g","pricing_plan_id":"free"},{"bike_id":"09cdc52a-88e7-4ff5-a918-73a3f7a02152","system_id":"levelo_inurba_marseille","lat":43.30304,"lon":5.368987,"is_reserved":false,"is_disabled":false,"rental_uris":{"android":"levelo://app?vid=09cdc52a-88e7-4ff5-a918-73a3f7a02152","ios":"levelo://app?vid=09cdc52a-88e7-4ff5-a918-73a3f7a02152"},"vehicle_type_id":"4","last_reported":1702411656,"current_range_meters":15600,"station_id":"ce4bgqh2rcd13ifvqc5g","pricing_plan_id":"free"},{"bike_id":"095e613d-cad0-42d0-b9c1-1c89b5ade2e5","system_id":"levelo_inurba_marseille","lat":43.303046,"lon":5.368981,"is_reserved":false,"is_disabled":false,"rental_uris":{"android":"levelo://app?vid=095e613d-cad0-42d0-b9c1-1c89b5ade2e5","ios":"levelo://app?vid=095e613d-cad0-42d0-b9c1-1c89b5ade2e5"},"vehicle_type_id":"4","last_reported":1702411656,"current_range_meters":18000,"station_id":"ce4bgqh2rcd13ifvqc5g","pricing_plan_id":"free"},{"bike_id":"8f81567e-2bb9-4924-a767-22ab3d053b21","system_id":"levelo_inurba_marseille","lat":43.30314,"lon":5.37393,"is_reserved":false,"is_disabled":false,"rental_uris":{"android":"levelo://app?vid=8f81567e-2bb9-4924-a767-22ab3d053b21","ios":"levelo://app?vid=8f81567e-2bb9-4924-a767-22ab3d053b21"},"vehicle_type_id":"4","last_reported":1702411656,"current_range_meters":0,"station_id":"","pricing_plan_id":"free"},{"bike_id":"6f8a43e6-db50-4acb-8137-342307d3af14","system_id":"levelo_inurba_marseille","lat":43.30464,"lon":5.37901,"is_reserved":false,"is_disabled":false,"rental_uris":{"android":"levelo://app?vid=6f8a43e6-db50-4acb-8137-342307d3af14","ios":"levelo://app?vid=6f8a43e6-db50-4acb-8137-342307d3af14"},"vehicle_type_id":"4","last_reported":1702411656,"current_range_meters":2800,"station_id":"ce4bgup2rcd13ifvqcn0","pricing_plan_id":"free"},{"bike_id":"aa3cdc10-a2b4-4348-a58d-ea513d683fe2","system_id":"levelo_inurba_marseille","lat":43.32475,"lon":5.36563,"is_reserved":false,"is_disabled":false,"rental_uris":{"android":"levelo://app?vid=aa3cdc10-a2b4-4348-a58d-ea513d683fe2","ios":"levelo://app?vid=aa3cdc10-a2b4-4348-a58d-ea513d683fe2"},"vehicle_type_id":"4","last_reported":1702411656,"current_range_meters":24400,"station_id":"ce4bhs12rcd13ifvqhvg","pricing_plan_id":"free"},{"bike_id":"4c7ecad3-d973-4057-a20a-bd7fc2959028","system_id":"levelo_inurba_marseille","lat":43.313571,"lon":5.384829,"is_reserved":false,"is_disabled":false,"rental_uris":{"android":"levelo://app?vid=4c7ecad3-d973-4057-a20a-bd7fc2959028","ios":"levelo://app?vid=4c7ecad3-d973-4057-a20a-bd7fc2959028"},"vehicle_type_id":"4","last_reported":1702411656,"current_range_meters":23600,"station_id":"ce4bgt92rcd13ifvqcf0","pricing_plan_id":"free"},{"bike_id":"63cbfe69-72a7-426e-8ae3-401a680a6583","system_id":"levelo_inurba_marseille","lat":43.313571,"lon":5.384829,"is_reserved":false,"is_disabled":false,"rental_uris":{"android":"levelo://app?vid=63cbfe69-72a7-426e-8ae3-401a680a6583","ios":"levelo://app?vid=63cbfe69-72a7-426e-8ae3-401a680a6583"},"vehicle_type_id":"4","last_reported":1702411656,"current_range_meters":28400,"station_id":"ce4bgt92rcd13ifvqcf0","pricing_plan_id":"free"},{"bike_id":"c3b8833e-53ff-45a0-b0cf-ec8811ace9df","system_id":"levelo_inurba_marseille","lat":43.299724,"lon":5.371829,"is_reserved":false,"is_disabled":false,"rental_uris":{"android":"levelo://app?vid=c3b8833e-53ff-45a0-b0cf-ec8811ace9df","ios":"levelo://app?vid=c3b8833e-53ff-45a0-b0cf-ec8811ace9df"},"vehicle_type_id":"4","last_reported":1702411656,"current_range_meters":4000,"station_id":"ce4bgr92rcd13ifvqc7g","pricing_plan_id":"free"},{"bike_id":"77a6c46d-d898-4e4f-8846-efa91689c7f0","system_id":"levelo_inurba_marseille","lat":43.302006,"lon":5.38065,"is_reserved":false,"is_disabled":false,"rental_uris":{"android":"levelo://app?vid=77a6c46d-d898-4e4f-8846-efa91689c7f0","ios":"levelo://app?vid=77a6c46d-d898-4e4f-8846-efa91689c7f0"},"vehicle_type_id":"4","last_reported":1702411656,"current_range_meters":0,"station_id":"","pricing_plan_id":"free"},{"bike_id":"3afbdb8c-92db-4c57-ad4e-90de64ad0150","system_id":"levelo_inurba_marseille","lat":43.31172,"lon":5.38714,"is_reserved":false,"is_disabled":false,"rental_uris":{"android":"levelo://app?vid=3afbdb8c-92db-4c57-ad4e-90de64ad0150","ios":"levelo://app?vid=3afbdb8c-92db-4c57-ad4e-90de64ad0150"},"vehicle_type_id":"4","last_reported":1702411656,"current_range_meters":0,"station_id":"ce4bgv12rcd13ifvqcp0","pricing_plan_id":"free"},{"bike_id":"e4490579-0281-45ed-b1b1-9f40e3e9e266","system_id":"levelo_inurba_marseille","lat":43.297794,"lon":5.370888,"is_reserved":false,"is_disabled":false,"rental_uris":{"android":"levelo://app?vid=e4490579-0281-45ed-b1b1-9f40e3e9e266","ios":"levelo://app?vid=e4490579-0281-45ed-b1b1-9f40e3e9e266"},"vehicle_type_id":"4","last_reported":1702411656,"current_range_meters":11600,"station_id":"ce4bgop2rcd13ifvqc1g","pricing_plan_id":"free"},{"bike_id":"ef62d099-880c-48b4-a857-30e56a94bd16","system_id":"levelo_inurba_marseille","lat":43.32284,"lon":5.38268,"is_reserved":false,"is_disabled":false,"rental_uris":{"android":"levelo://app?vid=ef62d099-880c-48b4-a857-30e56a94bd16","ios":"levelo://app?vid=ef62d099-880c-48b4-a857-30e56a94bd16"},"vehicle_type_id":"4","last_reported":1702411656,"current_range_meters":6000,"station_id":"ce4bhr12rcd13ifvqhqg","pricing_plan_id":"free"},{"bike_id":"fcc3a406-8219-4d19-a1b2-f9d5a2feeb13","system_id":"levelo_inurba_marseille","lat":43.322872,"lon":5.382756,"is_reserved":false,"is_disabled":false,"rental_uris":{"android":"levelo://app?vid=fcc3a406-8219-4d19-a1b2-f9d5a2feeb13","ios":"levelo://app?vid=fcc3a406-8219-4d19-a1b2-f9d5a2feeb13"},"vehicle_type_id":"4","last_reported":1702411656,"current_range_meters":28000,"station_id":"ce4bhr12rcd13ifvqhqg","pricing_plan_id":"free"},{"bike_id":"4e6dcc4f-3405-416d-8522-8318837508c0","system_id":"levelo_inurba_marseille","lat":43.322993,"lon":5.382527,"is_reserved":false,"is_disabled":false,"rental_uris":{"android":"levelo://app?vid=4e6dcc4f-3405-416d-8522-8318837508c0","ios":"levelo://app?vid=4e6dcc4f-3405-416d-8522-8318837508c0"},"vehicle_type_id":"4","last_reported":1702411656,"current_range_meters":7200,"station_id":"ce4bhr12rcd13ifvqhqg","pricing_plan_id":"free"},{"bike_id":"7c5c6212-95e6-412b-bba0-e6e1e8f7e4ca","system_id":"levelo_inurba_marseille","lat":43.322872,"lon":5.382756,"is_reserved":false,"is_disabled":false,"rental_uris":{"android":"levelo://app?vid=7c5c6212-95e6-412b-bba0-e6e1e8f7e4ca","ios":"levelo://app?vid=7c5c6212-95e6-412b-bba0-e6e1e8f7e4ca"},"vehicle_type_id":"4","last_reported":1702411656,"current_range_meters":20400,"station_id":"ce4bhr12rcd13ifvqhqg","pricing_plan_id":"free"},{"bike_id":"e3935d40-6844-4fe8-8a96-631442334792","system_id":"levelo_inurba_marseille","lat":43.328371,"lon":5.366909,"is_reserved":false,"is_disabled":false,"rental_uris":{"android":"levelo://app?vid=e3935d40-6844-4fe8-8a96-631442334792","ios":"levelo://app?vid=e3935d40-6844-4fe8-8a96-631442334792"},"vehicle_type_id":"4","last_reported":1702411656,"current_range_meters":2000,"station_id":"ce4bhs92rcd13ifvqi0g","pricing_plan_id":"free"},{"bike_id":"f6a62362-1831-4aa5-9227-c5f949743ee8","system_id":"levelo_inurba_marseille","lat":43.328371,"lon":5.366909,"is_reserved":false,"is_disabled":false,"rental_uris":{"android":"levelo://app?vid=f6a62362-1831-4aa5-9227-c5f949743ee8","ios":"levelo://app?vid=f6a62362-1831-4aa5-9227-c5f949743ee8"},"vehicle_type_id":"4","last_reported":1702411656,"current_range_meters":2400,"station_id":"ce4bhs92rcd13ifvqi0g","pricing_plan_id":"free"},{"bike_id":"1cac8cc5-9f2f-41c0-b58c-c533383c8290","system_id":"levelo_inurba_marseille","lat":43.2968,"lon":5.37291,"is_reserved":false,"is_disabled":false,"rental_uris":{"android":"levelo://app?vid=1cac8cc5-9f2f-41c0-b58c-c533383c8290","ios":"levelo://app?vid=1cac8cc5-9f2f-41c0-b58c-c533383c8290"},"vehicle_type_id":"4","last_reported":1702411656,"current_range_meters":13200,"station_id":"ce4bgk12rcd13ifvqbj0","pricing_plan_id":"free"},{"bike_id":"7a878ee5-6910-45dd-b3bd-722059d35da7","system_id":"levelo_inurba_marseille","lat":43.29787,"lon":5.37679,"is_reserved":false,"is_disabled":false,"rental_uris":{"android":"levelo://app?vid=7a878ee5-6910-45dd-b3bd-722059d35da7","ios":"levelo://app?vid=7a878ee5-6910-45dd-b3bd-722059d35da7"},"vehicle_type_id":"4","last_reported":1702411656,"current_range_meters":12000,"station_id":"","pricing_plan_id":"free"},{"bike_id":"35b776f1-1258-4a9e-bc06-8e162e2ab3c0","system_id":"levelo_inurba_marseille","lat":43.296129,"lon":5.370777,"is_reserved":false,"is_disabled":false,"rental_uris":{"android":"levelo://app?vid=35b776f1-1258-4a9e-bc06-8e162e2ab3c0","ios":"levelo://app?vid=35b776f1-1258-4a9e-bc06-8e162e2ab3c0"},"vehicle_type_id":"4","last_reported":1702411656,"current_range_meters":19200,"station_id":"ce4bgnh2rcd13ifvqc0g","pricing_plan_id":"free"},{"bike_id":"3aba5a87-1014-43aa-9f67-c244d6caee15","system_id":"levelo_inurba_marseille","lat":43.296129,"lon":5.370777,"is_reserved":false,"is_disabled":false,"rental_uris":{"android":"levelo://app?vid=3aba5a87-1014-43aa-9f67-c244d6caee15","ios":"levelo://app?vid=3aba5a87-1014-43aa-9f67-c244d6caee15"},"vehicle_type_id":"4","last_reported":1702411656,"current_range_meters":11200,"station_id":"ce4bgnh2rcd13ifvqc0g","pricing_plan_id":"free"},{"bike_id":"9cc52bfe-74ba-4d28-a57d-af6581674b4a","system_id":"levelo_inurba_marseille","lat":43.299028,"lon":5.381509,"is_reserved":false,"is_disabled":false,"rental_uris":{"android":"levelo://app?vid=9cc52bfe-74ba-4d28-a57d-af6581674b4a","ios":"levelo://app?vid=9cc52bfe-74ba-4d28-a57d-af6581674b4a"},"vehicle_type_id":"4","last_reported":1702411656,"current_range_meters":24400,"station_id":"ce4bgj12rcd13ifvqbc0","pricing_plan_id":"free"},{"bike_id":"12deaa88-d271-4606-aa02-2b16fcaa2cda","system_id":"levelo_inurba_marseille","lat":43.317557,"lon":5.390173,"is_reserved":false,"is_disabled":false,"rental_uris":{"android":"levelo://app?vid=12deaa88-d271-4606-aa02-2b16fcaa2cda","ios":"levelo://app?vid=12deaa88-d271-4606-aa02-2b16fcaa2cda"},"vehicle_type_id":"4","last_reported":1702411656,"current_range_meters":13200,"station_id":"ce4bhqp2rcd13ifvqhng","pricing_plan_id":"free"},{"bike_id":"4adaf25a-718b-4d95-9379-c936a6ac3120","system_id":"levelo_inurba_marseille","lat":43.298037,"lon":5.381066,"is_reserved":false,"is_disabled":false,"rental_uris":{"android":"levelo://app?vid=4adaf25a-718b-4d95-9379-c936a6ac3120","ios":"levelo://app?vid=4adaf25a-718b-4d95-9379-c936a6ac3120"},"vehicle_type_id":"4","last_reported":1702411656,"current_range_meters":0,"station_id":"ce4bgip2rcd13ifvqbb0","pricing_plan_id":"free"},{"bike_id":"d1707138-0103-4aa5-abe9-c88447792316","system_id":"levelo_inurba_marseille","lat":43.304274,"lon":5.388873,"is_reserved":false,"is_disabled":false,"rental_uris":{"android":"levelo://app?vid=d1707138-0103-4aa5-abe9-c88447792316","ios":"levelo://app?vid=d1707138-0103-4aa5-abe9-c88447792316"},"vehicle_type_id":"4","last_reported":1702411656,"current_range_meters":0,"station_id":"ce4bgk12rcd13ifvqbi0","pricing_plan_id":"free"},{"bike_id":"fb0e77c2-5a18-4107-9008-29501d1a3f22","system_id":"levelo_inurba_marseille","lat":43.29639,"lon":5.38092,"is_reserved":false,"is_disabled":false,"rental_uris":{"android":"levelo://app?vid=fb0e77c2-5a18-4107-9008-29501d1a3f22","ios":"levelo://app?vid=fb0e77c2-5a18-4107-9008-29501d1a3f22"},"vehicle_type_id":"4","last_reported":1702411656,"current_range_meters":1600,"station_id":"ce4bgl12rcd13ifvqbo0","pricing_plan_id":"free"},{"bike_id":"d03092f9-45fc-4d51-a3f6-86554dcd2643","system_id":"levelo_inurba_marseille","lat":43.32367,"lon":5.38878,"is_reserved":false,"is_disabled":false,"rental_uris":{"android":"levelo://app?vid=d03092f9-45fc-4d51-a3f6-86554dcd2643","ios":"levelo://app?vid=d03092f9-45fc-4d51-a3f6-86554dcd2643"},"vehicle_type_id":"4","last_reported":1702411656,"current_range_meters":12800,"station_id":"ce4bhqp2rcd13ifvqhog","pricing_plan_id":"free"},{"bike_id":"9fafa219-4010-46ac-a092-39e6cd5dabf7","system_id":"levelo_inurba_marseille","lat":43.32364,"lon":5.38882,"is_reserved":false,"is_disabled":false,"rental_uris":{"android":"levelo://app?vid=9fafa219-4010-46ac-a092-39e6cd5dabf7","ios":"levelo://app?vid=9fafa219-4010-46ac-a092-39e6cd5dabf7"},"vehicle_type_id":"4","last_reported":1702411656,"current_range_meters":20000,"station_id":"ce4bhqp2rcd13ifvqhog","pricing_plan_id":"free"},{"bike_id":"bff9db26-45f0-4d89-be98-df76335b799a","system_id":"levelo_inurba_marseille","lat":43.32367,"lon":5.388836,"is_reserved":false,"is_disabled":false,"rental_uris":{"android":"levelo://app?vid=bff9db26-45f0-4d89-be98-df76335b799a","ios":"levelo://app?vid=bff9db26-45f0-4d89-be98-df76335b799a"},"vehicle_type_id":"4","last_reported":1702411656,"current_range_meters":21200,"station_id":"ce4bhqp2rcd13ifvqhog","pricing_plan_id":"free"},{"bike_id":"e21449cc-7dda-41eb-ab3b-53f8c555e13b","system_id":"levelo_inurba_marseille","lat":43.293259,"lon":5.371586,"is_reserved":false,"is_disabled":false,"rental_uris":{"android":"levelo://app?vid=e21449cc-7dda-41eb-ab3b-53f8c555e13b","ios":"levelo://app?vid=e21449cc-7dda-41eb-ab3b-53f8c555e13b"},"vehicle_type_id":"4","last_reported":1702411656,"current_range_meters":5200,"station_id":"ce4bgh92rcd13ifvqb40","pricing_plan_id":"free"},{"bike_id":"66ea0dbe-09ee-4edb-8e80-8dbefa078241","system_id":"levelo_inurba_marseille","lat":43.292311,"lon":5.360731,"is_reserved":false,"is_disabled":false,"rental_uris":{"android":"levelo://app?vid=66ea0dbe-09ee-4edb-8e80-8dbefa078241","ios":"levelo://app?vid=66ea0dbe-09ee-4edb-8e80-8dbefa078241"},"vehicle_type_id":"4","last_reported":1702411656,"current_range_meters":26400,"station_id":"ce4bhbh2rcd13ifvqeqg","pricing_plan_id":"free"},{"bike_id":"07173700-8a57-43e7-a370-33dcb5285656","system_id":"levelo_inurba_marseille","lat":43.292311,"lon":5.360731,"is_reserved":false,"is_disabled":false,"rental_uris":{"android":"levelo://app?vid=07173700-8a57-43e7-a370-33dcb5285656","ios":"levelo://app?vid=07173700-8a57-43e7-a370-33dcb5285656"},"vehicle_type_id":"4","last_reported":1702411656,"current_range_meters":12000,"station_id":"ce4bhbh2rcd13ifvqeqg","pricing_plan_id":"free"},{"bike_id":"7342a934-abc6-4456-849d-535c0a2a9ca6","system_id":"levelo_inurba_marseille","lat":43.30085,"lon":5.390856,"is_reserved":false,"is_disabled":false,"rental_uris":{"android":"levelo://app?vid=7342a934-abc6-4456-849d-535c0a2a9ca6","ios":"levelo://app?vid=7342a934-abc6-4456-849d-535c0a2a9ca6"},"vehicle_type_id":"4","last_reported":1702411656,"current_range_meters":14000,"station_id":"ce4bh192rcd13ifvqdb0","pricing_plan_id":"free"},{"bike_id":"9e4cf76d-c710-4c91-9ea9-c47bb94b11d1","system_id":"levelo_inurba_marseille","lat":43.292663,"lon":5.376394,"is_reserved":false,"is_disabled":false,"rental_uris":{"android":"levelo://app?vid=9e4cf76d-c710-4c91-9ea9-c47bb94b11d1","ios":"levelo://app?vid=9e4cf76d-c710-4c91-9ea9-c47bb94b11d1"},"vehicle_type_id":"4","last_reported":1702411656,"current_range_meters":1600,"station_id":"ce4bgi12rcd13ifvqb80","pricing_plan_id":"free"},{"bike_id":"f549a9a6-1fe4-4213-951d-0e18a49331f5","system_id":"levelo_inurba_marseille","lat":43.291643,"lon":5.371524,"is_reserved":false,"is_disabled":false,"rental_uris":{"android":"levelo://app?vid=f549a9a6-1fe4-4213-951d-0e18a49331f5","ios":"levelo://app?vid=f549a9a6-1fe4-4213-951d-0e18a49331f5"},"vehicle_type_id":"4","last_reported":1702411656,"current_range_meters":0,"station_id":"ce4bha92rcd13ifvqeh0","pricing_plan_id":"free"},{"bike_id":"55093b44-a7af-41a6-82a2-1658257b03fa","system_id":"levelo_inurba_marseille","lat":43.29867,"lon":5.38902,"is_reserved":false,"is_disabled":false,"rental_uris":{"android":"levelo://app?vid=55093b44-a7af-41a6-82a2-1658257b03fa","ios":"levelo://app?vid=55093b44-a7af-41a6-82a2-1658257b03fa"},"vehicle_type_id":"4","last_reported":1702411656,"current_range_meters":20000,"station_id":"","pricing_plan_id":"free"},{"bike_id":"ab5d3775-6e94-4df6-9c6b-38153607be3d","system_id":"levelo_inurba_marseille","lat":43.30899,"lon":5.39614,"is_reserved":false,"is_disabled":false,"rental_uris":{"android":"levelo://app?vid=ab5d3775-6e94-4df6-9c6b-38153607be3d","ios":"levelo://app?vid=ab5d3775-6e94-4df6-9c6b-38153607be3d"},"vehicle_type_id":"4","last_reported":1702411656,"current_range_meters":22800,"station_id":"ce4bh012rcd13ifvqcv0","pricing_plan_id":"free"},{"bike_id":"0b366e26-8227-4363-87b8-44957b073095","system_id":"levelo_inurba_marseille","lat":43.30886,"lon":5.39637,"is_reserved":false,"is_disabled":false,"rental_uris":{"android":"levelo://app?vid=0b366e26-8227-4363-87b8-44957b073095","ios":"levelo://app?vid=0b366e26-8227-4363-87b8-44957b073095"},"vehicle_type_id":"4","last_reported":1702411656,"current_range_meters":29200,"station_id":"ce4bh012rcd13ifvqcv0","pricing_plan_id":"free"},{"bike_id":"e99f1b65-5183-430b-afcb-35c171269e43","system_id":"levelo_inurba_marseille","lat":43.309038,"lon":5.396546,"is_reserved":false,"is_disabled":false,"rental_uris":{"android":"levelo://app?vid=e99f1b65-5183-430b-afcb-35c171269e43","ios":"levelo://app?vid=e99f1b65-5183-430b-afcb-35c171269e43"},"vehicle_type_id":"4","last_reported":1702411656,"current_range_meters":12800,"station_id":"ce4bh012rcd13ifvqcv0","pricing_plan_id":"free"},{"bike_id":"d26174aa-83c9-4864-950d-e3c84cae543f","system_id":"levelo_inurba_marseille","lat":43.31326,"lon":5.3969,"is_reserved":false,"is_disabled":false,"rental_uris":{"android":"levelo://app?vid=d26174aa-83c9-4864-950d-e3c84cae543f","ios":"levelo://app?vid=d26174aa-83c9-4864-950d-e3c84cae543f"},"vehicle_type_id":"4","last_reported":1702411656,"current_range_meters":0,"station_id":"ce4bgvp2rcd13ifvqcu0","pricing_plan_id":"free"},{"bike_id":"592116a3-26e9-409d-92b1-e07d995f218b","system_id":"levelo_inurba_marseille","lat":43.30878,"lon":5.39643,"is_reserved":false,"is_disabled":false,"rental_uris":{"android":"levelo://app?vid=592116a3-26e9-409d-92b1-e07d995f218b","ios":"levelo://app?vid=592116a3-26e9-409d-92b1-e07d995f218b"},"vehicle_type_id":"4","last_reported":1702411656,"current_range_meters":29600,"station_id":"ce4bh012rcd13ifvqcv0","pricing_plan_id":"free"},{"bike_id":"53f0c346-fa6f-45e8-91b1-81bd56a25855","system_id":"levelo_inurba_marseille","lat":43.30881,"lon":5.39645,"is_reserved":false,"is_disabled":false,"rental_uris":{"android":"levelo://app?vid=53f0c346-fa6f-45e8-91b1-81bd56a25855","ios":"levelo://app?vid=53f0c346-fa6f-45e8-91b1-81bd56a25855"},"vehicle_type_id":"4","last_reported":1702411656,"current_range_meters":31200,"station_id":"ce4bh012rcd13ifvqcv0","pricing_plan_id":"free"},{"bike_id":"ff44dcf7-31a3-4058-84b8-149be4fb727d","system_id":"levelo_inurba_marseille","lat":43.30885,"lon":5.396495,"is_reserved":false,"is_disabled":false,"rental_uris":{"android":"levelo://app?vid=ff44dcf7-31a3-4058-84b8-149be4fb727d","ios":"levelo://app?vid=ff44dcf7-31a3-4058-84b8-149be4fb727d"},"vehicle_type_id":"4","last_reported":1702411656,"current_range_meters":26800,"station_id":"ce4bh012rcd13ifvqcv0","pricing_plan_id":"free"},{"bike_id":"b3e3c3ac-515d-432e-8a8b-e4e5e14bb55e","system_id":"levelo_inurba_marseille","lat":43.30888,"lon":5.39652,"is_reserved":false,"is_disabled":false,"rental_uris":{"android":"levelo://app?vid=b3e3c3ac-515d-432e-8a8b-e4e5e14bb55e","ios":"levelo://app?vid=b3e3c3ac-515d-432e-8a8b-e4e5e14bb55e"},"vehicle_type_id":"4","last_reported":1702411656,"current_range_meters":9200,"station_id":"ce4bh012rcd13ifvqcv0","pricing_plan_id":"free"},{"bike_id":"9f677b5a-8f8f-4e6b-a8e8-c4f8dc3b6594","system_id":"levelo_inurba_marseille","lat":43.30891,"lon":5.3966,"is_reserved":false,"is_disabled":false,"rental_uris":{"android":"levelo://app?vid=9f677b5a-8f8f-4e6b-a8e8-c4f8dc3b6594","ios":"levelo://app?vid=9f677b5a-8f8f-4e6b-a8e8-c4f8dc3b6594"},"vehicle_type_id":"4","last_reported":1702411656,"current_range_meters":18800,"station_id":"ce4bh012rcd13ifvqcv0","pricing_plan_id":"free"},{"bike_id":"0b26f426-b5fc-483c-a9b6-130ce032c077","system_id":"levelo_inurba_marseille","lat":43.309038,"lon":5.396546,"is_reserved":false,"is_disabled":false,"rental_uris":{"android":"levelo://app?vid=0b26f426-b5fc-483c-a9b6-130ce032c077","ios":"levelo://app?vid=0b26f426-b5fc-483c-a9b6-130ce032c077"},"vehicle_type_id":"4","last_reported":1702411656,"current_range_meters":800,"station_id":"ce4bh012rcd13ifvqcv0","pricing_plan_id":"free"},{"bike_id":"65eb2a72-7862-42a1-9e98-3728775bd085","system_id":"levelo_inurba_marseille","lat":43.29529,"lon":5.385581,"is_reserved":false,"is_disabled":false,"rental_uris":{"android":"levelo://app?vid=65eb2a72-7862-42a1-9e98-3728775bd085","ios":"levelo://app?vid=65eb2a72-7862-42a1-9e98-3728775bd085"},"vehicle_type_id":"4","last_reported":1702411656,"current_range_meters":13600,"station_id":"ce4bgih2rcd13ifvqba0","pricing_plan_id":"free"},{"bike_id":"15e93764-728c-45d7-9bd4-24da468dae37","system_id":"levelo_inurba_marseille","lat":43.29529,"lon":5.385581,"is_reserved":false,"is_disabled":false,"rental_uris":{"android":"levelo://app?vid=15e93764-728c-45d7-9bd4-24da468dae37","ios":"levelo://app?vid=15e93764-728c-45d7-9bd4-24da468dae37"},"vehicle_type_id":"4","last_reported":1702411656,"current_range_meters":12000,"station_id":"ce4bgih2rcd13ifvqba0","pricing_plan_id":"free"},{"bike_id":"0b9e7985-1060-4006-b89c-82bf0f5e4303","system_id":"levelo_inurba_marseille","lat":43.302008,"lon":5.394694,"is_reserved":false,"is_disabled":false,"rental_uris":{"android":"levelo://app?vid=0b9e7985-1060-4006-b89c-82bf0f5e4303","ios":"levelo://app?vid=0b9e7985-1060-4006-b89c-82bf0f5e4303"},"vehicle_type_id":"4","last_reported":1702411656,"current_range_meters":25200,"station_id":"ce4bh0p2rcd13ifvqd70","pricing_plan_id":"free"},{"bike_id":"df5144d9-7f64-4d2d-a971-987520c7a1b1","system_id":"levelo_inurba_marseille","lat":43.290631,"lon":5.359244,"is_reserved":false,"is_disabled":false,"rental_uris":{"android":"levelo://app?vid=df5144d9-7f64-4d2d-a971-987520c7a1b1","ios":"levelo://app?vid=df5144d9-7f64-4d2d-a971-987520c7a1b1"},"vehicle_type_id":"4","last_reported":1702411656,"current_range_meters":12000,"station_id":"ce4bha92rcd13ifvqeg0","pricing_plan_id":"free"},{"bike_id":"b6b4c311-a1c2-4e5b-af87-a9957a0eeeee","system_id":"levelo_inurba_marseille","lat":43.289184,"lon":5.366408,"is_reserved":false,"is_disabled":false,"rental_uris":{"android":"levelo://app?vid=b6b4c311-a1c2-4e5b-af87-a9957a0eeeee","ios":"levelo://app?vid=b6b4c311-a1c2-4e5b-af87-a9957a0eeeee"},"vehicle_type_id":"4","last_reported":1702411656,"current_range_meters":8800,"station_id":"ce4bhap2rcd13ifvqek0","pricing_plan_id":"free"},{"bike_id":"eec075fb-8b1e-45fe-8131-915ae6b160f7","system_id":"levelo_inurba_marseille","lat":43.289352,"lon":5.366452,"is_reserved":false,"is_disabled":false,"rental_uris":{"android":"levelo://app?vid=eec075fb-8b1e-45fe-8131-915ae6b160f7","ios":"levelo://app?vid=eec075fb-8b1e-45fe-8131-915ae6b160f7"},"vehicle_type_id":"4","last_reported":1702411656,"current_range_meters":16400,"station_id":"ce4bhap2rcd13ifvqek0","pricing_plan_id":"free"},{"bike_id":"6027fa21-758f-4cad-9314-3f117a3d92ba","system_id":"levelo_inurba_marseille","lat":43.28932,"lon":5.3664,"is_reserved":false,"is_disabled":false,"rental_uris":{"android":"levelo://app?vid=6027fa21-758f-4cad-9314-3f117a3d92ba","ios":"levelo://app?vid=6027fa21-758f-4cad-9314-3f117a3d92ba"},"vehicle_type_id":"4","last_reported":1702411656,"current_range_meters":8000,"station_id":"ce4bhap2rcd13ifvqek0","pricing_plan_id":"free"},{"bike_id":"fee78461-23d7-48dc-8810-c3b8e393e033","system_id":"levelo_inurba_marseille","lat":43.289184,"lon":5.366408,"is_reserved":false,"is_disabled":false,"rental_uris":{"android":"levelo://app?vid=fee78461-23d7-48dc-8810-c3b8e393e033","ios":"levelo://app?vid=fee78461-23d7-48dc-8810-c3b8e393e033"},"vehicle_type_id":"4","last_reported":1702411656,"current_range_meters":6800,"station_id":"ce4bhap2rcd13ifvqek0","pricing_plan_id":"free"},{"bike_id":"dc52a2d0-ff5a-40bb-b482-bf367da51b96","system_id":"levelo_inurba_marseille","lat":43.304274,"lon":5.397513,"is_reserved":false,"is_disabled":false,"rental_uris":{"android":"levelo://app?vid=dc52a2d0-ff5a-40bb-b482-bf367da51b96","ios":"levelo://app?vid=dc52a2d0-ff5a-40bb-b482-bf367da51b96"},"vehicle_type_id":"4","last_reported":1702411656,"current_range_meters":4400,"station_id":"ce4bh092rcd13ifvqd20","pricing_plan_id":"free"},{"bike_id":"f288b9ef-6e72-4202-bf5b-1301b7712a94","system_id":"levelo_inurba_marseille","lat":43.292644,"lon":5.384257,"is_reserved":false,"is_disabled":false,"rental_uris":{"android":"levelo://app?vid=f288b9ef-6e72-4202-bf5b-1301b7712a94","ios":"levelo://app?vid=f288b9ef-6e72-4202-bf5b-1301b7712a94"},"vehicle_type_id":"4","last_reported":1702411656,"current_range_meters":2000,"station_id":"ce4bh692rcd13ifvqea0","pricing_plan_id":"free"},{"bike_id":"90212e5a-f930-4ba5-ad39-37ea8f52571a","system_id":"levelo_inurba_marseille","lat":43.330442,"lon":5.389148,"is_reserved":false,"is_disabled":false,"rental_uris":{"android":"levelo://app?vid=90212e5a-f930-4ba5-ad39-37ea8f52571a","ios":"levelo://app?vid=90212e5a-f930-4ba5-ad39-37ea8f52571a"},"vehicle_type_id":"4","last_reported":1702411656,"current_range_meters":25200,"station_id":"ce4bhr92rcd13ifvqhrg","pricing_plan_id":"free"},{"bike_id":"b759538c-75fc-4ccb-9b73-2031bf78f0fa","system_id":"levelo_inurba_marseille","lat":43.33036,"lon":5.38928,"is_reserved":false,"is_disabled":false,"rental_uris":{"android":"levelo://app?vid=b759538c-75fc-4ccb-9b73-2031bf78f0fa","ios":"levelo://app?vid=b759538c-75fc-4ccb-9b73-2031bf78f0fa"},"vehicle_type_id":"4","last_reported":1702411656,"current_range_meters":17200,"station_id":"ce4bhr92rcd13ifvqhrg","pricing_plan_id":"free"},{"bike_id":"62e94a04-2220-4204-a03b-cf7d6d909360","system_id":"levelo_inurba_marseille","lat":43.330442,"lon":5.389148,"is_reserved":false,"is_disabled":false,"rental_uris":{"android":"levelo://app?vid=62e94a04-2220-4204-a03b-cf7d6d909360","ios":"levelo://app?vid=62e94a04-2220-4204-a03b-cf7d6d909360"},"vehicle_type_id":"4","last_reported":1702411656,"current_range_meters":30800,"station_id":"ce4bhr92rcd13ifvqhrg","pricing_plan_id":"free"},{"bike_id":"fa2728a8-2418-4864-84c9-3daa06914293","system_id":"levelo_inurba_marseille","lat":43.290103,"lon":5.356114,"is_reserved":false,"is_disabled":false,"rental_uris":{"android":"levelo://app?vid=fa2728a8-2418-4864-84c9-3daa06914293","ios":"levelo://app?vid=fa2728a8-2418-4864-84c9-3daa06914293"},"vehicle_type_id":"4","last_reported":1702411656,"current_range_meters":26400,"station_id":"ce4bhb92rcd13ifvqen0","pricing_plan_id":"free"},{"bike_id":"0374adef-3cbf-473e-a137-7b0c27f37cad","system_id":"levelo_inurba_marseille","lat":43.290104,"lon":5.356111,"is_reserved":false,"is_disabled":false,"rental_uris":{"android":"levelo://app?vid=0374adef-3cbf-473e-a137-7b0c27f37cad","ios":"levelo://app?vid=0374adef-3cbf-473e-a137-7b0c27f37cad"},"vehicle_type_id":"4","last_reported":1702411656,"current_range_meters":24000,"station_id":"ce4bhb92rcd13ifvqen0","pricing_plan_id":"free"},{"bike_id":"ff21f20d-3a74-4048-94a6-1517554dde95","system_id":"levelo_inurba_marseille","lat":43.290995,"lon":5.381361,"is_reserved":false,"is_disabled":false,"rental_uris":{"android":"levelo://app?vid=ff21f20d-3a74-4048-94a6-1517554dde95","ios":"levelo://app?vid=ff21f20d-3a74-4048-94a6-1517554dde95"},"vehicle_type_id":"4","last_reported":1702411656,"current_range_meters":21200,"station_id":"ce4bh512rcd13ifvqe2g","pricing_plan_id":"free"},{"bike_id":"67a71298-f781-4402-8d03-cdb5dd11acae","system_id":"levelo_inurba_marseille","lat":43.3374,"lon":5.37458,"is_reserved":false,"is_disabled":false,"rental_uris":{"android":"levelo://app?vid=67a71298-f781-4402-8d03-cdb5dd11acae","ios":"levelo://app?vid=67a71298-f781-4402-8d03-cdb5dd11acae"},"vehicle_type_id":"4","last_reported":1702411656,"current_range_meters":27200,"station_id":"","pricing_plan_id":"free"},{"bike_id":"1dcbe0d8-be57-4513-9898-727b736e0085","system_id":"levelo_inurba_marseille","lat":43.33751,"lon":5.37454,"is_reserved":false,"is_disabled":false,"rental_uris":{"android":"levelo://app?vid=1dcbe0d8-be57-4513-9898-727b736e0085","ios":"levelo://app?vid=1dcbe0d8-be57-4513-9898-727b736e0085"},"vehicle_type_id":"4","last_reported":1702411656,"current_range_meters":24400,"station_id":"","pricing_plan_id":"free"},{"bike_id":"0866413f-dc6c-44a7-8b36-65410c44d899","system_id":"levelo_inurba_marseille","lat":43.30635,"lon":5.40073,"is_reserved":false,"is_disabled":false,"rental_uris":{"android":"levelo://app?vid=0866413f-dc6c-44a7-8b36-65410c44d899","ios":"levelo://app?vid=0866413f-dc6c-44a7-8b36-65410c44d899"},"vehicle_type_id":"4","last_reported":1702411656,"current_range_meters":2400,"station_id":"ce4bh112rcd13ifvqda0","pricing_plan_id":"free"},{"bike_id":"c982b96f-4f85-4e73-8f7f-c9b4eb16a30b","system_id":"levelo_inurba_marseille","lat":43.33761,"lon":5.37441,"is_reserved":false,"is_disabled":false,"rental_uris":{"android":"levelo://app?vid=c982b96f-4f85-4e73-8f7f-c9b4eb16a30b","ios":"levelo://app?vid=c982b96f-4f85-4e73-8f7f-c9b4eb16a30b"},"vehicle_type_id":"4","last_reported":1702411656,"current_range_meters":29600,"station_id":"","pricing_plan_id":"free"},{"bike_id":"9c088e17-437a-4c78-8e15-490fc306b2db","system_id":"levelo_inurba_marseille","lat":43.309047,"lon":5.396551,"is_reserved":false,"is_disabled":false,"rental_uris":{"android":"levelo://app?vid=9c088e17-437a-4c78-8e15-490fc306b2db","ios":"levelo://app?vid=9c088e17-437a-4c78-8e15-490fc306b2db"},"vehicle_type_id":"4","last_reported":1702411656,"current_range_meters":31200,"station_id":"ce4bh012rcd13ifvqcv0","pricing_plan_id":"free"},{"bike_id":"322a53c4-cc1e-4a22-a671-1265027cdfb0","system_id":"levelo_inurba_marseille","lat":43.286593,"lon":5.363346,"is_reserved":false,"is_disabled":false,"rental_uris":{"android":"levelo://app?vid=322a53c4-cc1e-4a22-a671-1265027cdfb0","ios":"levelo://app?vid=322a53c4-cc1e-4a22-a671-1265027cdfb0"},"vehicle_type_id":"4","last_reported":1702411656,"current_range_meters":31200,"station_id":"ce4bhah2rcd13ifvqej0","pricing_plan_id":"free"},{"bike_id":"44ba2703-0cc8-464a-906a-58da3c3fa20b","system_id":"levelo_inurba_marseille","lat":43.286593,"lon":5.363346,"is_reserved":false,"is_disabled":false,"rental_uris":{"android":"levelo://app?vid=44ba2703-0cc8-464a-906a-58da3c3fa20b","ios":"levelo://app?vid=44ba2703-0cc8-464a-906a-58da3c3fa20b"},"vehicle_type_id":"4","last_reported":1702411656,"current_range_meters":0,"station_id":"ce4bhah2rcd13ifvqej0","pricing_plan_id":"free"},{"bike_id":"f1ba6f1e-840f-49a1-a23a-11c4ff8c7c32","system_id":"levelo_inurba_marseille","lat":43.286591,"lon":5.363346,"is_reserved":false,"is_disabled":false,"rental_uris":{"android":"levelo://app?vid=f1ba6f1e-840f-49a1-a23a-11c4ff8c7c32","ios":"levelo://app?vid=f1ba6f1e-840f-49a1-a23a-11c4ff8c7c32"},"vehicle_type_id":"4","last_reported":1702411656,"current_range_meters":3600,"station_id":"ce4bhah2rcd13ifvqej0","pricing_plan_id":"free"},{"bike_id":"a6520486-0c26-44dc-a7d8-05c106233541","system_id":"levelo_inurba_marseille","lat":43.30277,"lon":5.40048,"is_reserved":false,"is_disabled":false,"rental_uris":{"android":"levelo://app?vid=a6520486-0c26-44dc-a7d8-05c106233541","ios":"levelo://app?vid=a6520486-0c26-44dc-a7d8-05c106233541"},"vehicle_type_id":"4","last_reported":1702411656,"current_range_meters":24400,"station_id":"ce4bgvh2rcd13ifvqcs0","pricing_plan_id":"free"},{"bike_id":"dc0059a7-857a-40e8-b1a5-cac3f474fa0a","system_id":"levelo_inurba_marseille","lat":43.290345,"lon":5.38646,"is_reserved":false,"is_disabled":false,"rental_uris":{"android":"levelo://app?vid=dc0059a7-857a-40e8-b1a5-cac3f474fa0a","ios":"levelo://app?vid=dc0059a7-857a-40e8-b1a5-cac3f474fa0a"},"vehicle_type_id":"4","last_reported":1702411656,"current_range_meters":26800,"station_id":"ce4bh4p2rcd13ifvqe0g","pricing_plan_id":"free"},{"bike_id":"a9357f9f-8614-4518-a508-fc4e223fb8e2","system_id":"levelo_inurba_marseille","lat":43.290345,"lon":5.38646,"is_reserved":false,"is_disabled":false,"rental_uris":{"android":"levelo://app?vid=a9357f9f-8614-4518-a508-fc4e223fb8e2","ios":"levelo://app?vid=a9357f9f-8614-4518-a508-fc4e223fb8e2"},"vehicle_type_id":"4","last_reported":1702411656,"current_range_meters":11200,"station_id":"ce4bh4p2rcd13ifvqe0g","pricing_plan_id":"free"},{"bike_id":"0750f2fb-686d-411a-b2c6-0acfc8585d50","system_id":"levelo_inurba_marseille","lat":43.290345,"lon":5.38646,"is_reserved":false,"is_disabled":false,"rental_uris":{"android":"levelo://app?vid=0750f2fb-686d-411a-b2c6-0acfc8585d50","ios":"levelo://app?vid=0750f2fb-686d-411a-b2c6-0acfc8585d50"},"vehicle_type_id":"4","last_reported":1702411656,"current_range_meters":12800,"station_id":"ce4bh4p2rcd13ifvqe0g","pricing_plan_id":"free"},{"bike_id":"6dc3679a-d2fc-4b23-a0aa-e660a5d24f70","system_id":"levelo_inurba_marseille","lat":43.289307,"lon":5.38406,"is_reserved":false,"is_disabled":false,"rental_uris":{"android":"levelo://app?vid=6dc3679a-d2fc-4b23-a0aa-e660a5d24f70","ios":"levelo://app?vid=6dc3679a-d2fc-4b23-a0aa-e660a5d24f70"},"vehicle_type_id":"4","last_reported":1702411656,"current_range_meters":23200,"station_id":"ce4bh612rcd13ifvqe6g","pricing_plan_id":"free"},{"bike_id":"03dd3d8c-ae56-4a8a-a1bf-d3f85579fa3b","system_id":"levelo_inurba_marseille","lat":43.290276,"lon":5.38646,"is_reserved":false,"is_disabled":false,"rental_uris":{"android":"levelo://app?vid=03dd3d8c-ae56-4a8a-a1bf-d3f85579fa3b","ios":"levelo://app?vid=03dd3d8c-ae56-4a8a-a1bf-d3f85579fa3b"},"vehicle_type_id":"4","last_reported":1702411656,"current_range_meters":19600,"station_id":"","pricing_plan_id":"free"},{"bike_id":"68aa0727-5ee5-460c-bfa2-5a1ee2853baa","system_id":"levelo_inurba_marseille","lat":43.29025,"lon":5.38646,"is_reserved":false,"is_disabled":false,"rental_uris":{"android":"levelo://app?vid=68aa0727-5ee5-460c-bfa2-5a1ee2853baa","ios":"levelo://app?vid=68aa0727-5ee5-460c-bfa2-5a1ee2853baa"},"vehicle_type_id":"4","last_reported":1702411656,"current_range_meters":0,"station_id":"ce4bh4p2rcd13ifvqe0g","pricing_plan_id":"free"},{"bike_id":"7bf562f1-55c2-4721-8d74-3994a2d5d22a","system_id":"levelo_inurba_marseille","lat":43.302759,"lon":5.400793,"is_reserved":false,"is_disabled":false,"rental_uris":{"android":"levelo://app?vid=7bf562f1-55c2-4721-8d74-3994a2d5d22a","ios":"levelo://app?vid=7bf562f1-55c2-4721-8d74-3994a2d5d22a"},"vehicle_type_id":"4","last_reported":1702411656,"current_range_meters":0,"station_id":"ce4bgvh2rcd13ifvqcs0","pricing_plan_id":"free"},{"bike_id":"74a3a44d-720e-4323-b32a-e05563a71534","system_id":"levelo_inurba_marseille","lat":43.286039,"lon":5.370681,"is_reserved":false,"is_disabled":false,"rental_uris":{"android":"levelo://app?vid=74a3a44d-720e-4323-b32a-e05563a71534","ios":"levelo://app?vid=74a3a44d-720e-4323-b32a-e05563a71534"},"vehicle_type_id":"4","last_reported":1702411656,"current_range_meters":20400,"station_id":"ce4bht12rcd13ifvqi60","pricing_plan_id":"free"},{"bike_id":"ecb2a21a-8dcb-48c5-846b-fcc11a021b0b","system_id":"levelo_inurba_marseille","lat":43.31684,"lon":5.40472,"is_reserved":false,"is_disabled":false,"rental_uris":{"android":"levelo://app?vid=ecb2a21a-8dcb-48c5-846b-fcc11a021b0b","ios":"levelo://app?vid=ecb2a21a-8dcb-48c5-846b-fcc11a021b0b"},"vehicle_type_id":"4","last_reported":1702411656,"current_range_meters":25200,"station_id":"ce4bh012rcd13ifvqd00","pricing_plan_id":"free"},{"bike_id":"f9e78213-6b52-42ac-8b27-c72d0754bdcc","system_id":"levelo_inurba_marseille","lat":43.284538,"lon":5.358657,"is_reserved":false,"is_disabled":false,"rental_uris":{"android":"levelo://app?vid=f9e78213-6b52-42ac-8b27-c72d0754bdcc","ios":"levelo://app?vid=f9e78213-6b52-42ac-8b27-c72d0754bdcc"},"vehicle_type_id":"4","last_reported":1702411656,"current_range_meters":18400,"station_id":"ce4bhah2rcd13ifvqei0","pricing_plan_id":"free"},{"bike_id":"230db383-e6ae-46e1-a0d2-8ff3a3a4cff4","system_id":"levelo_inurba_marseille","lat":43.284534,"lon":5.358662,"is_reserved":false,"is_disabled":false,"rental_uris":{"android":"levelo://app?vid=230db383-e6ae-46e1-a0d2-8ff3a3a4cff4","ios":"levelo://app?vid=230db383-e6ae-46e1-a0d2-8ff3a3a4cff4"},"vehicle_type_id":"4","last_reported":1702411656,"current_range_meters":1200,"station_id":"ce4bhah2rcd13ifvqei0","pricing_plan_id":"free"},{"bike_id":"5741dc54-9b58-4dc9-bb7c-1cbc381ac99e","system_id":"levelo_inurba_marseille","lat":43.294314,"lon":5.397498,"is_reserved":false,"is_disabled":false,"rental_uris":{"android":"levelo://app?vid=5741dc54-9b58-4dc9-bb7c-1cbc381ac99e","ios":"levelo://app?vid=5741dc54-9b58-4dc9-bb7c-1cbc381ac99e"},"vehicle_type_id":"4","last_reported":1702411656,"current_range_meters":15600,"station_id":"ce4bh3h2rcd13ifvqdo0","pricing_plan_id":"free"},{"bike_id":"60a76a4c-8400-4e72-bece-d9237d195ed0","system_id":"levelo_inurba_marseille","lat":43.294314,"lon":5.397498,"is_reserved":false,"is_disabled":false,"rental_uris":{"android":"levelo://app?vid=60a76a4c-8400-4e72-bece-d9237d195ed0","ios":"levelo://app?vid=60a76a4c-8400-4e72-bece-d9237d195ed0"},"vehicle_type_id":"4","last_reported":1702411656,"current_range_meters":8400,"station_id":"ce4bh3h2rcd13ifvqdo0","pricing_plan_id":"free"},{"bike_id":"cc64d4e0-4992-4102-9019-9d51befddcdb","system_id":"levelo_inurba_marseille","lat":43.285856,"lon":5.350771,"is_reserved":false,"is_disabled":false,"rental_uris":{"android":"levelo://app?vid=cc64d4e0-4992-4102-9019-9d51befddcdb","ios":"levelo://app?vid=cc64d4e0-4992-4102-9019-9d51befddcdb"},"vehicle_type_id":"4","last_reported":1702411656,"current_range_meters":16800,"station_id":"ce4bhch2rcd13ifvqeug","pricing_plan_id":"free"},{"bike_id":"cbff4a67-cc6d-4c8d-bfb2-dfbe94cfe970","system_id":"levelo_inurba_marseille","lat":43.283998,"lon":5.375062,"is_reserved":false,"is_disabled":false,"rental_uris":{"android":"levelo://app?vid=cbff4a67-cc6d-4c8d-bfb2-dfbe94cfe970","ios":"levelo://app?vid=cbff4a67-cc6d-4c8d-bfb2-dfbe94cfe970"},"vehicle_type_id":"4","last_reported":1702411656,"current_range_meters":400,"station_id":"ce4bh412rcd13ifvqds0","pricing_plan_id":"free"},{"bike_id":"a810ba51-74d0-4eb9-b2cf-da3afb936cd6","system_id":"levelo_inurba_marseille","lat":43.283998,"lon":5.375062,"is_reserved":false,"is_disabled":false,"rental_uris":{"android":"levelo://app?vid=a810ba51-74d0-4eb9-b2cf-da3afb936cd6","ios":"levelo://app?vid=a810ba51-74d0-4eb9-b2cf-da3afb936cd6"},"vehicle_type_id":"4","last_reported":1702411656,"current_range_meters":3200,"station_id":"ce4bh412rcd13ifvqds0","pricing_plan_id":"free"},{"bike_id":"c7f19962-98f7-4ba6-a55b-657d8e433055","system_id":"levelo_inurba_marseille","lat":43.295713,"lon":5.399639,"is_reserved":false,"is_disabled":false,"rental_uris":{"android":"levelo://app?vid=c7f19962-98f7-4ba6-a55b-657d8e433055","ios":"levelo://app?vid=c7f19962-98f7-4ba6-a55b-657d8e433055"},"vehicle_type_id":"4","last_reported":1702411656,"current_range_meters":0,"station_id":"ce4bh312rcd13ifvqdj0","pricing_plan_id":"free"},{"bike_id":"3696917b-fc36-4afa-81be-cf640f3dac18","system_id":"levelo_inurba_marseille","lat":43.295713,"lon":5.399639,"is_reserved":false,"is_disabled":false,"rental_uris":{"android":"levelo://app?vid=3696917b-fc36-4afa-81be-cf640f3dac18","ios":"levelo://app?vid=3696917b-fc36-4afa-81be-cf640f3dac18"},"vehicle_type_id":"4","last_reported":1702411656,"current_range_meters":0,"station_id":"ce4bh312rcd13ifvqdj0","pricing_plan_id":"free"},{"bike_id":"098f94d7-082e-4824-bbe7-1afb0be0f9c2","system_id":"levelo_inurba_marseille","lat":43.286595,"lon":5.386795,"is_reserved":false,"is_disabled":false,"rental_uris":{"android":"levelo://app?vid=098f94d7-082e-4824-bbe7-1afb0be0f9c2","ios":"levelo://app?vid=098f94d7-082e-4824-bbe7-1afb0be0f9c2"},"vehicle_type_id":"4","last_reported":1702411656,"current_range_meters":14000,"station_id":"ce4bh492rcd13ifvqdug","pricing_plan_id":"free"},{"bike_id":"cf7ca54e-9bb8-433e-bc71-ca5915cdee40","system_id":"levelo_inurba_marseille","lat":43.323464,"lon":5.406297,"is_reserved":false,"is_disabled":false,"rental_uris":{"android":"levelo://app?vid=cf7ca54e-9bb8-433e-bc71-ca5915cdee40","ios":"levelo://app?vid=cf7ca54e-9bb8-433e-bc71-ca5915cdee40"},"vehicle_type_id":"4","last_reported":1702411656,"current_range_meters":26800,"station_id":"ce4bhq92rcd13ifvqhjg","pricing_plan_id":"free"},{"bike_id":"a49c5c64-bff0-47bf-af2c-aa258506df4f","system_id":"levelo_inurba_marseille","lat":43.323464,"lon":5.406297,"is_reserved":false,"is_disabled":false,"rental_uris":{"android":"levelo://app?vid=a49c5c64-bff0-47bf-af2c-aa258506df4f","ios":"levelo://app?vid=a49c5c64-bff0-47bf-af2c-aa258506df4f"},"vehicle_type_id":"4","last_reported":1702411656,"current_range_meters":25600,"station_id":"ce4bhq92rcd13ifvqhjg","pricing_plan_id":"free"},{"bike_id":"6d2a8c15-7188-4a2e-a1cd-61431f5fbda7","system_id":"levelo_inurba_marseille","lat":43.284793,"lon":5.384113,"is_reserved":false,"is_disabled":false,"rental_uris":{"android":"levelo://app?vid=6d2a8c15-7188-4a2e-a1cd-61431f5fbda7","ios":"levelo://app?vid=6d2a8c15-7188-4a2e-a1cd-61431f5fbda7"},"vehicle_type_id":"4","last_reported":1702411656,"current_range_meters":30400,"station_id":"ce4bh512rcd13ifvqe3g","pricing_plan_id":"free"},{"bike_id":"5b96bb46-9a3a-422a-87ec-0526129e6244","system_id":"levelo_inurba_marseille","lat":43.29799,"lon":5.40407,"is_reserved":false,"is_disabled":false,"rental_uris":{"android":"levelo://app?vid=5b96bb46-9a3a-422a-87ec-0526129e6244","ios":"levelo://app?vid=5b96bb46-9a3a-422a-87ec-0526129e6244"},"vehicle_type_id":"4","last_reported":1702411656,"current_range_meters":17200,"station_id":"ce4bh112rcd13ifvqd90","pricing_plan_id":"free"},{"bike_id":"4e8538f5-ec48-4052-a13e-22e0c463aee4","system_id":"levelo_inurba_marseille","lat":43.283498,"lon":5.380948,"is_reserved":false,"is_disabled":false,"rental_uris":{"android":"levelo://app?vid=4e8538f5-ec48-4052-a13e-22e0c463aee4","ios":"levelo://app?vid=4e8538f5-ec48-4052-a13e-22e0c463aee4"},"vehicle_type_id":"4","last_reported":1702411656,"current_range_meters":4000,"station_id":"ce4bh412rcd13ifvqdr0","pricing_plan_id":"free"},{"bike_id":"2931331c-7f33-41f0-b26c-61e107adc9dd","system_id":"levelo_inurba_marseille","lat":43.284217,"lon":5.349697,"is_reserved":false,"is_disabled":false,"rental_uris":{"android":"levelo://app?vid=2931331c-7f33-41f0-b26c-61e107adc9dd","ios":"levelo://app?vid=2931331c-7f33-41f0-b26c-61e107adc9dd"},"vehicle_type_id":"4","last_reported":1702411656,"current_range_meters":15200,"station_id":"ce4bhbh2rcd13ifvqepg","pricing_plan_id":"free"},{"bike_id":"e113e230-c3c3-49ea-a0f2-bad2a945b9f8","system_id":"levelo_inurba_marseille","lat":43.28953,"lon":5.39651,"is_reserved":false,"is_disabled":false,"rental_uris":{"android":"levelo://app?vid=e113e230-c3c3-49ea-a0f2-bad2a945b9f8","ios":"levelo://app?vid=e113e230-c3c3-49ea-a0f2-bad2a945b9f8"},"vehicle_type_id":"4","last_reported":1702411656,"current_range_meters":0,"station_id":"ce4bh3h2rcd13ifvqdn0","pricing_plan_id":"free"},{"bike_id":"709bebcd-7a96-4a30-894a-152bbb656aa7","system_id":"levelo_inurba_marseille","lat":43.2894,"lon":5.39659,"is_reserved":false,"is_disabled":false,"rental_uris":{"android":"levelo://app?vid=709bebcd-7a96-4a30-894a-152bbb656aa7","ios":"levelo://app?vid=709bebcd-7a96-4a30-894a-152bbb656aa7"},"vehicle_type_id":"4","last_reported":1702411656,"current_range_meters":19200,"station_id":"ce4bh3h2rcd13ifvqdn0","pricing_plan_id":"free"},{"bike_id":"37d6cc14-8447-4ddc-9d0c-1dbef6bfd9e4","system_id":"levelo_inurba_marseille","lat":43.282754,"lon":5.350519,"is_reserved":false,"is_disabled":false,"rental_uris":{"android":"levelo://app?vid=37d6cc14-8447-4ddc-9d0c-1dbef6bfd9e4","ios":"levelo://app?vid=37d6cc14-8447-4ddc-9d0c-1dbef6bfd9e4"},"vehicle_type_id":"4","last_reported":1702411656,"current_range_meters":4800,"station_id":"ce4bhbp2rcd13ifvqerg","pricing_plan_id":"free"},{"bike_id":"1294d292-1510-43dd-979d-3de4efa93e79","system_id":"levelo_inurba_marseille","lat":43.283502,"lon":5.386471,"is_reserved":false,"is_disabled":false,"rental_uris":{"android":"levelo://app?vid=1294d292-1510-43dd-979d-3de4efa93e79","ios":"levelo://app?vid=1294d292-1510-43dd-979d-3de4efa93e79"},"vehicle_type_id":"4","last_reported":1702411656,"current_range_meters":14800,"station_id":"ce4bh492rcd13ifvqdvg","pricing_plan_id":"free"},{"bike_id":"3835d326-5a9f-480b-aac3-17abfdac3aed","system_id":"levelo_inurba_marseille","lat":43.280382,"lon":5.369291,"is_reserved":false,"is_disabled":false,"rental_uris":{"android":"levelo://app?vid=3835d326-5a9f-480b-aac3-17abfdac3aed","ios":"levelo://app?vid=3835d326-5a9f-480b-aac3-17abfdac3aed"},"vehicle_type_id":"4","last_reported":1702411656,"current_range_meters":21600,"station_id":"ce4bha12rcd13ifvqef0","pricing_plan_id":"free"},{"bike_id":"af0631cd-ba31-474c-9e7e-6b0fa8ba9b9e","system_id":"levelo_inurba_marseille","lat":43.28035,"lon":5.3694,"is_reserved":false,"is_disabled":false,"rental_uris":{"android":"levelo://app?vid=af0631cd-ba31-474c-9e7e-6b0fa8ba9b9e","ios":"levelo://app?vid=af0631cd-ba31-474c-9e7e-6b0fa8ba9b9e"},"vehicle_type_id":"4","last_reported":1702411656,"current_range_meters":14800,"station_id":"ce4bha12rcd13ifvqef0","pricing_plan_id":"free"},{"bike_id":"82169416-1237-4865-9afe-2c8700d0ddcf","system_id":"levelo_inurba_marseille","lat":43.284462,"lon":5.392121,"is_reserved":false,"is_disabled":false,"rental_uris":{"android":"levelo://app?vid=82169416-1237-4865-9afe-2c8700d0ddcf","ios":"levelo://app?vid=82169416-1237-4865-9afe-2c8700d0ddcf"},"vehicle_type_id":"4","last_reported":1702411656,"current_range_meters":12800,"station_id":"ce4bhoh2rcd13ifvqh5g","pricing_plan_id":"free"},{"bike_id":"6d3cbda2-a49d-4c06-bcc7-773dcd7d253c","system_id":"levelo_inurba_marseille","lat":43.28573,"lon":5.394992,"is_reserved":false,"is_disabled":false,"rental_uris":{"android":"levelo://app?vid=6d3cbda2-a49d-4c06-bcc7-773dcd7d253c","ios":"levelo://app?vid=6d3cbda2-a49d-4c06-bcc7-773dcd7d253c"},"vehicle_type_id":"4","last_reported":1702411656,"current_range_meters":18400,"station_id":"ce4bh292rcd13ifvqdg0","pricing_plan_id":"free"},{"bike_id":"e21ef52f-fc74-4e55-8fa5-2e4068d1c8ad","system_id":"levelo_inurba_marseille","lat":43.326605,"lon":5.409903,"is_reserved":false,"is_disabled":false,"rental_uris":{"android":"levelo://app?vid=e21ef52f-fc74-4e55-8fa5-2e4068d1c8ad","ios":"levelo://app?vid=e21ef52f-fc74-4e55-8fa5-2e4068d1c8ad"},"vehicle_type_id":"4","last_reported":1702411656,"current_range_meters":25200,"station_id":"ce4bhpp2rcd13ifvqhgg","pricing_plan_id":"free"},{"bike_id":"aa696b50-ef7f-4e76-baad-1d20cd652501","system_id":"levelo_inurba_marseille","lat":43.304188,"lon":5.412904,"is_reserved":false,"is_disabled":false,"rental_uris":{"android":"levelo://app?vid=aa696b50-ef7f-4e76-baad-1d20cd652501","ios":"levelo://app?vid=aa696b50-ef7f-4e76-baad-1d20cd652501"},"vehicle_type_id":"4","last_reported":1702411656,"current_range_meters":11200,"station_id":"ce4bhop2rcd13ifvqh8g","pricing_plan_id":"free"},{"bike_id":"ae7ed57a-3427-4d6d-aedc-a8b013561a05","system_id":"levelo_inurba_marseille","lat":43.304188,"lon":5.412904,"is_reserved":false,"is_disabled":false,"rental_uris":{"android":"levelo://app?vid=ae7ed57a-3427-4d6d-aedc-a8b013561a05","ios":"levelo://app?vid=ae7ed57a-3427-4d6d-aedc-a8b013561a05"},"vehicle_type_id":"4","last_reported":1702411656,"current_range_meters":27200,"station_id":"ce4bhop2rcd13ifvqh8g","pricing_plan_id":"free"},{"bike_id":"db5c771a-3afb-447d-a7b2-4a8e25a0d260","system_id":"levelo_inurba_marseille","lat":43.287547,"lon":5.400237,"is_reserved":false,"is_disabled":false,"rental_uris":{"android":"levelo://app?vid=db5c771a-3afb-447d-a7b2-4a8e25a0d260","ios":"levelo://app?vid=db5c771a-3afb-447d-a7b2-4a8e25a0d260"},"vehicle_type_id":"4","last_reported":1702411656,"current_range_meters":23600,"station_id":"ce4bho92rcd13ifvqh3g","pricing_plan_id":"free"},{"bike_id":"ff0fca49-10b9-4827-b99b-e22733a24426","system_id":"levelo_inurba_marseille","lat":43.28712,"lon":5.39992,"is_reserved":false,"is_disabled":false,"rental_uris":{"android":"levelo://app?vid=ff0fca49-10b9-4827-b99b-e22733a24426","ios":"levelo://app?vid=ff0fca49-10b9-4827-b99b-e22733a24426"},"vehicle_type_id":"4","last_reported":1702411656,"current_range_meters":28400,"station_id":"ce4bho92rcd13ifvqh3g","pricing_plan_id":"free"},{"bike_id":"16b7f310-f765-4920-88b4-f50426aaa384","system_id":"levelo_inurba_marseille","lat":43.287154,"lon":5.399979,"is_reserved":false,"is_disabled":false,"rental_uris":{"android":"levelo://app?vid=16b7f310-f765-4920-88b4-f50426aaa384","ios":"levelo://app?vid=16b7f310-f765-4920-88b4-f50426aaa384"},"vehicle_type_id":"4","last_reported":1702411656,"current_range_meters":26000,"station_id":"ce4bho92rcd13ifvqh3g","pricing_plan_id":"free"},{"bike_id":"cc51febb-224e-4339-8563-62b42296c881","system_id":"levelo_inurba_marseille","lat":43.279087,"lon":5.380114,"is_reserved":false,"is_disabled":false,"rental_uris":{"android":"levelo://app?vid=cc51febb-224e-4339-8563-62b42296c881","ios":"levelo://app?vid=cc51febb-224e-4339-8563-62b42296c881"},"vehicle_type_id":"4","last_reported":1702411656,"current_range_meters":24400,"station_id":"ce4bhf92rcd13ifvqf50","pricing_plan_id":"free"},{"bike_id":"b4f34963-0fdf-4f00-98b2-902b599e578f","system_id":"levelo_inurba_marseille","lat":43.287057,"lon":5.399997,"is_reserved":false,"is_disabled":false,"rental_uris":{"android":"levelo://app?vid=b4f34963-0fdf-4f00-98b2-902b599e578f","ios":"levelo://app?vid=b4f34963-0fdf-4f00-98b2-902b599e578f"},"vehicle_type_id":"4","last_reported":1702411656,"current_range_meters":27200,"station_id":"ce4bho92rcd13ifvqh3g","pricing_plan_id":"free"},{"bike_id":"79c1f618-80d3-4ca3-9724-b954195176e1","system_id":"levelo_inurba_marseille","lat":43.287154,"lon":5.399979,"is_reserved":false,"is_disabled":false,"rental_uris":{"android":"levelo://app?vid=79c1f618-80d3-4ca3-9724-b954195176e1","ios":"levelo://app?vid=79c1f618-80d3-4ca3-9724-b954195176e1"},"vehicle_type_id":"4","last_reported":1702411656,"current_range_meters":30400,"station_id":"ce4bho92rcd13ifvqh3g","pricing_plan_id":"free"},{"bike_id":"5d9259c6-7940-4e8b-96ab-1a1c252f0c8a","system_id":"levelo_inurba_marseille","lat":43.292569,"lon":5.409107,"is_reserved":false,"is_disabled":false,"rental_uris":{"android":"levelo://app?vid=5d9259c6-7940-4e8b-96ab-1a1c252f0c8a","ios":"levelo://app?vid=5d9259c6-7940-4e8b-96ab-1a1c252f0c8a"},"vehicle_type_id":"4","last_reported":1702411656,"current_range_meters":1200,"station_id":"ce4bh192rcd13ifvqdc0","pricing_plan_id":"free"},{"bike_id":"dd25e155-3199-4e78-909d-c7fde2851763","system_id":"levelo_inurba_marseille","lat":43.292571,"lon":5.409107,"is_reserved":false,"is_disabled":false,"rental_uris":{"android":"levelo://app?vid=dd25e155-3199-4e78-909d-c7fde2851763","ios":"levelo://app?vid=dd25e155-3199-4e78-909d-c7fde2851763"},"vehicle_type_id":"4","last_reported":1702411656,"current_range_meters":12800,"station_id":"ce4bh192rcd13ifvqdc0","pricing_plan_id":"free"},{"bike_id":"7308ff4c-cfbe-48e8-9e1b-da7d456eba23","system_id":"levelo_inurba_marseille","lat":43.292569,"lon":5.409107,"is_reserved":false,"is_disabled":false,"rental_uris":{"android":"levelo://app?vid=7308ff4c-cfbe-48e8-9e1b-da7d456eba23","ios":"levelo://app?vid=7308ff4c-cfbe-48e8-9e1b-da7d456eba23"},"vehicle_type_id":"4","last_reported":1702411656,"current_range_meters":400,"station_id":"ce4bh192rcd13ifvqdc0","pricing_plan_id":"free"},{"bike_id":"ebd4b39a-ef57-416e-bbb3-81ad5226b5eb","system_id":"levelo_inurba_marseille","lat":43.28081,"lon":5.3966,"is_reserved":false,"is_disabled":false,"rental_uris":{"android":"levelo://app?vid=ebd4b39a-ef57-416e-bbb3-81ad5226b5eb","ios":"levelo://app?vid=ebd4b39a-ef57-416e-bbb3-81ad5226b5eb"},"vehicle_type_id":"4","last_reported":1702411656,"current_range_meters":2800,"station_id":"ce4bho12rcd13ifvqh2g","pricing_plan_id":"free"},{"bike_id":"7efad1da-02f5-4d3a-bc1f-166af404abd3","system_id":"levelo_inurba_marseille","lat":43.303837,"lon":5.418724,"is_reserved":false,"is_disabled":false,"rental_uris":{"android":"levelo://app?vid=7efad1da-02f5-4d3a-bc1f-166af404abd3","ios":"levelo://app?vid=7efad1da-02f5-4d3a-bc1f-166af404abd3"},"vehicle_type_id":"4","last_reported":1702411656,"current_range_meters":26800,"station_id":"ce4bhop2rcd13ifvqh7g","pricing_plan_id":"free"},{"bike_id":"b1d31a80-70d5-438e-ac3b-02581ad7399e","system_id":"levelo_inurba_marseille","lat":43.303837,"lon":5.418724,"is_reserved":false,"is_disabled":false,"rental_uris":{"android":"levelo://app?vid=b1d31a80-70d5-438e-ac3b-02581ad7399e","ios":"levelo://app?vid=b1d31a80-70d5-438e-ac3b-02581ad7399e"},"vehicle_type_id":"4","last_reported":1702411656,"current_range_meters":28400,"station_id":"ce4bhop2rcd13ifvqh7g","pricing_plan_id":"free"},{"bike_id":"42780819-b9f6-46ca-9ab0-1f8085b9c577","system_id":"levelo_inurba_marseille","lat":43.279952,"lon":5.400085,"is_reserved":false,"is_disabled":false,"rental_uris":{"android":"levelo://app?vid=42780819-b9f6-46ca-9ab0-1f8085b9c577","ios":"levelo://app?vid=42780819-b9f6-46ca-9ab0-1f8085b9c577"},"vehicle_type_id":"4","last_reported":1702411656,"current_range_meters":12000,"station_id":"ce4bho92rcd13ifvqh4g","pricing_plan_id":"free"},{"bike_id":"d4f33ce9-27ee-4db6-a579-5c607fcf8ec7","system_id":"levelo_inurba_marseille","lat":43.279952,"lon":5.400085,"is_reserved":false,"is_disabled":false,"rental_uris":{"android":"levelo://app?vid=d4f33ce9-27ee-4db6-a579-5c607fcf8ec7","ios":"levelo://app?vid=d4f33ce9-27ee-4db6-a579-5c607fcf8ec7"},"vehicle_type_id":"4","last_reported":1702411656,"current_range_meters":22000,"station_id":"ce4bho92rcd13ifvqh4g","pricing_plan_id":"free"},{"bike_id":"542d4b30-d8d6-472e-af54-2453585f6f58","system_id":"levelo_inurba_marseille","lat":43.279952,"lon":5.400085,"is_reserved":false,"is_disabled":false,"rental_uris":{"android":"levelo://app?vid=542d4b30-d8d6-472e-af54-2453585f6f58","ios":"levelo://app?vid=542d4b30-d8d6-472e-af54-2453585f6f58"},"vehicle_type_id":"4","last_reported":1702411656,"current_range_meters":0,"station_id":"ce4bho92rcd13ifvqh4g","pricing_plan_id":"free"},{"bike_id":"40221589-3415-4339-883a-46458a0ce18f","system_id":"levelo_inurba_marseille","lat":43.279952,"lon":5.400085,"is_reserved":false,"is_disabled":false,"rental_uris":{"android":"levelo://app?vid=40221589-3415-4339-883a-46458a0ce18f","ios":"levelo://app?vid=40221589-3415-4339-883a-46458a0ce18f"},"vehicle_type_id":"4","last_reported":1702411656,"current_range_meters":6800,"station_id":"ce4bho92rcd13ifvqh4g","pricing_plan_id":"free"},{"bike_id":"60d14e17-ede4-4c9e-966c-3f04c8e42a8b","system_id":"levelo_inurba_marseille","lat":43.310785,"lon":5.424305,"is_reserved":false,"is_disabled":false,"rental_uris":{"android":"levelo://app?vid=60d14e17-ede4-4c9e-966c-3f04c8e42a8b","ios":"levelo://app?vid=60d14e17-ede4-4c9e-966c-3f04c8e42a8b"},"vehicle_type_id":"4","last_reported":1702411656,"current_range_meters":9200,"station_id":"ce4bhp92rcd13ifvqhag","pricing_plan_id":"free"},{"bike_id":"4adef58e-1188-427d-930a-855c554f6d64","system_id":"levelo_inurba_marseille","lat":43.310785,"lon":5.424305,"is_reserved":false,"is_disabled":false,"rental_uris":{"android":"levelo://app?vid=4adef58e-1188-427d-930a-855c554f6d64","ios":"levelo://app?vid=4adef58e-1188-427d-930a-855c554f6d64"},"vehicle_type_id":"4","last_reported":1702411656,"current_range_meters":29200,"station_id":"ce4bhp92rcd13ifvqhag","pricing_plan_id":"free"},{"bike_id":"143548a7-347a-4846-990e-a7bddfa338e0","system_id":"levelo_inurba_marseille","lat":43.310785,"lon":5.424305,"is_reserved":false,"is_disabled":false,"rental_uris":{"android":"levelo://app?vid=143548a7-347a-4846-990e-a7bddfa338e0","ios":"levelo://app?vid=143548a7-347a-4846-990e-a7bddfa338e0"},"vehicle_type_id":"4","last_reported":1702411656,"current_range_meters":31200,"station_id":"ce4bhp92rcd13ifvqhag","pricing_plan_id":"free"},{"bike_id":"1d5ae7fc-d788-4e3b-9e50-c093618912d7","system_id":"levelo_inurba_marseille","lat":43.310785,"lon":5.424305,"is_reserved":false,"is_disabled":false,"rental_uris":{"android":"levelo://app?vid=1d5ae7fc-d788-4e3b-9e50-c093618912d7","ios":"levelo://app?vid=1d5ae7fc-d788-4e3b-9e50-c093618912d7"},"vehicle_type_id":"4","last_reported":1702411656,"current_range_meters":25600,"station_id":"ce4bhp92rcd13ifvqhag","pricing_plan_id":"free"},{"bike_id":"e15fcb76-150b-4e94-ba14-1765fbabad44","system_id":"levelo_inurba_marseille","lat":43.310785,"lon":5.424305,"is_reserved":false,"is_disabled":false,"rental_uris":{"android":"levelo://app?vid=e15fcb76-150b-4e94-ba14-1765fbabad44","ios":"levelo://app?vid=e15fcb76-150b-4e94-ba14-1765fbabad44"},"vehicle_type_id":"4","last_reported":1702411656,"current_range_meters":30800,"station_id":"ce4bhp92rcd13ifvqhag","pricing_plan_id":"free"},{"bike_id":"b1c028eb-0fe1-4afa-b35c-b9783a0e9537","system_id":"levelo_inurba_marseille","lat":43.31723,"lon":5.42405,"is_reserved":false,"is_disabled":false,"rental_uris":{"android":"levelo://app?vid=b1c028eb-0fe1-4afa-b35c-b9783a0e9537","ios":"levelo://app?vid=b1c028eb-0fe1-4afa-b35c-b9783a0e9537"},"vehicle_type_id":"4","last_reported":1702411656,"current_range_meters":4400,"station_id":"ce4bhp92rcd13ifvqhbg","pricing_plan_id":"free"},{"bike_id":"ad0ede87-306b-4852-825a-b81cfa83c91b","system_id":"levelo_inurba_marseille","lat":43.340804,"lon":5.410219,"is_reserved":false,"is_disabled":false,"rental_uris":{"android":"levelo://app?vid=ad0ede87-306b-4852-825a-b81cfa83c91b","ios":"levelo://app?vid=ad0ede87-306b-4852-825a-b81cfa83c91b"},"vehicle_type_id":"4","last_reported":1702411656,"current_range_meters":3200,"station_id":"ce4bhqh2rcd13ifvqhlg","pricing_plan_id":"free"},{"bike_id":"5a79f2c8-14dc-4e58-a945-8fd56880bfee","system_id":"levelo_inurba_marseille","lat":43.274099,"lon":5.394019,"is_reserved":false,"is_disabled":false,"rental_uris":{"android":"levelo://app?vid=5a79f2c8-14dc-4e58-a945-8fd56880bfee","ios":"levelo://app?vid=5a79f2c8-14dc-4e58-a945-8fd56880bfee"},"vehicle_type_id":"4","last_reported":1702411656,"current_range_meters":8400,"station_id":"ce4bhdp2rcd13ifvqf20","pricing_plan_id":"free"},{"bike_id":"87b311f3-3f92-4325-83c4-03e0c9d7913b","system_id":"levelo_inurba_marseille","lat":43.30413,"lon":5.42537,"is_reserved":false,"is_disabled":false,"rental_uris":{"android":"levelo://app?vid=87b311f3-3f92-4325-83c4-03e0c9d7913b","ios":"levelo://app?vid=87b311f3-3f92-4325-83c4-03e0c9d7913b"},"vehicle_type_id":"4","last_reported":1702411656,"current_range_meters":18000,"station_id":"ce4bhoh2rcd13ifvqh6g","pricing_plan_id":"free"},{"bike_id":"b906c64a-473f-40ee-8efc-a6728ca31ad3","system_id":"levelo_inurba_marseille","lat":43.295511,"lon":5.422926,"is_reserved":false,"is_disabled":false,"rental_uris":{"android":"levelo://app?vid=b906c64a-473f-40ee-8efc-a6728ca31ad3","ios":"levelo://app?vid=b906c64a-473f-40ee-8efc-a6728ca31ad3"},"vehicle_type_id":"4","last_reported":1702411656,"current_range_meters":31200,"station_id":"ce4bhph2rcd13ifvqhdg","pricing_plan_id":"free"},{"bike_id":"46fc322c-73b6-400a-9643-e4a9cc8c8ddb","system_id":"levelo_inurba_marseille","lat":43.278128,"lon":5.407195,"is_reserved":false,"is_disabled":false,"rental_uris":{"android":"levelo://app?vid=46fc322c-73b6-400a-9643-e4a9cc8c8ddb","ios":"levelo://app?vid=46fc322c-73b6-400a-9643-e4a9cc8c8ddb"},"vehicle_type_id":"4","last_reported":1702411656,"current_range_meters":6400,"station_id":"ce4bhnh2rcd13ifvqgtg","pricing_plan_id":"free"},{"bike_id":"9fe586e2-ad8c-4d30-9b9c-c571fdaf03ce","system_id":"levelo_inurba_marseille","lat":43.278128,"lon":5.407195,"is_reserved":false,"is_disabled":false,"rental_uris":{"android":"levelo://app?vid=9fe586e2-ad8c-4d30-9b9c-c571fdaf03ce","ios":"levelo://app?vid=9fe586e2-ad8c-4d30-9b9c-c571fdaf03ce"},"vehicle_type_id":"4","last_reported":1702411656,"current_range_meters":28400,"station_id":"ce4bhnh2rcd13ifvqgtg","pricing_plan_id":"free"},{"bike_id":"33566000-1e76-439c-bafd-e73bc3e16c5f","system_id":"levelo_inurba_marseille","lat":43.27951,"lon":5.41038,"is_reserved":false,"is_disabled":false,"rental_uris":{"android":"levelo://app?vid=33566000-1e76-439c-bafd-e73bc3e16c5f","ios":"levelo://app?vid=33566000-1e76-439c-bafd-e73bc3e16c5f"},"vehicle_type_id":"4","last_reported":1702411656,"current_range_meters":400,"station_id":"ce4bhnp2rcd13ifvqh0g","pricing_plan_id":"free"},{"bike_id":"538aee69-386c-4892-8f01-ca374986373e","system_id":"levelo_inurba_marseille","lat":43.27945,"lon":5.41039,"is_reserved":false,"is_disabled":false,"rental_uris":{"android":"levelo://app?vid=538aee69-386c-4892-8f01-ca374986373e","ios":"levelo://app?vid=538aee69-386c-4892-8f01-ca374986373e"},"vehicle_type_id":"4","last_reported":1702411656,"current_range_meters":15200,"station_id":"ce4bhnp2rcd13ifvqh0g","pricing_plan_id":"free"},{"bike_id":"0d642a10-029c-4788-b70d-958e6d670b6a","system_id":"levelo_inurba_marseille","lat":43.27939,"lon":5.41053,"is_reserved":false,"is_disabled":false,"rental_uris":{"android":"levelo://app?vid=0d642a10-029c-4788-b70d-958e6d670b6a","ios":"levelo://app?vid=0d642a10-029c-4788-b70d-958e6d670b6a"},"vehicle_type_id":"4","last_reported":1702411656,"current_range_meters":0,"station_id":"ce4bhnp2rcd13ifvqh0g","pricing_plan_id":"free"},{"bike_id":"4aa9640e-67cd-4cc9-a003-3e6c2c7ba207","system_id":"levelo_inurba_marseille","lat":43.26681,"lon":5.382694,"is_reserved":false,"is_disabled":false,"rental_uris":{"android":"levelo://app?vid=4aa9640e-67cd-4cc9-a003-3e6c2c7ba207","ios":"levelo://app?vid=4aa9640e-67cd-4cc9-a003-3e6c2c7ba207"},"vehicle_type_id":"4","last_reported":1702411656,"current_range_meters":3200,"station_id":"ce4bhg92rcd13ifvqf90","pricing_plan_id":"free"},{"bike_id":"654fac4d-c1cc-4596-972e-7164904ba084","system_id":"levelo_inurba_marseille","lat":43.27996,"lon":5.416624,"is_reserved":false,"is_disabled":false,"rental_uris":{"android":"levelo://app?vid=654fac4d-c1cc-4596-972e-7164904ba084","ios":"levelo://app?vid=654fac4d-c1cc-4596-972e-7164904ba084"},"vehicle_type_id":"4","last_reported":1702411656,"current_range_meters":22000,"station_id":"ce4bho12rcd13ifvqh1g","pricing_plan_id":"free"},{"bike_id":"ce60430a-5f5b-4b57-8fb4-4867347e1764","system_id":"levelo_inurba_marseille","lat":43.265714,"lon":5.372891,"is_reserved":false,"is_disabled":false,"rental_uris":{"android":"levelo://app?vid=ce60430a-5f5b-4b57-8fb4-4867347e1764","ios":"levelo://app?vid=ce60430a-5f5b-4b57-8fb4-4867347e1764"},"vehicle_type_id":"4","last_reported":1702411656,"current_range_meters":1600,"station_id":"ce4bhg12rcd13ifvqf70","pricing_plan_id":"free"},{"bike_id":"d7a6c85d-a811-4fa8-800a-8c7d7fbad1e5","system_id":"levelo_inurba_marseille","lat":43.26835,"lon":5.39619,"is_reserved":false,"is_disabled":false,"rental_uris":{"android":"levelo://app?vid=d7a6c85d-a811-4fa8-800a-8c7d7fbad1e5","ios":"levelo://app?vid=d7a6c85d-a811-4fa8-800a-8c7d7fbad1e5"},"vehicle_type_id":"4","last_reported":1702411656,"current_range_meters":0,"station_id":"","pricing_plan_id":"free"},{"bike_id":"7d0b0b8c-d611-4443-9015-d9de7d6b8fed","system_id":"levelo_inurba_marseille","lat":43.30798,"lon":5.43516,"is_reserved":false,"is_disabled":false,"rental_uris":{"android":"levelo://app?vid=7d0b0b8c-d611-4443-9015-d9de7d6b8fed","ios":"levelo://app?vid=7d0b0b8c-d611-4443-9015-d9de7d6b8fed"},"vehicle_type_id":"4","last_reported":1702411656,"current_range_meters":0,"station_id":"ce4bhph2rcd13ifvqheg","pricing_plan_id":"free"},{"bike_id":"14bc19f9-c5ac-4814-b202-5604c65f25d1","system_id":"levelo_inurba_marseille","lat":43.30797,"lon":5.43524,"is_reserved":false,"is_disabled":false,"rental_uris":{"android":"levelo://app?vid=14bc19f9-c5ac-4814-b202-5604c65f25d1","ios":"levelo://app?vid=14bc19f9-c5ac-4814-b202-5604c65f25d1"},"vehicle_type_id":"4","last_reported":1702411656,"current_range_meters":16400,"station_id":"ce4bhph2rcd13ifvqheg","pricing_plan_id":"free"},{"bike_id":"7b55d306-2871-4eea-a8f0-c1498403b888","system_id":"levelo_inurba_marseille","lat":43.308051,"lon":5.43527,"is_reserved":false,"is_disabled":false,"rental_uris":{"android":"levelo://app?vid=7b55d306-2871-4eea-a8f0-c1498403b888","ios":"levelo://app?vid=7b55d306-2871-4eea-a8f0-c1498403b888"},"vehicle_type_id":"4","last_reported":1702411656,"current_range_meters":28000,"station_id":"ce4bhph2rcd13ifvqheg","pricing_plan_id":"free"},{"bike_id":"2d5995c6-f07c-4be4-b1ce-07610b76bbd1","system_id":"levelo_inurba_marseille","lat":43.261782,"lon":5.374515,"is_reserved":false,"is_disabled":false,"rental_uris":{"android":"levelo://app?vid=2d5995c6-f07c-4be4-b1ce-07610b76bbd1","ios":"levelo://app?vid=2d5995c6-f07c-4be4-b1ce-07610b76bbd1"},"vehicle_type_id":"4","last_reported":1702411656,"current_range_meters":6000,"station_id":"ce4bhgp2rcd13ifvqfc0","pricing_plan_id":"free"},{"bike_id":"60e4e2f6-4390-4029-b71c-11414f373115","system_id":"levelo_inurba_marseille","lat":43.271388,"lon":5.409269,"is_reserved":false,"is_disabled":false,"rental_uris":{"android":"levelo://app?vid=60e4e2f6-4390-4029-b71c-11414f373115","ios":"levelo://app?vid=60e4e2f6-4390-4029-b71c-11414f373115"},"vehicle_type_id":"4","last_reported":1702411656,"current_range_meters":28000,"station_id":"ce4bhl12rcd13ifvqgf0","pricing_plan_id":"free"},{"bike_id":"7010811e-5d6a-4506-8f86-a2839f396acc","system_id":"levelo_inurba_marseille","lat":43.26202,"lon":5.379299,"is_reserved":false,"is_disabled":false,"rental_uris":{"android":"levelo://app?vid=7010811e-5d6a-4506-8f86-a2839f396acc","ios":"levelo://app?vid=7010811e-5d6a-4506-8f86-a2839f396acc"},"vehicle_type_id":"4","last_reported":1702411656,"current_range_meters":30400,"station_id":"ce4bhjp2rcd13ifvqg90","pricing_plan_id":"free"},{"bike_id":"0a4bb84d-ad01-4337-a2be-c07f2c6fcc01","system_id":"levelo_inurba_marseille","lat":43.267959,"lon":5.402687,"is_reserved":false,"is_disabled":false,"rental_uris":{"android":"levelo://app?vid=0a4bb84d-ad01-4337-a2be-c07f2c6fcc01","ios":"levelo://app?vid=0a4bb84d-ad01-4337-a2be-c07f2c6fcc01"},"vehicle_type_id":"4","last_reported":1702411656,"current_range_meters":0,"station_id":"ce501612rcd8frsf0b60","pricing_plan_id":"free"},{"bike_id":"c6fd12df-9f3a-4af6-97ac-045eea3df2d1","system_id":"levelo_inurba_marseille","lat":43.298768,"lon":5.43643,"is_reserved":false,"is_disabled":false,"rental_uris":{"android":"levelo://app?vid=c6fd12df-9f3a-4af6-97ac-045eea3df2d1","ios":"levelo://app?vid=c6fd12df-9f3a-4af6-97ac-045eea3df2d1"},"vehicle_type_id":"4","last_reported":1702411656,"current_range_meters":30400,"station_id":"ce4bhpp2rcd13ifvqhfg","pricing_plan_id":"free"},{"bike_id":"14fb5ba6-affc-4814-9729-4e5def4dd2eb","system_id":"levelo_inurba_marseille","lat":43.298768,"lon":5.43643,"is_reserved":false,"is_disabled":false,"rental_uris":{"android":"levelo://app?vid=14fb5ba6-affc-4814-9729-4e5def4dd2eb","ios":"levelo://app?vid=14fb5ba6-affc-4814-9729-4e5def4dd2eb"},"vehicle_type_id":"4","last_reported":1702411656,"current_range_meters":12400,"station_id":"ce4bhpp2rcd13ifvqhfg","pricing_plan_id":"free"},{"bike_id":"98895282-4968-45b7-b4ce-883d5c8730c6","system_id":"levelo_inurba_marseille","lat":43.26055,"lon":5.39395,"is_reserved":false,"is_disabled":false,"rental_uris":{"android":"levelo://app?vid=98895282-4968-45b7-b4ce-883d5c8730c6","ios":"levelo://app?vid=98895282-4968-45b7-b4ce-883d5c8730c6"},"vehicle_type_id":"4","last_reported":1702411656,"current_range_meters":14400,"station_id":"ce4bhh92rcd13ifvqfj0","pricing_plan_id":"free"},{"bike_id":"55676f63-e2aa-41d4-a9aa-18ad58bf432e","system_id":"levelo_inurba_marseille","lat":43.275028,"lon":5.424534,"is_reserved":false,"is_disabled":false,"rental_uris":{"android":"levelo://app?vid=55676f63-e2aa-41d4-a9aa-18ad58bf432e","ios":"levelo://app?vid=55676f63-e2aa-41d4-a9aa-18ad58bf432e"},"vehicle_type_id":"4","last_reported":1702411656,"current_range_meters":30000,"station_id":"ce4bhn92rcd13ifvqgrg","pricing_plan_id":"free"},{"bike_id":"4f6bf374-0b3c-40f4-a301-3f4d0e294967","system_id":"levelo_inurba_marseille","lat":43.25577,"lon":5.38234,"is_reserved":false,"is_disabled":false,"rental_uris":{"android":"levelo://app?vid=4f6bf374-0b3c-40f4-a301-3f4d0e294967","ios":"levelo://app?vid=4f6bf374-0b3c-40f4-a301-3f4d0e294967"},"vehicle_type_id":"4","last_reported":1702411656,"current_range_meters":21200,"station_id":"ce4bhih2rcd13ifvqfs0","pricing_plan_id":"free"},{"bike_id":"a5b4c153-21d2-4205-9e38-c256ad535a06","system_id":"levelo_inurba_marseille","lat":43.25577,"lon":5.3824,"is_reserved":false,"is_disabled":false,"rental_uris":{"android":"levelo://app?vid=a5b4c153-21d2-4205-9e38-c256ad535a06","ios":"levelo://app?vid=a5b4c153-21d2-4205-9e38-c256ad535a06"},"vehicle_type_id":"4","last_reported":1702411656,"current_range_meters":26000,"station_id":"ce4bhih2rcd13ifvqfs0","pricing_plan_id":"free"},{"bike_id":"b964cdc5-dd23-4310-b90d-63837f2982b0","system_id":"levelo_inurba_marseille","lat":43.258224,"lon":5.394369,"is_reserved":false,"is_disabled":false,"rental_uris":{"android":"levelo://app?vid=b964cdc5-dd23-4310-b90d-63837f2982b0","ios":"levelo://app?vid=b964cdc5-dd23-4310-b90d-63837f2982b0"},"vehicle_type_id":"4","last_reported":1702411656,"current_range_meters":15600,"station_id":"ce4bhip2rcd13ifvqft0","pricing_plan_id":"free"},{"bike_id":"8bee575f-1ce6-4207-9d3e-11062018182f","system_id":"levelo_inurba_marseille","lat":43.25928,"lon":5.40908,"is_reserved":false,"is_disabled":false,"rental_uris":{"android":"levelo://app?vid=8bee575f-1ce6-4207-9d3e-11062018182f","ios":"levelo://app?vid=8bee575f-1ce6-4207-9d3e-11062018182f"},"vehicle_type_id":"4","last_reported":1702411656,"current_range_meters":0,"station_id":"ce4bhm92rcd13ifvqglg","pricing_plan_id":"free"},{"bike_id":"05e59e65-f6b5-4f82-89dd-335e2b21d5cc","system_id":"levelo_inurba_marseille","lat":43.250009,"lon":5.389195,"is_reserved":false,"is_disabled":false,"rental_uris":{"android":"levelo://app?vid=05e59e65-f6b5-4f82-89dd-335e2b21d5cc","ios":"levelo://app?vid=05e59e65-f6b5-4f82-89dd-335e2b21d5cc"},"vehicle_type_id":"4","last_reported":1702411656,"current_range_meters":0,"station_id":"ce4bhgp2rcd13ifvqfd0","pricing_plan_id":"free"},{"bike_id":"556a74b8-c748-4d56-b7b1-bf29e4763d71","system_id":"levelo_inurba_marseille","lat":43.250023,"lon":5.38919,"is_reserved":false,"is_disabled":false,"rental_uris":{"android":"levelo://app?vid=556a74b8-c748-4d56-b7b1-bf29e4763d71","ios":"levelo://app?vid=556a74b8-c748-4d56-b7b1-bf29e4763d71"},"vehicle_type_id":"4","last_reported":1702411656,"current_range_meters":16000,"station_id":"ce4bhgp2rcd13ifvqfd0","pricing_plan_id":"free"},{"bike_id":"9d48d986-2988-4976-9fac-1e7c93edd5ab","system_id":"levelo_inurba_marseille","lat":43.2479,"lon":5.374457,"is_reserved":false,"is_disabled":false,"rental_uris":{"android":"levelo://app?vid=9d48d986-2988-4976-9fac-1e7c93edd5ab","ios":"levelo://app?vid=9d48d986-2988-4976-9fac-1e7c93edd5ab"},"vehicle_type_id":"4","last_reported":1702411656,"current_range_meters":14000,"station_id":"ce4bhgh2rcd13ifvqfb0","pricing_plan_id":"free"},{"bike_id":"8378c66c-b377-4161-80a2-1545e302b374","system_id":"levelo_inurba_marseille","lat":43.2479,"lon":5.374457,"is_reserved":false,"is_disabled":false,"rental_uris":{"android":"levelo://app?vid=8378c66c-b377-4161-80a2-1545e302b374","ios":"levelo://app?vid=8378c66c-b377-4161-80a2-1545e302b374"},"vehicle_type_id":"4","last_reported":1702411656,"current_range_meters":14800,"station_id":"ce4bhgh2rcd13ifvqfb0","pricing_plan_id":"free"},{"bike_id":"89cd57c9-7161-4c72-96c1-ff91849bfc07","system_id":"levelo_inurba_marseille","lat":43.25089,"lon":5.39504,"is_reserved":false,"is_disabled":false,"rental_uris":{"android":"levelo://app?vid=89cd57c9-7161-4c72-96c1-ff91849bfc07","ios":"levelo://app?vid=89cd57c9-7161-4c72-96c1-ff91849bfc07"},"vehicle_type_id":"4","last_reported":1702411656,"current_range_meters":400,"station_id":"ce4bhm12rcd13ifvqgkg","pricing_plan_id":"free"},{"bike_id":"a294ad3f-85a1-40b4-8bdf-9451db5c9f4a","system_id":"levelo_inurba_marseille","lat":43.25102,"lon":5.403214,"is_reserved":false,"is_disabled":false,"rental_uris":{"android":"levelo://app?vid=a294ad3f-85a1-40b4-8bdf-9451db5c9f4a","ios":"levelo://app?vid=a294ad3f-85a1-40b4-8bdf-9451db5c9f4a"},"vehicle_type_id":"4","last_reported":1702411656,"current_range_meters":24800,"station_id":"ce4bhlh2rcd13ifvqgig","pricing_plan_id":"free"},{"bike_id":"0f76516c-d69d-4b3d-b7b6-e7fd6a938df2","system_id":"levelo_inurba_marseille","lat":43.243884,"lon":5.370737,"is_reserved":false,"is_disabled":false,"rental_uris":{"android":"levelo://app?vid=0f76516c-d69d-4b3d-b7b6-e7fd6a938df2","ios":"levelo://app?vid=0f76516c-d69d-4b3d-b7b6-e7fd6a938df2"},"vehicle_type_id":"4","last_reported":1702411656,"current_range_meters":1200,"station_id":"ce4bhhh2rcd13ifvqfk0","pricing_plan_id":"free"},{"bike_id":"4e9ad50d-7124-4cd1-8ec9-ae65dc86a2d9","system_id":"levelo_inurba_marseille","lat":43.245581,"lon":5.395069,"is_reserved":false,"is_disabled":false,"rental_uris":{"android":"levelo://app?vid=4e9ad50d-7124-4cd1-8ec9-ae65dc86a2d9","ios":"levelo://app?vid=4e9ad50d-7124-4cd1-8ec9-ae65dc86a2d9"},"vehicle_type_id":"4","last_reported":1702411656,"current_range_meters":24800,"station_id":"ce4bhlp2rcd13ifvqgjg","pricing_plan_id":"free"},{"bike_id":"3dc095af-a885-44c9-b900-c7749334e677","system_id":"levelo_inurba_marseille","lat":43.239588,"lon":5.366238,"is_reserved":false,"is_disabled":false,"rental_uris":{"android":"levelo://app?vid=3dc095af-a885-44c9-b900-c7749334e677","ios":"levelo://app?vid=3dc095af-a885-44c9-b900-c7749334e677"},"vehicle_type_id":"4","last_reported":1702411656,"current_range_meters":19200,"station_id":"ce4bhi12rcd13ifvqfp0","pricing_plan_id":"free"},{"bike_id":"e5f8a3f9-ad33-4c96-8f80-c9bb436ceb1b","system_id":"levelo_inurba_marseille","lat":43.235824,"lon":5.410473,"is_reserved":false,"is_disabled":false,"rental_uris":{"android":"levelo://app?vid=e5f8a3f9-ad33-4c96-8f80-c9bb436ceb1b","ios":"levelo://app?vid=e5f8a3f9-ad33-4c96-8f80-c9bb436ceb1b"},"vehicle_type_id":"4","last_reported":1702411656,"current_range_meters":14400,"station_id":"","pricing_plan_id":"free"},{"bike_id":"ecc6b30e-afbb-430b-a8fd-f3e07403c9ad","system_id":"levelo_inurba_marseille","lat":43.231794,"lon":5.400052,"is_reserved":false,"is_disabled":false,"rental_uris":{"android":"levelo://app?vid=ecc6b30e-afbb-430b-a8fd-f3e07403c9ad","ios":"levelo://app?vid=ecc6b30e-afbb-430b-a8fd-f3e07403c9ad"},"vehicle_type_id":"4","last_reported":1702411656,"current_range_meters":16800,"station_id":"ce4bhn12rcd13ifvqgqg","pricing_plan_id":"free"},{"bike_id":"677eb956-4a51-4640-9904-41e76368959a","system_id":"levelo_inurba_marseille","lat":43.231794,"lon":5.400052,"is_reserved":false,"is_disabled":false,"rental_uris":{"android":"levelo://app?vid=677eb956-4a51-4640-9904-41e76368959a","ios":"levelo://app?vid=677eb956-4a51-4640-9904-41e76368959a"},"vehicle_type_id":"4","last_reported":1702411656,"current_range_meters":20000,"station_id":"ce4bhn12rcd13ifvqgqg","pricing_plan_id":"free"},{"bike_id":"3b6acbeb-fcf2-4d7f-83a0-ba4dc62f4887","system_id":"levelo_inurba_marseille","lat":43.231794,"lon":5.400052,"is_reserved":false,"is_disabled":false,"rental_uris":{"android":"levelo://app?vid=3b6acbeb-fcf2-4d7f-83a0-ba4dc62f4887","ios":"levelo://app?vid=3b6acbeb-fcf2-4d7f-83a0-ba4dc62f4887"},"vehicle_type_id":"4","last_reported":1702411656,"current_range_meters":14000,"station_id":"ce4bhn12rcd13ifvqgqg","pricing_plan_id":"free"},{"bike_id":"e6e78515-aff2-4fc4-80b5-70f36396b81a","system_id":"levelo_inurba_marseille","lat":43.231794,"lon":5.400052,"is_reserved":false,"is_disabled":false,"rental_uris":{"android":"levelo://app?vid=e6e78515-aff2-4fc4-80b5-70f36396b81a","ios":"levelo://app?vid=e6e78515-aff2-4fc4-80b5-70f36396b81a"},"vehicle_type_id":"4","last_reported":1702411656,"current_range_meters":20400,"station_id":"ce4bhn12rcd13ifvqgqg","pricing_plan_id":"free"},{"bike_id":"20c0d9a4-1709-485b-9105-287bac4fabfc","system_id":"levelo_inurba_marseille","lat":43.231794,"lon":5.400052,"is_reserved":false,"is_disabled":false,"rental_uris":{"android":"levelo://app?vid=20c0d9a4-1709-485b-9105-287bac4fabfc","ios":"levelo://app?vid=20c0d9a4-1709-485b-9105-287bac4fabfc"},"vehicle_type_id":"4","last_reported":1702411656,"current_range_meters":16400,"station_id":"ce4bhn12rcd13ifvqgqg","pricing_plan_id":"free"},{"bike_id":"5b630b40-ff29-4dd6-a19d-40fab0f10db9","system_id":"levelo_inurba_marseille","lat":43.231794,"lon":5.400052,"is_reserved":false,"is_disabled":false,"rental_uris":{"android":"levelo://app?vid=5b630b40-ff29-4dd6-a19d-40fab0f10db9","ios":"levelo://app?vid=5b630b40-ff29-4dd6-a19d-40fab0f10db9"},"vehicle_type_id":"4","last_reported":1702411656,"current_range_meters":25200,"station_id":"ce4bhn12rcd13ifvqgqg","pricing_plan_id":"free"},{"bike_id":"28a81c8f-eba8-456c-89c4-2281c172fec8","system_id":"levelo_inurba_marseille","lat":43.231794,"lon":5.400052,"is_reserved":false,"is_disabled":false,"rental_uris":{"android":"levelo://app?vid=28a81c8f-eba8-456c-89c4-2281c172fec8","ios":"levelo://app?vid=28a81c8f-eba8-456c-89c4-2281c172fec8"},"vehicle_type_id":"4","last_reported":1702411656,"current_range_meters":0,"station_id":"ce4bhn12rcd13ifvqgqg","pricing_plan_id":"free"},{"bike_id":"1be76f22-8444-4e2d-9afa-4afe0c0d59c6","system_id":"levelo_inurba_marseille","lat":43.231793,"lon":5.400044,"is_reserved":false,"is_disabled":false,"rental_uris":{"android":"levelo://app?vid=1be76f22-8444-4e2d-9afa-4afe0c0d59c6","ios":"levelo://app?vid=1be76f22-8444-4e2d-9afa-4afe0c0d59c6"},"vehicle_type_id":"4","last_reported":1702411656,"current_range_meters":19600,"station_id":"ce4bhn12rcd13ifvqgqg","pricing_plan_id":"free"}]}}