{"last_updated":1710529558,"ttl":30,"version":"2.2","data":{"bikes":[{"bike_id":"d77b986b-64da-4967-94cb-f8569b2b3e97","system_id":"levelo_inurba_marseille","lat":43.313391,"lon":5.36706,"is_reserved":false,"is_disabled":false,"rental_uris":{"android":"levelo://app?vid=d77b986b-64da-4967-94cb-f8569b2b3e97","ios":"levelo://app?vid=d77b986b-64da-4967-94cb-f8569b2b3e97"},"vehicle_type_id":"4","last_reported":1710529558,"current_range_meters":4800,"station_id":"ce4bgr92rcd13ifvqc6g","pricing_plan_id":"cebpf4jnsgd1na2vs0mg"},{"bike_id":"0c7904ef-2d7b-444b-9f76-bf43878802a5","system_id":"levelo_inurba_marseille","lat":43.30915,"lon":5.36844,"is_reserved":false,"is_disabled":false,"rental_uris":{"android":"levelo://app?vid=0c7904ef-2d7b-444b-9f76-bf43878802a5","ios":"levelo://app?vid=0c7904ef-2d7b-444b-9f76-bf43878802a5"},"vehicle_type_id":"4","last_reported":1710529558,"current_range_meters":0,"station_id":"ce4bgn92rcd13ifvqbvg","pricing_plan_id":"cebpf4jnsgd1na2vs0mg"},{"bike_id":"d74a7086-5065-4409-b145-0d8764f305ac","system_id":"levelo_inurba_marseille","lat":43.30912,"lon":5.3685,"is_reserved":false,"is_disabled":false,"rental_uris":{"android":"levelo://app?vid=d74a7086-5065-4409-b145-0d8764f305ac","ios":"levelo://app?vid=d74a7086-5065-4409-b145-0d8764f305ac"},"vehicle_type_id":"4","last_reported":1710529558,"current_range_meters":0,"station_id":"ce4bgn92rcd13ifvqbvg","pricing_plan_id":"cebpf4jnsgd1na2vs0mg"},{"bike_id":"c55f3ff4-da6d-41ce-84a9-4e7086334e6b","system_id":"levelo_inurba_marseille","lat":43.309076,"lon":5.368465,"is_reserved":false,"is_disabled":false,"rental_uris":{"android":"levelo://app?vid=c55f3ff4-da6d-41ce-84a9-4e7086334e6b","ios":"levelo://app?vid=c55f3ff4-da6d-41ce-84a9-4e7086334e6b"},"vehicle_type_id":"4","last_reported":1710529558,"current_range_meters":0,"station_id":"ce4bgn92rcd13ifvqbvg","pricing_plan_id":"cebpf4jnsgd1na2vs0mg"},{"bike_id":"dc854f91-08de-45aa-a321-5e234e99fe85","system_id":"levelo_inurba_marseille","lat":43.314811,"lon":5.373103,"is_reserved":false,"is_disabled":false,"rental_uris":{"android":"levelo://app?vid=dc854f91-08de-45aa-a321-5e234e99fe85","ios":"levelo://app?vid=dc854f91-08de-45aa-a321-5e234e99fe85"},"vehicle_type_id":"4","last_reported":1710529558,"current_range_meters":21600,"station_id":"ce4bgt12rcd13ifvqcd0","pricing_plan_id":"cebpf4jnsgd1na2vs0mg"},{"bike_id":"ef8f5691-af9c-4262-9057-0a62a5b2282f","system_id":"levelo_inurba_marseille","lat":43.305368,"lon":5.367343,"is_reserved":false,"is_disabled":false,"rental_uris":{"android":"levelo://app?vid=ef8f5691-af9c-4262-9057-0a62a5b2282f","ios":"levelo://app?vid=ef8f5691-af9c-4262-9057-0a62a5b2282f"},"vehicle_type_id":"4","last_reported":1710529558,"current_range_meters":21600,"station_id":"ce4bgrp2rcd13ifvqc9g","pricing_plan_id":"cebpf4jnsgd1na2vs0mg"},{"bike_id":"f0d71f4f-b242-48ce-ae6b-4e163cbc0aca","system_id":"levelo_inurba_marseille","lat":43.305368,"lon":5.367343,"is_reserved":false,"is_disabled":false,"rental_uris":{"android":"levelo://app?vid=f0d71f4f-b242-48ce-ae6b-4e163cbc0aca","ios":"levelo://app?vid=f0d71f4f-b242-48ce-ae6b-4e163cbc0aca"},"vehicle_type_id":"4","last_reported":1710529558,"current_range_meters":0,"station_id":"ce4bgrp2rcd13ifvqc9g","pricing_plan_id":"cebpf4jnsgd1na2vs0mg"},{"bike_id":"ac2716a1-cf79-4b10-b09f-b80ebe400e79","system_id":"levelo_inurba_marseille","lat":43.305706,"lon":5.365654,"is_reserved":false,"is_disabled":false,"rental_uris":{"android":"levelo://app?vid=ac2716a1-cf79-4b10-b09f-b80ebe400e79","ios":"levelo://app?vid=ac2716a1-cf79-4b10-b09f-b80ebe400e79"},"vehicle_type_id":"4","last_reported":1710529558,"current_range_meters":24400,"station_id":"ce4bgs12rcd13ifvqcag","pricing_plan_id":"cebpf4jnsgd1na2vs0mg"},{"bike_id":"3f944ed4-a096-437b-a387-56df874863cb","system_id":"levelo_inurba_marseille","lat":43.311225,"lon":5.377625,"is_reserved":false,"is_disabled":false,"rental_uris":{"android":"levelo://app?vid=3f944ed4-a096-437b-a387-56df874863cb","ios":"levelo://app?vid=3f944ed4-a096-437b-a387-56df874863cb"},"vehicle_type_id":"4","last_reported":1710529558,"current_range_meters":0,"station_id":"ce4bgt92rcd13ifvqcg0","pricing_plan_id":"cebpf4jnsgd1na2vs0mg"},{"bike_id":"d2fc1d8b-85e5-4faa-8473-7466d783f4a7","system_id":"levelo_inurba_marseille","lat":43.311131,"lon":5.377651,"is_reserved":false,"is_disabled":false,"rental_uris":{"android":"levelo://app?vid=d2fc1d8b-85e5-4faa-8473-7466d783f4a7","ios":"levelo://app?vid=d2fc1d8b-85e5-4faa-8473-7466d783f4a7"},"vehicle_type_id":"4","last_reported":1710529558,"current_range_meters":800,"station_id":"ce4bgt92rcd13ifvqcg0","pricing_plan_id":"cebpf4jnsgd1na2vs0mg"},{"bike_id":"5b6d465b-4c57-4f4e-9f08-748f8b7117fe","system_id":"levelo_inurba_marseille","lat":43.311131,"lon":5.377651,"is_reserved":false,"is_disabled":false,"rental_uris":{"android":"levelo://app?vid=5b6d465b-4c57-4f4e-9f08-748f8b7117fe","ios":"levelo://app?vid=5b6d465b-4c57-4f4e-9f08-748f8b7117fe"},"vehicle_type_id":"4","last_reported":1710529558,"current_range_meters":3200,"station_id":"ce4bgt92rcd13ifvqcg0","pricing_plan_id":"cebpf4jnsgd1na2vs0mg"},{"bike_id":"682ad3ba-56c8-45ec-ae4f-5801eb58da62","system_id":"levelo_inurba_marseille","lat":43.311131,"lon":5.377651,"is_reserved":false,"is_disabled":false,"rental_uris":{"android":"levelo://app?vid=682ad3ba-56c8-45ec-ae4f-5801eb58da62","ios":"levelo://app?vid=682ad3ba-56c8-45ec-ae4f-5801eb58da62"},"vehicle_type_id":"4","last_reported":1710529558,"current_range_meters":800,"station_id":"ce4bgt92rcd13ifvqcg0","pricing_plan_id":"cebpf4jnsgd1na2vs0mg"},{"bike_id":"8f7276e5-5caf-4bb0-bd3f-ee9fd4b69283","system_id":"levelo_inurba_marseille","lat":43.311125,"lon":5.377624,"is_reserved":false,"is_disabled":false,"rental_uris":{"android":"levelo://app?vid=8f7276e5-5caf-4bb0-bd3f-ee9fd4b69283","ios":"levelo://app?vid=8f7276e5-5caf-4bb0-bd3f-ee9fd4b69283"},"vehicle_type_id":"4","last_reported":1710529558,"current_range_meters":20000,"station_id":"ce4bgt92rcd13ifvqcg0","pricing_plan_id":"cebpf4jnsgd1na2vs0mg"},{"bike_id":"f3b91a48-def7-4191-b885-04f7868a778b","system_id":"levelo_inurba_marseille","lat":43.311131,"lon":5.377651,"is_reserved":false,"is_disabled":false,"rental_uris":{"android":"levelo://app?vid=f3b91a48-def7-4191-b885-04f7868a778b","ios":"levelo://app?vid=f3b91a48-def7-4191-b885-04f7868a778b"},"vehicle_type_id":"4","last_reported":1710529558,"current_range_meters":26400,"station_id":"ce4bgt92rcd13ifvqcg0","pricing_plan_id":"cebpf4jnsgd1na2vs0mg"},{"bike_id":"04af954b-2824-46d7-bec0-7bf424e793f2","system_id":"levelo_inurba_marseille","lat":43.305989,"lon":5.37225,"is_reserved":false,"is_disabled":false,"rental_uris":{"android":"levelo://app?vid=04af954b-2824-46d7-bec0-7bf424e793f2","ios":"levelo://app?vid=04af954b-2824-46d7-bec0-7bf424e793f2"},"vehicle_type_id":"4","last_reported":1710529558,"current_range_meters":0,"station_id":"ce4bgqh2rcd13ifvqc4g","pricing_plan_id":"cebpf4jnsgd1na2vs0mg"},{"bike_id":"75b85b9b-5dc3-4e2c-91e1-956311896884","system_id":"levelo_inurba_marseille","lat":43.305989,"lon":5.37225,"is_reserved":false,"is_disabled":false,"rental_uris":{"android":"levelo://app?vid=75b85b9b-5dc3-4e2c-91e1-956311896884","ios":"levelo://app?vid=75b85b9b-5dc3-4e2c-91e1-956311896884"},"vehicle_type_id":"4","last_reported":1710529558,"current_range_meters":4800,"station_id":"ce4bgqh2rcd13ifvqc4g","pricing_plan_id":"cebpf4jnsgd1na2vs0mg"},{"bike_id":"73912fd3-af2b-4edc-b25e-b23861aabb2e","system_id":"levelo_inurba_marseille","lat":43.307945,"lon":5.376487,"is_reserved":false,"is_disabled":false,"rental_uris":{"android":"levelo://app?vid=73912fd3-af2b-4edc-b25e-b23861aabb2e","ios":"levelo://app?vid=73912fd3-af2b-4edc-b25e-b23861aabb2e"},"vehicle_type_id":"4","last_reported":1710529558,"current_range_meters":9200,"station_id":"ce4bgv92rcd13ifvqcq0","pricing_plan_id":"cebpf4jnsgd1na2vs0mg"},{"bike_id":"882eb0c3-ed4d-4753-9ac6-06985e32a930","system_id":"levelo_inurba_marseille","lat":43.317075,"lon":5.377367,"is_reserved":false,"is_disabled":false,"rental_uris":{"android":"levelo://app?vid=882eb0c3-ed4d-4753-9ac6-06985e32a930","ios":"levelo://app?vid=882eb0c3-ed4d-4753-9ac6-06985e32a930"},"vehicle_type_id":"4","last_reported":1710529558,"current_range_meters":18000,"station_id":"ce4bgth2rcd13ifvqch0","pricing_plan_id":"cebpf4jnsgd1na2vs0mg"},{"bike_id":"dc75d143-b120-4e36-bc93-cfcfb7308bee","system_id":"levelo_inurba_marseille","lat":43.3042,"lon":5.36543,"is_reserved":false,"is_disabled":false,"rental_uris":{"android":"levelo://app?vid=dc75d143-b120-4e36-bc93-cfcfb7308bee","ios":"levelo://app?vid=dc75d143-b120-4e36-bc93-cfcfb7308bee"},"vehicle_type_id":"4","last_reported":1710529558,"current_range_meters":5600,"station_id":"","pricing_plan_id":"cebpf4jnsgd1na2vs0mg"},{"bike_id":"daae827d-d388-4cc3-a86e-8969222094c5","system_id":"levelo_inurba_marseille","lat":43.317075,"lon":5.377367,"is_reserved":false,"is_disabled":false,"rental_uris":{"android":"levelo://app?vid=daae827d-d388-4cc3-a86e-8969222094c5","ios":"levelo://app?vid=daae827d-d388-4cc3-a86e-8969222094c5"},"vehicle_type_id":"4","last_reported":1710529558,"current_range_meters":20800,"station_id":"ce4bgth2rcd13ifvqch0","pricing_plan_id":"cebpf4jnsgd1na2vs0mg"},{"bike_id":"6df8a519-a704-46e9-b3eb-42b1fb917e85","system_id":"levelo_inurba_marseille","lat":43.31771,"lon":5.37788,"is_reserved":false,"is_disabled":false,"rental_uris":{"android":"levelo://app?vid=6df8a519-a704-46e9-b3eb-42b1fb917e85","ios":"levelo://app?vid=6df8a519-a704-46e9-b3eb-42b1fb917e85"},"vehicle_type_id":"4","last_reported":1710529558,"current_range_meters":14400,"station_id":"","pricing_plan_id":"cebpf4jnsgd1na2vs0mg"},{"bike_id":"6a7a556b-465e-476e-94ca-fd9b30229764","system_id":"levelo_inurba_marseille","lat":43.303046,"lon":5.368981,"is_reserved":false,"is_disabled":false,"rental_uris":{"android":"levelo://app?vid=6a7a556b-465e-476e-94ca-fd9b30229764","ios":"levelo://app?vid=6a7a556b-465e-476e-94ca-fd9b30229764"},"vehicle_type_id":"4","last_reported":1710529558,"current_range_meters":22800,"station_id":"ce4bgqh2rcd13ifvqc5g","pricing_plan_id":"cebpf4jnsgd1na2vs0mg"},{"bike_id":"3608d763-66fd-497b-a690-4b174f8b5ff5","system_id":"levelo_inurba_marseille","lat":43.315293,"lon":5.380349,"is_reserved":false,"is_disabled":false,"rental_uris":{"android":"levelo://app?vid=3608d763-66fd-497b-a690-4b174f8b5ff5","ios":"levelo://app?vid=3608d763-66fd-497b-a690-4b174f8b5ff5"},"vehicle_type_id":"4","last_reported":1710529558,"current_range_meters":30800,"station_id":"ce4bhsp2rcd13ifvqi50","pricing_plan_id":"cebpf4jnsgd1na2vs0mg"},{"bike_id":"d937afa4-a740-4cda-9fb3-d53f85ca2579","system_id":"levelo_inurba_marseille","lat":43.315293,"lon":5.380349,"is_reserved":false,"is_disabled":false,"rental_uris":{"android":"levelo://app?vid=d937afa4-a740-4cda-9fb3-d53f85ca2579","ios":"levelo://app?vid=d937afa4-a740-4cda-9fb3-d53f85ca2579"},"vehicle_type_id":"4","last_reported":1710529558,"current_range_meters":30800,"station_id":"ce4bhsp2rcd13ifvqi50","pricing_plan_id":"cebpf4jnsgd1na2vs0mg"},{"bike_id":"75acbb7a-844c-4262-98aa-3529cada0940","system_id":"levelo_inurba_marseille","lat":43.315289,"lon":5.380349,"is_reserved":false,"is_disabled":false,"rental_uris":{"android":"levelo://app?vid=75acbb7a-844c-4262-98aa-3529cada0940","ios":"levelo://app?vid=75acbb7a-844c-4262-98aa-3529cada0940"},"vehicle_type_id":"4","last_reported":1710529558,"current_range_meters":26000,"station_id":"ce4bhsp2rcd13ifvqi50","pricing_plan_id":"cebpf4jnsgd1na2vs0mg"},{"bike_id":"516f2353-9594-4c2e-980b-5ee0bfaee235","system_id":"levelo_inurba_marseille","lat":43.31056,"lon":5.38109,"is_reserved":false,"is_disabled":false,"rental_uris":{"android":"levelo://app?vid=516f2353-9594-4c2e-980b-5ee0bfaee235","ios":"levelo://app?vid=516f2353-9594-4c2e-980b-5ee0bfaee235"},"vehicle_type_id":"4","last_reported":1710529558,"current_range_meters":0,"station_id":"","pricing_plan_id":"cebpf4jnsgd1na2vs0mg"},{"bike_id":"ce3e7a10-abfc-411e-8352-f571ed6f42c6","system_id":"levelo_inurba_marseille","lat":43.301939,"lon":5.366286,"is_reserved":false,"is_disabled":false,"rental_uris":{"android":"levelo://app?vid=ce3e7a10-abfc-411e-8352-f571ed6f42c6","ios":"levelo://app?vid=ce3e7a10-abfc-411e-8352-f571ed6f42c6"},"vehicle_type_id":"4","last_reported":1710529558,"current_range_meters":21600,"station_id":"ce4bgrh2rcd13ifvqc8g","pricing_plan_id":"cebpf4jnsgd1na2vs0mg"},{"bike_id":"420b9174-2fab-4927-b5a8-c5609190aae8","system_id":"levelo_inurba_marseille","lat":43.301939,"lon":5.366286,"is_reserved":false,"is_disabled":false,"rental_uris":{"android":"levelo://app?vid=420b9174-2fab-4927-b5a8-c5609190aae8","ios":"levelo://app?vid=420b9174-2fab-4927-b5a8-c5609190aae8"},"vehicle_type_id":"4","last_reported":1710529558,"current_range_meters":1600,"station_id":"ce4bgrh2rcd13ifvqc8g","pricing_plan_id":"cebpf4jnsgd1na2vs0mg"},{"bike_id":"f98168a8-4838-4e9e-886e-9078b653ef0b","system_id":"levelo_inurba_marseille","lat":43.301939,"lon":5.366286,"is_reserved":false,"is_disabled":false,"rental_uris":{"android":"levelo://app?vid=f98168a8-4838-4e9e-886e-9078b653ef0b","ios":"levelo://app?vid=f98168a8-4838-4e9e-886e-9078b653ef0b"},"vehicle_type_id":"4","last_reported":1710529558,"current_range_meters":6400,"station_id":"ce4bgrh2rcd13ifvqc8g","pricing_plan_id":"cebpf4jnsgd1na2vs0mg"},{"bike_id":"1fee50e3-15d4-478a-b19a-2361c6fcb413","system_id":"levelo_inurba_marseille","lat":43.308012,"lon":5.381511,"is_reserved":false,"is_disabled":false,"rental_uris":{"android":"levelo://app?vid=1fee50e3-15d4-478a-b19a-2361c6fcb413","ios":"levelo://app?vid=1fee50e3-15d4-478a-b19a-2361c6fcb413"},"vehicle_type_id":"4","last_reported":1710529558,"current_range_meters":0,"station_id":"ce4bgt12rcd13ifvqce0","pricing_plan_id":"cebpf4jnsgd1na2vs0mg"},{"bike_id":"7a11679e-d559-4a3e-9518-04f7e41e825a","system_id":"levelo_inurba_marseille","lat":43.308012,"lon":5.381511,"is_reserved":false,"is_disabled":false,"rental_uris":{"android":"levelo://app?vid=7a11679e-d559-4a3e-9518-04f7e41e825a","ios":"levelo://app?vid=7a11679e-d559-4a3e-9518-04f7e41e825a"},"vehicle_type_id":"4","last_reported":1710529558,"current_range_meters":6000,"station_id":"ce4bgt12rcd13ifvqce0","pricing_plan_id":"cebpf4jnsgd1na2vs0mg"},{"bike_id":"94ad2519-13a4-4b36-b6a6-cf148bb1c589","system_id":"levelo_inurba_marseille","lat":43.308012,"lon":5.381511,"is_reserved":false,"is_disabled":false,"rental_uris":{"android":"levelo://app?vid=94ad2519-13a4-4b36-b6a6-cf148bb1c589","ios":"levelo://app?vid=94ad2519-13a4-4b36-b6a6-cf148bb1c589"},"vehicle_type_id":"4","last_reported":1710529558,"current_range_meters":1200,"station_id":"ce4bgt12rcd13ifvqce0","pricing_plan_id":"cebpf4jnsgd1na2vs0mg"},{"bike_id":"6b04fa3f-fd16-43ca-b983-e48ccedf1abb","system_id":"levelo_inurba_marseille","lat":43.30463,"lon":5.37896,"is_reserved":false,"is_disabled":false,"rental_uris":{"android":"levelo://app?vid=6b04fa3f-fd16-43ca-b983-e48ccedf1abb","ios":"levelo://app?vid=6b04fa3f-fd16-43ca-b983-e48ccedf1abb"},"vehicle_type_id":"4","last_reported":1710529558,"current_range_meters":0,"station_id":"ce4bgup2rcd13ifvqcn0","pricing_plan_id":"cebpf4jnsgd1na2vs0mg"},{"bike_id":"c0cc4b46-b357-4a80-98cc-afe13efe41f1","system_id":"levelo_inurba_marseille","lat":43.324771,"lon":5.36557,"is_reserved":false,"is_disabled":false,"rental_uris":{"android":"levelo://app?vid=c0cc4b46-b357-4a80-98cc-afe13efe41f1","ios":"levelo://app?vid=c0cc4b46-b357-4a80-98cc-afe13efe41f1"},"vehicle_type_id":"4","last_reported":1710529558,"current_range_meters":5200,"station_id":"ce4bhs12rcd13ifvqhvg","pricing_plan_id":"cebpf4jnsgd1na2vs0mg"},{"bike_id":"1fad90b3-ff8e-4e6e-8c30-8e54eeb051a1","system_id":"levelo_inurba_marseille","lat":43.324771,"lon":5.36557,"is_reserved":false,"is_disabled":false,"rental_uris":{"android":"levelo://app?vid=1fad90b3-ff8e-4e6e-8c30-8e54eeb051a1","ios":"levelo://app?vid=1fad90b3-ff8e-4e6e-8c30-8e54eeb051a1"},"vehicle_type_id":"4","last_reported":1710529558,"current_range_meters":6800,"station_id":"ce4bhs12rcd13ifvqhvg","pricing_plan_id":"cebpf4jnsgd1na2vs0mg"},{"bike_id":"12c419ff-5d5f-445b-9471-a4225b24c594","system_id":"levelo_inurba_marseille","lat":43.324771,"lon":5.36557,"is_reserved":false,"is_disabled":false,"rental_uris":{"android":"levelo://app?vid=12c419ff-5d5f-445b-9471-a4225b24c594","ios":"levelo://app?vid=12c419ff-5d5f-445b-9471-a4225b24c594"},"vehicle_type_id":"4","last_reported":1710529558,"current_range_meters":6000,"station_id":"ce4bhs12rcd13ifvqhvg","pricing_plan_id":"cebpf4jnsgd1na2vs0mg"},{"bike_id":"96ade1c6-b8f4-4248-a16c-9ca6451e8605","system_id":"levelo_inurba_marseille","lat":43.324771,"lon":5.36557,"is_reserved":false,"is_disabled":false,"rental_uris":{"android":"levelo://app?vid=96ade1c6-b8f4-4248-a16c-9ca6451e8605","ios":"levelo://app?vid=96ade1c6-b8f4-4248-a16c-9ca6451e8605"},"vehicle_type_id":"4","last_reported":1710529558,"current_range_meters":22000,"station_id":"ce4bhs12rcd13ifvqhvg","pricing_plan_id":"cebpf4jnsgd1na2vs0mg"},{"bike_id":"39592264-8806-4a31-a6a2-556b8abe3cbd","system_id":"levelo_inurba_marseille","lat":43.324771,"lon":5.36557,"is_reserved":false,"is_disabled":false,"rental_uris":{"android":"levelo://app?vid=39592264-8806-4a31-a6a2-556b8abe3cbd","ios":"levelo://app?vid=39592264-8806-4a31-a6a2-556b8abe3cbd"},"vehicle_type_id":"4","last_reported":1710529558,"current_range_meters":11200,"station_id":"ce4bhs12rcd13ifvqhvg","pricing_plan_id":"cebpf4jnsgd1na2vs0mg"},{"bike_id":"af0a83ad-4db4-465e-a460-b561e0502353","system_id":"levelo_inurba_marseille","lat":43.324771,"lon":5.36557,"is_reserved":false,"is_disabled":false,"rental_uris":{"android":"levelo://app?vid=af0a83ad-4db4-465e-a460-b561e0502353","ios":"levelo://app?vid=af0a83ad-4db4-465e-a460-b561e0502353"},"vehicle_type_id":"4","last_reported":1710529558,"current_range_meters":0,"station_id":"ce4bhs12rcd13ifvqhvg","pricing_plan_id":"cebpf4jnsgd1na2vs0mg"},{"bike_id":"18fc47d4-f43a-4eed-abb4-9d13f9e04f59","system_id":"levelo_inurba_marseille","lat":43.324771,"lon":5.36557,"is_reserved":false,"is_disabled":false,"rental_uris":{"android":"levelo://app?vid=18fc47d4-f43a-4eed-abb4-9d13f9e04f59","ios":"levelo://app?vid=18fc47d4-f43a-4eed-abb4-9d13f9e04f59"},"vehicle_type_id":"4","last_reported":1710529558,"current_range_meters":20800,"station_id":"ce4bhs12rcd13ifvqhvg","pricing_plan_id":"cebpf4jnsgd1na2vs0mg"},{"bike_id":"0beae27c-8e15-427f-98a8-4f6c1fff4039","system_id":"levelo_inurba_marseille","lat":43.324771,"lon":5.36557,"is_reserved":false,"is_disabled":false,"rental_uris":{"android":"levelo://app?vid=0beae27c-8e15-427f-98a8-4f6c1fff4039","ios":"levelo://app?vid=0beae27c-8e15-427f-98a8-4f6c1fff4039"},"vehicle_type_id":"4","last_reported":1710529558,"current_range_meters":8400,"station_id":"ce4bhs12rcd13ifvqhvg","pricing_plan_id":"cebpf4jnsgd1na2vs0mg"},{"bike_id":"5408e4c7-2fa4-4dab-a5a0-a5ab8acdc782","system_id":"levelo_inurba_marseille","lat":43.324771,"lon":5.36557,"is_reserved":false,"is_disabled":false,"rental_uris":{"android":"levelo://app?vid=5408e4c7-2fa4-4dab-a5a0-a5ab8acdc782","ios":"levelo://app?vid=5408e4c7-2fa4-4dab-a5a0-a5ab8acdc782"},"vehicle_type_id":"4","last_reported":1710529558,"current_range_meters":5600,"station_id":"ce4bhs12rcd13ifvqhvg","pricing_plan_id":"cebpf4jnsgd1na2vs0mg"},{"bike_id":"45c182d4-c42c-4114-9e74-abc1eba34bef","system_id":"levelo_inurba_marseille","lat":43.32489,"lon":5.36574,"is_reserved":false,"is_disabled":false,"rental_uris":{"android":"levelo://app?vid=45c182d4-c42c-4114-9e74-abc1eba34bef","ios":"levelo://app?vid=45c182d4-c42c-4114-9e74-abc1eba34bef"},"vehicle_type_id":"4","last_reported":1710529558,"current_range_meters":24800,"station_id":"ce4bhs12rcd13ifvqhvg","pricing_plan_id":"cebpf4jnsgd1na2vs0mg"},{"bike_id":"3636e797-ae37-4ed8-ae31-11958c8b0dde","system_id":"levelo_inurba_marseille","lat":43.324771,"lon":5.36557,"is_reserved":false,"is_disabled":false,"rental_uris":{"android":"levelo://app?vid=3636e797-ae37-4ed8-ae31-11958c8b0dde","ios":"levelo://app?vid=3636e797-ae37-4ed8-ae31-11958c8b0dde"},"vehicle_type_id":"4","last_reported":1710529558,"current_range_meters":15600,"station_id":"ce4bhs12rcd13ifvqhvg","pricing_plan_id":"cebpf4jnsgd1na2vs0mg"},{"bike_id":"4fbddead-94a4-4d62-8b05-b6aa80f360ed","system_id":"levelo_inurba_marseille","lat":43.310795,"lon":5.383555,"is_reserved":false,"is_disabled":false,"rental_uris":{"android":"levelo://app?vid=4fbddead-94a4-4d62-8b05-b6aa80f360ed","ios":"levelo://app?vid=4fbddead-94a4-4d62-8b05-b6aa80f360ed"},"vehicle_type_id":"4","last_reported":1710529558,"current_range_meters":0,"station_id":"ce4bgv92rcd13ifvqcr0","pricing_plan_id":"cebpf4jnsgd1na2vs0mg"},{"bike_id":"77b786e2-aa2d-43e5-b14d-e896b2c93fea","system_id":"levelo_inurba_marseille","lat":43.301477,"lon":5.373691,"is_reserved":false,"is_disabled":false,"rental_uris":{"android":"levelo://app?vid=77b786e2-aa2d-43e5-b14d-e896b2c93fea","ios":"levelo://app?vid=77b786e2-aa2d-43e5-b14d-e896b2c93fea"},"vehicle_type_id":"4","last_reported":1710529558,"current_range_meters":0,"station_id":"ce4bgs92rcd13ifvqcc0","pricing_plan_id":"cebpf4jnsgd1na2vs0mg"},{"bike_id":"ecddbea6-436c-48f3-82c9-ab1a9d901ce3","system_id":"levelo_inurba_marseille","lat":43.310804,"lon":5.38359,"is_reserved":false,"is_disabled":false,"rental_uris":{"android":"levelo://app?vid=ecddbea6-436c-48f3-82c9-ab1a9d901ce3","ios":"levelo://app?vid=ecddbea6-436c-48f3-82c9-ab1a9d901ce3"},"vehicle_type_id":"4","last_reported":1710529558,"current_range_meters":4800,"station_id":"ce4bgv92rcd13ifvqcr0","pricing_plan_id":"cebpf4jnsgd1na2vs0mg"},{"bike_id":"f0abc305-840e-4239-a132-d852de4bd002","system_id":"levelo_inurba_marseille","lat":43.310804,"lon":5.38359,"is_reserved":false,"is_disabled":false,"rental_uris":{"android":"levelo://app?vid=f0abc305-840e-4239-a132-d852de4bd002","ios":"levelo://app?vid=f0abc305-840e-4239-a132-d852de4bd002"},"vehicle_type_id":"4","last_reported":1710529558,"current_range_meters":14800,"station_id":"ce4bgv92rcd13ifvqcr0","pricing_plan_id":"cebpf4jnsgd1na2vs0mg"},{"bike_id":"c948e4ea-3506-4bf5-b479-2c59d25c384c","system_id":"levelo_inurba_marseille","lat":43.301429,"lon":5.37413,"is_reserved":false,"is_disabled":false,"rental_uris":{"android":"levelo://app?vid=c948e4ea-3506-4bf5-b479-2c59d25c384c","ios":"levelo://app?vid=c948e4ea-3506-4bf5-b479-2c59d25c384c"},"vehicle_type_id":"4","last_reported":1710529558,"current_range_meters":21600,"station_id":"ce4bgs92rcd13ifvqcc0","pricing_plan_id":"cebpf4jnsgd1na2vs0mg"},{"bike_id":"7615204a-5323-42e8-b6d7-a3ed7e31db63","system_id":"levelo_inurba_marseille","lat":43.301429,"lon":5.37413,"is_reserved":false,"is_disabled":false,"rental_uris":{"android":"levelo://app?vid=7615204a-5323-42e8-b6d7-a3ed7e31db63","ios":"levelo://app?vid=7615204a-5323-42e8-b6d7-a3ed7e31db63"},"vehicle_type_id":"4","last_reported":1710529558,"current_range_meters":0,"station_id":"ce4bgs92rcd13ifvqcc0","pricing_plan_id":"cebpf4jnsgd1na2vs0mg"},{"bike_id":"8c2606ec-d74f-4da2-8157-73276ac7fa27","system_id":"levelo_inurba_marseille","lat":43.30143,"lon":5.37413,"is_reserved":false,"is_disabled":false,"rental_uris":{"android":"levelo://app?vid=8c2606ec-d74f-4da2-8157-73276ac7fa27","ios":"levelo://app?vid=8c2606ec-d74f-4da2-8157-73276ac7fa27"},"vehicle_type_id":"4","last_reported":1710529558,"current_range_meters":0,"station_id":"ce4bgs92rcd13ifvqcc0","pricing_plan_id":"cebpf4jnsgd1na2vs0mg"},{"bike_id":"747ec0e5-a700-4ed0-859f-8b01d77434a9","system_id":"levelo_inurba_marseille","lat":43.319935,"lon":5.381699,"is_reserved":false,"is_disabled":false,"rental_uris":{"android":"levelo://app?vid=747ec0e5-a700-4ed0-859f-8b01d77434a9","ios":"levelo://app?vid=747ec0e5-a700-4ed0-859f-8b01d77434a9"},"vehicle_type_id":"4","last_reported":1710529558,"current_range_meters":0,"station_id":"ce4bhr12rcd13ifvqhpg","pricing_plan_id":"cebpf4jnsgd1na2vs0mg"},{"bike_id":"b2273e34-f3b1-45d8-a7c1-e0a5296f08a5","system_id":"levelo_inurba_marseille","lat":43.319935,"lon":5.381699,"is_reserved":false,"is_disabled":false,"rental_uris":{"android":"levelo://app?vid=b2273e34-f3b1-45d8-a7c1-e0a5296f08a5","ios":"levelo://app?vid=b2273e34-f3b1-45d8-a7c1-e0a5296f08a5"},"vehicle_type_id":"4","last_reported":1710529558,"current_range_meters":20400,"station_id":"ce4bhr12rcd13ifvqhpg","pricing_plan_id":"cebpf4jnsgd1na2vs0mg"},{"bike_id":"c84e0966-1c7f-41d6-a8f6-7198b24b7e42","system_id":"levelo_inurba_marseille","lat":43.31998,"lon":5.3815,"is_reserved":false,"is_disabled":false,"rental_uris":{"android":"levelo://app?vid=c84e0966-1c7f-41d6-a8f6-7198b24b7e42","ios":"levelo://app?vid=c84e0966-1c7f-41d6-a8f6-7198b24b7e42"},"vehicle_type_id":"4","last_reported":1710529558,"current_range_meters":21600,"station_id":"ce4bhr12rcd13ifvqhpg","pricing_plan_id":"cebpf4jnsgd1na2vs0mg"},{"bike_id":"a46f3b86-7dc1-46bc-b469-645f5d47ddad","system_id":"levelo_inurba_marseille","lat":43.319935,"lon":5.381699,"is_reserved":false,"is_disabled":false,"rental_uris":{"android":"levelo://app?vid=a46f3b86-7dc1-46bc-b469-645f5d47ddad","ios":"levelo://app?vid=a46f3b86-7dc1-46bc-b469-645f5d47ddad"},"vehicle_type_id":"4","last_reported":1710529558,"current_range_meters":19600,"station_id":"ce4bhr12rcd13ifvqhpg","pricing_plan_id":"cebpf4jnsgd1na2vs0mg"},{"bike_id":"5e3113e3-29f6-4f14-a9c5-2af5d9ac0333","system_id":"levelo_inurba_marseille","lat":43.319984,"lon":5.381551,"is_reserved":false,"is_disabled":false,"rental_uris":{"android":"levelo://app?vid=5e3113e3-29f6-4f14-a9c5-2af5d9ac0333","ios":"levelo://app?vid=5e3113e3-29f6-4f14-a9c5-2af5d9ac0333"},"vehicle_type_id":"4","last_reported":1710529558,"current_range_meters":9600,"station_id":"ce4bhr12rcd13ifvqhpg","pricing_plan_id":"cebpf4jnsgd1na2vs0mg"},{"bike_id":"047bfaaa-aa6b-49b2-8002-e870a4645c6c","system_id":"levelo_inurba_marseille","lat":43.319935,"lon":5.381699,"is_reserved":false,"is_disabled":false,"rental_uris":{"android":"levelo://app?vid=047bfaaa-aa6b-49b2-8002-e870a4645c6c","ios":"levelo://app?vid=047bfaaa-aa6b-49b2-8002-e870a4645c6c"},"vehicle_type_id":"4","last_reported":1710529558,"current_range_meters":18000,"station_id":"ce4bhr12rcd13ifvqhpg","pricing_plan_id":"cebpf4jnsgd1na2vs0mg"},{"bike_id":"32f5d04a-4a49-412d-8179-8f69e2f51ddc","system_id":"levelo_inurba_marseille","lat":43.320033,"lon":5.381613,"is_reserved":false,"is_disabled":false,"rental_uris":{"android":"levelo://app?vid=32f5d04a-4a49-412d-8179-8f69e2f51ddc","ios":"levelo://app?vid=32f5d04a-4a49-412d-8179-8f69e2f51ddc"},"vehicle_type_id":"4","last_reported":1710529558,"current_range_meters":6800,"station_id":"ce4bhr12rcd13ifvqhpg","pricing_plan_id":"cebpf4jnsgd1na2vs0mg"},{"bike_id":"52d03880-ba9c-4982-9e5e-4d4c36d1bd9e","system_id":"levelo_inurba_marseille","lat":43.30143,"lon":5.37413,"is_reserved":false,"is_disabled":false,"rental_uris":{"android":"levelo://app?vid=52d03880-ba9c-4982-9e5e-4d4c36d1bd9e","ios":"levelo://app?vid=52d03880-ba9c-4982-9e5e-4d4c36d1bd9e"},"vehicle_type_id":"4","last_reported":1710529558,"current_range_meters":12800,"station_id":"ce4bgs92rcd13ifvqcc0","pricing_plan_id":"cebpf4jnsgd1na2vs0mg"},{"bike_id":"0c5344ff-b80e-45bc-90c8-bdf821e6c51d","system_id":"levelo_inurba_marseille","lat":43.31358,"lon":5.38486,"is_reserved":false,"is_disabled":false,"rental_uris":{"android":"levelo://app?vid=0c5344ff-b80e-45bc-90c8-bdf821e6c51d","ios":"levelo://app?vid=0c5344ff-b80e-45bc-90c8-bdf821e6c51d"},"vehicle_type_id":"4","last_reported":1710529558,"current_range_meters":20000,"station_id":"ce4bgt92rcd13ifvqcf0","pricing_plan_id":"cebpf4jnsgd1na2vs0mg"},{"bike_id":"fbd861d1-23a3-486d-a17b-0ec30eb39a39","system_id":"levelo_inurba_marseille","lat":43.313571,"lon":5.384829,"is_reserved":false,"is_disabled":false,"rental_uris":{"android":"levelo://app?vid=fbd861d1-23a3-486d-a17b-0ec30eb39a39","ios":"levelo://app?vid=fbd861d1-23a3-486d-a17b-0ec30eb39a39"},"vehicle_type_id":"4","last_reported":1710529558,"current_range_meters":16800,"station_id":"ce4bgt92rcd13ifvqcf0","pricing_plan_id":"cebpf4jnsgd1na2vs0mg"},{"bike_id":"27b7a1a9-4610-4560-8aba-94ecd7c8d1ea","system_id":"levelo_inurba_marseille","lat":43.313571,"lon":5.384829,"is_reserved":false,"is_disabled":false,"rental_uris":{"android":"levelo://app?vid=27b7a1a9-4610-4560-8aba-94ecd7c8d1ea","ios":"levelo://app?vid=27b7a1a9-4610-4560-8aba-94ecd7c8d1ea"},"vehicle_type_id":"4","last_reported":1710529558,"current_range_meters":8800,"station_id":"ce4bgt92rcd13ifvqcf0","pricing_plan_id":"cebpf4jnsgd1na2vs0mg"},{"bike_id":"47aca380-5b66-4eab-a954-e9c3271864a5","system_id":"levelo_inurba_marseille","lat":43.31355,"lon":5.38492,"is_reserved":false,"is_disabled":false,"rental_uris":{"android":"levelo://app?vid=47aca380-5b66-4eab-a954-e9c3271864a5","ios":"levelo://app?vid=47aca380-5b66-4eab-a954-e9c3271864a5"},"vehicle_type_id":"4","last_reported":1710529558,"current_range_meters":13600,"station_id":"ce4bgt92rcd13ifvqcf0","pricing_plan_id":"cebpf4jnsgd1na2vs0mg"},{"bike_id":"034e3908-9df5-4a00-bbe2-3063caa792f3","system_id":"levelo_inurba_marseille","lat":43.313571,"lon":5.384829,"is_reserved":false,"is_disabled":false,"rental_uris":{"android":"levelo://app?vid=034e3908-9df5-4a00-bbe2-3063caa792f3","ios":"levelo://app?vid=034e3908-9df5-4a00-bbe2-3063caa792f3"},"vehicle_type_id":"4","last_reported":1710529558,"current_range_meters":16400,"station_id":"ce4bgt92rcd13ifvqcf0","pricing_plan_id":"cebpf4jnsgd1na2vs0mg"},{"bike_id":"aec21a42-9f02-44d5-8ed0-239cd7069cb7","system_id":"levelo_inurba_marseille","lat":43.31358,"lon":5.38496,"is_reserved":false,"is_disabled":false,"rental_uris":{"android":"levelo://app?vid=aec21a42-9f02-44d5-8ed0-239cd7069cb7","ios":"levelo://app?vid=aec21a42-9f02-44d5-8ed0-239cd7069cb7"},"vehicle_type_id":"4","last_reported":1710529558,"current_range_meters":20400,"station_id":"ce4bgt92rcd13ifvqcf0","pricing_plan_id":"cebpf4jnsgd1na2vs0mg"},{"bike_id":"9618b9f0-4ad3-4246-bdc9-fda4d032edda","system_id":"levelo_inurba_marseille","lat":43.313571,"lon":5.384829,"is_reserved":false,"is_disabled":false,"rental_uris":{"android":"levelo://app?vid=9618b9f0-4ad3-4246-bdc9-fda4d032edda","ios":"levelo://app?vid=9618b9f0-4ad3-4246-bdc9-fda4d032edda"},"vehicle_type_id":"4","last_reported":1710529558,"current_range_meters":26000,"station_id":"ce4bgt92rcd13ifvqcf0","pricing_plan_id":"cebpf4jnsgd1na2vs0mg"},{"bike_id":"6655247d-7c87-48e5-ae14-978fde2a1a5e","system_id":"levelo_inurba_marseille","lat":43.299222,"lon":5.365554,"is_reserved":false,"is_disabled":false,"rental_uris":{"android":"levelo://app?vid=6655247d-7c87-48e5-ae14-978fde2a1a5e","ios":"levelo://app?vid=6655247d-7c87-48e5-ae14-978fde2a1a5e"},"vehicle_type_id":"4","last_reported":1710529558,"current_range_meters":0,"station_id":"ce4bgm92rcd13ifvqbr0","pricing_plan_id":"cebpf4jnsgd1na2vs0mg"},{"bike_id":"43f3d50e-ec4a-48aa-b4fb-f6c57d64cf9c","system_id":"levelo_inurba_marseille","lat":43.29934,"lon":5.36551,"is_reserved":false,"is_disabled":false,"rental_uris":{"android":"levelo://app?vid=43f3d50e-ec4a-48aa-b4fb-f6c57d64cf9c","ios":"levelo://app?vid=43f3d50e-ec4a-48aa-b4fb-f6c57d64cf9c"},"vehicle_type_id":"4","last_reported":1710529558,"current_range_meters":0,"station_id":"ce4bgm92rcd13ifvqbr0","pricing_plan_id":"cebpf4jnsgd1na2vs0mg"},{"bike_id":"de2ff446-3993-4e97-afb4-8fc4602cdb47","system_id":"levelo_inurba_marseille","lat":43.299724,"lon":5.371829,"is_reserved":false,"is_disabled":false,"rental_uris":{"android":"levelo://app?vid=de2ff446-3993-4e97-afb4-8fc4602cdb47","ios":"levelo://app?vid=de2ff446-3993-4e97-afb4-8fc4602cdb47"},"vehicle_type_id":"4","last_reported":1710529558,"current_range_meters":19200,"station_id":"ce4bgr92rcd13ifvqc7g","pricing_plan_id":"cebpf4jnsgd1na2vs0mg"},{"bike_id":"9a482fbf-983e-4130-ac96-696c89f5e04a","system_id":"levelo_inurba_marseille","lat":43.299724,"lon":5.371829,"is_reserved":false,"is_disabled":false,"rental_uris":{"android":"levelo://app?vid=9a482fbf-983e-4130-ac96-696c89f5e04a","ios":"levelo://app?vid=9a482fbf-983e-4130-ac96-696c89f5e04a"},"vehicle_type_id":"4","last_reported":1710529558,"current_range_meters":13200,"station_id":"ce4bgr92rcd13ifvqc7g","pricing_plan_id":"cebpf4jnsgd1na2vs0mg"},{"bike_id":"10ebf107-b61f-4c0c-917c-b6a8eb1b788c","system_id":"levelo_inurba_marseille","lat":43.299724,"lon":5.371829,"is_reserved":false,"is_disabled":false,"rental_uris":{"android":"levelo://app?vid=10ebf107-b61f-4c0c-917c-b6a8eb1b788c","ios":"levelo://app?vid=10ebf107-b61f-4c0c-917c-b6a8eb1b788c"},"vehicle_type_id":"4","last_reported":1710529558,"current_range_meters":0,"station_id":"ce4bgr92rcd13ifvqc7g","pricing_plan_id":"cebpf4jnsgd1na2vs0mg"},{"bike_id":"2ee63317-14d9-4f91-86a9-84e146ece31c","system_id":"levelo_inurba_marseille","lat":43.305364,"lon":5.384119,"is_reserved":false,"is_disabled":false,"rental_uris":{"android":"levelo://app?vid=2ee63317-14d9-4f91-86a9-84e146ece31c","ios":"levelo://app?vid=2ee63317-14d9-4f91-86a9-84e146ece31c"},"vehicle_type_id":"4","last_reported":1710529558,"current_range_meters":18400,"station_id":"ce4bgg92rcd13ifvqb30","pricing_plan_id":"cebpf4jnsgd1na2vs0mg"},{"bike_id":"8060cd7e-58e0-4603-a6b4-1aa3f1f6f0e6","system_id":"levelo_inurba_marseille","lat":43.298433,"lon":5.362774,"is_reserved":false,"is_disabled":false,"rental_uris":{"android":"levelo://app?vid=8060cd7e-58e0-4603-a6b4-1aa3f1f6f0e6","ios":"levelo://app?vid=8060cd7e-58e0-4603-a6b4-1aa3f1f6f0e6"},"vehicle_type_id":"4","last_reported":1710529558,"current_range_meters":15600,"station_id":"ce4bgpp2rcd13ifvqc3g","pricing_plan_id":"cebpf4jnsgd1na2vs0mg"},{"bike_id":"cf9dafe8-edb7-49e3-80c4-eae1cde8bfcc","system_id":"levelo_inurba_marseille","lat":43.305364,"lon":5.384119,"is_reserved":false,"is_disabled":false,"rental_uris":{"android":"levelo://app?vid=cf9dafe8-edb7-49e3-80c4-eae1cde8bfcc","ios":"levelo://app?vid=cf9dafe8-edb7-49e3-80c4-eae1cde8bfcc"},"vehicle_type_id":"4","last_reported":1710529558,"current_range_meters":5200,"station_id":"ce4bgg92rcd13ifvqb30","pricing_plan_id":"cebpf4jnsgd1na2vs0mg"},{"bike_id":"bf0706c0-0a5a-4595-845e-dfb8f50a13cf","system_id":"levelo_inurba_marseille","lat":43.298433,"lon":5.362774,"is_reserved":false,"is_disabled":false,"rental_uris":{"android":"levelo://app?vid=bf0706c0-0a5a-4595-845e-dfb8f50a13cf","ios":"levelo://app?vid=bf0706c0-0a5a-4595-845e-dfb8f50a13cf"},"vehicle_type_id":"4","last_reported":1710529558,"current_range_meters":2000,"station_id":"ce4bgpp2rcd13ifvqc3g","pricing_plan_id":"cebpf4jnsgd1na2vs0mg"},{"bike_id":"2bacbe20-ac34-4a7e-83df-a58a3abecb84","system_id":"levelo_inurba_marseille","lat":43.305364,"lon":5.384119,"is_reserved":false,"is_disabled":false,"rental_uris":{"android":"levelo://app?vid=2bacbe20-ac34-4a7e-83df-a58a3abecb84","ios":"levelo://app?vid=2bacbe20-ac34-4a7e-83df-a58a3abecb84"},"vehicle_type_id":"4","last_reported":1710529558,"current_range_meters":0,"station_id":"ce4bgg92rcd13ifvqb30","pricing_plan_id":"cebpf4jnsgd1na2vs0mg"},{"bike_id":"dfb17191-e3cb-45d1-b4b7-63f7b06620b2","system_id":"levelo_inurba_marseille","lat":43.299243,"lon":5.374807,"is_reserved":false,"is_disabled":false,"rental_uris":{"android":"levelo://app?vid=dfb17191-e3cb-45d1-b4b7-63f7b06620b2","ios":"levelo://app?vid=dfb17191-e3cb-45d1-b4b7-63f7b06620b2"},"vehicle_type_id":"4","last_reported":1710529558,"current_range_meters":18000,"station_id":"ce4bgjh2rcd13ifvqbg0","pricing_plan_id":"cebpf4jnsgd1na2vs0mg"},{"bike_id":"d7aa78ce-d9b3-420c-bcd9-63284a640b24","system_id":"levelo_inurba_marseille","lat":43.298433,"lon":5.362774,"is_reserved":false,"is_disabled":false,"rental_uris":{"android":"levelo://app?vid=d7aa78ce-d9b3-420c-bcd9-63284a640b24","ios":"levelo://app?vid=d7aa78ce-d9b3-420c-bcd9-63284a640b24"},"vehicle_type_id":"4","last_reported":1710529558,"current_range_meters":0,"station_id":"ce4bgpp2rcd13ifvqc3g","pricing_plan_id":"cebpf4jnsgd1na2vs0mg"},{"bike_id":"6b440c7c-cbf5-4f05-8267-da875b7e362b","system_id":"levelo_inurba_marseille","lat":43.305364,"lon":5.384119,"is_reserved":false,"is_disabled":false,"rental_uris":{"android":"levelo://app?vid=6b440c7c-cbf5-4f05-8267-da875b7e362b","ios":"levelo://app?vid=6b440c7c-cbf5-4f05-8267-da875b7e362b"},"vehicle_type_id":"4","last_reported":1710529558,"current_range_meters":8800,"station_id":"ce4bgg92rcd13ifvqb30","pricing_plan_id":"cebpf4jnsgd1na2vs0mg"},{"bike_id":"a0dddae5-476c-487e-93ba-54bf1d55bfd3","system_id":"levelo_inurba_marseille","lat":43.298433,"lon":5.362774,"is_reserved":false,"is_disabled":false,"rental_uris":{"android":"levelo://app?vid=a0dddae5-476c-487e-93ba-54bf1d55bfd3","ios":"levelo://app?vid=a0dddae5-476c-487e-93ba-54bf1d55bfd3"},"vehicle_type_id":"4","last_reported":1710529558,"current_range_meters":25600,"station_id":"ce4bgpp2rcd13ifvqc3g","pricing_plan_id":"cebpf4jnsgd1na2vs0mg"},{"bike_id":"22598625-9362-4635-8b18-0d4453fd0ddd","system_id":"levelo_inurba_marseille","lat":43.298433,"lon":5.362774,"is_reserved":false,"is_disabled":false,"rental_uris":{"android":"levelo://app?vid=22598625-9362-4635-8b18-0d4453fd0ddd","ios":"levelo://app?vid=22598625-9362-4635-8b18-0d4453fd0ddd"},"vehicle_type_id":"4","last_reported":1710529558,"current_range_meters":13200,"station_id":"ce4bgpp2rcd13ifvqc3g","pricing_plan_id":"cebpf4jnsgd1na2vs0mg"},{"bike_id":"596dd746-01c1-4a45-9347-64f0e3a3f075","system_id":"levelo_inurba_marseille","lat":43.299243,"lon":5.37481,"is_reserved":false,"is_disabled":false,"rental_uris":{"android":"levelo://app?vid=596dd746-01c1-4a45-9347-64f0e3a3f075","ios":"levelo://app?vid=596dd746-01c1-4a45-9347-64f0e3a3f075"},"vehicle_type_id":"4","last_reported":1710529558,"current_range_meters":2000,"station_id":"ce4bgjh2rcd13ifvqbg0","pricing_plan_id":"cebpf4jnsgd1na2vs0mg"},{"bike_id":"90eeb74a-c29e-490d-913d-79f55162f128","system_id":"levelo_inurba_marseille","lat":43.311722,"lon":5.387247,"is_reserved":false,"is_disabled":false,"rental_uris":{"android":"levelo://app?vid=90eeb74a-c29e-490d-913d-79f55162f128","ios":"levelo://app?vid=90eeb74a-c29e-490d-913d-79f55162f128"},"vehicle_type_id":"4","last_reported":1710529558,"current_range_meters":25600,"station_id":"ce4bgv12rcd13ifvqcp0","pricing_plan_id":"cebpf4jnsgd1na2vs0mg"},{"bike_id":"7ca14005-3df0-4c9e-9c86-d5767df980e1","system_id":"levelo_inurba_marseille","lat":43.31169,"lon":5.38711,"is_reserved":false,"is_disabled":false,"rental_uris":{"android":"levelo://app?vid=7ca14005-3df0-4c9e-9c86-d5767df980e1","ios":"levelo://app?vid=7ca14005-3df0-4c9e-9c86-d5767df980e1"},"vehicle_type_id":"4","last_reported":1710529558,"current_range_meters":0,"station_id":"ce4bgv12rcd13ifvqcp0","pricing_plan_id":"cebpf4jnsgd1na2vs0mg"},{"bike_id":"8761a9b8-70be-4ce2-a9fe-2382758a971a","system_id":"levelo_inurba_marseille","lat":43.299243,"lon":5.374807,"is_reserved":false,"is_disabled":false,"rental_uris":{"android":"levelo://app?vid=8761a9b8-70be-4ce2-a9fe-2382758a971a","ios":"levelo://app?vid=8761a9b8-70be-4ce2-a9fe-2382758a971a"},"vehicle_type_id":"4","last_reported":1710529558,"current_range_meters":3200,"station_id":"ce4bgjh2rcd13ifvqbg0","pricing_plan_id":"cebpf4jnsgd1na2vs0mg"},{"bike_id":"388d6a26-c5db-4ab5-a4e9-4fd2754979ac","system_id":"levelo_inurba_marseille","lat":43.31167,"lon":5.38712,"is_reserved":false,"is_disabled":false,"rental_uris":{"android":"levelo://app?vid=388d6a26-c5db-4ab5-a4e9-4fd2754979ac","ios":"levelo://app?vid=388d6a26-c5db-4ab5-a4e9-4fd2754979ac"},"vehicle_type_id":"4","last_reported":1710529558,"current_range_meters":22400,"station_id":"ce4bgv12rcd13ifvqcp0","pricing_plan_id":"cebpf4jnsgd1na2vs0mg"},{"bike_id":"1b59899c-af5e-48fe-9204-d5b84ab95503","system_id":"levelo_inurba_marseille","lat":43.299243,"lon":5.37481,"is_reserved":false,"is_disabled":false,"rental_uris":{"android":"levelo://app?vid=1b59899c-af5e-48fe-9204-d5b84ab95503","ios":"levelo://app?vid=1b59899c-af5e-48fe-9204-d5b84ab95503"},"vehicle_type_id":"4","last_reported":1710529558,"current_range_meters":13600,"station_id":"ce4bgjh2rcd13ifvqbg0","pricing_plan_id":"cebpf4jnsgd1na2vs0mg"},{"bike_id":"ac77377f-3a66-42d1-b32e-77871da96e7b","system_id":"levelo_inurba_marseille","lat":43.311722,"lon":5.387247,"is_reserved":false,"is_disabled":false,"rental_uris":{"android":"levelo://app?vid=ac77377f-3a66-42d1-b32e-77871da96e7b","ios":"levelo://app?vid=ac77377f-3a66-42d1-b32e-77871da96e7b"},"vehicle_type_id":"4","last_reported":1710529558,"current_range_meters":1200,"station_id":"ce4bgv12rcd13ifvqcp0","pricing_plan_id":"cebpf4jnsgd1na2vs0mg"},{"bike_id":"f7d96aec-7728-435f-957c-2335ceb85958","system_id":"levelo_inurba_marseille","lat":43.311722,"lon":5.387247,"is_reserved":false,"is_disabled":false,"rental_uris":{"android":"levelo://app?vid=f7d96aec-7728-435f-957c-2335ceb85958","ios":"levelo://app?vid=f7d96aec-7728-435f-957c-2335ceb85958"},"vehicle_type_id":"4","last_reported":1710529558,"current_range_meters":18000,"station_id":"ce4bgv12rcd13ifvqcp0","pricing_plan_id":"cebpf4jnsgd1na2vs0mg"},{"bike_id":"7f10c241-2a14-4d7b-9d9f-0e9f33b52958","system_id":"levelo_inurba_marseille","lat":43.311722,"lon":5.387247,"is_reserved":false,"is_disabled":false,"rental_uris":{"android":"levelo://app?vid=7f10c241-2a14-4d7b-9d9f-0e9f33b52958","ios":"levelo://app?vid=7f10c241-2a14-4d7b-9d9f-0e9f33b52958"},"vehicle_type_id":"4","last_reported":1710529558,"current_range_meters":2800,"station_id":"ce4bgv12rcd13ifvqcp0","pricing_plan_id":"cebpf4jnsgd1na2vs0mg"},{"bike_id":"c7138234-dee1-496b-a4b5-ec50ce387339","system_id":"levelo_inurba_marseille","lat":43.322872,"lon":5.382756,"is_reserved":false,"is_disabled":false,"rental_uris":{"android":"levelo://app?vid=c7138234-dee1-496b-a4b5-ec50ce387339","ios":"levelo://app?vid=c7138234-dee1-496b-a4b5-ec50ce387339"},"vehicle_type_id":"4","last_reported":1710529558,"current_range_meters":19200,"station_id":"ce4bhr12rcd13ifvqhqg","pricing_plan_id":"cebpf4jnsgd1na2vs0mg"},{"bike_id":"33b24acf-298f-4a11-a2c4-edc87e891ea2","system_id":"levelo_inurba_marseille","lat":43.322872,"lon":5.382756,"is_reserved":false,"is_disabled":false,"rental_uris":{"android":"levelo://app?vid=33b24acf-298f-4a11-a2c4-edc87e891ea2","ios":"levelo://app?vid=33b24acf-298f-4a11-a2c4-edc87e891ea2"},"vehicle_type_id":"4","last_reported":1710529558,"current_range_meters":4400,"station_id":"ce4bhr12rcd13ifvqhqg","pricing_plan_id":"cebpf4jnsgd1na2vs0mg"},{"bike_id":"e66883bf-d30b-4db4-b8ca-e91c00f7d32e","system_id":"levelo_inurba_marseille","lat":43.297794,"lon":5.370888,"is_reserved":false,"is_disabled":false,"rental_uris":{"android":"levelo://app?vid=e66883bf-d30b-4db4-b8ca-e91c00f7d32e","ios":"levelo://app?vid=e66883bf-d30b-4db4-b8ca-e91c00f7d32e"},"vehicle_type_id":"4","last_reported":1710529558,"current_range_meters":7600,"station_id":"ce4bgop2rcd13ifvqc1g","pricing_plan_id":"cebpf4jnsgd1na2vs0mg"},{"bike_id":"3ff125a5-dff1-4591-b6cc-449dc2424878","system_id":"levelo_inurba_marseille","lat":43.322872,"lon":5.382756,"is_reserved":false,"is_disabled":false,"rental_uris":{"android":"levelo://app?vid=3ff125a5-dff1-4591-b6cc-449dc2424878","ios":"levelo://app?vid=3ff125a5-dff1-4591-b6cc-449dc2424878"},"vehicle_type_id":"4","last_reported":1710529558,"current_range_meters":23200,"station_id":"ce4bhr12rcd13ifvqhqg","pricing_plan_id":"cebpf4jnsgd1na2vs0mg"},{"bike_id":"36727d06-0af4-4c64-88de-4193d3d2494b","system_id":"levelo_inurba_marseille","lat":43.322872,"lon":5.382756,"is_reserved":false,"is_disabled":false,"rental_uris":{"android":"levelo://app?vid=36727d06-0af4-4c64-88de-4193d3d2494b","ios":"levelo://app?vid=36727d06-0af4-4c64-88de-4193d3d2494b"},"vehicle_type_id":"4","last_reported":1710529558,"current_range_meters":21200,"station_id":"ce4bhr12rcd13ifvqhqg","pricing_plan_id":"cebpf4jnsgd1na2vs0mg"},{"bike_id":"a0646874-b928-4238-88ab-01778b2d284c","system_id":"levelo_inurba_marseille","lat":43.32287,"lon":5.38273,"is_reserved":false,"is_disabled":false,"rental_uris":{"android":"levelo://app?vid=a0646874-b928-4238-88ab-01778b2d284c","ios":"levelo://app?vid=a0646874-b928-4238-88ab-01778b2d284c"},"vehicle_type_id":"4","last_reported":1710529558,"current_range_meters":0,"station_id":"ce4bhr12rcd13ifvqhqg","pricing_plan_id":"cebpf4jnsgd1na2vs0mg"},{"bike_id":"41a964d5-3943-4f24-b8cf-62a929f835d5","system_id":"levelo_inurba_marseille","lat":43.322872,"lon":5.382756,"is_reserved":false,"is_disabled":false,"rental_uris":{"android":"levelo://app?vid=41a964d5-3943-4f24-b8cf-62a929f835d5","ios":"levelo://app?vid=41a964d5-3943-4f24-b8cf-62a929f835d5"},"vehicle_type_id":"4","last_reported":1710529558,"current_range_meters":23200,"station_id":"ce4bhr12rcd13ifvqhqg","pricing_plan_id":"cebpf4jnsgd1na2vs0mg"},{"bike_id":"7698d3ee-9070-4899-9c2c-ea0cac5b7815","system_id":"levelo_inurba_marseille","lat":43.322872,"lon":5.382756,"is_reserved":false,"is_disabled":false,"rental_uris":{"android":"levelo://app?vid=7698d3ee-9070-4899-9c2c-ea0cac5b7815","ios":"levelo://app?vid=7698d3ee-9070-4899-9c2c-ea0cac5b7815"},"vehicle_type_id":"4","last_reported":1710529558,"current_range_meters":11200,"station_id":"ce4bhr12rcd13ifvqhqg","pricing_plan_id":"cebpf4jnsgd1na2vs0mg"},{"bike_id":"7d711117-8f24-4ca5-af35-2d207110a750","system_id":"levelo_inurba_marseille","lat":43.322872,"lon":5.382756,"is_reserved":false,"is_disabled":false,"rental_uris":{"android":"levelo://app?vid=7d711117-8f24-4ca5-af35-2d207110a750","ios":"levelo://app?vid=7d711117-8f24-4ca5-af35-2d207110a750"},"vehicle_type_id":"4","last_reported":1710529558,"current_range_meters":31200,"station_id":"ce4bhr12rcd13ifvqhqg","pricing_plan_id":"cebpf4jnsgd1na2vs0mg"},{"bike_id":"9be1610f-c31d-4ce8-90f5-92648a7ce7bd","system_id":"levelo_inurba_marseille","lat":43.322872,"lon":5.382756,"is_reserved":false,"is_disabled":false,"rental_uris":{"android":"levelo://app?vid=9be1610f-c31d-4ce8-90f5-92648a7ce7bd","ios":"levelo://app?vid=9be1610f-c31d-4ce8-90f5-92648a7ce7bd"},"vehicle_type_id":"4","last_reported":1710529558,"current_range_meters":24800,"station_id":"ce4bhr12rcd13ifvqhqg","pricing_plan_id":"cebpf4jnsgd1na2vs0mg"},{"bike_id":"a1ea46c0-4921-4767-a801-a177044432f3","system_id":"levelo_inurba_marseille","lat":43.322872,"lon":5.382756,"is_reserved":false,"is_disabled":false,"rental_uris":{"android":"levelo://app?vid=a1ea46c0-4921-4767-a801-a177044432f3","ios":"levelo://app?vid=a1ea46c0-4921-4767-a801-a177044432f3"},"vehicle_type_id":"4","last_reported":1710529558,"current_range_meters":31200,"station_id":"ce4bhr12rcd13ifvqhqg","pricing_plan_id":"cebpf4jnsgd1na2vs0mg"},{"bike_id":"2d6887a7-62ae-4d89-8c19-2ea133424140","system_id":"levelo_inurba_marseille","lat":43.322872,"lon":5.382756,"is_reserved":false,"is_disabled":false,"rental_uris":{"android":"levelo://app?vid=2d6887a7-62ae-4d89-8c19-2ea133424140","ios":"levelo://app?vid=2d6887a7-62ae-4d89-8c19-2ea133424140"},"vehicle_type_id":"4","last_reported":1710529558,"current_range_meters":8000,"station_id":"ce4bhr12rcd13ifvqhqg","pricing_plan_id":"cebpf4jnsgd1na2vs0mg"},{"bike_id":"26a6f107-4553-428a-b878-f3d63b74f859","system_id":"levelo_inurba_marseille","lat":43.322872,"lon":5.382756,"is_reserved":false,"is_disabled":false,"rental_uris":{"android":"levelo://app?vid=26a6f107-4553-428a-b878-f3d63b74f859","ios":"levelo://app?vid=26a6f107-4553-428a-b878-f3d63b74f859"},"vehicle_type_id":"4","last_reported":1710529558,"current_range_meters":14000,"station_id":"ce4bhr12rcd13ifvqhqg","pricing_plan_id":"cebpf4jnsgd1na2vs0mg"},{"bike_id":"d9c7295e-158e-4641-9756-30eaf8e27ab3","system_id":"levelo_inurba_marseille","lat":43.322872,"lon":5.382756,"is_reserved":false,"is_disabled":false,"rental_uris":{"android":"levelo://app?vid=d9c7295e-158e-4641-9756-30eaf8e27ab3","ios":"levelo://app?vid=d9c7295e-158e-4641-9756-30eaf8e27ab3"},"vehicle_type_id":"4","last_reported":1710529558,"current_range_meters":3600,"station_id":"ce4bhr12rcd13ifvqhqg","pricing_plan_id":"cebpf4jnsgd1na2vs0mg"},{"bike_id":"081fc725-b692-4ec7-9e99-930610a215ef","system_id":"levelo_inurba_marseille","lat":43.297163,"lon":5.365866,"is_reserved":false,"is_disabled":false,"rental_uris":{"android":"levelo://app?vid=081fc725-b692-4ec7-9e99-930610a215ef","ios":"levelo://app?vid=081fc725-b692-4ec7-9e99-930610a215ef"},"vehicle_type_id":"4","last_reported":1710529558,"current_range_meters":5200,"station_id":"ce4bgn12rcd13ifvqbt0","pricing_plan_id":"cebpf4jnsgd1na2vs0mg"},{"bike_id":"87f43452-0a51-4620-b47e-f93caefca0b2","system_id":"levelo_inurba_marseille","lat":43.29707,"lon":5.36604,"is_reserved":false,"is_disabled":false,"rental_uris":{"android":"levelo://app?vid=87f43452-0a51-4620-b47e-f93caefca0b2","ios":"levelo://app?vid=87f43452-0a51-4620-b47e-f93caefca0b2"},"vehicle_type_id":"4","last_reported":1710529558,"current_range_meters":0,"station_id":"ce4bgn12rcd13ifvqbt0","pricing_plan_id":"cebpf4jnsgd1na2vs0mg"},{"bike_id":"33d8e595-0978-4fe6-8128-abf0116272f0","system_id":"levelo_inurba_marseille","lat":43.297163,"lon":5.365866,"is_reserved":false,"is_disabled":false,"rental_uris":{"android":"levelo://app?vid=33d8e595-0978-4fe6-8128-abf0116272f0","ios":"levelo://app?vid=33d8e595-0978-4fe6-8128-abf0116272f0"},"vehicle_type_id":"4","last_reported":1710529558,"current_range_meters":9200,"station_id":"ce4bgn12rcd13ifvqbt0","pricing_plan_id":"cebpf4jnsgd1na2vs0mg"},{"bike_id":"f8527709-0478-4463-8709-86c81b29e673","system_id":"levelo_inurba_marseille","lat":43.29704,"lon":5.36607,"is_reserved":false,"is_disabled":false,"rental_uris":{"android":"levelo://app?vid=f8527709-0478-4463-8709-86c81b29e673","ios":"levelo://app?vid=f8527709-0478-4463-8709-86c81b29e673"},"vehicle_type_id":"4","last_reported":1710529558,"current_range_meters":0,"station_id":"ce4bgn12rcd13ifvqbt0","pricing_plan_id":"cebpf4jnsgd1na2vs0mg"},{"bike_id":"b459e0bb-9806-482e-9e75-c43d58faadf3","system_id":"levelo_inurba_marseille","lat":43.2968,"lon":5.37291,"is_reserved":false,"is_disabled":false,"rental_uris":{"android":"levelo://app?vid=b459e0bb-9806-482e-9e75-c43d58faadf3","ios":"levelo://app?vid=b459e0bb-9806-482e-9e75-c43d58faadf3"},"vehicle_type_id":"4","last_reported":1710529558,"current_range_meters":20000,"station_id":"ce4bgk12rcd13ifvqbj0","pricing_plan_id":"cebpf4jnsgd1na2vs0mg"},{"bike_id":"0c3a71a7-2cf9-487e-813c-a15d0ca4d586","system_id":"levelo_inurba_marseille","lat":43.317443,"lon":5.388683,"is_reserved":false,"is_disabled":false,"rental_uris":{"android":"levelo://app?vid=0c3a71a7-2cf9-487e-813c-a15d0ca4d586","ios":"levelo://app?vid=0c3a71a7-2cf9-487e-813c-a15d0ca4d586"},"vehicle_type_id":"4","last_reported":1710529558,"current_range_meters":24400,"station_id":"","pricing_plan_id":"cebpf4jnsgd1na2vs0mg"},{"bike_id":"d85feab1-96c9-4cca-8f4f-5cd7dba1f869","system_id":"levelo_inurba_marseille","lat":43.296131,"lon":5.370773,"is_reserved":false,"is_disabled":false,"rental_uris":{"android":"levelo://app?vid=d85feab1-96c9-4cca-8f4f-5cd7dba1f869","ios":"levelo://app?vid=d85feab1-96c9-4cca-8f4f-5cd7dba1f869"},"vehicle_type_id":"4","last_reported":1710529558,"current_range_meters":4400,"station_id":"ce4bgnh2rcd13ifvqc0g","pricing_plan_id":"cebpf4jnsgd1na2vs0mg"},{"bike_id":"f746a9be-ea6c-4c29-85ef-9c908dc81ab7","system_id":"levelo_inurba_marseille","lat":43.296129,"lon":5.370777,"is_reserved":false,"is_disabled":false,"rental_uris":{"android":"levelo://app?vid=f746a9be-ea6c-4c29-85ef-9c908dc81ab7","ios":"levelo://app?vid=f746a9be-ea6c-4c29-85ef-9c908dc81ab7"},"vehicle_type_id":"4","last_reported":1710529558,"current_range_meters":18000,"station_id":"ce4bgnh2rcd13ifvqc0g","pricing_plan_id":"cebpf4jnsgd1na2vs0mg"},{"bike_id":"f5681099-182c-4b8b-a8c3-89ca5e9a19db","system_id":"levelo_inurba_marseille","lat":43.296129,"lon":5.370777,"is_reserved":false,"is_disabled":false,"rental_uris":{"android":"levelo://app?vid=f5681099-182c-4b8b-a8c3-89ca5e9a19db","ios":"levelo://app?vid=f5681099-182c-4b8b-a8c3-89ca5e9a19db"},"vehicle_type_id":"4","last_reported":1710529558,"current_range_meters":0,"station_id":"ce4bgnh2rcd13ifvqc0g","pricing_plan_id":"cebpf4jnsgd1na2vs0mg"},{"bike_id":"5eefe53d-f7b6-4f00-9fae-78883a823954","system_id":"levelo_inurba_marseille","lat":43.296131,"lon":5.370791,"is_reserved":false,"is_disabled":false,"rental_uris":{"android":"levelo://app?vid=5eefe53d-f7b6-4f00-9fae-78883a823954","ios":"levelo://app?vid=5eefe53d-f7b6-4f00-9fae-78883a823954"},"vehicle_type_id":"4","last_reported":1710529558,"current_range_meters":20400,"station_id":"ce4bgnh2rcd13ifvqc0g","pricing_plan_id":"cebpf4jnsgd1na2vs0mg"},{"bike_id":"9581e420-b560-4fa6-9ac6-65d749a8a6fc","system_id":"levelo_inurba_marseille","lat":43.296131,"lon":5.370773,"is_reserved":false,"is_disabled":false,"rental_uris":{"android":"levelo://app?vid=9581e420-b560-4fa6-9ac6-65d749a8a6fc","ios":"levelo://app?vid=9581e420-b560-4fa6-9ac6-65d749a8a6fc"},"vehicle_type_id":"4","last_reported":1710529558,"current_range_meters":3200,"station_id":"ce4bgnh2rcd13ifvqc0g","pricing_plan_id":"cebpf4jnsgd1na2vs0mg"},{"bike_id":"3957e336-a015-4981-9fdf-151675d7dfb6","system_id":"levelo_inurba_marseille","lat":43.29573,"lon":5.367355,"is_reserved":false,"is_disabled":false,"rental_uris":{"android":"levelo://app?vid=3957e336-a015-4981-9fdf-151675d7dfb6","ios":"levelo://app?vid=3957e336-a015-4981-9fdf-151675d7dfb6"},"vehicle_type_id":"4","last_reported":1710529558,"current_range_meters":3200,"station_id":"ce4bgph2rcd13ifvqc2g","pricing_plan_id":"cebpf4jnsgd1na2vs0mg"},{"bike_id":"2da59ac7-15ad-48bf-84b2-f5d6cc961cb0","system_id":"levelo_inurba_marseille","lat":43.296921,"lon":5.376579,"is_reserved":false,"is_disabled":false,"rental_uris":{"android":"levelo://app?vid=2da59ac7-15ad-48bf-84b2-f5d6cc961cb0","ios":"levelo://app?vid=2da59ac7-15ad-48bf-84b2-f5d6cc961cb0"},"vehicle_type_id":"4","last_reported":1710529558,"current_range_meters":13200,"station_id":"ce4bgkh2rcd13ifvqbl0","pricing_plan_id":"cebpf4jnsgd1na2vs0mg"},{"bike_id":"5f925246-c49b-4390-9dab-9e28033dfaf2","system_id":"levelo_inurba_marseille","lat":43.296935,"lon":5.376544,"is_reserved":false,"is_disabled":false,"rental_uris":{"android":"levelo://app?vid=5f925246-c49b-4390-9dab-9e28033dfaf2","ios":"levelo://app?vid=5f925246-c49b-4390-9dab-9e28033dfaf2"},"vehicle_type_id":"4","last_reported":1710529558,"current_range_meters":0,"station_id":"ce4bgkh2rcd13ifvqbl0","pricing_plan_id":"cebpf4jnsgd1na2vs0mg"},{"bike_id":"d8a66d76-00e9-425d-9e4c-8c10583c3d45","system_id":"levelo_inurba_marseille","lat":43.296921,"lon":5.376579,"is_reserved":false,"is_disabled":false,"rental_uris":{"android":"levelo://app?vid=d8a66d76-00e9-425d-9e4c-8c10583c3d45","ios":"levelo://app?vid=d8a66d76-00e9-425d-9e4c-8c10583c3d45"},"vehicle_type_id":"4","last_reported":1710529558,"current_range_meters":3600,"station_id":"ce4bgkh2rcd13ifvqbl0","pricing_plan_id":"cebpf4jnsgd1na2vs0mg"},{"bike_id":"58bfc47e-4d99-4a4e-b762-d13343a2357d","system_id":"levelo_inurba_marseille","lat":43.296921,"lon":5.376579,"is_reserved":false,"is_disabled":false,"rental_uris":{"android":"levelo://app?vid=58bfc47e-4d99-4a4e-b762-d13343a2357d","ios":"levelo://app?vid=58bfc47e-4d99-4a4e-b762-d13343a2357d"},"vehicle_type_id":"4","last_reported":1710529558,"current_range_meters":12800,"station_id":"ce4bgkh2rcd13ifvqbl0","pricing_plan_id":"cebpf4jnsgd1na2vs0mg"},{"bike_id":"efdb4eb3-9dbd-471f-b852-1349ee65e6bf","system_id":"levelo_inurba_marseille","lat":43.317497,"lon":5.389952,"is_reserved":false,"is_disabled":false,"rental_uris":{"android":"levelo://app?vid=efdb4eb3-9dbd-471f-b852-1349ee65e6bf","ios":"levelo://app?vid=efdb4eb3-9dbd-471f-b852-1349ee65e6bf"},"vehicle_type_id":"4","last_reported":1710529558,"current_range_meters":2000,"station_id":"ce4bhqp2rcd13ifvqhng","pricing_plan_id":"cebpf4jnsgd1na2vs0mg"},{"bike_id":"9abd7ab2-11a1-4b0c-86cd-498b22fe8f60","system_id":"levelo_inurba_marseille","lat":43.31759,"lon":5.39009,"is_reserved":false,"is_disabled":false,"rental_uris":{"android":"levelo://app?vid=9abd7ab2-11a1-4b0c-86cd-498b22fe8f60","ios":"levelo://app?vid=9abd7ab2-11a1-4b0c-86cd-498b22fe8f60"},"vehicle_type_id":"4","last_reported":1710529558,"current_range_meters":16000,"station_id":"ce4bhqp2rcd13ifvqhng","pricing_plan_id":"cebpf4jnsgd1na2vs0mg"},{"bike_id":"41e3df2a-b958-4acb-84c5-f5691f8c9dbb","system_id":"levelo_inurba_marseille","lat":43.31749,"lon":5.390147,"is_reserved":false,"is_disabled":false,"rental_uris":{"android":"levelo://app?vid=41e3df2a-b958-4acb-84c5-f5691f8c9dbb","ios":"levelo://app?vid=41e3df2a-b958-4acb-84c5-f5691f8c9dbb"},"vehicle_type_id":"4","last_reported":1710529558,"current_range_meters":0,"station_id":"ce4bhqp2rcd13ifvqhng","pricing_plan_id":"cebpf4jnsgd1na2vs0mg"},{"bike_id":"65a17755-41e1-4cf4-8107-0ce450bc4a8e","system_id":"levelo_inurba_marseille","lat":43.296825,"lon":5.377188,"is_reserved":false,"is_disabled":false,"rental_uris":{"android":"levelo://app?vid=65a17755-41e1-4cf4-8107-0ce450bc4a8e","ios":"levelo://app?vid=65a17755-41e1-4cf4-8107-0ce450bc4a8e"},"vehicle_type_id":"4","last_reported":1710529558,"current_range_meters":0,"station_id":"ce4bgi92rcd13ifvqb90","pricing_plan_id":"cebpf4jnsgd1na2vs0mg"},{"bike_id":"934dcfbb-851e-4f5b-8f06-0e4a0da081b2","system_id":"levelo_inurba_marseille","lat":43.29774,"lon":5.37955,"is_reserved":false,"is_disabled":false,"rental_uris":{"android":"levelo://app?vid=934dcfbb-851e-4f5b-8f06-0e4a0da081b2","ios":"levelo://app?vid=934dcfbb-851e-4f5b-8f06-0e4a0da081b2"},"vehicle_type_id":"4","last_reported":1710529558,"current_range_meters":1200,"station_id":"","pricing_plan_id":"cebpf4jnsgd1na2vs0mg"},{"bike_id":"d1648c38-3094-4ab4-b136-dd4fa626e569","system_id":"levelo_inurba_marseille","lat":43.317557,"lon":5.390173,"is_reserved":false,"is_disabled":false,"rental_uris":{"android":"levelo://app?vid=d1648c38-3094-4ab4-b136-dd4fa626e569","ios":"levelo://app?vid=d1648c38-3094-4ab4-b136-dd4fa626e569"},"vehicle_type_id":"4","last_reported":1710529558,"current_range_meters":28800,"station_id":"ce4bhqp2rcd13ifvqhng","pricing_plan_id":"cebpf4jnsgd1na2vs0mg"},{"bike_id":"fd1852e9-d567-48c8-94d0-c242d922a974","system_id":"levelo_inurba_marseille","lat":43.317557,"lon":5.390173,"is_reserved":false,"is_disabled":false,"rental_uris":{"android":"levelo://app?vid=fd1852e9-d567-48c8-94d0-c242d922a974","ios":"levelo://app?vid=fd1852e9-d567-48c8-94d0-c242d922a974"},"vehicle_type_id":"4","last_reported":1710529558,"current_range_meters":16000,"station_id":"ce4bhqp2rcd13ifvqhng","pricing_plan_id":"cebpf4jnsgd1na2vs0mg"},{"bike_id":"9cc0de22-c994-4630-a056-91ad50f77187","system_id":"levelo_inurba_marseille","lat":43.317557,"lon":5.390173,"is_reserved":false,"is_disabled":false,"rental_uris":{"android":"levelo://app?vid=9cc0de22-c994-4630-a056-91ad50f77187","ios":"levelo://app?vid=9cc0de22-c994-4630-a056-91ad50f77187"},"vehicle_type_id":"4","last_reported":1710529558,"current_range_meters":21600,"station_id":"ce4bhqp2rcd13ifvqhng","pricing_plan_id":"cebpf4jnsgd1na2vs0mg"},{"bike_id":"3691c91c-f079-4d4b-a80d-0c8ab6dd396e","system_id":"levelo_inurba_marseille","lat":43.317557,"lon":5.390173,"is_reserved":false,"is_disabled":false,"rental_uris":{"android":"levelo://app?vid=3691c91c-f079-4d4b-a80d-0c8ab6dd396e","ios":"levelo://app?vid=3691c91c-f079-4d4b-a80d-0c8ab6dd396e"},"vehicle_type_id":"4","last_reported":1710529558,"current_range_meters":26400,"station_id":"ce4bhqp2rcd13ifvqhng","pricing_plan_id":"cebpf4jnsgd1na2vs0mg"},{"bike_id":"8796f173-2668-4bc6-b175-fa69952b6db4","system_id":"levelo_inurba_marseille","lat":43.29828,"lon":5.38103,"is_reserved":false,"is_disabled":false,"rental_uris":{"android":"levelo://app?vid=8796f173-2668-4bc6-b175-fa69952b6db4","ios":"levelo://app?vid=8796f173-2668-4bc6-b175-fa69952b6db4"},"vehicle_type_id":"4","last_reported":1710529558,"current_range_meters":11200,"station_id":"ce4bgip2rcd13ifvqbb0","pricing_plan_id":"cebpf4jnsgd1na2vs0mg"},{"bike_id":"df85cac9-a11a-4322-91a1-76752c133c47","system_id":"levelo_inurba_marseille","lat":43.298037,"lon":5.381066,"is_reserved":false,"is_disabled":false,"rental_uris":{"android":"levelo://app?vid=df85cac9-a11a-4322-91a1-76752c133c47","ios":"levelo://app?vid=df85cac9-a11a-4322-91a1-76752c133c47"},"vehicle_type_id":"4","last_reported":1710529558,"current_range_meters":10400,"station_id":"ce4bgip2rcd13ifvqbb0","pricing_plan_id":"cebpf4jnsgd1na2vs0mg"},{"bike_id":"09057750-2d7e-4677-b824-cf31eeaf28f3","system_id":"levelo_inurba_marseille","lat":43.29796,"lon":5.38089,"is_reserved":false,"is_disabled":false,"rental_uris":{"android":"levelo://app?vid=09057750-2d7e-4677-b824-cf31eeaf28f3","ios":"levelo://app?vid=09057750-2d7e-4677-b824-cf31eeaf28f3"},"vehicle_type_id":"4","last_reported":1710529558,"current_range_meters":14800,"station_id":"ce4bgip2rcd13ifvqbb0","pricing_plan_id":"cebpf4jnsgd1na2vs0mg"},{"bike_id":"2f64de17-428e-4d66-b331-3280b1cd3261","system_id":"levelo_inurba_marseille","lat":43.29802,"lon":5.38102,"is_reserved":false,"is_disabled":false,"rental_uris":{"android":"levelo://app?vid=2f64de17-428e-4d66-b331-3280b1cd3261","ios":"levelo://app?vid=2f64de17-428e-4d66-b331-3280b1cd3261"},"vehicle_type_id":"4","last_reported":1710529558,"current_range_meters":800,"station_id":"ce4bgip2rcd13ifvqbb0","pricing_plan_id":"cebpf4jnsgd1na2vs0mg"},{"bike_id":"7a97d7e2-1a44-4408-a22c-89ddff2aaf15","system_id":"levelo_inurba_marseille","lat":43.29793,"lon":5.38085,"is_reserved":false,"is_disabled":false,"rental_uris":{"android":"levelo://app?vid=7a97d7e2-1a44-4408-a22c-89ddff2aaf15","ios":"levelo://app?vid=7a97d7e2-1a44-4408-a22c-89ddff2aaf15"},"vehicle_type_id":"4","last_reported":1710529558,"current_range_meters":9200,"station_id":"ce4bgip2rcd13ifvqbb0","pricing_plan_id":"cebpf4jnsgd1na2vs0mg"},{"bike_id":"501bbe1a-7d06-445b-8ddc-271c77288caf","system_id":"levelo_inurba_marseille","lat":43.295748,"lon":5.37522,"is_reserved":false,"is_disabled":false,"rental_uris":{"android":"levelo://app?vid=501bbe1a-7d06-445b-8ddc-271c77288caf","ios":"levelo://app?vid=501bbe1a-7d06-445b-8ddc-271c77288caf"},"vehicle_type_id":"4","last_reported":1710529558,"current_range_meters":4800,"station_id":"ce4bgh92rcd13ifvqb50","pricing_plan_id":"cebpf4jnsgd1na2vs0mg"},{"bike_id":"ad43cf19-940c-44ee-82ad-34290a14dbe9","system_id":"levelo_inurba_marseille","lat":43.29796,"lon":5.38096,"is_reserved":false,"is_disabled":false,"rental_uris":{"android":"levelo://app?vid=ad43cf19-940c-44ee-82ad-34290a14dbe9","ios":"levelo://app?vid=ad43cf19-940c-44ee-82ad-34290a14dbe9"},"vehicle_type_id":"4","last_reported":1710529558,"current_range_meters":0,"station_id":"ce4bgip2rcd13ifvqbb0","pricing_plan_id":"cebpf4jnsgd1na2vs0mg"},{"bike_id":"0e2be40a-bb8c-49c5-96ee-6170e5514271","system_id":"levelo_inurba_marseille","lat":43.29796,"lon":5.38098,"is_reserved":false,"is_disabled":false,"rental_uris":{"android":"levelo://app?vid=0e2be40a-bb8c-49c5-96ee-6170e5514271","ios":"levelo://app?vid=0e2be40a-bb8c-49c5-96ee-6170e5514271"},"vehicle_type_id":"4","last_reported":1710529558,"current_range_meters":26800,"station_id":"ce4bgip2rcd13ifvqbb0","pricing_plan_id":"cebpf4jnsgd1na2vs0mg"},{"bike_id":"0b5431e8-527a-49b1-b86f-f2268c7e20ee","system_id":"levelo_inurba_marseille","lat":43.298037,"lon":5.381066,"is_reserved":false,"is_disabled":false,"rental_uris":{"android":"levelo://app?vid=0b5431e8-527a-49b1-b86f-f2268c7e20ee","ios":"levelo://app?vid=0b5431e8-527a-49b1-b86f-f2268c7e20ee"},"vehicle_type_id":"4","last_reported":1710529558,"current_range_meters":2400,"station_id":"ce4bgip2rcd13ifvqbb0","pricing_plan_id":"cebpf4jnsgd1na2vs0mg"},{"bike_id":"d7a47198-a86b-421b-a9d3-db40a5596632","system_id":"levelo_inurba_marseille","lat":43.29795,"lon":5.38103,"is_reserved":false,"is_disabled":false,"rental_uris":{"android":"levelo://app?vid=d7a47198-a86b-421b-a9d3-db40a5596632","ios":"levelo://app?vid=d7a47198-a86b-421b-a9d3-db40a5596632"},"vehicle_type_id":"4","last_reported":1710529558,"current_range_meters":9200,"station_id":"ce4bgip2rcd13ifvqbb0","pricing_plan_id":"cebpf4jnsgd1na2vs0mg"},{"bike_id":"db32c922-5804-4ff9-bff4-12634a0e5532","system_id":"levelo_inurba_marseille","lat":43.29787,"lon":5.38095,"is_reserved":false,"is_disabled":false,"rental_uris":{"android":"levelo://app?vid=db32c922-5804-4ff9-bff4-12634a0e5532","ios":"levelo://app?vid=db32c922-5804-4ff9-bff4-12634a0e5532"},"vehicle_type_id":"4","last_reported":1710529558,"current_range_meters":800,"station_id":"ce4bgip2rcd13ifvqbb0","pricing_plan_id":"cebpf4jnsgd1na2vs0mg"},{"bike_id":"228e062f-9e30-40d7-85e6-b91d25b87cc0","system_id":"levelo_inurba_marseille","lat":43.29791,"lon":5.38104,"is_reserved":false,"is_disabled":false,"rental_uris":{"android":"levelo://app?vid=228e062f-9e30-40d7-85e6-b91d25b87cc0","ios":"levelo://app?vid=228e062f-9e30-40d7-85e6-b91d25b87cc0"},"vehicle_type_id":"4","last_reported":1710529558,"current_range_meters":4000,"station_id":"ce4bgip2rcd13ifvqbb0","pricing_plan_id":"cebpf4jnsgd1na2vs0mg"},{"bike_id":"d221ce96-9cf3-4687-bca7-69405056eded","system_id":"levelo_inurba_marseille","lat":43.298023,"lon":5.381283,"is_reserved":false,"is_disabled":false,"rental_uris":{"android":"levelo://app?vid=d221ce96-9cf3-4687-bca7-69405056eded","ios":"levelo://app?vid=d221ce96-9cf3-4687-bca7-69405056eded"},"vehicle_type_id":"4","last_reported":1710529558,"current_range_meters":31200,"station_id":"ce4bgip2rcd13ifvqbb0","pricing_plan_id":"cebpf4jnsgd1na2vs0mg"},{"bike_id":"9832252e-8df1-4311-a33d-2563532d3f5b","system_id":"levelo_inurba_marseille","lat":43.3043,"lon":5.38886,"is_reserved":false,"is_disabled":false,"rental_uris":{"android":"levelo://app?vid=9832252e-8df1-4311-a33d-2563532d3f5b","ios":"levelo://app?vid=9832252e-8df1-4311-a33d-2563532d3f5b"},"vehicle_type_id":"4","last_reported":1710529558,"current_range_meters":0,"station_id":"ce4bgk12rcd13ifvqbi0","pricing_plan_id":"cebpf4jnsgd1na2vs0mg"},{"bike_id":"25d1f653-8204-4ce8-be11-b115a0aaa6fb","system_id":"levelo_inurba_marseille","lat":43.304278,"lon":5.388868,"is_reserved":false,"is_disabled":false,"rental_uris":{"android":"levelo://app?vid=25d1f653-8204-4ce8-be11-b115a0aaa6fb","ios":"levelo://app?vid=25d1f653-8204-4ce8-be11-b115a0aaa6fb"},"vehicle_type_id":"4","last_reported":1710529558,"current_range_meters":4000,"station_id":"ce4bgk12rcd13ifvqbi0","pricing_plan_id":"cebpf4jnsgd1na2vs0mg"},{"bike_id":"bf5255c2-e59d-4203-8130-806cf314c5c7","system_id":"levelo_inurba_marseille","lat":43.29788,"lon":5.38106,"is_reserved":false,"is_disabled":false,"rental_uris":{"android":"levelo://app?vid=bf5255c2-e59d-4203-8130-806cf314c5c7","ios":"levelo://app?vid=bf5255c2-e59d-4203-8130-806cf314c5c7"},"vehicle_type_id":"4","last_reported":1710529558,"current_range_meters":23600,"station_id":"ce4bgip2rcd13ifvqbb0","pricing_plan_id":"cebpf4jnsgd1na2vs0mg"},{"bike_id":"b3c2e055-d295-4ef9-b47b-c4ea8e1b670e","system_id":"levelo_inurba_marseille","lat":43.295748,"lon":5.37522,"is_reserved":false,"is_disabled":false,"rental_uris":{"android":"levelo://app?vid=b3c2e055-d295-4ef9-b47b-c4ea8e1b670e","ios":"levelo://app?vid=b3c2e055-d295-4ef9-b47b-c4ea8e1b670e"},"vehicle_type_id":"4","last_reported":1710529558,"current_range_meters":1200,"station_id":"ce4bgh92rcd13ifvqb50","pricing_plan_id":"cebpf4jnsgd1na2vs0mg"},{"bike_id":"c17218d0-aa7e-461a-b71c-ebc56069c0b8","system_id":"levelo_inurba_marseille","lat":43.29569,"lon":5.37524,"is_reserved":false,"is_disabled":false,"rental_uris":{"android":"levelo://app?vid=c17218d0-aa7e-461a-b71c-ebc56069c0b8","ios":"levelo://app?vid=c17218d0-aa7e-461a-b71c-ebc56069c0b8"},"vehicle_type_id":"4","last_reported":1710529558,"current_range_meters":6000,"station_id":"ce4bgh92rcd13ifvqb50","pricing_plan_id":"cebpf4jnsgd1na2vs0mg"},{"bike_id":"142b3e53-54a5-4475-9e33-360576541790","system_id":"levelo_inurba_marseille","lat":43.296277,"lon":5.377108,"is_reserved":false,"is_disabled":false,"rental_uris":{"android":"levelo://app?vid=142b3e53-54a5-4475-9e33-360576541790","ios":"levelo://app?vid=142b3e53-54a5-4475-9e33-360576541790"},"vehicle_type_id":"4","last_reported":1710529558,"current_range_meters":26000,"station_id":"ce4bgi92rcd13ifvqb90","pricing_plan_id":"cebpf4jnsgd1na2vs0mg"},{"bike_id":"d2c7c459-f20b-4b77-939e-eaa5f8f65cc6","system_id":"levelo_inurba_marseille","lat":43.296263,"lon":5.377094,"is_reserved":false,"is_disabled":false,"rental_uris":{"android":"levelo://app?vid=d2c7c459-f20b-4b77-939e-eaa5f8f65cc6","ios":"levelo://app?vid=d2c7c459-f20b-4b77-939e-eaa5f8f65cc6"},"vehicle_type_id":"4","last_reported":1710529558,"current_range_meters":16800,"station_id":"ce4bgi92rcd13ifvqb90","pricing_plan_id":"cebpf4jnsgd1na2vs0mg"},{"bike_id":"dbd16492-0778-4404-bc84-eafa59b12f42","system_id":"levelo_inurba_marseille","lat":43.29557,"lon":5.37487,"is_reserved":false,"is_disabled":false,"rental_uris":{"android":"levelo://app?vid=dbd16492-0778-4404-bc84-eafa59b12f42","ios":"levelo://app?vid=dbd16492-0778-4404-bc84-eafa59b12f42"},"vehicle_type_id":"4","last_reported":1710529558,"current_range_meters":0,"station_id":"ce4bgkp2rcd13ifvqbmg","pricing_plan_id":"cebpf4jnsgd1na2vs0mg"},{"bike_id":"2a0d97b4-074f-4dad-80e5-453fd0fa9339","system_id":"levelo_inurba_marseille","lat":43.297716,"lon":5.380966,"is_reserved":false,"is_disabled":false,"rental_uris":{"android":"levelo://app?vid=2a0d97b4-074f-4dad-80e5-453fd0fa9339","ios":"levelo://app?vid=2a0d97b4-074f-4dad-80e5-453fd0fa9339"},"vehicle_type_id":"4","last_reported":1710529558,"current_range_meters":20800,"station_id":"ce4bgip2rcd13ifvqbb0","pricing_plan_id":"cebpf4jnsgd1na2vs0mg"},{"bike_id":"8a2404d3-c33d-4e49-bbb2-66cce3f855ca","system_id":"levelo_inurba_marseille","lat":43.304278,"lon":5.388868,"is_reserved":false,"is_disabled":false,"rental_uris":{"android":"levelo://app?vid=8a2404d3-c33d-4e49-bbb2-66cce3f855ca","ios":"levelo://app?vid=8a2404d3-c33d-4e49-bbb2-66cce3f855ca"},"vehicle_type_id":"4","last_reported":1710529558,"current_range_meters":0,"station_id":"ce4bgk12rcd13ifvqbi0","pricing_plan_id":"cebpf4jnsgd1na2vs0mg"},{"bike_id":"e7b4b84d-d7dd-4b86-9b8d-6efe265a1822","system_id":"levelo_inurba_marseille","lat":43.296277,"lon":5.377108,"is_reserved":false,"is_disabled":false,"rental_uris":{"android":"levelo://app?vid=e7b4b84d-d7dd-4b86-9b8d-6efe265a1822","ios":"levelo://app?vid=e7b4b84d-d7dd-4b86-9b8d-6efe265a1822"},"vehicle_type_id":"4","last_reported":1710529558,"current_range_meters":27200,"station_id":"ce4bgi92rcd13ifvqb90","pricing_plan_id":"cebpf4jnsgd1na2vs0mg"},{"bike_id":"0369463b-bdb9-4e29-897b-2521d43d95cc","system_id":"levelo_inurba_marseille","lat":43.299707,"lon":5.384859,"is_reserved":false,"is_disabled":false,"rental_uris":{"android":"levelo://app?vid=0369463b-bdb9-4e29-897b-2521d43d95cc","ios":"levelo://app?vid=0369463b-bdb9-4e29-897b-2521d43d95cc"},"vehicle_type_id":"4","last_reported":1710529558,"current_range_meters":2800,"station_id":"ce4bgj92rcd13ifvqbd0","pricing_plan_id":"cebpf4jnsgd1na2vs0mg"},{"bike_id":"214cfde0-8667-4bac-9485-5afbaf9831ff","system_id":"levelo_inurba_marseille","lat":43.29532,"lon":5.37496,"is_reserved":false,"is_disabled":false,"rental_uris":{"android":"levelo://app?vid=214cfde0-8667-4bac-9485-5afbaf9831ff","ios":"levelo://app?vid=214cfde0-8667-4bac-9485-5afbaf9831ff"},"vehicle_type_id":"4","last_reported":1710529558,"current_range_meters":0,"station_id":"ce4bgkp2rcd13ifvqbmg","pricing_plan_id":"cebpf4jnsgd1na2vs0mg"},{"bike_id":"4e335368-175f-482b-aa6e-cff10c5e141f","system_id":"levelo_inurba_marseille","lat":43.299707,"lon":5.384859,"is_reserved":false,"is_disabled":false,"rental_uris":{"android":"levelo://app?vid=4e335368-175f-482b-aa6e-cff10c5e141f","ios":"levelo://app?vid=4e335368-175f-482b-aa6e-cff10c5e141f"},"vehicle_type_id":"4","last_reported":1710529558,"current_range_meters":18800,"station_id":"ce4bgj92rcd13ifvqbd0","pricing_plan_id":"cebpf4jnsgd1na2vs0mg"},{"bike_id":"4c2e0cd0-7c78-4120-a378-3691e6dd5307","system_id":"levelo_inurba_marseille","lat":43.29975,"lon":5.38481,"is_reserved":false,"is_disabled":false,"rental_uris":{"android":"levelo://app?vid=4c2e0cd0-7c78-4120-a378-3691e6dd5307","ios":"levelo://app?vid=4c2e0cd0-7c78-4120-a378-3691e6dd5307"},"vehicle_type_id":"4","last_reported":1710529558,"current_range_meters":3200,"station_id":"ce4bgj92rcd13ifvqbd0","pricing_plan_id":"cebpf4jnsgd1na2vs0mg"},{"bike_id":"2da03e34-3afb-4332-a6c6-9daeb390625e","system_id":"levelo_inurba_marseille","lat":43.295306,"lon":5.374997,"is_reserved":false,"is_disabled":false,"rental_uris":{"android":"levelo://app?vid=2da03e34-3afb-4332-a6c6-9daeb390625e","ios":"levelo://app?vid=2da03e34-3afb-4332-a6c6-9daeb390625e"},"vehicle_type_id":"4","last_reported":1710529558,"current_range_meters":16000,"station_id":"ce4bgkp2rcd13ifvqbmg","pricing_plan_id":"cebpf4jnsgd1na2vs0mg"},{"bike_id":"2352a712-c5b0-4a74-9204-ffb52bea4f24","system_id":"levelo_inurba_marseille","lat":43.299707,"lon":5.384859,"is_reserved":false,"is_disabled":false,"rental_uris":{"android":"levelo://app?vid=2352a712-c5b0-4a74-9204-ffb52bea4f24","ios":"levelo://app?vid=2352a712-c5b0-4a74-9204-ffb52bea4f24"},"vehicle_type_id":"4","last_reported":1710529558,"current_range_meters":0,"station_id":"ce4bgj92rcd13ifvqbd0","pricing_plan_id":"cebpf4jnsgd1na2vs0mg"},{"bike_id":"fa844136-ba38-4ca8-a05b-88c56a37c886","system_id":"levelo_inurba_marseille","lat":43.299707,"lon":5.384859,"is_reserved":false,"is_disabled":false,"rental_uris":{"android":"levelo://app?vid=fa844136-ba38-4ca8-a05b-88c56a37c886","ios":"levelo://app?vid=fa844136-ba38-4ca8-a05b-88c56a37c886"},"vehicle_type_id":"4","last_reported":1710529558,"current_range_meters":0,"station_id":"ce4bgj92rcd13ifvqbd0","pricing_plan_id":"cebpf4jnsgd1na2vs0mg"},{"bike_id":"a3027b06-fe40-4a59-8d0c-ae79875a15e4","system_id":"levelo_inurba_marseille","lat":43.299707,"lon":5.384859,"is_reserved":false,"is_disabled":false,"rental_uris":{"android":"levelo://app?vid=a3027b06-fe40-4a59-8d0c-ae79875a15e4","ios":"levelo://app?vid=a3027b06-fe40-4a59-8d0c-ae79875a15e4"},"vehicle_type_id":"4","last_reported":1710529558,"current_range_meters":2000,"station_id":"ce4bgj92rcd13ifvqbd0","pricing_plan_id":"cebpf4jnsgd1na2vs0mg"},{"bike_id":"693692ce-5ea3-4cfd-99f4-d415b507a4fc","system_id":"levelo_inurba_marseille","lat":43.299707,"lon":5.384859,"is_reserved":false,"is_disabled":false,"rental_uris":{"android":"levelo://app?vid=693692ce-5ea3-4cfd-99f4-d415b507a4fc","ios":"levelo://app?vid=693692ce-5ea3-4cfd-99f4-d415b507a4fc"},"vehicle_type_id":"4","last_reported":1710529558,"current_range_meters":6000,"station_id":"ce4bgj92rcd13ifvqbd0","pricing_plan_id":"cebpf4jnsgd1na2vs0mg"},{"bike_id":"d6193e60-65c9-4223-92e6-d4157e2c4f85","system_id":"levelo_inurba_marseille","lat":43.299707,"lon":5.384859,"is_reserved":false,"is_disabled":false,"rental_uris":{"android":"levelo://app?vid=d6193e60-65c9-4223-92e6-d4157e2c4f85","ios":"levelo://app?vid=d6193e60-65c9-4223-92e6-d4157e2c4f85"},"vehicle_type_id":"4","last_reported":1710529558,"current_range_meters":2000,"station_id":"ce4bgj92rcd13ifvqbd0","pricing_plan_id":"cebpf4jnsgd1na2vs0mg"},{"bike_id":"37c7e2e5-d267-45df-bce6-0e3f175d6d18","system_id":"levelo_inurba_marseille","lat":43.299707,"lon":5.384859,"is_reserved":false,"is_disabled":false,"rental_uris":{"android":"levelo://app?vid=37c7e2e5-d267-45df-bce6-0e3f175d6d18","ios":"levelo://app?vid=37c7e2e5-d267-45df-bce6-0e3f175d6d18"},"vehicle_type_id":"4","last_reported":1710529558,"current_range_meters":4000,"station_id":"ce4bgj92rcd13ifvqbd0","pricing_plan_id":"cebpf4jnsgd1na2vs0mg"},{"bike_id":"d43b3a17-ab39-4b8f-ab80-3c259f3ade53","system_id":"levelo_inurba_marseille","lat":43.29524,"lon":5.37501,"is_reserved":false,"is_disabled":false,"rental_uris":{"android":"levelo://app?vid=d43b3a17-ab39-4b8f-ab80-3c259f3ade53","ios":"levelo://app?vid=d43b3a17-ab39-4b8f-ab80-3c259f3ade53"},"vehicle_type_id":"4","last_reported":1710529558,"current_range_meters":400,"station_id":"ce4bgkp2rcd13ifvqbmg","pricing_plan_id":"cebpf4jnsgd1na2vs0mg"},{"bike_id":"0dc3fda6-1cb1-40b1-bdb3-e2b84d0b774e","system_id":"levelo_inurba_marseille","lat":43.299707,"lon":5.384859,"is_reserved":false,"is_disabled":false,"rental_uris":{"android":"levelo://app?vid=0dc3fda6-1cb1-40b1-bdb3-e2b84d0b774e","ios":"levelo://app?vid=0dc3fda6-1cb1-40b1-bdb3-e2b84d0b774e"},"vehicle_type_id":"4","last_reported":1710529558,"current_range_meters":10800,"station_id":"ce4bgj92rcd13ifvqbd0","pricing_plan_id":"cebpf4jnsgd1na2vs0mg"},{"bike_id":"ebe64e0c-751f-4c6c-9282-e9f4a05cbf06","system_id":"levelo_inurba_marseille","lat":43.299707,"lon":5.384859,"is_reserved":false,"is_disabled":false,"rental_uris":{"android":"levelo://app?vid=ebe64e0c-751f-4c6c-9282-e9f4a05cbf06","ios":"levelo://app?vid=ebe64e0c-751f-4c6c-9282-e9f4a05cbf06"},"vehicle_type_id":"4","last_reported":1710529558,"current_range_meters":0,"station_id":"ce4bgj92rcd13ifvqbd0","pricing_plan_id":"cebpf4jnsgd1na2vs0mg"},{"bike_id":"e793ce3c-e84a-459d-b597-79d9330cf5ea","system_id":"levelo_inurba_marseille","lat":43.29972,"lon":5.38498,"is_reserved":false,"is_disabled":false,"rental_uris":{"android":"levelo://app?vid=e793ce3c-e84a-459d-b597-79d9330cf5ea","ios":"levelo://app?vid=e793ce3c-e84a-459d-b597-79d9330cf5ea"},"vehicle_type_id":"4","last_reported":1710529558,"current_range_meters":0,"station_id":"ce4bgj92rcd13ifvqbd0","pricing_plan_id":"cebpf4jnsgd1na2vs0mg"},{"bike_id":"ce8ab8a0-d12c-4af7-b2c0-0c0ffac389fc","system_id":"levelo_inurba_marseille","lat":43.29968,"lon":5.38496,"is_reserved":false,"is_disabled":false,"rental_uris":{"android":"levelo://app?vid=ce8ab8a0-d12c-4af7-b2c0-0c0ffac389fc","ios":"levelo://app?vid=ce8ab8a0-d12c-4af7-b2c0-0c0ffac389fc"},"vehicle_type_id":"4","last_reported":1710529558,"current_range_meters":0,"station_id":"ce4bgj92rcd13ifvqbd0","pricing_plan_id":"cebpf4jnsgd1na2vs0mg"},{"bike_id":"7868fb05-6995-426e-a11f-3e1aeedfe989","system_id":"levelo_inurba_marseille","lat":43.299724,"lon":5.384848,"is_reserved":false,"is_disabled":false,"rental_uris":{"android":"levelo://app?vid=7868fb05-6995-426e-a11f-3e1aeedfe989","ios":"levelo://app?vid=7868fb05-6995-426e-a11f-3e1aeedfe989"},"vehicle_type_id":"4","last_reported":1710529558,"current_range_meters":4000,"station_id":"ce4bgj92rcd13ifvqbd0","pricing_plan_id":"cebpf4jnsgd1na2vs0mg"},{"bike_id":"40a14c95-3c49-497b-b19b-ad1f76bd87e0","system_id":"levelo_inurba_marseille","lat":43.299724,"lon":5.384848,"is_reserved":false,"is_disabled":false,"rental_uris":{"android":"levelo://app?vid=40a14c95-3c49-497b-b19b-ad1f76bd87e0","ios":"levelo://app?vid=40a14c95-3c49-497b-b19b-ad1f76bd87e0"},"vehicle_type_id":"4","last_reported":1710529558,"current_range_meters":3600,"station_id":"ce4bgj92rcd13ifvqbd0","pricing_plan_id":"cebpf4jnsgd1na2vs0mg"},{"bike_id":"601549c9-17b6-4663-bb1f-1fc3c0514675","system_id":"levelo_inurba_marseille","lat":43.323606,"lon":5.3888,"is_reserved":false,"is_disabled":false,"rental_uris":{"android":"levelo://app?vid=601549c9-17b6-4663-bb1f-1fc3c0514675","ios":"levelo://app?vid=601549c9-17b6-4663-bb1f-1fc3c0514675"},"vehicle_type_id":"4","last_reported":1710529558,"current_range_meters":15600,"station_id":"ce4bhqp2rcd13ifvqhog","pricing_plan_id":"cebpf4jnsgd1na2vs0mg"},{"bike_id":"eaf421f3-46ac-4e30-949b-910710944134","system_id":"levelo_inurba_marseille","lat":43.323606,"lon":5.388826,"is_reserved":false,"is_disabled":false,"rental_uris":{"android":"levelo://app?vid=eaf421f3-46ac-4e30-949b-910710944134","ios":"levelo://app?vid=eaf421f3-46ac-4e30-949b-910710944134"},"vehicle_type_id":"4","last_reported":1710529558,"current_range_meters":9600,"station_id":"ce4bhqp2rcd13ifvqhog","pricing_plan_id":"cebpf4jnsgd1na2vs0mg"},{"bike_id":"32892f61-1f15-40bc-b639-76781b52ef74","system_id":"levelo_inurba_marseille","lat":43.32367,"lon":5.38877,"is_reserved":false,"is_disabled":false,"rental_uris":{"android":"levelo://app?vid=32892f61-1f15-40bc-b639-76781b52ef74","ios":"levelo://app?vid=32892f61-1f15-40bc-b639-76781b52ef74"},"vehicle_type_id":"4","last_reported":1710529558,"current_range_meters":23600,"station_id":"ce4bhqp2rcd13ifvqhog","pricing_plan_id":"cebpf4jnsgd1na2vs0mg"},{"bike_id":"598fb1f3-a37f-4e7b-8fbd-0c96fece7550","system_id":"levelo_inurba_marseille","lat":43.32364,"lon":5.38881,"is_reserved":false,"is_disabled":false,"rental_uris":{"android":"levelo://app?vid=598fb1f3-a37f-4e7b-8fbd-0c96fece7550","ios":"levelo://app?vid=598fb1f3-a37f-4e7b-8fbd-0c96fece7550"},"vehicle_type_id":"4","last_reported":1710529558,"current_range_meters":0,"station_id":"ce4bhqp2rcd13ifvqhog","pricing_plan_id":"cebpf4jnsgd1na2vs0mg"},{"bike_id":"40e2eb8a-4357-46b9-90f8-84a1e303713d","system_id":"levelo_inurba_marseille","lat":43.32368,"lon":5.38879,"is_reserved":false,"is_disabled":false,"rental_uris":{"android":"levelo://app?vid=40e2eb8a-4357-46b9-90f8-84a1e303713d","ios":"levelo://app?vid=40e2eb8a-4357-46b9-90f8-84a1e303713d"},"vehicle_type_id":"4","last_reported":1710529558,"current_range_meters":6400,"station_id":"ce4bhqp2rcd13ifvqhog","pricing_plan_id":"cebpf4jnsgd1na2vs0mg"},{"bike_id":"73189312-5711-4f07-9ba2-a07b812fa614","system_id":"levelo_inurba_marseille","lat":43.32367,"lon":5.388836,"is_reserved":false,"is_disabled":false,"rental_uris":{"android":"levelo://app?vid=73189312-5711-4f07-9ba2-a07b812fa614","ios":"levelo://app?vid=73189312-5711-4f07-9ba2-a07b812fa614"},"vehicle_type_id":"4","last_reported":1710529558,"current_range_meters":26000,"station_id":"ce4bhqp2rcd13ifvqhog","pricing_plan_id":"cebpf4jnsgd1na2vs0mg"},{"bike_id":"598544ef-450f-4b1f-8a2f-55ac02e68072","system_id":"levelo_inurba_marseille","lat":43.3237,"lon":5.38879,"is_reserved":false,"is_disabled":false,"rental_uris":{"android":"levelo://app?vid=598544ef-450f-4b1f-8a2f-55ac02e68072","ios":"levelo://app?vid=598544ef-450f-4b1f-8a2f-55ac02e68072"},"vehicle_type_id":"4","last_reported":1710529558,"current_range_meters":0,"station_id":"ce4bhqp2rcd13ifvqhog","pricing_plan_id":"cebpf4jnsgd1na2vs0mg"},{"bike_id":"fabfa73f-5084-4820-a827-515b7447769f","system_id":"levelo_inurba_marseille","lat":43.32367,"lon":5.388836,"is_reserved":false,"is_disabled":false,"rental_uris":{"android":"levelo://app?vid=fabfa73f-5084-4820-a827-515b7447769f","ios":"levelo://app?vid=fabfa73f-5084-4820-a827-515b7447769f"},"vehicle_type_id":"4","last_reported":1710529558,"current_range_meters":2400,"station_id":"ce4bhqp2rcd13ifvqhog","pricing_plan_id":"cebpf4jnsgd1na2vs0mg"},{"bike_id":"3987cddb-4ed7-405b-96ca-b1abeb478286","system_id":"levelo_inurba_marseille","lat":43.32367,"lon":5.388836,"is_reserved":false,"is_disabled":false,"rental_uris":{"android":"levelo://app?vid=3987cddb-4ed7-405b-96ca-b1abeb478286","ios":"levelo://app?vid=3987cddb-4ed7-405b-96ca-b1abeb478286"},"vehicle_type_id":"4","last_reported":1710529558,"current_range_meters":22400,"station_id":"ce4bhqp2rcd13ifvqhog","pricing_plan_id":"cebpf4jnsgd1na2vs0mg"},{"bike_id":"9b401e39-87f3-43dd-9631-732bf6970701","system_id":"levelo_inurba_marseille","lat":43.32369,"lon":5.38882,"is_reserved":false,"is_disabled":false,"rental_uris":{"android":"levelo://app?vid=9b401e39-87f3-43dd-9631-732bf6970701","ios":"levelo://app?vid=9b401e39-87f3-43dd-9631-732bf6970701"},"vehicle_type_id":"4","last_reported":1710529558,"current_range_meters":12400,"station_id":"ce4bhqp2rcd13ifvqhog","pricing_plan_id":"cebpf4jnsgd1na2vs0mg"},{"bike_id":"543d4186-714b-4866-a911-93293b5ebde7","system_id":"levelo_inurba_marseille","lat":43.32367,"lon":5.388836,"is_reserved":false,"is_disabled":false,"rental_uris":{"android":"levelo://app?vid=543d4186-714b-4866-a911-93293b5ebde7","ios":"levelo://app?vid=543d4186-714b-4866-a911-93293b5ebde7"},"vehicle_type_id":"4","last_reported":1710529558,"current_range_meters":11600,"station_id":"ce4bhqp2rcd13ifvqhog","pricing_plan_id":"cebpf4jnsgd1na2vs0mg"},{"bike_id":"775cf867-e75b-4fd5-b02f-97c73260f4b7","system_id":"levelo_inurba_marseille","lat":43.32371,"lon":5.38884,"is_reserved":false,"is_disabled":false,"rental_uris":{"android":"levelo://app?vid=775cf867-e75b-4fd5-b02f-97c73260f4b7","ios":"levelo://app?vid=775cf867-e75b-4fd5-b02f-97c73260f4b7"},"vehicle_type_id":"4","last_reported":1710529558,"current_range_meters":6800,"station_id":"ce4bhqp2rcd13ifvqhog","pricing_plan_id":"cebpf4jnsgd1na2vs0mg"},{"bike_id":"98c893c2-7601-480f-b687-9b8b6030928a","system_id":"levelo_inurba_marseille","lat":43.32367,"lon":5.388836,"is_reserved":false,"is_disabled":false,"rental_uris":{"android":"levelo://app?vid=98c893c2-7601-480f-b687-9b8b6030928a","ios":"levelo://app?vid=98c893c2-7601-480f-b687-9b8b6030928a"},"vehicle_type_id":"4","last_reported":1710529558,"current_range_meters":4400,"station_id":"ce4bhqp2rcd13ifvqhog","pricing_plan_id":"cebpf4jnsgd1na2vs0mg"},{"bike_id":"cc81d865-bd9e-47ea-9dba-ee06420c17c4","system_id":"levelo_inurba_marseille","lat":43.32367,"lon":5.388836,"is_reserved":false,"is_disabled":false,"rental_uris":{"android":"levelo://app?vid=cc81d865-bd9e-47ea-9dba-ee06420c17c4","ios":"levelo://app?vid=cc81d865-bd9e-47ea-9dba-ee06420c17c4"},"vehicle_type_id":"4","last_reported":1710529558,"current_range_meters":0,"station_id":"ce4bhqp2rcd13ifvqhog","pricing_plan_id":"cebpf4jnsgd1na2vs0mg"},{"bike_id":"e7defb13-07db-447b-afd9-2164da423aef","system_id":"levelo_inurba_marseille","lat":43.32367,"lon":5.388836,"is_reserved":false,"is_disabled":false,"rental_uris":{"android":"levelo://app?vid=e7defb13-07db-447b-afd9-2164da423aef","ios":"levelo://app?vid=e7defb13-07db-447b-afd9-2164da423aef"},"vehicle_type_id":"4","last_reported":1710529558,"current_range_meters":22400,"station_id":"ce4bhqp2rcd13ifvqhog","pricing_plan_id":"cebpf4jnsgd1na2vs0mg"},{"bike_id":"bf5e95be-7e52-46c4-9c94-cc5c5ea87be2","system_id":"levelo_inurba_marseille","lat":43.32369,"lon":5.38889,"is_reserved":false,"is_disabled":false,"rental_uris":{"android":"levelo://app?vid=bf5e95be-7e52-46c4-9c94-cc5c5ea87be2","ios":"levelo://app?vid=bf5e95be-7e52-46c4-9c94-cc5c5ea87be2"},"vehicle_type_id":"4","last_reported":1710529558,"current_range_meters":0,"station_id":"ce4bhqp2rcd13ifvqhog","pricing_plan_id":"cebpf4jnsgd1na2vs0mg"},{"bike_id":"8bcf549d-f78b-4186-b5dd-281525c14912","system_id":"levelo_inurba_marseille","lat":43.29619,"lon":5.38117,"is_reserved":false,"is_disabled":false,"rental_uris":{"android":"levelo://app?vid=8bcf549d-f78b-4186-b5dd-281525c14912","ios":"levelo://app?vid=8bcf549d-f78b-4186-b5dd-281525c14912"},"vehicle_type_id":"4","last_reported":1710529558,"current_range_meters":21600,"station_id":"ce4bgl12rcd13ifvqbo0","pricing_plan_id":"cebpf4jnsgd1na2vs0mg"},{"bike_id":"23e15566-62b5-45f8-9df9-5eafb96922be","system_id":"levelo_inurba_marseille","lat":43.29613,"lon":5.38109,"is_reserved":false,"is_disabled":false,"rental_uris":{"android":"levelo://app?vid=23e15566-62b5-45f8-9df9-5eafb96922be","ios":"levelo://app?vid=23e15566-62b5-45f8-9df9-5eafb96922be"},"vehicle_type_id":"4","last_reported":1710529558,"current_range_meters":1200,"station_id":"ce4bgl12rcd13ifvqbo0","pricing_plan_id":"cebpf4jnsgd1na2vs0mg"},{"bike_id":"accba434-ee41-4715-8588-72f3e594aea2","system_id":"levelo_inurba_marseille","lat":43.29602,"lon":5.381084,"is_reserved":false,"is_disabled":false,"rental_uris":{"android":"levelo://app?vid=accba434-ee41-4715-8588-72f3e594aea2","ios":"levelo://app?vid=accba434-ee41-4715-8588-72f3e594aea2"},"vehicle_type_id":"4","last_reported":1710529558,"current_range_meters":0,"station_id":"ce4bgl12rcd13ifvqbo0","pricing_plan_id":"cebpf4jnsgd1na2vs0mg"},{"bike_id":"1a186d64-4941-4218-a47a-15803869db5f","system_id":"levelo_inurba_marseille","lat":43.29602,"lon":5.381084,"is_reserved":false,"is_disabled":false,"rental_uris":{"android":"levelo://app?vid=1a186d64-4941-4218-a47a-15803869db5f","ios":"levelo://app?vid=1a186d64-4941-4218-a47a-15803869db5f"},"vehicle_type_id":"4","last_reported":1710529558,"current_range_meters":17600,"station_id":"ce4bgl12rcd13ifvqbo0","pricing_plan_id":"cebpf4jnsgd1na2vs0mg"},{"bike_id":"3039cbe7-af55-4ea5-a6ae-b7529f8d6016","system_id":"levelo_inurba_marseille","lat":43.2961,"lon":5.3811,"is_reserved":false,"is_disabled":false,"rental_uris":{"android":"levelo://app?vid=3039cbe7-af55-4ea5-a6ae-b7529f8d6016","ios":"levelo://app?vid=3039cbe7-af55-4ea5-a6ae-b7529f8d6016"},"vehicle_type_id":"4","last_reported":1710529558,"current_range_meters":0,"station_id":"ce4bgl12rcd13ifvqbo0","pricing_plan_id":"cebpf4jnsgd1na2vs0mg"},{"bike_id":"badf16ed-cb59-4bce-98a6-fef9a065894d","system_id":"levelo_inurba_marseille","lat":43.29602,"lon":5.381084,"is_reserved":false,"is_disabled":false,"rental_uris":{"android":"levelo://app?vid=badf16ed-cb59-4bce-98a6-fef9a065894d","ios":"levelo://app?vid=badf16ed-cb59-4bce-98a6-fef9a065894d"},"vehicle_type_id":"4","last_reported":1710529558,"current_range_meters":10400,"station_id":"ce4bgl12rcd13ifvqbo0","pricing_plan_id":"cebpf4jnsgd1na2vs0mg"},{"bike_id":"7a9da536-bc7a-4cad-ac26-8aa0b66fdd1c","system_id":"levelo_inurba_marseille","lat":43.29599,"lon":5.38096,"is_reserved":false,"is_disabled":false,"rental_uris":{"android":"levelo://app?vid=7a9da536-bc7a-4cad-ac26-8aa0b66fdd1c","ios":"levelo://app?vid=7a9da536-bc7a-4cad-ac26-8aa0b66fdd1c"},"vehicle_type_id":"4","last_reported":1710529558,"current_range_meters":0,"station_id":"ce4bgl12rcd13ifvqbo0","pricing_plan_id":"cebpf4jnsgd1na2vs0mg"},{"bike_id":"1a809280-2c60-4ca8-a1a8-a06c10280387","system_id":"levelo_inurba_marseille","lat":43.296063,"lon":5.381127,"is_reserved":false,"is_disabled":false,"rental_uris":{"android":"levelo://app?vid=1a809280-2c60-4ca8-a1a8-a06c10280387","ios":"levelo://app?vid=1a809280-2c60-4ca8-a1a8-a06c10280387"},"vehicle_type_id":"4","last_reported":1710529558,"current_range_meters":8800,"station_id":"ce4bgl12rcd13ifvqbo0","pricing_plan_id":"cebpf4jnsgd1na2vs0mg"},{"bike_id":"7071c973-30f5-485b-9b43-b2df913faa41","system_id":"levelo_inurba_marseille","lat":43.29607,"lon":5.38116,"is_reserved":false,"is_disabled":false,"rental_uris":{"android":"levelo://app?vid=7071c973-30f5-485b-9b43-b2df913faa41","ios":"levelo://app?vid=7071c973-30f5-485b-9b43-b2df913faa41"},"vehicle_type_id":"4","last_reported":1710529558,"current_range_meters":0,"station_id":"ce4bgl12rcd13ifvqbo0","pricing_plan_id":"cebpf4jnsgd1na2vs0mg"},{"bike_id":"d59f3674-7ac0-4bf4-bb02-8f59b69ae1ef","system_id":"levelo_inurba_marseille","lat":43.29597,"lon":5.38098,"is_reserved":false,"is_disabled":false,"rental_uris":{"android":"levelo://app?vid=d59f3674-7ac0-4bf4-bb02-8f59b69ae1ef","ios":"levelo://app?vid=d59f3674-7ac0-4bf4-bb02-8f59b69ae1ef"},"vehicle_type_id":"4","last_reported":1710529558,"current_range_meters":8000,"station_id":"ce4bgl12rcd13ifvqbo0","pricing_plan_id":"cebpf4jnsgd1na2vs0mg"},{"bike_id":"ca05234e-d197-48d3-8057-ea252b0b8107","system_id":"levelo_inurba_marseille","lat":43.29602,"lon":5.381084,"is_reserved":false,"is_disabled":false,"rental_uris":{"android":"levelo://app?vid=ca05234e-d197-48d3-8057-ea252b0b8107","ios":"levelo://app?vid=ca05234e-d197-48d3-8057-ea252b0b8107"},"vehicle_type_id":"4","last_reported":1710529558,"current_range_meters":800,"station_id":"ce4bgl12rcd13ifvqbo0","pricing_plan_id":"cebpf4jnsgd1na2vs0mg"},{"bike_id":"ca988be6-0f0e-4fdc-9978-c0e0aa776b70","system_id":"levelo_inurba_marseille","lat":43.29596,"lon":5.38101,"is_reserved":false,"is_disabled":false,"rental_uris":{"android":"levelo://app?vid=ca988be6-0f0e-4fdc-9978-c0e0aa776b70","ios":"levelo://app?vid=ca988be6-0f0e-4fdc-9978-c0e0aa776b70"},"vehicle_type_id":"4","last_reported":1710529558,"current_range_meters":800,"station_id":"ce4bgl12rcd13ifvqbo0","pricing_plan_id":"cebpf4jnsgd1na2vs0mg"},{"bike_id":"bbf3172b-708e-4a8e-a299-ba8aa1494269","system_id":"levelo_inurba_marseille","lat":43.295956,"lon":5.381004,"is_reserved":false,"is_disabled":false,"rental_uris":{"android":"levelo://app?vid=bbf3172b-708e-4a8e-a299-ba8aa1494269","ios":"levelo://app?vid=bbf3172b-708e-4a8e-a299-ba8aa1494269"},"vehicle_type_id":"4","last_reported":1710529558,"current_range_meters":4400,"station_id":"ce4bgl12rcd13ifvqbo0","pricing_plan_id":"cebpf4jnsgd1na2vs0mg"},{"bike_id":"320b9a34-88fc-4925-b129-0f21b941ea42","system_id":"levelo_inurba_marseille","lat":43.29598,"lon":5.38109,"is_reserved":false,"is_disabled":false,"rental_uris":{"android":"levelo://app?vid=320b9a34-88fc-4925-b129-0f21b941ea42","ios":"levelo://app?vid=320b9a34-88fc-4925-b129-0f21b941ea42"},"vehicle_type_id":"4","last_reported":1710529558,"current_range_meters":22400,"station_id":"ce4bgl12rcd13ifvqbo0","pricing_plan_id":"cebpf4jnsgd1na2vs0mg"},{"bike_id":"f96bc613-4a07-4001-9f77-e07cda650b3c","system_id":"levelo_inurba_marseille","lat":43.292749,"lon":5.368398,"is_reserved":false,"is_disabled":false,"rental_uris":{"android":"levelo://app?vid=f96bc613-4a07-4001-9f77-e07cda650b3c","ios":"levelo://app?vid=f96bc613-4a07-4001-9f77-e07cda650b3c"},"vehicle_type_id":"4","last_reported":1710529558,"current_range_meters":1600,"station_id":"ce4bhbp2rcd13ifvqesg","pricing_plan_id":"cebpf4jnsgd1na2vs0mg"},{"bike_id":"3c995896-5bc7-4873-a8b0-50fedd35812d","system_id":"levelo_inurba_marseille","lat":43.293259,"lon":5.371586,"is_reserved":false,"is_disabled":false,"rental_uris":{"android":"levelo://app?vid=3c995896-5bc7-4873-a8b0-50fedd35812d","ios":"levelo://app?vid=3c995896-5bc7-4873-a8b0-50fedd35812d"},"vehicle_type_id":"4","last_reported":1710529558,"current_range_meters":13600,"station_id":"ce4bgh92rcd13ifvqb40","pricing_plan_id":"cebpf4jnsgd1na2vs0mg"},{"bike_id":"6aee7dab-2471-4158-b83d-770b33d1b1e9","system_id":"levelo_inurba_marseille","lat":43.292749,"lon":5.368398,"is_reserved":false,"is_disabled":false,"rental_uris":{"android":"levelo://app?vid=6aee7dab-2471-4158-b83d-770b33d1b1e9","ios":"levelo://app?vid=6aee7dab-2471-4158-b83d-770b33d1b1e9"},"vehicle_type_id":"4","last_reported":1710529558,"current_range_meters":0,"station_id":"ce4bhbp2rcd13ifvqesg","pricing_plan_id":"cebpf4jnsgd1na2vs0mg"},{"bike_id":"71e4dd1d-1ce0-4f58-859c-634a8e535b1f","system_id":"levelo_inurba_marseille","lat":43.292749,"lon":5.368402,"is_reserved":false,"is_disabled":false,"rental_uris":{"android":"levelo://app?vid=71e4dd1d-1ce0-4f58-859c-634a8e535b1f","ios":"levelo://app?vid=71e4dd1d-1ce0-4f58-859c-634a8e535b1f"},"vehicle_type_id":"4","last_reported":1710529558,"current_range_meters":0,"station_id":"ce4bhbp2rcd13ifvqesg","pricing_plan_id":"cebpf4jnsgd1na2vs0mg"},{"bike_id":"91379475-d107-449d-b6b9-0ccbbcae19c9","system_id":"levelo_inurba_marseille","lat":43.293009,"lon":5.374584,"is_reserved":false,"is_disabled":false,"rental_uris":{"android":"levelo://app?vid=91379475-d107-449d-b6b9-0ccbbcae19c9","ios":"levelo://app?vid=91379475-d107-449d-b6b9-0ccbbcae19c9"},"vehicle_type_id":"4","last_reported":1710529558,"current_range_meters":11600,"station_id":"ce4bgi12rcd13ifvqb70","pricing_plan_id":"cebpf4jnsgd1na2vs0mg"},{"bike_id":"924c3e47-abe9-45e4-ad72-5ee7bbc1fe7f","system_id":"levelo_inurba_marseille","lat":43.305994,"lon":5.393687,"is_reserved":false,"is_disabled":false,"rental_uris":{"android":"levelo://app?vid=924c3e47-abe9-45e4-ad72-5ee7bbc1fe7f","ios":"levelo://app?vid=924c3e47-abe9-45e4-ad72-5ee7bbc1fe7f"},"vehicle_type_id":"4","last_reported":1710529558,"current_range_meters":10000,"station_id":"ce4bh0p2rcd13ifvqd80","pricing_plan_id":"cebpf4jnsgd1na2vs0mg"},{"bike_id":"a1e6c919-006a-4537-9fb7-fb19ca693b13","system_id":"levelo_inurba_marseille","lat":43.293009,"lon":5.374584,"is_reserved":false,"is_disabled":false,"rental_uris":{"android":"levelo://app?vid=a1e6c919-006a-4537-9fb7-fb19ca693b13","ios":"levelo://app?vid=a1e6c919-006a-4537-9fb7-fb19ca693b13"},"vehicle_type_id":"4","last_reported":1710529558,"current_range_meters":0,"station_id":"ce4bgi12rcd13ifvqb70","pricing_plan_id":"cebpf4jnsgd1na2vs0mg"},{"bike_id":"de6b19db-f009-444b-90a2-cafc1fe3d6d5","system_id":"levelo_inurba_marseille","lat":43.293009,"lon":5.374584,"is_reserved":false,"is_disabled":false,"rental_uris":{"android":"levelo://app?vid=de6b19db-f009-444b-90a2-cafc1fe3d6d5","ios":"levelo://app?vid=de6b19db-f009-444b-90a2-cafc1fe3d6d5"},"vehicle_type_id":"4","last_reported":1710529558,"current_range_meters":5200,"station_id":"ce4bgi12rcd13ifvqb70","pricing_plan_id":"cebpf4jnsgd1na2vs0mg"},{"bike_id":"1b3fe338-3db7-4c06-8d22-b93c8bc4794d","system_id":"levelo_inurba_marseille","lat":43.29299,"lon":5.37458,"is_reserved":false,"is_disabled":false,"rental_uris":{"android":"levelo://app?vid=1b3fe338-3db7-4c06-8d22-b93c8bc4794d","ios":"levelo://app?vid=1b3fe338-3db7-4c06-8d22-b93c8bc4794d"},"vehicle_type_id":"4","last_reported":1710529558,"current_range_meters":4800,"station_id":"ce4bgi12rcd13ifvqb70","pricing_plan_id":"cebpf4jnsgd1na2vs0mg"},{"bike_id":"8fb66ad3-003d-401b-baac-c5cdb6f5990c","system_id":"levelo_inurba_marseille","lat":43.29296,"lon":5.3745,"is_reserved":false,"is_disabled":false,"rental_uris":{"android":"levelo://app?vid=8fb66ad3-003d-401b-baac-c5cdb6f5990c","ios":"levelo://app?vid=8fb66ad3-003d-401b-baac-c5cdb6f5990c"},"vehicle_type_id":"4","last_reported":1710529558,"current_range_meters":0,"station_id":"ce4bgi12rcd13ifvqb70","pricing_plan_id":"cebpf4jnsgd1na2vs0mg"},{"bike_id":"199d1fae-f27f-4ccd-acce-3e9a8a7af460","system_id":"levelo_inurba_marseille","lat":43.305994,"lon":5.393687,"is_reserved":false,"is_disabled":false,"rental_uris":{"android":"levelo://app?vid=199d1fae-f27f-4ccd-acce-3e9a8a7af460","ios":"levelo://app?vid=199d1fae-f27f-4ccd-acce-3e9a8a7af460"},"vehicle_type_id":"4","last_reported":1710529558,"current_range_meters":17200,"station_id":"ce4bh0p2rcd13ifvqd80","pricing_plan_id":"cebpf4jnsgd1na2vs0mg"},{"bike_id":"35bb0e45-74fc-4765-8268-40e7145c55fd","system_id":"levelo_inurba_marseille","lat":43.305994,"lon":5.393687,"is_reserved":false,"is_disabled":false,"rental_uris":{"android":"levelo://app?vid=35bb0e45-74fc-4765-8268-40e7145c55fd","ios":"levelo://app?vid=35bb0e45-74fc-4765-8268-40e7145c55fd"},"vehicle_type_id":"4","last_reported":1710529558,"current_range_meters":4000,"station_id":"ce4bh0p2rcd13ifvqd80","pricing_plan_id":"cebpf4jnsgd1na2vs0mg"},{"bike_id":"ad0586cb-5b95-4399-b951-1d6782fe9e06","system_id":"levelo_inurba_marseille","lat":43.303002,"lon":5.392142,"is_reserved":false,"is_disabled":false,"rental_uris":{"android":"levelo://app?vid=ad0586cb-5b95-4399-b951-1d6782fe9e06","ios":"levelo://app?vid=ad0586cb-5b95-4399-b951-1d6782fe9e06"},"vehicle_type_id":"4","last_reported":1710529558,"current_range_meters":400,"station_id":"ce4bgkh2rcd13ifvqbk0","pricing_plan_id":"cebpf4jnsgd1na2vs0mg"},{"bike_id":"c99dc94d-d4b0-4c1f-afa3-3890ff90477c","system_id":"levelo_inurba_marseille","lat":43.293009,"lon":5.374584,"is_reserved":false,"is_disabled":false,"rental_uris":{"android":"levelo://app?vid=c99dc94d-d4b0-4c1f-afa3-3890ff90477c","ios":"levelo://app?vid=c99dc94d-d4b0-4c1f-afa3-3890ff90477c"},"vehicle_type_id":"4","last_reported":1710529558,"current_range_meters":5600,"station_id":"ce4bgi12rcd13ifvqb70","pricing_plan_id":"cebpf4jnsgd1na2vs0mg"},{"bike_id":"5d04e68d-9af8-436c-b508-fe9c94039b41","system_id":"levelo_inurba_marseille","lat":43.293009,"lon":5.374584,"is_reserved":false,"is_disabled":false,"rental_uris":{"android":"levelo://app?vid=5d04e68d-9af8-436c-b508-fe9c94039b41","ios":"levelo://app?vid=5d04e68d-9af8-436c-b508-fe9c94039b41"},"vehicle_type_id":"4","last_reported":1710529558,"current_range_meters":7200,"station_id":"ce4bgi12rcd13ifvqb70","pricing_plan_id":"cebpf4jnsgd1na2vs0mg"},{"bike_id":"4be5a8ef-0200-4d5c-8c73-43dea9104dfc","system_id":"levelo_inurba_marseille","lat":43.302992,"lon":5.392136,"is_reserved":false,"is_disabled":false,"rental_uris":{"android":"levelo://app?vid=4be5a8ef-0200-4d5c-8c73-43dea9104dfc","ios":"levelo://app?vid=4be5a8ef-0200-4d5c-8c73-43dea9104dfc"},"vehicle_type_id":"4","last_reported":1710529558,"current_range_meters":1200,"station_id":"ce4bgkh2rcd13ifvqbk0","pricing_plan_id":"cebpf4jnsgd1na2vs0mg"},{"bike_id":"7569fa28-e8ba-4e97-83b2-da73853115a2","system_id":"levelo_inurba_marseille","lat":43.2936,"lon":5.37835,"is_reserved":false,"is_disabled":false,"rental_uris":{"android":"levelo://app?vid=7569fa28-e8ba-4e97-83b2-da73853115a2","ios":"levelo://app?vid=7569fa28-e8ba-4e97-83b2-da73853115a2"},"vehicle_type_id":"4","last_reported":1710529558,"current_range_meters":8400,"station_id":"ce4bgjh2rcd13ifvqbf0","pricing_plan_id":"cebpf4jnsgd1na2vs0mg"},{"bike_id":"7059bc86-af1d-40a8-9b91-7f473d9978d7","system_id":"levelo_inurba_marseille","lat":43.302972,"lon":5.392066,"is_reserved":false,"is_disabled":false,"rental_uris":{"android":"levelo://app?vid=7059bc86-af1d-40a8-9b91-7f473d9978d7","ios":"levelo://app?vid=7059bc86-af1d-40a8-9b91-7f473d9978d7"},