{"last_updated":1727276931,"ttl":60,"version":"2.2","data":{"bikes":[{"bike_id":"6109ada7-505d-440e-a420-8d4d66c41f19","system_id":"levelo_inurba_marseille","lat":43.27438,"lon":5.42467,"is_reserved":false,"is_disabled":false,"rental_uris":{"android":"levelo://app?vid=6109ada7-505d-440e-a420-8d4d66c41f19","ios":"levelo://app?vid=6109ada7-505d-440e-a420-8d4d66c41f19"},"vehicle_type_id":"4","last_reported":1727276931,"current_range_meters":24400,"station_id":"","pricing_plan_id":"cebpf4jnsgd1na2vs0mg"},{"bike_id":"6b7614ec-17d2-48e3-93ef-b2e4984a1f85","system_id":"levelo_inurba_marseille","lat":43.29517,"lon":5.38548,"is_reserved":false,"is_disabled":false,"rental_uris":{"android":"levelo://app?vid=6b7614ec-17d2-48e3-93ef-b2e4984a1f85","ios":"levelo://app?vid=6b7614ec-17d2-48e3-93ef-b2e4984a1f85"},"vehicle_type_id":"4","last_reported":1727276931,"current_range_meters":35200,"station_id":"ce4bgih2rcd13ifvqba0","pricing_plan_id":"cebpf4jnsgd1na2vs0mg"},{"bike_id":"4241d181-054c-49ae-9d11-67f19cec3629","system_id":"levelo_inurba_marseille","lat":43.273163,"lon":5.390779,"is_reserved":false,"is_disabled":false,"rental_uris":{"android":"levelo://app?vid=4241d181-054c-49ae-9d11-67f19cec3629","ios":"levelo://app?vid=4241d181-054c-49ae-9d11-67f19cec3629"},"vehicle_type_id":"4","last_reported":1727276931,"current_range_meters":38000,"station_id":"ce4bhgp2rcd13ifvqfe0","pricing_plan_id":"cebpf4jnsgd1na2vs0mg"},{"bike_id":"f7a338af-1395-4aab-9a8f-5f637cc6b9d3","system_id":"levelo_inurba_marseille","lat":43.30912,"lon":5.36856,"is_reserved":false,"is_disabled":false,"rental_uris":{"android":"levelo://app?vid=f7a338af-1395-4aab-9a8f-5f637cc6b9d3","ios":"levelo://app?vid=f7a338af-1395-4aab-9a8f-5f637cc6b9d3"},"vehicle_type_id":"4","last_reported":1727276931,"current_range_meters":22000,"station_id":"ce4bgn92rcd13ifvqbvg","pricing_plan_id":"cebpf4jnsgd1na2vs0mg"},{"bike_id":"9d534289-e522-4402-9fd1-b9156cb204c2","system_id":"levelo_inurba_marseille","lat":43.29283,"lon":5.40112,"is_reserved":false,"is_disabled":false,"rental_uris":{"android":"levelo://app?vid=9d534289-e522-4402-9fd1-b9156cb204c2","ios":"levelo://app?vid=9d534289-e522-4402-9fd1-b9156cb204c2"},"vehicle_type_id":"4","last_reported":1727276931,"current_range_meters":35600,"station_id":"ce4bh312rcd13ifvqdk0","pricing_plan_id":"cebpf4jnsgd1na2vs0mg"},{"bike_id":"0ca5c654-552b-4a20-9714-3fe525309d4e","system_id":"levelo_inurba_marseille","lat":43.32663,"lon":5.40987,"is_reserved":false,"is_disabled":false,"rental_uris":{"android":"levelo://app?vid=0ca5c654-552b-4a20-9714-3fe525309d4e","ios":"levelo://app?vid=0ca5c654-552b-4a20-9714-3fe525309d4e"},"vehicle_type_id":"4","last_reported":1727276931,"current_range_meters":37600,"station_id":"ce4bhpp2rcd13ifvqhgg","pricing_plan_id":"cebpf4jnsgd1na2vs0mg"},{"bike_id":"3c2945db-6c28-42c4-900b-5b9453deae7e","system_id":"levelo_inurba_marseille","lat":43.28153,"lon":5.42647,"is_reserved":false,"is_disabled":false,"rental_uris":{"android":"levelo://app?vid=3c2945db-6c28-42c4-900b-5b9453deae7e","ios":"levelo://app?vid=3c2945db-6c28-42c4-900b-5b9453deae7e"},"vehicle_type_id":"4","last_reported":1727276931,"current_range_meters":27200,"station_id":"ce4bhnh2rcd13ifvqgug","pricing_plan_id":"cebpf4jnsgd1na2vs0mg"},{"bike_id":"9926f8d4-52ff-41d7-995b-39e4b6d4cdc0","system_id":"levelo_inurba_marseille","lat":43.32482,"lon":5.36569,"is_reserved":false,"is_disabled":false,"rental_uris":{"android":"levelo://app?vid=9926f8d4-52ff-41d7-995b-39e4b6d4cdc0","ios":"levelo://app?vid=9926f8d4-52ff-41d7-995b-39e4b6d4cdc0"},"vehicle_type_id":"4","last_reported":1727276931,"current_range_meters":38800,"station_id":"ce4bhs12rcd13ifvqhvg","pricing_plan_id":"cebpf4jnsgd1na2vs0mg"},{"bike_id":"5f3ee6d1-9072-4c19-8b68-f6eba55f0554","system_id":"levelo_inurba_marseille","lat":43.25575,"lon":5.38235,"is_reserved":false,"is_disabled":false,"rental_uris":{"android":"levelo://app?vid=5f3ee6d1-9072-4c19-8b68-f6eba55f0554","ios":"levelo://app?vid=5f3ee6d1-9072-4c19-8b68-f6eba55f0554"},"vehicle_type_id":"4","last_reported":1727276931,"current_range_meters":6800,"station_id":"ce4bhih2rcd13ifvqfs0","pricing_plan_id":"cebpf4jnsgd1na2vs0mg"},{"bike_id":"841dca2e-39c3-4404-86c6-1d45d2683a36","system_id":"levelo_inurba_marseille","lat":43.29902,"lon":5.4367,"is_reserved":false,"is_disabled":false,"rental_uris":{"android":"levelo://app?vid=841dca2e-39c3-4404-86c6-1d45d2683a36","ios":"levelo://app?vid=841dca2e-39c3-4404-86c6-1d45d2683a36"},"vehicle_type_id":"4","last_reported":1727276931,"current_range_meters":10000,"station_id":"ce4bhpp2rcd13ifvqhfg","pricing_plan_id":"cebpf4jnsgd1na2vs0mg"},{"bike_id":"54ad4418-dc8c-41a6-b433-47bec1ddd48c","system_id":"levelo_inurba_marseille","lat":43.24173,"lon":5.3975,"is_reserved":false,"is_disabled":false,"rental_uris":{"android":"levelo://app?vid=54ad4418-dc8c-41a6-b433-47bec1ddd48c","ios":"levelo://app?vid=54ad4418-dc8c-41a6-b433-47bec1ddd48c"},"vehicle_type_id":"4","last_reported":1727276931,"current_range_meters":32400,"station_id":"ce4bhb92rcd13ifvqen0","pricing_plan_id":"cebpf4jnsgd1na2vs0mg"},{"bike_id":"c244c35b-e80a-4afa-8945-857801d4d3fa","system_id":"levelo_inurba_marseille","lat":43.29969,"lon":5.38494,"is_reserved":false,"is_disabled":false,"rental_uris":{"android":"levelo://app?vid=c244c35b-e80a-4afa-8945-857801d4d3fa","ios":"levelo://app?vid=c244c35b-e80a-4afa-8945-857801d4d3fa"},"vehicle_type_id":"4","last_reported":1727276931,"current_range_meters":6400,"station_id":"ce4bgj92rcd13ifvqbd0","pricing_plan_id":"cebpf4jnsgd1na2vs0mg"},{"bike_id":"7244d22d-1960-4d2d-aa10-22420bb6ebc3","system_id":"levelo_inurba_marseille","lat":43.29624,"lon":5.37152,"is_reserved":false,"is_disabled":false,"rental_uris":{"android":"levelo://app?vid=7244d22d-1960-4d2d-aa10-22420bb6ebc3","ios":"levelo://app?vid=7244d22d-1960-4d2d-aa10-22420bb6ebc3"},"vehicle_type_id":"4","last_reported":1727276931,"current_range_meters":3200,"station_id":"ce4bgnh2rcd13ifvqc0g","pricing_plan_id":"cebpf4jnsgd1na2vs0mg"},{"bike_id":"a5900370-aea9-4d3d-b2c7-1a3f27ac12db","system_id":"levelo_inurba_marseille","lat":43.28418,"lon":5.34988,"is_reserved":false,"is_disabled":false,"rental_uris":{"android":"levelo://app?vid=a5900370-aea9-4d3d-b2c7-1a3f27ac12db","ios":"levelo://app?vid=a5900370-aea9-4d3d-b2c7-1a3f27ac12db"},"vehicle_type_id":"4","last_reported":1727276931,"current_range_meters":31200,"station_id":"ce4bhbh2rcd13ifvqepg","pricing_plan_id":"cebpf4jnsgd1na2vs0mg"},{"bike_id":"7737b815-6daf-41f0-8354-4b28ba75917f","system_id":"levelo_inurba_marseille","lat":43.30193,"lon":5.39813,"is_reserved":false,"is_disabled":false,"rental_uris":{"android":"levelo://app?vid=7737b815-6daf-41f0-8354-4b28ba75917f","ios":"levelo://app?vid=7737b815-6daf-41f0-8354-4b28ba75917f"},"vehicle_type_id":"4","last_reported":1727276931,"current_range_meters":17200,"station_id":"ce4bgvp2rcd13ifvqct0","pricing_plan_id":"cebpf4jnsgd1na2vs0mg"},{"bike_id":"8a7be956-eece-4a5e-8dfa-3a6409ec3e54","system_id":"levelo_inurba_marseille","lat":43.29204,"lon":5.3581,"is_reserved":false,"is_disabled":false,"rental_uris":{"android":"levelo://app?vid=8a7be956-eece-4a5e-8dfa-3a6409ec3e54","ios":"levelo://app?vid=8a7be956-eece-4a5e-8dfa-3a6409ec3e54"},"vehicle_type_id":"4","last_reported":1727276931,"current_range_meters":7200,"station_id":"ce4bhb12rcd13ifvqel0","pricing_plan_id":"cebpf4jnsgd1na2vs0mg"},{"bike_id":"919ba1f8-84d0-4b24-9946-96ff11fb8830","system_id":"levelo_inurba_marseille","lat":43.27614,"lon":5.36101,"is_reserved":false,"is_disabled":false,"rental_uris":{"android":"levelo://app?vid=919ba1f8-84d0-4b24-9946-96ff11fb8830","ios":"levelo://app?vid=919ba1f8-84d0-4b24-9946-96ff11fb8830"},"vehicle_type_id":"4","last_reported":1727276931,"current_range_meters":10000,"station_id":"ce4bgj92rcd13ifvqbe0","pricing_plan_id":"cebpf4jnsgd1na2vs0mg"},{"bike_id":"8a566eab-bd4f-429e-abc8-ce3ac6ea59a3","system_id":"levelo_inurba_marseille","lat":43.26028,"lon":5.37549,"is_reserved":false,"is_disabled":false,"rental_uris":{"android":"levelo://app?vid=8a566eab-bd4f-429e-abc8-ce3ac6ea59a3","ios":"levelo://app?vid=8a566eab-bd4f-429e-abc8-ce3ac6ea59a3"},"vehicle_type_id":"4","last_reported":1727276931,"current_range_meters":36400,"station_id":"ce4bhgh2rcd13ifvqfa0","pricing_plan_id":"cebpf4jnsgd1na2vs0mg"},{"bike_id":"f57f9a2b-463a-495e-b929-b7d110fc5488","system_id":"levelo_inurba_marseille","lat":43.2984,"lon":5.36265,"is_reserved":false,"is_disabled":false,"rental_uris":{"android":"levelo://app?vid=f57f9a2b-463a-495e-b929-b7d110fc5488","ios":"levelo://app?vid=f57f9a2b-463a-495e-b929-b7d110fc5488"},"vehicle_type_id":"4","last_reported":1727276931,"current_range_meters":10800,"station_id":"ce4bgpp2rcd13ifvqc3g","pricing_plan_id":"cebpf4jnsgd1na2vs0mg"},{"bike_id":"e9e079ca-42fb-48ba-a6e1-682b20d310ce","system_id":"levelo_inurba_marseille","lat":43.23196,"lon":5.35547,"is_reserved":false,"is_disabled":false,"rental_uris":{"android":"levelo://app?vid=e9e079ca-42fb-48ba-a6e1-682b20d310ce","ios":"levelo://app?vid=e9e079ca-42fb-48ba-a6e1-682b20d310ce"},"vehicle_type_id":"4","last_reported":1727276931,"current_range_meters":27600,"station_id":"ce4bhu92rcd13ifvqi70","pricing_plan_id":"cebpf4jnsgd1na2vs0mg"},{"bike_id":"7a8458d5-44ac-4f2e-abef-3f01eb31f7ca","system_id":"levelo_inurba_marseille","lat":43.337444,"lon":5.374475,"is_reserved":false,"is_disabled":false,"rental_uris":{"android":"levelo://app?vid=7a8458d5-44ac-4f2e-abef-3f01eb31f7ca","ios":"levelo://app?vid=7a8458d5-44ac-4f2e-abef-3f01eb31f7ca"},"vehicle_type_id":"4","last_reported":1727276931,"current_range_meters":25200,"station_id":"","pricing_plan_id":"cebpf4jnsgd1na2vs0mg"},{"bike_id":"06265587-1a02-47da-a0c9-68c60f0f3326","system_id":"levelo_inurba_marseille","lat":43.29849,"lon":5.36269,"is_reserved":false,"is_disabled":false,"rental_uris":{"android":"levelo://app?vid=06265587-1a02-47da-a0c9-68c60f0f3326","ios":"levelo://app?vid=06265587-1a02-47da-a0c9-68c60f0f3326"},"vehicle_type_id":"4","last_reported":1727276931,"current_range_meters":37600,"station_id":"ce4bgpp2rcd13ifvqc3g","pricing_plan_id":"cebpf4jnsgd1na2vs0mg"},{"bike_id":"7eaea067-ce3f-4193-acc8-0e578e5b738a","system_id":"levelo_inurba_marseille","lat":43.29546,"lon":5.37504,"is_reserved":false,"is_disabled":false,"rental_uris":{"android":"levelo://app?vid=7eaea067-ce3f-4193-acc8-0e578e5b738a","ios":"levelo://app?vid=7eaea067-ce3f-4193-acc8-0e578e5b738a"},"vehicle_type_id":"4","last_reported":1727276931,"current_range_meters":2800,"station_id":"ce4bgkp2rcd13ifvqbmg","pricing_plan_id":"cebpf4jnsgd1na2vs0mg"},{"bike_id":"e293521e-99be-4b74-8044-2e6d3b2dd313","system_id":"levelo_inurba_marseille","lat":43.284041,"lon":5.375047,"is_reserved":false,"is_disabled":false,"rental_uris":{"android":"levelo://app?vid=e293521e-99be-4b74-8044-2e6d3b2dd313","ios":"levelo://app?vid=e293521e-99be-4b74-8044-2e6d3b2dd313"},"vehicle_type_id":"4","last_reported":1727276931,"current_range_meters":3200,"station_id":"ce4bh412rcd13ifvqds0","pricing_plan_id":"cebpf4jnsgd1na2vs0mg"},{"bike_id":"dd63e981-1be7-4c1c-bbbf-63292780e73b","system_id":"levelo_inurba_marseille","lat":43.284568,"lon":5.358862,"is_reserved":false,"is_disabled":false,"rental_uris":{"android":"levelo://app?vid=dd63e981-1be7-4c1c-bbbf-63292780e73b","ios":"levelo://app?vid=dd63e981-1be7-4c1c-bbbf-63292780e73b"},"vehicle_type_id":"4","last_reported":1727276931,"current_range_meters":4800,"station_id":"ce4bhah2rcd13ifvqei0","pricing_plan_id":"cebpf4jnsgd1na2vs0mg"},{"bike_id":"c9caa42e-e8a7-4b6e-b172-795704959513","system_id":"levelo_inurba_marseille","lat":43.30909,"lon":5.36854,"is_reserved":false,"is_disabled":false,"rental_uris":{"android":"levelo://app?vid=c9caa42e-e8a7-4b6e-b172-795704959513","ios":"levelo://app?vid=c9caa42e-e8a7-4b6e-b172-795704959513"},"vehicle_type_id":"4","last_reported":1727276931,"current_range_meters":30800,"station_id":"ce4bgn92rcd13ifvqbvg","pricing_plan_id":"cebpf4jnsgd1na2vs0mg"},{"bike_id":"81d00f71-18b5-4cf2-aafd-a12a64fac54e","system_id":"levelo_inurba_marseille","lat":43.29272,"lon":5.36845,"is_reserved":false,"is_disabled":false,"rental_uris":{"android":"levelo://app?vid=81d00f71-18b5-4cf2-aafd-a12a64fac54e","ios":"levelo://app?vid=81d00f71-18b5-4cf2-aafd-a12a64fac54e"},"vehicle_type_id":"4","last_reported":1727276931,"current_range_meters":38800,"station_id":"ce4bhbp2rcd13ifvqesg","pricing_plan_id":"cebpf4jnsgd1na2vs0mg"},{"bike_id":"f99e5b75-b016-4508-8e64-04e3bae8651e","system_id":"levelo_inurba_marseille","lat":43.24644,"lon":5.38892,"is_reserved":false,"is_disabled":false,"rental_uris":{"android":"levelo://app?vid=f99e5b75-b016-4508-8e64-04e3bae8651e","ios":"levelo://app?vid=f99e5b75-b016-4508-8e64-04e3bae8651e"},"vehicle_type_id":"4","last_reported":1727276931,"current_range_meters":11200,"station_id":"ce4bhg12rcd13ifvqf60","pricing_plan_id":"cebpf4jnsgd1na2vs0mg"},{"bike_id":"2028fdfe-11e7-458c-9a60-116a221653a1","system_id":"levelo_inurba_marseille","lat":43.27424,"lon":5.39416,"is_reserved":false,"is_disabled":false,"rental_uris":{"android":"levelo://app?vid=2028fdfe-11e7-458c-9a60-116a221653a1","ios":"levelo://app?vid=2028fdfe-11e7-458c-9a60-116a221653a1"},"vehicle_type_id":"4","last_reported":1727276931,"current_range_meters":10000,"station_id":"ce4bhdp2rcd13ifvqf20","pricing_plan_id":"cebpf4jnsgd1na2vs0mg"},{"bike_id":"ed22a07d-ccec-4c45-92f3-0d9748fb805e","system_id":"levelo_inurba_marseille","lat":43.298485,"lon":5.362789,"is_reserved":false,"is_disabled":false,"rental_uris":{"android":"levelo://app?vid=ed22a07d-ccec-4c45-92f3-0d9748fb805e","ios":"levelo://app?vid=ed22a07d-ccec-4c45-92f3-0d9748fb805e"},"vehicle_type_id":"4","last_reported":1727276931,"current_range_meters":19600,"station_id":"","pricing_plan_id":"cebpf4jnsgd1na2vs0mg"},{"bike_id":"44944327-804d-4efd-957d-c88684856ece","system_id":"levelo_inurba_marseille","lat":43.29958,"lon":5.41318,"is_reserved":false,"is_disabled":false,"rental_uris":{"android":"levelo://app?vid=44944327-804d-4efd-957d-c88684856ece","ios":"levelo://app?vid=44944327-804d-4efd-957d-c88684856ece"},"vehicle_type_id":"4","last_reported":1727276931,"current_range_meters":38800,"station_id":"ce4bhp12rcd13ifvqh9g","pricing_plan_id":"cebpf4jnsgd1na2vs0mg"},{"bike_id":"6b32ea35-6731-4876-9a43-b3d1ce822ed8","system_id":"levelo_inurba_marseille","lat":43.27059,"lon":5.42268,"is_reserved":false,"is_disabled":false,"rental_uris":{"android":"levelo://app?vid=6b32ea35-6731-4876-9a43-b3d1ce822ed8","ios":"levelo://app?vid=6b32ea35-6731-4876-9a43-b3d1ce822ed8"},"vehicle_type_id":"4","last_reported":1727276931,"current_range_meters":20400,"station_id":"ce4bhk92rcd13ifvqgb0","pricing_plan_id":"cebpf4jnsgd1na2vs0mg"},{"bike_id":"11f88091-15b5-46ee-a7dc-252de020b772","system_id":"levelo_inurba_marseille","lat":43.23194,"lon":5.35549,"is_reserved":false,"is_disabled":false,"rental_uris":{"android":"levelo://app?vid=11f88091-15b5-46ee-a7dc-252de020b772","ios":"levelo://app?vid=11f88091-15b5-46ee-a7dc-252de020b772"},"vehicle_type_id":"4","last_reported":1727276931,"current_range_meters":8000,"station_id":"ce4bhu92rcd13ifvqi70","pricing_plan_id":"cebpf4jnsgd1na2vs0mg"},{"bike_id":"79a05bb1-ccec-47f0-8ebd-1f95854549f8","system_id":"levelo_inurba_marseille","lat":43.31285,"lon":5.38042,"is_reserved":false,"is_disabled":false,"rental_uris":{"android":"levelo://app?vid=79a05bb1-ccec-47f0-8ebd-1f95854549f8","ios":"levelo://app?vid=79a05bb1-ccec-47f0-8ebd-1f95854549f8"},"vehicle_type_id":"4","last_reported":1727276931,"current_range_meters":10800,"station_id":"","pricing_plan_id":"cebpf4jnsgd1na2vs0mg"},{"bike_id":"c8f9ce4c-b0a8-4f7f-a01c-8ebf2b760da3","system_id":"levelo_inurba_marseille","lat":43.292108,"lon":5.35955,"is_reserved":false,"is_disabled":false,"rental_uris":{"android":"levelo://app?vid=c8f9ce4c-b0a8-4f7f-a01c-8ebf2b760da3","ios":"levelo://app?vid=c8f9ce4c-b0a8-4f7f-a01c-8ebf2b760da3"},"vehicle_type_id":"4","last_reported":1727276931,"current_range_meters":24000,"station_id":"ce4bhb12rcd13ifvqel0","pricing_plan_id":"cebpf4jnsgd1na2vs0mg"},{"bike_id":"7f11b715-552f-4402-8601-f16211cc4bc6","system_id":"levelo_inurba_marseille","lat":43.26485,"lon":5.39541,"is_reserved":false,"is_disabled":false,"rental_uris":{"android":"levelo://app?vid=7f11b715-552f-4402-8601-f16211cc4bc6","ios":"levelo://app?vid=7f11b715-552f-4402-8601-f16211cc4bc6"},"vehicle_type_id":"4","last_reported":1727276931,"current_range_meters":18000,"station_id":"ce4bhi12rcd13ifvqfq0","pricing_plan_id":"cebpf4jnsgd1na2vs0mg"},{"bike_id":"88f1d398-5161-404f-a659-5d35bdcf0030","system_id":"levelo_inurba_marseille","lat":43.3106,"lon":5.38361,"is_reserved":false,"is_disabled":false,"rental_uris":{"android":"levelo://app?vid=88f1d398-5161-404f-a659-5d35bdcf0030","ios":"levelo://app?vid=88f1d398-5161-404f-a659-5d35bdcf0030"},"vehicle_type_id":"4","last_reported":1727276931,"current_range_meters":8800,"station_id":"ce4bgv92rcd13ifvqcr0","pricing_plan_id":"cebpf4jnsgd1na2vs0mg"},{"bike_id":"e3643e1d-aa03-4ba8-87a9-de85a46146ec","system_id":"levelo_inurba_marseille","lat":43.28413,"lon":5.34975,"is_reserved":false,"is_disabled":false,"rental_uris":{"android":"levelo://app?vid=e3643e1d-aa03-4ba8-87a9-de85a46146ec","ios":"levelo://app?vid=e3643e1d-aa03-4ba8-87a9-de85a46146ec"},"vehicle_type_id":"4","last_reported":1727276931,"current_range_meters":10000,"station_id":"ce4bhbh2rcd13ifvqepg","pricing_plan_id":"cebpf4jnsgd1na2vs0mg"},{"bike_id":"24343daa-1b78-4934-b760-b883a47ef43f","system_id":"levelo_inurba_marseille","lat":43.22937,"lon":5.353838,"is_reserved":false,"is_disabled":false,"rental_uris":{"android":"levelo://app?vid=24343daa-1b78-4934-b760-b883a47ef43f","ios":"levelo://app?vid=24343daa-1b78-4934-b760-b883a47ef43f"},"vehicle_type_id":"4","last_reported":1727276931,"current_range_meters":32800,"station_id":"cpo3532slgdg3j2ikp40","pricing_plan_id":"cebpf4jnsgd1na2vs0mg"},{"bike_id":"f97ba308-62f2-45e6-b928-755fc3107561","system_id":"levelo_inurba_marseille","lat":43.23184,"lon":5.3999,"is_reserved":false,"is_disabled":false,"rental_uris":{"android":"levelo://app?vid=f97ba308-62f2-45e6-b928-755fc3107561","ios":"levelo://app?vid=f97ba308-62f2-45e6-b928-755fc3107561"},"vehicle_type_id":"4","last_reported":1727276931,"current_range_meters":38800,"station_id":"ce4bhn12rcd13ifvqgqg","pricing_plan_id":"cebpf4jnsgd1na2vs0mg"},{"bike_id":"cb60ea68-1f21-4e6f-9a0f-2b140d294d0a","system_id":"levelo_inurba_marseille","lat":43.29573,"lon":5.37518,"is_reserved":false,"is_disabled":false,"rental_uris":{"android":"levelo://app?vid=cb60ea68-1f21-4e6f-9a0f-2b140d294d0a","ios":"levelo://app?vid=cb60ea68-1f21-4e6f-9a0f-2b140d294d0a"},"vehicle_type_id":"4","last_reported":1727276931,"current_range_meters":31200,"station_id":"ce4bgh92rcd13ifvqb50","pricing_plan_id":"cebpf4jnsgd1na2vs0mg"},{"bike_id":"48cc4ffa-9f82-45bd-8a43-7256a338ba43","system_id":"levelo_inurba_marseille","lat":43.30297,"lon":5.39211,"is_reserved":false,"is_disabled":false,"rental_uris":{"android":"levelo://app?vid=48cc4ffa-9f82-45bd-8a43-7256a338ba43","ios":"levelo://app?vid=48cc4ffa-9f82-45bd-8a43-7256a338ba43"},"vehicle_type_id":"4","last_reported":1727276931,"current_range_meters":4400,"station_id":"ce4bgkh2rcd13ifvqbk0","pricing_plan_id":"cebpf4jnsgd1na2vs0mg"},{"bike_id":"ecb70881-b110-48a8-b751-24b4690d4031","system_id":"levelo_inurba_marseille","lat":43.23183,"lon":5.39993,"is_reserved":false,"is_disabled":false,"rental_uris":{"android":"levelo://app?vid=ecb70881-b110-48a8-b751-24b4690d4031","ios":"levelo://app?vid=ecb70881-b110-48a8-b751-24b4690d4031"},"vehicle_type_id":"4","last_reported":1727276931,"current_range_meters":37600,"station_id":"ce4bhn12rcd13ifvqgqg","pricing_plan_id":"cebpf4jnsgd1na2vs0mg"},{"bike_id":"48190da6-67b4-4bb0-ae13-8bd4ee5ba5dc","system_id":"levelo_inurba_marseille","lat":43.30249,"lon":5.40056,"is_reserved":false,"is_disabled":false,"rental_uris":{"android":"levelo://app?vid=48190da6-67b4-4bb0-ae13-8bd4ee5ba5dc","ios":"levelo://app?vid=48190da6-67b4-4bb0-ae13-8bd4ee5ba5dc"},"vehicle_type_id":"4","last_reported":1727276931,"current_range_meters":38800,"station_id":"ce4bgvh2rcd13ifvqcs0","pricing_plan_id":"cebpf4jnsgd1na2vs0mg"},{"bike_id":"e670c33c-6d37-4536-bc3d-624c763f51c4","system_id":"levelo_inurba_marseille","lat":43.28944,"lon":5.36397,"is_reserved":false,"is_disabled":false,"rental_uris":{"android":"levelo://app?vid=e670c33c-6d37-4536-bc3d-624c763f51c4","ios":"levelo://app?vid=e670c33c-6d37-4536-bc3d-624c763f51c4"},"vehicle_type_id":"4","last_reported":1727276931,"current_range_meters":8400,"station_id":"ce4bhc92rcd13ifvqetg","pricing_plan_id":"cebpf4jnsgd1na2vs0mg"},{"bike_id":"25bd7405-be80-4a77-a761-8a1efed52652","system_id":"levelo_inurba_marseille","lat":43.29896,"lon":5.43657,"is_reserved":false,"is_disabled":false,"rental_uris":{"android":"levelo://app?vid=25bd7405-be80-4a77-a761-8a1efed52652","ios":"levelo://app?vid=25bd7405-be80-4a77-a761-8a1efed52652"},"vehicle_type_id":"4","last_reported":1727276931,"current_range_meters":38800,"station_id":"ce4bhpp2rcd13ifvqhfg","pricing_plan_id":"cebpf4jnsgd1na2vs0mg"},{"bike_id":"bbd31db5-c137-4320-95f9-7cb19235dc07","system_id":"levelo_inurba_marseille","lat":43.30797,"lon":5.43514,"is_reserved":false,"is_disabled":false,"rental_uris":{"android":"levelo://app?vid=bbd31db5-c137-4320-95f9-7cb19235dc07","ios":"levelo://app?vid=bbd31db5-c137-4320-95f9-7cb19235dc07"},"vehicle_type_id":"4","last_reported":1727276931,"current_range_meters":39200,"station_id":"ce4bhph2rcd13ifvqheg","pricing_plan_id":"cebpf4jnsgd1na2vs0mg"},{"bike_id":"97036d67-1b0c-4ce0-bb66-4fee4f876c5a","system_id":"levelo_inurba_marseille","lat":43.301472,"lon":5.387819,"is_reserved":false,"is_disabled":false,"rental_uris":{"android":"levelo://app?vid=97036d67-1b0c-4ce0-bb66-4fee4f876c5a","ios":"levelo://app?vid=97036d67-1b0c-4ce0-bb66-4fee4f876c5a"},"vehicle_type_id":"4","last_reported":1727276931,"current_range_meters":28000,"station_id":"","pricing_plan_id":"cebpf4jnsgd1na2vs0mg"},{"bike_id":"124ed7b5-473e-4a00-a600-343137f4cef9","system_id":"levelo_inurba_marseille","lat":43.33719,"lon":5.39182,"is_reserved":false,"is_disabled":false,"rental_uris":{"android":"levelo://app?vid=124ed7b5-473e-4a00-a600-343137f4cef9","ios":"levelo://app?vid=124ed7b5-473e-4a00-a600-343137f4cef9"},"vehicle_type_id":"4","last_reported":1727276931,"current_range_meters":38000,"station_id":"ce4bhr92rcd13ifvqhsg","pricing_plan_id":"cebpf4jnsgd1na2vs0mg"},{"bike_id":"901368f5-ce1e-4521-bcfa-09fe277d40e2","system_id":"levelo_inurba_marseille","lat":43.28421,"lon":5.34987,"is_reserved":false,"is_disabled":false,"rental_uris":{"android":"levelo://app?vid=901368f5-ce1e-4521-bcfa-09fe277d40e2","ios":"levelo://app?vid=901368f5-ce1e-4521-bcfa-09fe277d40e2"},"vehicle_type_id":"4","last_reported":1727276931,"current_range_meters":22000,"station_id":"ce4bhbh2rcd13ifvqepg","pricing_plan_id":"cebpf4jnsgd1na2vs0mg"},{"bike_id":"7308ee73-d401-4cd9-99de-1fa0dc62eb00","system_id":"levelo_inurba_marseille","lat":43.27619,"lon":5.36115,"is_reserved":false,"is_disabled":false,"rental_uris":{"android":"levelo://app?vid=7308ee73-d401-4cd9-99de-1fa0dc62eb00","ios":"levelo://app?vid=7308ee73-d401-4cd9-99de-1fa0dc62eb00"},"vehicle_type_id":"4","last_reported":1727276931,"current_range_meters":12800,"station_id":"ce4bgj92rcd13ifvqbe0","pricing_plan_id":"cebpf4jnsgd1na2vs0mg"},{"bike_id":"8c2331c7-ec4b-4d5a-98db-f290ab46dd66","system_id":"levelo_inurba_marseille","lat":43.28395,"lon":5.37503,"is_reserved":false,"is_disabled":false,"rental_uris":{"android":"levelo://app?vid=8c2331c7-ec4b-4d5a-98db-f290ab46dd66","ios":"levelo://app?vid=8c2331c7-ec4b-4d5a-98db-f290ab46dd66"},"vehicle_type_id":"4","last_reported":1727276931,"current_range_meters":3600,"station_id":"ce4bh412rcd13ifvqds0","pricing_plan_id":"cebpf4jnsgd1na2vs0mg"},{"bike_id":"919b6e53-1f25-473a-b7dd-4079591fb838","system_id":"levelo_inurba_marseille","lat":43.2558,"lon":5.38229,"is_reserved":false,"is_disabled":false,"rental_uris":{"android":"levelo://app?vid=919b6e53-1f25-473a-b7dd-4079591fb838","ios":"levelo://app?vid=919b6e53-1f25-473a-b7dd-4079591fb838"},"vehicle_type_id":"4","last_reported":1727276931,"current_range_meters":3200,"station_id":"ce4bhih2rcd13ifvqfs0","pricing_plan_id":"cebpf4jnsgd1na2vs0mg"},{"bike_id":"781cf632-5e11-40d6-afd4-60b9df84fe6b","system_id":"levelo_inurba_marseille","lat":43.32484,"lon":5.36563,"is_reserved":false,"is_disabled":false,"rental_uris":{"android":"levelo://app?vid=781cf632-5e11-40d6-afd4-60b9df84fe6b","ios":"levelo://app?vid=781cf632-5e11-40d6-afd4-60b9df84fe6b"},"vehicle_type_id":"4","last_reported":1727276931,"current_range_meters":2000,"station_id":"ce4bhs12rcd13ifvqhvg","pricing_plan_id":"cebpf4jnsgd1na2vs0mg"},{"bike_id":"ce6d7c74-4952-4478-b420-60db475a469c","system_id":"levelo_inurba_marseille","lat":43.28928,"lon":5.36639,"is_reserved":false,"is_disabled":false,"rental_uris":{"android":"levelo://app?vid=ce6d7c74-4952-4478-b420-60db475a469c","ios":"levelo://app?vid=ce6d7c74-4952-4478-b420-60db475a469c"},"vehicle_type_id":"4","last_reported":1727276931,"current_range_meters":24800,"station_id":"ce4bhap2rcd13ifvqek0","pricing_plan_id":"cebpf4jnsgd1na2vs0mg"},{"bike_id":"460b7757-b173-463c-9951-7d5ebebc6c90","system_id":"levelo_inurba_marseille","lat":43.29638,"lon":5.37788,"is_reserved":false,"is_disabled":false,"rental_uris":{"android":"levelo://app?vid=460b7757-b173-463c-9951-7d5ebebc6c90","ios":"levelo://app?vid=460b7757-b173-463c-9951-7d5ebebc6c90"},"vehicle_type_id":"4","last_reported":1727276931,"current_range_meters":8800,"station_id":"ce4bguh2rcd13ifvqckg","pricing_plan_id":"cebpf4jnsgd1na2vs0mg"},{"bike_id":"7d1c5f24-b2c4-4b39-a45e-5cd31c748af9","system_id":"levelo_inurba_marseille","lat":43.32481,"lon":5.36566,"is_reserved":false,"is_disabled":false,"rental_uris":{"android":"levelo://app?vid=7d1c5f24-b2c4-4b39-a45e-5cd31c748af9","ios":"levelo://app?vid=7d1c5f24-b2c4-4b39-a45e-5cd31c748af9"},"vehicle_type_id":"4","last_reported":1727276931,"current_range_meters":33200,"station_id":"ce4bhs12rcd13ifvqhvg","pricing_plan_id":"cebpf4jnsgd1na2vs0mg"},{"bike_id":"af4bd883-ba6d-45c4-bfa5-9b040e8d0a92","system_id":"levelo_inurba_marseille","lat":43.28419,"lon":5.34983,"is_reserved":false,"is_disabled":false,"rental_uris":{"android":"levelo://app?vid=af4bd883-ba6d-45c4-bfa5-9b040e8d0a92","ios":"levelo://app?vid=af4bd883-ba6d-45c4-bfa5-9b040e8d0a92"},"vehicle_type_id":"4","last_reported":1727276931,"current_range_meters":15200,"station_id":"ce4bhbh2rcd13ifvqepg","pricing_plan_id":"cebpf4jnsgd1na2vs0mg"},{"bike_id":"31144c66-0690-4e76-8aba-515d66b66987","system_id":"levelo_inurba_marseille","lat":43.25493,"lon":5.37644,"is_reserved":false,"is_disabled":false,"rental_uris":{"android":"levelo://app?vid=31144c66-0690-4e76-8aba-515d66b66987","ios":"levelo://app?vid=31144c66-0690-4e76-8aba-515d66b66987"},"vehicle_type_id":"4","last_reported":1727276931,"current_range_meters":27600,"station_id":"ce4bhh12rcd13ifvqff0","pricing_plan_id":"cebpf4jnsgd1na2vs0mg"},{"bike_id":"675a94a9-9edc-4560-81c5-82a3079e261f","system_id":"levelo_inurba_marseille","lat":43.30275,"lon":5.37701,"is_reserved":false,"is_disabled":false,"rental_uris":{"android":"levelo://app?vid=675a94a9-9edc-4560-81c5-82a3079e261f","ios":"levelo://app?vid=675a94a9-9edc-4560-81c5-82a3079e261f"},"vehicle_type_id":"4","last_reported":1727276931,"current_range_meters":4000,"station_id":"ce4bguh2rcd13ifvqcj0","pricing_plan_id":"cebpf4jnsgd1na2vs0mg"},{"bike_id":"854267e8-55ea-4ce1-9399-eedc7ff6e002","system_id":"levelo_inurba_marseille","lat":43.295284,"lon":5.393965,"is_reserved":false,"is_disabled":false,"rental_uris":{"android":"levelo://app?vid=854267e8-55ea-4ce1-9399-eedc7ff6e002","ios":"levelo://app?vid=854267e8-55ea-4ce1-9399-eedc7ff6e002"},"vehicle_type_id":"4","last_reported":1727276931,"current_range_meters":32400,"station_id":"ce4bh3p2rcd13ifvqdp0","pricing_plan_id":"cebpf4jnsgd1na2vs0mg"},{"bike_id":"681d5794-f817-49a6-9741-40c90fb21d13","system_id":"levelo_inurba_marseille","lat":43.30643,"lon":5.40066,"is_reserved":false,"is_disabled":false,"rental_uris":{"android":"levelo://app?vid=681d5794-f817-49a6-9741-40c90fb21d13","ios":"levelo://app?vid=681d5794-f817-49a6-9741-40c90fb21d13"},"vehicle_type_id":"4","last_reported":1727276931,"current_range_meters":10000,"station_id":"ce4bh112rcd13ifvqda0","pricing_plan_id":"cebpf4jnsgd1na2vs0mg"},{"bike_id":"a75d11e4-5000-41f8-9ff2-fbd2a76366d5","system_id":"levelo_inurba_marseille","lat":43.33958,"lon":5.42065,"is_reserved":false,"is_disabled":false,"rental_uris":{"android":"levelo://app?vid=a75d11e4-5000-41f8-9ff2-fbd2a76366d5","ios":"levelo://app?vid=a75d11e4-5000-41f8-9ff2-fbd2a76366d5"},"vehicle_type_id":"4","last_reported":1727276931,"current_range_meters":20400,"station_id":"","pricing_plan_id":"cebpf4jnsgd1na2vs0mg"},{"bike_id":"f5dfc06a-2b0a-4e1e-9ccc-766226813087","system_id":"levelo_inurba_marseille","lat":43.27564,"lon":5.38415,"is_reserved":false,"is_disabled":false,"rental_uris":{"android":"levelo://app?vid=f5dfc06a-2b0a-4e1e-9ccc-766226813087","ios":"levelo://app?vid=f5dfc06a-2b0a-4e1e-9ccc-766226813087"},"vehicle_type_id":"4","last_reported":1727276931,"current_range_meters":12000,"station_id":"ce4bhh92rcd13ifvqfi0","pricing_plan_id":"cebpf4jnsgd1na2vs0mg"},{"bike_id":"5b987909-fb7c-46ae-8c35-c0f1f91eb9d2","system_id":"levelo_inurba_marseille","lat":43.27996,"lon":5.41657,"is_reserved":false,"is_disabled":false,"rental_uris":{"android":"levelo://app?vid=5b987909-fb7c-46ae-8c35-c0f1f91eb9d2","ios":"levelo://app?vid=5b987909-fb7c-46ae-8c35-c0f1f91eb9d2"},"vehicle_type_id":"4","last_reported":1727276931,"current_range_meters":38800,"station_id":"ce4bho12rcd13ifvqh1g","pricing_plan_id":"cebpf4jnsgd1na2vs0mg"},{"bike_id":"6987cf1f-fe07-4b2c-9f96-65822627e11f","system_id":"levelo_inurba_marseille","lat":43.28268,"lon":5.3506,"is_reserved":false,"is_disabled":false,"rental_uris":{"android":"levelo://app?vid=6987cf1f-fe07-4b2c-9f96-65822627e11f","ios":"levelo://app?vid=6987cf1f-fe07-4b2c-9f96-65822627e11f"},"vehicle_type_id":"4","last_reported":1727276931,"current_range_meters":38800,"station_id":"ce4bhbp2rcd13ifvqerg","pricing_plan_id":"cebpf4jnsgd1na2vs0mg"},{"bike_id":"e760ee50-99e4-4c8a-ba70-98c01ad762a9","system_id":"levelo_inurba_marseille","lat":43.24178,"lon":5.39737,"is_reserved":false,"is_disabled":false,"rental_uris":{"android":"levelo://app?vid=e760ee50-99e4-4c8a-ba70-98c01ad762a9","ios":"levelo://app?vid=e760ee50-99e4-4c8a-ba70-98c01ad762a9"},"vehicle_type_id":"4","last_reported":1727276931,"current_range_meters":24400,"station_id":"ce4bhn12rcd13ifvqgpg","pricing_plan_id":"cebpf4jnsgd1na2vs0mg"},{"bike_id":"0e9b8561-fe65-475c-bb2a-b03392fb2639","system_id":"levelo_inurba_marseille","lat":43.31098,"lon":5.38345,"is_reserved":false,"is_disabled":false,"rental_uris":{"android":"levelo://app?vid=0e9b8561-fe65-475c-bb2a-b03392fb2639","ios":"levelo://app?vid=0e9b8561-fe65-475c-bb2a-b03392fb2639"},"vehicle_type_id":"4","last_reported":1727276931,"current_range_meters":9200,"station_id":"ce4bgv92rcd13ifvqcr0","pricing_plan_id":"cebpf4jnsgd1na2vs0mg"},{"bike_id":"ee80e71b-ad4a-4c17-a839-9aaef681f2ad","system_id":"levelo_inurba_marseille","lat":43.31757,"lon":5.39014,"is_reserved":false,"is_disabled":false,"rental_uris":{"android":"levelo://app?vid=ee80e71b-ad4a-4c17-a839-9aaef681f2ad","ios":"levelo://app?vid=ee80e71b-ad4a-4c17-a839-9aaef681f2ad"},"vehicle_type_id":"4","last_reported":1727276931,"current_range_meters":16000,"station_id":"ce4bhqp2rcd13ifvqhng","pricing_plan_id":"cebpf4jnsgd1na2vs0mg"},{"bike_id":"23d8eb51-5c88-4dbe-ab61-807b43b01788","system_id":"levelo_inurba_marseille","lat":43.300941,"lon":5.39086,"is_reserved":false,"is_disabled":false,"rental_uris":{"android":"levelo://app?vid=23d8eb51-5c88-4dbe-ab61-807b43b01788","ios":"levelo://app?vid=23d8eb51-5c88-4dbe-ab61-807b43b01788"},"vehicle_type_id":"4","last_reported":1727276931,"current_range_meters":20800,"station_id":"ce4bh192rcd13ifvqdb0","pricing_plan_id":"cebpf4jnsgd1na2vs0mg"},{"bike_id":"dff5b480-2f0f-4235-8970-6a378b475319","system_id":"levelo_inurba_marseille","lat":43.29894,"lon":5.43657,"is_reserved":false,"is_disabled":false,"rental_uris":{"android":"levelo://app?vid=dff5b480-2f0f-4235-8970-6a378b475319","ios":"levelo://app?vid=dff5b480-2f0f-4235-8970-6a378b475319"},"vehicle_type_id":"4","last_reported":1727276931,"current_range_meters":22800,"station_id":"ce4bhpp2rcd13ifvqhfg","pricing_plan_id":"cebpf4jnsgd1na2vs0mg"},{"bike_id":"77df6e41-8c0e-4ffb-8d56-cd8181b853fb","system_id":"levelo_inurba_marseille","lat":43.28614,"lon":5.35099,"is_reserved":false,"is_disabled":false,"rental_uris":{"android":"levelo://app?vid=77df6e41-8c0e-4ffb-8d56-cd8181b853fb","ios":"levelo://app?vid=77df6e41-8c0e-4ffb-8d56-cd8181b853fb"},"vehicle_type_id":"4","last_reported":1727276931,"current_range_meters":16000,"station_id":"ce4bhch2rcd13ifvqeug","pricing_plan_id":"cebpf4jnsgd1na2vs0mg"},{"bike_id":"3fd702b2-e7e5-48a4-bedc-f593289d4563","system_id":"levelo_inurba_marseille","lat":43.26938,"lon":5.38921,"is_reserved":false,"is_disabled":false,"rental_uris":{"android":"levelo://app?vid=3fd702b2-e7e5-48a4-bedc-f593289d4563","ios":"levelo://app?vid=3fd702b2-e7e5-48a4-bedc-f593289d4563"},"vehicle_type_id":"4","last_reported":1727276931,"current_range_meters":37600,"station_id":"ce4bhhh2rcd13ifvqfl0","pricing_plan_id":"cebpf4jnsgd1na2vs0mg"},{"bike_id":"88f9a124-d9d7-4693-9dc4-f39dfe1bafe1","system_id":"levelo_inurba_marseille","lat":43.29004,"lon":5.35605,"is_reserved":false,"is_disabled":false,"rental_uris":{"android":"levelo://app?vid=88f9a124-d9d7-4693-9dc4-f39dfe1bafe1","ios":"levelo://app?vid=88f9a124-d9d7-4693-9dc4-f39dfe1bafe1"},"vehicle_type_id":"4","last_reported":1727276931,"current_range_meters":16000,"station_id":"ce4bhb92rcd13ifvqen0","pricing_plan_id":"cebpf4jnsgd1na2vs0mg"},{"bike_id":"715b9620-fb99-4f17-bac1-b21a27af224c","system_id":"levelo_inurba_marseille","lat":43.30588,"lon":5.38389,"is_reserved":false,"is_disabled":false,"rental_uris":{"android":"levelo://app?vid=715b9620-fb99-4f17-bac1-b21a27af224c","ios":"levelo://app?vid=715b9620-fb99-4f17-bac1-b21a27af224c"},"vehicle_type_id":"4","last_reported":1727276931,"current_range_meters":38000,"station_id":"ce4bgg92rcd13ifvqb30","pricing_plan_id":"cebpf4jnsgd1na2vs0mg"},{"bike_id":"f4b33b4c-7c6b-4c27-9c31-a2746b1e213c","system_id":"levelo_inurba_marseille","lat":43.29846,"lon":5.36275,"is_reserved":false,"is_disabled":false,"rental_uris":{"android":"levelo://app?vid=f4b33b4c-7c6b-4c27-9c31-a2746b1e213c","ios":"levelo://app?vid=f4b33b4c-7c6b-4c27-9c31-a2746b1e213c"},"vehicle_type_id":"4","last_reported":1727276931,"current_range_meters":8800,"station_id":"ce4bgpp2rcd13ifvqc3g","pricing_plan_id":"cebpf4jnsgd1na2vs0mg"},{"bike_id":"af164eb6-b89c-4f8e-8b98-7833dbd21ec2","system_id":"levelo_inurba_marseille","lat":43.28376,"lon":5.38631,"is_reserved":false,"is_disabled":false,"rental_uris":{"android":"levelo://app?vid=af164eb6-b89c-4f8e-8b98-7833dbd21ec2","ios":"levelo://app?vid=af164eb6-b89c-4f8e-8b98-7833dbd21ec2"},"vehicle_type_id":"4","last_reported":1727276931,"current_range_meters":23200,"station_id":"ce4bh492rcd13ifvqdvg","pricing_plan_id":"cebpf4jnsgd1na2vs0mg"},{"bike_id":"174c030d-182a-40e6-8246-4c237785d6c5","system_id":"levelo_inurba_marseille","lat":43.25867,"lon":5.39891,"is_reserved":false,"is_disabled":false,"rental_uris":{"android":"levelo://app?vid=174c030d-182a-40e6-8246-4c237785d6c5","ios":"levelo://app?vid=174c030d-182a-40e6-8246-4c237785d6c5"},"vehicle_type_id":"4","last_reported":1727276931,"current_range_meters":35600,"station_id":"ce4bhl92rcd13ifvqghg","pricing_plan_id":"cebpf4jnsgd1na2vs0mg"},{"bike_id":"33249ab5-feb0-423e-8c62-5d2233b72dfe","system_id":"levelo_inurba_marseille","lat":43.25499,"lon":5.37646,"is_reserved":false,"is_disabled":false,"rental_uris":{"android":"levelo://app?vid=33249ab5-feb0-423e-8c62-5d2233b72dfe","ios":"levelo://app?vid=33249ab5-feb0-423e-8c62-5d2233b72dfe"},"vehicle_type_id":"4","last_reported":1727276931,"current_range_meters":8800,"station_id":"ce4bhh12rcd13ifvqff0","pricing_plan_id":"cebpf4jnsgd1na2vs0mg"},{"bike_id":"744eb8fa-9667-4271-896f-941c927a471b","system_id":"levelo_inurba_marseille","lat":43.324737,"lon":5.36567,"is_reserved":false,"is_disabled":false,"rental_uris":{"android":"levelo://app?vid=744eb8fa-9667-4271-896f-941c927a471b","ios":"levelo://app?vid=744eb8fa-9667-4271-896f-941c927a471b"},"vehicle_type_id":"4","last_reported":1727276931,"current_range_meters":16000,"station_id":"ce4bhs12rcd13ifvqhvg","pricing_plan_id":"cebpf4jnsgd1na2vs0mg"},{"bike_id":"869edbd5-06fc-4504-8c1d-44500000511b","system_id":"levelo_inurba_marseille","lat":43.24648,"lon":5.38903,"is_reserved":false,"is_disabled":false,"rental_uris":{"android":"levelo://app?vid=869edbd5-06fc-4504-8c1d-44500000511b","ios":"levelo://app?vid=869edbd5-06fc-4504-8c1d-44500000511b"},"vehicle_type_id":"4","last_reported":1727276931,"current_range_meters":11200,"station_id":"ce4bhg12rcd13ifvqf60","pricing_plan_id":"cebpf4jnsgd1na2vs0mg"},{"bike_id":"502f89cb-ca07-4b2c-9c23-c2c073118892","system_id":"levelo_inurba_marseille","lat":43.28702,"lon":5.37373,"is_reserved":false,"is_disabled":false,"rental_uris":{"android":"levelo://app?vid=502f89cb-ca07-4b2c-9c23-c2c073118892","ios":"levelo://app?vid=502f89cb-ca07-4b2c-9c23-c2c073118892"},"vehicle_type_id":"4","last_reported":1727276931,"current_range_meters":18800,"station_id":"ce4bh3p2rcd13ifvqdq0","pricing_plan_id":"cebpf4jnsgd1na2vs0mg"},{"bike_id":"df5b38d2-64cb-4df0-856f-ea9bd22c082c","system_id":"levelo_inurba_marseille","lat":43.23185,"lon":5.35561,"is_reserved":false,"is_disabled":false,"rental_uris":{"android":"levelo://app?vid=df5b38d2-64cb-4df0-856f-ea9bd22c082c","ios":"levelo://app?vid=df5b38d2-64cb-4df0-856f-ea9bd22c082c"},"vehicle_type_id":"4","last_reported":1727276931,"current_range_meters":7200,"station_id":"ce4bhu92rcd13ifvqi70","pricing_plan_id":"cebpf4jnsgd1na2vs0mg"},{"bike_id":"effff397-abb3-4ce4-9439-593c544b6e8e","system_id":"levelo_inurba_marseille","lat":43.265656,"lon":5.390109,"is_reserved":false,"is_disabled":false,"rental_uris":{"android":"levelo://app?vid=effff397-abb3-4ce4-9439-593c544b6e8e","ios":"levelo://app?vid=effff397-abb3-4ce4-9439-593c544b6e8e"},"vehicle_type_id":"4","last_reported":1727276931,"current_range_meters":30000,"station_id":"ce4bhe12rcd13ifvqf30","pricing_plan_id":"cebpf4jnsgd1na2vs0mg"},{"bike_id":"93968095-ff92-4178-87b8-c644be8b02ca","system_id":"levelo_inurba_marseille","lat":43.26499,"lon":5.37977,"is_reserved":false,"is_disabled":false,"rental_uris":{"android":"levelo://app?vid=93968095-ff92-4178-87b8-c644be8b02ca","ios":"levelo://app?vid=93968095-ff92-4178-87b8-c644be8b02ca"},"vehicle_type_id":"4","last_reported":1727276931,"current_range_meters":32000,"station_id":"ce4bhgh2rcd13ifvqfa0","pricing_plan_id":"cebpf4jnsgd1na2vs0mg"},{"bike_id":"e24326c2-87e1-4db2-8524-b558570cf159","system_id":"levelo_inurba_marseille","lat":43.30452,"lon":5.36715,"is_reserved":false,"is_disabled":false,"rental_uris":{"android":"levelo://app?vid=e24326c2-87e1-4db2-8524-b558570cf159","ios":"levelo://app?vid=e24326c2-87e1-4db2-8524-b558570cf159"},"vehicle_type_id":"4","last_reported":1727276931,"current_range_meters":38400,"station_id":"","pricing_plan_id":"cebpf4jnsgd1na2vs0mg"},{"bike_id":"048ed2fd-702a-4338-964e-6509425d1f00","system_id":"levelo_inurba_marseille","lat":43.27377,"lon":5.3626,"is_reserved":false,"is_disabled":false,"rental_uris":{"android":"levelo://app?vid=048ed2fd-702a-4338-964e-6509425d1f00","ios":"levelo://app?vid=048ed2fd-702a-4338-964e-6509425d1f00"},"vehicle_type_id":"4","last_reported":1727276931,"current_range_meters":9200,"station_id":"ce4bhbh2rcd13ifvqeo0","pricing_plan_id":"cebpf4jnsgd1na2vs0mg"},{"bike_id":"27431c98-bcee-4fbc-9005-ef4fd6a106b8","system_id":"levelo_inurba_marseille","lat":43.23183,"lon":5.39981,"is_reserved":false,"is_disabled":false,"rental_uris":{"android":"levelo://app?vid=27431c98-bcee-4fbc-9005-ef4fd6a106b8","ios":"levelo://app?vid=27431c98-bcee-4fbc-9005-ef4fd6a106b8"},"vehicle_type_id":"4","last_reported":1727276931,"current_range_meters":10800,"station_id":"ce4bhn12rcd13ifvqgqg","pricing_plan_id":"cebpf4jnsgd1na2vs0mg"},{"bike_id":"fc27252b-d227-45cb-a6a4-5e2f4d2acba0","system_id":"levelo_inurba_marseille","lat":43.305376,"lon":5.365641,"is_reserved":false,"is_disabled":false,"rental_uris":{"android":"levelo://app?vid=fc27252b-d227-45cb-a6a4-5e2f4d2acba0","ios":"levelo://app?vid=fc27252b-d227-45cb-a6a4-5e2f4d2acba0"},"vehicle_type_id":"4","last_reported":1727276931,"current_range_meters":17600,"station_id":"ce4bhbh2rcd13ifvqeo0","pricing_plan_id":"cebpf4jnsgd1na2vs0mg"},{"bike_id":"482c8703-06f7-4923-b0b6-ab11ee345ff4","system_id":"levelo_inurba_marseille","lat":43.26485,"lon":5.39546,"is_reserved":false,"is_disabled":false,"rental_uris":{"android":"levelo://app?vid=482c8703-06f7-4923-b0b6-ab11ee345ff4","ios":"levelo://app?vid=482c8703-06f7-4923-b0b6-ab11ee345ff4"},"vehicle_type_id":"4","last_reported":1727276931,"current_range_meters":38800,"station_id":"ce4bhi12rcd13ifvqfq0","pricing_plan_id":"cebpf4jnsgd1na2vs0mg"},{"bike_id":"1c60c4e9-f4a0-418f-ba72-3a3909843560","system_id":"levelo_inurba_marseille","lat":43.31988,"lon":5.38145,"is_reserved":false,"is_disabled":false,"rental_uris":{"android":"levelo://app?vid=1c60c4e9-f4a0-418f-ba72-3a3909843560","ios":"levelo://app?vid=1c60c4e9-f4a0-418f-ba72-3a3909843560"},"vehicle_type_id":"4","last_reported":1727276931,"current_range_meters":26000,"station_id":"ce4bhr12rcd13ifvqhpg","pricing_plan_id":"cebpf4jnsgd1na2vs0mg"},{"bike_id":"1f658908-6ce5-4bb3-b6be-b1e46cd9a152","system_id":"levelo_inurba_marseille","lat":43.31084,"lon":5.42428,"is_reserved":false,"is_disabled":false,"rental_uris":{"android":"levelo://app?vid=1f658908-6ce5-4bb3-b6be-b1e46cd9a152","ios":"levelo://app?vid=1f658908-6ce5-4bb3-b6be-b1e46cd9a152"},"vehicle_type_id":"4","last_reported":1727276931,"current_range_meters":26800,"station_id":"ce4bhp92rcd13ifvqhag","pricing_plan_id":"cebpf4jnsgd1na2vs0mg"},{"bike_id":"a1c82e77-00d4-453d-b138-ae0d989390fc","system_id":"levelo_inurba_marseille","lat":43.30429,"lon":5.39745,"is_reserved":false,"is_disabled":false,"rental_uris":{"android":"levelo://app?vid=a1c82e77-00d4-453d-b138-ae0d989390fc","ios":"levelo://app?vid=a1c82e77-00d4-453d-b138-ae0d989390fc"},"vehicle_type_id":"4","last_reported":1727276931,"current_range_meters":11600,"station_id":"ce4bh092rcd13ifvqd20","pricing_plan_id":"cebpf4jnsgd1na2vs0mg"},{"bike_id":"10d325bf-f59c-4aa9-ba7c-beba67bd889c","system_id":"levelo_inurba_marseille","lat":43.33027,"lon":5.39035,"is_reserved":false,"is_disabled":false,"rental_uris":{"android":"levelo://app?vid=10d325bf-f59c-4aa9-ba7c-beba67bd889c","ios":"levelo://app?vid=10d325bf-f59c-4aa9-ba7c-beba67bd889c"},"vehicle_type_id":"4","last_reported":1727276931,"current_range_meters":33600,"station_id":"ce4bhr92rcd13ifvqhrg","pricing_plan_id":"cebpf4jnsgd1na2vs0mg"},{"bike_id":"15898e41-d5e5-4055-9ad5-33be5f29e63e","system_id":"levelo_inurba_marseille","lat":43.29839,"lon":5.36265,"is_reserved":false,"is_disabled":false,"rental_uris":{"android":"levelo://app?vid=15898e41-d5e5-4055-9ad5-33be5f29e63e","ios":"levelo://app?vid=15898e41-d5e5-4055-9ad5-33be5f29e63e"},"vehicle_type_id":"4","last_reported":1727276931,"current_range_meters":34000,"station_id":"ce4bgpp2rcd13ifvqc3g","pricing_plan_id":"cebpf4jnsgd1na2vs0mg"},{"bike_id":"5732e35a-0945-4812-90e3-c528f95ed0b6","system_id":"levelo_inurba_marseille","lat":43.30544,"lon":5.36528,"is_reserved":false,"is_disabled":false,"rental_uris":{"android":"levelo://app?vid=5732e35a-0945-4812-90e3-c528f95ed0b6","ios":"levelo://app?vid=5732e35a-0945-4812-90e3-c528f95ed0b6"},"vehicle_type_id":"4","last_reported":1727276931,"current_range_meters":8800,"station_id":"ce4bgs12rcd13ifvqcag","pricing_plan_id":"cebpf4jnsgd1na2vs0mg"},{"bike_id":"d94fb8ae-61c3-4b82-8e63-a7cbf2364194","system_id":"levelo_inurba_marseille","lat":43.28391,"lon":5.3496,"is_reserved":false,"is_disabled":false,"rental_uris":{"android":"levelo://app?vid=d94fb8ae-61c3-4b82-8e63-a7cbf2364194","ios":"levelo://app?vid=d94fb8ae-61c3-4b82-8e63-a7cbf2364194"},"vehicle_type_id":"4","last_reported":1727276931,"current_range_meters":38800,"station_id":"ce4bhbh2rcd13ifvqepg","pricing_plan_id":"cebpf4jnsgd1na2vs0mg"},{"bike_id":"564dab4c-45b1-4108-bb24-c8ef1359448f","system_id":"levelo_inurba_marseille","lat":43.32483,"lon":5.36556,"is_reserved":false,"is_disabled":false,"rental_uris":{"android":"levelo://app?vid=564dab4c-45b1-4108-bb24-c8ef1359448f","ios":"levelo://app?vid=564dab4c-45b1-4108-bb24-c8ef1359448f"},"vehicle_type_id":"4","last_reported":1727276931,"current_range_meters":7200,"station_id":"ce4bhs12rcd13ifvqhvg","pricing_plan_id":"cebpf4jnsgd1na2vs0mg"},{"bike_id":"673ae971-ed04-4b8e-a1b2-71205d8f93fb","system_id":"levelo_inurba_marseille","lat":43.292621,"lon":5.384279,"is_reserved":false,"is_disabled":false,"rental_uris":{"android":"levelo://app?vid=673ae971-ed04-4b8e-a1b2-71205d8f93fb","ios":"levelo://app?vid=673ae971-ed04-4b8e-a1b2-71205d8f93fb"},"vehicle_type_id":"4","last_reported":1727276931,"current_range_meters":14400,"station_id":"ce4bh692rcd13ifvqea0","pricing_plan_id":"cebpf4jnsgd1na2vs0mg"},{"bike_id":"60c7f33b-65fe-428d-ad8d-5f226e5af9d9","system_id":"levelo_inurba_marseille","lat":43.27623,"lon":5.36112,"is_reserved":false,"is_disabled":false,"rental_uris":{"android":"levelo://app?vid=60c7f33b-65fe-428d-ad8d-5f226e5af9d9","ios":"levelo://app?vid=60c7f33b-65fe-428d-ad8d-5f226e5af9d9"},"vehicle_type_id":"4","last_reported":1727276931,"current_range_meters":23200,"station_id":"ce4bgj92rcd13ifvqbe0","pricing_plan_id":"cebpf4jnsgd1na2vs0mg"},{"bike_id":"a775c67d-af5e-40bf-9df4-dc276c89888a","system_id":"levelo_inurba_marseille","lat":43.30784,"lon":5.37642,"is_reserved":false,"is_disabled":false,"rental_uris":{"android":"levelo://app?vid=a775c67d-af5e-40bf-9df4-dc276c89888a","ios":"levelo://app?vid=a775c67d-af5e-40bf-9df4-dc276c89888a"},"vehicle_type_id":"4","last_reported":1727276931,"current_range_meters":25200,"station_id":"ce4bgv92rcd13ifvqcq0","pricing_plan_id":"cebpf4jnsgd1na2vs0mg"},{"bike_id":"da38a479-b89b-4586-88ae-cea2aa4bcdcd","system_id":"levelo_inurba_marseille","lat":43.29944,"lon":5.36547,"is_reserved":false,"is_disabled":false,"rental_uris":{"android":"levelo://app?vid=da38a479-b89b-4586-88ae-cea2aa4bcdcd","ios":"levelo://app?vid=da38a479-b89b-4586-88ae-cea2aa4bcdcd"},"vehicle_type_id":"4","last_reported":1727276931,"current_range_meters":37600,"station_id":"ce4bgm92rcd13ifvqbr0","pricing_plan_id":"cebpf4jnsgd1na2vs0mg"},{"bike_id":"22d3dc61-2d65-4dbe-8895-2f0cd650237e","system_id":"levelo_inurba_marseille","lat":43.30893,"lon":5.37199,"is_reserved":false,"is_disabled":false,"rental_uris":{"android":"levelo://app?vid=22d3dc61-2d65-4dbe-8895-2f0cd650237e","ios":"levelo://app?vid=22d3dc61-2d65-4dbe-8895-2f0cd650237e"},"vehicle_type_id":"4","last_reported":1727276931,"current_range_meters":38800,"station_id":"ce4bguh2rcd13ifvqckg","pricing_plan_id":"cebpf4jnsgd1na2vs0mg"},{"bike_id":"e0d50eb1-af71-45de-b0f5-5b1a98d5bafa","system_id":"levelo_inurba_marseille","lat":43.24167,"lon":5.36408,"is_reserved":false,"is_disabled":false,"rental_uris":{"android":"levelo://app?vid=e0d50eb1-af71-45de-b0f5-5b1a98d5bafa","ios":"levelo://app?vid=e0d50eb1-af71-45de-b0f5-5b1a98d5bafa"},"vehicle_type_id":"4","last_reported":1727276931,"current_range_meters":35600,"station_id":"cpo36qri1sfpv3e86is0","pricing_plan_id":"cebpf4jnsgd1na2vs0mg"},{"bike_id":"3ff40b7c-b9ac-4b73-b655-e0302f05b26d","system_id":"levelo_inurba_marseille","lat":43.28453,"lon":5.35884,"is_reserved":false,"is_disabled":false,"rental_uris":{"android":"levelo://app?vid=3ff40b7c-b9ac-4b73-b655-e0302f05b26d","ios":"levelo://app?vid=3ff40b7c-b9ac-4b73-b655-e0302f05b26d"},"vehicle_type_id":"4","last_reported":1727276931,"current_range_meters":12000,"station_id":"ce4bhah2rcd13ifvqei0","pricing_plan_id":"cebpf4jnsgd1na2vs0mg"},{"bike_id":"99014105-177e-4234-b629-d44afde8884a","system_id":"levelo_inurba_marseille","lat":43.29847,"lon":5.36275,"is_reserved":false,"is_disabled":false,"rental_uris":{"android":"levelo://app?vid=99014105-177e-4234-b629-d44afde8884a","ios":"levelo://app?vid=99014105-177e-4234-b629-d44afde8884a"},"vehicle_type_id":"4","last_reported":1727276931,"current_range_meters":38800,"station_id":"ce4bgpp2rcd13ifvqc3g","pricing_plan_id":"cebpf4jnsgd1na2vs0mg"},{"bike_id":"246a6a52-7581-4604-a84f-0084a7001a3d","system_id":"levelo_inurba_marseille","lat":43.2958,"lon":5.37514,"is_reserved":false,"is_disabled":false,"rental_uris":{"android":"levelo://app?vid=246a6a52-7581-4604-a84f-0084a7001a3d","ios":"levelo://app?vid=246a6a52-7581-4604-a84f-0084a7001a3d"},"vehicle_type_id":"4","last_reported":1727276931,"current_range_meters":38800,"station_id":"ce4bgh92rcd13ifvqb50","pricing_plan_id":"cebpf4jnsgd1na2vs0mg"},{"bike_id":"89d04554-da69-4948-a3eb-90243451dd00","system_id":"levelo_inurba_marseille","lat":43.33024,"lon":5.39039,"is_reserved":false,"is_disabled":false,"rental_uris":{"android":"levelo://app?vid=89d04554-da69-4948-a3eb-90243451dd00","ios":"levelo://app?vid=89d04554-da69-4948-a3eb-90243451dd00"},"vehicle_type_id":"4","last_reported":1727276931,"current_range_meters":12800,"station_id":"ce4bhr92rcd13ifvqhrg","pricing_plan_id":"cebpf4jnsgd1na2vs0mg"},{"bike_id":"f189d732-80c4-4372-a8e4-b55475c34196","system_id":"levelo_inurba_marseille","lat":43.28927,"lon":5.36395,"is_reserved":false,"is_disabled":false,"rental_uris":{"android":"levelo://app?vid=f189d732-80c4-4372-a8e4-b55475c34196","ios":"levelo://app?vid=f189d732-80c4-4372-a8e4-b55475c34196"},"vehicle_type_id":"4","last_reported":1727276931,"current_range_meters":38800,"station_id":"ce4bhc92rcd13ifvqetg","pricing_plan_id":"cebpf4jnsgd1na2vs0mg"},{"bike_id":"74d0fcba-1c7a-4f26-ac7c-330b0875b104","system_id":"levelo_inurba_marseille","lat":43.29004,"lon":5.35611,"is_reserved":false,"is_disabled":false,"rental_uris":{"android":"levelo://app?vid=74d0fcba-1c7a-4f26-ac7c-330b0875b104","ios":"levelo://app?vid=74d0fcba-1c7a-4f26-ac7c-330b0875b104"},"vehicle_type_id":"4","last_reported":1727276931,"current_range_meters":37600,"station_id":"ce4bhb92rcd13ifvqen0","pricing_plan_id":"cebpf4jnsgd1na2vs0mg"},{"bike_id":"4621332a-4cb0-4bd1-84c3-ce1d48af2b8c","system_id":"levelo_inurba_marseille","lat":43.308043,"lon":5.435311,"is_reserved":false,"is_disabled":false,"rental_uris":{"android":"levelo://app?vid=4621332a-4cb0-4bd1-84c3-ce1d48af2b8c","ios":"levelo://app?vid=4621332a-4cb0-4bd1-84c3-ce1d48af2b8c"},"vehicle_type_id":"4","last_reported":1727276931,"current_range_meters":9600,"station_id":"ce4bhph2rcd13ifvqheg","pricing_plan_id":"cebpf4jnsgd1na2vs0mg"},{"bike_id":"82d3af59-3560-4bd2-8c10-a2d23b848970","system_id":"levelo_inurba_marseille","lat":43.2909,"lon":5.38137,"is_reserved":false,"is_disabled":false,"rental_uris":{"android":"levelo://app?vid=82d3af59-3560-4bd2-8c10-a2d23b848970","ios":"levelo://app?vid=82d3af59-3560-4bd2-8c10-a2d23b848970"},"vehicle_type_id":"4","last_reported":1727276931,"current_range_meters":25200,"station_id":"ce4bh512rcd13ifvqe2g","pricing_plan_id":"cebpf4jnsgd1na2vs0mg"},{"bike_id":"4a628aad-dbb6-4829-91e1-dc8c5867129f","system_id":"levelo_inurba_marseille","lat":43.25087,"lon":5.39514,"is_reserved":false,"is_disabled":false,"rental_uris":{"android":"levelo://app?vid=4a628aad-dbb6-4829-91e1-dc8c5867129f","ios":"levelo://app?vid=4a628aad-dbb6-4829-91e1-dc8c5867129f"},"vehicle_type_id":"4","last_reported":1727276931,"current_range_meters":18000,"station_id":"ce4bhm12rcd13ifvqgkg","pricing_plan_id":"cebpf4jnsgd1na2vs0mg"},{"bike_id":"d17432e2-ed70-407a-9050-54905b4d37fe","system_id":"levelo_inurba_marseille","lat":43.31997,"lon":5.38157,"is_reserved":false,"is_disabled":false,"rental_uris":{"android":"levelo://app?vid=d17432e2-ed70-407a-9050-54905b4d37fe","ios":"levelo://app?vid=d17432e2-ed70-407a-9050-54905b4d37fe"},"vehicle_type_id":"4","last_reported":1727276931,"current_range_meters":30000,"station_id":"ce4bhr12rcd13ifvqhpg","pricing_plan_id":"cebpf4jnsgd1na2vs0mg"},{"bike_id":"11c3d26a-d5a7-4fae-a2f8-5706b22fbf9b","system_id":"levelo_inurba_marseille","lat":43.29182,"lon":5.38014,"is_reserved":false,"is_disabled":false,"rental_uris":{"android":"levelo://app?vid=11c3d26a-d5a7-4fae-a2f8-5706b22fbf9b","ios":"levelo://app?vid=11c3d26a-d5a7-4fae-a2f8-5706b22fbf9b"},"vehicle_type_id":"4","last_reported":1727276931,"current_range_meters":25600,"station_id":"ce4bhk92rcd13ifvqgb0","pricing_plan_id":"cebpf4jnsgd1na2vs0mg"},{"bike_id":"d6f23546-602d-435f-a2c0-8f965404bd3a","system_id":"levelo_inurba_marseille","lat":43.31087,"lon":5.42429,"is_reserved":false,"is_disabled":false,"rental_uris":{"android":"levelo://app?vid=d6f23546-602d-435f-a2c0-8f965404bd3a","ios":"levelo://app?vid=d6f23546-602d-435f-a2c0-8f965404bd3a"},"vehicle_type_id":"4","last_reported":1727276931,"current_range_meters":14400,"station_id":"ce4bhp92rcd13ifvqhag","pricing_plan_id":"cebpf4jnsgd1na2vs0mg"},{"bike_id":"184f0dd9-fec3-477e-ab7f-1d1da65d44e3","system_id":"levelo_inurba_marseille","lat":43.30469,"lon":5.37913,"is_reserved":false,"is_disabled":false,"rental_uris":{"android":"levelo://app?vid=184f0dd9-fec3-477e-ab7f-1d1da65d44e3","ios":"levelo://app?vid=184f0dd9-fec3-477e-ab7f-1d1da65d44e3"},"vehicle_type_id":"4","last_reported":1727276931,"current_range_meters":24800,"station_id":"ce4bgup2rcd13ifvqcn0","pricing_plan_id":"cebpf4jnsgd1na2vs0mg"},{"bike_id":"df5509e9-b9ee-46e0-9540-230384a3caf3","system_id":"levelo_inurba_marseille","lat":43.239685,"lon":5.438729,"is_reserved":false,"is_disabled":false,"rental_uris":{"android":"levelo://app?vid=df5509e9-b9ee-46e0-9540-230384a3caf3","ios":"levelo://app?vid=df5509e9-b9ee-46e0-9540-230384a3caf3"},"vehicle_type_id":"4","last_reported":1727276931,"current_range_meters":32400,"station_id":"ce4bgj12rcd13ifvqbc0","pricing_plan_id":"cebpf4jnsgd1na2vs0mg"},{"bike_id":"dc473676-824d-41ad-aeb7-667c159f885c","system_id":"levelo_inurba_marseille","lat":43.23192,"lon":5.35547,"is_reserved":false,"is_disabled":false,"rental_uris":{"android":"levelo://app?vid=dc473676-824d-41ad-aeb7-667c159f885c","ios":"levelo://app?vid=dc473676-824d-41ad-aeb7-667c159f885c"},"vehicle_type_id":"4","last_reported":1727276931,"current_range_meters":27600,"station_id":"ce4bhu92rcd13ifvqi70","pricing_plan_id":"cebpf4jnsgd1na2vs0mg"},{"bike_id":"302ccd33-48c2-451c-866e-842086d9a5d1","system_id":"levelo_inurba_marseille","lat":43.2707,"lon":5.42279,"is_reserved":false,"is_disabled":false,"rental_uris":{"android":"levelo://app?vid=302ccd33-48c2-451c-866e-842086d9a5d1","ios":"levelo://app?vid=302ccd33-48c2-451c-866e-842086d9a5d1"},"vehicle_type_id":"4","last_reported":1727276931,"current_range_meters":37600,"station_id":"ce4bhk92rcd13ifvqgb0","pricing_plan_id":"cebpf4jnsgd1na2vs0mg"},{"bike_id":"47133ebc-7785-44d3-b595-8cdaa0a772ea","system_id":"levelo_inurba_marseille","lat":43.2706,"lon":5.40256,"is_reserved":false,"is_disabled":false,"rental_uris":{"android":"levelo://app?vid=47133ebc-7785-44d3-b595-8cdaa0a772ea","ios":"levelo://app?vid=47133ebc-7785-44d3-b595-8cdaa0a772ea"},"vehicle_type_id":"4","last_reported":1727276931,"current_range_meters":14400,"station_id":"ce4bhk92rcd13ifvqgc0","pricing_plan_id":"cebpf4jnsgd1na2vs0mg"},{"bike_id":"a7bca3df-0344-4204-86d7-b742d4769839","system_id":"levelo_inurba_marseille","lat":43.30863,"lon":5.3685,"is_reserved":false,"is_disabled":false,"rental_uris":{"android":"levelo://app?vid=a7bca3df-0344-4204-86d7-b742d4769839","ios":"levelo://app?vid=a7bca3df-0344-4204-86d7-b742d4769839"},"vehicle_type_id":"4","last_reported":1727276931,"current_range_meters":27600,"station_id":"ce4bgn92rcd13ifvqbvg","pricing_plan_id":"cebpf4jnsgd1na2vs0mg"},{"bike_id":"aec737fa-a795-4146-ae78-3e9ae92c67af","system_id":"levelo_inurba_marseille","lat":43.28954,"lon":5.36408,"is_reserved":false,"is_disabled":false,"rental_uris":{"android":"levelo://app?vid=aec737fa-a795-4146-ae78-3e9ae92c67af","ios":"levelo://app?vid=aec737fa-a795-4146-ae78-3e9ae92c67af"},"vehicle_type_id":"4","last_reported":1727276931,"current_range_meters":12000,"station_id":"ce4bhc92rcd13ifvqetg","pricing_plan_id":"cebpf4jnsgd1na2vs0mg"},{"bike_id":"30dcaa20-0d90-49f9-abfe-db13c9575915","system_id":"levelo_inurba_marseille","lat":43.31074,"lon":5.3836,"is_reserved":false,"is_disabled":false,"rental_uris":{"android":"levelo://app?vid=30dcaa20-0d90-49f9-abfe-db13c9575915","ios":"levelo://app?vid=30dcaa20-0d90-49f9-abfe-db13c9575915"},"vehicle_type_id":"4","last_reported":1727276931,"current_range_meters":20800,"station_id":"ce4bgv92rcd13ifvqcr0","pricing_plan_id":"cebpf4jnsgd1na2vs0mg"},{"bike_id":"c387604b-5944-4e87-8a4b-32d8cfd08b3c","system_id":"levelo_inurba_marseille","lat":43.29602,"lon":5.37723,"is_reserved":false,"is_disabled":false,"rental_uris":{"android":"levelo://app?vid=c387604b-5944-4e87-8a4b-32d8cfd08b3c","ios":"levelo://app?vid=c387604b-5944-4e87-8a4b-32d8cfd08b3c"},"vehicle_type_id":"4","last_reported":1727276931,"current_range_meters":38800,"station_id":"ce4bgi92rcd13ifvqb90","pricing_plan_id":"cebpf4jnsgd1na2vs0mg"},{"bike_id":"cfff99b3-e565-4108-b83a-af7b2d290128","system_id":"levelo_inurba_marseille","lat":43.3082,"lon":5.4009,"is_reserved":false,"is_disabled":false,"rental_uris":{"android":"levelo://app?vid=cfff99b3-e565-4108-b83a-af7b2d290128","ios":"levelo://app?vid=cfff99b3-e565-4108-b83a-af7b2d290128"},"vehicle_type_id":"4","last_reported":1727276931,"current_range_meters":1200,"station_id":"ce4bgvp2rcd13ifvqct0","pricing_plan_id":"cebpf4jnsgd1na2vs0mg"},{"bike_id":"7827170f-fe53-4f76-acc5-1f9d10e67145","system_id":"levelo_inurba_marseille","lat":43.2293,"lon":5.35375,"is_reserved":false,"is_disabled":false,"rental_uris":{"android":"levelo://app?vid=7827170f-fe53-4f76-acc5-1f9d10e67145","ios":"levelo://app?vid=7827170f-fe53-4f76-acc5-1f9d10e67145"},"vehicle_type_id":"4","last_reported":1727276931,"current_range_meters":37600,"station_id":"cpo3532slgdg3j2ikp40","pricing_plan_id":"cebpf4jnsgd1na2vs0mg"},{"bike_id":"d831a0c8-0bcd-4449-91a5-836df1a52d4b","system_id":"levelo_inurba_marseille","lat":43.307183,"lon":5.37276,"is_reserved":false,"is_disabled":false,"rental_uris":{"android":"levelo://app?vid=d831a0c8-0bcd-4449-91a5-836df1a52d4b","ios":"levelo://app?vid=d831a0c8-0bcd-4449-91a5-836df1a52d4b"},"vehicle_type_id":"4","last_reported":1727276931,"current_range_meters":10000,"station_id":"","pricing_plan_id":"cebpf4jnsgd1na2vs0mg"},{"bike_id":"15d20387-0e2f-4c53-9246-c03fc15586e5","system_id":"levelo_inurba_marseille","lat":43.31169,"lon":5.38714,"is_reserved":false,"is_disabled":false,"rental_uris":{"android":"levelo://app?vid=15d20387-0e2f-4c53-9246-c03fc15586e5","ios":"levelo://app?vid=15d20387-0e2f-4c53-9246-c03fc15586e5"},"vehicle_type_id":"4","last_reported":1727276931,"current_range_meters":36400,"station_id":"ce4bgv12rcd13ifvqcp0","pricing_plan_id":"cebpf4jnsgd1na2vs0mg"},{"bike_id":"2651e952-8407-43db-878f-3aab18a9df88","system_id":"levelo_inurba_marseille","lat":43.30848,"lon":5.43685,"is_reserved":false,"is_disabled":false,"rental_uris":{"android":"levelo://app?vid=2651e952-8407-43db-878f-3aab18a9df88","ios":"levelo://app?vid=2651e952-8407-43db-878f-3aab18a9df88"},"vehicle_type_id":"4","last_reported":1727276931,"current_range_meters":33200,"station_id":"ce4bhp92rcd13ifvqhcg","pricing_plan_id":"cebpf4jnsgd1na2vs0mg"},{"bike_id":"05e6141d-6472-47b1-9981-c44b26218d68","system_id":"levelo_inurba_marseille","lat":43.28453,"lon":5.35888,"is_reserved":false,"is_disabled":false,"rental_uris":{"android":"levelo://app?vid=05e6141d-6472-47b1-9981-c44b26218d68","ios":"levelo://app?vid=05e6141d-6472-47b1-9981-c44b26218d68"},"vehicle_type_id":"4","last_reported":1727276931,"current_range_meters":18000,"station_id":"ce4bhah2rcd13ifvqei0","pricing_plan_id":"cebpf4jnsgd1na2vs0mg"},{"bike_id":"4a4bfd88-bdfc-4802-b3a8-e798e4274727","system_id":"levelo_inurba_marseille","lat":43.32289,"lon":5.38263,"is_reserved":false,"is_disabled":false,"rental_uris":{"android":"levelo://app?vid=4a4bfd88-bdfc-4802-b3a8-e798e4274727","ios":"levelo://app?vid=4a4bfd88-bdfc-4802-b3a8-e798e4274727"},"vehicle_type_id":"4","last_reported":1727276931,"current_range_meters":28400,"station_id":"ce4bhr12rcd13ifvqhqg","pricing_plan_id":"cebpf4jnsgd1na2vs0mg"},{"bike_id":"55510e67-f2d9-4cd2-86a1-c10296679920","system_id":"levelo_inurba_marseille","lat":43.28421,"lon":5.34987,"is_reserved":false,"is_disabled":false,"rental_uris":{"android":"levelo://app?vid=55510e67-f2d9-4cd2-86a1-c10296679920","ios":"levelo://app?vid=55510e67-f2d9-4cd2-86a1-c10296679920"},"vehicle_type_id":"4","last_reported":1727276931,"current_range_meters":38800,"station_id":"ce4bhbh2rcd13ifvqepg","pricing_plan_id":"cebpf4jnsgd1na2vs0mg"},{"bike_id":"7c79166f-b049-42df-877f-1727dc220bab","system_id":"levelo_inurba_marseille","lat":43.28156,"lon":5.4264,"is_reserved":false,"is_disabled":false,"rental_uris":{"android":"levelo://app?vid=7c79166f-b049-42df-877f-1727dc220bab","ios":"levelo://app?vid=7c79166f-b049-42df-877f-1727dc220bab"},"vehicle_type_id":"4","last_reported":1727276931,"current_range_meters":4400,"station_id":"ce4bhnh2rcd13ifvqgug","pricing_plan_id":"cebpf4jnsgd1na2vs0mg"},{"bike_id":"ddca53db-d45f-4b02-a5db-81880ffad283","system_id":"levelo_inurba_marseille","lat":43.33024,"lon":5.39042,"is_reserved":false,"is_disabled":false,"rental_uris":{"android":"levelo://app?vid=ddca53db-d45f-4b02-a5db-81880ffad283","ios":"levelo://app?vid=ddca53db-d45f-4b02-a5db-81880ffad283"},"vehicle_type_id":"4","last_reported":1727276931,"current_range_meters":38800,"station_id":"ce4bhr92rcd13ifvqhrg","pricing_plan_id":"cebpf4jnsgd1na2vs0mg"},{"bike_id":"8c1edc0f-8eb4-4ca6-a84d-f41e502e4427","system_id":"levelo_inurba_marseille","lat":43.28409,"lon":5.3498,"is_reserved":false,"is_disabled":false,"rental_uris":{"android":"levelo://app?vid=8c1edc0f-8eb4-4ca6-a84d-f41e502e4427","ios":"levelo://app?vid=8c1edc0f-8eb4-4ca6-a84d-f41e502e4427"},"vehicle_type_id":"4","last_reported":1727276931,"current_range_meters":38800,"station_id":"ce4bhbh2rcd13ifvqepg","pricing_plan_id":"cebpf4jnsgd1na2vs0mg"},{"bike_id":"51685063-69c1-44df-9929-57ce7603e59e","system_id":"levelo_inurba_marseille","lat":43.310691,"lon":5.383488,"is_reserved":false,"is_disabled":false,"rental_uris":{"android":"levelo://app?vid=51685063-69c1-44df-9929-57ce7603e59e","ios":"levelo://app?vid=51685063-69c1-44df-9929-57ce7603e59e"},"vehicle_type_id":"4","last_reported":1727276931,"current_range_meters":38800,"station_id":"ce4bgt12rcd13ifvqce0","pricing_plan_id":"cebpf4jnsgd1na2vs0mg"},{"bike_id":"ede37da0-431f-462e-af97-45c71435ab2a","system_id":"levelo_inurba_marseille","lat":43.2418,"lon":5.39708,"is_reserved":false,"is_disabled":false,"rental_uris":{"android":"levelo://app?vid=ede37da0-431f-462e-af97-45c71435ab2a","ios":"levelo://app?vid=ede37da0-431f-462e-af97-45c71435ab2a"},"vehicle_type_id":"4","last_reported":1727276931,"current_range_meters":19200,"station_id":"ce4bhn12rcd13ifvqgpg","pricing_plan_id":"cebpf4jnsgd1na2vs0mg"},{"bike_id":"7fb0d0fb-dd7a-4ace-98da-9e3c8b1d73b0","system_id":"levelo_inurba_marseille","lat":43.22928,"lon":5.35374,"is_reserved":false,"is_disabled":false,"rental_uris":{"android":"levelo://app?vid=7fb0d0fb-dd7a-4ace-98da-9e3c8b1d73b0","ios":"levelo://app?vid=7fb0d0fb-dd7a-4ace-98da-9e3c8b1d73b0"},"vehicle_type_id":"4","last_reported":1727276931,"current_range_meters":26000,"station_id":"cpo3532slgdg3j2ikp40","pricing_plan_id":"cebpf4jnsgd1na2vs0mg"},{"bike_id":"f4e6ae45-18dd-416e-bb09-6b07b3d21b9d","system_id":"levelo_inurba_marseille","lat":43.262,"lon":5.37928,"is_reserved":false,"is_disabled":false,"rental_uris":{"android":"levelo://app?vid=f4e6ae45-18dd-416e-bb09-6b07b3d21b9d","ios":"levelo://app?vid=f4e6ae45-18dd-416e-bb09-6b07b3d21b9d"},"vehicle_type_id":"4","last_reported":1727276931,"current_range_meters":6800,"station_id":"ce4bhjp2rcd13ifvqg90","pricing_plan_id":"cebpf4jnsgd1na2vs0mg"},{"bike_id":"2e4c1a21-c1a1-465c-bb16-5294d79addc7","system_id":"levelo_inurba_marseille","lat":43.29047,"lon":5.35905,"is_reserved":false,"is_disabled":false,"rental_uris":{"android":"levelo://app?vid=2e4c1a21-c1a1-465c-bb16-5294d79addc7","ios":"levelo://app?vid=2e4c1a21-c1a1-465c-bb16-5294d79addc7"},"vehicle_type_id":"4","last_reported":1727276931,"current_range_meters":7200,"station_id":"ce4bha92rcd13ifvqeg0","pricing_plan_id":"cebpf4jnsgd1na2vs0mg"},{"bike_id":"b41cabb9-80b4-406b-bd58-abeaa3909770","system_id":"levelo_inurba_marseille","lat":43.28464,"lon":5.35878,"is_reserved":false,"is_disabled":false,"rental_uris":{"android":"levelo://app?vid=b41cabb9-80b4-406b-bd58-abeaa3909770","ios":"levelo://app?vid=b41cabb9-80b4-406b-bd58-abeaa3909770"},"vehicle_type_id":"4","last_reported":1727276931,"current_range_meters":38800,"station_id":"ce4bhah2rcd13ifvqei0","pricing_plan_id":"cebpf4jnsgd1na2vs0mg"},{"bike_id":"b8c0ac42-4e69-456a-9ad6-96a5dc7a0ff5","system_id":"levelo_inurba_marseille","lat":43.23154,"lon":5.43717,"is_reserved":false,"is_disabled":false,"rental_uris":{"android":"levelo://app?vid=b8c0ac42-4e69-456a-9ad6-96a5dc7a0ff5","ios":"levelo://app?vid=b8c0ac42-4e69-456a-9ad6-96a5dc7a0ff5"},"vehicle_type_id":"4","last_reported":1727276931,"current_range_meters":19600,"station_id":"ce4bhmp2rcd13ifvqgog","pricing_plan_id":"cebpf4jnsgd1na2vs0mg"},{"bike_id":"77a0b52d-381d-4877-835b-b29e7f9e7339","system_id":"levelo_inurba_marseille","lat":43.27184,"lon":5.40992,"is_reserved":false,"is_disabled":false,"rental_uris":{"android":"levelo://app?vid=77a0b52d-381d-4877-835b-b29e7f9e7339","ios":"levelo://app?vid=77a0b52d-381d-4877-835b-b29e7f9e7339"},"vehicle_type_id":"4","last_reported":1727276931,"current_range_meters":36800,"station_id":"ce4bhl12rcd13ifvqgf0","pricing_plan_id":"cebpf4jnsgd1na2vs0mg"},{"bike_id":"7a3eafa3-1024-436d-86ca-02432c6c7009","system_id":"levelo_inurba_marseille","lat":43.29003,"lon":5.35605,"is_reserved":false,"is_disabled":false,"rental_uris":{"android":"levelo://app?vid=7a3eafa3-1024-436d-86ca-02432c6c7009","ios":"levelo://app?vid=7a3eafa3-1024-436d-86ca-02432c6c7009"},"vehicle_type_id":"4","last_reported":1727276931,"current_range_meters":13600,"station_id":"ce4bhb92rcd13ifvqen0","pricing_plan_id":"cebpf4jnsgd1na2vs0mg"},{"bike_id":"7c7681f4-2ee1-4c50-b375-ba89c17d83b4","system_id":"levelo_inurba_marseille","lat":43.33718,"lon":5.39184,"is_reserved":false,"is_disabled":false,"rental_uris":{"android":"levelo://app?vid=7c7681f4-2ee1-4c50-b375-ba89c17d83b4","ios":"levelo://app?vid=7c7681f4-2ee1-4c50-b375-ba89c17d83b4"},"vehicle_type_id":"4","last_reported":1727276931,"current_range_meters":28400,"station_id":"ce4bhr92rcd13ifvqhsg","pricing_plan_id":"cebpf4jnsgd1na2vs0mg"},{"bike_id":"121efc2b-e7b4-4d5e-9a7b-948a289a5a95","system_id":"levelo_inurba_marseille","lat":43.29224,"lon":5.3607,"is_reserved":false,"is_disabled":false,"rental_uris":{"android":"levelo://app?vid=121efc2b-e7b4-4d5e-9a7b-948a289a5a95","ios":"levelo://app?vid=121efc2b-e7b4-4d5e-9a7b-948a289a5a95"},"vehicle_type_id":"4","last_reported":1727276931,"current_range_meters":32000,"station_id":"ce4bhbh2rcd13ifvqeqg","pricing_plan_id":"cebpf4jnsgd1na2vs0mg"},{"bike_id":"3d160dae-6782-4e53-81e7-e40908ad46c5","system_id":"levelo_inurba_marseille","lat":43.31883,"lon":5.37407,"is_reserved":false,"is_disabled":false,"rental_uris":{"android":"levelo://app?vid=3d160dae-6782-4e53-81e7-e40908ad46c5","ios":"levelo://app?vid=3d160dae-6782-4e53-81e7-e40908ad46c5"},"vehicle_type_id":"4","last_reported":1727276931,"current_range_meters":35200,"station_id":"","pricing_plan_id":"cebpf4jnsgd1na2vs0mg"},{"bike_id":"38e9fe5d-afdd-4276-afa7-ab734e96b585","system_id":"levelo_inurba_marseille","lat":43.23187,"lon":5.35556,"is_reserved":false,"is_disabled":false,"rental_uris":{"android":"levelo://app?vid=38e9fe5d-afdd-4276-afa7-ab734e96b585","ios":"levelo://app?vid=38e9fe5d-afdd-4276-afa7-ab734e96b585"},"vehicle_type_id":"4","last_reported":1727276931,"current_range_meters":21600,"station_id":"ce4bhu92rcd13ifvqi70","pricing_plan_id":"cebpf4jnsgd1na2vs0mg"},{"bike_id":"2c947711-9a76-4185-b8b7-562ab19f1c5c","system_id":"levelo_inurba_marseille","lat":43.28289,"lon":5.35073,"is_reserved":false,"is_disabled":false,"rental_uris":{"android":"levelo://app?vid=2c947711-9a76-4185-b8b7-562ab19f1c5c","ios":"levelo://app?vid=2c947711-9a76-4185-b8b7-562ab19f1c5c"},"vehicle_type_id":"4","last_reported":1727276931,"current_range_meters":38800,"station_id":"ce4bhbp2rcd13ifvqerg","pricing_plan_id":"cebpf4jnsgd1na2vs0mg"},{"bike_id":"62696b23-be8c-4cb0-a814-83657fc90e3c","system_id":"levelo_inurba_marseille","lat":43.30522,"lon":5.3672,"is_reserved":false,"is_disabled":false,"rental_uris":{"android":"levelo://app?vid=62696b23-be8c-4cb0-a814-83657fc90e3c","ios":"levelo://app?vid=62696b23-be8c-4cb0-a814-83657fc90e3c"},"vehicle_type_id":"4","last_reported":1727276931,"current_range_meters":38400,"station_id":"ce4bgrp2rcd13ifvqc9g","pricing_plan_id":"cebpf4jnsgd1na2vs0mg"},{"bike_id":"3cdb199b-bacd-44b6-8eed-476c74758fbd","system_id":"levelo_inurba_marseille","lat":43.32108,"lon":5.36776,"is_reserved":false,"is_disabled":false,"rental_uris":{"android":"levelo://app?vid=3cdb199b-bacd-44b6-8eed-476c74758fbd","ios":"levelo://app?vid=3cdb199b-bacd-44b6-8eed-476c74758fbd"},"vehicle_type_id":"4","last_reported":1727276931,"current_range_meters":24800,"station_id":"ce4bhrh2rcd13ifvqhug","pricing_plan_id":"cebpf4jnsgd1na2vs0mg"},{"bike_id":"33430b0a-ef2e-45dc-853c-19e2a52996ef","system_id":"levelo_inurba_marseille","lat":43.32476,"lon":5.3657,"is_reserved":false,"is_disabled":false,"rental_uris":{"android":"levelo://app?vid=33430b0a-ef2e-45dc-853c-19e2a52996ef","ios":"levelo://app?vid=33430b0a-ef2e-45dc-853c-19e2a52996ef"},"vehicle_type_id":"4","last_reported":1727276931,"current_range_meters":38000,"station_id":"ce4bhs12rcd13ifvqhvg","pricing_plan_id":"cebpf4jnsgd1na2vs0mg"},{"bike_id":"9b46c8e1-1d59-4e52-9fb3-d2ba2008741c","system_id":"levelo_inurba_marseille","lat":43.27372,"lon":5.36256,"is_reserved":false,"is_disabled":false,"rental_uris":{"android":"levelo://app?vid=9b46c8e1-1d59-4e52-9fb3-d2ba2008741c","ios":"levelo://app?vid=9b46c8e1-1d59-4e52-9fb3-d2ba2008741c"},"vehicle_type_id":"4","last_reported":1727276931,"current_range_meters":16800,"station_id":"ce4bhbh2rcd13ifvqeo0","pricing_plan_id":"cebpf4jnsgd1na2vs0mg"},{"bike_id":"6efec0af-9e03-479a-a130-0b0b615c7989","system_id":"levelo_inurba_marseille","lat":43.30586,"lon":5.39354,"is_reserved":false,"is_disabled":false,"rental_uris":{"android":"levelo://app?vid=6efec0af-9e03-479a-a130-0b0b615c7989","ios":"levelo://app?vid=6efec0af-9e03-479a-a130-0b0b615c7989"},"vehicle_type_id":"4","last_reported":1727276931,"current_range_meters":31200,"station_id":"ce4bh0p2rcd13ifvqd80","pricing_plan_id":"cebpf4jnsgd1na2vs0mg"},{"bike_id":"b27ad91f-b8e5-49be-ad48-521a5180ef1a","system_id":"levelo_inurba_marseille","lat":43.29589,"lon":5.39627,"is_reserved":false,"is_disabled":false,"rental_uris":{"android":"levelo://app?vid=b27ad91f-b8e5-49be-ad48-521a5180ef1a","ios":"levelo://app?vid=b27ad91f-b8e5-49be-ad48-521a5180ef1a"},"vehicle_type_id":"4","last_reported":1727276931,"current_range_meters":36400,"station_id":"","pricing_plan_id":"cebpf4jnsgd1na2vs0mg"},{"bike_id":"aad22dc7-5b58-4c6e-b09a-11e1f606976b","system_id":"levelo_inurba_marseille","lat":43.26805,"lon":5.40252,"is_reserved":false,"is_disabled":false,"rental_uris":{"android":"levelo://app?vid=aad22dc7-5b58-4c6e-b09a-11e1f606976b","ios":"levelo://app?vid=aad22dc7-5b58-4c6e-b09a-11e1f606976b"},"vehicle_type_id":"4","last_reported":1727276931,"current_range_meters":39200,"station_id":"ce501612rcd8frsf0b60","pricing_plan_id":"cebpf4jnsgd1na2vs0mg"},{"bike_id":"edd1d204-5dde-4bf0-9825-2e8233ccafb0","system_id":"levelo_inurba_marseille","lat":43.24183,"lon":5.39731,"is_reserved":false,"is_disabled":false,"rental_uris":{"android":"levelo://app?vid=edd1d204-5dde-4bf0-9825-2e8233ccafb0","ios":"levelo://app?vid=edd1d204-5dde-4bf0-9825-2e8233ccafb0"},"vehicle_type_id":"4","last_reported":1727276931,"current_range_meters":37600,"station_id":"ce4bhn12rcd13ifvqgpg","pricing_plan_id":"cebpf4jnsgd1na2vs0mg"},{"bike_id":"d3a61b6a-71e8-4c6c-8c6c-30262b2b9bc2","system_id":"levelo_inurba_marseille","lat":43.337444,"lon":5.374475,"is_reserved":false,"is_disabled":false,"rental_uris":{"android":"levelo://app?vid=d3a61b6a-71e8-4c6c-8c6c-30262b2b9bc2","ios":"levelo://app?vid=d3a61b6a-71e8-4c6c-8c6c-30262b2b9bc2"},"vehicle_type_id":"4","last_reported":1727276931,"current_range_meters":35600,"station_id":"","pricing_plan_id":"cebpf4jnsgd1na2vs0mg"},{"bike_id":"64c80b1e-388c-4852-9ea0-ea079b02ec62","system_id":"levelo_inurba_marseille","lat":43.29942,"lon":5.36534,"is_reserved":false,"is_disabled":false,"rental_uris":{"android":"levelo://app?vid=64c80b1e-388c-4852-9ea0-ea079b02ec62","ios":"levelo://app?vid=64c80b1e-388c-4852-9ea0-ea079b02ec62"},"vehicle_type_id":"4","last_reported":1727276931,"current_range_meters":36800,"station_id":"ce4bgm92rcd13ifvqbr0","pricing_plan_id":"cebpf4jnsgd1na2vs0mg"},{"bike_id":"3919af38-5294-4321-bc48-f3400d1beeb6","system_id":"levelo_inurba_marseille","lat":43.29885,"lon":5.38894,"is_reserved":false,"is_disabled":false,"rental_uris":{"android":"levelo://app?vid=3919af38-5294-4321-bc48-f3400d1beeb6","ios":"levelo://app?vid=3919af38-5294-4321-bc48-f3400d1beeb6"},"vehicle_type_id":"4","last_reported":1727276931,"current_range_meters":8000,"station_id":"ce4bh392rcd13ifvqdl0","pricing_plan_id":"cebpf4jnsgd1na2vs0mg"},{"bike_id":"d3014af0-4eb3-4240-9d27-82d8875a9a1f","system_id":"levelo_inurba_marseille","lat":43.324097,"lon":5.362979,"is_reserved":false,"is_disabled":false,"rental_uris":{"android":"levelo://app?vid=d3014af0-4eb3-4240-9d27-82d8875a9a1f","ios":"levelo://app?vid=d3014af0-4eb3-4240-9d27-82d8875a9a1f"},"vehicle_type_id":"4","last_reported":1727276931,"current_range_meters":34800,"station_id":"ce4bgl92rcd13ifvqbq0","pricing_plan_id":"cebpf4jnsgd1na2vs0mg"},{"bike_id":"ac41184c-f9bb-4e2f-bb8e-7d925cd10fa0","system_id":"levelo_inurba_marseille","lat":43.229309,"lon":5.353761,"is_reserved":false,"is_disabled":false,"rental_uris":{"android":"levelo://app?vid=ac41184c-f9bb-4e2f-bb8e-7d925cd10fa0","ios":"levelo://app?vid=ac41184c-f9bb-4e2f-bb8e-7d925cd10fa0"},"vehicle_type_id":"4","last_reported":1727276931,"current_range_meters":38800,"station_id":"cpo3532slgdg3j2ikp40","pricing_plan_id":"cebpf4jnsgd1na2vs0mg"},{"bike_id":"c446545f-f8fc-4177-b553-dfcc6c3f8f4d","system_id":"levelo_inurba_marseille","lat":43.24662,"lon":5.38176,"is_reserved":false,"is_disabled":false,"rental_uris":{"android":"levelo://app?vid=c446545f-f8fc-4177-b553-dfcc6c3f8f4d","ios":"levelo://app?vid=c446545f-f8fc-4177-b553-dfcc6c3f8f4d"},"vehicle_type_id":"4","last_reported":1727276931,"current_range_meters":34800,"station_id":"ce4bhih2rcd13ifvqfr0","pricing_plan_id":"cebpf4jnsgd1na2vs0mg"},{"bike_id":"ed399656-911f-4621-a9d2-ef88fb54de01","system_id":"levelo_inurba_marseille","lat":43.30517,"lon":5.36628,"is_reserved":false,"is_disabled":false,"rental_uris":{"android":"levelo://app?vid=ed399656-911f-4621-a9d2-ef88fb54de01","ios":"levelo://app?vid=ed399656-911f-4621-a9d2-ef88fb54de01"},"vehicle_type_id":"4","last_reported":1727276931,"current_range_meters":15200,"station_id":"","pricing_plan_id":"cebpf4jnsgd1na2vs0mg"},{"bike_id":"fcf8addf-17a6-4196-8c3f-fa500a62e077","system_id":"levelo_inurba_marseille","lat":43.24072,"lon":5.37763,"is_reserved":false,"is_disabled":false,"rental_uris":{"android":"levelo://app?vid=fcf8addf-17a6-4196-8c3f-fa500a62e077","ios":"levelo://app?vid=fcf8addf-17a6-4196-8c3f-fa500a62e077"},"vehicle_type_id":"4","last_reported":1727276931,"current_range_meters":14800,"station_id":"ce4bhnp2rcd13ifvqgvg","pricing_plan_id":"cebpf4jnsgd1na2vs0mg"},{"bike_id":"9050d0c4-f22d-4c94-803f-48072f0e0adc","system_id":"levelo_inurba_marseille","lat":43.32471,"lon":5.36557,"is_reserved":false,"is_disabled":false,"rental_uris":{"android":"levelo://app?vid=9050d0c4-f22d-4c94-803f-48072f0e0adc","ios":"levelo://app?vid=9050d0c4-f22d-4c94-803f-48072f0e0adc"},"vehicle_type_id":"4","last_reported":1727276931,"current_range_meters":28400,"station_id":"ce4bhs12rcd13ifvqhvg","pricing_plan_id":"cebpf4jnsgd1na2vs0mg"},{"bike_id":"f073078a-aa3b-44d8-9f1c-b082348f6656","system_id":"levelo_inurba_marseille","lat":43.27372,"lon":5.36246,"is_reserved":false,"is_disabled":false,"rental_uris":{"android":"levelo://app?vid=f073078a-aa3b-44d8-9f1c-b082348f6656","ios":"levelo://app?vid=f073078a-aa3b-44d8-9f1c-b082348f6656"},"vehicle_type_id":"4","last_reported":1727276931,"current_range_meters":22400,"station_id":"ce4bhbh2rcd13ifvqeo0","pricing_plan_id":"cebpf4jnsgd1na2vs0mg"},{"bike_id":"0ddc0369-b59e-426c-9f4f-0ccb25d210d1","system_id":"levelo_inurba_marseille","lat":43.27572,"lon":5.39544,"is_reserved":false,"is_disabled":false,"rental_uris":{"android":"levelo://app?vid=0ddc0369-b59e-426c-9f4f-0ccb25d210d1","ios":"levelo://app?vid=0ddc0369-b59e-426c-9f4f-0ccb25d210d1"},"vehicle_type_id":"4","last_reported":1727276931,"current_range_meters":36000,"station_id":"","pricing_plan_id":"cebpf4jnsgd1na2vs0mg"},{"bike_id":"b758bb5f-adae-4881-83e7-0e917c4e39a1","system_id":"levelo_inurba_marseille","lat":43.31996,"lon":5.38144,"is_reserved":false,"is_disabled":false,"rental_uris":{"android":"levelo://app?vid=b758bb5f-adae-4881-83e7-0e917c4e39a1","ios":"levelo://app?vid=b758bb5f-adae-4881-83e7-0e917c4e39a1"},"vehicle_type_id":"4","last_reported":1727276931,"current_range_meters":6400,"station_id":"ce4bhr12rcd13ifvqhpg","pricing_plan_id":"cebpf4jnsgd1na2vs0mg"},{"bike_id":"93386c75-3739-402c-944d-c47e2985c15d","system_id":"levelo_inurba_marseille","lat":43.23194,"lon":5.35548,"is_reserved":false,"is_disabled":false,"rental_uris":{"android":"levelo://app?vid=93386c75-3739-402c-944d-c47e2985c15d","ios":"levelo://app?vid=93386c75-3739-402c-944d-c47e2985c15d"},"vehicle_type_id":"4","last_reported":1727276931,"current_range_meters":25600,"station_id":"ce4bhu92rcd13ifvqi70","pricing_plan_id":"cebpf4jnsgd1na2vs0mg"},{"bike_id":"616bd585-4ca5-4b01-9305-59cd478253c3","system_id":"levelo_inurba_marseille","lat":43.27376,"lon":5.36255,"is_reserved":false,"is_disabled":false,"rental_uris":{"android":"levelo://app?vid=616bd585-4ca5-4b01-9305-59cd478253c3","ios":"levelo://app?vid=616bd585-4ca5-4b01-9305-59cd478253c3"},"vehicle_type_id":"4","last_reported":1727276931,"current_range_meters":12400,"station_id":"ce4bhbh2rcd13ifvqeo0","pricing_plan_id":"cebpf4jnsgd1na2vs0mg"},{"bike_id":"a832b3cd-8759-4176-b9b4-7acc3d4bc8f1","system_id":"levelo_inurba_marseille","lat":43.30411,"lon":5.41293,"is_reserved":false,"is_disabled":false,"rental_uris":{"android":"levelo://app?vid=a832b3cd-8759-4176-b9b4-7acc3d4bc8f1","ios":"levelo://app?vid=a832b3cd-8759-4176-b9b4-7acc3d4bc8f1"},"vehicle_type_id":"4","last_reported":1727276931,"current_range_meters":33600,"station_id":"ce4bhop2rcd13ifvqh8g","pricing_plan_id":"cebpf4jnsgd1na2vs0mg"},{"bike_id":"9a88dd8a-fbde-4b1b-b8e8-77e7754598c2","system_id":"levelo_inurba_marseille","lat":43.26938,"lon":5.38911,"is_reserved":false,"is_disabled":false,"rental_uris":{"android":"levelo://app?vid=9a88dd8a-fbde-4b1b-b8e8-77e7754598c2","ios":"levelo://app?vid=9a88dd8a-fbde-4b1b-b8e8-77e7754598c2"},"vehicle_type_id":"4","last_reported":1727276931,"current_range_meters":11200,"station_id":"ce4bhhh2rcd13ifvqfl0","pricing_plan_id":"cebpf4jnsgd1na2vs0mg"},{"bike_id":"a441ac34-b865-4014-9ff4-7ed8cce26070","system_id":"levelo_inurba_marseille","lat":43.31756,"lon":5.39014,"is_reserved":false,"is_disabled":false,"rental_uris":{"android":"levelo://app?vid=a441ac34-b865-4014-9ff4-7ed8cce26070","ios":"levelo://app?vid=a441ac34-b865-4014-9ff4-7ed8cce26070"},"vehicle_type_id":"4","last_reported":1727276931,"current_range_meters":3200,"station_id":"ce4bhqp2rcd13ifvqhng","pricing_plan_id":"cebpf4jnsgd1na2vs0mg"},{"bike_id":"f5cc56a8-3745-4eda-bf75-2e9b8adba38b","system_id":"levelo_inurba_marseille","lat":43.2655,"lon":5.37284,"is_reserved":false,"is_disabled":false,"rental_uris":{"android":"levelo://app?vid=f5cc56a8-3745-4eda-bf75-2e9b8adba38b","ios":"levelo://app?vid=f5cc56a8-3745-4eda-bf75-2e9b8adba38b"},"vehicle_type_id":"4","last_reported":1727276931,"current_range_meters":36800,"station_id":"ce4bhg12rcd13ifvqf70","pricing_plan_id":"cebpf4jnsgd1na2vs0mg"},{"bike_id":"f17dbafc-151f-485c-a428-c0c83c10c6c9","system_id":"levelo_inurba_marseille","lat":43.29157,"lon":5.439727,"is_reserved":false,"is_disabled":false,"rental_uris":{"android":"levelo://app?vid=f17dbafc-151f-485c-a428-c0c83c10c6c9","ios":"levelo://app?vid=f17dbafc-151f-485c-a428-c0c83c10c6c9"},"vehicle_type_id":"4","last_reported":1727276931,"current_range_meters":28400,"station_id":"","pricing_plan_id":"cebpf4jnsgd1na2vs0mg"},{"bike_id":"562e56c6-1eed-4787-a840-4b3cccd50c1a","system_id":"levelo_inurba_marseille","lat":43.27308,"lon":5.39084,"is_reserved":false,"is_disabled":false,"rental_uris":{"android":"levelo://app?vid=562e56c6-1eed-4787-a840-4b3cccd50c1a","ios":"levelo://app?vid=562e56c6-1eed-4787-a840-4b3cccd50c1a"},"vehicle_type_id":"4","last_reported":1727276931,"current_range_meters":4400,"station_id":"ce4bhgp2rcd13ifvqfe0","pricing_plan_id":"cebpf4jnsgd1na2vs0mg"},{"bike_id":"ef28a8b3-7923-4ee3-9855-2a7c0f3672e1","system_id":"levelo_inurba_marseille","lat":43.29863,"lon":5.39725,"is_reserved":false,"is_disabled":false,"rental_uris":{"android":"levelo://app?vid=ef28a8b3-7923-4ee3-9855-2a7c0f3672e1","ios":"levelo://app?vid=ef28a8b3-7923-4ee3-9855-2a7c0f3672e1"},"vehicle_type_id":"4","last_reported":1727276931,"current_range_meters":26800,"station_id":"ce4bh0h2rcd13ifvqd50","pricing_plan_id":"cebpf4jnsgd1na2vs0mg"},{"bike_id":"992bde74-99ce-4177-98c4-1cbcae5fb5cf","system_id":"levelo_inurba_marseille","lat":43.28611,"lon":5.35099,"is_reserved":false,"is_disabled":false,"rental_uris":{"android":"levelo://app?vid=992bde74-99ce-4177-98c4-1cbcae5fb5cf","ios":"levelo://app?vid=992bde74-99ce-4177-98c4-1cbcae5fb5cf"},"vehicle_type_id":"4","last_reported":1727276931,"current_range_meters":19200,"station_id":"ce4bhch2rcd13ifvqeug","pricing_plan_id":"cebpf4jnsgd1na2vs0mg"},{"bike_id":"0c436c22-6873-489a-8184-423edb11f4a2","system_id":"levelo_inurba_marseille","lat":43.29522,"lon":5.37502,"is_reserved":false,"is_disabled":false,"rental_uris":{"android":"levelo://app?vid=0c436c22-6873-489a-8184-423edb11f4a2","ios":"levelo://app?vid=0c436c22-6873-489a-8184-423edb11f4a2"},"vehicle_type_id":"4","last_reported":1727276931,"current_range_meters":4800,"station_id":"ce4bgkp2rcd13ifvqbmg","pricing_plan_id":"cebpf4jnsgd1na2vs0mg"},{"bike_id":"728bc6c7-715f-464b-a2ca-3d8e1592637b","system_id":"levelo_inurba_marseille","lat":43.25722,"lon":5.41103,"is_reserved":false,"is_disabled":false,"rental_uris":{"android":"levelo://app?vid=728bc6c7-715f-464b-a2ca-3d8e1592637b","ios":"levelo://app?vid=728bc6c7-715f-464b-a2ca-3d8e1592637b"},"vehicle_type_id":"4","last_reported":1727276931,"current_range_meters":30800,"station_id":"ce4bhkp2rcd13ifvqgd0","pricing_plan_id":"cebpf4jnsgd1na2vs0mg"},{"bike_id":"8588cae1-6e28-4966-8fb9-833cfeeb35f8","system_id":"levelo_inurba_marseille","lat":43.31694,"lon":5.37749,"is_reserved":false,"is_disabled":false,"rental_uris":{"android":"levelo://app?vid=8588cae1-6e28-4966-8fb9-833cfeeb35f8","ios":"levelo://app?vid=8588cae1-6e28-4966-8fb9-833cfeeb35f8"},"vehicle_type_id":"4","last_reported":1727276931,"current_range_meters":37600,"station_id":"ce4bgth2rcd13ifvqch0","pricing_plan_id":"cebpf4jnsgd1na2vs0mg"},{"bike_id":"9b05f815-c546-4082-9cf1-af2f948a4197","system_id":"levelo_inurba_marseille","lat":43.247467,"lon":5.389673,"is_reserved":false,"is_disabled":false,"rental_uris":{"android":"levelo://app?vid=9b05f815-c546-4082-9cf1-af2f948a4197","ios":"levelo://app?vid=9b05f815-c546-4082-9cf1-af2f948a4197"},"vehicle_type_id":"4","last_reported":1727276931,"current_range_meters":28400,"station_id":"ce4bhg12rcd13ifvqf60","pricing_plan_id":"cebpf4jnsgd1na2vs0mg"},{"bike_id":"37c0813f-07d1-4539-95df-77ff52aed1e7","system_id":"levelo_inurba_marseille","lat":43.29929,"lon":5.36543,"is_reserved":false,"is_disabled":false,"rental_uris":{"android":"levelo://app?vid=37c0813f-07d1-4539-95df-77ff52aed1e7","ios":"levelo://app?vid=37c0813f-07d1-4539-95df-77ff52aed1e7"},"vehicle_type_id":"4","last_reported":1727276931,"current_range_meters":26800,"station_id":"ce4bgm92rcd13ifvqbr0","pricing_plan_id":"cebpf4jnsgd1na2vs0mg"},{"bike_id":"11637664-eefd-4bb1-888b-31a84ecf3796","system_id":"levelo_inurba_marseille","lat":43.31353,"lon":5.38493,"is_reserved":false,"is_disabled":false,"rental_uris":{"android":"levelo://app?vid=11637664-eefd-4bb1-888b-31a84ecf3796","ios":"levelo://app?vid=11637664-eefd-4bb1-888b-31a84ecf3796"},"vehicle_type_id":"4","last_reported":1727276931,"current_range_meters":35600,"station_id":"ce4bgt92rcd13ifvqcf0","pricing_plan_id":"cebpf4jnsgd1na2vs0mg"},{"bike_id":"c291e55e-cf5a-4bba-8523-f7fa151d2841","system_id":"levelo_inurba_marseille","lat":43.30599,"lon":5.39363,"is_reserved":false,"is_disabled":false,"rental_uris":{"android":"levelo://app?vid=c291e55e-cf5a-4bba-8523-f7fa151d2841","ios":"levelo://app?vid=c291e55e-cf5a-4bba-8523-f7fa151d2841"},"vehicle_type_id":"4","last_reported":1727276931,"current_range_meters":34000,"station_id":"ce4bh0p2rcd13ifvqd80","pricing_plan_id":"cebpf4jnsgd1na2vs0mg"},{"bike_id":"b78f86b0-4585-4e64-b351-1810fd6bb25d","system_id":"levelo_inurba_marseille","lat":43.30423,"lon":5.39748,"is_reserved":false,"is_disabled":false,"rental_uris":{"android":"levelo://app?vid=b78f86b0-4585-4e64-b351-1810fd6bb25d","ios":"levelo://app?vid=b78f86b0-4585-4e64-b351-1810fd6bb25d"},"vehicle_type_id":"4","last_reported":1727276931,"current_range_meters":2800,"station_id":"ce4bh092rcd13ifvqd20","pricing_plan_id":"cebpf4jnsgd1na2vs0mg"},{"bike_id":"d6d1cee7-740c-4da9-a277-ba350648f4fc","system_id":"levelo_inurba_marseille","lat":43.289566,"lon":5.364078,"is_reserved":false,"is_disabled":false,"rental_uris":{"android":"levelo://app?vid=d6d1cee7-740c-4da9-a277-ba350648f4fc","ios":"levelo://app?vid=d6d1cee7-740c-4da9-a277-ba350648f4fc"},"vehicle_type_id":"4","last_reported":1727276931,"current_range_meters":32000,"station_id":"ce4bhc92rcd13ifvqetg","pricing_plan_id":"cebpf4jnsgd1na2vs0mg"},{"bike_id":"4c42f46f-8b7d-47cf-876b-4b1e051ba65f","system_id":"levelo_inurba_marseille","lat":43.24177,"lon":5.39726,"is_reserved":false,"is_disabled":false,"rental_uris":{"android":"levelo://app?vid=4c42f46f-8b7d-47cf-876b-4b1e051ba65f","ios":"levelo://app?vid=4c42f46f-8b7d-47cf-876b-4b1e051ba65f"},"vehicle_type_id":"4","last_reported":1727276931,"current_range_meters":19600,"station_id":"ce4bhn12rcd13ifvqgpg","pricing_plan_id":"cebpf4jnsgd1na2vs0mg"},{"bike_id":"ffcfa5c9-6797-477f-ad24-20317a380891","system_id":"levelo_inurba_marseille","lat":43.28942,"lon":5.36386,"is_reserved":false,"is_disabled":false,"rental_uris":{"android":"levelo://app?vid=ffcfa5c9-6797-477f-ad24-20317a380891","ios":"levelo://app?vid=ffcfa5c9-6797-477f-ad24-20317a380891"},"vehicle_type_id":"4","last_reported":1727276931,"current_range_meters":18000,"station_id":"ce4bhc92rcd13ifvqetg","pricing_plan_id":"cebpf4jnsgd1na2vs0mg"},{"bike_id":"7dd4ff96-c462-4455-a33c-01fa7be483f4","system_id":"levelo_inurba_marseille","lat":43.29615,"lon":5.37726,"is_reserved":false,"is_disabled":false,"rental_uris":{"android":"levelo://app?vid=7dd4ff96-c462-4455-a33c-01fa7be483f4","ios":"levelo://app?vid=7dd4ff96-c462-4455-a33c-01fa7be483f4"},"vehicle_type_id":"4","last_reported":1727276931,"current_range_meters":25600,"station_id":"ce4bgi92rcd13ifvqb90","pricing_plan_id":"cebpf4jnsgd1na2vs0mg"},{"bike_id":"a6a11d39-5b9b-473c-9d47-c7bbd9b2718e","system_id":"levelo_inurba_marseille","lat":43.293,"lon":5.37466,"is_reserved":false,"is_disabled":false,"rental_uris":{"android":"levelo://app?vid=a6a11d39-5b9b-473c-9d47-c7bbd9b2718e","ios":"levelo://app?vid=a6a11d39-5b9b-473c-9d47-c7bbd9b2718e"},"vehicle_type_id":"4","last_reported":1727276931,"current_range_meters":20400,"station_id":"ce4bgi12rcd13ifvqb70","pricing_plan_id":"cebpf4jnsgd1na2vs0mg"},{"bike_id":"186b5643-9a17-4ade-899c-c477a2375ece","system_id":"levelo_inurba_marseille","lat":43.28616,"lon":5.35105,"is_reserved":false,"is_disabled":false,"rental_uris":{"android":"levelo://app?vid=186b5643-9a17-4ade-899c-c477a2375ece","ios":"levelo://app?vid=186b5643-9a17-4ade-899c-c477a2375ece"},"vehicle_type_id":"4","last_reported":1727276931,"current_range_meters":35200,"station_id":"ce4bhch2rcd13ifvqeug","pricing_plan_id":"cebpf4jnsgd1na2vs0mg"},{"bike_id":"74a6581c-413d-4f40-ab99-2d23a2b8d2fe","system_id":"levelo_inurba_marseille","lat":43.26561,"lon":5.38992,"is_reserved":false,"is_disabled":false,"rental_uris":{"android":"levelo://app?vid=74a6581c-413d-4f40-ab99-2d23a2b8d2fe","ios":"levelo://app?vid=74a6581c-413d-4f40-ab99-2d23a2b8d2fe"},"vehicle_type_id":"4","last_reported":1727276931,"current_range_meters":5600,"station_id":"ce4bhe12rcd13ifvqf30","pricing_plan_id":"cebpf4jnsgd1na2vs0mg"},{"bike_id":"afb1616c-36d1-42aa-b085-ad748c9c2823","system_id":"levelo_inurba_marseille","lat":43.2455,"lon":5.39532,"is_reserved":false,"is_disabled":false,"rental_uris":{"android":"levelo://app?vid=afb1616c-36d1-42aa-b085-ad748c9c2823","ios":"levelo://app?vid=afb1616c-36d1-42aa-b085-ad748c9c2823"},"vehicle_type_id":"4","last_reported":1727276931,"current_range_meters":13600,"station_id":"ce4bhlp2rcd13ifvqgjg","pricing_plan_id":"cebpf4jnsgd1na2vs0mg"},{"bike_id":"e09b4efe-d206-4a5a-8fd1-413a5d46eff1","system_id":"levelo_inurba_marseille","lat":43.30532,"lon":5.36705,"is_reserved":false,"is_disabled":false,"rental_uris":{"android":"levelo://app?vid=e09b4efe-d206-4a5a-8fd1-413a5d46eff1","ios":"levelo://app?vid=e09b4efe-d206-4a5a-8fd1-413a5d46eff1"},"vehicle_type_id":"4","last_reported":1727276931,"current_range_meters":18800,"station_id":"ce4bgrp2rcd13ifvqc9g","pricing_plan_id":"cebpf4jnsgd1na2vs0mg"},{"bike_id":"13ea4239-c096-49ce-9014-c218f3491066","system_id":"levelo_inurba_marseille","lat":43.24083,"lon":5.37748,"is_reserved":false,"is_disabled":false,"rental_uris":{"android":"levelo://app?vid=13ea4239-c096-49ce-9014-c218f3491066","ios":"levelo://app?vid=13ea4239-c096-49ce-9014-c218f3491066"},"vehicle_type_id":"4","last_reported":1727276931,"current_range_meters":9600,"station_id":"ce4bhnp2rcd13ifvqgvg","pricing_plan_id":"cebpf4jnsgd1na2vs0mg"},{"bike_id":"47dec83d-be79-4f16-8763-c4787e8dec5f","system_id":"levelo_inurba_marseille","lat":43.26027,"lon":5.37546,"is_reserved":false,"is_disabled":false,"rental_uris":{"android":"levelo://app?vid=47dec83d-be79-4f16-8763-c4787e8dec5f","ios":"levelo://app?vid=47dec83d-be79-4f16-8763-c4787e8dec5f"},"vehicle_type_id":"4","last_reported":1727276931,"current_range_meters":17600,"station_id":"ce4bhgh2rcd13ifvqfa0","pricing_plan_id":"cebpf4jnsgd1na2vs0mg"},{"bike_id":"bfbd7ce3-57c8-4c62-aaa8-52c7c05e68d8","system_id":"levelo_inurba_marseille","lat":43.337444,"lon":5.374475,"is_reserved":false,"is_disabled":false,"rental_uris":{"android":"levelo://app?vid=bfbd7ce3-57c8-4c62-aaa8-52c7c05e68d8","ios":"levelo://app?vid=bfbd7ce3-57c8-4c62-aaa8-52c7c05e68d8"},"vehicle_type_id":"4","last_reported":1727276931,"current_range_meters":12400,"station_id":"","pricing_plan_id":"cebpf4jnsgd1na2vs0mg"},{"bike_id":"6d2cf804-55a3-4fdd-a007-40cbef35c7a6","system_id":"levelo_inurba_marseille","lat":43.27371,"lon":5.36258,"is_reserved":false,"is_disabled":false,"rental_uris":{"android":"levelo://app?vid=6d2cf804-55a3-4fdd-a007-40cbef35c7a6","ios":"levelo://app?vid=6d2cf804-55a3-4fdd-a007-40cbef35c7a6"},"vehicle_type_id":"4","last_reported":1727276931,"current_range_meters":38800,"station_id":"ce4bhbh2rcd13ifvqeo0","pricing_plan_id":"cebpf4jnsgd1na2vs0mg"},{"bike_id":"d9af0c7c-0708-4338-9c60-871a1e56309f","system_id":"levelo_inurba_marseille","lat":43.29623,"lon":5.37732,"is_reserved":false,"is_disabled":false,"rental_uris":{"android":"levelo://app?vid=d9af0c7c-0708-4338-9c60-871a1e56309f","ios":"levelo://app?vid=d9af0c7c-0708-4338-9c60-871a1e56309f"},"vehicle_type_id":"4","last_reported":1727276931,"current_range_meters":26800,"station_id":"ce4bgi92rcd13ifvqb90","pricing_plan_id":"cebpf4jnsgd1na2vs0mg"},{"bike_id":"633d3d3c-70a3-4727-830d-e105331699ce","system_id":"levelo_inurba_marseille","lat":43.29924,"lon":5.36537,"is_reserved":false,"is_disabled":false,"rental_uris":{"android":"levelo://app?vid=633d3d3c-70a3-4727-830d-e105331699ce","ios":"levelo://app?vid=633d3d3c-70a3-4727-830d-e105331699ce"},"vehicle_type_id":"4","last_reported":1727276931,"current_range_meters":8400,"station_id":"ce4bgm92rcd13ifvqbr0","pricing_plan_id":"cebpf4jnsgd1na2vs0mg"},{"bike_id":"204e1f10-ec7e-4ce9-82a2-d3b533dbac45","system_id":"levelo_inurba_marseille","lat":43.292206,"lon":5.377318,"is_reserved":false,"is_disabled":false,"rental_uris":{"android":"levelo://app?vid=204e1f10-ec7e-4ce9-82a2-d3b533dbac45","ios":"levelo://app?vid=204e1f10-ec7e-4ce9-82a2-d3b533dbac45"},"vehicle_type_id":"4","last_reported":1727276931,"current_range_meters":34000,"station_id":"","pricing_plan_id":"cebpf4jnsgd1na2vs0mg"},{"bike_id":"16aa055f-6a6c-4615-b78f-fccb2bd3ffa8","system_id":"levelo_inurba_marseille","lat":43.24545,"lon":5.39522,"is_reserved":false,"is_disabled":false,"rental_uris":{"android":"levelo://app?vid=16aa055f-6a6c-4615-b78f-fccb2bd3ffa8","ios":"levelo://app?vid=16aa055f-6a6c-4615-b78f-fccb2bd3ffa8"},"vehicle_type_id":"4","last_reported":1727276931,"current_range_meters":38800,"station_id":"ce4bhlp2rcd13ifvqgjg","pricing_plan_id":"cebpf4jnsgd1na2vs0mg"},{"bike_id":"2a463a7d-d07b-48fe-9448-4695d9d2e7d2","system_id":"levelo_inurba_marseille","lat":43.23178,"lon":5.39984,"is_reserved":false,"is_disabled":false,"rental_uris":{"android":"levelo://app?vid=2a463a7d-d07b-48fe-9448-4695d9d2e7d2","ios":"levelo://app?vid=2a463a7d-d07b-48fe-9448-4695d9d2e7d2"},"vehicle_type_id":"4","last_reported":1727276931,"current_range_meters":11600,"station_id":"ce4bhn12rcd13ifvqgqg","pricing_plan_id":"cebpf4jnsgd1na2vs0mg"},{"bike_id":"f1c869b6-20e2-4409-bb6c-2caf7163e0f8","system_id":"levelo_inurba_marseille","lat":43.29022,"lon":5.38124,"is_reserved":false,"is_disabled":false,"rental_uris":{"android":"levelo://app?vid=f1c869b6-20e2-4409-bb6c-2caf7163e0f8","ios":"levelo://app?vid=f1c869b6-20e2-4409-bb6c-2caf7163e0f8"},"vehicle_type_id":"4","last_reported":1727276931,"current_range_meters":28800,"station_id":"ce4bh4p2rcd13ifvqe1g","pricing_plan_id":"cebpf4jnsgd1na2vs0mg"},{"bike_id":"e2ee6dc3-9b95-4ee1-842d-4986f2a99acf","system_id":"levelo_inurba_marseille","lat":43.29378,"lon":5.37861,"is_reserved":false,"is_disabled":false,"rental_uris":{"android":"levelo://app?vid=e2ee6dc3-9b95-4ee1-842d-4986f2a99acf","ios":"levelo://app?vid=e2ee6dc3-9b95-4ee1-842d-4986f2a99acf"},"vehicle_type_id":"4","last_reported":1727276931,"current_range_meters":37600,"station_id":"ce4bgjh2rcd13ifvqbf0","pricing_plan_id":"cebpf4jnsgd1na2vs0mg"},{"bike_id":"fad880a9-57e2-42be-954d-80d95395ebb0","system_id":"levelo_inurba_marseille","lat":43.29843,"lon":5.36273,"is_reserved":false,"is_disabled":false,"rental_uris":{"android":"levelo://app?vid=fad880a9-57e2-42be-954d-80d95395ebb0","ios":"levelo://app?vid=fad880a9-57e2-42be-954d-80d95395ebb0"},"vehicle_type_id":"4","last_reported":1727276931,"current_range_meters":39200,"station_id":"ce4bgpp2rcd13ifvqc3g","pricing_plan_id":"cebpf4jnsgd1na2vs0mg"},{"bike_id":"7c11620c-9153-481e-b0a2-ccae8c9bf06f","system_id":"levelo_inurba_marseille","lat":43.26804,"lon":5.40255,"is_reserved":false,"is_disabled":false,"rental_uris":{"android":"levelo://app?vid=7c11620c-9153-481e-b0a2-ccae8c9bf06f","ios":"levelo://app?vid=7c11620c-9153-481e-b0a2-ccae8c9bf06f"},"vehicle_type_id":"4","last_reported":1727276931,"current_range_meters":40000,"station_id":"ce501612rcd8frsf0b60","pricing_plan_id":"cebpf4jnsgd1na2vs0mg"},{"bike_id":"b068dd59-fc82-4189-9a5c-0ca811083feb","system_id":"levelo_inurba_marseille","lat":43.25577,"lon":5.38236,"is_reserved":false,"is_disabled":false,"rental_uris":{"android":"levelo://app?vid=b068dd59-fc82-4189-9a5c-0ca811083feb","ios":"levelo://app?vid=b068dd59-fc82-4189-9a5c-0ca811083feb"},"vehicle_type_id":"4","last_reported":1727276931,"current_range_meters":10000,"station_id":"ce4bhih2rcd13ifvqfs0","pricing_plan_id":"cebpf4jnsgd1na2vs0mg"},{"bike_id":"766ed625-3e2c-421c-bd36-66cdec497d6b","system_id":"levelo_inurba_marseille","lat":43.27071,"lon":5.42274,"is_reserved":false,"is_disabled":false,"rental_uris":{"android":"levelo://app?vid=766ed625-3e2c-421c-bd36-66cdec497d6b","ios":"levelo://app?vid=766ed625-3e2c-421c-bd36-66cdec497d6b"},"vehicle_type_id":"4","last_reported":1727276931,"current_range_meters":8800,"station_id":"ce4bhk92rcd13ifvqgb0","pricing_plan_id":"cebpf4jnsgd1na2vs0mg"},{"bike_id":"660a101b-8b3a-4785-8499-9622fb0c1ac3","system_id":"levelo_inurba_marseille","lat":43.28976,"lon":5.37841,"is_reserved":false,"is_disabled":false,"rental_uris":{"android":"levelo://app?vid=660a101b-8b3a-4785-8499-9622fb0c1ac3","ios":"levelo://app?vid=660a101b-8b3a-4785-8499-9622fb0c1ac3"},"vehicle_type_id":"4","last_reported":1727276931,"current_range_meters":24400,"station_id":"ce4bh9p2rcd13ifvqed0","pricing_plan_id":"cebpf4jnsgd1na2vs0mg"},{"bike_id":"6b0e9209-3c15-44e0-8abc-384d7a8a2efb","system_id":"levelo_inurba_marseille","lat":43.25085,"lon":5.39512,"is_reserved":false,"is_disabled":false,"rental_uris":{"android":"levelo://app?vid=6b0e9209-3c15-44e0-8abc-384d7a8a2efb","ios":"levelo://app?vid=6b0e9209-3c15-44e0-8abc-384d7a8a2efb"},"vehicle_type_id":"4","last_reported":1727276931,"current_range_meters":8000,"station_id":"ce4bhm12rcd13ifvqgkg","pricing_plan_id":"cebpf4jnsgd1na2vs0mg"},{"bike_id":"ed2bebb4-6c3c-4b59-bf26-670192ba677c","system_id":"levelo_inurba_marseille","lat":43.26567,"lon":5.39017,"is_reserved":false,"is_disabled":false,"rental_uris":{"android":"levelo://app?vid=ed2bebb4-6c3c-4b59-bf26-670192ba677c","ios":"levelo://app?vid=ed2bebb4-6c3c-4b59-bf26-670192ba677c"},"vehicle_type_id":"4","last_reported":1727276931,"current_range_meters":26800,"station_id":"ce4bhe12rcd13ifvqf30","pricing_plan_id":"cebpf4jnsgd1na2vs0mg"},{"bike_id":"3611464c-c011-49cd-9743-487cd30c88e4","system_id":"levelo_inurba_marseille","lat":43.293618,"lon":5.402092,"is_reserved":false,"is_disabled":false,"rental_uris":{"android":"levelo://app?vid=3611464c-c011-49cd-9743-487cd30c88e4","ios":"levelo://app?vid=3611464c-c011-49cd-9743-487cd30c88e4"},"vehicle_type_id":"4","last_reported":1727276931,"current_range_meters":9600,"station_id":"ce4bh0h2rcd13ifvqd50","pricing_plan_id":"cebpf4jnsgd1na2vs0mg"},{"bike_id":"f8450f4c-d0f6-4a22-8f14-94e2070b796e","system_id":"levelo_inurba_marseille","lat":43.29839,"lon":5.3626,"is_reserved":false,"is_disabled":false,"rental_uris":{"android":"levelo://app?vid=f8450f4c-d0f6-4a22-8f14-94e2070b796e","ios":"levelo://app?vid=f8450f4c-d0f6-4a22-8f14-94e2070b796e"},"vehicle_type_id":"4","last_reported":1727276931,"current_range_meters":16800,"station_id":"ce4bgpp2rcd13ifvqc3g","pricing_plan_id":"cebpf4jnsgd1na2vs0mg"},{"bike_id":"656d4a13-19a9-4e3b-ba30-ff1c1a4d7ff7","system_id":"levelo_inurba_marseille","lat":43.29066,"lon":5.37164,"is_reserved":false,"is_disabled":false,"rental_uris":{"android":"levelo://app?vid=656d4a13-19a9-4e3b-ba30-ff1c1a4d7ff7","ios":"levelo://app?vid=656d4a13-19a9-4e3b-ba30-ff1c1a4d7ff7"},"vehicle_type_id":"4","last_reported":1727276931,"current_range_meters":9600,"station_id":"ce4bh5p2rcd13ifvqe4g","pricing_plan_id":"cebpf4jnsgd1na2vs0mg"},{"bike_id":"ea7ccd5f-3069-4a90-9d4d-241db7752cdc","system_id":"levelo_inurba_marseille","lat":43.28025,"lon":5.41972,"is_reserved":false,"is_disabled":false,"rental_uris":{"android":"levelo://app?vid=ea7ccd5f-3069-4a90-9d4d-241db7752cdc","ios":"levelo://app?vid=ea7ccd5f-3069-4a90-9d4d-241db7752cdc"},"vehicle_type_id":"4","last_reported":1727276931,"current_range_meters":26000,"station_id":"","pricing_plan_id":"cebpf4jnsgd1na2vs0mg"},