{"last_updated":1734624653,"ttl":60,"version":"2.2","data":{"bikes":[{"bike_id":"74dc27b5-e2a4-4b1e-9dc3-5894ac4bda0a","system_id":"levelo_inurba_marseille","lat":43.29791,"lon":5.37253,"is_reserved":false,"is_disabled":true,"rental_uris":{"android":"levelo://app?vid=74dc27b5-e2a4-4b1e-9dc3-5894ac4bda0a","ios":"levelo://app?vid=74dc27b5-e2a4-4b1e-9dc3-5894ac4bda0a"},"vehicle_type_id":"4","last_reported":1734624653,"current_range_meters":1200,"station_id":"","pricing_plan_id":"cebpf4jnsgd1na2vs0mg"},{"bike_id":"01e1e353-dd42-43e0-af69-a2b8bd5f2b26","system_id":"levelo_inurba_marseille","lat":43.25942,"lon":5.409,"is_reserved":false,"is_disabled":false,"rental_uris":{"android":"levelo://app?vid=01e1e353-dd42-43e0-af69-a2b8bd5f2b26","ios":"levelo://app?vid=01e1e353-dd42-43e0-af69-a2b8bd5f2b26"},"vehicle_type_id":"4","last_reported":1734624653,"current_range_meters":8000,"station_id":"ce4bhm92rcd13ifvqglg","pricing_plan_id":"cebpf4jnsgd1na2vs0mg"},{"bike_id":"8e695b46-454b-450a-b40d-26a9d4fadb2c","system_id":"levelo_inurba_marseille","lat":43.29422,"lon":5.38622,"is_reserved":false,"is_disabled":false,"rental_uris":{"android":"levelo://app?vid=8e695b46-454b-450a-b40d-26a9d4fadb2c","ios":"levelo://app?vid=8e695b46-454b-450a-b40d-26a9d4fadb2c"},"vehicle_type_id":"4","last_reported":1734624653,"current_range_meters":12800,"station_id":"ce4bh2h2rcd13ifvqdh0","pricing_plan_id":"cebpf4jnsgd1na2vs0mg"},{"bike_id":"0ac45d5e-f762-4ed7-ad2d-13180b287ea1","system_id":"levelo_inurba_marseille","lat":43.315,"lon":5.3726,"is_reserved":false,"is_disabled":false,"rental_uris":{"android":"levelo://app?vid=0ac45d5e-f762-4ed7-ad2d-13180b287ea1","ios":"levelo://app?vid=0ac45d5e-f762-4ed7-ad2d-13180b287ea1"},"vehicle_type_id":"4","last_reported":1734624653,"current_range_meters":8800,"station_id":"ce4bgt12rcd13ifvqcd0","pricing_plan_id":"cebpf4jnsgd1na2vs0mg"},{"bike_id":"0b3c962c-40d1-4375-b60d-644d72aaacf1","system_id":"levelo_inurba_marseille","lat":43.28012,"lon":5.40403,"is_reserved":false,"is_disabled":true,"rental_uris":{"android":"levelo://app?vid=0b3c962c-40d1-4375-b60d-644d72aaacf1","ios":"levelo://app?vid=0b3c962c-40d1-4375-b60d-644d72aaacf1"},"vehicle_type_id":"4","last_reported":1734624653,"current_range_meters":0,"station_id":"","pricing_plan_id":"cebpf4jnsgd1na2vs0mg"},{"bike_id":"5604b402-a1a6-4832-8b31-f278e268baec","system_id":"levelo_inurba_marseille","lat":43.29261,"lon":5.38437,"is_reserved":false,"is_disabled":false,"rental_uris":{"android":"levelo://app?vid=5604b402-a1a6-4832-8b31-f278e268baec","ios":"levelo://app?vid=5604b402-a1a6-4832-8b31-f278e268baec"},"vehicle_type_id":"4","last_reported":1734624653,"current_range_meters":8400,"station_id":"ce4bh692rcd13ifvqea0","pricing_plan_id":"cebpf4jnsgd1na2vs0mg"},{"bike_id":"19d60a5c-bc41-41e3-ab92-442bf2c302b1","system_id":"levelo_inurba_marseille","lat":43.2315,"lon":5.4371,"is_reserved":false,"is_disabled":false,"rental_uris":{"android":"levelo://app?vid=19d60a5c-bc41-41e3-ab92-442bf2c302b1","ios":"levelo://app?vid=19d60a5c-bc41-41e3-ab92-442bf2c302b1"},"vehicle_type_id":"4","last_reported":1734624653,"current_range_meters":38800,"station_id":"ce4bhmp2rcd13ifvqgog","pricing_plan_id":"cebpf4jnsgd1na2vs0mg"},{"bike_id":"53216bc0-db19-436b-803c-24b87a4c95f3","system_id":"levelo_inurba_marseille","lat":43.32491,"lon":5.36627,"is_reserved":false,"is_disabled":false,"rental_uris":{"android":"levelo://app?vid=53216bc0-db19-436b-803c-24b87a4c95f3","ios":"levelo://app?vid=53216bc0-db19-436b-803c-24b87a4c95f3"},"vehicle_type_id":"4","last_reported":1734624653,"current_range_meters":39200,"station_id":"ce4bhs12rcd13ifvqhvg","pricing_plan_id":"cebpf4jnsgd1na2vs0mg"},{"bike_id":"0a1158df-3962-4a5e-9dc8-fd4a787745b4","system_id":"levelo_inurba_marseille","lat":43.28415,"lon":5.34982,"is_reserved":false,"is_disabled":false,"rental_uris":{"android":"levelo://app?vid=0a1158df-3962-4a5e-9dc8-fd4a787745b4","ios":"levelo://app?vid=0a1158df-3962-4a5e-9dc8-fd4a787745b4"},"vehicle_type_id":"4","last_reported":1734624653,"current_range_meters":32000,"station_id":"ce4bhbh2rcd13ifvqepg","pricing_plan_id":"cebpf4jnsgd1na2vs0mg"},{"bike_id":"71f5eaf4-b4f1-4fb8-9144-1ec41f037546","system_id":"levelo_inurba_marseille","lat":43.25058,"lon":5.39486,"is_reserved":false,"is_disabled":true,"rental_uris":{"android":"levelo://app?vid=71f5eaf4-b4f1-4fb8-9144-1ec41f037546","ios":"levelo://app?vid=71f5eaf4-b4f1-4fb8-9144-1ec41f037546"},"vehicle_type_id":"4","last_reported":1734624653,"current_range_meters":1200,"station_id":"","pricing_plan_id":"cebpf4jnsgd1na2vs0mg"},{"bike_id":"3417d897-84a9-44ba-81ef-40200cfed818","system_id":"levelo_inurba_marseille","lat":43.25735,"lon":5.41081,"is_reserved":false,"is_disabled":false,"rental_uris":{"android":"levelo://app?vid=3417d897-84a9-44ba-81ef-40200cfed818","ios":"levelo://app?vid=3417d897-84a9-44ba-81ef-40200cfed818"},"vehicle_type_id":"4","last_reported":1734624653,"current_range_meters":38800,"station_id":"ce4bhkp2rcd13ifvqgd0","pricing_plan_id":"cebpf4jnsgd1na2vs0mg"},{"bike_id":"53c5dd90-208e-4b14-9aec-3133385e99e3","system_id":"levelo_inurba_marseille","lat":43.29563,"lon":5.4228,"is_reserved":false,"is_disabled":false,"rental_uris":{"android":"levelo://app?vid=53c5dd90-208e-4b14-9aec-3133385e99e3","ios":"levelo://app?vid=53c5dd90-208e-4b14-9aec-3133385e99e3"},"vehicle_type_id":"4","last_reported":1734624653,"current_range_meters":38800,"station_id":"ce4bhph2rcd13ifvqhdg","pricing_plan_id":"cebpf4jnsgd1na2vs0mg"},{"bike_id":"b8ab8a40-a2b4-425d-a9ba-0fdbe3a77b74","system_id":"levelo_inurba_marseille","lat":43.3152,"lon":5.37494,"is_reserved":false,"is_disabled":false,"rental_uris":{"android":"levelo://app?vid=b8ab8a40-a2b4-425d-a9ba-0fdbe3a77b74","ios":"levelo://app?vid=b8ab8a40-a2b4-425d-a9ba-0fdbe3a77b74"},"vehicle_type_id":"4","last_reported":1734624653,"current_range_meters":27200,"station_id":"","pricing_plan_id":"cebpf4jnsgd1na2vs0mg"},{"bike_id":"41d4d63c-1601-40b8-9c24-4e8eca1ea969","system_id":"levelo_inurba_marseille","lat":43.31702,"lon":5.37811,"is_reserved":false,"is_disabled":false,"rental_uris":{"android":"levelo://app?vid=41d4d63c-1601-40b8-9c24-4e8eca1ea969","ios":"levelo://app?vid=41d4d63c-1601-40b8-9c24-4e8eca1ea969"},"vehicle_type_id":"4","last_reported":1734624653,"current_range_meters":38800,"station_id":"","pricing_plan_id":"cebpf4jnsgd1na2vs0mg"},{"bike_id":"a38b5197-12b5-4d65-901b-5553cda027e0","system_id":"levelo_inurba_marseille","lat":43.29581,"lon":5.36738,"is_reserved":false,"is_disabled":false,"rental_uris":{"android":"levelo://app?vid=a38b5197-12b5-4d65-901b-5553cda027e0","ios":"levelo://app?vid=a38b5197-12b5-4d65-901b-5553cda027e0"},"vehicle_type_id":"4","last_reported":1734624653,"current_range_meters":9200,"station_id":"ce4bgph2rcd13ifvqc2g","pricing_plan_id":"cebpf4jnsgd1na2vs0mg"},{"bike_id":"16ee898a-11b1-4a57-a8e2-3aa3e6a8c06f","system_id":"levelo_inurba_marseille","lat":43.241823,"lon":5.397281,"is_reserved":false,"is_disabled":false,"rental_uris":{"android":"levelo://app?vid=16ee898a-11b1-4a57-a8e2-3aa3e6a8c06f","ios":"levelo://app?vid=16ee898a-11b1-4a57-a8e2-3aa3e6a8c06f"},"vehicle_type_id":"4","last_reported":1734624653,"current_range_meters":18000,"station_id":"ce4bhn12rcd13ifvqgpg","pricing_plan_id":"cebpf4jnsgd1na2vs0mg"},{"bike_id":"429b2db9-8cf9-4bb7-a4ae-c68491391b8c","system_id":"levelo_inurba_marseille","lat":43.26556,"lon":5.37287,"is_reserved":false,"is_disabled":false,"rental_uris":{"android":"levelo://app?vid=429b2db9-8cf9-4bb7-a4ae-c68491391b8c","ios":"levelo://app?vid=429b2db9-8cf9-4bb7-a4ae-c68491391b8c"},"vehicle_type_id":"4","last_reported":1734624653,"current_range_meters":8800,"station_id":"ce4bhg12rcd13ifvqf70","pricing_plan_id":"cebpf4jnsgd1na2vs0mg"},{"bike_id":"d710d859-fe76-4a0a-8c73-3ab1d1b6bfd0","system_id":"levelo_inurba_marseille","lat":43.32664,"lon":5.40995,"is_reserved":false,"is_disabled":false,"rental_uris":{"android":"levelo://app?vid=d710d859-fe76-4a0a-8c73-3ab1d1b6bfd0","ios":"levelo://app?vid=d710d859-fe76-4a0a-8c73-3ab1d1b6bfd0"},"vehicle_type_id":"4","last_reported":1734624653,"current_range_meters":17200,"station_id":"ce4bhpp2rcd13ifvqhgg","pricing_plan_id":"cebpf4jnsgd1na2vs0mg"},{"bike_id":"d34bdf4f-71bc-4ae4-b273-f3852ddc692a","system_id":"levelo_inurba_marseille","lat":43.33756,"lon":5.37472,"is_reserved":false,"is_disabled":false,"rental_uris":{"android":"levelo://app?vid=d34bdf4f-71bc-4ae4-b273-f3852ddc692a","ios":"levelo://app?vid=d34bdf4f-71bc-4ae4-b273-f3852ddc692a"},"vehicle_type_id":"4","last_reported":1734624653,"current_range_meters":36800,"station_id":"","pricing_plan_id":"cebpf4jnsgd1na2vs0mg"},{"bike_id":"f64d73d0-f96c-4455-a454-0974d8a22425","system_id":"levelo_inurba_marseille","lat":43.30541,"lon":5.36708,"is_reserved":false,"is_disabled":true,"rental_uris":{"android":"levelo://app?vid=f64d73d0-f96c-4455-a454-0974d8a22425","ios":"levelo://app?vid=f64d73d0-f96c-4455-a454-0974d8a22425"},"vehicle_type_id":"4","last_reported":1734624653,"current_range_meters":0,"station_id":"ce4bgrp2rcd13ifvqc9g","pricing_plan_id":"cebpf4jnsgd1na2vs0mg"},{"bike_id":"40030e3d-8b64-4209-87ea-e6976f210686","system_id":"levelo_inurba_marseille","lat":43.25724,"lon":5.41108,"is_reserved":false,"is_disabled":false,"rental_uris":{"android":"levelo://app?vid=40030e3d-8b64-4209-87ea-e6976f210686","ios":"levelo://app?vid=40030e3d-8b64-4209-87ea-e6976f210686"},"vehicle_type_id":"4","last_reported":1734624653,"current_range_meters":27600,"station_id":"ce4bhkp2rcd13ifvqgd0","pricing_plan_id":"cebpf4jnsgd1na2vs0mg"},{"bike_id":"b042baac-48e3-41d4-beca-2c2cc4a183f1","system_id":"levelo_inurba_marseille","lat":43.23204,"lon":5.35553,"is_reserved":false,"is_disabled":false,"rental_uris":{"android":"levelo://app?vid=b042baac-48e3-41d4-beca-2c2cc4a183f1","ios":"levelo://app?vid=b042baac-48e3-41d4-beca-2c2cc4a183f1"},"vehicle_type_id":"4","last_reported":1734624653,"current_range_meters":38800,"station_id":"ce4bhu92rcd13ifvqi70","pricing_plan_id":"cebpf4jnsgd1na2vs0mg"},{"bike_id":"b808b292-b0f9-4254-b504-3d883ca79a75","system_id":"levelo_inurba_marseille","lat":43.29914,"lon":5.38148,"is_reserved":false,"is_disabled":false,"rental_uris":{"android":"levelo://app?vid=b808b292-b0f9-4254-b504-3d883ca79a75","ios":"levelo://app?vid=b808b292-b0f9-4254-b504-3d883ca79a75"},"vehicle_type_id":"4","last_reported":1734624653,"current_range_meters":27600,"station_id":"ce4bgj12rcd13ifvqbc0","pricing_plan_id":"cebpf4jnsgd1na2vs0mg"},{"bike_id":"b0a13592-7cce-4d9c-b407-7810a71613ab","system_id":"levelo_inurba_marseille","lat":43.28736,"lon":5.36078,"is_reserved":false,"is_disabled":false,"rental_uris":{"android":"levelo://app?vid=b0a13592-7cce-4d9c-b407-7810a71613ab","ios":"levelo://app?vid=b0a13592-7cce-4d9c-b407-7810a71613ab"},"vehicle_type_id":"4","last_reported":1734624653,"current_range_meters":37600,"station_id":"cki0cbj6b192h4jlfktg","pricing_plan_id":"cebpf4jnsgd1na2vs0mg"},{"bike_id":"d8f5e76e-f9f7-4677-b4d2-89d449c9f02e","system_id":"levelo_inurba_marseille","lat":43.29895,"lon":5.43672,"is_reserved":false,"is_disabled":false,"rental_uris":{"android":"levelo://app?vid=d8f5e76e-f9f7-4677-b4d2-89d449c9f02e","ios":"levelo://app?vid=d8f5e76e-f9f7-4677-b4d2-89d449c9f02e"},"vehicle_type_id":"4","last_reported":1734624653,"current_range_meters":12800,"station_id":"ce4bhpp2rcd13ifvqhfg","pricing_plan_id":"cebpf4jnsgd1na2vs0mg"},{"bike_id":"8c4ecedf-c52e-488a-b2f9-f8570f79cdde","system_id":"levelo_inurba_marseille","lat":43.28083,"lon":5.39661,"is_reserved":false,"is_disabled":false,"rental_uris":{"android":"levelo://app?vid=8c4ecedf-c52e-488a-b2f9-f8570f79cdde","ios":"levelo://app?vid=8c4ecedf-c52e-488a-b2f9-f8570f79cdde"},"vehicle_type_id":"4","last_reported":1734624653,"current_range_meters":14800,"station_id":"ce4bho12rcd13ifvqh2g","pricing_plan_id":"cebpf4jnsgd1na2vs0mg"},{"bike_id":"33900208-cbcc-44c7-a93a-e8ccb167dd7c","system_id":"levelo_inurba_marseille","lat":43.25581,"lon":5.38243,"is_reserved":false,"is_disabled":true,"rental_uris":{"android":"levelo://app?vid=33900208-cbcc-44c7-a93a-e8ccb167dd7c","ios":"levelo://app?vid=33900208-cbcc-44c7-a93a-e8ccb167dd7c"},"vehicle_type_id":"4","last_reported":1734624653,"current_range_meters":0,"station_id":"ce4bhih2rcd13ifvqfs0","pricing_plan_id":"cebpf4jnsgd1na2vs0mg"},{"bike_id":"2c1c15aa-8557-4961-9172-ea0ea2d66d1e","system_id":"levelo_inurba_marseille","lat":43.28939,"lon":5.36402,"is_reserved":false,"is_disabled":false,"rental_uris":{"android":"levelo://app?vid=2c1c15aa-8557-4961-9172-ea0ea2d66d1e","ios":"levelo://app?vid=2c1c15aa-8557-4961-9172-ea0ea2d66d1e"},"vehicle_type_id":"4","last_reported":1734624653,"current_range_meters":22000,"station_id":"ce4bhc92rcd13ifvqetg","pricing_plan_id":"cebpf4jnsgd1na2vs0mg"},{"bike_id":"7d8b4789-db38-4881-a12e-8303c1c118b0","system_id":"levelo_inurba_marseille","lat":43.30344,"lon":5.36648,"is_reserved":false,"is_disabled":false,"rental_uris":{"android":"levelo://app?vid=7d8b4789-db38-4881-a12e-8303c1c118b0","ios":"levelo://app?vid=7d8b4789-db38-4881-a12e-8303c1c118b0"},"vehicle_type_id":"4","last_reported":1734624653,"current_range_meters":28800,"station_id":"","pricing_plan_id":"cebpf4jnsgd1na2vs0mg"},{"bike_id":"77592e58-7330-482c-98aa-1362dec7556c","system_id":"levelo_inurba_marseille","lat":43.30527,"lon":5.36546,"is_reserved":false,"is_disabled":false,"rental_uris":{"android":"levelo://app?vid=77592e58-7330-482c-98aa-1362dec7556c","ios":"levelo://app?vid=77592e58-7330-482c-98aa-1362dec7556c"},"vehicle_type_id":"4","last_reported":1734624653,"current_range_meters":39200,"station_id":"ce4bgs12rcd13ifvqcag","pricing_plan_id":"cebpf4jnsgd1na2vs0mg"},{"bike_id":"88f760db-9d34-4b65-94e3-6635df5aa372","system_id":"levelo_inurba_marseille","lat":43.29027,"lon":5.3756,"is_reserved":false,"is_disabled":false,"rental_uris":{"android":"levelo://app?vid=88f760db-9d34-4b65-94e3-6635df5aa372","ios":"levelo://app?vid=88f760db-9d34-4b65-94e3-6635df5aa372"},"vehicle_type_id":"4","last_reported":1734624653,"current_range_meters":22000,"station_id":"ce4bh692rcd13ifvqe90","pricing_plan_id":"cebpf4jnsgd1na2vs0mg"},{"bike_id":"ec28807b-2eac-4ab4-b0b0-7c41b80ca39a","system_id":"levelo_inurba_marseille","lat":43.27813,"lon":5.40713,"is_reserved":false,"is_disabled":false,"rental_uris":{"android":"levelo://app?vid=ec28807b-2eac-4ab4-b0b0-7c41b80ca39a","ios":"levelo://app?vid=ec28807b-2eac-4ab4-b0b0-7c41b80ca39a"},"vehicle_type_id":"4","last_reported":1734624653,"current_range_meters":16000,"station_id":"ce4bhnh2rcd13ifvqgtg","pricing_plan_id":"cebpf4jnsgd1na2vs0mg"},{"bike_id":"ef2e42d7-adfb-4e08-8992-94a17c47e449","system_id":"levelo_inurba_marseille","lat":43.26201,"lon":5.3793,"is_reserved":false,"is_disabled":false,"rental_uris":{"android":"levelo://app?vid=ef2e42d7-adfb-4e08-8992-94a17c47e449","ios":"levelo://app?vid=ef2e42d7-adfb-4e08-8992-94a17c47e449"},"vehicle_type_id":"4","last_reported":1734624653,"current_range_meters":22400,"station_id":"ce4bhjp2rcd13ifvqg90","pricing_plan_id":"cebpf4jnsgd1na2vs0mg"},{"bike_id":"2b91e3a0-9d3f-498e-b645-c6185ef99888","system_id":"levelo_inurba_marseille","lat":43.28704,"lon":5.39985,"is_reserved":false,"is_disabled":false,"rental_uris":{"android":"levelo://app?vid=2b91e3a0-9d3f-498e-b645-c6185ef99888","ios":"levelo://app?vid=2b91e3a0-9d3f-498e-b645-c6185ef99888"},"vehicle_type_id":"4","last_reported":1734624653,"current_range_meters":19600,"station_id":"ce4bho92rcd13ifvqh3g","pricing_plan_id":"cebpf4jnsgd1na2vs0mg"},{"bike_id":"63cff5eb-1415-48a9-b127-707db35946f5","system_id":"levelo_inurba_marseille","lat":43.27825,"lon":5.39203,"is_reserved":false,"is_disabled":true,"rental_uris":{"android":"levelo://app?vid=63cff5eb-1415-48a9-b127-707db35946f5","ios":"levelo://app?vid=63cff5eb-1415-48a9-b127-707db35946f5"},"vehicle_type_id":"4","last_reported":1734624653,"current_range_meters":0,"station_id":"ce4bhjp2rcd13ifvqga0","pricing_plan_id":"cebpf4jnsgd1na2vs0mg"},{"bike_id":"c5d3dda4-9397-4823-9c8b-ea8eda2ab949","system_id":"levelo_inurba_marseille","lat":43.23964,"lon":5.36637,"is_reserved":false,"is_disabled":false,"rental_uris":{"android":"levelo://app?vid=c5d3dda4-9397-4823-9c8b-ea8eda2ab949","ios":"levelo://app?vid=c5d3dda4-9397-4823-9c8b-ea8eda2ab949"},"vehicle_type_id":"4","last_reported":1734624653,"current_range_meters":38000,"station_id":"ce4bhi12rcd13ifvqfp0","pricing_plan_id":"cebpf4jnsgd1na2vs0mg"},{"bike_id":"7fd59132-6ad1-4566-9810-9e39032f69c5","system_id":"levelo_inurba_marseille","lat":43.2919,"lon":5.39319,"is_reserved":false,"is_disabled":false,"rental_uris":{"android":"levelo://app?vid=7fd59132-6ad1-4566-9810-9e39032f69c5","ios":"levelo://app?vid=7fd59132-6ad1-4566-9810-9e39032f69c5"},"vehicle_type_id":"4","last_reported":1734624653,"current_range_meters":32000,"station_id":"ce4bh192rcd13ifvqdd0","pricing_plan_id":"cebpf4jnsgd1na2vs0mg"},{"bike_id":"0d4cf357-cd32-43d3-8971-89a7a2f06824","system_id":"levelo_inurba_marseille","lat":43.25573,"lon":5.38239,"is_reserved":false,"is_disabled":false,"rental_uris":{"android":"levelo://app?vid=0d4cf357-cd32-43d3-8971-89a7a2f06824","ios":"levelo://app?vid=0d4cf357-cd32-43d3-8971-89a7a2f06824"},"vehicle_type_id":"4","last_reported":1734624653,"current_range_meters":36800,"station_id":"ce4bhih2rcd13ifvqfs0","pricing_plan_id":"cebpf4jnsgd1na2vs0mg"},{"bike_id":"7094a23c-c35f-45f7-8004-7f866e8eae59","system_id":"levelo_inurba_marseille","lat":43.28151,"lon":5.42622,"is_reserved":false,"is_disabled":true,"rental_uris":{"android":"levelo://app?vid=7094a23c-c35f-45f7-8004-7f866e8eae59","ios":"levelo://app?vid=7094a23c-c35f-45f7-8004-7f866e8eae59"},"vehicle_type_id":"4","last_reported":1734624653,"current_range_meters":400,"station_id":"ce4bhnh2rcd13ifvqgug","pricing_plan_id":"cebpf4jnsgd1na2vs0mg"},{"bike_id":"b11dec3c-37ae-4e5f-a182-7db8571c22d2","system_id":"levelo_inurba_marseille","lat":43.298973,"lon":5.436584,"is_reserved":false,"is_disabled":false,"rental_uris":{"android":"levelo://app?vid=b11dec3c-37ae-4e5f-a182-7db8571c22d2","ios":"levelo://app?vid=b11dec3c-37ae-4e5f-a182-7db8571c22d2"},"vehicle_type_id":"4","last_reported":1734624653,"current_range_meters":36000,"station_id":"ce4bhpp2rcd13ifvqhfg","pricing_plan_id":"cebpf4jnsgd1na2vs0mg"},{"bike_id":"d4aa1161-b39f-4e04-9b26-9b7a54962176","system_id":"levelo_inurba_marseille","lat":43.27615,"lon":5.36123,"is_reserved":false,"is_disabled":false,"rental_uris":{"android":"levelo://app?vid=d4aa1161-b39f-4e04-9b26-9b7a54962176","ios":"levelo://app?vid=d4aa1161-b39f-4e04-9b26-9b7a54962176"},"vehicle_type_id":"4","last_reported":1734624653,"current_range_meters":38800,"station_id":"ce4bgj92rcd13ifvqbe0","pricing_plan_id":"cebpf4jnsgd1na2vs0mg"},{"bike_id":"72492ff3-d3e5-4b81-822b-1d3357339451","system_id":"levelo_inurba_marseille","lat":43.29096,"lon":5.39901,"is_reserved":false,"is_disabled":true,"rental_uris":{"android":"levelo://app?vid=72492ff3-d3e5-4b81-822b-1d3357339451","ios":"levelo://app?vid=72492ff3-d3e5-4b81-822b-1d3357339451"},"vehicle_type_id":"4","last_reported":1734624653,"current_range_meters":35600,"station_id":"","pricing_plan_id":"cebpf4jnsgd1na2vs0mg"},{"bike_id":"fd2e863c-53c2-4c16-8923-fd7b51535967","system_id":"levelo_inurba_marseille","lat":43.30157,"lon":5.38082,"is_reserved":false,"is_disabled":false,"rental_uris":{"android":"levelo://app?vid=fd2e863c-53c2-4c16-8923-fd7b51535967","ios":"levelo://app?vid=fd2e863c-53c2-4c16-8923-fd7b51535967"},"vehicle_type_id":"4","last_reported":1734624653,"current_range_meters":33600,"station_id":"ce4bgjp2rcd13ifvqbh0","pricing_plan_id":"cebpf4jnsgd1na2vs0mg"},{"bike_id":"59d45aff-f726-4d98-81df-81361b6c220a","system_id":"levelo_inurba_marseille","lat":43.26942,"lon":5.40249,"is_reserved":false,"is_disabled":false,"rental_uris":{"android":"levelo://app?vid=59d45aff-f726-4d98-81df-81361b6c220a","ios":"levelo://app?vid=59d45aff-f726-4d98-81df-81361b6c220a"},"vehicle_type_id":"4","last_reported":1734624653,"current_range_meters":25200,"station_id":"cjm6bp8fraef2m0cb0m0","pricing_plan_id":"cebpf4jnsgd1na2vs0mg"},{"bike_id":"0f3da345-3249-4689-b795-18514bf7bd60","system_id":"levelo_inurba_marseille","lat":43.28852,"lon":5.35861,"is_reserved":false,"is_disabled":false,"rental_uris":{"android":"levelo://app?vid=0f3da345-3249-4689-b795-18514bf7bd60","ios":"levelo://app?vid=0f3da345-3249-4689-b795-18514bf7bd60"},"vehicle_type_id":"4","last_reported":1734624653,"current_range_meters":30400,"station_id":"ce4bhb12rcd13ifvqem0","pricing_plan_id":"cebpf4jnsgd1na2vs0mg"},{"bike_id":"92dbe881-4d12-4807-9474-87af83394dc5","system_id":"levelo_inurba_marseille","lat":43.31353,"lon":5.36698,"is_reserved":false,"is_disabled":false,"rental_uris":{"android":"levelo://app?vid=92dbe881-4d12-4807-9474-87af83394dc5","ios":"levelo://app?vid=92dbe881-4d12-4807-9474-87af83394dc5"},"vehicle_type_id":"4","last_reported":1734624653,"current_range_meters":33600,"station_id":"ce4bgr92rcd13ifvqc6g","pricing_plan_id":"cebpf4jnsgd1na2vs0mg"},{"bike_id":"78471806-92f3-4670-9c4a-cbf55d75e3f8","system_id":"levelo_inurba_marseille","lat":43.32453,"lon":5.36529,"is_reserved":false,"is_disabled":false,"rental_uris":{"android":"levelo://app?vid=78471806-92f3-4670-9c4a-cbf55d75e3f8","ios":"levelo://app?vid=78471806-92f3-4670-9c4a-cbf55d75e3f8"},"vehicle_type_id":"4","last_reported":1734624653,"current_range_meters":38800,"station_id":"ce4bhs12rcd13ifvqhvg","pricing_plan_id":"cebpf4jnsgd1na2vs0mg"},{"bike_id":"27a5732b-7660-49de-bd23-7b76d3ea5fc7","system_id":"levelo_inurba_marseille","lat":43.30616,"lon":5.37239,"is_reserved":false,"is_disabled":false,"rental_uris":{"android":"levelo://app?vid=27a5732b-7660-49de-bd23-7b76d3ea5fc7","ios":"levelo://app?vid=27a5732b-7660-49de-bd23-7b76d3ea5fc7"},"vehicle_type_id":"4","last_reported":1734624653,"current_range_meters":38800,"station_id":"ce4bgqh2rcd13ifvqc4g","pricing_plan_id":"cebpf4jnsgd1na2vs0mg"},{"bike_id":"e2980121-edb5-47f2-83b7-4d5cb5b86a4e","system_id":"levelo_inurba_marseille","lat":43.30148,"lon":5.38088,"is_reserved":false,"is_disabled":false,"rental_uris":{"android":"levelo://app?vid=e2980121-edb5-47f2-83b7-4d5cb5b86a4e","ios":"levelo://app?vid=e2980121-edb5-47f2-83b7-4d5cb5b86a4e"},"vehicle_type_id":"4","last_reported":1734624653,"current_range_meters":29600,"station_id":"ce4bgjp2rcd13ifvqbh0","pricing_plan_id":"cebpf4jnsgd1na2vs0mg"},{"bike_id":"370b1eb6-4f45-4760-84c5-106172693f5d","system_id":"levelo_inurba_marseille","lat":43.23959,"lon":5.36636,"is_reserved":false,"is_disabled":false,"rental_uris":{"android":"levelo://app?vid=370b1eb6-4f45-4760-84c5-106172693f5d","ios":"levelo://app?vid=370b1eb6-4f45-4760-84c5-106172693f5d"},"vehicle_type_id":"4","last_reported":1734624653,"current_range_meters":27600,"station_id":"ce4bhi12rcd13ifvqfp0","pricing_plan_id":"cebpf4jnsgd1na2vs0mg"},{"bike_id":"782bcbf2-b7de-4b04-bebc-aaa0329dd90c","system_id":"levelo_inurba_marseille","lat":43.232,"lon":5.35549,"is_reserved":false,"is_disabled":false,"rental_uris":{"android":"levelo://app?vid=782bcbf2-b7de-4b04-bebc-aaa0329dd90c","ios":"levelo://app?vid=782bcbf2-b7de-4b04-bebc-aaa0329dd90c"},"vehicle_type_id":"4","last_reported":1734624653,"current_range_meters":38800,"station_id":"ce4bhu92rcd13ifvqi70","pricing_plan_id":"cebpf4jnsgd1na2vs0mg"},{"bike_id":"ffac3c8c-b03e-405d-9ca5-da4d8ecc73cd","system_id":"levelo_inurba_marseille","lat":43.31116,"lon":5.37764,"is_reserved":false,"is_disabled":false,"rental_uris":{"android":"levelo://app?vid=ffac3c8c-b03e-405d-9ca5-da4d8ecc73cd","ios":"levelo://app?vid=ffac3c8c-b03e-405d-9ca5-da4d8ecc73cd"},"vehicle_type_id":"4","last_reported":1734624653,"current_range_meters":21600,"station_id":"ce4bgt92rcd13ifvqcg0","pricing_plan_id":"cebpf4jnsgd1na2vs0mg"},{"bike_id":"97bdedfb-0eca-4ba9-9cbc-e30e49190c4e","system_id":"levelo_inurba_marseille","lat":43.28426,"lon":5.34977,"is_reserved":false,"is_disabled":false,"rental_uris":{"android":"levelo://app?vid=97bdedfb-0eca-4ba9-9cbc-e30e49190c4e","ios":"levelo://app?vid=97bdedfb-0eca-4ba9-9cbc-e30e49190c4e"},"vehicle_type_id":"4","last_reported":1734624653,"current_range_meters":30400,"station_id":"ce4bhbh2rcd13ifvqepg","pricing_plan_id":"cebpf4jnsgd1na2vs0mg"},{"bike_id":"b6ef7654-9bbe-4bb8-b52c-88b5be1a2fc0","system_id":"levelo_inurba_marseille","lat":43.306,"lon":5.37212,"is_reserved":false,"is_disabled":false,"rental_uris":{"android":"levelo://app?vid=b6ef7654-9bbe-4bb8-b52c-88b5be1a2fc0","ios":"levelo://app?vid=b6ef7654-9bbe-4bb8-b52c-88b5be1a2fc0"},"vehicle_type_id":"4","last_reported":1734624653,"current_range_meters":30000,"station_id":"ce4bgqh2rcd13ifvqc4g","pricing_plan_id":"cebpf4jnsgd1na2vs0mg"},{"bike_id":"96ff88dc-8cf7-4b0f-a345-fa00220da932","system_id":"levelo_inurba_marseille","lat":43.27418,"lon":5.42402,"is_reserved":false,"is_disabled":true,"rental_uris":{"android":"levelo://app?vid=96ff88dc-8cf7-4b0f-a345-fa00220da932","ios":"levelo://app?vid=96ff88dc-8cf7-4b0f-a345-fa00220da932"},"vehicle_type_id":"4","last_reported":1734624653,"current_range_meters":0,"station_id":"","pricing_plan_id":"cebpf4jnsgd1na2vs0mg"},{"bike_id":"d5c0e746-a9fa-4159-b28f-7d6a3cba6cea","system_id":"levelo_inurba_marseille","lat":43.24414,"lon":5.37061,"is_reserved":false,"is_disabled":false,"rental_uris":{"android":"levelo://app?vid=d5c0e746-a9fa-4159-b28f-7d6a3cba6cea","ios":"levelo://app?vid=d5c0e746-a9fa-4159-b28f-7d6a3cba6cea"},"vehicle_type_id":"4","last_reported":1734624653,"current_range_meters":14000,"station_id":"ce4bhhh2rcd13ifvqfk0","pricing_plan_id":"cebpf4jnsgd1na2vs0mg"},{"bike_id":"f6a0097d-208c-4ed5-9b7e-280c6a0f27f2","system_id":"levelo_inurba_marseille","lat":43.31269,"lon":5.40175,"is_reserved":false,"is_disabled":false,"rental_uris":{"android":"levelo://app?vid=f6a0097d-208c-4ed5-9b7e-280c6a0f27f2","ios":"levelo://app?vid=f6a0097d-208c-4ed5-9b7e-280c6a0f27f2"},"vehicle_type_id":"4","last_reported":1734624653,"current_range_meters":8000,"station_id":"ce4bh092rcd13ifvqd30","pricing_plan_id":"cebpf4jnsgd1na2vs0mg"},{"bike_id":"dc9cbeaa-ba82-4d35-b6eb-96bb4c85e3d1","system_id":"levelo_inurba_marseille","lat":43.29695,"lon":5.37701,"is_reserved":false,"is_disabled":false,"rental_uris":{"android":"levelo://app?vid=dc9cbeaa-ba82-4d35-b6eb-96bb4c85e3d1","ios":"levelo://app?vid=dc9cbeaa-ba82-4d35-b6eb-96bb4c85e3d1"},"vehicle_type_id":"4","last_reported":1734624653,"current_range_meters":6400,"station_id":"ce4bgkh2rcd13ifvqbl0","pricing_plan_id":"cebpf4jnsgd1na2vs0mg"},{"bike_id":"65332c14-8f41-4f1a-b711-08ad210242f2","system_id":"levelo_inurba_marseille","lat":43.29598,"lon":5.38092,"is_reserved":false,"is_disabled":false,"rental_uris":{"android":"levelo://app?vid=65332c14-8f41-4f1a-b711-08ad210242f2","ios":"levelo://app?vid=65332c14-8f41-4f1a-b711-08ad210242f2"},"vehicle_type_id":"4","last_reported":1734624653,"current_range_meters":35600,"station_id":"ce4bgl12rcd13ifvqbo0","pricing_plan_id":"cebpf4jnsgd1na2vs0mg"},{"bike_id":"54192533-5d8e-4958-bceb-50e5da614992","system_id":"levelo_inurba_marseille","lat":43.330203,"lon":5.3904,"is_reserved":false,"is_disabled":false,"rental_uris":{"android":"levelo://app?vid=54192533-5d8e-4958-bceb-50e5da614992","ios":"levelo://app?vid=54192533-5d8e-4958-bceb-50e5da614992"},"vehicle_type_id":"4","last_reported":1734624653,"current_range_meters":38800,"station_id":"ce4bhr92rcd13ifvqhrg","pricing_plan_id":"cebpf4jnsgd1na2vs0mg"},{"bike_id":"44127e4e-8e84-4a38-89f7-8f4efb63f7a5","system_id":"levelo_inurba_marseille","lat":43.31198,"lon":5.36778,"is_reserved":false,"is_disabled":true,"rental_uris":{"android":"levelo://app?vid=44127e4e-8e84-4a38-89f7-8f4efb63f7a5","ios":"levelo://app?vid=44127e4e-8e84-4a38-89f7-8f4efb63f7a5"},"vehicle_type_id":"4","last_reported":1734624653,"current_range_meters":400,"station_id":"","pricing_plan_id":"cebpf4jnsgd1na2vs0mg"},{"bike_id":"18a50c5e-4fb0-4378-8bc5-370c93769e46","system_id":"levelo_inurba_marseille","lat":43.29555,"lon":5.42293,"is_reserved":false,"is_disabled":false,"rental_uris":{"android":"levelo://app?vid=18a50c5e-4fb0-4378-8bc5-370c93769e46","ios":"levelo://app?vid=18a50c5e-4fb0-4378-8bc5-370c93769e46"},"vehicle_type_id":"4","last_reported":1734624653,"current_range_meters":34000,"station_id":"ce4bhph2rcd13ifvqhdg","pricing_plan_id":"cebpf4jnsgd1na2vs0mg"},{"bike_id":"6754465b-8ec1-4291-a363-dc0c75d1552e","system_id":"levelo_inurba_marseille","lat":43.24419,"lon":5.37083,"is_reserved":false,"is_disabled":false,"rental_uris":{"android":"levelo://app?vid=6754465b-8ec1-4291-a363-dc0c75d1552e","ios":"levelo://app?vid=6754465b-8ec1-4291-a363-dc0c75d1552e"},"vehicle_type_id":"4","last_reported":1734624653,"current_range_meters":34800,"station_id":"ce4bhhh2rcd13ifvqfk0","pricing_plan_id":"cebpf4jnsgd1na2vs0mg"},{"bike_id":"ec9ccacb-52f3-4e77-a8ae-bd921a28ef88","system_id":"levelo_inurba_marseille","lat":43.31259,"lon":5.36823,"is_reserved":false,"is_disabled":false,"rental_uris":{"android":"levelo://app?vid=ec9ccacb-52f3-4e77-a8ae-bd921a28ef88","ios":"levelo://app?vid=ec9ccacb-52f3-4e77-a8ae-bd921a28ef88"},"vehicle_type_id":"4","last_reported":1734624653,"current_range_meters":38800,"station_id":"ce4bgl92rcd13ifvqbq0","pricing_plan_id":"cebpf4jnsgd1na2vs0mg"},{"bike_id":"1a7b9115-72aa-422e-8997-34cec9c28c6c","system_id":"levelo_inurba_marseille","lat":43.30878,"lon":5.39636,"is_reserved":false,"is_disabled":false,"rental_uris":{"android":"levelo://app?vid=1a7b9115-72aa-422e-8997-34cec9c28c6c","ios":"levelo://app?vid=1a7b9115-72aa-422e-8997-34cec9c28c6c"},"vehicle_type_id":"4","last_reported":1734624653,"current_range_meters":18800,"station_id":"ce4bh012rcd13ifvqcv0","pricing_plan_id":"cebpf4jnsgd1na2vs0mg"},{"bike_id":"6bd22364-bf1b-46ea-b049-40afc3dbecf5","system_id":"levelo_inurba_marseille","lat":43.29303,"lon":5.37456,"is_reserved":false,"is_disabled":false,"rental_uris":{"android":"levelo://app?vid=6bd22364-bf1b-46ea-b049-40afc3dbecf5","ios":"levelo://app?vid=6bd22364-bf1b-46ea-b049-40afc3dbecf5"},"vehicle_type_id":"4","last_reported":1734624653,"current_range_meters":31200,"station_id":"ce4bgi12rcd13ifvqb70","pricing_plan_id":"cebpf4jnsgd1na2vs0mg"},{"bike_id":"18a29cd0-640d-4f09-baa7-2ccf80368fd8","system_id":"levelo_inurba_marseille","lat":43.26936,"lon":5.38928,"is_reserved":false,"is_disabled":false,"rental_uris":{"android":"levelo://app?vid=18a29cd0-640d-4f09-baa7-2ccf80368fd8","ios":"levelo://app?vid=18a29cd0-640d-4f09-baa7-2ccf80368fd8"},"vehicle_type_id":"4","last_reported":1734624653,"current_range_meters":28400,"station_id":"ce4bhhh2rcd13ifvqfl0","pricing_plan_id":"cebpf4jnsgd1na2vs0mg"},{"bike_id":"62159b96-70de-4225-a341-fe8203f1c374","system_id":"levelo_inurba_marseille","lat":43.28943,"lon":5.39633,"is_reserved":false,"is_disabled":true,"rental_uris":{"android":"levelo://app?vid=62159b96-70de-4225-a341-fe8203f1c374","ios":"levelo://app?vid=62159b96-70de-4225-a341-fe8203f1c374"},"vehicle_type_id":"4","last_reported":1734624653,"current_range_meters":38400,"station_id":"ce4bh3h2rcd13ifvqdn0","pricing_plan_id":"cebpf4jnsgd1na2vs0mg"},{"bike_id":"faf00029-679b-42d6-9598-0b97c8087c24","system_id":"levelo_inurba_marseille","lat":43.29518,"lon":5.390398,"is_reserved":false,"is_disabled":false,"rental_uris":{"android":"levelo://app?vid=faf00029-679b-42d6-9598-0b97c8087c24","ios":"levelo://app?vid=faf00029-679b-42d6-9598-0b97c8087c24"},"vehicle_type_id":"4","last_reported":1734624653,"current_range_meters":32400,"station_id":"ce4bh3p2rcd13ifvqdp0","pricing_plan_id":"cebpf4jnsgd1na2vs0mg"},{"bike_id":"e0c2eddf-4ba9-4754-b0b5-efd80badee74","system_id":"levelo_inurba_marseille","lat":43.258678,"lon":5.39442,"is_reserved":false,"is_disabled":true,"rental_uris":{"android":"levelo://app?vid=e0c2eddf-4ba9-4754-b0b5-efd80badee74","ios":"levelo://app?vid=e0c2eddf-4ba9-4754-b0b5-efd80badee74"},"vehicle_type_id":"4","last_reported":1734624653,"current_range_meters":0,"station_id":"","pricing_plan_id":"cebpf4jnsgd1na2vs0mg"},{"bike_id":"c8a9df44-c9a1-43c7-addd-475d94f4c5ab","system_id":"levelo_inurba_marseille","lat":43.27314,"lon":5.3908,"is_reserved":false,"is_disabled":true,"rental_uris":{"android":"levelo://app?vid=c8a9df44-c9a1-43c7-addd-475d94f4c5ab","ios":"levelo://app?vid=c8a9df44-c9a1-43c7-addd-475d94f4c5ab"},"vehicle_type_id":"4","last_reported":1734624653,"current_range_meters":0,"station_id":"ce4bhgp2rcd13ifvqfe0","pricing_plan_id":"cebpf4jnsgd1na2vs0mg"},{"bike_id":"c42346d2-8ead-422a-8711-e75dd0bf9da6","system_id":"levelo_inurba_marseille","lat":43.29899,"lon":5.38153,"is_reserved":false,"is_disabled":false,"rental_uris":{"android":"levelo://app?vid=c42346d2-8ead-422a-8711-e75dd0bf9da6","ios":"levelo://app?vid=c42346d2-8ead-422a-8711-e75dd0bf9da6"},"vehicle_type_id":"4","last_reported":1734624653,"current_range_meters":30400,"station_id":"ce4bgj12rcd13ifvqbc0","pricing_plan_id":"cebpf4jnsgd1na2vs0mg"},{"bike_id":"4f621623-13c3-4e91-92e9-1ed205342968","system_id":"levelo_inurba_marseille","lat":43.30884,"lon":5.3963,"is_reserved":false,"is_disabled":false,"rental_uris":{"android":"levelo://app?vid=4f621623-13c3-4e91-92e9-1ed205342968","ios":"levelo://app?vid=4f621623-13c3-4e91-92e9-1ed205342968"},"vehicle_type_id":"4","last_reported":1734624653,"current_range_meters":36000,"station_id":"ce4bh012rcd13ifvqcv0","pricing_plan_id":"cebpf4jnsgd1na2vs0mg"},{"bike_id":"c4d32138-1613-4589-880b-cbe0df5ee929","system_id":"levelo_inurba_marseille","lat":43.25007,"lon":5.38916,"is_reserved":false,"is_disabled":false,"rental_uris":{"android":"levelo://app?vid=c4d32138-1613-4589-880b-cbe0df5ee929","ios":"levelo://app?vid=c4d32138-1613-4589-880b-cbe0df5ee929"},"vehicle_type_id":"4","last_reported":1734624653,"current_range_meters":38800,"station_id":"ce4bhgp2rcd13ifvqfd0","pricing_plan_id":"cebpf4jnsgd1na2vs0mg"},{"bike_id":"298b8445-2c9f-45b2-ac4e-9c28b3d5da22","system_id":"levelo_inurba_marseille","lat":43.31234,"lon":5.36868,"is_reserved":false,"is_disabled":false,"rental_uris":{"android":"levelo://app?vid=298b8445-2c9f-45b2-ac4e-9c28b3d5da22","ios":"levelo://app?vid=298b8445-2c9f-45b2-ac4e-9c28b3d5da22"},"vehicle_type_id":"4","last_reported":1734624653,"current_range_meters":35200,"station_id":"ce4bgl92rcd13ifvqbq0","pricing_plan_id":"cebpf4jnsgd1na2vs0mg"},{"bike_id":"aba4eea1-21a5-4719-aa99-28df366839e7","system_id":"levelo_inurba_marseille","lat":43.28669,"lon":5.36351,"is_reserved":false,"is_disabled":false,"rental_uris":{"android":"levelo://app?vid=aba4eea1-21a5-4719-aa99-28df366839e7","ios":"levelo://app?vid=aba4eea1-21a5-4719-aa99-28df366839e7"},"vehicle_type_id":"4","last_reported":1734624653,"current_range_meters":33600,"station_id":"ce4bhah2rcd13ifvqej0","pricing_plan_id":"cebpf4jnsgd1na2vs0mg"},{"bike_id":"0713692e-a260-408c-8f61-e4b7ea659aae","system_id":"levelo_inurba_marseille","lat":43.26795,"lon":5.39418,"is_reserved":false,"is_disabled":true,"rental_uris":{"android":"levelo://app?vid=0713692e-a260-408c-8f61-e4b7ea659aae","ios":"levelo://app?vid=0713692e-a260-408c-8f61-e4b7ea659aae"},"vehicle_type_id":"4","last_reported":1734624653,"current_range_meters":0,"station_id":"ce4bhh12rcd13ifvqfg0","pricing_plan_id":"cebpf4jnsgd1na2vs0mg"},{"bike_id":"3ddd787d-eb44-47d3-8b37-7d549b79ff15","system_id":"levelo_inurba_marseille","lat":43.290947,"lon":5.3858,"is_reserved":false,"is_disabled":false,"rental_uris":{"android":"levelo://app?vid=3ddd787d-eb44-47d3-8b37-7d549b79ff15","ios":"levelo://app?vid=3ddd787d-eb44-47d3-8b37-7d549b79ff15"},"vehicle_type_id":"4","last_reported":1734624653,"current_range_meters":28400,"station_id":"ce4bh4p2rcd13ifvqe0g","pricing_plan_id":"cebpf4jnsgd1na2vs0mg"},{"bike_id":"30cf218e-0565-4b4d-b831-6b6e7547fc40","system_id":"levelo_inurba_marseille","lat":43.26803,"lon":5.40265,"is_reserved":false,"is_disabled":true,"rental_uris":{"android":"levelo://app?vid=30cf218e-0565-4b4d-b831-6b6e7547fc40","ios":"levelo://app?vid=30cf218e-0565-4b4d-b831-6b6e7547fc40"},"vehicle_type_id":"4","last_reported":1734624653,"current_range_meters":800,"station_id":"ce501612rcd8frsf0b60","pricing_plan_id":"cebpf4jnsgd1na2vs0mg"},{"bike_id":"82184c6c-02ab-4506-879c-5f186eac192a","system_id":"levelo_inurba_marseille","lat":43.26045,"lon":5.37546,"is_reserved":false,"is_disabled":false,"rental_uris":{"android":"levelo://app?vid=82184c6c-02ab-4506-879c-5f186eac192a","ios":"levelo://app?vid=82184c6c-02ab-4506-879c-5f186eac192a"},"vehicle_type_id":"4","last_reported":1734624653,"current_range_meters":38000,"station_id":"ce4bhgh2rcd13ifvqfa0","pricing_plan_id":"cebpf4jnsgd1na2vs0mg"},{"bike_id":"1fbd3b32-8c99-4b84-b080-1bf16dac43f8","system_id":"levelo_inurba_marseille","lat":43.27054,"lon":5.40268,"is_reserved":false,"is_disabled":true,"rental_uris":{"android":"levelo://app?vid=1fbd3b32-8c99-4b84-b080-1bf16dac43f8","ios":"levelo://app?vid=1fbd3b32-8c99-4b84-b080-1bf16dac43f8"},"vehicle_type_id":"4","last_reported":1734624653,"current_range_meters":0,"station_id":"ce4bhk92rcd13ifvqgc0","pricing_plan_id":"cebpf4jnsgd1na2vs0mg"},{"bike_id":"4e2d8840-6440-4894-8e9f-69352edbaaf8","system_id":"levelo_inurba_marseille","lat":43.30135,"lon":5.3878,"is_reserved":false,"is_disabled":false,"rental_uris":{"android":"levelo://app?vid=4e2d8840-6440-4894-8e9f-69352edbaaf8","ios":"levelo://app?vid=4e2d8840-6440-4894-8e9f-69352edbaaf8"},"vehicle_type_id":"4","last_reported":1734624653,"current_range_meters":36800,"station_id":"ce4bghh2rcd13ifvqb60","pricing_plan_id":"cebpf4jnsgd1na2vs0mg"},{"bike_id":"25408bb4-7907-4c59-af3d-0850507dd733","system_id":"levelo_inurba_marseille","lat":43.29523,"lon":5.39401,"is_reserved":false,"is_disabled":false,"rental_uris":{"android":"levelo://app?vid=25408bb4-7907-4c59-af3d-0850507dd733","ios":"levelo://app?vid=25408bb4-7907-4c59-af3d-0850507dd733"},"vehicle_type_id":"4","last_reported":1734624653,"current_range_meters":38800,"station_id":"ce4bh292rcd13ifvqdf0","pricing_plan_id":"cebpf4jnsgd1na2vs0mg"},{"bike_id":"ee541765-428a-4bb1-bc90-f1a524fdccf5","system_id":"levelo_inurba_marseille","lat":43.31715,"lon":5.43713,"is_reserved":false,"is_disabled":false,"rental_uris":{"android":"levelo://app?vid=ee541765-428a-4bb1-bc90-f1a524fdccf5","ios":"levelo://app?vid=ee541765-428a-4bb1-bc90-f1a524fdccf5"},"vehicle_type_id":"4","last_reported":1734624653,"current_range_meters":38800,"station_id":"ce4bhp92rcd13ifvqhcg","pricing_plan_id":"cebpf4jnsgd1na2vs0mg"},{"bike_id":"17b2d2b0-9855-46b4-a478-0bd9c7277056","system_id":"levelo_inurba_marseille","lat":43.30918,"lon":5.3784,"is_reserved":false,"is_disabled":true,"rental_uris":{"android":"levelo://app?vid=17b2d2b0-9855-46b4-a478-0bd9c7277056","ios":"levelo://app?vid=17b2d2b0-9855-46b4-a478-0bd9c7277056"},"vehicle_type_id":"4","last_reported":1734624653,"current_range_meters":0,"station_id":"","pricing_plan_id":"cebpf4jnsgd1na2vs0mg"},{"bike_id":"69699e7b-91f5-44f7-b494-c278edf9698d","system_id":"levelo_inurba_marseille","lat":43.29541,"lon":5.39404,"is_reserved":false,"is_disabled":false,"rental_uris":{"android":"levelo://app?vid=69699e7b-91f5-44f7-b494-c278edf9698d","ios":"levelo://app?vid=69699e7b-91f5-44f7-b494-c278edf9698d"},"vehicle_type_id":"4","last_reported":1734624653,"current_range_meters":38800,"station_id":"ce4bh292rcd13ifvqdf0","pricing_plan_id":"cebpf4jnsgd1na2vs0mg"},{"bike_id":"0a52cd20-1ddc-469d-ba1b-d8c0240877d4","system_id":"levelo_inurba_marseille","lat":43.27426,"lon":5.39419,"is_reserved":false,"is_disabled":false,"rental_uris":{"android":"levelo://app?vid=0a52cd20-1ddc-469d-ba1b-d8c0240877d4","ios":"levelo://app?vid=0a52cd20-1ddc-469d-ba1b-d8c0240877d4"},"vehicle_type_id":"4","last_reported":1734624653,"current_range_meters":33200,"station_id":"ce4bhdp2rcd13ifvqf20","pricing_plan_id":"cebpf4jnsgd1na2vs0mg"},{"bike_id":"7bffcd7b-607f-4005-9803-c0e4872f8dc8","system_id":"levelo_inurba_marseille","lat":43.28417,"lon":5.34991,"is_reserved":false,"is_disabled":true,"rental_uris":{"android":"levelo://app?vid=7bffcd7b-607f-4005-9803-c0e4872f8dc8","ios":"levelo://app?vid=7bffcd7b-607f-4005-9803-c0e4872f8dc8"},"vehicle_type_id":"4","last_reported":1734624653,"current_range_meters":0,"station_id":"ce4bhbh2rcd13ifvqepg","pricing_plan_id":"cebpf4jnsgd1na2vs0mg"},{"bike_id":"37262ef4-1d23-481f-80ec-80ca4076f5b0","system_id":"levelo_inurba_marseille","lat":43.24385,"lon":5.37055,"is_reserved":false,"is_disabled":false,"rental_uris":{"android":"levelo://app?vid=37262ef4-1d23-481f-80ec-80ca4076f5b0","ios":"levelo://app?vid=37262ef4-1d23-481f-80ec-80ca4076f5b0"},"vehicle_type_id":"4","last_reported":1734624653,"current_range_meters":37600,"station_id":"ce4bhhh2rcd13ifvqfk0","pricing_plan_id":"cebpf4jnsgd1na2vs0mg"},{"bike_id":"5fc16bad-abcb-4722-8b63-3ca2055a52a8","system_id":"levelo_inurba_marseille","lat":43.30431,"lon":5.39746,"is_reserved":false,"is_disabled":true,"rental_uris":{"android":"levelo://app?vid=5fc16bad-abcb-4722-8b63-3ca2055a52a8","ios":"levelo://app?vid=5fc16bad-abcb-4722-8b63-3ca2055a52a8"},"vehicle_type_id":"4","last_reported":1734624653,"current_range_meters":0,"station_id":"ce4bh092rcd13ifvqd20","pricing_plan_id":"cebpf4jnsgd1na2vs0mg"},{"bike_id":"f7ef33e9-f5a2-45c0-b881-ee22f3d2713d","system_id":"levelo_inurba_marseille","lat":43.27556,"lon":5.38445,"is_reserved":false,"is_disabled":true,"rental_uris":{"android":"levelo://app?vid=f7ef33e9-f5a2-45c0-b881-ee22f3d2713d","ios":"levelo://app?vid=f7ef33e9-f5a2-45c0-b881-ee22f3d2713d"},"vehicle_type_id":"4","last_reported":1734624653,"current_range_meters":800,"station_id":"ce4bhh92rcd13ifvqfi0","pricing_plan_id":"cebpf4jnsgd1na2vs0mg"},{"bike_id":"3588e64e-d5e3-4b4d-a5f5-61cfdd37f6f9","system_id":"levelo_inurba_marseille","lat":43.27818,"lon":5.40713,"is_reserved":false,"is_disabled":false,"rental_uris":{"android":"levelo://app?vid=3588e64e-d5e3-4b4d-a5f5-61cfdd37f6f9","ios":"levelo://app?vid=3588e64e-d5e3-4b4d-a5f5-61cfdd37f6f9"},"vehicle_type_id":"4","last_reported":1734624653,"current_range_meters":11600,"station_id":"ce4bhnh2rcd13ifvqgtg","pricing_plan_id":"cebpf4jnsgd1na2vs0mg"},{"bike_id":"e7f549d4-e619-4d64-b0fb-0c19772803ae","system_id":"levelo_inurba_marseille","lat":43.30927,"lon":5.40141,"is_reserved":false,"is_disabled":false,"rental_uris":{"android":"levelo://app?vid=e7f549d4-e619-4d64-b0fb-0c19772803ae","ios":"levelo://app?vid=e7f549d4-e619-4d64-b0fb-0c19772803ae"},"vehicle_type_id":"4","last_reported":1734624653,"current_range_meters":19200,"station_id":"ce4bgvp2rcd13ifvqct0","pricing_plan_id":"cebpf4jnsgd1na2vs0mg"},{"bike_id":"ff74e602-112f-4075-b359-32b7cd932be6","system_id":"levelo_inurba_marseille","lat":43.29034,"lon":5.38124,"is_reserved":false,"is_disabled":false,"rental_uris":{"android":"levelo://app?vid=ff74e602-112f-4075-b359-32b7cd932be6","ios":"levelo://app?vid=ff74e602-112f-4075-b359-32b7cd932be6"},"vehicle_type_id":"4","last_reported":1734624653,"current_range_meters":24400,"station_id":"ce4bh4p2rcd13ifvqe1g","pricing_plan_id":"cebpf4jnsgd1na2vs0mg"},{"bike_id":"405074bb-7988-4d4c-b3d9-0e0756acdbad","system_id":"levelo_inurba_marseille","lat":43.29842,"lon":5.36264,"is_reserved":false,"is_disabled":false,"rental_uris":{"android":"levelo://app?vid=405074bb-7988-4d4c-b3d9-0e0756acdbad","ios":"levelo://app?vid=405074bb-7988-4d4c-b3d9-0e0756acdbad"},"vehicle_type_id":"4","last_reported":1734624653,"current_range_meters":14400,"station_id":"ce4bgpp2rcd13ifvqc3g","pricing_plan_id":"cebpf4jnsgd1na2vs0mg"},{"bike_id":"27589c7b-1ff7-44e4-83f1-d7a65e77b5c9","system_id":"levelo_inurba_marseille","lat":43.321,"lon":5.36777,"is_reserved":false,"is_disabled":false,"rental_uris":{"android":"levelo://app?vid=27589c7b-1ff7-44e4-83f1-d7a65e77b5c9","ios":"levelo://app?vid=27589c7b-1ff7-44e4-83f1-d7a65e77b5c9"},"vehicle_type_id":"4","last_reported":1734624653,"current_range_meters":28800,"station_id":"ce4bhrh2rcd13ifvqhug","pricing_plan_id":"cebpf4jnsgd1na2vs0mg"},{"bike_id":"9b4e8892-0a38-47e0-b669-2cacac85c950","system_id":"levelo_inurba_marseille","lat":43.30532,"lon":5.36543,"is_reserved":false,"is_disabled":false,"rental_uris":{"android":"levelo://app?vid=9b4e8892-0a38-47e0-b669-2cacac85c950","ios":"levelo://app?vid=9b4e8892-0a38-47e0-b669-2cacac85c950"},"vehicle_type_id":"4","last_reported":1734624653,"current_range_meters":4800,"station_id":"ce4bgs12rcd13ifvqcag","pricing_plan_id":"cebpf4jnsgd1na2vs0mg"},{"bike_id":"275c8729-7ec6-449e-8a5b-704994a1d376","system_id":"levelo_inurba_marseille","lat":43.29533,"lon":5.38541,"is_reserved":false,"is_disabled":true,"rental_uris":{"android":"levelo://app?vid=275c8729-7ec6-449e-8a5b-704994a1d376","ios":"levelo://app?vid=275c8729-7ec6-449e-8a5b-704994a1d376"},"vehicle_type_id":"4","last_reported":1734624653,"current_range_meters":0,"station_id":"ce4bgih2rcd13ifvqba0","pricing_plan_id":"cebpf4jnsgd1na2vs0mg"},{"bike_id":"016009ff-c5b8-4760-85e7-d9cd55f8086c","system_id":"levelo_inurba_marseille","lat":43.28412,"lon":5.34982,"is_reserved":false,"is_disabled":false,"rental_uris":{"android":"levelo://app?vid=016009ff-c5b8-4760-85e7-d9cd55f8086c","ios":"levelo://app?vid=016009ff-c5b8-4760-85e7-d9cd55f8086c"},"vehicle_type_id":"4","last_reported":1734624653,"current_range_meters":27600,"station_id":"ce4bhbh2rcd13ifvqepg","pricing_plan_id":"cebpf4jnsgd1na2vs0mg"},{"bike_id":"d4a92d73-458f-4633-b078-8b09bedbb320","system_id":"levelo_inurba_marseille","lat":43.31325,"lon":5.39698,"is_reserved":false,"is_disabled":false,"rental_uris":{"android":"levelo://app?vid=d4a92d73-458f-4633-b078-8b09bedbb320","ios":"levelo://app?vid=d4a92d73-458f-4633-b078-8b09bedbb320"},"vehicle_type_id":"4","last_reported":1734624653,"current_range_meters":38000,"station_id":"ce4bgvp2rcd13ifvqcu0","pricing_plan_id":"cebpf4jnsgd1na2vs0mg"},{"bike_id":"2fd078c3-b8bb-4adc-8f6f-f029e365a756","system_id":"levelo_inurba_marseille","lat":43.2795,"lon":5.41047,"is_reserved":false,"is_disabled":false,"rental_uris":{"android":"levelo://app?vid=2fd078c3-b8bb-4adc-8f6f-f029e365a756","ios":"levelo://app?vid=2fd078c3-b8bb-4adc-8f6f-f029e365a756"},"vehicle_type_id":"4","last_reported":1734624653,"current_range_meters":37600,"station_id":"ce4bhnp2rcd13ifvqh0g","pricing_plan_id":"cebpf4jnsgd1na2vs0mg"},{"bike_id":"2a12bde8-ca1e-4ca8-8cbb-8dbf9a638106","system_id":"levelo_inurba_marseille","lat":43.23195,"lon":5.35564,"is_reserved":false,"is_disabled":false,"rental_uris":{"android":"levelo://app?vid=2a12bde8-ca1e-4ca8-8cbb-8dbf9a638106","ios":"levelo://app?vid=2a12bde8-ca1e-4ca8-8cbb-8dbf9a638106"},"vehicle_type_id":"4","last_reported":1734624653,"current_range_meters":28800,"station_id":"ce4bhu92rcd13ifvqi70","pricing_plan_id":"cebpf4jnsgd1na2vs0mg"},{"bike_id":"418228eb-2a62-45c8-81f2-f6645d62bb4d","system_id":"levelo_inurba_marseille","lat":43.31324,"lon":5.39695,"is_reserved":false,"is_disabled":false,"rental_uris":{"android":"levelo://app?vid=418228eb-2a62-45c8-81f2-f6645d62bb4d","ios":"levelo://app?vid=418228eb-2a62-45c8-81f2-f6645d62bb4d"},"vehicle_type_id":"4","last_reported":1734624653,"current_range_meters":27200,"station_id":"ce4bgvp2rcd13ifvqcu0","pricing_plan_id":"cebpf4jnsgd1na2vs0mg"},{"bike_id":"dffe2b8c-c419-4106-b605-19f5b9522c3a","system_id":"levelo_inurba_marseille","lat":43.2929,"lon":5.3744,"is_reserved":false,"is_disabled":false,"rental_uris":{"android":"levelo://app?vid=dffe2b8c-c419-4106-b605-19f5b9522c3a","ios":"levelo://app?vid=dffe2b8c-c419-4106-b605-19f5b9522c3a"},"vehicle_type_id":"4","last_reported":1734624653,"current_range_meters":38800,"station_id":"ce4bgi12rcd13ifvqb70","pricing_plan_id":"cebpf4jnsgd1na2vs0mg"},{"bike_id":"fdeb4ccc-d850-402e-84ed-8ebecff29977","system_id":"levelo_inurba_marseille","lat":43.2971,"lon":5.37688,"is_reserved":false,"is_disabled":false,"rental_uris":{"android":"levelo://app?vid=fdeb4ccc-d850-402e-84ed-8ebecff29977","ios":"levelo://app?vid=fdeb4ccc-d850-402e-84ed-8ebecff29977"},"vehicle_type_id":"4","last_reported":1734624653,"current_range_meters":32400,"station_id":"ce4bgkh2rcd13ifvqbl0","pricing_plan_id":"cebpf4jnsgd1na2vs0mg"},{"bike_id":"8652b11a-2667-49af-98cb-63082de59e73","system_id":"levelo_inurba_marseille","lat":43.28974,"lon":5.3783,"is_reserved":false,"is_disabled":false,"rental_uris":{"android":"levelo://app?vid=8652b11a-2667-49af-98cb-63082de59e73","ios":"levelo://app?vid=8652b11a-2667-49af-98cb-63082de59e73"},"vehicle_type_id":"4","last_reported":1734624653,"current_range_meters":24400,"station_id":"ce4bh9p2rcd13ifvqed0","pricing_plan_id":"cebpf4jnsgd1na2vs0mg"},{"bike_id":"b002d028-e42c-46e2-93ce-a18a7a90546e","system_id":"levelo_inurba_marseille","lat":43.32289,"lon":5.38273,"is_reserved":false,"is_disabled":false,"rental_uris":{"android":"levelo://app?vid=b002d028-e42c-46e2-93ce-a18a7a90546e","ios":"levelo://app?vid=b002d028-e42c-46e2-93ce-a18a7a90546e"},"vehicle_type_id":"4","last_reported":1734624653,"current_range_meters":22800,"station_id":"ce4bhr12rcd13ifvqhqg","pricing_plan_id":"cebpf4jnsgd1na2vs0mg"},{"bike_id":"8d2d1fc5-8995-4400-8cfc-148fb6ed4a6d","system_id":"levelo_inurba_marseille","lat":43.27494,"lon":5.42459,"is_reserved":false,"is_disabled":true,"rental_uris":{"android":"levelo://app?vid=8d2d1fc5-8995-4400-8cfc-148fb6ed4a6d","ios":"levelo://app?vid=8d2d1fc5-8995-4400-8cfc-148fb6ed4a6d"},"vehicle_type_id":"4","last_reported":1734624653,"current_range_meters":0,"station_id":"ce4bhn92rcd13ifvqgrg","pricing_plan_id":"cebpf4jnsgd1na2vs0mg"},{"bike_id":"8cf5dce1-141e-48cf-816b-74dc2a4ad579","system_id":"levelo_inurba_marseille","lat":43.29574,"lon":5.37496,"is_reserved":false,"is_disabled":true,"rental_uris":{"android":"levelo://app?vid=8cf5dce1-141e-48cf-816b-74dc2a4ad579","ios":"levelo://app?vid=8cf5dce1-141e-48cf-816b-74dc2a4ad579"},"vehicle_type_id":"4","last_reported":1734624653,"current_range_meters":37600,"station_id":"ce4bgh92rcd13ifvqb50","pricing_plan_id":"cebpf4jnsgd1na2vs0mg"},{"bike_id":"b44f9236-c33f-43b3-ab7e-0f32e9951c9e","system_id":"levelo_inurba_marseille","lat":43.23194,"lon":5.35554,"is_reserved":false,"is_disabled":false,"rental_uris":{"android":"levelo://app?vid=b44f9236-c33f-43b3-ab7e-0f32e9951c9e","ios":"levelo://app?vid=b44f9236-c33f-43b3-ab7e-0f32e9951c9e"},"vehicle_type_id":"4","last_reported":1734624653,"current_range_meters":10000,"station_id":"ce4bhu92rcd13ifvqi70","pricing_plan_id":"cebpf4jnsgd1na2vs0mg"},{"bike_id":"4620dcd9-c3a6-4871-8162-c4a28f6d33ca","system_id":"levelo_inurba_marseille","lat":43.31896,"lon":5.40723,"is_reserved":false,"is_disabled":true,"rental_uris":{"android":"levelo://app?vid=4620dcd9-c3a6-4871-8162-c4a28f6d33ca","ios":"levelo://app?vid=4620dcd9-c3a6-4871-8162-c4a28f6d33ca"},"vehicle_type_id":"4","last_reported":1734624653,"current_range_meters":9200,"station_id":"ce4bhq12rcd13ifvqhig","pricing_plan_id":"cebpf4jnsgd1na2vs0mg"},{"bike_id":"f4f4204b-0713-4f4c-92c1-f79c51f49c1b","system_id":"levelo_inurba_marseille","lat":43.3009,"lon":5.39076,"is_reserved":false,"is_disabled":false,"rental_uris":{"android":"levelo://app?vid=f4f4204b-0713-4f4c-92c1-f79c51f49c1b","ios":"levelo://app?vid=f4f4204b-0713-4f4c-92c1-f79c51f49c1b"},"vehicle_type_id":"4","last_reported":1734624653,"current_range_meters":38000,"station_id":"ce4bh192rcd13ifvqdb0","pricing_plan_id":"cebpf4jnsgd1na2vs0mg"},{"bike_id":"872bd67d-2b87-4438-a040-d7a007b088d8","system_id":"levelo_inurba_marseille","lat":43.29609,"lon":5.37723,"is_reserved":false,"is_disabled":false,"rental_uris":{"android":"levelo://app?vid=872bd67d-2b87-4438-a040-d7a007b088d8","ios":"levelo://app?vid=872bd67d-2b87-4438-a040-d7a007b088d8"},"vehicle_type_id":"4","last_reported":1734624653,"current_range_meters":20400,"station_id":"ce4bgi92rcd13ifvqb90","pricing_plan_id":"cebpf4jnsgd1na2vs0mg"},{"bike_id":"2edc8e2f-2556-4351-aeaf-7299a60616d6","system_id":"levelo_inurba_marseille","lat":43.246755,"lon":5.3817,"is_reserved":false,"is_disabled":false,"rental_uris":{"android":"levelo://app?vid=2edc8e2f-2556-4351-aeaf-7299a60616d6","ios":"levelo://app?vid=2edc8e2f-2556-4351-aeaf-7299a60616d6"},"vehicle_type_id":"4","last_reported":1734624653,"current_range_meters":36800,"station_id":"ce4bhih2rcd13ifvqfr0","pricing_plan_id":"cebpf4jnsgd1na2vs0mg"},{"bike_id":"789e786b-3e8c-44a9-855f-68715729e695","system_id":"levelo_inurba_marseille","lat":43.33024,"lon":5.39046,"is_reserved":false,"is_disabled":false,"rental_uris":{"android":"levelo://app?vid=789e786b-3e8c-44a9-855f-68715729e695","ios":"levelo://app?vid=789e786b-3e8c-44a9-855f-68715729e695"},"vehicle_type_id":"4","last_reported":1734624653,"current_range_meters":38800,"station_id":"ce4bhr92rcd13ifvqhrg","pricing_plan_id":"cebpf4jnsgd1na2vs0mg"},{"bike_id":"80f28546-220b-4021-ae81-ea40be8b4939","system_id":"levelo_inurba_marseille","lat":43.29419,"lon":5.3862,"is_reserved":false,"is_disabled":false,"rental_uris":{"android":"levelo://app?vid=80f28546-220b-4021-ae81-ea40be8b4939","ios":"levelo://app?vid=80f28546-220b-4021-ae81-ea40be8b4939"},"vehicle_type_id":"4","last_reported":1734624653,"current_range_meters":8400,"station_id":"ce4bh2h2rcd13ifvqdh0","pricing_plan_id":"cebpf4jnsgd1na2vs0mg"},{"bike_id":"0f70da87-3837-4a1e-b64f-ed3d553df758","system_id":"levelo_inurba_marseille","lat":43.25497,"lon":5.37651,"is_reserved":false,"is_disabled":false,"rental_uris":{"android":"levelo://app?vid=0f70da87-3837-4a1e-b64f-ed3d553df758","ios":"levelo://app?vid=0f70da87-3837-4a1e-b64f-ed3d553df758"},"vehicle_type_id":"4","last_reported":1734624653,"current_range_meters":14000,"station_id":"ce4bhh12rcd13ifvqff0","pricing_plan_id":"cebpf4jnsgd1na2vs0mg"},{"bike_id":"0a875dc2-52ab-4a70-919a-079887269dff","system_id":"levelo_inurba_marseille","lat":43.29855,"lon":5.36295,"is_reserved":false,"is_disabled":false,"rental_uris":{"android":"levelo://app?vid=0a875dc2-52ab-4a70-919a-079887269dff","ios":"levelo://app?vid=0a875dc2-52ab-4a70-919a-079887269dff"},"vehicle_type_id":"4","last_reported":1734624653,"current_range_meters":23200,"station_id":"ce4bgpp2rcd13ifvqc3g","pricing_plan_id":"cebpf4jnsgd1na2vs0mg"},{"bike_id":"87ea2282-7236-454a-a021-e08bfe13ea3d","system_id":"levelo_inurba_marseille","lat":43.28045,"lon":5.36951,"is_reserved":false,"is_disabled":false,"rental_uris":{"android":"levelo://app?vid=87ea2282-7236-454a-a021-e08bfe13ea3d","ios":"levelo://app?vid=87ea2282-7236-454a-a021-e08bfe13ea3d"},"vehicle_type_id":"4","last_reported":1734624653,"current_range_meters":30000,"station_id":"ce4bha12rcd13ifvqef0","pricing_plan_id":"cebpf4jnsgd1na2vs0mg"},{"bike_id":"9294b7c4-f950-43f8-8e30-fdbb56a51003","system_id":"levelo_inurba_marseille","lat":43.31447,"lon":5.36917,"is_reserved":false,"is_disabled":false,"rental_uris":{"android":"levelo://app?vid=9294b7c4-f950-43f8-8e30-fdbb56a51003","ios":"levelo://app?vid=9294b7c4-f950-43f8-8e30-fdbb56a51003"},"vehicle_type_id":"4","last_reported":1734624653,"current_range_meters":6000,"station_id":"","pricing_plan_id":"cebpf4jnsgd1na2vs0mg"},{"bike_id":"6e796cce-c0d3-4015-ab9a-8965b4775413","system_id":"levelo_inurba_marseille","lat":43.29613,"lon":5.3773,"is_reserved":false,"is_disabled":false,"rental_uris":{"android":"levelo://app?vid=6e796cce-c0d3-4015-ab9a-8965b4775413","ios":"levelo://app?vid=6e796cce-c0d3-4015-ab9a-8965b4775413"},"vehicle_type_id":"4","last_reported":1734624653,"current_range_meters":38800,"station_id":"ce4bgi92rcd13ifvqb90","pricing_plan_id":"cebpf4jnsgd1na2vs0mg"},{"bike_id":"a22ff1e1-2709-4d5d-bdce-1d2284ead1d1","system_id":"levelo_inurba_marseille","lat":43.29708,"lon":5.37692,"is_reserved":false,"is_disabled":false,"rental_uris":{"android":"levelo://app?vid=a22ff1e1-2709-4d5d-bdce-1d2284ead1d1","ios":"levelo://app?vid=a22ff1e1-2709-4d5d-bdce-1d2284ead1d1"},"vehicle_type_id":"4","last_reported":1734624653,"current_range_meters":38800,"station_id":"ce4bgkh2rcd13ifvqbl0","pricing_plan_id":"cebpf4jnsgd1na2vs0mg"},{"bike_id":"1e334061-a306-4ca9-87d2-62850e77a8b3","system_id":"levelo_inurba_marseille","lat":43.2903,"lon":5.3862,"is_reserved":false,"is_disabled":false,"rental_uris":{"android":"levelo://app?vid=1e334061-a306-4ca9-87d2-62850e77a8b3","ios":"levelo://app?vid=1e334061-a306-4ca9-87d2-62850e77a8b3"},"vehicle_type_id":"4","last_reported":1734624653,"current_range_meters":33600,"station_id":"ce4bh4p2rcd13ifvqe0g","pricing_plan_id":"cebpf4jnsgd1na2vs0mg"},{"bike_id":"a69023b1-8204-4754-89af-30e0d6f29dad","system_id":"levelo_inurba_marseille","lat":43.29422,"lon":5.38629,"is_reserved":false,"is_disabled":false,"rental_uris":{"android":"levelo://app?vid=a69023b1-8204-4754-89af-30e0d6f29dad","ios":"levelo://app?vid=a69023b1-8204-4754-89af-30e0d6f29dad"},"vehicle_type_id":"4","last_reported":1734624653,"current_range_meters":26000,"station_id":"ce4bh2h2rcd13ifvqdh0","pricing_plan_id":"cebpf4jnsgd1na2vs0mg"},{"bike_id":"929f4b0c-5e07-4948-8818-2541f606765c","system_id":"levelo_inurba_marseille","lat":43.33054,"lon":5.39015,"is_reserved":false,"is_disabled":false,"rental_uris":{"android":"levelo://app?vid=929f4b0c-5e07-4948-8818-2541f606765c","ios":"levelo://app?vid=929f4b0c-5e07-4948-8818-2541f606765c"},"vehicle_type_id":"4","last_reported":1734624653,"current_range_meters":30400,"station_id":"ce4bhr92rcd13ifvqhrg","pricing_plan_id":"cebpf4jnsgd1na2vs0mg"},{"bike_id":"2e0a4273-9b64-4eb1-8d1b-b8e55991eb0a","system_id":"levelo_inurba_marseille","lat":43.27255,"lon":5.40084,"is_reserved":false,"is_disabled":false,"rental_uris":{"android":"levelo://app?vid=2e0a4273-9b64-4eb1-8d1b-b8e55991eb0a","ios":"levelo://app?vid=2e0a4273-9b64-4eb1-8d1b-b8e55991eb0a"},"vehicle_type_id":"4","last_reported":1734624653,"current_range_meters":6000,"station_id":"","pricing_plan_id":"cebpf4jnsgd1na2vs0mg"},{"bike_id":"8abe93d5-bffd-4f3e-9f32-9f0b3bf203fe","system_id":"levelo_inurba_marseille","lat":43.27575,"lon":5.38423,"is_reserved":false,"is_disabled":false,"rental_uris":{"android":"levelo://app?vid=8abe93d5-bffd-4f3e-9f32-9f0b3bf203fe","ios":"levelo://app?vid=8abe93d5-bffd-4f3e-9f32-9f0b3bf203fe"},"vehicle_type_id":"4","last_reported":1734624653,"current_range_meters":38800,"station_id":"ce4bhh92rcd13ifvqfi0","pricing_plan_id":"cebpf4jnsgd1na2vs0mg"},{"bike_id":"6ac937f1-6de1-4008-9e5e-4856e540182e","system_id":"levelo_inurba_marseille","lat":43.26699,"lon":5.38265,"is_reserved":false,"is_disabled":false,"rental_uris":{"android":"levelo://app?vid=6ac937f1-6de1-4008-9e5e-4856e540182e","ios":"levelo://app?vid=6ac937f1-6de1-4008-9e5e-4856e540182e"},"vehicle_type_id":"4","last_reported":1734624653,"current_range_meters":38800,"station_id":"ce4bhg92rcd13ifvqf90","pricing_plan_id":"cebpf4jnsgd1na2vs0mg"},{"bike_id":"f957ffa3-7b76-4b18-bb62-81627d313cf8","system_id":"levelo_inurba_marseille","lat":43.23197,"lon":5.35558,"is_reserved":false,"is_disabled":false,"rental_uris":{"android":"levelo://app?vid=f957ffa3-7b76-4b18-bb62-81627d313cf8","ios":"levelo://app?vid=f957ffa3-7b76-4b18-bb62-81627d313cf8"},"vehicle_type_id":"4","last_reported":1734624653,"current_range_meters":33600,"station_id":"ce4bhu92rcd13ifvqi70","pricing_plan_id":"cebpf4jnsgd1na2vs0mg"},{"bike_id":"8418e734-4fcd-4b94-951b-0d0ce81a5b83","system_id":"levelo_inurba_marseille","lat":43.29675,"lon":5.37293,"is_reserved":false,"is_disabled":false,"rental_uris":{"android":"levelo://app?vid=8418e734-4fcd-4b94-951b-0d0ce81a5b83","ios":"levelo://app?vid=8418e734-4fcd-4b94-951b-0d0ce81a5b83"},"vehicle_type_id":"4","last_reported":1734624653,"current_range_meters":36400,"station_id":"ce4bgk12rcd13ifvqbj0","pricing_plan_id":"cebpf4jnsgd1na2vs0mg"},{"bike_id":"c6929287-9d23-42c4-8ce8-9ec0218d5220","system_id":"levelo_inurba_marseille","lat":43.29935,"lon":5.36531,"is_reserved":false,"is_disabled":false,"rental_uris":{"android":"levelo://app?vid=c6929287-9d23-42c4-8ce8-9ec0218d5220","ios":"levelo://app?vid=c6929287-9d23-42c4-8ce8-9ec0218d5220"},"vehicle_type_id":"4","last_reported":1734624653,"current_range_meters":17200,"station_id":"ce4bgm92rcd13ifvqbr0","pricing_plan_id":"cebpf4jnsgd1na2vs0mg"},{"bike_id":"4fc9b2cd-5a25-4652-838f-b88f5d5a9d00","system_id":"levelo_inurba_marseille","lat":43.25864,"lon":5.39902,"is_reserved":false,"is_disabled":false,"rental_uris":{"android":"levelo://app?vid=4fc9b2cd-5a25-4652-838f-b88f5d5a9d00","ios":"levelo://app?vid=4fc9b2cd-5a25-4652-838f-b88f5d5a9d00"},"vehicle_type_id":"4","last_reported":1734624653,"current_range_meters":24000,"station_id":"ce4bhl92rcd13ifvqghg","pricing_plan_id":"cebpf4jnsgd1na2vs0mg"},{"bike_id":"a0ab432f-da66-45ee-bd4e-3bd41460fc75","system_id":"levelo_inurba_marseille","lat":43.30826,"lon":5.36871,"is_reserved":false,"is_disabled":false,"rental_uris":{"android":"levelo://app?vid=a0ab432f-da66-45ee-bd4e-3bd41460fc75","ios":"levelo://app?vid=a0ab432f-da66-45ee-bd4e-3bd41460fc75"},"vehicle_type_id":"4","last_reported":1734624653,"current_range_meters":26000,"station_id":"","pricing_plan_id":"cebpf4jnsgd1na2vs0mg"},{"bike_id":"952f83eb-ad58-4ab9-a7e6-a395c8612bbf","system_id":"levelo_inurba_marseille","lat":43.25487,"lon":5.3765,"is_reserved":false,"is_disabled":false,"rental_uris":{"android":"levelo://app?vid=952f83eb-ad58-4ab9-a7e6-a395c8612bbf","ios":"levelo://app?vid=952f83eb-ad58-4ab9-a7e6-a395c8612bbf"},"vehicle_type_id":"4","last_reported":1734624653,"current_range_meters":27200,"station_id":"ce4bhh12rcd13ifvqff0","pricing_plan_id":"cebpf4jnsgd1na2vs0mg"},{"bike_id":"9aed28d6-2cfa-4159-b544-fc7437958c77","system_id":"levelo_inurba_marseille","lat":43.27615,"lon":5.36126,"is_reserved":false,"is_disabled":false,"rental_uris":{"android":"levelo://app?vid=9aed28d6-2cfa-4159-b544-fc7437958c77","ios":"levelo://app?vid=9aed28d6-2cfa-4159-b544-fc7437958c77"},"vehicle_type_id":"4","last_reported":1734624653,"current_range_meters":38800,"station_id":"ce4bgj92rcd13ifvqbe0","pricing_plan_id":"cebpf4jnsgd1na2vs0mg"},{"bike_id":"c6fc1f35-949d-4dc4-925e-046f798f5cdb","system_id":"levelo_inurba_marseille","lat":43.30416,"lon":5.41291,"is_reserved":false,"is_disabled":false,"rental_uris":{"android":"levelo://app?vid=c6fc1f35-949d-4dc4-925e-046f798f5cdb","ios":"levelo://app?vid=c6fc1f35-949d-4dc4-925e-046f798f5cdb"},"vehicle_type_id":"4","last_reported":1734624653,"current_range_meters":39200,"station_id":"ce4bhop2rcd13ifvqh8g","pricing_plan_id":"cebpf4jnsgd1na2vs0mg"},{"bike_id":"5df48650-9f01-48dd-b8f9-c1ede573c777","system_id":"levelo_inurba_marseille","lat":43.2621,"lon":5.37444,"is_reserved":false,"is_disabled":true,"rental_uris":{"android":"levelo://app?vid=5df48650-9f01-48dd-b8f9-c1ede573c777","ios":"levelo://app?vid=5df48650-9f01-48dd-b8f9-c1ede573c777"},"vehicle_type_id":"4","last_reported":1734624653,"current_range_meters":1600,"station_id":"ce4bhgp2rcd13ifvqfc0","pricing_plan_id":"cebpf4jnsgd1na2vs0mg"},{"bike_id":"21caaf6b-fb2e-4bb9-a7c3-65c8a1c43c5c","system_id":"levelo_inurba_marseille","lat":43.31654,"lon":5.37758,"is_reserved":false,"is_disabled":false,"rental_uris":{"android":"levelo://app?vid=21caaf6b-fb2e-4bb9-a7c3-65c8a1c43c5c","ios":"levelo://app?vid=21caaf6b-fb2e-4bb9-a7c3-65c8a1c43c5c"},"vehicle_type_id":"4","last_reported":1734624653,"current_range_meters":16800,"station_id":"ce4bgth2rcd13ifvqch0","pricing_plan_id":"cebpf4jnsgd1na2vs0mg"},{"bike_id":"a1d9da79-9b8e-4d02-b286-660c2c848e1c","system_id":"levelo_inurba_marseille","lat":43.25872,"lon":5.39898,"is_reserved":false,"is_disabled":false,"rental_uris":{"android":"levelo://app?vid=a1d9da79-9b8e-4d02-b286-660c2c848e1c","ios":"levelo://app?vid=a1d9da79-9b8e-4d02-b286-660c2c848e1c"},"vehicle_type_id":"4","last_reported":1734624653,"current_range_meters":36800,"station_id":"ce4bhl92rcd13ifvqghg","pricing_plan_id":"cebpf4jnsgd1na2vs0mg"},{"bike_id":"24b82605-a6e3-4cac-934c-dccf32df1f46","system_id":"levelo_inurba_marseille","lat":43.28714,"lon":5.37372,"is_reserved":false,"is_disabled":false,"rental_uris":{"android":"levelo://app?vid=24b82605-a6e3-4cac-934c-dccf32df1f46","ios":"levelo://app?vid=24b82605-a6e3-4cac-934c-dccf32df1f46"},"vehicle_type_id":"4","last_reported":1734624653,"current_range_meters":38800,"station_id":"ce4bh3p2rcd13ifvqdq0","pricing_plan_id":"cebpf4jnsgd1na2vs0mg"},{"bike_id":"13411e02-e30b-4d1e-a85a-92295b9629fe","system_id":"levelo_inurba_marseille","lat":43.27376,"lon":5.36257,"is_reserved":false,"is_disabled":false,"rental_uris":{"android":"levelo://app?vid=13411e02-e30b-4d1e-a85a-92295b9629fe","ios":"levelo://app?vid=13411e02-e30b-4d1e-a85a-92295b9629fe"},"vehicle_type_id":"4","last_reported":1734624653,"current_range_meters":33200,"station_id":"ce4bhbh2rcd13ifvqeo0","pricing_plan_id":"cebpf4jnsgd1na2vs0mg"},{"bike_id":"363d086f-2702-4ec3-90c7-27d7bcf5cb22","system_id":"levelo_inurba_marseille","lat":43.29606,"lon":5.37697,"is_reserved":false,"is_disabled":false,"rental_uris":{"android":"levelo://app?vid=363d086f-2702-4ec3-90c7-27d7bcf5cb22","ios":"levelo://app?vid=363d086f-2702-4ec3-90c7-27d7bcf5cb22"},"vehicle_type_id":"4","last_reported":1734624653,"current_range_meters":26000,"station_id":"ce4bgi92rcd13ifvqb90","pricing_plan_id":"cebpf4jnsgd1na2vs0mg"},{"bike_id":"6118b054-9ea6-4b9d-8593-36a69758efff","system_id":"levelo_inurba_marseille","lat":43.23201,"lon":5.35558,"is_reserved":false,"is_disabled":false,"rental_uris":{"android":"levelo://app?vid=6118b054-9ea6-4b9d-8593-36a69758efff","ios":"levelo://app?vid=6118b054-9ea6-4b9d-8593-36a69758efff"},"vehicle_type_id":"4","last_reported":1734624653,"current_range_meters":38400,"station_id":"ce4bhu92rcd13ifvqi70","pricing_plan_id":"cebpf4jnsgd1na2vs0mg"},{"bike_id":"0cf702a9-640f-42bf-ad19-58d0a7000b31","system_id":"levelo_inurba_marseille","lat":43.30539,"lon":5.36524,"is_reserved":false,"is_disabled":false,"rental_uris":{"android":"levelo://app?vid=0cf702a9-640f-42bf-ad19-58d0a7000b31","ios":"levelo://app?vid=0cf702a9-640f-42bf-ad19-58d0a7000b31"},"vehicle_type_id":"4","last_reported":1734624653,"current_range_meters":38400,"station_id":"ce4bgs12rcd13ifvqcag","pricing_plan_id":"cebpf4jnsgd1na2vs0mg"},{"bike_id":"8edc54f2-44b0-49fd-8e9d-2d672c8f1c6a","system_id":"levelo_inurba_marseille","lat":43.32374,"lon":5.38881,"is_reserved":false,"is_disabled":false,"rental_uris":{"android":"levelo://app?vid=8edc54f2-44b0-49fd-8e9d-2d672c8f1c6a","ios":"levelo://app?vid=8edc54f2-44b0-49fd-8e9d-2d672c8f1c6a"},"vehicle_type_id":"4","last_reported":1734624653,"current_range_meters":29600,"station_id":"ce4bhqp2rcd13ifvqhog","pricing_plan_id":"cebpf4jnsgd1na2vs0mg"},{"bike_id":"9d2aefec-f4a3-4a23-a13a-c09b46ffe2e4","system_id":"levelo_inurba_marseille","lat":43.31208,"lon":5.36698,"is_reserved":false,"is_disabled":false,"rental_uris":{"android":"levelo://app?vid=9d2aefec-f4a3-4a23-a13a-c09b46ffe2e4","ios":"levelo://app?vid=9d2aefec-f4a3-4a23-a13a-c09b46ffe2e4"},"vehicle_type_id":"4","last_reported":1734624653,"current_range_meters":30000,"station_id":"","pricing_plan_id":"cebpf4jnsgd1na2vs0mg"},{"bike_id":"0fa6c2dd-92d4-4846-b86c-ad3137a47a7b","system_id":"levelo_inurba_marseille","lat":43.25717,"lon":5.41115,"is_reserved":false,"is_disabled":false,"rental_uris":{"android":"levelo://app?vid=0fa6c2dd-92d4-4846-b86c-ad3137a47a7b","ios":"levelo://app?vid=0fa6c2dd-92d4-4846-b86c-ad3137a47a7b"},"vehicle_type_id":"4","last_reported":1734624653,"current_range_meters":12400,"station_id":"ce4bhkp2rcd13ifvqgd0","pricing_plan_id":"cebpf4jnsgd1na2vs0mg"},{"bike_id":"41360683-0f69-4c62-8b87-4868ce57f8d5","system_id":"levelo_inurba_marseille","lat":43.314873,"lon":5.373041,"is_reserved":false,"is_disabled":false,"rental_uris":{"android":"levelo://app?vid=41360683-0f69-4c62-8b87-4868ce57f8d5","ios":"levelo://app?vid=41360683-0f69-4c62-8b87-4868ce57f8d5"},"vehicle_type_id":"4","last_reported":1734624653,"current_range_meters":38000,"station_id":"ce4bgt12rcd13ifvqcd0","pricing_plan_id":"cebpf4jnsgd1na2vs0mg"},{"bike_id":"a2eba22b-b0ee-4005-9bf3-576bb458d391","system_id":"levelo_inurba_marseille","lat":43.279651,"lon":5.387544,"is_reserved":false,"is_disabled":true,"rental_uris":{"android":"levelo://app?vid=a2eba22b-b0ee-4005-9bf3-576bb458d391","ios":"levelo://app?vid=a2eba22b-b0ee-4005-9bf3-576bb458d391"},"vehicle_type_id":"4","last_reported":1734624653,"current_range_meters":0,"station_id":"","pricing_plan_id":"cebpf4jnsgd1na2vs0mg"},{"bike_id":"e7e90ade-9fda-4e94-9481-ce28fb04e6bb","system_id":"levelo_inurba_marseille","lat":43.29606,"lon":5.37494,"is_reserved":false,"is_disabled":false,"rental_uris":{"android":"levelo://app?vid=e7e90ade-9fda-4e94-9481-ce28fb04e6bb","ios":"levelo://app?vid=e7e90ade-9fda-4e94-9481-ce28fb04e6bb"},"vehicle_type_id":"4","last_reported":1734624653,"current_range_meters":9200,"station_id":"ce4bgh92rcd13ifvqb50","pricing_plan_id":"cebpf4jnsgd1na2vs0mg"},{"bike_id":"6e868a60-9f88-474e-adb5-72cc44996f9b","system_id":"levelo_inurba_marseille","lat":43.29529,"lon":5.37503,"is_reserved":false,"is_disabled":true,"rental_uris":{"android":"levelo://app?vid=6e868a60-9f88-474e-adb5-72cc44996f9b","ios":"levelo://app?vid=6e868a60-9f88-474e-adb5-72cc44996f9b"},"vehicle_type_id":"4","last_reported":1734624653,"current_range_meters":0,"station_id":"ce4bgkp2rcd13ifvqbmg","pricing_plan_id":"cebpf4jnsgd1na2vs0mg"},{"bike_id":"061ba319-68b7-4c2b-bc7a-b29caa1c5ec9","system_id":"levelo_inurba_marseille","lat":43.26553,"lon":5.37302,"is_reserved":false,"is_disabled":false,"rental_uris":{"android":"levelo://app?vid=061ba319-68b7-4c2b-bc7a-b29caa1c5ec9","ios":"levelo://app?vid=061ba319-68b7-4c2b-bc7a-b29caa1c5ec9"},"vehicle_type_id":"4","last_reported":1734624653,"current_range_meters":13600,"station_id":"ce4bhg12rcd13ifvqf70","pricing_plan_id":"cebpf4jnsgd1na2vs0mg"},{"bike_id":"9d275ced-3005-43cc-bd48-f97afdd72b12","system_id":"levelo_inurba_marseille","lat":43.30618,"lon":5.3723,"is_reserved":false,"is_disabled":false,"rental_uris":{"android":"levelo://app?vid=9d275ced-3005-43cc-bd48-f97afdd72b12","ios":"levelo://app?vid=9d275ced-3005-43cc-bd48-f97afdd72b12"},"vehicle_type_id":"4","last_reported":1734624653,"current_range_meters":16000,"station_id":"ce4bgqh2rcd13ifvqc4g","pricing_plan_id":"cebpf4jnsgd1na2vs0mg"},{"bike_id":"ac7c5f56-daad-496c-965f-9103737000e8","system_id":"levelo_inurba_marseille","lat":43.23967,"lon":5.36636,"is_reserved":false,"is_disabled":false,"rental_uris":{"android":"levelo://app?vid=ac7c5f56-daad-496c-965f-9103737000e8","ios":"levelo://app?vid=ac7c5f56-daad-496c-965f-9103737000e8"},"vehicle_type_id":"4","last_reported":1734624653,"current_range_meters":38800,"station_id":"ce4bhi12rcd13ifvqfp0","pricing_plan_id":"cebpf4jnsgd1na2vs0mg"},{"bike_id":"50f3ea1e-8d3a-452b-9061-37af2efe02cc","system_id":"levelo_inurba_marseille","lat":43.31271,"lon":5.40186,"is_reserved":false,"is_disabled":false,"rental_uris":{"android":"levelo://app?vid=50f3ea1e-8d3a-452b-9061-37af2efe02cc","ios":"levelo://app?vid=50f3ea1e-8d3a-452b-9061-37af2efe02cc"},"vehicle_type_id":"4","last_reported":1734624653,"current_range_meters":29600,"station_id":"ce4bh092rcd13ifvqd30","pricing_plan_id":"cebpf4jnsgd1na2vs0mg"},{"bike_id":"9c4bd84a-bb21-4cba-a61f-1537e8ab25c8","system_id":"levelo_inurba_marseille","lat":43.30143,"lon":5.37418,"is_reserved":false,"is_disabled":false,"rental_uris":{"android":"levelo://app?vid=9c4bd84a-bb21-4cba-a61f-1537e8ab25c8","ios":"levelo://app?vid=9c4bd84a-bb21-4cba-a61f-1537e8ab25c8"},"vehicle_type_id":"4","last_reported":1734624653,"current_range_meters":24800,"station_id":"ce4bgs92rcd13ifvqcc0","pricing_plan_id":"cebpf4jnsgd1na2vs0mg"},{"bike_id":"0cef6d55-09da-4dff-80ee-facea058c7a5","system_id":"levelo_inurba_marseille","lat":43.30055,"lon":5.36969,"is_reserved":false,"is_disabled":false,"rental_uris":{"android":"levelo://app?vid=0cef6d55-09da-4dff-80ee-facea058c7a5","ios":"levelo://app?vid=0cef6d55-09da-4dff-80ee-facea058c7a5"},"vehicle_type_id":"4","last_reported":1734624653,"current_range_meters":32400,"station_id":"","pricing_plan_id":"cebpf4jnsgd1na2vs0mg"},{"bike_id":"65218f3e-ed1c-40ca-a9d0-e96bee4a0c68","system_id":"levelo_inurba_marseille","lat":43.25507,"lon":5.37665,"is_reserved":false,"is_disabled":false,"rental_uris":{"android":"levelo://app?vid=65218f3e-ed1c-40ca-a9d0-e96bee4a0c68","ios":"levelo://app?vid=65218f3e-ed1c-40ca-a9d0-e96bee4a0c68"},"vehicle_type_id":"4","last_reported":1734624653,"current_range_meters":24000,"station_id":"ce4bhh12rcd13ifvqff0","pricing_plan_id":"cebpf4jnsgd1na2vs0mg"},{"bike_id":"23a049cd-2a20-411e-a25c-f3e09482729c","system_id":"levelo_inurba_marseille","lat":43.30432,"lon":5.37346,"is_reserved":false,"is_disabled":false,"rental_uris":{"android":"levelo://app?vid=23a049cd-2a20-411e-a25c-f3e09482729c","ios":"levelo://app?vid=23a049cd-2a20-411e-a25c-f3e09482729c"},"vehicle_type_id":"4","last_reported":1734624653,"current_range_meters":37600,"station_id":"","pricing_plan_id":"cebpf4jnsgd1na2vs0mg"},{"bike_id":"cf6822e9-89b3-4066-bbbb-7f076e48e050","system_id":"levelo_inurba_marseille","lat":43.31717,"lon":5.4371,"is_reserved":false,"is_disabled":false,"rental_uris":{"android":"levelo://app?vid=cf6822e9-89b3-4066-bbbb-7f076e48e050","ios":"levelo://app?vid=cf6822e9-89b3-4066-bbbb-7f076e48e050"},"vehicle_type_id":"4","last_reported":1734624653,"current_range_meters":12400,"station_id":"ce4bhp92rcd13ifvqhcg","pricing_plan_id":"cebpf4jnsgd1na2vs0mg"},{"bike_id":"73e8595d-63ec-4a0e-bc9b-7899e2b27329","system_id":"levelo_inurba_marseille","lat":43.27988,"lon":5.4165,"is_reserved":false,"is_disabled":false,"rental_uris":{"android":"levelo://app?vid=73e8595d-63ec-4a0e-bc9b-7899e2b27329","ios":"levelo://app?vid=73e8595d-63ec-4a0e-bc9b-7899e2b27329"},"vehicle_type_id":"4","last_reported":1734624653,"current_range_meters":28000,"station_id":"ce4bho12rcd13ifvqh1g","pricing_plan_id":"cebpf4jnsgd1na2vs0mg"},{"bike_id":"8305ca7b-501e-4f92-8fc2-f2ba9ad70228","system_id":"levelo_inurba_marseille","lat":43.29578,"lon":5.36744,"is_reserved":false,"is_disabled":false,"rental_uris":{"android":"levelo://app?vid=8305ca7b-501e-4f92-8fc2-f2ba9ad70228","ios":"levelo://app?vid=8305ca7b-501e-4f92-8fc2-f2ba9ad70228"},"vehicle_type_id":"4","last_reported":1734624653,"current_range_meters":36000,"station_id":"ce4bgph2rcd13ifvqc2g","pricing_plan_id":"cebpf4jnsgd1na2vs0mg"},{"bike_id":"0631b5b0-d3e4-4726-bb33-6adee8e7023d","system_id":"levelo_inurba_marseille","lat":43.249949,"lon":5.389313,"is_reserved":false,"is_disabled":false,"rental_uris":{"android":"levelo://app?vid=0631b5b0-d3e4-4726-bb33-6adee8e7023d","ios":"levelo://app?vid=0631b5b0-d3e4-4726-bb33-6adee8e7023d"},"vehicle_type_id":"4","last_reported":1734624653,"current_range_meters":9200,"station_id":"ce4bhgp2rcd13ifvqfd0","pricing_plan_id":"cebpf4jnsgd1na2vs0mg"},{"bike_id":"864f397f-7e17-44a8-862d-a9c8016c50f5","system_id":"levelo_inurba_marseille","lat":43.28377,"lon":5.3863,"is_reserved":false,"is_disabled":false,"rental_uris":{"android":"levelo://app?vid=864f397f-7e17-44a8-862d-a9c8016c50f5","ios":"levelo://app?vid=864f397f-7e17-44a8-862d-a9c8016c50f5"},"vehicle_type_id":"4","last_reported":1734624653,"current_range_meters":39200,"station_id":"ce4bh492rcd13ifvqdvg","pricing_plan_id":"cebpf4jnsgd1na2vs0mg"},{"bike_id":"7b305c6f-361b-46c6-bcc8-6b2d9fd084fa","system_id":"levelo_inurba_marseille","lat":43.28119,"lon":5.4422,"is_reserved":false,"is_disabled":true,"rental_uris":{"android":"levelo://app?vid=7b305c6f-361b-46c6-bcc8-6b2d9fd084fa","ios":"levelo://app?vid=7b305c6f-361b-46c6-bcc8-6b2d9fd084fa"},"vehicle_type_id":"4","last_reported":1734624653,"current_range_meters":0,"station_id":"","pricing_plan_id":"cebpf4jnsgd1na2vs0mg"},{"bike_id":"741ea4b3-763d-4684-9cc9-4d777e722653","system_id":"levelo_inurba_marseille","lat":43.31377,"lon":5.36716,"is_reserved":false,"is_disabled":false,"rental_uris":{"android":"levelo://app?vid=741ea4b3-763d-4684-9cc9-4d777e722653","ios":"levelo://app?vid=741ea4b3-763d-4684-9cc9-4d777e722653"},"vehicle_type_id":"4","last_reported":1734624653,"current_range_meters":34800,"station_id":"ce4bgr92rcd13ifvqc6g","pricing_plan_id":"cebpf4jnsgd1na2vs0mg"},{"bike_id":"a7effae1-c1fd-401d-99f9-cfce3007bf5e","system_id":"levelo_inurba_marseille","lat":43.27813,"lon":5.40713,"is_reserved":false,"is_disabled":false,"rental_uris":{"android":"levelo://app?vid=a7effae1-c1fd-401d-99f9-cfce3007bf5e","ios":"levelo://app?vid=a7effae1-c1fd-401d-99f9-cfce3007bf5e"},"vehicle_type_id":"4","last_reported":1734624653,"current_range_meters":11600,"station_id":"ce4bhnh2rcd13ifvqgtg","pricing_plan_id":"cebpf4jnsgd1na2vs0mg"},{"bike_id":"c81d12c0-b3b4-4b91-a004-bb72046d4aaa","system_id":"levelo_inurba_marseille","lat":43.29944,"lon":5.37518,"is_reserved":false,"is_disabled":false,"rental_uris":{"android":"levelo://app?vid=c81d12c0-b3b4-4b91-a004-bb72046d4aaa","ios":"levelo://app?vid=c81d12c0-b3b4-4b91-a004-bb72046d4aaa"},"vehicle_type_id":"4","last_reported":1734624653,"current_range_meters":24400,"station_id":"ce4bgjh2rcd13ifvqbg0","pricing_plan_id":"cebpf4jnsgd1na2vs0mg"},{"bike_id":"62847f3b-ae88-4d5e-a291-27a3ca217d83","system_id":"levelo_inurba_marseille","lat":43.31684,"lon":5.40475,"is_reserved":false,"is_disabled":false,"rental_uris":{"android":"levelo://app?vid=62847f3b-ae88-4d5e-a291-27a3ca217d83","ios":"levelo://app?vid=62847f3b-ae88-4d5e-a291-27a3ca217d83"},"vehicle_type_id":"4","last_reported":1734624653,"current_range_meters":38800,"station_id":"ce4bh012rcd13ifvqd00","pricing_plan_id":"cebpf4jnsgd1na2vs0mg"},{"bike_id":"58460439-34c4-4ffd-a810-879458f6621a","system_id":"levelo_inurba_marseille","lat":43.23175,"lon":5.39965,"is_reserved":false,"is_disabled":false,"rental_uris":{"android":"levelo://app?vid=58460439-34c4-4ffd-a810-879458f6621a","ios":"levelo://app?vid=58460439-34c4-4ffd-a810-879458f6621a"},"vehicle_type_id":"4","last_reported":1734624653,"current_range_meters":24800,"station_id":"ce4bhn12rcd13ifvqgqg","pricing_plan_id":"cebpf4jnsgd1na2vs0mg"},{"bike_id":"df2bf2aa-dff9-475f-91c3-5688aec4bd4e","system_id":"levelo_inurba_marseille","lat":43.29845,"lon":5.36275,"is_reserved":false,"is_disabled":false,"rental_uris":{"android":"levelo://app?vid=df2bf2aa-dff9-475f-91c3-5688aec4bd4e","ios":"levelo://app?vid=df2bf2aa-dff9-475f-91c3-5688aec4bd4e"},"vehicle_type_id":"4","last_reported":1734624653,"current_range_meters":20000,"station_id":"ce4bgpp2rcd13ifvqc3g","pricing_plan_id":"cebpf4jnsgd1na2vs0mg"},{"bike_id":"cdc1551a-7645-4f14-a7df-62fb1db3a241","system_id":"levelo_inurba_marseille","lat":43.29259,"lon":5.38433,"is_reserved":false,"is_disabled":false,"rental_uris":{"android":"levelo://app?vid=cdc1551a-7645-4f14-a7df-62fb1db3a241","ios":"levelo://app?vid=cdc1551a-7645-4f14-a7df-62fb1db3a241"},"vehicle_type_id":"4","last_reported":1734624653,"current_range_meters":37600,"station_id":"ce4bh692rcd13ifvqea0","pricing_plan_id":"cebpf4jnsgd1na2vs0mg"},{"bike_id":"77d10735-f2fa-4540-9cdc-117dc74de97c","system_id":"levelo_inurba_marseille","lat":43.29057,"lon":5.39958,"is_reserved":false,"is_disabled":true,"rental_uris":{"android":"levelo://app?vid=77d10735-f2fa-4540-9cdc-117dc74de97c","ios":"levelo://app?vid=77d10735-f2fa-4540-9cdc-117dc74de97c"},"vehicle_type_id":"4","last_reported":1734624653,"current_range_meters":38800,"station_id":"","pricing_plan_id":"cebpf4jnsgd1na2vs0mg"},{"bike_id":"41a4fce9-8cbf-447f-9d40-a55e968cd862","system_id":"levelo_inurba_marseille","lat":43.2904,"lon":5.38629,"is_reserved":false,"is_disabled":false,"rental_uris":{"android":"levelo://app?vid=41a4fce9-8cbf-447f-9d40-a55e968cd862","ios":"levelo://app?vid=41a4fce9-8cbf-447f-9d40-a55e968cd862"},"vehicle_type_id":"4","last_reported":1734624653,"current_range_meters":22400,"station_id":"ce4bh4p2rcd13ifvqe0g","pricing_plan_id":"cebpf4jnsgd1na2vs0mg"},{"bike_id":"f274e70f-b1ac-4a38-a033-2675297b1a10","system_id":"levelo_inurba_marseille","lat":43.29721,"lon":5.37682,"is_reserved":false,"is_disabled":false,"rental_uris":{"android":"levelo://app?vid=f274e70f-b1ac-4a38-a033-2675297b1a10","ios":"levelo://app?vid=f274e70f-b1ac-4a38-a033-2675297b1a10"},"vehicle_type_id":"4","last_reported":1734624653,"current_range_meters":38800,"station_id":"ce4bgkh2rcd13ifvqbl0","pricing_plan_id":"cebpf4jnsgd1na2vs0mg"},{"bike_id":"bf5cc712-765d-4c96-aae7-26ca2b694af7","system_id":"levelo_inurba_marseille","lat":43.28445,"lon":5.39177,"is_reserved":false,"is_disabled":false,"rental_uris":{"android":"levelo://app?vid=bf5cc712-765d-4c96-aae7-26ca2b694af7","ios":"levelo://app?vid=bf5cc712-765d-4c96-aae7-26ca2b694af7"},"vehicle_type_id":"4","last_reported":1734624653,"current_range_meters":38000,"station_id":"ce4bhoh2rcd13ifvqh5g","pricing_plan_id":"cebpf4jnsgd1na2vs0mg"},{"bike_id":"cef3f6c9-addc-40de-a83a-ea1371059652","system_id":"levelo_inurba_marseille","lat":43.27215,"lon":5.39188,"is_reserved":false,"is_disabled":true,"rental_uris":{"android":"levelo://app?vid=cef3f6c9-addc-40de-a83a-ea1371059652","ios":"levelo://app?vid=cef3f6c9-addc-40de-a83a-ea1371059652"},"vehicle_type_id":"4","last_reported":1734624653,"current_range_meters":800,"station_id":"ce4bhhp2rcd13ifvqfm0","pricing_plan_id":"cebpf4jnsgd1na2vs0mg"},{"bike_id":"03152c7f-902f-4085-93a5-bed924e5ae1c","system_id":"levelo_inurba_marseille","lat":43.29089,"lon":5.38147,"is_reserved":false,"is_disabled":false,"rental_uris":{"android":"levelo://app?vid=03152c7f-902f-4085-93a5-bed924e5ae1c","ios":"levelo://app?vid=03152c7f-902f-4085-93a5-bed924e5ae1c"},"vehicle_type_id":"4","last_reported":1734624653,"current_range_meters":6000,"station_id":"ce4bh512rcd13ifvqe2g","pricing_plan_id":"cebpf4jnsgd1na2vs0mg"},{"bike_id":"cef70b40-f4f4-4f71-9eed-dd818da31745","system_id":"levelo_inurba_marseille","lat":43.2549,"lon":5.37655,"is_reserved":false,"is_disabled":false,"rental_uris":{"android":"levelo://app?vid=cef70b40-f4f4-4f71-9eed-dd818da31745","ios":"levelo://app?vid=cef70b40-f4f4-4f71-9eed-dd818da31745"},"vehicle_type_id":"4","last_reported":1734624653,"current_range_meters":39200,"station_id":"ce4bhh12rcd13ifvqff0","pricing_plan_id":"cebpf4jnsgd1na2vs0mg"},{"bike_id":"2676afe2-801f-4c94-9901-348bd3b213ea","system_id":"levelo_inurba_marseille","lat":43.29549,"lon":5.42286,"is_reserved":false,"is_disabled":true,"rental_uris":{"android":"levelo://app?vid=2676afe2-801f-4c94-9901-348bd3b213ea","ios":"levelo://app?vid=2676afe2-801f-4c94-9901-348bd3b213ea"},"vehicle_type_id":"4","last_reported":1734624653,"current_range_meters":38800,"station_id":"ce4bhph2rcd13ifvqhdg","pricing_plan_id":"cebpf4jnsgd1na2vs0mg"},{"bike_id":"8ff7e688-ae57-478d-a282-9e21c179ac58","system_id":"levelo_inurba_marseille","lat":43.27374,"lon":5.36261,"is_reserved":false,"is_disabled":false,"rental_uris":{"android":"levelo://app?vid=8ff7e688-ae57-478d-a282-9e21c179ac58","ios":"levelo://app?vid=8ff7e688-ae57-478d-a282-9e21c179ac58"},"vehicle_type_id":"4","last_reported":1734624653,"current_range_meters":36000,"station_id":"ce4bhbh2rcd13ifvqeo0","pricing_plan_id":"cebpf4jnsgd1na2vs0mg"},{"bike_id":"1447e20a-bab5-4315-8064-8045f20819dc","system_id":"levelo_inurba_marseille","lat":43.28616,"lon":5.35103,"is_reserved":false,"is_disabled":false,"rental_uris":{"android":"levelo://app?vid=1447e20a-bab5-4315-8064-8045f20819dc","ios":"levelo://app?vid=1447e20a-bab5-4315-8064-8045f20819dc"},"vehicle_type_id":"4","last_reported":1734624653,"current_range_meters":30000,"station_id":"ce4bhch2rcd13ifvqeug","pricing_plan_id":"cebpf4jnsgd1na2vs0mg"},{"bike_id":"bd9211cf-db8a-41c9-a482-e96ca5cae4ad","system_id":"levelo_inurba_marseille","lat":43.27679,"lon":5.38897,"is_reserved":false,"is_disabled":false,"rental_uris":{"android":"levelo://app?vid=bd9211cf-db8a-41c9-a482-e96ca5cae4ad","ios":"levelo://app?vid=bd9211cf-db8a-41c9-a482-e96ca5cae4ad"},"vehicle_type_id":"4","last_reported":1734624653,"current_range_meters":38000,"station_id":"ce4bhi12rcd13ifvqfo0","pricing_plan_id":"cebpf4jnsgd1na2vs0mg"},{"bike_id":"1c4127b9-486f-41b4-8296-37dda68e98bf","system_id":"levelo_inurba_marseille","lat":43.23196,"lon":5.35553,"is_reserved":false,"is_disabled":false,"rental_uris":{"android":"levelo://app?vid=1c4127b9-486f-41b4-8296-37dda68e98bf","ios":"levelo://app?vid=1c4127b9-486f-41b4-8296-37dda68e98bf"},"vehicle_type_id":"4","last_reported":1734624653,"current_range_meters":31200,"station_id":"ce4bhu92rcd13ifvqi70","pricing_plan_id":"cebpf4jnsgd1na2vs0mg"},{"bike_id":"aa6fc902-fe8c-4261-a42a-3b1efb54a8a2","system_id":"levelo_inurba_marseille","lat":43.29425,"lon":5.38617,"is_reserved":false,"is_disabled":false,"rental_uris":{"android":"levelo://app?vid=aa6fc902-fe8c-4261-a42a-3b1efb54a8a2","ios":"levelo://app?vid=aa6fc902-fe8c-4261-a42a-3b1efb54a8a2"},"vehicle_type_id":"4","last_reported":1734624653,"current_range_meters":16000,"station_id":"ce4bh2h2rcd13ifvqdh0","pricing_plan_id":"cebpf4jnsgd1na2vs0mg"},{"bike_id":"09ca59c8-c23e-4b61-ba84-b6eb42d0902e","system_id":"levelo_inurba_marseille","lat":43.25719,"lon":5.41093,"is_reserved":false,"is_disabled":false,"rental_uris":{"android":"levelo://app?vid=09ca59c8-c23e-4b61-ba84-b6eb42d0902e","ios":"levelo://app?vid=09ca59c8-c23e-4b61-ba84-b6eb42d0902e"},"vehicle_type_id":"4","last_reported":1734624653,"current_range_meters":18800,"station_id":"ce4bhkp2rcd13ifvqgd0","pricing_plan_id":"cebpf4jnsgd1na2vs0mg"},{"bike_id":"fc143f59-4d09-413a-88f4-7020ad965fc7","system_id":"levelo_inurba_marseille","lat":43.32388,"lon":5.38892,"is_reserved":false,"is_disabled":false,"rental_uris":{"android":"levelo://app?vid=fc143f59-4d09-413a-88f4-7020ad965fc7","ios":"levelo://app?vid=fc143f59-4d09-413a-88f4-7020ad965fc7"},"vehicle_type_id":"4","last_reported":1734624653,"current_range_meters":39200,"station_id":"ce4bhqp2rcd13ifvqhog","pricing_plan_id":"cebpf4jnsgd1na2vs0mg"},{"bike_id":"2b4dbcdd-8242-4ccb-b96f-17eca267540c","system_id":"levelo_inurba_marseille","lat":43.26805,"lon":5.40266,"is_reserved":false,"is_disabled":false,"rental_uris":{"android":"levelo://app?vid=2b4dbcdd-8242-4ccb-b96f-17eca267540c","ios":"levelo://app?vid=2b4dbcdd-8242-4ccb-b96f-17eca267540c"},"vehicle_type_id":"4","last_reported":1734624653,"current_range_meters":18000,"station_id":"ce501612rcd8frsf0b60","pricing_plan_id":"cebpf4jnsgd1na2vs0mg"},{"bike_id":"0d30d046-508d-4c20-a07d-b685c0b7609f","system_id":"levelo_inurba_marseille","lat":43.31329,"lon":5.39699,"is_reserved":false,"is_disabled":false,"rental_uris":{"android":"levelo://app?vid=0d30d046-508d-4c20-a07d-b685c0b7609f","ios":"levelo://app?vid=0d30d046-508d-4c20-a07d-b685c0b7609f"},"vehicle_type_id":"4","last_reported":1734624653,"current_range_meters":30400,"station_id":"ce4bgvp2rcd13ifvqcu0","pricing_plan_id":"cebpf4jnsgd1na2vs0mg"},{"bike_id":"022295e2-5b15-4885-9226-3947e9e53ba2","system_id":"levelo_inurba_marseille","lat":43.30555,"lon":5.36523,"is_reserved":false,"is_disabled":false,"rental_uris":{"android":"levelo://app?vid=022295e2-5b15-4885-9226-3947e9e53ba2","ios":"levelo://app?vid=022295e2-5b15-4885-9226-3947e9e53ba2"},"vehicle_type_id":"4","last_reported":1734624653,"current_range_meters":35600,"station_id":"ce4bgs12rcd13ifvqcag","pricing_plan_id":"cebpf4jnsgd1na2vs0mg"},{"bike_id":"2e2e4dd6-c48a-441f-9043-8a8950beec36","system_id":"levelo_inurba_marseille","lat":43.284166,"lon":5.349816,"is_reserved":false,"is_disabled":false,"rental_uris":{"android":"levelo://app?vid=2e2e4dd6-c48a-441f-9043-8a8950beec36","ios":"levelo://app?vid=2e2e4dd6-c48a-441f-9043-8a8950beec36"},"vehicle_type_id":"4","last_reported":1734624653,"current_range_meters":20000,"station_id":"ce4bhbh2rcd13ifvqepg","pricing_plan_id":"cebpf4jnsgd1na2vs0mg"},{"bike_id":"20c828b8-04f6-4420-8c05-c5783b654af0","system_id":"levelo_inurba_marseille","lat":43.29552,"lon":5.37505,"is_reserved":false,"is_disabled":true,"rental_uris":{"android":"levelo://app?vid=20c828b8-04f6-4420-8c05-c5783b654af0","ios":"levelo://app?vid=20c828b8-04f6-4420-8c05-c5783b654af0"},"vehicle_type_id":"4","last_reported":1734624653,"current_range_meters":0,"station_id":"ce4bgkp2rcd13ifvqbmg","pricing_plan_id":"cebpf4jnsgd1na2vs0mg"},{"bike_id":"e857412f-9ddf-409c-8722-26885f25aa12","system_id":"levelo_inurba_marseille","lat":43.31825,"lon":5.37478,"is_reserved":false,"is_disabled":false,"rental_uris":{"android":"levelo://app?vid=e857412f-9ddf-409c-8722-26885f25aa12","ios":"levelo://app?vid=e857412f-9ddf-409c-8722-26885f25aa12"},"vehicle_type_id":"4","last_reported":1734624653,"current_range_meters":38400,"station_id":"","pricing_plan_id":"cebpf4jnsgd1na2vs0mg"},{"bike_id":"e3651a6b-2bab-462e-8e1d-3da2bff1fcfe","system_id":"levelo_inurba_marseille","lat":43.26947,"lon":5.40254,"is_reserved":false,"is_disabled":false,"rental_uris":{"android":"levelo://app?vid=e3651a6b-2bab-462e-8e1d-3da2bff1fcfe","ios":"levelo://app?vid=e3651a6b-2bab-462e-8e1d-3da2bff1fcfe"},"vehicle_type_id":"4","last_reported":1734624653,"current_range_meters":12000,"station_id":"cjm6bp8fraef2m0cb0m0","pricing_plan_id":"cebpf4jnsgd1na2vs0mg"},{"bike_id":"85227103-9d43-43b9-a143-6ee849b39617","system_id":"levelo_inurba_marseille","lat":43.31418,"lon":5.39381,"is_reserved":false,"is_disabled":false,"rental_uris":{"android":"levelo://app?vid=85227103-9d43-43b9-a143-6ee849b39617","ios":"levelo://app?vid=85227103-9d43-43b9-a143-6ee849b39617"},"vehicle_type_id":"4","last_reported":1734624653,"current_range_meters":38800,"station_id":"","pricing_plan_id":"cebpf4jnsgd1na2vs0mg"},{"bike_id":"22969b79-92f2-4b86-8f15-78738b100370","system_id":"levelo_inurba_marseille","lat":43.2668,"lon":5.38257,"is_reserved":false,"is_disabled":false,"rental_uris":{"android":"levelo://app?vid=22969b79-92f2-4b86-8f15-78738b100370","ios":"levelo://app?vid=22969b79-92f2-4b86-8f15-78738b100370"},"vehicle_type_id":"4","last_reported":1734624653,"current_range_meters":36400,"station_id":"ce4bhg92rcd13ifvqf90","pricing_plan_id":"cebpf4jnsgd1na2vs0mg"},{"bike_id":"df14045e-8e73-442d-8baf-7ce7c5ec81fd","system_id":"levelo_inurba_marseille","lat":43.24195,"lon":5.36396,"is_reserved":false,"is_disabled":false,"rental_uris":{"android":"levelo://app?vid=df14045e-8e73-442d-8baf-7ce7c5ec81fd","ios":"levelo://app?vid=df14045e-8e73-442d-8baf-7ce7c5ec81fd"},"vehicle_type_id":"4","last_reported":1734624653,"current_range_meters":32400,"station_id":"cpo36qri1sfpv3e86is0","pricing_plan_id":"cebpf4jnsgd1na2vs0mg"},{"bike_id":"530181b4-fb1a-4fd9-b63f-7028d98ecfa2","system_id":"levelo_inurba_marseille","lat":43.3248,"lon":5.36573,"is_reserved":false,"is_disabled":false,"rental_uris":{"android":"levelo://app?vid=530181b4-fb1a-4fd9-b63f-7028d98ecfa2","ios":"levelo://app?vid=530181b4-fb1a-4fd9-b63f-7028d98ecfa2"},"vehicle_type_id":"4","last_reported":1734624653,"current_range_meters":19200,"station_id":"ce4bhs12rcd13ifvqhvg","pricing_plan_id":"cebpf4jnsgd1na2vs0mg"},{"bike_id":"032c026d-36ab-4f1a-b0b2-55619b14f035","system_id":"levelo_inurba_marseille","lat":43.29968,"lon":5.38499,"is_reserved":false,"is_disabled":false,"rental_uris":{"android":"levelo://app?vid=032c026d-36ab-4f1a-b0b2-55619b14f035","ios":"levelo://app?vid=032c026d-36ab-4f1a-b0b2-55619b14f035"},"vehicle_type_id":"4","last_reported":1734624653,"current_range_meters":20000,"station_id":"ce4bgj92rcd13ifvqbd0","pricing_plan_id":"cebpf4jnsgd1na2vs0mg"},{"bike_id":"e6fd47fa-2f3c-4e49-ab51-da28928363a6","system_id":"levelo_inurba_marseille","lat":43.2942,"lon":5.3862,"is_reserved":false,"is_disabled":false,"rental_uris":{"android":"levelo://app?vid=e6fd47fa-2f3c-4e49-ab51-da28928363a6","ios":"levelo://app?vid=e6fd47fa-2f3c-4e49-ab51-da28928363a6"},"vehicle_type_id":"4","last_reported":1734624653,"current_range_meters":25600,"station_id":"ce4bh2h2rcd13ifvqdh0","pricing_plan_id":"cebpf4jnsgd1na2vs0mg"},{"bike_id":"fe343762-63ab-4aa5-b1e6-cf8041f2d578","system_id":"levelo_inurba_marseille","lat":43.32519,"lon":5.3657,"is_reserved":false,"is_disabled":false,"rental_uris":{"android":"levelo://app?vid=fe343762-63ab-4aa5-b1e6-cf8041f2d578","ios":"levelo://app?vid=fe343762-63ab-4aa5-b1e6-cf8041f2d578"},"vehicle_type_id":"4","last_reported":1734624653,"current_range_meters":39200,"station_id":"ce4bhs12rcd13ifvqhvg","pricing_plan_id":"cebpf4jnsgd1na2vs0mg"},{"bike_id":"990eb80d-1c49-4563-9c42-0f0a0f9d0bef","system_id":"levelo_inurba_marseille","lat":43.29006,"lon":5.35613,"is_reserved":false,"is_disabled":false,"rental_uris":{"android":"levelo://app?vid=990eb80d-1c49-4563-9c42-0f0a0f9d0bef","ios":"levelo://app?vid=990eb80d-1c49-4563-9c42-0f0a0f9d0bef"},"vehicle_type_id":"4","last_reported":1734624653,"current_range_meters":37600,"station_id":"ce4bhb92rcd13ifvqen0","pricing_plan_id":"cebpf4jnsgd1na2vs0mg"},{"bike_id":"ebdcea57-622e-45af-a691-572913cbe52b","system_id":"levelo_inurba_marseille","lat":43.24804,"lon":5.37458,"is_reserved":false,"is_disabled":false,"rental_uris":{"android":"levelo://app?vid=ebdcea57-622e-45af-a691-572913cbe52b","ios":"levelo://app?vid=ebdcea57-622e-45af-a691-572913cbe52b"},"vehicle_type_id":"4","last_reported":1734624653,"current_range_meters":24000,"station_id":"ce4bhgh2rcd13ifvqfb0","pricing_plan_id":"cebpf4jnsgd1na2vs0mg"},{"bike_id":"50ca5d90-c82d-457a-ade3-fac6a138f4c3","system_id":"levelo_inurba_marseille","lat":43.29153,"lon":5.37156,"is_reserved":false,"is_disabled":false,"rental_uris":{"android":"levelo://app?vid=50ca5d90-c82d-457a-ade3-fac6a138f4c3","ios":"levelo://app?vid=50ca5d90-c82d-457a-ade3-fac6a138f4c3"},"vehicle_type_id":"4","last_reported":1734624653,"current_range_meters":34800,"station_id":"ce4bha92rcd13ifvqeh0","pricing_plan_id":"cebpf4jnsgd1na2vs0mg"},{"bike_id":"5b64ff1b-7857-4dcc-9218-667719448114","system_id":"levelo_inurba_marseille","lat":43.29172,"lon":5.37153,"is_reserved":false,"is_disabled":false,"rental_uris":{"android":"levelo://app?vid=5b64ff1b-7857-4dcc-9218-667719448114","ios":"levelo://app?vid=5b64ff1b-7857-4dcc-9218-667719448114"},"vehicle_type_id":"4","last_reported":1734624653,"current_range_meters":38800,"station_id":"ce4bha92rcd13ifvqeh0","pricing_plan_id":"cebpf4jnsgd1na2vs0mg"},{"bike_id":"a052dd0b-cf19-4ab4-8ea9-cc7f343e44e6","system_id":"levelo_inurba_marseille","lat":43.28079,"lon":5.39637,"is_reserved":false,"is_disabled":false,"rental_uris":{"android":"levelo://app?vid=a052dd0b-cf19-4ab4-8ea9-cc7f343e44e6","ios":"levelo://app?vid=a052dd0b-cf19-4ab4-8ea9-cc7f343e44e6"},"vehicle_type_id":"4","last_reported":1734624653,"current_range_meters":18000,"station_id":"ce4bho12rcd13ifvqh2g","pricing_plan_id":"cebpf4jnsgd1na2vs0mg"},{"bike_id":"d93ef610-25b9-4620-b223-d6b71e9f14b7","system_id":"levelo_inurba_marseille","lat":43.32103,"lon":5.36771,"is_reserved":false,"is_disabled":false,"rental_uris":{"android":"levelo://app?vid=d93ef610-25b9-4620-b223-d6b71e9f14b7","ios":"levelo://app?vid=d93ef610-25b9-4620-b223-d6b71e9f14b7"},"vehicle_type_id":"4","last_reported":1734624653,"current_range_meters":32400,"station_id":"ce4bhrh2rcd13ifvqhug","pricing_plan_id":"cebpf4jnsgd1na2vs0mg"},{"bike_id":"19538c06-25e8-4156-9313-a820858da63f","system_id":"levelo_inurba_marseille","lat":43.2845,"lon":5.35888,"is_reserved":false,"is_disabled":false,"rental_uris":{"android":"levelo://app?vid=19538c06-25e8-4156-9313-a820858da63f","ios":"levelo://app?vid=19538c06-25e8-4156-9313-a820858da63f"},"vehicle_type_id":"4","last_reported":1734624653,"current_range_meters":8400,"station_id":"ce4bhah2rcd13ifvqei0","pricing_plan_id":"cebpf4jnsgd1na2vs0mg"},{"bike_id":"31d3ce82-f05d-4e7e-99a0-a4b923659bac","system_id":"levelo_inurba_marseille","lat":43.29966,"lon":5.37186,"is_reserved":false,"is_disabled":false,"rental_uris":{"android":"levelo://app?vid=31d3ce82-f05d-4e7e-99a0-a4b923659bac","ios":"levelo://app?vid=31d3ce82-f05d-4e7e-99a0-a4b923659bac"},"vehicle_type_id":"4","last_reported":1734624653,"current_range_meters":38800,"station_id":"ce4bgr92rcd13ifvqc7g","pricing_plan_id":"cebpf4jnsgd1na2vs0mg"},{"bike_id":"c992250b-857f-4045-9c40-d2422e40581b","system_id":"levelo_inurba_marseille","lat":43.30152,"lon":5.3742,"is_reserved":false,"is_disabled":false,"rental_uris":{"android":"levelo://app?vid=c992250b-857f-4045-9c40-d2422e40581b","ios":"levelo://app?vid=c992250b-857f-4045-9c40-d2422e40581b"},"vehicle_type_id":"4","last_reported":1734624653,"current_range_meters":16400,"station_id":"ce4bgs92rcd13ifvqcc0","pricing_plan_id":"cebpf4jnsgd1na2vs0mg"},{"bike_id":"fc82524a-b123-40be-b9de-aef30122c367","system_id":"levelo_inurba_marseille","lat":43.29877,"lon":5.38906,"is_reserved":false,"is_disabled":false,"rental_uris":{"android":"levelo://app?vid=fc82524a-b123-40be-b9de-aef30122c367","ios":"levelo://app?vid=fc82524a-b123-40be-b9de-aef30122c367"},"vehicle_type_id":"4","last_reported":1734624653,"current_range_meters":24800,"station_id":"ce4bh392rcd13ifvqdl0","pricing_plan_id":"cebpf4jnsgd1na2vs0mg"},{"bike_id":"41754dfe-f488-4983-953c-0db12d925edb","system_id":"levelo_inurba_marseille","lat":43.28931,"lon":5.38382,"is_reserved":false,"is_disabled":false,"rental_uris":{"android":"levelo://app?vid=41754dfe-f488-4983-953c-0db12d925edb","ios":"levelo://app?vid=41754dfe-f488-4983-953c-0db12d925edb"},"vehicle_type_id":"4","last_reported":1734624653,"current_range_meters":14000,"station_id":"ce4bh612rcd13ifvqe6g","pricing_plan_id":"cebpf4jnsgd1na2vs0mg"},{"bike_id":"6a54e1af-002b-4d8e-828d-a64a7f9f347b","system_id":"levelo_inurba_marseille","lat":43.27996,"lon":5.40011,"is_reserved":false,"is_disabled":true,"rental_uris":{"android":"levelo://app?vid=6a54e1af-002b-4d8e-828d-a64a7f9f347b","ios":"levelo://app?vid=6a54e1af-002b-4d8e-828d-a64a7f9f347b"},"vehicle_type_id":"4","last_reported":1734624653,"current_range_meters":800,"station_id":"ce4bho92rcd13ifvqh4g","pricing_plan_id":"cebpf4jnsgd1na2vs0mg"},{"bike_id":"48bca474-c587-4397-87db-5d17650905ea","system_id":"levelo_inurba_marseille","lat":43.30322,"lon":5.40434,"is_reserved":false,"is_disabled":false,"rental_uris":{"android":"levelo://app?vid=48bca474-c587-4397-87db-5d17650905ea","ios":"levelo://app?vid=48bca474-c587-4397-87db-5d17650905ea"},"vehicle_type_id":"4","last_reported":1734624653,"current_range_meters":27600,"station_id":"ce4bh012rcd13ifvqd10","pricing_plan_id":"cebpf4jnsgd1na2vs0mg"},{"bike_id":"e630aac2-3c12-4bed-821c-d37ccbde54b8","system_id":"levelo_inurba_marseille","lat":43.28938,"lon":5.36408,"is_reserved":false,"is_disabled":false,"rental_uris":{"android":"levelo://app?vid=e630aac2-3c12-4bed-821c-d37ccbde54b8","ios":"levelo://app?vid=e630aac2-3c12-4bed-821c-d37ccbde54b8"},"vehicle_type_id":"4","last_reported":1734624653,"current_range_meters":38800,"station_id":"ce4bhc92rcd13ifvqetg","pricing_plan_id":"cebpf4jnsgd1na2vs0mg"},{"bike_id":"19fdfde3-1106-4c9f-aa83-c033c535965a","system_id":"levelo_inurba_marseille","lat":43.3085,"lon":5.37305,"is_reserved":false,"is_disabled":true,"rental_uris":{"android":"levelo://app?vid=19fdfde3-1106-4c9f-aa83-c033c535965a","ios":"levelo://app?vid=19fdfde3-1106-4c9f-aa83-c033c535965a"},"vehicle_type_id":"4","last_reported":1734624653,"current_range_meters":0,"station_id":"","pricing_plan_id":"cebpf4jnsgd1na2vs0mg"},{"bike_id":"6ef40d34-217a-48f8-a32f-f523ce67eeb8","system_id":"levelo_inurba_marseille","lat":43.25401,"lon":5.38505,"is_reserved":false,"is_disabled":false,"rental_uris":{"android":"levelo://app?vid=6ef40d34-217a-48f8-a32f-f523ce67eeb8","ios":"levelo://app?vid=6ef40d34-217a-48f8-a32f-f523ce67eeb8"},"vehicle_type_id":"4","last_reported":1734624653,"current_range_meters":6800,"station_id":"","pricing_plan_id":"cebpf4jnsgd1na2vs0mg"},{"bike_id":"b43a7e0f-791e-4c12-bece-62f5c636279e","system_id":"levelo_inurba_marseille","lat":43.31312,"lon":5.37267,"is_reserved":false,"is_disabled":true,"rental_uris":{"android":"levelo://app?vid=b43a7e0f-791e-4c12-bece-62f5c636279e","ios":"levelo://app?vid=b43a7e0f-791e-4c12-bece-62f5c636279e"},"vehicle_type_id":"4","last_reported":1734624653,"current_range_meters":1600,"station_id":"","pricing_plan_id":"cebpf4jnsgd1na2vs0mg"},{"bike_id":"1e1ed045-63cb-47e3-8543-46d44433980c","system_id":"levelo_inurba_marseille","lat":43.29602,"lon":5.37734,"is_reserved":false,"is_disabled":false,"rental_uris":{"android":"levelo://app?vid=1e1ed045-63cb-47e3-8543-46d44433980c","ios":"levelo://app?vid=1e1ed045-63cb-47e3-8543-46d44433980c"},"vehicle_type_id":"4","last_reported":1734624653,"current_range_meters":20000,"station_id":"ce4bgi92rcd13ifvqb90","pricing_plan_id":"cebpf4jnsgd1na2vs0mg"},{"bike_id":"8b21af15-b689-4f83-836d-769e846e34f5","system_id":"levelo_inurba_marseille","lat":43.27214,"lon":5.39184,"is_reserved":false,"is_disabled":false,"rental_uris":{"android":"levelo://app?vid=8b21af15-b689-4f83-836d-769e846e34f5","ios":"levelo://app?vid=8b21af15-b689-4f83-836d-769e846e34f5"},"vehicle_type_id":"4","last_reported":1734624653,"current_range_meters":24800,"station_id":"ce4bhhp2rcd13ifvqfm0","pricing_plan_id":"cebpf4jnsgd1na2vs0mg"},