{"last_updated":1748290269,"ttl":60,"version":"2.2","data":{"bikes":[{"bike_id":"c0b9fd4f-e181-46ce-b0bf-f5119973334f","system_id":"levelo_inurba_marseille","lat":43.33771,"lon":5.37424,"is_reserved":false,"is_disabled":true,"rental_uris":{"android":"levelo://app?vid=c0b9fd4f-e181-46ce-b0bf-f5119973334f","ios":"levelo://app?vid=c0b9fd4f-e181-46ce-b0bf-f5119973334f"},"vehicle_type_id":"4","last_reported":1748290269,"current_range_meters":0,"station_id":"","pricing_plan_id":"cebpf4jnsgd1na2vs0mg"},{"bike_id":"3fe3d6c4-138a-47df-b6b4-e6f19e8f7d46","system_id":"levelo_inurba_marseille","lat":43.21411,"lon":5.34114,"is_reserved":false,"is_disabled":true,"rental_uris":{"android":"levelo://app?vid=3fe3d6c4-138a-47df-b6b4-e6f19e8f7d46","ios":"levelo://app?vid=3fe3d6c4-138a-47df-b6b4-e6f19e8f7d46"},"vehicle_type_id":"4","last_reported":1748290269,"current_range_meters":0,"station_id":"","pricing_plan_id":"cebpf4jnsgd1na2vs0mg"},{"bike_id":"fd133867-b5d2-4fd2-aa0a-382781ea3f5a","system_id":"levelo_inurba_marseille","lat":43.29097,"lon":5.43267,"is_reserved":false,"is_disabled":true,"rental_uris":{"android":"levelo://app?vid=fd133867-b5d2-4fd2-aa0a-382781ea3f5a","ios":"levelo://app?vid=fd133867-b5d2-4fd2-aa0a-382781ea3f5a"},"vehicle_type_id":"4","last_reported":1748290269,"current_range_meters":0,"station_id":"","pricing_plan_id":"cebpf4jnsgd1na2vs0mg"},{"bike_id":"15dcdbbd-a41e-43eb-9ed6-26ec15ce7a50","system_id":"levelo_inurba_marseille","lat":43.21411,"lon":5.34113,"is_reserved":false,"is_disabled":true,"rental_uris":{"android":"levelo://app?vid=15dcdbbd-a41e-43eb-9ed6-26ec15ce7a50","ios":"levelo://app?vid=15dcdbbd-a41e-43eb-9ed6-26ec15ce7a50"},"vehicle_type_id":"4","last_reported":1748290269,"current_range_meters":0,"station_id":"","pricing_plan_id":"cebpf4jnsgd1na2vs0mg"},{"bike_id":"f9fb40c0-1fcd-48cb-8e26-3f2dc0fb2451","system_id":"levelo_inurba_marseille","lat":43.33751,"lon":5.37509,"is_reserved":false,"is_disabled":true,"rental_uris":{"android":"levelo://app?vid=f9fb40c0-1fcd-48cb-8e26-3f2dc0fb2451","ios":"levelo://app?vid=f9fb40c0-1fcd-48cb-8e26-3f2dc0fb2451"},"vehicle_type_id":"4","last_reported":1748290269,"current_range_meters":0,"station_id":"","pricing_plan_id":"cebpf4jnsgd1na2vs0mg"},{"bike_id":"e9dd3aa4-b5e7-4480-926d-d7f537719bfa","system_id":"levelo_inurba_marseille","lat":43.230331,"lon":5.401847,"is_reserved":false,"is_disabled":true,"rental_uris":{"android":"levelo://app?vid=e9dd3aa4-b5e7-4480-926d-d7f537719bfa","ios":"levelo://app?vid=e9dd3aa4-b5e7-4480-926d-d7f537719bfa"},"vehicle_type_id":"4","last_reported":1748290269,"current_range_meters":0,"station_id":"","pricing_plan_id":"cebpf4jnsgd1na2vs0mg"},{"bike_id":"dcd075ea-b4af-4d6d-90b2-1236858b7bc1","system_id":"levelo_inurba_marseille","lat":43.27609,"lon":5.35873,"is_reserved":false,"is_disabled":true,"rental_uris":{"android":"levelo://app?vid=dcd075ea-b4af-4d6d-90b2-1236858b7bc1","ios":"levelo://app?vid=dcd075ea-b4af-4d6d-90b2-1236858b7bc1"},"vehicle_type_id":"4","last_reported":1748290269,"current_range_meters":0,"station_id":"","pricing_plan_id":"cebpf4jnsgd1na2vs0mg"},{"bike_id":"d541e59f-30c7-4bee-a644-e125b03e98be","system_id":"levelo_inurba_marseille","lat":43.3054,"lon":5.38424,"is_reserved":false,"is_disabled":true,"rental_uris":{"android":"levelo://app?vid=d541e59f-30c7-4bee-a644-e125b03e98be","ios":"levelo://app?vid=d541e59f-30c7-4bee-a644-e125b03e98be"},"vehicle_type_id":"4","last_reported":1748290269,"current_range_meters":0,"station_id":"ce4bgg92rcd13ifvqb30","pricing_plan_id":"cebpf4jnsgd1na2vs0mg"},{"bike_id":"3672a065-2e47-406b-a515-3a3e7dbe0510","system_id":"levelo_inurba_marseille","lat":43.29977,"lon":5.38511,"is_reserved":false,"is_disabled":true,"rental_uris":{"android":"levelo://app?vid=3672a065-2e47-406b-a515-3a3e7dbe0510","ios":"levelo://app?vid=3672a065-2e47-406b-a515-3a3e7dbe0510"},"vehicle_type_id":"4","last_reported":1748290269,"current_range_meters":0,"station_id":"ce4bgj92rcd13ifvqbd0","pricing_plan_id":"cebpf4jnsgd1na2vs0mg"},{"bike_id":"6b673f69-7a08-4272-a4e7-0c6271c327cf","system_id":"levelo_inurba_marseille","lat":43.2997,"lon":5.3849,"is_reserved":false,"is_disabled":true,"rental_uris":{"android":"levelo://app?vid=6b673f69-7a08-4272-a4e7-0c6271c327cf","ios":"levelo://app?vid=6b673f69-7a08-4272-a4e7-0c6271c327cf"},"vehicle_type_id":"4","last_reported":1748290269,"current_range_meters":0,"station_id":"ce4bgj92rcd13ifvqbd0","pricing_plan_id":"cebpf4jnsgd1na2vs0mg"},{"bike_id":"939b09e7-8fc8-4eda-b473-e89e1ae54bce","system_id":"levelo_inurba_marseille","lat":43.2849,"lon":5.38417,"is_reserved":false,"is_disabled":true,"rental_uris":{"android":"levelo://app?vid=939b09e7-8fc8-4eda-b473-e89e1ae54bce","ios":"levelo://app?vid=939b09e7-8fc8-4eda-b473-e89e1ae54bce"},"vehicle_type_id":"4","last_reported":1748290269,"current_range_meters":0,"station_id":"ce4bh512rcd13ifvqe3g","pricing_plan_id":"cebpf4jnsgd1na2vs0mg"},{"bike_id":"9622863e-aa10-45db-8300-fecbadd8d19f","system_id":"levelo_inurba_marseille","lat":43.31713,"lon":5.43707,"is_reserved":false,"is_disabled":true,"rental_uris":{"android":"levelo://app?vid=9622863e-aa10-45db-8300-fecbadd8d19f","ios":"levelo://app?vid=9622863e-aa10-45db-8300-fecbadd8d19f"},"vehicle_type_id":"4","last_reported":1748290269,"current_range_meters":0,"station_id":"ce4bhp92rcd13ifvqhcg","pricing_plan_id":"cebpf4jnsgd1na2vs0mg"},{"bike_id":"fa9040cb-6f75-4844-b106-1e6202cc5853","system_id":"levelo_inurba_marseille","lat":43.29904,"lon":5.43651,"is_reserved":false,"is_disabled":true,"rental_uris":{"android":"levelo://app?vid=fa9040cb-6f75-4844-b106-1e6202cc5853","ios":"levelo://app?vid=fa9040cb-6f75-4844-b106-1e6202cc5853"},"vehicle_type_id":"4","last_reported":1748290269,"current_range_meters":0,"station_id":"ce4bhpp2rcd13ifvqhfg","pricing_plan_id":"cebpf4jnsgd1na2vs0mg"},{"bike_id":"ea78768f-2093-4e5c-969b-92ee6fda981f","system_id":"levelo_inurba_marseille","lat":43.32289,"lon":5.38277,"is_reserved":false,"is_disabled":true,"rental_uris":{"android":"levelo://app?vid=ea78768f-2093-4e5c-969b-92ee6fda981f","ios":"levelo://app?vid=ea78768f-2093-4e5c-969b-92ee6fda981f"},"vehicle_type_id":"4","last_reported":1748290269,"current_range_meters":0,"station_id":"ce4bhr12rcd13ifvqhqg","pricing_plan_id":"cebpf4jnsgd1na2vs0mg"},{"bike_id":"3581c28c-41f2-4cb7-b494-0448776c0438","system_id":"levelo_inurba_marseille","lat":43.29632,"lon":5.36043,"is_reserved":false,"is_disabled":true,"rental_uris":{"android":"levelo://app?vid=3581c28c-41f2-4cb7-b494-0448776c0438","ios":"levelo://app?vid=3581c28c-41f2-4cb7-b494-0448776c0438"},"vehicle_type_id":"4","last_reported":1748290269,"current_range_meters":1200,"station_id":"","pricing_plan_id":"cebpf4jnsgd1na2vs0mg"},{"bike_id":"960f8f12-c2df-44d8-937d-8b181daa4d97","system_id":"levelo_inurba_marseille","lat":43.26787,"lon":5.39412,"is_reserved":false,"is_disabled":true,"rental_uris":{"android":"levelo://app?vid=960f8f12-c2df-44d8-937d-8b181daa4d97","ios":"levelo://app?vid=960f8f12-c2df-44d8-937d-8b181daa4d97"},"vehicle_type_id":"4","last_reported":1748290269,"current_range_meters":1200,"station_id":"ce4bhh12rcd13ifvqfg0","pricing_plan_id":"cebpf4jnsgd1na2vs0mg"},{"bike_id":"3fb85001-888b-4639-8981-19ceb1111a17","system_id":"levelo_inurba_marseille","lat":43.29886,"lon":5.43665,"is_reserved":false,"is_disabled":true,"rental_uris":{"android":"levelo://app?vid=3fb85001-888b-4639-8981-19ceb1111a17","ios":"levelo://app?vid=3fb85001-888b-4639-8981-19ceb1111a17"},"vehicle_type_id":"4","last_reported":1748290269,"current_range_meters":1200,"station_id":"ce4bhpp2rcd13ifvqhfg","pricing_plan_id":"cebpf4jnsgd1na2vs0mg"},{"bike_id":"f043e868-ac9b-4cff-a3e5-9167c8c997d9","system_id":"levelo_inurba_marseille","lat":43.21749,"lon":5.34601,"is_reserved":false,"is_disabled":true,"rental_uris":{"android":"levelo://app?vid=f043e868-ac9b-4cff-a3e5-9167c8c997d9","ios":"levelo://app?vid=f043e868-ac9b-4cff-a3e5-9167c8c997d9"},"vehicle_type_id":"4","last_reported":1748290269,"current_range_meters":2000,"station_id":"","pricing_plan_id":"cebpf4jnsgd1na2vs0mg"},{"bike_id":"3936396b-81d3-433a-ab76-7ebefe7e3d41","system_id":"levelo_inurba_marseille","lat":43.29308,"lon":5.3719,"is_reserved":false,"is_disabled":false,"rental_uris":{"android":"levelo://app?vid=3936396b-81d3-433a-ab76-7ebefe7e3d41","ios":"levelo://app?vid=3936396b-81d3-433a-ab76-7ebefe7e3d41"},"vehicle_type_id":"4","last_reported":1748290269,"current_range_meters":3200,"station_id":"ce4bgh92rcd13ifvqb40","pricing_plan_id":"cebpf4jnsgd1na2vs0mg"},{"bike_id":"da453a88-f81b-4e0f-9781-5a7f6c1d364c","system_id":"levelo_inurba_marseille","lat":43.337499,"lon":5.374469,"is_reserved":false,"is_disabled":false,"rental_uris":{"android":"levelo://app?vid=da453a88-f81b-4e0f-9781-5a7f6c1d364c","ios":"levelo://app?vid=da453a88-f81b-4e0f-9781-5a7f6c1d364c"},"vehicle_type_id":"4","last_reported":1748290269,"current_range_meters":3600,"station_id":"","pricing_plan_id":"cebpf4jnsgd1na2vs0mg"},{"bike_id":"d9fa0449-e47c-4bbe-a91c-4939cab5d888","system_id":"levelo_inurba_marseille","lat":43.28569,"lon":5.42609,"is_reserved":false,"is_disabled":false,"rental_uris":{"android":"levelo://app?vid=d9fa0449-e47c-4bbe-a91c-4939cab5d888","ios":"levelo://app?vid=d9fa0449-e47c-4bbe-a91c-4939cab5d888"},"vehicle_type_id":"4","last_reported":1748290269,"current_range_meters":3600,"station_id":"","pricing_plan_id":"cebpf4jnsgd1na2vs0mg"},{"bike_id":"f17032d3-af84-4438-8701-57b5fefb7e30","system_id":"levelo_inurba_marseille","lat":43.31715,"lon":5.43706,"is_reserved":false,"is_disabled":false,"rental_uris":{"android":"levelo://app?vid=f17032d3-af84-4438-8701-57b5fefb7e30","ios":"levelo://app?vid=f17032d3-af84-4438-8701-57b5fefb7e30"},"vehicle_type_id":"4","last_reported":1748290269,"current_range_meters":3600,"station_id":"ce4bhp92rcd13ifvqhcg","pricing_plan_id":"cebpf4jnsgd1na2vs0mg"},{"bike_id":"5ff88ea1-4e38-4716-bcb7-71bc7bfb3c7c","system_id":"levelo_inurba_marseille","lat":43.285741,"lon":5.394994,"is_reserved":false,"is_disabled":false,"rental_uris":{"android":"levelo://app?vid=5ff88ea1-4e38-4716-bcb7-71bc7bfb3c7c","ios":"levelo://app?vid=5ff88ea1-4e38-4716-bcb7-71bc7bfb3c7c"},"vehicle_type_id":"4","last_reported":1748290269,"current_range_meters":4000,"station_id":"ce4bh292rcd13ifvqdg0","pricing_plan_id":"cebpf4jnsgd1na2vs0mg"},{"bike_id":"98ebf65e-e651-43eb-bbd4-161cddcbd829","system_id":"levelo_inurba_marseille","lat":43.284768,"lon":5.384156,"is_reserved":false,"is_disabled":false,"rental_uris":{"android":"levelo://app?vid=98ebf65e-e651-43eb-bbd4-161cddcbd829","ios":"levelo://app?vid=98ebf65e-e651-43eb-bbd4-161cddcbd829"},"vehicle_type_id":"4","last_reported":1748290269,"current_range_meters":4000,"station_id":"ce4bh512rcd13ifvqe3g","pricing_plan_id":"cebpf4jnsgd1na2vs0mg"},{"bike_id":"6a2e6f48-058f-41ff-b150-9f9d8eda1caf","system_id":"levelo_inurba_marseille","lat":43.30332,"lon":5.40457,"is_reserved":false,"is_disabled":false,"rental_uris":{"android":"levelo://app?vid=6a2e6f48-058f-41ff-b150-9f9d8eda1caf","ios":"levelo://app?vid=6a2e6f48-058f-41ff-b150-9f9d8eda1caf"},"vehicle_type_id":"4","last_reported":1748290269,"current_range_meters":4400,"station_id":"ce4bh012rcd13ifvqd10","pricing_plan_id":"cebpf4jnsgd1na2vs0mg"},{"bike_id":"29f774f8-71be-4397-b3bb-19bc8d478c8b","system_id":"levelo_inurba_marseille","lat":43.3033,"lon":5.40436,"is_reserved":false,"is_disabled":false,"rental_uris":{"android":"levelo://app?vid=29f774f8-71be-4397-b3bb-19bc8d478c8b","ios":"levelo://app?vid=29f774f8-71be-4397-b3bb-19bc8d478c8b"},"vehicle_type_id":"4","last_reported":1748290269,"current_range_meters":4400,"station_id":"ce4bh012rcd13ifvqd10","pricing_plan_id":"cebpf4jnsgd1na2vs0mg"},{"bike_id":"fbf44674-74d5-4106-bee3-4b7f0c029530","system_id":"levelo_inurba_marseille","lat":43.25582,"lon":5.38239,"is_reserved":false,"is_disabled":false,"rental_uris":{"android":"levelo://app?vid=fbf44674-74d5-4106-bee3-4b7f0c029530","ios":"levelo://app?vid=fbf44674-74d5-4106-bee3-4b7f0c029530"},"vehicle_type_id":"4","last_reported":1748290269,"current_range_meters":4400,"station_id":"ce4bhih2rcd13ifvqfs0","pricing_plan_id":"cebpf4jnsgd1na2vs0mg"},{"bike_id":"f93ce947-e848-4762-9962-426f3826fd4c","system_id":"levelo_inurba_marseille","lat":43.24069,"lon":5.37762,"is_reserved":false,"is_disabled":false,"rental_uris":{"android":"levelo://app?vid=f93ce947-e848-4762-9962-426f3826fd4c","ios":"levelo://app?vid=f93ce947-e848-4762-9962-426f3826fd4c"},"vehicle_type_id":"4","last_reported":1748290269,"current_range_meters":4800,"station_id":"ce4bhnp2rcd13ifvqgvg","pricing_plan_id":"cebpf4jnsgd1na2vs0mg"},{"bike_id":"b0b5055d-b4c8-4426-a6c6-55a885d6ab68","system_id":"levelo_inurba_marseille","lat":43.299763,"lon":5.371792,"is_reserved":false,"is_disabled":false,"rental_uris":{"android":"levelo://app?vid=b0b5055d-b4c8-4426-a6c6-55a885d6ab68","ios":"levelo://app?vid=b0b5055d-b4c8-4426-a6c6-55a885d6ab68"},"vehicle_type_id":"4","last_reported":1748290269,"current_range_meters":5600,"station_id":"ce4bgr92rcd13ifvqc7g","pricing_plan_id":"cebpf4jnsgd1na2vs0mg"},{"bike_id":"6e20cec4-febd-4977-b683-025f53de29ae","system_id":"levelo_inurba_marseille","lat":43.31368,"lon":5.38487,"is_reserved":false,"is_disabled":false,"rental_uris":{"android":"levelo://app?vid=6e20cec4-febd-4977-b683-025f53de29ae","ios":"levelo://app?vid=6e20cec4-febd-4977-b683-025f53de29ae"},"vehicle_type_id":"4","last_reported":1748290269,"current_range_meters":5600,"station_id":"ce4bgt92rcd13ifvqcf0","pricing_plan_id":"cebpf4jnsgd1na2vs0mg"},{"bike_id":"e574dd70-05b5-4c8e-a94b-95d7c4ae6cb0","system_id":"levelo_inurba_marseille","lat":43.248077,"lon":5.374586,"is_reserved":false,"is_disabled":false,"rental_uris":{"android":"levelo://app?vid=e574dd70-05b5-4c8e-a94b-95d7c4ae6cb0","ios":"levelo://app?vid=e574dd70-05b5-4c8e-a94b-95d7c4ae6cb0"},"vehicle_type_id":"4","last_reported":1748290269,"current_range_meters":5600,"station_id":"ce4bhgh2rcd13ifvqfb0","pricing_plan_id":"cebpf4jnsgd1na2vs0mg"},{"bike_id":"8410aaa9-3d50-436d-96cd-99aab31139ea","system_id":"levelo_inurba_marseille","lat":43.30947,"lon":5.39035,"is_reserved":false,"is_disabled":false,"rental_uris":{"android":"levelo://app?vid=8410aaa9-3d50-436d-96cd-99aab31139ea","ios":"levelo://app?vid=8410aaa9-3d50-436d-96cd-99aab31139ea"},"vehicle_type_id":"4","last_reported":1748290269,"current_range_meters":6000,"station_id":"ce4bgup2rcd13ifvqco0","pricing_plan_id":"cebpf4jnsgd1na2vs0mg"},{"bike_id":"b89b3c0d-7c8d-4966-864d-ef89071ffaee","system_id":"levelo_inurba_marseille","lat":43.29873,"lon":5.39733,"is_reserved":false,"is_disabled":false,"rental_uris":{"android":"levelo://app?vid=b89b3c0d-7c8d-4966-864d-ef89071ffaee","ios":"levelo://app?vid=b89b3c0d-7c8d-4966-864d-ef89071ffaee"},"vehicle_type_id":"4","last_reported":1748290269,"current_range_meters":6000,"station_id":"ce4bh0h2rcd13ifvqd50","pricing_plan_id":"cebpf4jnsgd1na2vs0mg"},{"bike_id":"ad9b1c6e-50e9-4d0e-b1ea-74a07d38f099","system_id":"levelo_inurba_marseille","lat":43.28576,"lon":5.395,"is_reserved":false,"is_disabled":false,"rental_uris":{"android":"levelo://app?vid=ad9b1c6e-50e9-4d0e-b1ea-74a07d38f099","ios":"levelo://app?vid=ad9b1c6e-50e9-4d0e-b1ea-74a07d38f099"},"vehicle_type_id":"4","last_reported":1748290269,"current_range_meters":6000,"station_id":"ce4bh292rcd13ifvqdg0","pricing_plan_id":"cebpf4jnsgd1na2vs0mg"},{"bike_id":"86a39d41-7fc8-4b7c-b4e6-4c8b7a7ba79a","system_id":"levelo_inurba_marseille","lat":43.290465,"lon":5.375839,"is_reserved":false,"is_disabled":false,"rental_uris":{"android":"levelo://app?vid=86a39d41-7fc8-4b7c-b4e6-4c8b7a7ba79a","ios":"levelo://app?vid=86a39d41-7fc8-4b7c-b4e6-4c8b7a7ba79a"},"vehicle_type_id":"4","last_reported":1748290269,"current_range_meters":6000,"station_id":"ce4bh5p2rcd13ifvqe4g","pricing_plan_id":"cebpf4jnsgd1na2vs0mg"},{"bike_id":"01ecfbd3-00ae-4972-ab6c-e7cd122f620d","system_id":"levelo_inurba_marseille","lat":43.29526,"lon":5.39395,"is_reserved":false,"is_disabled":false,"rental_uris":{"android":"levelo://app?vid=01ecfbd3-00ae-4972-ab6c-e7cd122f620d","ios":"levelo://app?vid=01ecfbd3-00ae-4972-ab6c-e7cd122f620d"},"vehicle_type_id":"4","last_reported":1748290269,"current_range_meters":6400,"station_id":"ce4bh292rcd13ifvqdf0","pricing_plan_id":"cebpf4jnsgd1na2vs0mg"},{"bike_id":"26dd8332-c1be-4c21-bdb3-213eb76b6465","system_id":"levelo_inurba_marseille","lat":43.28562,"lon":5.39497,"is_reserved":false,"is_disabled":false,"rental_uris":{"android":"levelo://app?vid=26dd8332-c1be-4c21-bdb3-213eb76b6465","ios":"levelo://app?vid=26dd8332-c1be-4c21-bdb3-213eb76b6465"},"vehicle_type_id":"4","last_reported":1748290269,"current_range_meters":6400,"station_id":"ce4bh292rcd13ifvqdg0","pricing_plan_id":"cebpf4jnsgd1na2vs0mg"},{"bike_id":"20aedc1a-3258-494a-9b0e-5afc4945dd89","system_id":"levelo_inurba_marseille","lat":43.23215,"lon":5.39977,"is_reserved":false,"is_disabled":false,"rental_uris":{"android":"levelo://app?vid=20aedc1a-3258-494a-9b0e-5afc4945dd89","ios":"levelo://app?vid=20aedc1a-3258-494a-9b0e-5afc4945dd89"},"vehicle_type_id":"4","last_reported":1748290269,"current_range_meters":6400,"station_id":"ce4bhn12rcd13ifvqgqg","pricing_plan_id":"cebpf4jnsgd1na2vs0mg"},{"bike_id":"ab485184-dee6-4278-8ed8-78cb97c31dd5","system_id":"levelo_inurba_marseille","lat":43.2921,"lon":5.35824,"is_reserved":false,"is_disabled":false,"rental_uris":{"android":"levelo://app?vid=ab485184-dee6-4278-8ed8-78cb97c31dd5","ios":"levelo://app?vid=ab485184-dee6-4278-8ed8-78cb97c31dd5"},"vehicle_type_id":"4","last_reported":1748290269,"current_range_meters":6800,"station_id":"","pricing_plan_id":"cebpf4jnsgd1na2vs0mg"},{"bike_id":"1a0b733d-7c70-4474-9f7e-d1658f24442e","system_id":"levelo_inurba_marseille","lat":43.29276,"lon":5.40156,"is_reserved":false,"is_disabled":false,"rental_uris":{"android":"levelo://app?vid=1a0b733d-7c70-4474-9f7e-d1658f24442e","ios":"levelo://app?vid=1a0b733d-7c70-4474-9f7e-d1658f24442e"},"vehicle_type_id":"4","last_reported":1748290269,"current_range_meters":6800,"station_id":"ce4bh312rcd13ifvqdk0","pricing_plan_id":"cebpf4jnsgd1na2vs0mg"},{"bike_id":"a0ddfca3-3bfa-407a-83b2-fcfb04720db8","system_id":"levelo_inurba_marseille","lat":43.29266,"lon":5.38439,"is_reserved":false,"is_disabled":false,"rental_uris":{"android":"levelo://app?vid=a0ddfca3-3bfa-407a-83b2-fcfb04720db8","ios":"levelo://app?vid=a0ddfca3-3bfa-407a-83b2-fcfb04720db8"},"vehicle_type_id":"4","last_reported":1748290269,"current_range_meters":6800,"station_id":"ce4bh692rcd13ifvqea0","pricing_plan_id":"cebpf4jnsgd1na2vs0mg"},{"bike_id":"4fb9877b-f36a-4d56-b545-cf5618e982ca","system_id":"levelo_inurba_marseille","lat":43.27434,"lon":5.39426,"is_reserved":false,"is_disabled":false,"rental_uris":{"android":"levelo://app?vid=4fb9877b-f36a-4d56-b545-cf5618e982ca","ios":"levelo://app?vid=4fb9877b-f36a-4d56-b545-cf5618e982ca"},"vehicle_type_id":"4","last_reported":1748290269,"current_range_meters":6800,"station_id":"ce4bhdp2rcd13ifvqf20","pricing_plan_id":"cebpf4jnsgd1na2vs0mg"},{"bike_id":"66e8f883-52a2-4747-a884-c1e16e92174f","system_id":"levelo_inurba_marseille","lat":43.27996,"lon":5.40015,"is_reserved":false,"is_disabled":false,"rental_uris":{"android":"levelo://app?vid=66e8f883-52a2-4747-a884-c1e16e92174f","ios":"levelo://app?vid=66e8f883-52a2-4747-a884-c1e16e92174f"},"vehicle_type_id":"4","last_reported":1748290269,"current_range_meters":6800,"station_id":"ce4bho92rcd13ifvqh4g","pricing_plan_id":"cebpf4jnsgd1na2vs0mg"},{"bike_id":"5abb8a77-fbf0-4d21-805b-29790cff0e49","system_id":"levelo_inurba_marseille","lat":43.31104,"lon":5.42431,"is_reserved":false,"is_disabled":false,"rental_uris":{"android":"levelo://app?vid=5abb8a77-fbf0-4d21-805b-29790cff0e49","ios":"levelo://app?vid=5abb8a77-fbf0-4d21-805b-29790cff0e49"},"vehicle_type_id":"4","last_reported":1748290269,"current_range_meters":6800,"station_id":"ce4bhp92rcd13ifvqhag","pricing_plan_id":"cebpf4jnsgd1na2vs0mg"},{"bike_id":"9b84a5a9-4376-4bb2-8cfb-cf5244888418","system_id":"levelo_inurba_marseille","lat":43.32048,"lon":5.41547,"is_reserved":false,"is_disabled":false,"rental_uris":{"android":"levelo://app?vid=9b84a5a9-4376-4bb2-8cfb-cf5244888418","ios":"levelo://app?vid=9b84a5a9-4376-4bb2-8cfb-cf5244888418"},"vehicle_type_id":"4","last_reported":1748290269,"current_range_meters":6800,"station_id":"ce4bhq92rcd13ifvqhkg","pricing_plan_id":"cebpf4jnsgd1na2vs0mg"},{"bike_id":"dabc077c-bf8d-431d-a5ea-dcd441e9b7b1","system_id":"levelo_inurba_marseille","lat":43.24874,"lon":5.39714,"is_reserved":false,"is_disabled":false,"rental_uris":{"android":"levelo://app?vid=dabc077c-bf8d-431d-a5ea-dcd441e9b7b1","ios":"levelo://app?vid=dabc077c-bf8d-431d-a5ea-dcd441e9b7b1"},"vehicle_type_id":"4","last_reported":1748290269,"current_range_meters":7200,"station_id":"","pricing_plan_id":"cebpf4jnsgd1na2vs0mg"},{"bike_id":"e9496718-b841-4999-823d-28c5bee5d6f1","system_id":"levelo_inurba_marseille","lat":43.265414,"lon":5.389993,"is_reserved":false,"is_disabled":false,"rental_uris":{"android":"levelo://app?vid=e9496718-b841-4999-823d-28c5bee5d6f1","ios":"levelo://app?vid=e9496718-b841-4999-823d-28c5bee5d6f1"},"vehicle_type_id":"4","last_reported":1748290269,"current_range_meters":7200,"station_id":"ce4bhe12rcd13ifvqf30","pricing_plan_id":"cebpf4jnsgd1na2vs0mg"},{"bike_id":"2e547f2e-6654-4473-98a0-e3c2ed28f4a7","system_id":"levelo_inurba_marseille","lat":43.25499,"lon":5.37651,"is_reserved":false,"is_disabled":false,"rental_uris":{"android":"levelo://app?vid=2e547f2e-6654-4473-98a0-e3c2ed28f4a7","ios":"levelo://app?vid=2e547f2e-6654-4473-98a0-e3c2ed28f4a7"},"vehicle_type_id":"4","last_reported":1748290269,"current_range_meters":7200,"station_id":"ce4bhh12rcd13ifvqff0","pricing_plan_id":"cebpf4jnsgd1na2vs0mg"},{"bike_id":"c97bd3e6-27e8-46c2-8f2a-cb31dec274ff","system_id":"levelo_inurba_marseille","lat":43.25828,"lon":5.39438,"is_reserved":false,"is_disabled":false,"rental_uris":{"android":"levelo://app?vid=c97bd3e6-27e8-46c2-8f2a-cb31dec274ff","ios":"levelo://app?vid=c97bd3e6-27e8-46c2-8f2a-cb31dec274ff"},"vehicle_type_id":"4","last_reported":1748290269,"current_range_meters":7200,"station_id":"ce4bhip2rcd13ifvqft0","pricing_plan_id":"cebpf4jnsgd1na2vs0mg"},{"bike_id":"cf194408-e44f-4ff4-9685-66efb8a79c3d","system_id":"levelo_inurba_marseille","lat":43.24164,"lon":5.363917,"is_reserved":false,"is_disabled":false,"rental_uris":{"android":"levelo://app?vid=cf194408-e44f-4ff4-9685-66efb8a79c3d","ios":"levelo://app?vid=cf194408-e44f-4ff4-9685-66efb8a79c3d"},"vehicle_type_id":"4","last_reported":1748290269,"current_range_meters":7200,"station_id":"cpo36qri1sfpv3e86is0","pricing_plan_id":"cebpf4jnsgd1na2vs0mg"},{"bike_id":"e1a05f52-41b6-4905-a906-7e3ecbe8ddfd","system_id":"levelo_inurba_marseille","lat":43.25144,"lon":5.40286,"is_reserved":false,"is_disabled":false,"rental_uris":{"android":"levelo://app?vid=e1a05f52-41b6-4905-a906-7e3ecbe8ddfd","ios":"levelo://app?vid=e1a05f52-41b6-4905-a906-7e3ecbe8ddfd"},"vehicle_type_id":"4","last_reported":1748290269,"current_range_meters":8000,"station_id":"","pricing_plan_id":"cebpf4jnsgd1na2vs0mg"},{"bike_id":"8654a797-522d-48db-9c8f-3e52a37eb0a7","system_id":"levelo_inurba_marseille","lat":43.24666,"lon":5.38159,"is_reserved":false,"is_disabled":false,"rental_uris":{"android":"levelo://app?vid=8654a797-522d-48db-9c8f-3e52a37eb0a7","ios":"levelo://app?vid=8654a797-522d-48db-9c8f-3e52a37eb0a7"},"vehicle_type_id":"4","last_reported":1748290269,"current_range_meters":8000,"station_id":"","pricing_plan_id":"cebpf4jnsgd1na2vs0mg"},{"bike_id":"aa437002-5f99-4912-b6d3-3f9d38ba6896","system_id":"levelo_inurba_marseille","lat":43.30416,"lon":5.39744,"is_reserved":false,"is_disabled":false,"rental_uris":{"android":"levelo://app?vid=aa437002-5f99-4912-b6d3-3f9d38ba6896","ios":"levelo://app?vid=aa437002-5f99-4912-b6d3-3f9d38ba6896"},"vehicle_type_id":"4","last_reported":1748290269,"current_range_meters":8000,"station_id":"ce4bh092rcd13ifvqd20","pricing_plan_id":"cebpf4jnsgd1na2vs0mg"},{"bike_id":"4ede7548-607a-495a-8b59-64db3f866d9f","system_id":"levelo_inurba_marseille","lat":43.287052,"lon":5.373844,"is_reserved":false,"is_disabled":false,"rental_uris":{"android":"levelo://app?vid=4ede7548-607a-495a-8b59-64db3f866d9f","ios":"levelo://app?vid=4ede7548-607a-495a-8b59-64db3f866d9f"},"vehicle_type_id":"4","last_reported":1748290269,"current_range_meters":8000,"station_id":"ce4bh4p2rcd13ifvqe0g","pricing_plan_id":"cebpf4jnsgd1na2vs0mg"},{"bike_id":"533ff271-2130-4136-95c7-7ee0c374640f","system_id":"levelo_inurba_marseille","lat":43.262115,"lon":5.374453,"is_reserved":false,"is_disabled":false,"rental_uris":{"android":"levelo://app?vid=533ff271-2130-4136-95c7-7ee0c374640f","ios":"levelo://app?vid=533ff271-2130-4136-95c7-7ee0c374640f"},"vehicle_type_id":"4","last_reported":1748290269,"current_range_meters":8000,"station_id":"ce4bhgp2rcd13ifvqfc0","pricing_plan_id":"cebpf4jnsgd1na2vs0mg"},{"bike_id":"f8df2e97-c68d-41bd-945a-99495cf612d7","system_id":"levelo_inurba_marseille","lat":43.23208,"lon":5.39975,"is_reserved":false,"is_disabled":false,"rental_uris":{"android":"levelo://app?vid=f8df2e97-c68d-41bd-945a-99495cf612d7","ios":"levelo://app?vid=f8df2e97-c68d-41bd-945a-99495cf612d7"},"vehicle_type_id":"4","last_reported":1748290269,"current_range_meters":8000,"station_id":"ce4bhn12rcd13ifvqgqg","pricing_plan_id":"cebpf4jnsgd1na2vs0mg"},{"bike_id":"6050b4b8-1656-461b-a39d-e6025c491b23","system_id":"levelo_inurba_marseille","lat":43.28078,"lon":5.39647,"is_reserved":false,"is_disabled":false,"rental_uris":{"android":"levelo://app?vid=6050b4b8-1656-461b-a39d-e6025c491b23","ios":"levelo://app?vid=6050b4b8-1656-461b-a39d-e6025c491b23"},"vehicle_type_id":"4","last_reported":1748290269,"current_range_meters":8000,"station_id":"ce4bho12rcd13ifvqh2g","pricing_plan_id":"cebpf4jnsgd1na2vs0mg"},{"bike_id":"02df8f1c-f2fa-44e6-b542-2b07f6d8c528","system_id":"levelo_inurba_marseille","lat":43.28077,"lon":5.39652,"is_reserved":false,"is_disabled":false,"rental_uris":{"android":"levelo://app?vid=02df8f1c-f2fa-44e6-b542-2b07f6d8c528","ios":"levelo://app?vid=02df8f1c-f2fa-44e6-b542-2b07f6d8c528"},"vehicle_type_id":"4","last_reported":1748290269,"current_range_meters":8000,"station_id":"ce4bho12rcd13ifvqh2g","pricing_plan_id":"cebpf4jnsgd1na2vs0mg"},{"bike_id":"6e582a3c-195a-4d6b-9ec7-20d27808b5fa","system_id":"levelo_inurba_marseille","lat":43.31713,"lon":5.43698,"is_reserved":false,"is_disabled":false,"rental_uris":{"android":"levelo://app?vid=6e582a3c-195a-4d6b-9ec7-20d27808b5fa","ios":"levelo://app?vid=6e582a3c-195a-4d6b-9ec7-20d27808b5fa"},"vehicle_type_id":"4","last_reported":1748290269,"current_range_meters":8000,"station_id":"ce4bhp92rcd13ifvqhcg","pricing_plan_id":"cebpf4jnsgd1na2vs0mg"},{"bike_id":"fc56555b-396d-4667-b896-0ad86036e39e","system_id":"levelo_inurba_marseille","lat":43.25898,"lon":5.38044,"is_reserved":false,"is_disabled":false,"rental_uris":{"android":"levelo://app?vid=fc56555b-396d-4667-b896-0ad86036e39e","ios":"levelo://app?vid=fc56555b-396d-4667-b896-0ad86036e39e"},"vehicle_type_id":"4","last_reported":1748290269,"current_range_meters":8400,"station_id":"","pricing_plan_id":"cebpf4jnsgd1na2vs0mg"},{"bike_id":"efd698cb-2450-498f-9f0b-bfc662548e61","system_id":"levelo_inurba_marseille","lat":43.26567,"lon":5.40319,"is_reserved":false,"is_disabled":false,"rental_uris":{"android":"levelo://app?vid=efd698cb-2450-498f-9f0b-bfc662548e61","ios":"levelo://app?vid=efd698cb-2450-498f-9f0b-bfc662548e61"},"vehicle_type_id":"4","last_reported":1748290269,"current_range_meters":8400,"station_id":"","pricing_plan_id":"cebpf4jnsgd1na2vs0mg"},{"bike_id":"d328b393-4635-4ce9-afd2-e36f2a11611e","system_id":"levelo_inurba_marseille","lat":43.26024,"lon":5.41734,"is_reserved":false,"is_disabled":false,"rental_uris":{"android":"levelo://app?vid=d328b393-4635-4ce9-afd2-e36f2a11611e","ios":"levelo://app?vid=d328b393-4635-4ce9-afd2-e36f2a11611e"},"vehicle_type_id":"4","last_reported":1748290269,"current_range_meters":8400,"station_id":"","pricing_plan_id":"cebpf4jnsgd1na2vs0mg"},{"bike_id":"c432a591-1382-40cc-8a1a-3a6d7c7f80a2","system_id":"levelo_inurba_marseille","lat":43.29309,"lon":5.37175,"is_reserved":false,"is_disabled":false,"rental_uris":{"android":"levelo://app?vid=c432a591-1382-40cc-8a1a-3a6d7c7f80a2","ios":"levelo://app?vid=c432a591-1382-40cc-8a1a-3a6d7c7f80a2"},"vehicle_type_id":"4","last_reported":1748290269,"current_range_meters":8400,"station_id":"ce4bgh92rcd13ifvqb40","pricing_plan_id":"cebpf4jnsgd1na2vs0mg"},{"bike_id":"80c2fda4-c2be-4679-a3b5-e4276b12977e","system_id":"levelo_inurba_marseille","lat":43.30087,"lon":5.39075,"is_reserved":false,"is_disabled":false,"rental_uris":{"android":"levelo://app?vid=80c2fda4-c2be-4679-a3b5-e4276b12977e","ios":"levelo://app?vid=80c2fda4-c2be-4679-a3b5-e4276b12977e"},"vehicle_type_id":"4","last_reported":1748290269,"current_range_meters":8400,"station_id":"ce4bh192rcd13ifvqdb0","pricing_plan_id":"cebpf4jnsgd1na2vs0mg"},{"bike_id":"5f5e027c-a26c-49f4-a3e3-4811bc7be17a","system_id":"levelo_inurba_marseille","lat":43.29195,"lon":5.39325,"is_reserved":false,"is_disabled":false,"rental_uris":{"android":"levelo://app?vid=5f5e027c-a26c-49f4-a3e3-4811bc7be17a","ios":"levelo://app?vid=5f5e027c-a26c-49f4-a3e3-4811bc7be17a"},"vehicle_type_id":"4","last_reported":1748290269,"current_range_meters":8400,"station_id":"ce4bh192rcd13ifvqdd0","pricing_plan_id":"cebpf4jnsgd1na2vs0mg"},{"bike_id":"9db12a7c-f305-4021-ace1-ab46a8630b4c","system_id":"levelo_inurba_marseille","lat":43.24669,"lon":5.38156,"is_reserved":false,"is_disabled":false,"rental_uris":{"android":"levelo://app?vid=9db12a7c-f305-4021-ace1-ab46a8630b4c","ios":"levelo://app?vid=9db12a7c-f305-4021-ace1-ab46a8630b4c"},"vehicle_type_id":"4","last_reported":1748290269,"current_range_meters":8400,"station_id":"ce4bhih2rcd13ifvqfr0","pricing_plan_id":"cebpf4jnsgd1na2vs0mg"},{"bike_id":"d57d3323-ba9e-47cf-85da-aa98894de600","system_id":"levelo_inurba_marseille","lat":43.27815,"lon":5.40713,"is_reserved":false,"is_disabled":false,"rental_uris":{"android":"levelo://app?vid=d57d3323-ba9e-47cf-85da-aa98894de600","ios":"levelo://app?vid=d57d3323-ba9e-47cf-85da-aa98894de600"},"vehicle_type_id":"4","last_reported":1748290269,"current_range_meters":8400,"station_id":"ce4bhnh2rcd13ifvqgtg","pricing_plan_id":"cebpf4jnsgd1na2vs0mg"},{"bike_id":"a4aef2b9-b7e8-4e2d-8340-592d28bc6c85","system_id":"levelo_inurba_marseille","lat":43.337654,"lon":5.37434,"is_reserved":false,"is_disabled":false,"rental_uris":{"android":"levelo://app?vid=a4aef2b9-b7e8-4e2d-8340-592d28bc6c85","ios":"levelo://app?vid=a4aef2b9-b7e8-4e2d-8340-592d28bc6c85"},"vehicle_type_id":"4","last_reported":1748290269,"current_range_meters":8800,"station_id":"","pricing_plan_id":"cebpf4jnsgd1na2vs0mg"},{"bike_id":"32b62faf-807d-47e6-a398-5b5d66018cf0","system_id":"levelo_inurba_marseille","lat":43.27443,"lon":5.39412,"is_reserved":false,"is_disabled":false,"rental_uris":{"android":"levelo://app?vid=32b62faf-807d-47e6-a398-5b5d66018cf0","ios":"levelo://app?vid=32b62faf-807d-47e6-a398-5b5d66018cf0"},"vehicle_type_id":"4","last_reported":1748290269,"current_range_meters":8800,"station_id":"ce4bhdp2rcd13ifvqf20","pricing_plan_id":"cebpf4jnsgd1na2vs0mg"},{"bike_id":"3fad9f6c-d63e-429a-a4d4-9ca3ebe16f8b","system_id":"levelo_inurba_marseille","lat":43.28001,"lon":5.40021,"is_reserved":false,"is_disabled":false,"rental_uris":{"android":"levelo://app?vid=3fad9f6c-d63e-429a-a4d4-9ca3ebe16f8b","ios":"levelo://app?vid=3fad9f6c-d63e-429a-a4d4-9ca3ebe16f8b"},"vehicle_type_id":"4","last_reported":1748290269,"current_range_meters":8800,"station_id":"ce4bho92rcd13ifvqh4g","pricing_plan_id":"cebpf4jnsgd1na2vs0mg"},{"bike_id":"b744080c-dd77-486d-9609-00c9cf60c1ad","system_id":"levelo_inurba_marseille","lat":43.23609,"lon":5.39193,"is_reserved":false,"is_disabled":false,"rental_uris":{"android":"levelo://app?vid=b744080c-dd77-486d-9609-00c9cf60c1ad","ios":"levelo://app?vid=b744080c-dd77-486d-9609-00c9cf60c1ad"},"vehicle_type_id":"4","last_reported":1748290269,"current_range_meters":9200,"station_id":"","pricing_plan_id":"cebpf4jnsgd1na2vs0mg"},{"bike_id":"6a4612f8-d511-472f-9784-e69bac545256","system_id":"levelo_inurba_marseille","lat":43.29019,"lon":5.36636,"is_reserved":false,"is_disabled":false,"rental_uris":{"android":"levelo://app?vid=6a4612f8-d511-472f-9784-e69bac545256","ios":"levelo://app?vid=6a4612f8-d511-472f-9784-e69bac545256"},"vehicle_type_id":"4","last_reported":1748290269,"current_range_meters":9200,"station_id":"","pricing_plan_id":"cebpf4jnsgd1na2vs0mg"},{"bike_id":"a1903ba7-a82a-45c3-85e6-5068800a0651","system_id":"levelo_inurba_marseille","lat":43.21751,"lon":5.34601,"is_reserved":false,"is_disabled":false,"rental_uris":{"android":"levelo://app?vid=a1903ba7-a82a-45c3-85e6-5068800a0651","ios":"levelo://app?vid=a1903ba7-a82a-45c3-85e6-5068800a0651"},"vehicle_type_id":"4","last_reported":1748290269,"current_range_meters":9600,"station_id":"","pricing_plan_id":"cebpf4jnsgd1na2vs0mg"},{"bike_id":"789d5c95-f30e-4211-94e8-812d14fefc9c","system_id":"levelo_inurba_marseille","lat":43.28856,"lon":5.39297,"is_reserved":false,"is_disabled":false,"rental_uris":{"android":"levelo://app?vid=789d5c95-f30e-4211-94e8-812d14fefc9c","ios":"levelo://app?vid=789d5c95-f30e-4211-94e8-812d14fefc9c"},"vehicle_type_id":"4","last_reported":1748290269,"current_range_meters":9600,"station_id":"ce4bh2p2rcd13ifvqdi0","pricing_plan_id":"cebpf4jnsgd1na2vs0mg"},{"bike_id":"0637e7de-fe32-43da-994f-b3deee546b08","system_id":"levelo_inurba_marseille","lat":43.26559,"lon":5.3728,"is_reserved":false,"is_disabled":false,"rental_uris":{"android":"levelo://app?vid=0637e7de-fe32-43da-994f-b3deee546b08","ios":"levelo://app?vid=0637e7de-fe32-43da-994f-b3deee546b08"},"vehicle_type_id":"4","last_reported":1748290269,"current_range_meters":9600,"station_id":"ce4bhg12rcd13ifvqf70","pricing_plan_id":"cebpf4jnsgd1na2vs0mg"},{"bike_id":"e0c25e07-4c7a-4f3c-b21c-026342f4ce53","system_id":"levelo_inurba_marseille","lat":43.2397,"lon":5.36633,"is_reserved":false,"is_disabled":false,"rental_uris":{"android":"levelo://app?vid=e0c25e07-4c7a-4f3c-b21c-026342f4ce53","ios":"levelo://app?vid=e0c25e07-4c7a-4f3c-b21c-026342f4ce53"},"vehicle_type_id":"4","last_reported":1748290269,"current_range_meters":9600,"station_id":"ce4bhi12rcd13ifvqfp0","pricing_plan_id":"cebpf4jnsgd1na2vs0mg"},{"bike_id":"761918e0-d6a0-4f40-96ce-babda69bc7f4","system_id":"levelo_inurba_marseille","lat":43.22933,"lon":5.35381,"is_reserved":false,"is_disabled":false,"rental_uris":{"android":"levelo://app?vid=761918e0-d6a0-4f40-96ce-babda69bc7f4","ios":"levelo://app?vid=761918e0-d6a0-4f40-96ce-babda69bc7f4"},"vehicle_type_id":"4","last_reported":1748290269,"current_range_meters":9600,"station_id":"cpo3532slgdg3j2ikp40","pricing_plan_id":"cebpf4jnsgd1na2vs0mg"},{"bike_id":"6d863ba8-0dbd-4f26-9a6d-b2da92f3c132","system_id":"levelo_inurba_marseille","lat":43.29798,"lon":5.38091,"is_reserved":false,"is_disabled":false,"rental_uris":{"android":"levelo://app?vid=6d863ba8-0dbd-4f26-9a6d-b2da92f3c132","ios":"levelo://app?vid=6d863ba8-0dbd-4f26-9a6d-b2da92f3c132"},"vehicle_type_id":"4","last_reported":1748290269,"current_range_meters":10000,"station_id":"ce4bgip2rcd13ifvqbb0","pricing_plan_id":"cebpf4jnsgd1na2vs0mg"},{"bike_id":"0f448a0c-f774-4fbb-8fdf-0f39585202e2","system_id":"levelo_inurba_marseille","lat":43.29807,"lon":5.38118,"is_reserved":false,"is_disabled":false,"rental_uris":{"android":"levelo://app?vid=0f448a0c-f774-4fbb-8fdf-0f39585202e2","ios":"levelo://app?vid=0f448a0c-f774-4fbb-8fdf-0f39585202e2"},"vehicle_type_id":"4","last_reported":1748290269,"current_range_meters":10000,"station_id":"ce4bgip2rcd13ifvqbb0","pricing_plan_id":"cebpf4jnsgd1na2vs0mg"},{"bike_id":"ba44d9a5-bdbf-4f7c-b382-743c6962bf74","system_id":"levelo_inurba_marseille","lat":43.28722,"lon":5.37943,"is_reserved":false,"is_disabled":false,"rental_uris":{"android":"levelo://app?vid=ba44d9a5-bdbf-4f7c-b382-743c6962bf74","ios":"levelo://app?vid=ba44d9a5-bdbf-4f7c-b382-743c6962bf74"},"vehicle_type_id":"4","last_reported":1748290269,"current_range_meters":10000,"station_id":"ce4bh9p2rcd13ifvqec0","pricing_plan_id":"cebpf4jnsgd1na2vs0mg"},{"bike_id":"22713c7e-979e-4e3e-bf98-87b0a620c5d3","system_id":"levelo_inurba_marseille","lat":43.2396,"lon":5.36665,"is_reserved":false,"is_disabled":false,"rental_uris":{"android":"levelo://app?vid=22713c7e-979e-4e3e-bf98-87b0a620c5d3","ios":"levelo://app?vid=22713c7e-979e-4e3e-bf98-87b0a620c5d3"},"vehicle_type_id":"4","last_reported":1748290269,"current_range_meters":10000,"station_id":"ce4bhi12rcd13ifvqfp0","pricing_plan_id":"cebpf4jnsgd1na2vs0mg"},{"bike_id":"4661e59f-4017-457b-8d40-084f59302350","system_id":"levelo_inurba_marseille","lat":43.23203,"lon":5.39968,"is_reserved":false,"is_disabled":false,"rental_uris":{"android":"levelo://app?vid=4661e59f-4017-457b-8d40-084f59302350","ios":"levelo://app?vid=4661e59f-4017-457b-8d40-084f59302350"},"vehicle_type_id":"4","last_reported":1748290269,"current_range_meters":10000,"station_id":"ce4bhn12rcd13ifvqgqg","pricing_plan_id":"cebpf4jnsgd1na2vs0mg"},{"bike_id":"ef604360-b884-47a4-ba34-367e7e6701f0","system_id":"levelo_inurba_marseille","lat":43.30356,"lon":5.41884,"is_reserved":false,"is_disabled":false,"rental_uris":{"android":"levelo://app?vid=ef604360-b884-47a4-ba34-367e7e6701f0","ios":"levelo://app?vid=ef604360-b884-47a4-ba34-367e7e6701f0"},"vehicle_type_id":"4","last_reported":1748290269,"current_range_meters":10000,"station_id":"ce4bhop2rcd13ifvqh7g","pricing_plan_id":"cebpf4jnsgd1na2vs0mg"},{"bike_id":"5a562623-25b9-44aa-aa38-d7ed2ef750cc","system_id":"levelo_inurba_marseille","lat":43.26945,"lon":5.40243,"is_reserved":false,"is_disabled":false,"rental_uris":{"android":"levelo://app?vid=5a562623-25b9-44aa-aa38-d7ed2ef750cc","ios":"levelo://app?vid=5a562623-25b9-44aa-aa38-d7ed2ef750cc"},"vehicle_type_id":"4","last_reported":1748290269,"current_range_meters":10000,"station_id":"cjm6bp8fraef2m0cb0m0","pricing_plan_id":"cebpf4jnsgd1na2vs0mg"},{"bike_id":"af09727b-f875-496b-85f9-5804c322ca75","system_id":"levelo_inurba_marseille","lat":43.29317,"lon":5.37173,"is_reserved":false,"is_disabled":false,"rental_uris":{"android":"levelo://app?vid=af09727b-f875-496b-85f9-5804c322ca75","ios":"levelo://app?vid=af09727b-f875-496b-85f9-5804c322ca75"},"vehicle_type_id":"4","last_reported":1748290269,"current_range_meters":10800,"station_id":"ce4bgh92rcd13ifvqb40","pricing_plan_id":"cebpf4jnsgd1na2vs0mg"},{"bike_id":"192652fb-39f2-42cc-aa68-d619ae98d21f","system_id":"levelo_inurba_marseille","lat":43.28939,"lon":5.3963,"is_reserved":false,"is_disabled":false,"rental_uris":{"android":"levelo://app?vid=192652fb-39f2-42cc-aa68-d619ae98d21f","ios":"levelo://app?vid=192652fb-39f2-42cc-aa68-d619ae98d21f"},"vehicle_type_id":"4","last_reported":1748290269,"current_range_meters":10800,"station_id":"ce4bh3h2rcd13ifvqdn0","pricing_plan_id":"cebpf4jnsgd1na2vs0mg"},{"bike_id":"ed98a655-9096-4e4c-a062-cebf79c9c208","system_id":"levelo_inurba_marseille","lat":43.28418,"lon":5.37517,"is_reserved":false,"is_disabled":false,"rental_uris":{"android":"levelo://app?vid=ed98a655-9096-4e4c-a062-cebf79c9c208","ios":"levelo://app?vid=ed98a655-9096-4e4c-a062-cebf79c9c208"},"vehicle_type_id":"4","last_reported":1748290269,"current_range_meters":10800,"station_id":"ce4bh412rcd13ifvqds0","pricing_plan_id":"cebpf4jnsgd1na2vs0mg"},{"bike_id":"93892bad-5609-48c9-847c-1cd9bf3a21f5","system_id":"levelo_inurba_marseille","lat":43.27553,"lon":5.38426,"is_reserved":false,"is_disabled":false,"rental_uris":{"android":"levelo://app?vid=93892bad-5609-48c9-847c-1cd9bf3a21f5","ios":"levelo://app?vid=93892bad-5609-48c9-847c-1cd9bf3a21f5"},"vehicle_type_id":"4","last_reported":1748290269,"current_range_meters":10800,"station_id":"ce4bhh92rcd13ifvqfi0","pricing_plan_id":"cebpf4jnsgd1na2vs0mg"},{"bike_id":"a70f517f-c4e8-4bf2-95cb-85cb5c3f2caa","system_id":"levelo_inurba_marseille","lat":43.2751,"lon":5.42443,"is_reserved":false,"is_disabled":false,"rental_uris":{"android":"levelo://app?vid=a70f517f-c4e8-4bf2-95cb-85cb5c3f2caa","ios":"levelo://app?vid=a70f517f-c4e8-4bf2-95cb-85cb5c3f2caa"},"vehicle_type_id":"4","last_reported":1748290269,"current_range_meters":10800,"station_id":"ce4bhn92rcd13ifvqgrg","pricing_plan_id":"cebpf4jnsgd1na2vs0mg"},{"bike_id":"1a0998e5-8bb9-474f-a827-53cad24c9e8f","system_id":"levelo_inurba_marseille","lat":43.32057,"lon":5.44948,"is_reserved":false,"is_disabled":false,"rental_uris":{"android":"levelo://app?vid=1a0998e5-8bb9-474f-a827-53cad24c9e8f","ios":"levelo://app?vid=1a0998e5-8bb9-474f-a827-53cad24c9e8f"},"vehicle_type_id":"4","last_reported":1748290269,"current_range_meters":11200,"station_id":"","pricing_plan_id":"cebpf4jnsgd1na2vs0mg"},{"bike_id":"ae6e6868-2635-4f49-b7c1-b03759c58ec7","system_id":"levelo_inurba_marseille","lat":43.27293,"lon":5.41597,"is_reserved":false,"is_disabled":false,"rental_uris":{"android":"levelo://app?vid=ae6e6868-2635-4f49-b7c1-b03759c58ec7","ios":"levelo://app?vid=ae6e6868-2635-4f49-b7c1-b03759c58ec7"},"vehicle_type_id":"4","last_reported":1748290269,"current_range_meters":11200,"station_id":"","pricing_plan_id":"cebpf4jnsgd1na2vs0mg"},{"bike_id":"105849da-5a2f-4eda-9c36-1906963bc3d4","system_id":"levelo_inurba_marseille","lat":43.26554,"lon":5.4034,"is_reserved":false,"is_disabled":false,"rental_uris":{"android":"levelo://app?vid=105849da-5a2f-4eda-9c36-1906963bc3d4","ios":"levelo://app?vid=105849da-5a2f-4eda-9c36-1906963bc3d4"},"vehicle_type_id":"4","last_reported":1748290269,"current_range_meters":11200,"station_id":"","pricing_plan_id":"cebpf4jnsgd1na2vs0mg"},{"bike_id":"1c6a9156-a9c5-4cb1-aa63-c10c60fc3f73","system_id":"levelo_inurba_marseille","lat":43.254969,"lon":5.37649,"is_reserved":false,"is_disabled":false,"rental_uris":{"android":"levelo://app?vid=1c6a9156-a9c5-4cb1-aa63-c10c60fc3f73","ios":"levelo://app?vid=1c6a9156-a9c5-4cb1-aa63-c10c60fc3f73"},"vehicle_type_id":"4","last_reported":1748290269,"current_range_meters":11200,"station_id":"","pricing_plan_id":"cebpf4jnsgd1na2vs0mg"},{"bike_id":"e4664dbd-41ab-4c82-89d7-da46376c622e","system_id":"levelo_inurba_marseille","lat":43.3093,"lon":5.4016,"is_reserved":false,"is_disabled":false,"rental_uris":{"android":"levelo://app?vid=e4664dbd-41ab-4c82-89d7-da46376c622e","ios":"levelo://app?vid=e4664dbd-41ab-4c82-89d7-da46376c622e"},"vehicle_type_id":"4","last_reported":1748290269,"current_range_meters":11200,"station_id":"ce4bgvp2rcd13ifvqct0","pricing_plan_id":"cebpf4jnsgd1na2vs0mg"},{"bike_id":"660d4034-94b0-40e9-a4e8-c46bbb983e04","system_id":"levelo_inurba_marseille","lat":43.29266,"lon":5.3846,"is_reserved":false,"is_disabled":false,"rental_uris":{"android":"levelo://app?vid=660d4034-94b0-40e9-a4e8-c46bbb983e04","ios":"levelo://app?vid=660d4034-94b0-40e9-a4e8-c46bbb983e04"},"vehicle_type_id":"4","last_reported":1748290269,"current_range_meters":11200,"station_id":"ce4bh692rcd13ifvqea0","pricing_plan_id":"cebpf4jnsgd1na2vs0mg"},{"bike_id":"d9d1ba8b-04c4-40b1-af47-45dcf7de5246","system_id":"levelo_inurba_marseille","lat":43.29557,"lon":5.42294,"is_reserved":false,"is_disabled":false,"rental_uris":{"android":"levelo://app?vid=d9d1ba8b-04c4-40b1-af47-45dcf7de5246","ios":"levelo://app?vid=d9d1ba8b-04c4-40b1-af47-45dcf7de5246"},"vehicle_type_id":"4","last_reported":1748290269,"current_range_meters":11200,"station_id":"ce4bhph2rcd13ifvqhdg","pricing_plan_id":"cebpf4jnsgd1na2vs0mg"},{"bike_id":"5148f8b2-1ecb-4c76-b37d-928f8d5cde64","system_id":"levelo_inurba_marseille","lat":43.32329,"lon":5.368,"is_reserved":false,"is_disabled":false,"rental_uris":{"android":"levelo://app?vid=5148f8b2-1ecb-4c76-b37d-928f8d5cde64","ios":"levelo://app?vid=5148f8b2-1ecb-4c76-b37d-928f8d5cde64"},"vehicle_type_id":"4","last_reported":1748290269,"current_range_meters":11200,"station_id":"ce4bhsh2rcd13ifvqi2g","pricing_plan_id":"cebpf4jnsgd1na2vs0mg"},{"bike_id":"99b469f2-c364-4159-9d35-9a1121c1578f","system_id":"levelo_inurba_marseille","lat":43.31552,"lon":5.38362,"is_reserved":false,"is_disabled":false,"rental_uris":{"android":"levelo://app?vid=99b469f2-c364-4159-9d35-9a1121c1578f","ios":"levelo://app?vid=99b469f2-c364-4159-9d35-9a1121c1578f"},"vehicle_type_id":"4","last_reported":1748290269,"current_range_meters":11600,"station_id":"","pricing_plan_id":"cebpf4jnsgd1na2vs0mg"},{"bike_id":"fdbc6f7a-cde7-4192-817f-2475ee91b0ac","system_id":"levelo_inurba_marseille","lat":43.30083,"lon":5.39072,"is_reserved":false,"is_disabled":false,"rental_uris":{"android":"levelo://app?vid=fdbc6f7a-cde7-4192-817f-2475ee91b0ac","ios":"levelo://app?vid=fdbc6f7a-cde7-4192-817f-2475ee91b0ac"},"vehicle_type_id":"4","last_reported":1748290269,"current_range_meters":11600,"station_id":"ce4bh192rcd13ifvqdb0","pricing_plan_id":"cebpf4jnsgd1na2vs0mg"},{"bike_id":"5a249309-afd2-4cbc-9efe-eabcae116a17","system_id":"levelo_inurba_marseille","lat":43.29279,"lon":5.36839,"is_reserved":false,"is_disabled":false,"rental_uris":{"android":"levelo://app?vid=5a249309-afd2-4cbc-9efe-eabcae116a17","ios":"levelo://app?vid=5a249309-afd2-4cbc-9efe-eabcae116a17"},"vehicle_type_id":"4","last_reported":1748290269,"current_range_meters":11600,"station_id":"ce4bhbp2rcd13ifvqesg","pricing_plan_id":"cebpf4jnsgd1na2vs0mg"},{"bike_id":"8a45606e-2096-4a22-88d7-26c191e9986d","system_id":"levelo_inurba_marseille","lat":43.3303,"lon":5.39055,"is_reserved":false,"is_disabled":false,"rental_uris":{"android":"levelo://app?vid=8a45606e-2096-4a22-88d7-26c191e9986d","ios":"levelo://app?vid=8a45606e-2096-4a22-88d7-26c191e9986d"},"vehicle_type_id":"4","last_reported":1748290269,"current_range_meters":11600,"station_id":"ce4bhr92rcd13ifvqhrg","pricing_plan_id":"cebpf4jnsgd1na2vs0mg"},{"bike_id":"ff89b0f2-e4ab-4751-8a53-f4a0b7e787d3","system_id":"levelo_inurba_marseille","lat":43.31309,"lon":5.36853,"is_reserved":false,"is_disabled":false,"rental_uris":{"android":"levelo://app?vid=ff89b0f2-e4ab-4751-8a53-f4a0b7e787d3","ios":"levelo://app?vid=ff89b0f2-e4ab-4751-8a53-f4a0b7e787d3"},"vehicle_type_id":"4","last_reported":1748290269,"current_range_meters":12000,"station_id":"","pricing_plan_id":"cebpf4jnsgd1na2vs0mg"},{"bike_id":"ad6694bc-bcbd-4781-90af-79daafdd794d","system_id":"levelo_inurba_marseille","lat":43.31224,"lon":5.36868,"is_reserved":false,"is_disabled":false,"rental_uris":{"android":"levelo://app?vid=ad6694bc-bcbd-4781-90af-79daafdd794d","ios":"levelo://app?vid=ad6694bc-bcbd-4781-90af-79daafdd794d"},"vehicle_type_id":"4","last_reported":1748290269,"current_range_meters":12000,"station_id":"ce4bgl92rcd13ifvqbq0","pricing_plan_id":"cebpf4jnsgd1na2vs0mg"},{"bike_id":"5f3cb704-419b-4cc2-87d6-50852ec3fe2c","system_id":"levelo_inurba_marseille","lat":43.30083,"lon":5.39087,"is_reserved":false,"is_disabled":false,"rental_uris":{"android":"levelo://app?vid=5f3cb704-419b-4cc2-87d6-50852ec3fe2c","ios":"levelo://app?vid=5f3cb704-419b-4cc2-87d6-50852ec3fe2c"},"vehicle_type_id":"4","last_reported":1748290269,"current_range_meters":12000,"station_id":"ce4bh192rcd13ifvqdb0","pricing_plan_id":"cebpf4jnsgd1na2vs0mg"},{"bike_id":"4c49c207-c013-422b-b89c-b33b3bbf27a1","system_id":"levelo_inurba_marseille","lat":43.29193,"lon":5.39328,"is_reserved":false,"is_disabled":false,"rental_uris":{"android":"levelo://app?vid=4c49c207-c013-422b-b89c-b33b3bbf27a1","ios":"levelo://app?vid=4c49c207-c013-422b-b89c-b33b3bbf27a1"},"vehicle_type_id":"4","last_reported":1748290269,"current_range_meters":12000,"station_id":"ce4bh192rcd13ifvqdd0","pricing_plan_id":"cebpf4jnsgd1na2vs0mg"},{"bike_id":"cb56ab6d-9cef-49b6-bc86-9b60f0c54242","system_id":"levelo_inurba_marseille","lat":43.27811,"lon":5.39221,"is_reserved":false,"is_disabled":false,"rental_uris":{"android":"levelo://app?vid=cb56ab6d-9cef-49b6-bc86-9b60f0c54242","ios":"levelo://app?vid=cb56ab6d-9cef-49b6-bc86-9b60f0c54242"},"vehicle_type_id":"4","last_reported":1748290269,"current_range_meters":12000,"station_id":"ce4bhjp2rcd13ifvqga0","pricing_plan_id":"cebpf4jnsgd1na2vs0mg"},{"bike_id":"3c18328f-dec6-4840-a130-5116a6d12397","system_id":"levelo_inurba_marseille","lat":43.29686,"lon":5.37285,"is_reserved":false,"is_disabled":false,"rental_uris":{"android":"levelo://app?vid=3c18328f-dec6-4840-a130-5116a6d12397","ios":"levelo://app?vid=3c18328f-dec6-4840-a130-5116a6d12397"},"vehicle_type_id":"4","last_reported":1748290269,"current_range_meters":12400,"station_id":"ce4bgk12rcd13ifvqbj0","pricing_plan_id":"cebpf4jnsgd1na2vs0mg"},{"bike_id":"a1ad37e9-65f1-44b3-b04a-e507016277ae","system_id":"levelo_inurba_marseille","lat":43.30932,"lon":5.40145,"is_reserved":false,"is_disabled":false,"rental_uris":{"android":"levelo://app?vid=a1ad37e9-65f1-44b3-b04a-e507016277ae","ios":"levelo://app?vid=a1ad37e9-65f1-44b3-b04a-e507016277ae"},"vehicle_type_id":"4","last_reported":1748290269,"current_range_meters":12400,"station_id":"ce4bgvp2rcd13ifvqct0","pricing_plan_id":"cebpf4jnsgd1na2vs0mg"},{"bike_id":"06357a04-3c6d-4c3d-9e5e-c3887619bbf4","system_id":"levelo_inurba_marseille","lat":43.28423,"lon":5.37532,"is_reserved":false,"is_disabled":false,"rental_uris":{"android":"levelo://app?vid=06357a04-3c6d-4c3d-9e5e-c3887619bbf4","ios":"levelo://app?vid=06357a04-3c6d-4c3d-9e5e-c3887619bbf4"},"vehicle_type_id":"4","last_reported":1748290269,"current_range_meters":12400,"station_id":"ce4bh412rcd13ifvqds0","pricing_plan_id":"cebpf4jnsgd1na2vs0mg"},{"bike_id":"e03a0d5e-b227-420d-969f-f1f548321079","system_id":"levelo_inurba_marseille","lat":43.28947,"lon":5.36626,"is_reserved":false,"is_disabled":false,"rental_uris":{"android":"levelo://app?vid=e03a0d5e-b227-420d-969f-f1f548321079","ios":"levelo://app?vid=e03a0d5e-b227-420d-969f-f1f548321079"},"vehicle_type_id":"4","last_reported":1748290269,"current_range_meters":12400,"station_id":"ce4bhap2rcd13ifvqek0","pricing_plan_id":"cebpf4jnsgd1na2vs0mg"},{"bike_id":"42468a61-16bf-4710-9b9b-05de4aa301eb","system_id":"levelo_inurba_marseille","lat":43.26802,"lon":5.40247,"is_reserved":false,"is_disabled":false,"rental_uris":{"android":"levelo://app?vid=42468a61-16bf-4710-9b9b-05de4aa301eb","ios":"levelo://app?vid=42468a61-16bf-4710-9b9b-05de4aa301eb"},"vehicle_type_id":"4","last_reported":1748290269,"current_range_meters":12400,"station_id":"ce501612rcd8frsf0b60","pricing_plan_id":"cebpf4jnsgd1na2vs0mg"},{"bike_id":"0cf79b7b-e108-4855-b7c3-c1a4b00bc8b0","system_id":"levelo_inurba_marseille","lat":43.25864,"lon":5.39878,"is_reserved":false,"is_disabled":false,"rental_uris":{"android":"levelo://app?vid=0cf79b7b-e108-4855-b7c3-c1a4b00bc8b0","ios":"levelo://app?vid=0cf79b7b-e108-4855-b7c3-c1a4b00bc8b0"},"vehicle_type_id":"4","last_reported":1748290269,"current_range_meters":12800,"station_id":"ce4bhl92rcd13ifvqghg","pricing_plan_id":"cebpf4jnsgd1na2vs0mg"},{"bike_id":"07ad31ad-1042-4eb7-af95-7258b9a7804f","system_id":"levelo_inurba_marseille","lat":43.27496,"lon":5.42456,"is_reserved":false,"is_disabled":false,"rental_uris":{"android":"levelo://app?vid=07ad31ad-1042-4eb7-af95-7258b9a7804f","ios":"levelo://app?vid=07ad31ad-1042-4eb7-af95-7258b9a7804f"},"vehicle_type_id":"4","last_reported":1748290269,"current_range_meters":12800,"station_id":"ce4bhn92rcd13ifvqgrg","pricing_plan_id":"cebpf4jnsgd1na2vs0mg"},{"bike_id":"f5b1aa50-af32-4b67-af03-fc8d46feddb5","system_id":"levelo_inurba_marseille","lat":43.292694,"lon":5.401271,"is_reserved":false,"is_disabled":false,"rental_uris":{"android":"levelo://app?vid=f5b1aa50-af32-4b67-af03-fc8d46feddb5","ios":"levelo://app?vid=f5b1aa50-af32-4b67-af03-fc8d46feddb5"},"vehicle_type_id":"4","last_reported":1748290269,"current_range_meters":13600,"station_id":"","pricing_plan_id":"cebpf4jnsgd1na2vs0mg"},{"bike_id":"54612649-e491-40b4-8ed6-504dd23e4a03","system_id":"levelo_inurba_marseille","lat":43.30955,"lon":5.39034,"is_reserved":false,"is_disabled":false,"rental_uris":{"android":"levelo://app?vid=54612649-e491-40b4-8ed6-504dd23e4a03","ios":"levelo://app?vid=54612649-e491-40b4-8ed6-504dd23e4a03"},"vehicle_type_id":"4","last_reported":1748290269,"current_range_meters":13600,"station_id":"ce4bgup2rcd13ifvqco0","pricing_plan_id":"cebpf4jnsgd1na2vs0mg"},{"bike_id":"d0a1ee92-a4a3-47ad-9649-34d2a17c8df2","system_id":"levelo_inurba_marseille","lat":43.30937,"lon":5.40141,"is_reserved":false,"is_disabled":false,"rental_uris":{"android":"levelo://app?vid=d0a1ee92-a4a3-47ad-9649-34d2a17c8df2","ios":"levelo://app?vid=d0a1ee92-a4a3-47ad-9649-34d2a17c8df2"},"vehicle_type_id":"4","last_reported":1748290269,"current_range_meters":13600,"station_id":"ce4bgvp2rcd13ifvqct0","pricing_plan_id":"cebpf4jnsgd1na2vs0mg"},{"bike_id":"005b921c-a881-478a-9b2a-1d5ec799e28d","system_id":"levelo_inurba_marseille","lat":43.30313,"lon":5.4044,"is_reserved":false,"is_disabled":false,"rental_uris":{"android":"levelo://app?vid=005b921c-a881-478a-9b2a-1d5ec799e28d","ios":"levelo://app?vid=005b921c-a881-478a-9b2a-1d5ec799e28d"},"vehicle_type_id":"4","last_reported":1748290269,"current_range_meters":13600,"station_id":"ce4bh012rcd13ifvqd10","pricing_plan_id":"cebpf4jnsgd1na2vs0mg"},{"bike_id":"0d01c04c-4b6d-462f-88a6-1c355a1c0354","system_id":"levelo_inurba_marseille","lat":43.24662,"lon":5.38162,"is_reserved":false,"is_disabled":false,"rental_uris":{"android":"levelo://app?vid=0d01c04c-4b6d-462f-88a6-1c355a1c0354","ios":"levelo://app?vid=0d01c04c-4b6d-462f-88a6-1c355a1c0354"},"vehicle_type_id":"4","last_reported":1748290269,"current_range_meters":13600,"station_id":"ce4bhih2rcd13ifvqfr0","pricing_plan_id":"cebpf4jnsgd1na2vs0mg"},{"bike_id":"1a775a5e-1792-4706-b4f6-ec50ef749d53","system_id":"levelo_inurba_marseille","lat":43.255796,"lon":5.38223,"is_reserved":false,"is_disabled":false,"rental_uris":{"android":"levelo://app?vid=1a775a5e-1792-4706-b4f6-ec50ef749d53","ios":"levelo://app?vid=1a775a5e-1792-4706-b4f6-ec50ef749d53"},"vehicle_type_id":"4","last_reported":1748290269,"current_range_meters":13600,"station_id":"ce4bhih2rcd13ifvqfs0","pricing_plan_id":"cebpf4jnsgd1na2vs0mg"},{"bike_id":"1b93f618-501a-441a-ac25-2913e761841a","system_id":"levelo_inurba_marseille","lat":43.330453,"lon":5.390253,"is_reserved":false,"is_disabled":false,"rental_uris":{"android":"levelo://app?vid=1b93f618-501a-441a-ac25-2913e761841a","ios":"levelo://app?vid=1b93f618-501a-441a-ac25-2913e761841a"},"vehicle_type_id":"4","last_reported":1748290269,"current_range_meters":13600,"station_id":"ce4bhr92rcd13ifvqhrg","pricing_plan_id":"cebpf4jnsgd1na2vs0mg"},{"bike_id":"6ef27e84-462a-46f9-afe5-e09b209cc7f0","system_id":"levelo_inurba_marseille","lat":43.33127,"lon":5.36206,"is_reserved":false,"is_disabled":false,"rental_uris":{"android":"levelo://app?vid=6ef27e84-462a-46f9-afe5-e09b209cc7f0","ios":"levelo://app?vid=6ef27e84-462a-46f9-afe5-e09b209cc7f0"},"vehicle_type_id":"4","last_reported":1748290269,"current_range_meters":14000,"station_id":"","pricing_plan_id":"cebpf4jnsgd1na2vs0mg"},{"bike_id":"eb060acd-d403-4c33-9f13-e709466da355","system_id":"levelo_inurba_marseille","lat":43.296143,"lon":5.377079,"is_reserved":false,"is_disabled":false,"rental_uris":{"android":"levelo://app?vid=eb060acd-d403-4c33-9f13-e709466da355","ios":"levelo://app?vid=eb060acd-d403-4c33-9f13-e709466da355"},"vehicle_type_id":"4","last_reported":1748290269,"current_range_meters":14000,"station_id":"","pricing_plan_id":"cebpf4jnsgd1na2vs0mg"},{"bike_id":"2a046dee-b3af-48c9-9659-b7d30ba20af5","system_id":"levelo_inurba_marseille","lat":43.243369,"lon":5.379979,"is_reserved":false,"is_disabled":false,"rental_uris":{"android":"levelo://app?vid=2a046dee-b3af-48c9-9659-b7d30ba20af5","ios":"levelo://app?vid=2a046dee-b3af-48c9-9659-b7d30ba20af5"},"vehicle_type_id":"4","last_reported":1748290269,"current_range_meters":14000,"station_id":"","pricing_plan_id":"cebpf4jnsgd1na2vs0mg"},{"bike_id":"1a1870e2-b5ca-41dd-a4b7-5143c0bbe515","system_id":"levelo_inurba_marseille","lat":43.22964,"lon":5.35341,"is_reserved":false,"is_disabled":false,"rental_uris":{"android":"levelo://app?vid=1a1870e2-b5ca-41dd-a4b7-5143c0bbe515","ios":"levelo://app?vid=1a1870e2-b5ca-41dd-a4b7-5143c0bbe515"},"vehicle_type_id":"4","last_reported":1748290269,"current_range_meters":14000,"station_id":"","pricing_plan_id":"cebpf4jnsgd1na2vs0mg"},{"bike_id":"7409c5e6-b193-4789-8924-1b2d95e552f5","system_id":"levelo_inurba_marseille","lat":43.295319,"lon":5.385483,"is_reserved":false,"is_disabled":false,"rental_uris":{"android":"levelo://app?vid=7409c5e6-b193-4789-8924-1b2d95e552f5","ios":"levelo://app?vid=7409c5e6-b193-4789-8924-1b2d95e552f5"},"vehicle_type_id":"4","last_reported":1748290269,"current_range_meters":14000,"station_id":"ce4bgih2rcd13ifvqba0","pricing_plan_id":"cebpf4jnsgd1na2vs0mg"},{"bike_id":"d8de45e1-9697-4523-875f-17e2bf7d85a8","system_id":"levelo_inurba_marseille","lat":43.27907,"lon":5.3801,"is_reserved":false,"is_disabled":false,"rental_uris":{"android":"levelo://app?vid=d8de45e1-9697-4523-875f-17e2bf7d85a8","ios":"levelo://app?vid=d8de45e1-9697-4523-875f-17e2bf7d85a8"},"vehicle_type_id":"4","last_reported":1748290269,"current_range_meters":14000,"station_id":"ce4bhf92rcd13ifvqf50","pricing_plan_id":"cebpf4jnsgd1na2vs0mg"},{"bike_id":"a2765add-fbec-4533-918f-05db56d012fb","system_id":"levelo_inurba_marseille","lat":43.25826,"lon":5.39434,"is_reserved":false,"is_disabled":false,"rental_uris":{"android":"levelo://app?vid=a2765add-fbec-4533-918f-05db56d012fb","ios":"levelo://app?vid=a2765add-fbec-4533-918f-05db56d012fb"},"vehicle_type_id":"4","last_reported":1748290269,"current_range_meters":14000,"station_id":"ce4bhip2rcd13ifvqft0","pricing_plan_id":"cebpf4jnsgd1na2vs0mg"},{"bike_id":"e3171c06-8a22-41ab-88b1-0d0d06cb0d16","system_id":"levelo_inurba_marseille","lat":43.27812,"lon":5.40716,"is_reserved":false,"is_disabled":false,"rental_uris":{"android":"levelo://app?vid=e3171c06-8a22-41ab-88b1-0d0d06cb0d16","ios":"levelo://app?vid=e3171c06-8a22-41ab-88b1-0d0d06cb0d16"},"vehicle_type_id":"4","last_reported":1748290269,"current_range_meters":14000,"station_id":"ce4bhnh2rcd13ifvqgtg","pricing_plan_id":"cebpf4jnsgd1na2vs0mg"},{"bike_id":"8c0269bb-f3e9-4202-bdef-2816f24b6c68","system_id":"levelo_inurba_marseille","lat":43.30781,"lon":5.43526,"is_reserved":false,"is_disabled":false,"rental_uris":{"android":"levelo://app?vid=8c0269bb-f3e9-4202-bdef-2816f24b6c68","ios":"levelo://app?vid=8c0269bb-f3e9-4202-bdef-2816f24b6c68"},"vehicle_type_id":"4","last_reported":1748290269,"current_range_meters":14000,"station_id":"ce4bhph2rcd13ifvqheg","pricing_plan_id":"cebpf4jnsgd1na2vs0mg"},{"bike_id":"b5fbbce1-d584-478f-8320-afbac1d23b0a","system_id":"levelo_inurba_marseille","lat":43.30732,"lon":5.42436,"is_reserved":false,"is_disabled":false,"rental_uris":{"android":"levelo://app?vid=b5fbbce1-d584-478f-8320-afbac1d23b0a","ios":"levelo://app?vid=b5fbbce1-d584-478f-8320-afbac1d23b0a"},"vehicle_type_id":"4","last_reported":1748290269,"current_range_meters":14000,"station_id":"st_cvj6ca6bvosntc0bfgr0","pricing_plan_id":"cebpf4jnsgd1na2vs0mg"},{"bike_id":"e6c65de3-7d92-4979-809c-6677188473c0","system_id":"levelo_inurba_marseille","lat":43.337684,"lon":5.37432,"is_reserved":false,"is_disabled":false,"rental_uris":{"android":"levelo://app?vid=e6c65de3-7d92-4979-809c-6677188473c0","ios":"levelo://app?vid=e6c65de3-7d92-4979-809c-6677188473c0"},"vehicle_type_id":"4","last_reported":1748290269,"current_range_meters":14400,"station_id":"","pricing_plan_id":"cebpf4jnsgd1na2vs0mg"},{"bike_id":"d5da7f3a-4011-49ff-8618-92d087aebed0","system_id":"levelo_inurba_marseille","lat":43.24536,"lon":5.39522,"is_reserved":false,"is_disabled":false,"rental_uris":{"android":"levelo://app?vid=d5da7f3a-4011-49ff-8618-92d087aebed0","ios":"levelo://app?vid=d5da7f3a-4011-49ff-8618-92d087aebed0"},"vehicle_type_id":"4","last_reported":1748290269,"current_range_meters":14400,"station_id":"ce4bhlp2rcd13ifvqgjg","pricing_plan_id":"cebpf4jnsgd1na2vs0mg"},{"bike_id":"e014484d-1f2c-46d3-9c14-ab3c332a99de","system_id":"levelo_inurba_marseille","lat":43.2749,"lon":5.42456,"is_reserved":false,"is_disabled":false,"rental_uris":{"android":"levelo://app?vid=e014484d-1f2c-46d3-9c14-ab3c332a99de","ios":"levelo://app?vid=e014484d-1f2c-46d3-9c14-ab3c332a99de"},"vehicle_type_id":"4","last_reported":1748290269,"current_range_meters":14400,"station_id":"ce4bhn92rcd13ifvqgrg","pricing_plan_id":"cebpf4jnsgd1na2vs0mg"},{"bike_id":"9e259356-03ed-46b8-9b98-3033d232a782","system_id":"levelo_inurba_marseille","lat":43.24078,"lon":5.37755,"is_reserved":false,"is_disabled":false,"rental_uris":{"android":"levelo://app?vid=9e259356-03ed-46b8-9b98-3033d232a782","ios":"levelo://app?vid=9e259356-03ed-46b8-9b98-3033d232a782"},"vehicle_type_id":"4","last_reported":1748290269,"current_range_meters":14400,"station_id":"ce4bhnp2rcd13ifvqgvg","pricing_plan_id":"cebpf4jnsgd1na2vs0mg"},{"bike_id":"10fc9317-6641-4d09-a506-4d4fa26e7f60","system_id":"levelo_inurba_marseille","lat":43.27998,"lon":5.41682,"is_reserved":false,"is_disabled":false,"rental_uris":{"android":"levelo://app?vid=10fc9317-6641-4d09-a506-4d4fa26e7f60","ios":"levelo://app?vid=10fc9317-6641-4d09-a506-4d4fa26e7f60"},"vehicle_type_id":"4","last_reported":1748290269,"current_range_meters":14400,"station_id":"ce4bho12rcd13ifvqh1g","pricing_plan_id":"cebpf4jnsgd1na2vs0mg"},{"bike_id":"1b1bab21-37f3-4bfa-985c-f8093da0db87","system_id":"levelo_inurba_marseille","lat":43.30331,"lon":5.40439,"is_reserved":false,"is_disabled":false,"rental_uris":{"android":"levelo://app?vid=1b1bab21-37f3-4bfa-985c-f8093da0db87","ios":"levelo://app?vid=1b1bab21-37f3-4bfa-985c-f8093da0db87"},"vehicle_type_id":"4","last_reported":1748290269,"current_range_meters":14800,"station_id":"ce4bh012rcd13ifvqd10","pricing_plan_id":"cebpf4jnsgd1na2vs0mg"},{"bike_id":"0396a038-8097-4a63-b507-d7010ebae4ab","system_id":"levelo_inurba_marseille","lat":43.26206,"lon":5.37445,"is_reserved":false,"is_disabled":false,"rental_uris":{"android":"levelo://app?vid=0396a038-8097-4a63-b507-d7010ebae4ab","ios":"levelo://app?vid=0396a038-8097-4a63-b507-d7010ebae4ab"},"vehicle_type_id":"4","last_reported":1748290269,"current_range_meters":14800,"station_id":"ce4bhgp2rcd13ifvqfc0","pricing_plan_id":"cebpf4jnsgd1na2vs0mg"},{"bike_id":"48cd0317-1c6f-4804-9cd1-21cb1ebe5af3","system_id":"levelo_inurba_marseille","lat":43.25562,"lon":5.37637,"is_reserved":false,"is_disabled":false,"rental_uris":{"android":"levelo://app?vid=48cd0317-1c6f-4804-9cd1-21cb1ebe5af3","ios":"levelo://app?vid=48cd0317-1c6f-4804-9cd1-21cb1ebe5af3"},"vehicle_type_id":"4","last_reported":1748290269,"current_range_meters":14800,"station_id":"ce4bhh12rcd13ifvqff0","pricing_plan_id":"cebpf4jnsgd1na2vs0mg"},{"bike_id":"52da6684-0a1f-4e5c-8d8b-49dd7abe2c17","system_id":"levelo_inurba_marseille","lat":43.23184,"lon":5.39987,"is_reserved":false,"is_disabled":false,"rental_uris":{"android":"levelo://app?vid=52da6684-0a1f-4e5c-8d8b-49dd7abe2c17","ios":"levelo://app?vid=52da6684-0a1f-4e5c-8d8b-49dd7abe2c17"},"vehicle_type_id":"4","last_reported":1748290269,"current_range_meters":14800,"station_id":"ce4bhn12rcd13ifvqgqg","pricing_plan_id":"cebpf4jnsgd1na2vs0mg"},{"bike_id":"9ea0d084-b7dd-4cae-8983-9385691118e8","system_id":"levelo_inurba_marseille","lat":43.31892,"lon":5.40724,"is_reserved":false,"is_disabled":false,"rental_uris":{"android":"levelo://app?vid=9ea0d084-b7dd-4cae-8983-9385691118e8","ios":"levelo://app?vid=9ea0d084-b7dd-4cae-8983-9385691118e8"},"vehicle_type_id":"4","last_reported":1748290269,"current_range_meters":14800,"station_id":"ce4bhq12rcd13ifvqhig","pricing_plan_id":"cebpf4jnsgd1na2vs0mg"},{"bike_id":"6b482028-512e-4dbe-b943-3138dd0f6f46","system_id":"levelo_inurba_marseille","lat":43.29684,"lon":5.3687,"is_reserved":false,"is_disabled":false,"rental_uris":{"android":"levelo://app?vid=6b482028-512e-4dbe-b943-3138dd0f6f46","ios":"levelo://app?vid=6b482028-512e-4dbe-b943-3138dd0f6f46"},"vehicle_type_id":"4","last_reported":1748290269,"current_range_meters":15200,"station_id":"","pricing_plan_id":"cebpf4jnsgd1na2vs0mg"},{"bike_id":"6d43703c-544b-415e-9780-84c0e062736c","system_id":"levelo_inurba_marseille","lat":43.29314,"lon":5.37176,"is_reserved":false,"is_disabled":false,"rental_uris":{"android":"levelo://app?vid=6d43703c-544b-415e-9780-84c0e062736c","ios":"levelo://app?vid=6d43703c-544b-415e-9780-84c0e062736c"},"vehicle_type_id":"4","last_reported":1748290269,"current_range_meters":15200,"station_id":"ce4bgh92rcd13ifvqb40","pricing_plan_id":"cebpf4jnsgd1na2vs0mg"},{"bike_id":"be41815d-793f-4aad-a6f5-97c637e934d8","system_id":"levelo_inurba_marseille","lat":43.29271,"lon":5.37635,"is_reserved":false,"is_disabled":false,"rental_uris":{"android":"levelo://app?vid=be41815d-793f-4aad-a6f5-97c637e934d8","ios":"levelo://app?vid=be41815d-793f-4aad-a6f5-97c637e934d8"},"vehicle_type_id":"4","last_reported":1748290269,"current_range_meters":15200,"station_id":"ce4bgi12rcd13ifvqb80","pricing_plan_id":"cebpf4jnsgd1na2vs0mg"},{"bike_id":"892ebb6d-3d8b-45d2-9e2f-8bc34d10d083","system_id":"levelo_inurba_marseille","lat":43.28709,"lon":5.37382,"is_reserved":false,"is_disabled":false,"rental_uris":{"android":"levelo://app?vid=892ebb6d-3d8b-45d2-9e2f-8bc34d10d083","ios":"levelo://app?vid=892ebb6d-3d8b-45d2-9e2f-8bc34d10d083"},"vehicle_type_id":"4","last_reported":1748290269,"current_range_meters":15200,"station_id":"ce4bh3p2rcd13ifvqdq0","pricing_plan_id":"cebpf4jnsgd1na2vs0mg"},{"bike_id":"0d5c4ec3-9207-4149-b556-49f090f13f2e","system_id":"levelo_inurba_marseille","lat":43.28945,"lon":5.363997,"is_reserved":false,"is_disabled":false,"rental_uris":{"android":"levelo://app?vid=0d5c4ec3-9207-4149-b556-49f090f13f2e","ios":"levelo://app?vid=0d5c4ec3-9207-4149-b556-49f090f13f2e"},"vehicle_type_id":"4","last_reported":1748290269,"current_range_meters":15200,"station_id":"ce4bhc92rcd13ifvqetg","pricing_plan_id":"cebpf4jnsgd1na2vs0mg"},{"bike_id":"7e401798-b5f9-4698-a965-fed1f1a8d96c","system_id":"levelo_inurba_marseille","lat":43.28404,"lon":5.39206,"is_reserved":false,"is_disabled":false,"rental_uris":{"android":"levelo://app?vid=7e401798-b5f9-4698-a965-fed1f1a8d96c","ios":"levelo://app?vid=7e401798-b5f9-4698-a965-fed1f1a8d96c"},"vehicle_type_id":"4","last_reported":1748290269,"current_range_meters":15200,"station_id":"ce4bhoh2rcd13ifvqh5g","pricing_plan_id":"cebpf4jnsgd1na2vs0mg"},{"bike_id":"8e4a49fc-046a-47af-9ebc-7573f797bec1","system_id":"levelo_inurba_marseille","lat":43.298,"lon":5.39349,"is_reserved":false,"is_disabled":false,"rental_uris":{"android":"levelo://app?vid=8e4a49fc-046a-47af-9ebc-7573f797bec1","ios":"levelo://app?vid=8e4a49fc-046a-47af-9ebc-7573f797bec1"},"vehicle_type_id":"4","last_reported":1748290269,"current_range_meters":15200,"station_id":"chh1huq6cuj3fo74tm60","pricing_plan_id":"cebpf4jnsgd1na2vs0mg"},{"bike_id":"3f855aa9-a03a-4d28-bbc8-2f3b26d07315","system_id":"levelo_inurba_marseille","lat":43.22925,"lon":5.3539,"is_reserved":false,"is_disabled":false,"rental_uris":{"android":"levelo://app?vid=3f855aa9-a03a-4d28-bbc8-2f3b26d07315","ios":"levelo://app?vid=3f855aa9-a03a-4d28-bbc8-2f3b26d07315"},"vehicle_type_id":"4","last_reported":1748290269,"current_range_meters":15200,"station_id":"cpo3532slgdg3j2ikp40","pricing_plan_id":"cebpf4jnsgd1na2vs0mg"},{"bike_id":"ceb81090-b40e-47dd-bc35-8598d269ef58","system_id":"levelo_inurba_marseille","lat":43.26663,"lon":5.38431,"is_reserved":false,"is_disabled":false,"rental_uris":{"android":"levelo://app?vid=ceb81090-b40e-47dd-bc35-8598d269ef58","ios":"levelo://app?vid=ceb81090-b40e-47dd-bc35-8598d269ef58"},"vehicle_type_id":"4","last_reported":1748290269,"current_range_meters":16000,"station_id":"","pricing_plan_id":"cebpf4jnsgd1na2vs0mg"},{"bike_id":"a37d7072-fa8d-48ce-882a-f8346c36ab41","system_id":"levelo_inurba_marseille","lat":43.2332,"lon":5.36158,"is_reserved":false,"is_disabled":false,"rental_uris":{"android":"levelo://app?vid=a37d7072-fa8d-48ce-882a-f8346c36ab41","ios":"levelo://app?vid=a37d7072-fa8d-48ce-882a-f8346c36ab41"},"vehicle_type_id":"4","last_reported":1748290269,"current_range_meters":16000,"station_id":"","pricing_plan_id":"cebpf4jnsgd1na2vs0mg"},{"bike_id":"1c986ff8-644a-4c7b-8bcb-c1157e314082","system_id":"levelo_inurba_marseille","lat":43.29032,"lon":5.38633,"is_reserved":false,"is_disabled":false,"rental_uris":{"android":"levelo://app?vid=1c986ff8-644a-4c7b-8bcb-c1157e314082","ios":"levelo://app?vid=1c986ff8-644a-4c7b-8bcb-c1157e314082"},"vehicle_type_id":"4","last_reported":1748290269,"current_range_meters":16000,"station_id":"ce4bh4p2rcd13ifvqe0g","pricing_plan_id":"cebpf4jnsgd1na2vs0mg"},{"bike_id":"0203b6ac-f04c-49a5-b8c4-99b6d08d0b53","system_id":"levelo_inurba_marseille","lat":43.2784,"lon":5.39198,"is_reserved":false,"is_disabled":false,"rental_uris":{"android":"levelo://app?vid=0203b6ac-f04c-49a5-b8c4-99b6d08d0b53","ios":"levelo://app?vid=0203b6ac-f04c-49a5-b8c4-99b6d08d0b53"},"vehicle_type_id":"4","last_reported":1748290269,"current_range_meters":16000,"station_id":"ce4bhjp2rcd13ifvqga0","pricing_plan_id":"cebpf4jnsgd1na2vs0mg"},{"bike_id":"24695fcc-1634-4887-9a04-00f71eb609f0","system_id":"levelo_inurba_marseille","lat":43.231913,"lon":5.399791,"is_reserved":false,"is_disabled":false,"rental_uris":{"android":"levelo://app?vid=24695fcc-1634-4887-9a04-00f71eb609f0","ios":"levelo://app?vid=24695fcc-1634-4887-9a04-00f71eb609f0"},"vehicle_type_id":"4","last_reported":1748290269,"current_range_meters":16000,"station_id":"ce4bhn12rcd13ifvqgqg","pricing_plan_id":"cebpf4jnsgd1na2vs0mg"},{"bike_id":"a3a1e2f8-c082-4657-9cf8-ceb282e14a71","system_id":"levelo_inurba_marseille","lat":43.23194,"lon":5.39985,"is_reserved":false,"is_disabled":false,"rental_uris":{"android":"levelo://app?vid=a3a1e2f8-c082-4657-9cf8-ceb282e14a71","ios":"levelo://app?vid=a3a1e2f8-c082-4657-9cf8-ceb282e14a71"},"vehicle_type_id":"4","last_reported":1748290269,"current_range_meters":16000,"station_id":"ce4bhn12rcd13ifvqgqg","pricing_plan_id":"cebpf4jnsgd1na2vs0mg"},{"bike_id":"367c5bbf-9df8-40b8-ba63-8e01e196d3c8","system_id":"levelo_inurba_marseille","lat":43.31524,"lon":5.38033,"is_reserved":false,"is_disabled":false,"rental_uris":{"android":"levelo://app?vid=367c5bbf-9df8-40b8-ba63-8e01e196d3c8","ios":"levelo://app?vid=367c5bbf-9df8-40b8-ba63-8e01e196d3c8"},"vehicle_type_id":"4","last_reported":1748290269,"current_range_meters":16000,"station_id":"ce4bhsp2rcd13ifvqi50","pricing_plan_id":"cebpf4jnsgd1na2vs0mg"},{"bike_id":"30e949a6-9a21-45c6-8b78-d17c7d943515","system_id":"levelo_inurba_marseille","lat":43.268044,"lon":5.402641,"is_reserved":false,"is_disabled":false,"rental_uris":{"android":"levelo://app?vid=30e949a6-9a21-45c6-8b78-d17c7d943515","ios":"levelo://app?vid=30e949a6-9a21-45c6-8b78-d17c7d943515"},"vehicle_type_id":"4","last_reported":1748290269,"current_range_meters":16000,"station_id":"ce501612rcd8frsf0b60","pricing_plan_id":"cebpf4jnsgd1na2vs0mg"},{"bike_id":"62d05b16-2f04-47f8-8bff-da2368ebef4a","system_id":"levelo_inurba_marseille","lat":43.29313,"lon":5.37175,"is_reserved":false,"is_disabled":false,"rental_uris":{"android":"levelo://app?vid=62d05b16-2f04-47f8-8bff-da2368ebef4a","ios":"levelo://app?vid=62d05b16-2f04-47f8-8bff-da2368ebef4a"},"vehicle_type_id":"4","last_reported":1748290269,"current_range_meters":16400,"station_id":"ce4bgh92rcd13ifvqb40","pricing_plan_id":"cebpf4jnsgd1na2vs0mg"},{"bike_id":"520842e8-c329-484d-8394-648b10c9126b","system_id":"levelo_inurba_marseille","lat":43.311748,"lon":5.387206,"is_reserved":false,"is_disabled":false,"rental_uris":{"android":"levelo://app?vid=520842e8-c329-484d-8394-648b10c9126b","ios":"levelo://app?vid=520842e8-c329-484d-8394-648b10c9126b"},"vehicle_type_id":"4","last_reported":1748290269,"current_range_meters":16400,"station_id":"ce4bgv12rcd13ifvqcp0","pricing_plan_id":"cebpf4jnsgd1na2vs0mg"},{"bike_id":"d84f0de3-75ad-4f48-b55f-2ed1467dcd89","system_id":"levelo_inurba_marseille","lat":43.30093,"lon":5.39072,"is_reserved":false,"is_disabled":false,"rental_uris":{"android":"levelo://app?vid=d84f0de3-75ad-4f48-b55f-2ed1467dcd89","ios":"levelo://app?vid=d84f0de3-75ad-4f48-b55f-2ed1467dcd89"},"vehicle_type_id":"4","last_reported":1748290269,"current_range_meters":16400,"station_id":"ce4bh192rcd13ifvqdb0","pricing_plan_id":"cebpf4jnsgd1na2vs0mg"},{"bike_id":"f8440d74-6946-4cc3-835a-107397f711e7","system_id":"levelo_inurba_marseille","lat":43.284076,"lon":5.375199,"is_reserved":false,"is_disabled":false,"rental_uris":{"android":"levelo://app?vid=f8440d74-6946-4cc3-835a-107397f711e7","ios":"levelo://app?vid=f8440d74-6946-4cc3-835a-107397f711e7"},"vehicle_type_id":"4","last_reported":1748290269,"current_range_meters":16400,"station_id":"ce4bh412rcd13ifvqds0","pricing_plan_id":"cebpf4jnsgd1na2vs0mg"},{"bike_id":"e54a37d7-0b8f-4a8e-ada3-f57136b30871","system_id":"levelo_inurba_marseille","lat":43.28416,"lon":5.37518,"is_reserved":false,"is_disabled":false,"rental_uris":{"android":"levelo://app?vid=e54a37d7-0b8f-4a8e-ada3-f57136b30871","ios":"levelo://app?vid=e54a37d7-0b8f-4a8e-ada3-f57136b30871"},"vehicle_type_id":"4","last_reported":1748290269,"current_range_meters":16400,"station_id":"ce4bh412rcd13ifvqds0","pricing_plan_id":"cebpf4jnsgd1na2vs0mg"},{"bike_id":"fd09be7d-3dc4-46cc-8fa3-080da9492da5","system_id":"levelo_inurba_marseille","lat":43.28491,"lon":5.38418,"is_reserved":false,"is_disabled":false,"rental_uris":{"android":"levelo://app?vid=fd09be7d-3dc4-46cc-8fa3-080da9492da5","ios":"levelo://app?vid=fd09be7d-3dc4-46cc-8fa3-080da9492da5"},"vehicle_type_id":"4","last_reported":1748290269,"current_range_meters":16400,"station_id":"ce4bh512rcd13ifvqe3g","pricing_plan_id":"cebpf4jnsgd1na2vs0mg"},{"bike_id":"8751b621-da59-406e-a864-41dc5121ff9b","system_id":"levelo_inurba_marseille","lat":43.28039,"lon":5.36944,"is_reserved":false,"is_disabled":false,"rental_uris":{"android":"levelo://app?vid=8751b621-da59-406e-a864-41dc5121ff9b","ios":"levelo://app?vid=8751b621-da59-406e-a864-41dc5121ff9b"},"vehicle_type_id":"4","last_reported":1748290269,"current_range_meters":16400,"station_id":"ce4bha12rcd13ifvqef0","pricing_plan_id":"cebpf4jnsgd1na2vs0mg"},{"bike_id":"a9f5d94a-7164-4d33-b870-e1a695b03b56","system_id":"levelo_inurba_marseille","lat":43.3172,"lon":5.437,"is_reserved":false,"is_disabled":false,"rental_uris":{"android":"levelo://app?vid=a9f5d94a-7164-4d33-b870-e1a695b03b56","ios":"levelo://app?vid=a9f5d94a-7164-4d33-b870-e1a695b03b56"},"vehicle_type_id":"4","last_reported":1748290269,"current_range_meters":16400,"station_id":"ce4bhp92rcd13ifvqhcg","pricing_plan_id":"cebpf4jnsgd1na2vs0mg"},{"bike_id":"cf873593-679c-4235-882e-d30565fc33d1","system_id":"levelo_inurba_marseille","lat":43.28712,"lon":5.37392,"is_reserved":false,"is_disabled":false,"rental_uris":{"android":"levelo://app?vid=cf873593-679c-4235-882e-d30565fc33d1","ios":"levelo://app?vid=cf873593-679c-4235-882e-d30565fc33d1"},"vehicle_type_id":"4","last_reported":1748290269,"current_range_meters":16800,"station_id":"ce4bh3p2rcd13ifvqdq0","pricing_plan_id":"cebpf4jnsgd1na2vs0mg"},{"bike_id":"17ab4a9e-d785-42c5-817d-10bed6fd921f","system_id":"levelo_inurba_marseille","lat":43.28355,"lon":5.38115,"is_reserved":false,"is_disabled":false,"rental_uris":{"android":"levelo://app?vid=17ab4a9e-d785-42c5-817d-10bed6fd921f","ios":"levelo://app?vid=17ab4a9e-d785-42c5-817d-10bed6fd921f"},"vehicle_type_id":"4","last_reported":1748290269,"current_range_meters":16800,"station_id":"ce4bh412rcd13ifvqdr0","pricing_plan_id":"cebpf4jnsgd1na2vs0mg"},{"bike_id":"6d78c794-5960-45cf-8357-00701a047b0f","system_id":"levelo_inurba_marseille","lat":43.28406,"lon":5.37516,"is_reserved":false,"is_disabled":false,"rental_uris":{"android":"levelo://app?vid=6d78c794-5960-45cf-8357-00701a047b0f","ios":"levelo://app?vid=6d78c794-5960-45cf-8357-00701a047b0f"},"vehicle_type_id":"4","last_reported":1748290269,"current_range_meters":16800,"station_id":"ce4bh412rcd13ifvqds0","pricing_plan_id":"cebpf4jnsgd1na2vs0mg"},{"bike_id":"fba377c1-28d3-4f00-9612-c33bbafc4551","system_id":"levelo_inurba_marseille","lat":43.28041,"lon":5.36948,"is_reserved":false,"is_disabled":false,"rental_uris":{"android":"levelo://app?vid=fba377c1-28d3-4f00-9612-c33bbafc4551","ios":"levelo://app?vid=fba377c1-28d3-4f00-9612-c33bbafc4551"},"vehicle_type_id":"4","last_reported":1748290269,"current_range_meters":16800,"station_id":"ce4bha12rcd13ifvqef0","pricing_plan_id":"cebpf4jnsgd1na2vs0mg"},{"bike_id":"9198b550-c5cf-463c-bb76-767cf162342b","system_id":"levelo_inurba_marseille","lat":43.25587,"lon":5.38231,"is_reserved":false,"is_disabled":false,"rental_uris":{"android":"levelo://app?vid=9198b550-c5cf-463c-bb76-767cf162342b","ios":"levelo://app?vid=9198b550-c5cf-463c-bb76-767cf162342b"},"vehicle_type_id":"4","last_reported":1748290269,"current_range_meters":16800,"station_id":"ce4bhih2rcd13ifvqfs0","pricing_plan_id":"cebpf4jnsgd1na2vs0mg"},{"bike_id":"91778dc6-5ac3-4d73-a11f-9b1ddc717184","system_id":"levelo_inurba_marseille","lat":43.23197,"lon":5.39986,"is_reserved":false,"is_disabled":false,"rental_uris":{"android":"levelo://app?vid=91778dc6-5ac3-4d73-a11f-9b1ddc717184","ios":"levelo://app?vid=91778dc6-5ac3-4d73-a11f-9b1ddc717184"},"vehicle_type_id":"4","last_reported":1748290269,"current_range_meters":16800,"station_id":"ce4bhn12rcd13ifvqgqg","pricing_plan_id":"cebpf4jnsgd1na2vs0mg"},{"bike_id":"a40588ee-00f9-4620-a7e7-03b577ebbb6e","system_id":"levelo_inurba_marseille","lat":43.23195,"lon":5.3997,"is_reserved":false,"is_disabled":false,"rental_uris":{"android":"levelo://app?vid=a40588ee-00f9-4620-a7e7-03b577ebbb6e","ios":"levelo://app?vid=a40588ee-00f9-4620-a7e7-03b577ebbb6e"},"vehicle_type_id":"4","last_reported":1748290269,"current_range_meters":16800,"station_id":"ce4bhn12rcd13ifvqgqg","pricing_plan_id":"cebpf4jnsgd1na2vs0mg"},{"bike_id":"a081d46c-da93-479a-b86e-a4de0185f93e","system_id":"levelo_inurba_marseille","lat":43.29561,"lon":5.42301,"is_reserved":false,"is_disabled":false,"rental_uris":{"android":"levelo://app?vid=a081d46c-da93-479a-b86e-a4de0185f93e","ios":"levelo://app?vid=a081d46c-da93-479a-b86e-a4de0185f93e"},"vehicle_type_id":"4","last_reported":1748290269,"current_range_meters":16800,"station_id":"ce4bhph2rcd13ifvqhdg","pricing_plan_id":"cebpf4jnsgd1na2vs0mg"},{"bike_id":"0eec6b14-b954-4520-b0f6-390b437f2472","system_id":"levelo_inurba_marseille","lat":43.29786,"lon":5.39333,"is_reserved":false,"is_disabled":false,"rental_uris":{"android":"levelo://app?vid=0eec6b14-b954-4520-b0f6-390b437f2472","ios":"levelo://app?vid=0eec6b14-b954-4520-b0f6-390b437f2472"},"vehicle_type_id":"4","last_reported":1748290269,"current_range_meters":16800,"station_id":"chh1huq6cuj3fo74tm60","pricing_plan_id":"cebpf4jnsgd1na2vs0mg"},{"bike_id":"2296b000-9418-4e25-b3a0-ff6599969b36","system_id":"levelo_inurba_marseille","lat":43.28801,"lon":5.35294,"is_reserved":false,"is_disabled":false,"rental_uris":{"android":"levelo://app?vid=2296b000-9418-4e25-b3a0-ff6599969b36","ios":"levelo://app?vid=2296b000-9418-4e25-b3a0-ff6599969b36"},"vehicle_type_id":"4","last_reported":1748290269,"current_range_meters":17200,"station_id":"","pricing_plan_id":"cebpf4jnsgd1na2vs0mg"},{"bike_id":"f1035961-e08a-47b7-938f-263a5553df08","system_id":"levelo_inurba_marseille","lat":43.30251,"lon":5.40075,"is_reserved":false,"is_disabled":false,"rental_uris":{"android":"levelo://app?vid=f1035961-e08a-47b7-938f-263a5553df08","ios":"levelo://app?vid=f1035961-e08a-47b7-938f-263a5553df08"},"vehicle_type_id":"4","last_reported":1748290269,"current_range_meters":17200,"station_id":"ce4bgvh2rcd13ifvqcs0","pricing_plan_id":"cebpf4jnsgd1na2vs0mg"},{"bike_id":"e3ca188a-03d8-490d-a49d-09a17dc07dc1","system_id":"levelo_inurba_marseille","lat":43.24647,"lon":5.3889,"is_reserved":false,"is_disabled":false,"rental_uris":{"android":"levelo://app?vid=e3ca188a-03d8-490d-a49d-09a17dc07dc1","ios":"levelo://app?vid=e3ca188a-03d8-490d-a49d-09a17dc07dc1"},"vehicle_type_id":"4","last_reported":1748290269,"current_range_meters":17200,"station_id":"ce4bhg12rcd13ifvqf60","pricing_plan_id":"cebpf4jnsgd1na2vs0mg"},{"bike_id":"fa7cce37-fb61-4880-901c-391430e091e9","system_id":"levelo_inurba_marseille","lat":43.241441,"lon":5.37867,"is_reserved":false,"is_disabled":false,"rental_uris":{"android":"levelo://app?vid=fa7cce37-fb61-4880-901c-391430e091e9","ios":"levelo://app?vid=fa7cce37-fb61-4880-901c-391430e091e9"},"vehicle_type_id":"4","last_reported":1748290269,"current_range_meters":17200,"station_id":"ce4bhnp2rcd13ifvqgvg","pricing_plan_id":"cebpf4jnsgd1na2vs0mg"},{"bike_id":"3f5c206d-d03f-449b-a2ec-640aa7a5955e","system_id":"levelo_inurba_marseille","lat":43.29511,"lon":5.39037,"is_reserved":false,"is_disabled":false,"rental_uris":{"android":"levelo://app?vid=3f5c206d-d03f-449b-a2ec-640aa7a5955e","ios":"levelo://app?vid=3f5c206d-d03f-449b-a2ec-640aa7a5955e"},"vehicle_type_id":"4","last_reported":1748290269,"current_range_meters":17600,"station_id":"ce4bh3p2rcd13ifvqdp0","pricing_plan_id":"cebpf4jnsgd1na2vs0mg"},{"bike_id":"a400335e-d37c-458c-a50d-f50dc1e1cc0b","system_id":"levelo_inurba_marseille","lat":43.31172,"lon":5.3872,"is_reserved":false,"is_disabled":false,"rental_uris":{"android":"levelo://app?vid=a400335e-d37c-458c-a50d-f50dc1e1cc0b","ios":"levelo://app?vid=a400335e-d37c-458c-a50d-f50dc1e1cc0b"},"vehicle_type_id":"4","last_reported":1748290269,"current_range_meters":18000,"station_id":"ce4bgv12rcd13ifvqcp0","pricing_plan_id":"cebpf4jnsgd1na2vs0mg"},{"bike_id":"19c4eba9-92cf-48b5-8415-2de09c3ed047","system_id":"levelo_inurba_marseille","lat":43.31177,"lon":5.38716,"is_reserved":false,"is_disabled":false,"rental_uris":{"android":"levelo://app?vid=19c4eba9-92cf-48b5-8415-2de09c3ed047","ios":"levelo://app?vid=19c4eba9-92cf-48b5-8415-2de09c3ed047"},"vehicle_type_id":"4","last_reported":1748290269,"current_range_meters":18000,"station_id":"ce4bgv12rcd13ifvqcp0","pricing_plan_id":"cebpf4jnsgd1na2vs0mg"},{"bike_id":"d9cc438c-b860-45a4-8e0d-3d21bcc4bec6","system_id":"levelo_inurba_marseille","lat":43.29191,"lon":5.39313,"is_reserved":false,"is_disabled":false,"rental_uris":{"android":"levelo://app?vid=d9cc438c-b860-45a4-8e0d-3d21bcc4bec6","ios":"levelo://app?vid=d9cc438c-b860-45a4-8e0d-3d21bcc4bec6"},"vehicle_type_id":"4","last_reported":1748290269,"current_range_meters":18000,"station_id":"ce4bh192rcd13ifvqdd0","pricing_plan_id":"cebpf4jnsgd1na2vs0mg"},{"bike_id":"b0c06015-92f7-4a76-b580-f9828ce50a0b","system_id":"levelo_inurba_marseille","lat":43.29443,"lon":5.39749,"is_reserved":false,"is_disabled":false,"rental_uris":{"android":"levelo://app?vid=b0c06015-92f7-4a76-b580-f9828ce50a0b","ios":"levelo://app?vid=b0c06015-92f7-4a76-b580-f9828ce50a0b"},"vehicle_type_id":"4","last_reported":1748290269,"current_range_meters":18000,"station_id":"ce4bh3h2rcd13ifvqdo0","pricing_plan_id":"cebpf4jnsgd1na2vs0mg"},{"bike_id":"d0b19089-b4ff-4fcb-ac73-52c764dbe42d","system_id":"levelo_inurba_marseille","lat":43.24811,"lon":5.37457,"is_reserved":false,"is_disabled":false,"rental_uris":{"android":"levelo://app?vid=d0b19089-b4ff-4fcb-ac73-52c764dbe42d","ios":"levelo://app?vid=d0b19089-b4ff-4fcb-ac73-52c764dbe42d"},"vehicle_type_id":"4","last_reported":1748290269,"current_range_meters":18000,"station_id":"ce4bhgh2rcd13ifvqfb0","pricing_plan_id":"cebpf4jnsgd1na2vs0mg"},{"bike_id":"421fdb0f-4fc7-419d-a5e2-3efce5e3e9b8","system_id":"levelo_inurba_marseille","lat":43.23957,"lon":5.36653,"is_reserved":false,"is_disabled":false,"rental_uris":{"android":"levelo://app?vid=421fdb0f-4fc7-419d-a5e2-3efce5e3e9b8","ios":"levelo://app?vid=421fdb0f-4fc7-419d-a5e2-3efce5e3e9b8"},"vehicle_type_id":"4","last_reported":1748290269,"current_range_meters":18000,"station_id":"ce4bhi12rcd13ifvqfp0","pricing_plan_id":"cebpf4jnsgd1na2vs0mg"},{"bike_id":"b9feece3-8db7-4d9c-b5c4-3d592ac61b90","system_id":"levelo_inurba_marseille","lat":43.291848,"lon":5.358085,"is_reserved":false,"is_disabled":false,"rental_uris":{"android":"levelo://app?vid=b9feece3-8db7-4d9c-b5c4-3d592ac61b90","ios":"levelo://app?vid=b9feece3-8db7-4d9c-b5c4-3d592ac61b90"},"vehicle_type_id":"4","last_reported":1748290269,"current_range_meters":18800,"station_id":"","pricing_plan_id":"cebpf4jnsgd1na2vs0mg"},{"bike_id":"e9daa0e8-a115-4482-913d-9aa71dd6093c","system_id":"levelo_inurba_marseille","lat":43.29261,"lon":5.37626,"is_reserved":false,"is_disabled":false,"rental_uris":{"android":"levelo://app?vid=e9daa0e8-a115-4482-913d-9aa71dd6093c","ios":"levelo://app?vid=e9daa0e8-a115-4482-913d-9aa71dd6093c"},"vehicle_type_id":"4","last_reported":1748290269,"current_range_meters":18800,"station_id":"ce4bgi12rcd13ifvqb80","pricing_plan_id":"cebpf4jnsgd1na2vs0mg"},{"bike_id":"e4b775f1-9cee-4d13-a214-5f51f85c980a","system_id":"levelo_inurba_marseille","lat":43.29784,"lon":5.3809,"is_reserved":false,"is_disabled":false,"rental_uris":{"android":"levelo://app?vid=e4b775f1-9cee-4d13-a214-5f51f85c980a","ios":"levelo://app?vid=e4b775f1-9cee-4d13-a214-5f51f85c980a"},"vehicle_type_id":"4","last_reported":1748290269,"current_range_meters":18800,"station_id":"ce4bgip2rcd13ifvqbb0","pricing_plan_id":"cebpf4jnsgd1na2vs0mg"},{"bike_id":"723474f0-84fd-4b29-ab09-24cc7ca67edd","system_id":"levelo_inurba_marseille","lat":43.30591,"lon":5.37216,"is_reserved":false,"is_disabled":false,"rental_uris":{"android":"levelo://app?vid=723474f0-84fd-4b29-ab09-24cc7ca67edd","ios":"levelo://app?vid=723474f0-84fd-4b29-ab09-24cc7ca67edd"},"vehicle_type_id":"4","last_reported":1748290269,"current_range_meters":18800,"station_id":"ce4bgqh2rcd13ifvqc4g","pricing_plan_id":"cebpf4jnsgd1na2vs0mg"},{"bike_id":"5b9f22de-7c3c-433b-88cc-0f3ec34a3fd9","system_id":"levelo_inurba_marseille","lat":43.30138,"lon":5.39843,"is_reserved":false,"is_disabled":false,"rental_uris":{"android":"levelo://app?vid=5b9f22de-7c3c-433b-88cc-0f3ec34a3fd9","ios":"levelo://app?vid=5b9f22de-7c3c-433b-88cc-0f3ec34a3fd9"},"vehicle_type_id":"4","last_reported":1748290269,"current_range_meters":18800,"station_id":"ce4bh0h2rcd13ifvqd40","pricing_plan_id":"cebpf4jnsgd1na2vs0mg"},{"bike_id":"c55bb7b9-2210-44a0-9436-033983c9cb1d","system_id":"levelo_inurba_marseille","lat":43.298731,"lon":5.397272,"is_reserved":false,"is_disabled":false,"rental_uris":{"android":"levelo://app?vid=c55bb7b9-2210-44a0-9436-033983c9cb1d","ios":"levelo://app?vid=c55bb7b9-2210-44a0-9436-033983c9cb1d"},"vehicle_type_id":"4","last_reported":1748290269,"current_range_meters":18800,"station_id":"ce4bh0h2rcd13ifvqd50","pricing_plan_id":"cebpf4jnsgd1na2vs0mg"},{"bike_id":"f1f6394d-bab9-409c-ae86-bd0045c7215f","system_id":"levelo_inurba_marseille","lat":43.30104,"lon":5.39081,"is_reserved":false,"is_disabled":false,"rental_uris":{"android":"levelo://app?vid=f1f6394d-bab9-409c-ae86-bd0045c7215f","ios":"levelo://app?vid=f1f6394d-bab9-409c-ae86-bd0045c7215f"},"vehicle_type_id":"4","last_reported":1748290269,"current_range_meters":18800,"station_id":"ce4bh192rcd13ifvqdb0","pricing_plan_id":"cebpf4jnsgd1na2vs0mg"},{"bike_id":"9ce6e827-e02f-4a3e-a9cf-3196b928dd9d","system_id":"levelo_inurba_marseille","lat":43.279077,"lon":5.380137,"is_reserved":false,"is_disabled":false,"rental_uris":{"android":"levelo://app?vid=9ce6e827-e02f-4a3e-a9cf-3196b928dd9d","ios":"levelo://app?vid=9ce6e827-e02f-4a3e-a9cf-3196b928dd9d"},"vehicle_type_id":"4","last_reported":1748290269,"current_range_meters":18800,"station_id":"ce4bhf92rcd13ifvqf50","pricing_plan_id":"cebpf4jnsgd1na2vs0mg"},{"bike_id":"57434873-c7fd-4f1b-8c6c-de24780d0c6f","system_id":"levelo_inurba_marseille","lat":43.2396,"lon":5.36624,"is_reserved":false,"is_disabled":false,"rental_uris":{"android":"levelo://app?vid=57434873-c7fd-4f1b-8c6c-de24780d0c6f","ios":"levelo://app?vid=57434873-c7fd-4f1b-8c6c-de24780d0c6f"},"vehicle_type_id":"4","last_reported":1748290269,"current_range_meters":18800,"station_id":"ce4bhi12rcd13ifvqfp0","pricing_plan_id":"cebpf4jnsgd1na2vs0mg"},{"bike_id":"134c70cc-46f1-414c-ba60-b99ba2b4a992","system_id":"levelo_inurba_marseille","lat":43.34798,"lon":5.35176,"is_reserved":false,"is_disabled":false,"rental_uris":{"android":"levelo://app?vid=134c70cc-46f1-414c-ba60-b99ba2b4a992","ios":"levelo://app?vid=134c70cc-46f1-414c-ba60-b99ba2b4a992"},"vehicle_type_id":"4","last_reported":1748290269,"current_range_meters":19200,"station_id":"","pricing_plan_id":"cebpf4jnsgd1na2vs0mg"},{"bike_id":"6eb26bb8-8e68-4899-b859-3e5cde52330e","system_id":"levelo_inurba_marseille","lat":43.29538,"lon":5.3854,"is_reserved":false,"is_disabled":false,"rental_uris":{"android":"levelo://app?vid=6eb26bb8-8e68-4899-b859-3e5cde52330e","ios":"levelo://app?vid=6eb26bb8-8e68-4899-b859-3e5cde52330e"},"vehicle_type_id":"4","last_reported":1748290269,"current_range_meters":19200,"station_id":"ce4bgih2rcd13ifvqba0","pricing_plan_id":"cebpf4jnsgd1na2vs0mg"},{"bike_id":"c5ec5b05-7117-4532-8d9b-c4a1214ffb61","system_id":"levelo_inurba_marseille","lat":43.30634,"lon":5.40069,"is_reserved":false,"is_disabled":false,"rental_uris":{"android":"levelo://app?vid=c5ec5b05-7117-4532-8d9b-c4a1214ffb61","ios":"levelo://app?vid=c5ec5b05-7117-4532-8d9b-c4a1214ffb61"},"vehicle_type_id":"4","last_reported":1748290269,"current_range_meters":19200,"station_id":"ce4bh112rcd13ifvqda0","pricing_plan_id":"cebpf4jnsgd1na2vs0mg"},{"bike_id":"cb821adc-f9db-4ad8-be2c-3871cfde429a","system_id":"levelo_inurba_marseille","lat":43.28942,"lon":5.39622,"is_reserved":false,"is_disabled":false,"rental_uris":{"android":"levelo://app?vid=cb821adc-f9db-4ad8-be2c-3871cfde429a","ios":"levelo://app?vid=cb821adc-f9db-4ad8-be2c-3871cfde429a"},"vehicle_type_id":"4","last_reported":1748290269,"current_range_meters":19200,"station_id":"ce4bh3h2rcd13ifvqdn0","pricing_plan_id":"cebpf4jnsgd1na2vs0mg"},{"bike_id":"669d02d9-9f0f-4833-b39d-b6a517870305","system_id":"levelo_inurba_marseille","lat":43.28703,"lon":5.37388,"is_reserved":false,"is_disabled":false,"rental_uris":{"android":"levelo://app?vid=669d02d9-9f0f-4833-b39d-b6a517870305","ios":"levelo://app?vid=669d02d9-9f0f-4833-b39d-b6a517870305"},"vehicle_type_id":"4","last_reported":1748290269,"current_range_meters":19200,"station_id":"ce4bh3p2rcd13ifvqdq0","pricing_plan_id":"cebpf4jnsgd1na2vs0mg"},{"bike_id":"ea414ed1-f78f-4f02-aa91-f758cd810441","system_id":"levelo_inurba_marseille","lat":43.29036,"lon":5.37577,"is_reserved":false,"is_disabled":false,"rental_uris":{"android":"levelo://app?vid=ea414ed1-f78f-4f02-aa91-f758cd810441","ios":"levelo://app?vid=ea414ed1-f78f-4f02-aa91-f758cd810441"},"vehicle_type_id":"4","last_reported":1748290269,"current_range_meters":19200,"station_id":"ce4bh692rcd13ifvqe90","pricing_plan_id":"cebpf4jnsgd1na2vs0mg"},{"bike_id":"fd4f52a7-a2f4-4f66-8d2c-38b379123ee4","system_id":"levelo_inurba_marseille","lat":43.22503,"lon":5.34784,"is_reserved":false,"is_disabled":false,"rental_uris":{"android":"levelo://app?vid=fd4f52a7-a2f4-4f66-8d2c-38b379123ee4","ios":"levelo://app?vid=fd4f52a7-a2f4-4f66-8d2c-38b379123ee4"},"vehicle_type_id":"4","last_reported":1748290269,"current_range_meters":19600,"station_id":"","pricing_plan_id":"cebpf4jnsgd1na2vs0mg"},{"bike_id":"aa972d27-bf95-47ea-8df6-004156c51cc6","system_id":"levelo_inurba_marseille","lat":43.29908,"lon":5.38148,"is_reserved":false,"is_disabled":false,"rental_uris":{"android":"levelo://app?vid=aa972d27-bf95-47ea-8df6-004156c51cc6","ios":"levelo://app?vid=aa972d27-bf95-47ea-8df6-004156c51cc6"},"vehicle_type_id":"4","last_reported":1748290269,"current_range_meters":19600,"station_id":"ce4bgj12rcd13ifvqbc0","pricing_plan_id":"cebpf4jnsgd1na2vs0mg"},{"bike_id":"1582c58e-1d62-4be6-8684-d681b55b43ff","system_id":"levelo_inurba_marseille","lat":43.30926,"lon":5.40142,"is_reserved":false,"is_disabled":false,"rental_uris":{"android":"levelo://app?vid=1582c58e-1d62-4be6-8684-d681b55b43ff","ios":"levelo://app?vid=1582c58e-1d62-4be6-8684-d681b55b43ff"},"vehicle_type_id":"4","last_reported":1748290269,"current_range_meters":19600,"station_id":"ce4bgvp2rcd13ifvqct0","pricing_plan_id":"cebpf4jnsgd1na2vs0mg"},{"bike_id":"31518a60-e644-4a65-a466-d52cea385012","system_id":"levelo_inurba_marseille","lat":43.26498,"lon":5.39544,"is_reserved":false,"is_disabled":false,"rental_uris":{"android":"levelo://app?vid=31518a60-e644-4a65-a466-d52cea385012","ios":"levelo://app?vid=31518a60-e644-4a65-a466-d52cea385012"},"vehicle_type_id":"4","last_reported":1748290269,"current_range_meters":19600,"station_id":"ce4bhi12rcd13ifvqfq0","pricing_plan_id":"cebpf4jnsgd1na2vs0mg"},{"bike_id":"03ed3273-5308-4a2f-98e6-dafe952bf88a","system_id":"levelo_inurba_marseille","lat":43.28078,"lon":5.39647,"is_reserved":false,"is_disabled":false,"rental_uris":{"android":"levelo://app?vid=03ed3273-5308-4a2f-98e6-dafe952bf88a","ios":"levelo://app?vid=03ed3273-5308-4a2f-98e6-dafe952bf88a"},"vehicle_type_id":"4","last_reported":1748290269,"current_range_meters":19600,"station_id":"ce4bho12rcd13ifvqh2g","pricing_plan_id":"cebpf4jnsgd1na2vs0mg"},{"bike_id":"e086ad45-491b-4172-bd27-98712d12755d","system_id":"levelo_inurba_marseille","lat":43.30738,"lon":5.42448,"is_reserved":false,"is_disabled":false,"rental_uris":{"android":"levelo://app?vid=e086ad45-491b-4172-bd27-98712d12755d","ios":"levelo://app?vid=e086ad45-491b-4172-bd27-98712d12755d"},"vehicle_type_id":"4","last_reported":1748290269,"current_range_meters":19600,"station_id":"st_cvj6ca6bvosntc0bfgr0","pricing_plan_id":"cebpf4jnsgd1na2vs0mg"},{"bike_id":"4948dd9c-dcee-43bb-9e13-dc817326e619","system_id":"levelo_inurba_marseille","lat":43.29538,"lon":5.38543,"is_reserved":false,"is_disabled":false,"rental_uris":{"android":"levelo://app?vid=4948dd9c-dcee-43bb-9e13-dc817326e619","ios":"levelo://app?vid=4948dd9c-dcee-43bb-9e13-dc817326e619"},"vehicle_type_id":"4","last_reported":1748290269,"current_range_meters":20000,"station_id":"ce4bgih2rcd13ifvqba0","pricing_plan_id":"cebpf4jnsgd1na2vs0mg"},{"bike_id":"dc14c348-e737-4600-a44a-ad35f765402b","system_id":"levelo_inurba_marseille","lat":43.30881,"lon":5.39637,"is_reserved":false,"is_disabled":false,"rental_uris":{"android":"levelo://app?vid=dc14c348-e737-4600-a44a-ad35f765402b","ios":"levelo://app?vid=dc14c348-e737-4600-a44a-ad35f765402b"},"vehicle_type_id":"4","last_reported":1748290269,"current_range_meters":20000,"station_id":"ce4bh012rcd13ifvqcv0","pricing_plan_id":"cebpf4jnsgd1na2vs0mg"},{"bike_id":"3e9fb132-1d21-4c3c-ba69-06a7a2bec397","system_id":"levelo_inurba_marseille","lat":43.28696,"lon":5.37386,"is_reserved":false,"is_disabled":false,"rental_uris":{"android":"levelo://app?vid=3e9fb132-1d21-4c3c-ba69-06a7a2bec397","ios":"levelo://app?vid=3e9fb132-1d21-4c3c-ba69-06a7a2bec397"},"vehicle_type_id":"4","last_reported":1748290269,"current_range_meters":20000,"station_id":"ce4bh3p2rcd13ifvqdq0","pricing_plan_id":"cebpf4jnsgd1na2vs0mg"},{"bike_id":"cdaee811-e8ea-4868-bd76-f10f03da8201","system_id":"levelo_inurba_marseille","lat":43.28708,"lon":5.37922,"is_reserved":false,"is_disabled":false,"rental_uris":{"android":"levelo://app?vid=cdaee811-e8ea-4868-bd76-f10f03da8201","ios":"levelo://app?vid=cdaee811-e8ea-4868-bd76-f10f03da8201"},"vehicle_type_id":"4","last_reported":1748290269,"current_range_meters":20000,"station_id":"ce4bh9p2rcd13ifvqec0","pricing_plan_id":"cebpf4jnsgd1na2vs0mg"},{"bike_id":"f6373654-6d28-46a5-a01d-d04186121a2f","system_id":"levelo_inurba_marseille","lat":43.318805,"lon":5.407405,"is_reserved":false,"is_disabled":false,"rental_uris":{"android":"levelo://app?vid=f6373654-6d28-46a5-a01d-d04186121a2f","ios":"levelo://app?vid=f6373654-6d28-46a5-a01d-d04186121a2f"},"vehicle_type_id":"4","last_reported":1748290269,"current_range_meters":20000,"station_id":"ce4bhq12rcd13ifvqhig","pricing_plan_id":"cebpf4jnsgd1na2vs0mg"},{"bike_id":"b2c479dc-292e-4967-ae6a-a3278dbf7a08","system_id":"levelo_inurba_marseille","lat":43.32305,"lon":5.38294,"is_reserved":false,"is_disabled":false,"rental_uris":{"android":"levelo://app?vid=b2c479dc-292e-4967-ae6a-a3278dbf7a08","ios":"levelo://app?vid=b2c479dc-292e-4967-ae6a-a3278dbf7a08"},"vehicle_type_id":"4","last_reported":1748290269,"current_range_meters":20000,"station_id":"ce4bhr12rcd13ifvqhqg","pricing_plan_id":"cebpf4jnsgd1na2vs0mg"},{"bike_id":"af02aa73-68b2-498b-ad6a-9a50456db18d","system_id":"levelo_inurba_marseille","lat":43.29567,"lon":5.37871,"is_reserved":false,"is_disabled":false,"rental_uris":{"android":"levelo://app?vid=af02aa73-68b2-498b-ad6a-9a50456db18d","ios":"levelo://app?vid=af02aa73-68b2-498b-ad6a-9a50456db18d"},"vehicle_type_id":"4","last_reported":1748290269,"current_range_meters":20400,"station_id":"","pricing_plan_id":"cebpf4jnsgd1na2vs0mg"},{"bike_id":"0de78f62-64aa-4fa9-bd14-61e5146d2718","system_id":"levelo_inurba_marseille","lat":43.29205,"lon":5.39311,"is_reserved":false,"is_disabled":false,"rental_uris":{"android":"levelo://app?vid=0de78f62-64aa-4fa9-bd14-61e5146d2718","ios":"levelo://app?vid=0de78f62-64aa-4fa9-bd14-61e5146d2718"},"vehicle_type_id":"4","last_reported":1748290269,"current_range_meters":20400,"station_id":"ce4bh192rcd13ifvqdd0","pricing_plan_id":"cebpf4jnsgd1na2vs0mg"},{"bike_id":"d452729f-ed10-4825-90e3-116aa11ad080","system_id":"levelo_inurba_marseille","lat":43.29022,"lon":5.38632,"is_reserved":false,"is_disabled":false,"rental_uris":{"android":"levelo://app?vid=d452729f-ed10-4825-90e3-116aa11ad080","ios":"levelo://app?vid=d452729f-ed10-4825-90e3-116aa11ad080"},"vehicle_type_id":"4","last_reported":1748290269,"current_range_meters":20400,"station_id":"ce4bh4p2rcd13ifvqe0g","pricing_plan_id":"cebpf4jnsgd1na2vs0mg"},{"bike_id":"dbf53252-1b7e-4e2e-b29f-d5a56783671b","system_id":"levelo_inurba_marseille","lat":43.28662,"lon":5.36342,"is_reserved":false,"is_disabled":false,"rental_uris":{"android":"levelo://app?vid=dbf53252-1b7e-4e2e-b29f-d5a56783671b","ios":"levelo://app?vid=dbf53252-1b7e-4e2e-b29f-d5a56783671b"},"vehicle_type_id":"4","last_reported":1748290269,"current_range_meters":20400,"station_id":"ce4bhah2rcd13ifvqej0","pricing_plan_id":"cebpf4jnsgd1na2vs0mg"},{"bike_id":"030b726b-531f-4714-a05a-2868ce9a1fb4","system_id":"levelo_inurba_marseille","lat":43.2756,"lon":5.38426,"is_reserved":false,"is_disabled":false,"rental_uris":{"android":"levelo://app?vid=030b726b-531f-4714-a05a-2868ce9a1fb4","ios":"levelo://app?vid=030b726b-531f-4714-a05a-2868ce9a1fb4"},"vehicle_type_id":"4","last_reported":1748290269,"current_range_meters":20400,"station_id":"ce4bhh92rcd13ifvqfi0","pricing_plan_id":"cebpf4jnsgd1na2vs0mg"},{"bike_id":"f49d1390-a13d-4cd9-911a-9cc644409a4f","system_id":"levelo_inurba_marseille","lat":43.29034,"lon":5.39972,"is_reserved":false,"is_disabled":false,"rental_uris":{"android":"levelo://app?vid=f49d1390-a13d-4cd9-911a-9cc644409a4f","ios":"levelo://app?vid=f49d1390-a13d-4cd9-911a-9cc644409a4f"},"vehicle_type_id":"4","last_reported":1748290269,"current_range_meters":20800,"station_id":"ce4bh392rcd13ifvqdm0","pricing_plan_id":"cebpf4jnsgd1na2vs0mg"},{"bike_id":"0aa7a9c7-4985-4484-8767-4009cf0eace8","system_id":"levelo_inurba_marseille","lat":43.28035,"lon":5.36939,"is_reserved":false,"is_disabled":false,"rental_uris":{"android":"levelo://app?vid=0aa7a9c7-4985-4484-8767-4009cf0eace8","ios":"levelo://app?vid=0aa7a9c7-4985-4484-8767-4009cf0eace8"},"vehicle_type_id":"4","last_reported":1748290269,"current_range_meters":20800,"station_id":"ce4bha12rcd13ifvqef0","pricing_plan_id":"cebpf4jnsgd1na2vs0mg"},{"bike_id":"4ffabbb9-8f8c-4877-95e2-3ff2dda7c24e","system_id":"levelo_inurba_marseille","lat":43.25868,"lon":5.39895,"is_reserved":false,"is_disabled":false,"rental_uris":{"android":"levelo://app?vid=4ffabbb9-8f8c-4877-95e2-3ff2dda7c24e","ios":"levelo://app?vid=4ffabbb9-8f8c-4877-95e2-3ff2dda7c24e"},"vehicle_type_id":"4","last_reported":1748290269,"current_range_meters":20800,"station_id":"ce4bhl92rcd13ifvqghg","pricing_plan_id":"cebpf4jnsgd1na2vs0mg"},{"bike_id":"f80944b9-f8bc-4cf5-983d-dbde89c09364","system_id":"levelo_inurba_marseille","lat":43.25089,"lon":5.39528,"is_reserved":false,"is_disabled":false,"rental_uris":{"android":"levelo://app?vid=f80944b9-f8bc-4cf5-983d-dbde89c09364","ios":"levelo://app?vid=f80944b9-f8bc-4cf5-983d-dbde89c09364"},"vehicle_type_id":"4","last_reported":1748290269,"current_range_meters":20800,"station_id":"ce4bhm12rcd13ifvqgkg","pricing_plan_id":"cebpf4jnsgd1na2vs0mg"},{"bike_id":"bb2cdf19-9333-4e3a-ad34-562f6e067f35","system_id":"levelo_inurba_marseille","lat":43.25096,"lon":5.39525,"is_reserved":false,"is_disabled":false,"rental_uris":{"android":"levelo://app?vid=bb2cdf19-9333-4e3a-ad34-562f6e067f35","ios":"levelo://app?vid=bb2cdf19-9333-4e3a-ad34-562f6e067f35"},