{"last_updated":1747339892,"ttl":60,"version":"2.2","data":{"bikes":[{"bike_id":"10431d85-b1b3-4226-8392-fb03cfc52222","system_id":"levelo_inurba_marseille","lat":43.281,"lon":5.37833,"is_reserved":false,"is_disabled":false,"rental_uris":{"android":"levelo://app?vid=10431d85-b1b3-4226-8392-fb03cfc52222","ios":"levelo://app?vid=10431d85-b1b3-4226-8392-fb03cfc52222"},"vehicle_type_id":"4","last_reported":1747339892,"current_range_meters":2800,"station_id":"ce4bha12rcd13ifvqee0","pricing_plan_id":"cebpf4jnsgd1na2vs0mg"},{"bike_id":"ad4822f5-dceb-440b-9bcb-6cfc5e9af24d","system_id":"levelo_inurba_marseille","lat":43.29809,"lon":5.42668,"is_reserved":false,"is_disabled":false,"rental_uris":{"android":"levelo://app?vid=ad4822f5-dceb-440b-9bcb-6cfc5e9af24d","ios":"levelo://app?vid=ad4822f5-dceb-440b-9bcb-6cfc5e9af24d"},"vehicle_type_id":"4","last_reported":1747339892,"current_range_meters":2800,"station_id":"","pricing_plan_id":"cebpf4jnsgd1na2vs0mg"},{"bike_id":"651bac86-f9d7-484e-9f6b-223e2e4b389a","system_id":"levelo_inurba_marseille","lat":43.27943,"lon":5.410483,"is_reserved":false,"is_disabled":false,"rental_uris":{"android":"levelo://app?vid=651bac86-f9d7-484e-9f6b-223e2e4b389a","ios":"levelo://app?vid=651bac86-f9d7-484e-9f6b-223e2e4b389a"},"vehicle_type_id":"4","last_reported":1747339892,"current_range_meters":2000,"station_id":"ce4bhnp2rcd13ifvqh0g","pricing_plan_id":"cebpf4jnsgd1na2vs0mg"},{"bike_id":"7dbeb578-03b8-4b8d-b6b8-296876d4a59a","system_id":"levelo_inurba_marseille","lat":43.31495,"lon":5.37309,"is_reserved":false,"is_disabled":false,"rental_uris":{"android":"levelo://app?vid=7dbeb578-03b8-4b8d-b6b8-296876d4a59a","ios":"levelo://app?vid=7dbeb578-03b8-4b8d-b6b8-296876d4a59a"},"vehicle_type_id":"4","last_reported":1747339892,"current_range_meters":3200,"station_id":"ce4bgt12rcd13ifvqcd0","pricing_plan_id":"cebpf4jnsgd1na2vs0mg"},{"bike_id":"d4771ede-c782-4c12-b149-2da49417e648","system_id":"levelo_inurba_marseille","lat":43.30217,"lon":5.39469,"is_reserved":false,"is_disabled":false,"rental_uris":{"android":"levelo://app?vid=d4771ede-c782-4c12-b149-2da49417e648","ios":"levelo://app?vid=d4771ede-c782-4c12-b149-2da49417e648"},"vehicle_type_id":"4","last_reported":1747339892,"current_range_meters":3600,"station_id":"ce4bh0p2rcd13ifvqd70","pricing_plan_id":"cebpf4jnsgd1na2vs0mg"},{"bike_id":"c31dfd93-ce1c-44b8-9dca-a0896bf16cb5","system_id":"levelo_inurba_marseille","lat":43.30535,"lon":5.38415,"is_reserved":false,"is_disabled":false,"rental_uris":{"android":"levelo://app?vid=c31dfd93-ce1c-44b8-9dca-a0896bf16cb5","ios":"levelo://app?vid=c31dfd93-ce1c-44b8-9dca-a0896bf16cb5"},"vehicle_type_id":"4","last_reported":1747339892,"current_range_meters":3600,"station_id":"ce4bgg92rcd13ifvqb30","pricing_plan_id":"cebpf4jnsgd1na2vs0mg"},{"bike_id":"f5b10ec3-2ce6-41ed-98b5-9940c7c4c1bc","system_id":"levelo_inurba_marseille","lat":43.32365,"lon":5.38883,"is_reserved":false,"is_disabled":false,"rental_uris":{"android":"levelo://app?vid=f5b10ec3-2ce6-41ed-98b5-9940c7c4c1bc","ios":"levelo://app?vid=f5b10ec3-2ce6-41ed-98b5-9940c7c4c1bc"},"vehicle_type_id":"4","last_reported":1747339892,"current_range_meters":3600,"station_id":"ce4bhqp2rcd13ifvqhog","pricing_plan_id":"cebpf4jnsgd1na2vs0mg"},{"bike_id":"1ca3369c-6240-4b99-be0d-ce261ce0949d","system_id":"levelo_inurba_marseille","lat":43.31119,"lon":5.3776,"is_reserved":false,"is_disabled":false,"rental_uris":{"android":"levelo://app?vid=1ca3369c-6240-4b99-be0d-ce261ce0949d","ios":"levelo://app?vid=1ca3369c-6240-4b99-be0d-ce261ce0949d"},"vehicle_type_id":"4","last_reported":1747339892,"current_range_meters":3600,"station_id":"ce4bgt92rcd13ifvqcg0","pricing_plan_id":"cebpf4jnsgd1na2vs0mg"},{"bike_id":"08b7ae0d-1b0a-45e8-afb1-966ac230fc7f","system_id":"levelo_inurba_marseille","lat":43.30429,"lon":5.39743,"is_reserved":false,"is_disabled":false,"rental_uris":{"android":"levelo://app?vid=08b7ae0d-1b0a-45e8-afb1-966ac230fc7f","ios":"levelo://app?vid=08b7ae0d-1b0a-45e8-afb1-966ac230fc7f"},"vehicle_type_id":"4","last_reported":1747339892,"current_range_meters":3600,"station_id":"ce4bh092rcd13ifvqd20","pricing_plan_id":"cebpf4jnsgd1na2vs0mg"},{"bike_id":"f9e7d873-88bb-4f94-a0d6-3fcae7d05021","system_id":"levelo_inurba_marseille","lat":43.30803,"lon":5.36973,"is_reserved":false,"is_disabled":false,"rental_uris":{"android":"levelo://app?vid=f9e7d873-88bb-4f94-a0d6-3fcae7d05021","ios":"levelo://app?vid=f9e7d873-88bb-4f94-a0d6-3fcae7d05021"},"vehicle_type_id":"4","last_reported":1747339892,"current_range_meters":4400,"station_id":"","pricing_plan_id":"cebpf4jnsgd1na2vs0mg"},{"bike_id":"8cafbaf4-db5f-4f20-ba59-8ee50dd610b5","system_id":"levelo_inurba_marseille","lat":43.31328,"lon":5.39699,"is_reserved":false,"is_disabled":true,"rental_uris":{"android":"levelo://app?vid=8cafbaf4-db5f-4f20-ba59-8ee50dd610b5","ios":"levelo://app?vid=8cafbaf4-db5f-4f20-ba59-8ee50dd610b5"},"vehicle_type_id":"4","last_reported":1747339892,"current_range_meters":4400,"station_id":"ce4bgvp2rcd13ifvqcu0","pricing_plan_id":"cebpf4jnsgd1na2vs0mg"},{"bike_id":"1e0aa35f-cae5-4703-97ad-02cb8d7ab4dd","system_id":"levelo_inurba_marseille","lat":43.25088,"lon":5.3952,"is_reserved":false,"is_disabled":false,"rental_uris":{"android":"levelo://app?vid=1e0aa35f-cae5-4703-97ad-02cb8d7ab4dd","ios":"levelo://app?vid=1e0aa35f-cae5-4703-97ad-02cb8d7ab4dd"},"vehicle_type_id":"4","last_reported":1747339892,"current_range_meters":4400,"station_id":"ce4bhm12rcd13ifvqgkg","pricing_plan_id":"cebpf4jnsgd1na2vs0mg"},{"bike_id":"3a489bf5-2761-4eaa-825a-5a5593af2a13","system_id":"levelo_inurba_marseille","lat":43.26954,"lon":5.38638,"is_reserved":false,"is_disabled":false,"rental_uris":{"android":"levelo://app?vid=3a489bf5-2761-4eaa-825a-5a5593af2a13","ios":"levelo://app?vid=3a489bf5-2761-4eaa-825a-5a5593af2a13"},"vehicle_type_id":"4","last_reported":1747339892,"current_range_meters":4400,"station_id":"ce4bhh92rcd13ifvqfh0","pricing_plan_id":"cebpf4jnsgd1na2vs0mg"},{"bike_id":"787f7aea-32a6-489e-9881-1f82d7f9f1b7","system_id":"levelo_inurba_marseille","lat":43.29259,"lon":5.38441,"is_reserved":false,"is_disabled":false,"rental_uris":{"android":"levelo://app?vid=787f7aea-32a6-489e-9881-1f82d7f9f1b7","ios":"levelo://app?vid=787f7aea-32a6-489e-9881-1f82d7f9f1b7"},"vehicle_type_id":"4","last_reported":1747339892,"current_range_meters":4400,"station_id":"ce4bh692rcd13ifvqea0","pricing_plan_id":"cebpf4jnsgd1na2vs0mg"},{"bike_id":"7061a76f-90b0-418d-9de9-fba7b79a4930","system_id":"levelo_inurba_marseille","lat":43.29522,"lon":5.39393,"is_reserved":false,"is_disabled":false,"rental_uris":{"android":"levelo://app?vid=7061a76f-90b0-418d-9de9-fba7b79a4930","ios":"levelo://app?vid=7061a76f-90b0-418d-9de9-fba7b79a4930"},"vehicle_type_id":"4","last_reported":1747339892,"current_range_meters":4400,"station_id":"ce4bh292rcd13ifvqdf0","pricing_plan_id":"cebpf4jnsgd1na2vs0mg"},{"bike_id":"3225a70f-12cd-4cb5-a7c5-ab0440c76feb","system_id":"levelo_inurba_marseille","lat":43.26547,"lon":5.37285,"is_reserved":false,"is_disabled":false,"rental_uris":{"android":"levelo://app?vid=3225a70f-12cd-4cb5-a7c5-ab0440c76feb","ios":"levelo://app?vid=3225a70f-12cd-4cb5-a7c5-ab0440c76feb"},"vehicle_type_id":"4","last_reported":1747339892,"current_range_meters":4800,"station_id":"ce4bhg12rcd13ifvqf70","pricing_plan_id":"cebpf4jnsgd1na2vs0mg"},{"bike_id":"f90767b6-1b81-4051-906f-19139f0f091c","system_id":"levelo_inurba_marseille","lat":43.28358,"lon":5.38099,"is_reserved":false,"is_disabled":false,"rental_uris":{"android":"levelo://app?vid=f90767b6-1b81-4051-906f-19139f0f091c","ios":"levelo://app?vid=f90767b6-1b81-4051-906f-19139f0f091c"},"vehicle_type_id":"4","last_reported":1747339892,"current_range_meters":4800,"station_id":"ce4bh412rcd13ifvqdr0","pricing_plan_id":"cebpf4jnsgd1na2vs0mg"},{"bike_id":"0a2c0950-dc9f-4e4c-90e4-ccece3a9a6cc","system_id":"levelo_inurba_marseille","lat":43.26511,"lon":5.39534,"is_reserved":false,"is_disabled":false,"rental_uris":{"android":"levelo://app?vid=0a2c0950-dc9f-4e4c-90e4-ccece3a9a6cc","ios":"levelo://app?vid=0a2c0950-dc9f-4e4c-90e4-ccece3a9a6cc"},"vehicle_type_id":"4","last_reported":1747339892,"current_range_meters":4800,"station_id":"ce4bhi12rcd13ifvqfq0","pricing_plan_id":"cebpf4jnsgd1na2vs0mg"},{"bike_id":"c1cea811-6043-458b-9433-eedc63a8029c","system_id":"levelo_inurba_marseille","lat":43.280784,"lon":5.396615,"is_reserved":false,"is_disabled":false,"rental_uris":{"android":"levelo://app?vid=c1cea811-6043-458b-9433-eedc63a8029c","ios":"levelo://app?vid=c1cea811-6043-458b-9433-eedc63a8029c"},"vehicle_type_id":"4","last_reported":1747339892,"current_range_meters":4800,"station_id":"ce4bho12rcd13ifvqh2g","pricing_plan_id":"cebpf4jnsgd1na2vs0mg"},{"bike_id":"c9f9236f-5ba8-485b-a8aa-560c0a495408","system_id":"levelo_inurba_marseille","lat":43.25826,"lon":5.39428,"is_reserved":false,"is_disabled":false,"rental_uris":{"android":"levelo://app?vid=c9f9236f-5ba8-485b-a8aa-560c0a495408","ios":"levelo://app?vid=c9f9236f-5ba8-485b-a8aa-560c0a495408"},"vehicle_type_id":"4","last_reported":1747339892,"current_range_meters":4800,"station_id":"ce4bhip2rcd13ifvqft0","pricing_plan_id":"cebpf4jnsgd1na2vs0mg"},{"bike_id":"b78a1437-a4c2-4751-bc21-73f21eba1a81","system_id":"levelo_inurba_marseille","lat":43.28949,"lon":5.35769,"is_reserved":false,"is_disabled":false,"rental_uris":{"android":"levelo://app?vid=b78a1437-a4c2-4751-bc21-73f21eba1a81","ios":"levelo://app?vid=b78a1437-a4c2-4751-bc21-73f21eba1a81"},"vehicle_type_id":"4","last_reported":1747339892,"current_range_meters":4800,"station_id":"","pricing_plan_id":"cebpf4jnsgd1na2vs0mg"},{"bike_id":"39f8671a-8167-408b-91d6-ddc7d8ee515d","system_id":"levelo_inurba_marseille","lat":43.3064,"lon":5.40087,"is_reserved":false,"is_disabled":false,"rental_uris":{"android":"levelo://app?vid=39f8671a-8167-408b-91d6-ddc7d8ee515d","ios":"levelo://app?vid=39f8671a-8167-408b-91d6-ddc7d8ee515d"},"vehicle_type_id":"4","last_reported":1747339892,"current_range_meters":4800,"station_id":"ce4bh112rcd13ifvqda0","pricing_plan_id":"cebpf4jnsgd1na2vs0mg"},{"bike_id":"ec4b0e7a-392b-484f-8871-dc123be3ee1c","system_id":"levelo_inurba_marseille","lat":43.31712,"lon":5.37747,"is_reserved":false,"is_disabled":false,"rental_uris":{"android":"levelo://app?vid=ec4b0e7a-392b-484f-8871-dc123be3ee1c","ios":"levelo://app?vid=ec4b0e7a-392b-484f-8871-dc123be3ee1c"},"vehicle_type_id":"4","last_reported":1747339892,"current_range_meters":5600,"station_id":"ce4bgth2rcd13ifvqch0","pricing_plan_id":"cebpf4jnsgd1na2vs0mg"},{"bike_id":"38a3b32b-5fec-4261-9ad6-676ce6c58781","system_id":"levelo_inurba_marseille","lat":43.28357,"lon":5.38103,"is_reserved":false,"is_disabled":false,"rental_uris":{"android":"levelo://app?vid=38a3b32b-5fec-4261-9ad6-676ce6c58781","ios":"levelo://app?vid=38a3b32b-5fec-4261-9ad6-676ce6c58781"},"vehicle_type_id":"4","last_reported":1747339892,"current_range_meters":5600,"station_id":"ce4bh412rcd13ifvqdr0","pricing_plan_id":"cebpf4jnsgd1na2vs0mg"},{"bike_id":"73a1e93a-ed4d-446f-9228-b014f350bac1","system_id":"levelo_inurba_marseille","lat":43.25497,"lon":5.3765,"is_reserved":false,"is_disabled":false,"rental_uris":{"android":"levelo://app?vid=73a1e93a-ed4d-446f-9228-b014f350bac1","ios":"levelo://app?vid=73a1e93a-ed4d-446f-9228-b014f350bac1"},"vehicle_type_id":"4","last_reported":1747339892,"current_range_meters":5600,"station_id":"ce4bhh12rcd13ifvqff0","pricing_plan_id":"cebpf4jnsgd1na2vs0mg"},{"bike_id":"fc4950d7-0888-44f9-b6bc-bb6330e386cb","system_id":"levelo_inurba_marseille","lat":43.295892,"lon":5.377298,"is_reserved":false,"is_disabled":true,"rental_uris":{"android":"levelo://app?vid=fc4950d7-0888-44f9-b6bc-bb6330e386cb","ios":"levelo://app?vid=fc4950d7-0888-44f9-b6bc-bb6330e386cb"},"vehicle_type_id":"4","last_reported":1747339892,"current_range_meters":5600,"station_id":"ce4bgi92rcd13ifvqb90","pricing_plan_id":"cebpf4jnsgd1na2vs0mg"},{"bike_id":"d2449169-a451-4966-be38-c5971452e792","system_id":"levelo_inurba_marseille","lat":43.2796,"lon":5.38713,"is_reserved":false,"is_disabled":true,"rental_uris":{"android":"levelo://app?vid=d2449169-a451-4966-be38-c5971452e792","ios":"levelo://app?vid=d2449169-a451-4966-be38-c5971452e792"},"vehicle_type_id":"4","last_reported":1747339892,"current_range_meters":5600,"station_id":"ce4bhg12rcd13ifvqf80","pricing_plan_id":"cebpf4jnsgd1na2vs0mg"},{"bike_id":"efdccced-ac5b-4a0d-9885-db5f45bcab1d","system_id":"levelo_inurba_marseille","lat":43.31114,"lon":5.37779,"is_reserved":false,"is_disabled":false,"rental_uris":{"android":"levelo://app?vid=efdccced-ac5b-4a0d-9885-db5f45bcab1d","ios":"levelo://app?vid=efdccced-ac5b-4a0d-9885-db5f45bcab1d"},"vehicle_type_id":"4","last_reported":1747339892,"current_range_meters":6000,"station_id":"ce4bgt92rcd13ifvqcg0","pricing_plan_id":"cebpf4jnsgd1na2vs0mg"},{"bike_id":"b597e532-34ab-41ef-b436-9c61e58d9270","system_id":"levelo_inurba_marseille","lat":43.29622,"lon":5.37741,"is_reserved":false,"is_disabled":false,"rental_uris":{"android":"levelo://app?vid=b597e532-34ab-41ef-b436-9c61e58d9270","ios":"levelo://app?vid=b597e532-34ab-41ef-b436-9c61e58d9270"},"vehicle_type_id":"4","last_reported":1747339892,"current_range_meters":6000,"station_id":"ce4bgi92rcd13ifvqb90","pricing_plan_id":"cebpf4jnsgd1na2vs0mg"},{"bike_id":"592d8d8c-c8b8-4be6-9594-6d75890087ba","system_id":"levelo_inurba_marseille","lat":43.3014,"lon":5.38776,"is_reserved":false,"is_disabled":false,"rental_uris":{"android":"levelo://app?vid=592d8d8c-c8b8-4be6-9594-6d75890087ba","ios":"levelo://app?vid=592d8d8c-c8b8-4be6-9594-6d75890087ba"},"vehicle_type_id":"4","last_reported":1747339892,"current_range_meters":6000,"station_id":"ce4bghh2rcd13ifvqb60","pricing_plan_id":"cebpf4jnsgd1na2vs0mg"},{"bike_id":"2a0092ec-f184-4d57-9901-cfbdc97dbe4d","system_id":"levelo_inurba_marseille","lat":43.29277,"lon":5.38425,"is_reserved":false,"is_disabled":true,"rental_uris":{"android":"levelo://app?vid=2a0092ec-f184-4d57-9901-cfbdc97dbe4d","ios":"levelo://app?vid=2a0092ec-f184-4d57-9901-cfbdc97dbe4d"},"vehicle_type_id":"4","last_reported":1747339892,"current_range_meters":6000,"station_id":"ce4bh692rcd13ifvqea0","pricing_plan_id":"cebpf4jnsgd1na2vs0mg"},{"bike_id":"ea716814-d8a0-425d-8c9d-51cf34ecd6e9","system_id":"levelo_inurba_marseille","lat":43.28101,"lon":5.37842,"is_reserved":false,"is_disabled":false,"rental_uris":{"android":"levelo://app?vid=ea716814-d8a0-425d-8c9d-51cf34ecd6e9","ios":"levelo://app?vid=ea716814-d8a0-425d-8c9d-51cf34ecd6e9"},"vehicle_type_id":"4","last_reported":1747339892,"current_range_meters":6000,"station_id":"ce4bha12rcd13ifvqee0","pricing_plan_id":"cebpf4jnsgd1na2vs0mg"},{"bike_id":"e29f14d1-c786-4e28-830a-050ccdc1aa54","system_id":"levelo_inurba_marseille","lat":43.29254,"lon":5.40911,"is_reserved":false,"is_disabled":false,"rental_uris":{"android":"levelo://app?vid=e29f14d1-c786-4e28-830a-050ccdc1aa54","ios":"levelo://app?vid=e29f14d1-c786-4e28-830a-050ccdc1aa54"},"vehicle_type_id":"4","last_reported":1747339892,"current_range_meters":6400,"station_id":"ce4bh192rcd13ifvqdc0","pricing_plan_id":"cebpf4jnsgd1na2vs0mg"},{"bike_id":"fe5d0865-672f-43bd-a0c1-4310bfdeadc9","system_id":"levelo_inurba_marseille","lat":43.25114,"lon":5.40316,"is_reserved":false,"is_disabled":false,"rental_uris":{"android":"levelo://app?vid=fe5d0865-672f-43bd-a0c1-4310bfdeadc9","ios":"levelo://app?vid=fe5d0865-672f-43bd-a0c1-4310bfdeadc9"},"vehicle_type_id":"4","last_reported":1747339892,"current_range_meters":6400,"station_id":"ce4bhlh2rcd13ifvqgig","pricing_plan_id":"cebpf4jnsgd1na2vs0mg"},{"bike_id":"fed06cf5-f5f2-4809-91f1-074e851a4497","system_id":"levelo_inurba_marseille","lat":43.2414,"lon":5.39718,"is_reserved":false,"is_disabled":false,"rental_uris":{"android":"levelo://app?vid=fed06cf5-f5f2-4809-91f1-074e851a4497","ios":"levelo://app?vid=fed06cf5-f5f2-4809-91f1-074e851a4497"},"vehicle_type_id":"4","last_reported":1747339892,"current_range_meters":6400,"station_id":"ce4bhn12rcd13ifvqgpg","pricing_plan_id":"cebpf4jnsgd1na2vs0mg"},{"bike_id":"9e860552-081e-4a5a-a85e-9ad4365b660f","system_id":"levelo_inurba_marseille","lat":43.30413,"lon":5.41285,"is_reserved":false,"is_disabled":false,"rental_uris":{"android":"levelo://app?vid=9e860552-081e-4a5a-a85e-9ad4365b660f","ios":"levelo://app?vid=9e860552-081e-4a5a-a85e-9ad4365b660f"},"vehicle_type_id":"4","last_reported":1747339892,"current_range_meters":6400,"station_id":"ce4bhop2rcd13ifvqh8g","pricing_plan_id":"cebpf4jnsgd1na2vs0mg"},{"bike_id":"ef54c2c5-3da9-405a-ad25-3aeef5273559","system_id":"levelo_inurba_marseille","lat":43.29412,"lon":5.38618,"is_reserved":false,"is_disabled":false,"rental_uris":{"android":"levelo://app?vid=ef54c2c5-3da9-405a-ad25-3aeef5273559","ios":"levelo://app?vid=ef54c2c5-3da9-405a-ad25-3aeef5273559"},"vehicle_type_id":"4","last_reported":1747339892,"current_range_meters":6400,"station_id":"ce4bh2h2rcd13ifvqdh0","pricing_plan_id":"cebpf4jnsgd1na2vs0mg"},{"bike_id":"b6896310-a386-4eb1-a47b-30e3cd81dc87","system_id":"levelo_inurba_marseille","lat":43.28702,"lon":5.39982,"is_reserved":false,"is_disabled":false,"rental_uris":{"android":"levelo://app?vid=b6896310-a386-4eb1-a47b-30e3cd81dc87","ios":"levelo://app?vid=b6896310-a386-4eb1-a47b-30e3cd81dc87"},"vehicle_type_id":"4","last_reported":1747339892,"current_range_meters":6400,"station_id":"ce4bho92rcd13ifvqh3g","pricing_plan_id":"cebpf4jnsgd1na2vs0mg"},{"bike_id":"e569c6b1-7056-48fc-9532-34d8bdd7ba2d","system_id":"levelo_inurba_marseille","lat":43.29436,"lon":5.397495,"is_reserved":false,"is_disabled":false,"rental_uris":{"android":"levelo://app?vid=e569c6b1-7056-48fc-9532-34d8bdd7ba2d","ios":"levelo://app?vid=e569c6b1-7056-48fc-9532-34d8bdd7ba2d"},"vehicle_type_id":"4","last_reported":1747339892,"current_range_meters":6400,"station_id":"ce4bh3h2rcd13ifvqdo0","pricing_plan_id":"cebpf4jnsgd1na2vs0mg"},{"bike_id":"f177d2e4-b664-49e7-930f-92de032ad36e","system_id":"levelo_inurba_marseille","lat":43.32364,"lon":5.3676,"is_reserved":false,"is_disabled":false,"rental_uris":{"android":"levelo://app?vid=f177d2e4-b664-49e7-930f-92de032ad36e","ios":"levelo://app?vid=f177d2e4-b664-49e7-930f-92de032ad36e"},"vehicle_type_id":"4","last_reported":1747339892,"current_range_meters":6800,"station_id":"ce4bhsh2rcd13ifvqi2g","pricing_plan_id":"cebpf4jnsgd1na2vs0mg"},{"bike_id":"aa135efa-7f54-4db0-b146-91ad5844592b","system_id":"levelo_inurba_marseille","lat":43.29536,"lon":5.385374,"is_reserved":false,"is_disabled":false,"rental_uris":{"android":"levelo://app?vid=aa135efa-7f54-4db0-b146-91ad5844592b","ios":"levelo://app?vid=aa135efa-7f54-4db0-b146-91ad5844592b"},"vehicle_type_id":"4","last_reported":1747339892,"current_range_meters":6800,"station_id":"ce4bgih2rcd13ifvqba0","pricing_plan_id":"cebpf4jnsgd1na2vs0mg"},{"bike_id":"991a5140-2fc2-4395-ae73-bda5735b2507","system_id":"levelo_inurba_marseille","lat":43.28153,"lon":5.42644,"is_reserved":false,"is_disabled":false,"rental_uris":{"android":"levelo://app?vid=991a5140-2fc2-4395-ae73-bda5735b2507","ios":"levelo://app?vid=991a5140-2fc2-4395-ae73-bda5735b2507"},"vehicle_type_id":"4","last_reported":1747339892,"current_range_meters":6800,"station_id":"ce4bhnh2rcd13ifvqgug","pricing_plan_id":"cebpf4jnsgd1na2vs0mg"},{"bike_id":"b47ff3b2-1ab9-4945-87ab-f7d96649a5e9","system_id":"levelo_inurba_marseille","lat":43.27207,"lon":5.39205,"is_reserved":false,"is_disabled":true,"rental_uris":{"android":"levelo://app?vid=b47ff3b2-1ab9-4945-87ab-f7d96649a5e9","ios":"levelo://app?vid=b47ff3b2-1ab9-4945-87ab-f7d96649a5e9"},"vehicle_type_id":"4","last_reported":1747339892,"current_range_meters":6800,"station_id":"ce4bhhp2rcd13ifvqfm0","pricing_plan_id":"cebpf4jnsgd1na2vs0mg"},{"bike_id":"d4789963-feaa-420d-afc5-22454b891ea8","system_id":"levelo_inurba_marseille","lat":43.28155,"lon":5.42642,"is_reserved":false,"is_disabled":false,"rental_uris":{"android":"levelo://app?vid=d4789963-feaa-420d-afc5-22454b891ea8","ios":"levelo://app?vid=d4789963-feaa-420d-afc5-22454b891ea8"},"vehicle_type_id":"4","last_reported":1747339892,"current_range_meters":6800,"station_id":"ce4bhnh2rcd13ifvqgug","pricing_plan_id":"cebpf4jnsgd1na2vs0mg"},{"bike_id":"6335d677-a299-4849-a0f3-1e55f4e585b1","system_id":"levelo_inurba_marseille","lat":43.31168,"lon":5.38718,"is_reserved":false,"is_disabled":false,"rental_uris":{"android":"levelo://app?vid=6335d677-a299-4849-a0f3-1e55f4e585b1","ios":"levelo://app?vid=6335d677-a299-4849-a0f3-1e55f4e585b1"},"vehicle_type_id":"4","last_reported":1747339892,"current_range_meters":7200,"station_id":"ce4bgv12rcd13ifvqcp0","pricing_plan_id":"cebpf4jnsgd1na2vs0mg"},{"bike_id":"24de552c-70bc-4824-aca8-676983127a74","system_id":"levelo_inurba_marseille","lat":43.30786,"lon":5.37638,"is_reserved":false,"is_disabled":false,"rental_uris":{"android":"levelo://app?vid=24de552c-70bc-4824-aca8-676983127a74","ios":"levelo://app?vid=24de552c-70bc-4824-aca8-676983127a74"},"vehicle_type_id":"4","last_reported":1747339892,"current_range_meters":7200,"station_id":"ce4bgv92rcd13ifvqcq0","pricing_plan_id":"cebpf4jnsgd1na2vs0mg"},{"bike_id":"9fbc4b0a-22b5-475e-9fa9-fefee100a33d","system_id":"levelo_inurba_marseille","lat":43.27906,"lon":5.38005,"is_reserved":false,"is_disabled":false,"rental_uris":{"android":"levelo://app?vid=9fbc4b0a-22b5-475e-9fa9-fefee100a33d","ios":"levelo://app?vid=9fbc4b0a-22b5-475e-9fa9-fefee100a33d"},"vehicle_type_id":"4","last_reported":1747339892,"current_range_meters":7200,"station_id":"ce4bhf92rcd13ifvqf50","pricing_plan_id":"cebpf4jnsgd1na2vs0mg"},{"bike_id":"a017053e-7d3c-4440-b20b-b90c6112f9ea","system_id":"levelo_inurba_marseille","lat":43.29911,"lon":5.37473,"is_reserved":false,"is_disabled":false,"rental_uris":{"android":"levelo://app?vid=a017053e-7d3c-4440-b20b-b90c6112f9ea","ios":"levelo://app?vid=a017053e-7d3c-4440-b20b-b90c6112f9ea"},"vehicle_type_id":"4","last_reported":1747339892,"current_range_meters":7200,"station_id":"ce4bgjh2rcd13ifvqbg0","pricing_plan_id":"cebpf4jnsgd1na2vs0mg"},{"bike_id":"39e99e57-d2aa-4bcc-b275-e65d73c63c65","system_id":"levelo_inurba_marseille","lat":43.29785,"lon":5.39344,"is_reserved":false,"is_disabled":false,"rental_uris":{"android":"levelo://app?vid=39e99e57-d2aa-4bcc-b275-e65d73c63c65","ios":"levelo://app?vid=39e99e57-d2aa-4bcc-b275-e65d73c63c65"},"vehicle_type_id":"4","last_reported":1747339892,"current_range_meters":7200,"station_id":"chh1huq6cuj3fo74tm60","pricing_plan_id":"cebpf4jnsgd1na2vs0mg"},{"bike_id":"18e2ab6e-8fae-4f1f-b9c7-a4adc527cf67","system_id":"levelo_inurba_marseille","lat":43.33015,"lon":5.3799,"is_reserved":false,"is_disabled":false,"rental_uris":{"android":"levelo://app?vid=18e2ab6e-8fae-4f1f-b9c7-a4adc527cf67","ios":"levelo://app?vid=18e2ab6e-8fae-4f1f-b9c7-a4adc527cf67"},"vehicle_type_id":"4","last_reported":1747339892,"current_range_meters":4000,"station_id":"","pricing_plan_id":"cebpf4jnsgd1na2vs0mg"},{"bike_id":"e2e2487b-8a81-4022-b36a-6aa7a6726e87","system_id":"levelo_inurba_marseille","lat":43.24182,"lon":5.39727,"is_reserved":false,"is_disabled":false,"rental_uris":{"android":"levelo://app?vid=e2e2487b-8a81-4022-b36a-6aa7a6726e87","ios":"levelo://app?vid=e2e2487b-8a81-4022-b36a-6aa7a6726e87"},"vehicle_type_id":"4","last_reported":1747339892,"current_range_meters":7200,"station_id":"ce4bhn12rcd13ifvqgpg","pricing_plan_id":"cebpf4jnsgd1na2vs0mg"},{"bike_id":"18191ec6-95b5-440c-bcb3-402be72ae7d5","system_id":"levelo_inurba_marseille","lat":43.289344,"lon":5.366326,"is_reserved":false,"is_disabled":false,"rental_uris":{"android":"levelo://app?vid=18191ec6-95b5-440c-bcb3-402be72ae7d5","ios":"levelo://app?vid=18191ec6-95b5-440c-bcb3-402be72ae7d5"},"vehicle_type_id":"4","last_reported":1747339892,"current_range_meters":8000,"station_id":"ce4bhap2rcd13ifvqek0","pricing_plan_id":"cebpf4jnsgd1na2vs0mg"},{"bike_id":"25ee7a08-1d67-47e9-a2c7-ccec96897f0f","system_id":"levelo_inurba_marseille","lat":43.31755,"lon":5.39018,"is_reserved":false,"is_disabled":false,"rental_uris":{"android":"levelo://app?vid=25ee7a08-1d67-47e9-a2c7-ccec96897f0f","ios":"levelo://app?vid=25ee7a08-1d67-47e9-a2c7-ccec96897f0f"},"vehicle_type_id":"4","last_reported":1747339892,"current_range_meters":8000,"station_id":"ce4bhqp2rcd13ifvqhng","pricing_plan_id":"cebpf4jnsgd1na2vs0mg"},{"bike_id":"64908e2c-289d-42cb-b946-7648955ad17f","system_id":"levelo_inurba_marseille","lat":43.2903,"lon":5.38644,"is_reserved":false,"is_disabled":false,"rental_uris":{"android":"levelo://app?vid=64908e2c-289d-42cb-b946-7648955ad17f","ios":"levelo://app?vid=64908e2c-289d-42cb-b946-7648955ad17f"},"vehicle_type_id":"4","last_reported":1747339892,"current_range_meters":8400,"station_id":"ce4bh4p2rcd13ifvqe0g","pricing_plan_id":"cebpf4jnsgd1na2vs0mg"},{"bike_id":"b7cb570d-77f5-48d9-be33-70291761d5d7","system_id":"levelo_inurba_marseille","lat":43.21192,"lon":5.35072,"is_reserved":false,"is_disabled":false,"rental_uris":{"android":"levelo://app?vid=b7cb570d-77f5-48d9-be33-70291761d5d7","ios":"levelo://app?vid=b7cb570d-77f5-48d9-be33-70291761d5d7"},"vehicle_type_id":"4","last_reported":1747339892,"current_range_meters":8400,"station_id":"st_cvj6sg6p6f1abm77japg","pricing_plan_id":"cebpf4jnsgd1na2vs0mg"},{"bike_id":"d5a98741-32c7-4c92-bd17-9ff83a4fb14b","system_id":"levelo_inurba_marseille","lat":43.306,"lon":5.39352,"is_reserved":false,"is_disabled":false,"rental_uris":{"android":"levelo://app?vid=d5a98741-32c7-4c92-bd17-9ff83a4fb14b","ios":"levelo://app?vid=d5a98741-32c7-4c92-bd17-9ff83a4fb14b"},"vehicle_type_id":"4","last_reported":1747339892,"current_range_meters":8400,"station_id":"ce4bh0p2rcd13ifvqd80","pricing_plan_id":"cebpf4jnsgd1na2vs0mg"},{"bike_id":"b86a7440-387f-4290-a513-7074072e7950","system_id":"levelo_inurba_marseille","lat":43.27966,"lon":5.38727,"is_reserved":false,"is_disabled":false,"rental_uris":{"android":"levelo://app?vid=b86a7440-387f-4290-a513-7074072e7950","ios":"levelo://app?vid=b86a7440-387f-4290-a513-7074072e7950"},"vehicle_type_id":"4","last_reported":1747339892,"current_range_meters":8400,"station_id":"ce4bhg12rcd13ifvqf80","pricing_plan_id":"cebpf4jnsgd1na2vs0mg"},{"bike_id":"04539c87-76eb-4b45-a743-515c3df3ab81","system_id":"levelo_inurba_marseille","lat":43.28355,"lon":5.38102,"is_reserved":false,"is_disabled":false,"rental_uris":{"android":"levelo://app?vid=04539c87-76eb-4b45-a743-515c3df3ab81","ios":"levelo://app?vid=04539c87-76eb-4b45-a743-515c3df3ab81"},"vehicle_type_id":"4","last_reported":1747339892,"current_range_meters":8400,"station_id":"ce4bh412rcd13ifvqdr0","pricing_plan_id":"cebpf4jnsgd1na2vs0mg"},{"bike_id":"50cafd20-9f91-411c-9adf-f7bb5d2d9681","system_id":"levelo_inurba_marseille","lat":43.28372,"lon":5.38632,"is_reserved":false,"is_disabled":false,"rental_uris":{"android":"levelo://app?vid=50cafd20-9f91-411c-9adf-f7bb5d2d9681","ios":"levelo://app?vid=50cafd20-9f91-411c-9adf-f7bb5d2d9681"},"vehicle_type_id":"4","last_reported":1747339892,"current_range_meters":8400,"station_id":"ce4bh492rcd13ifvqdvg","pricing_plan_id":"cebpf4jnsgd1na2vs0mg"},{"bike_id":"5fdebff2-c927-4e43-81c5-6ec5122ce28c","system_id":"levelo_inurba_marseille","lat":43.28101,"lon":5.3783,"is_reserved":false,"is_disabled":false,"rental_uris":{"android":"levelo://app?vid=5fdebff2-c927-4e43-81c5-6ec5122ce28c","ios":"levelo://app?vid=5fdebff2-c927-4e43-81c5-6ec5122ce28c"},"vehicle_type_id":"4","last_reported":1747339892,"current_range_meters":8400,"station_id":"ce4bha12rcd13ifvqee0","pricing_plan_id":"cebpf4jnsgd1na2vs0mg"},{"bike_id":"4c7528e2-93c8-44aa-af5c-a5ab3d52319a","system_id":"levelo_inurba_marseille","lat":43.28673,"lon":5.38666,"is_reserved":false,"is_disabled":false,"rental_uris":{"android":"levelo://app?vid=4c7528e2-93c8-44aa-af5c-a5ab3d52319a","ios":"levelo://app?vid=4c7528e2-93c8-44aa-af5c-a5ab3d52319a"},"vehicle_type_id":"4","last_reported":1747339892,"current_range_meters":8400,"station_id":"ce4bh492rcd13ifvqdug","pricing_plan_id":"cebpf4jnsgd1na2vs0mg"},{"bike_id":"414d56c9-f1a7-4e20-9c42-836e3990fabb","system_id":"levelo_inurba_marseille","lat":43.22935,"lon":5.35417,"is_reserved":false,"is_disabled":false,"rental_uris":{"android":"levelo://app?vid=414d56c9-f1a7-4e20-9c42-836e3990fabb","ios":"levelo://app?vid=414d56c9-f1a7-4e20-9c42-836e3990fabb"},"vehicle_type_id":"4","last_reported":1747339892,"current_range_meters":8800,"station_id":"cpo3532slgdg3j2ikp40","pricing_plan_id":"cebpf4jnsgd1na2vs0mg"},{"bike_id":"1dd48d5a-6161-4579-9f17-0db5f673d5b8","system_id":"levelo_inurba_marseille","lat":43.30531,"lon":5.36707,"is_reserved":false,"is_disabled":false,"rental_uris":{"android":"levelo://app?vid=1dd48d5a-6161-4579-9f17-0db5f673d5b8","ios":"levelo://app?vid=1dd48d5a-6161-4579-9f17-0db5f673d5b8"},"vehicle_type_id":"4","last_reported":1747339892,"current_range_meters":8800,"station_id":"ce4bgrp2rcd13ifvqc9g","pricing_plan_id":"cebpf4jnsgd1na2vs0mg"},{"bike_id":"d8a739e2-01be-4859-893b-3009da028a91","system_id":"levelo_inurba_marseille","lat":43.28677,"lon":5.38655,"is_reserved":false,"is_disabled":false,"rental_uris":{"android":"levelo://app?vid=d8a739e2-01be-4859-893b-3009da028a91","ios":"levelo://app?vid=d8a739e2-01be-4859-893b-3009da028a91"},"vehicle_type_id":"4","last_reported":1747339892,"current_range_meters":8800,"station_id":"ce4bh492rcd13ifvqdug","pricing_plan_id":"cebpf4jnsgd1na2vs0mg"},{"bike_id":"77a97a10-49ce-4d5a-b430-9b0855c9b056","system_id":"levelo_inurba_marseille","lat":43.29519,"lon":5.39405,"is_reserved":false,"is_disabled":false,"rental_uris":{"android":"levelo://app?vid=77a97a10-49ce-4d5a-b430-9b0855c9b056","ios":"levelo://app?vid=77a97a10-49ce-4d5a-b430-9b0855c9b056"},"vehicle_type_id":"4","last_reported":1747339892,"current_range_meters":8800,"station_id":"ce4bh292rcd13ifvqdf0","pricing_plan_id":"cebpf4jnsgd1na2vs0mg"},{"bike_id":"fd368a2c-24ee-4354-aec6-35cb06319654","system_id":"levelo_inurba_marseille","lat":43.32366,"lon":5.38881,"is_reserved":false,"is_disabled":false,"rental_uris":{"android":"levelo://app?vid=fd368a2c-24ee-4354-aec6-35cb06319654","ios":"levelo://app?vid=fd368a2c-24ee-4354-aec6-35cb06319654"},"vehicle_type_id":"4","last_reported":1747339892,"current_range_meters":9200,"station_id":"ce4bhqp2rcd13ifvqhog","pricing_plan_id":"cebpf4jnsgd1na2vs0mg"},{"bike_id":"e06f964d-0ee1-4670-8050-57a4fa8cf083","system_id":"levelo_inurba_marseille","lat":43.29532,"lon":5.38543,"is_reserved":false,"is_disabled":false,"rental_uris":{"android":"levelo://app?vid=e06f964d-0ee1-4670-8050-57a4fa8cf083","ios":"levelo://app?vid=e06f964d-0ee1-4670-8050-57a4fa8cf083"},"vehicle_type_id":"4","last_reported":1747339892,"current_range_meters":9200,"station_id":"ce4bgih2rcd13ifvqba0","pricing_plan_id":"cebpf4jnsgd1na2vs0mg"},{"bike_id":"a887d8d6-6f94-4ed7-92df-883ada4838df","system_id":"levelo_inurba_marseille","lat":43.29877,"lon":5.38904,"is_reserved":false,"is_disabled":false,"rental_uris":{"android":"levelo://app?vid=a887d8d6-6f94-4ed7-92df-883ada4838df","ios":"levelo://app?vid=a887d8d6-6f94-4ed7-92df-883ada4838df"},"vehicle_type_id":"4","last_reported":1747339892,"current_range_meters":9200,"station_id":"ce4bh392rcd13ifvqdl0","pricing_plan_id":"cebpf4jnsgd1na2vs0mg"},{"bike_id":"2d868c7d-1773-4908-befa-cd0aaed09d96","system_id":"levelo_inurba_marseille","lat":43.32366,"lon":5.38883,"is_reserved":false,"is_disabled":false,"rental_uris":{"android":"levelo://app?vid=2d868c7d-1773-4908-befa-cd0aaed09d96","ios":"levelo://app?vid=2d868c7d-1773-4908-befa-cd0aaed09d96"},"vehicle_type_id":"4","last_reported":1747339892,"current_range_meters":9200,"station_id":"ce4bhqp2rcd13ifvqhog","pricing_plan_id":"cebpf4jnsgd1na2vs0mg"},{"bike_id":"561549a2-798d-4052-830a-279630f71645","system_id":"levelo_inurba_marseille","lat":43.28422,"lon":5.35537,"is_reserved":false,"is_disabled":false,"rental_uris":{"android":"levelo://app?vid=561549a2-798d-4052-830a-279630f71645","ios":"levelo://app?vid=561549a2-798d-4052-830a-279630f71645"},"vehicle_type_id":"4","last_reported":1747339892,"current_range_meters":9200,"station_id":"","pricing_plan_id":"cebpf4jnsgd1na2vs0mg"},{"bike_id":"4b737c71-2d50-46db-b412-91ca61536621","system_id":"levelo_inurba_marseille","lat":43.26055,"lon":5.39393,"is_reserved":false,"is_disabled":false,"rental_uris":{"android":"levelo://app?vid=4b737c71-2d50-46db-b412-91ca61536621","ios":"levelo://app?vid=4b737c71-2d50-46db-b412-91ca61536621"},"vehicle_type_id":"4","last_reported":1747339892,"current_range_meters":9200,"station_id":"ce4bhh92rcd13ifvqfj0","pricing_plan_id":"cebpf4jnsgd1na2vs0mg"},{"bike_id":"b79a285d-c8f5-444f-8fe8-9016a444cdd9","system_id":"levelo_inurba_marseille","lat":43.28999,"lon":5.35603,"is_reserved":false,"is_disabled":true,"rental_uris":{"android":"levelo://app?vid=b79a285d-c8f5-444f-8fe8-9016a444cdd9","ios":"levelo://app?vid=b79a285d-c8f5-444f-8fe8-9016a444cdd9"},"vehicle_type_id":"4","last_reported":1747339892,"current_range_meters":9200,"station_id":"ce4bhb92rcd13ifvqen0","pricing_plan_id":"cebpf4jnsgd1na2vs0mg"},{"bike_id":"cdc17061-5a6f-437b-a2d6-ebac9cb6a45e","system_id":"levelo_inurba_marseille","lat":43.3234,"lon":5.40616,"is_reserved":false,"is_disabled":false,"rental_uris":{"android":"levelo://app?vid=cdc17061-5a6f-437b-a2d6-ebac9cb6a45e","ios":"levelo://app?vid=cdc17061-5a6f-437b-a2d6-ebac9cb6a45e"},"vehicle_type_id":"4","last_reported":1747339892,"current_range_meters":9200,"station_id":"ce4bhq92rcd13ifvqhjg","pricing_plan_id":"cebpf4jnsgd1na2vs0mg"},{"bike_id":"e70c0259-93d1-4b3b-81ce-c3bbef8242f8","system_id":"levelo_inurba_marseille","lat":43.292693,"lon":5.384364,"is_reserved":false,"is_disabled":false,"rental_uris":{"android":"levelo://app?vid=e70c0259-93d1-4b3b-81ce-c3bbef8242f8","ios":"levelo://app?vid=e70c0259-93d1-4b3b-81ce-c3bbef8242f8"},"vehicle_type_id":"4","last_reported":1747339892,"current_range_meters":9600,"station_id":"ce4bh692rcd13ifvqea0","pricing_plan_id":"cebpf4jnsgd1na2vs0mg"},{"bike_id":"0d2ee6ba-5809-418c-a202-c60bc46b6a61","system_id":"levelo_inurba_marseille","lat":43.31537,"lon":5.38035,"is_reserved":false,"is_disabled":false,"rental_uris":{"android":"levelo://app?vid=0d2ee6ba-5809-418c-a202-c60bc46b6a61","ios":"levelo://app?vid=0d2ee6ba-5809-418c-a202-c60bc46b6a61"},"vehicle_type_id":"4","last_reported":1747339892,"current_range_meters":9600,"station_id":"ce4bhsp2rcd13ifvqi50","pricing_plan_id":"cebpf4jnsgd1na2vs0mg"},{"bike_id":"d47aa709-16cd-4003-b5f2-52a3f9556c58","system_id":"levelo_inurba_marseille","lat":43.3235,"lon":5.40623,"is_reserved":false,"is_disabled":false,"rental_uris":{"android":"levelo://app?vid=d47aa709-16cd-4003-b5f2-52a3f9556c58","ios":"levelo://app?vid=d47aa709-16cd-4003-b5f2-52a3f9556c58"},"vehicle_type_id":"4","last_reported":1747339892,"current_range_meters":9600,"station_id":"ce4bhq92rcd13ifvqhjg","pricing_plan_id":"cebpf4jnsgd1na2vs0mg"},{"bike_id":"bccc769a-5b79-435e-b1fb-0d4df4701bad","system_id":"levelo_inurba_marseille","lat":43.32655,"lon":5.40992,"is_reserved":false,"is_disabled":false,"rental_uris":{"android":"levelo://app?vid=bccc769a-5b79-435e-b1fb-0d4df4701bad","ios":"levelo://app?vid=bccc769a-5b79-435e-b1fb-0d4df4701bad"},"vehicle_type_id":"4","last_reported":1747339892,"current_range_meters":9600,"station_id":"ce4bhpp2rcd13ifvqhgg","pricing_plan_id":"cebpf4jnsgd1na2vs0mg"},{"bike_id":"78eb5edf-30e7-4077-bdc9-3768d3076bab","system_id":"levelo_inurba_marseille","lat":43.25826,"lon":5.39434,"is_reserved":false,"is_disabled":false,"rental_uris":{"android":"levelo://app?vid=78eb5edf-30e7-4077-bdc9-3768d3076bab","ios":"levelo://app?vid=78eb5edf-30e7-4077-bdc9-3768d3076bab"},"vehicle_type_id":"4","last_reported":1747339892,"current_range_meters":9600,"station_id":"ce4bhip2rcd13ifvqft0","pricing_plan_id":"cebpf4jnsgd1na2vs0mg"},{"bike_id":"c97f0186-07c7-41ed-b7b3-6b6ebdc352ce","system_id":"levelo_inurba_marseille","lat":43.29098,"lon":5.38136,"is_reserved":false,"is_disabled":false,"rental_uris":{"android":"levelo://app?vid=c97f0186-07c7-41ed-b7b3-6b6ebdc352ce","ios":"levelo://app?vid=c97f0186-07c7-41ed-b7b3-6b6ebdc352ce"},"vehicle_type_id":"4","last_reported":1747339892,"current_range_meters":9600,"station_id":"ce4bh512rcd13ifvqe2g","pricing_plan_id":"cebpf4jnsgd1na2vs0mg"},{"bike_id":"f59a5dc9-fa70-4166-b2da-6492441f0daf","system_id":"levelo_inurba_marseille","lat":43.30923,"lon":5.40143,"is_reserved":false,"is_disabled":false,"rental_uris":{"android":"levelo://app?vid=f59a5dc9-fa70-4166-b2da-6492441f0daf","ios":"levelo://app?vid=f59a5dc9-fa70-4166-b2da-6492441f0daf"},"vehicle_type_id":"4","last_reported":1747339892,"current_range_meters":9600,"station_id":"ce4bgvp2rcd13ifvqct0","pricing_plan_id":"cebpf4jnsgd1na2vs0mg"},{"bike_id":"5fbcd3a8-5fba-4859-a6da-5a3b617f4707","system_id":"levelo_inurba_marseille","lat":43.24158,"lon":5.36406,"is_reserved":false,"is_disabled":false,"rental_uris":{"android":"levelo://app?vid=5fbcd3a8-5fba-4859-a6da-5a3b617f4707","ios":"levelo://app?vid=5fbcd3a8-5fba-4859-a6da-5a3b617f4707"},"vehicle_type_id":"4","last_reported":1747339892,"current_range_meters":9600,"station_id":"cpo36qri1sfpv3e86is0","pricing_plan_id":"cebpf4jnsgd1na2vs0mg"},{"bike_id":"c0cf8434-3abf-4f47-9cf4-97e4935ed394","system_id":"levelo_inurba_marseille","lat":43.25494,"lon":5.37647,"is_reserved":false,"is_disabled":false,"rental_uris":{"android":"levelo://app?vid=c0cf8434-3abf-4f47-9cf4-97e4935ed394","ios":"levelo://app?vid=c0cf8434-3abf-4f47-9cf4-97e4935ed394"},"vehicle_type_id":"4","last_reported":1747339892,"current_range_meters":9600,"station_id":"ce4bhh12rcd13ifvqff0","pricing_plan_id":"cebpf4jnsgd1na2vs0mg"},{"bike_id":"4e716133-12bd-48ef-8462-cdade112f10c","system_id":"levelo_inurba_marseille","lat":43.27145,"lon":5.39997,"is_reserved":false,"is_disabled":false,"rental_uris":{"android":"levelo://app?vid=4e716133-12bd-48ef-8462-cdade112f10c","ios":"levelo://app?vid=4e716133-12bd-48ef-8462-cdade112f10c"},"vehicle_type_id":"4","last_reported":1747339892,"current_range_meters":9600,"station_id":"","pricing_plan_id":"cebpf4jnsgd1na2vs0mg"},{"bike_id":"3bbd92f2-6806-408b-a244-9d40163b65cd","system_id":"levelo_inurba_marseille","lat":43.29409,"lon":5.38621,"is_reserved":false,"is_disabled":false,"rental_uris":{"android":"levelo://app?vid=3bbd92f2-6806-408b-a244-9d40163b65cd","ios":"levelo://app?vid=3bbd92f2-6806-408b-a244-9d40163b65cd"},"vehicle_type_id":"4","last_reported":1747339892,"current_range_meters":9600,"station_id":"ce4bh2h2rcd13ifvqdh0","pricing_plan_id":"cebpf4jnsgd1na2vs0mg"},{"bike_id":"0077f398-56b6-43bb-8eeb-9798d08de05c","system_id":"levelo_inurba_marseille","lat":43.309367,"lon":5.372797,"is_reserved":false,"is_disabled":false,"rental_uris":{"android":"levelo://app?vid=0077f398-56b6-43bb-8eeb-9798d08de05c","ios":"levelo://app?vid=0077f398-56b6-43bb-8eeb-9798d08de05c"},"vehicle_type_id":"4","last_reported":1747339892,"current_range_meters":9600,"station_id":"","pricing_plan_id":"cebpf4jnsgd1na2vs0mg"},{"bike_id":"8de6b649-a563-461e-9902-5435e71b185a","system_id":"levelo_inurba_marseille","lat":43.30582,"lon":5.39344,"is_reserved":false,"is_disabled":false,"rental_uris":{"android":"levelo://app?vid=8de6b649-a563-461e-9902-5435e71b185a","ios":"levelo://app?vid=8de6b649-a563-461e-9902-5435e71b185a"},"vehicle_type_id":"4","last_reported":1747339892,"current_range_meters":9600,"station_id":"ce4bh0p2rcd13ifvqd80","pricing_plan_id":"cebpf4jnsgd1na2vs0mg"},{"bike_id":"b131f0d5-6905-4fcb-b71c-3159b3f40acd","system_id":"levelo_inurba_marseille","lat":43.288487,"lon":5.358377,"is_reserved":false,"is_disabled":true,"rental_uris":{"android":"levelo://app?vid=b131f0d5-6905-4fcb-b71c-3159b3f40acd","ios":"levelo://app?vid=b131f0d5-6905-4fcb-b71c-3159b3f40acd"},"vehicle_type_id":"4","last_reported":1747339892,"current_range_meters":9600,"station_id":"ce4bhb12rcd13ifvqem0","pricing_plan_id":"cebpf4jnsgd1na2vs0mg"},{"bike_id":"9ddfeeff-43a1-46c2-bb2e-57596e41838f","system_id":"levelo_inurba_marseille","lat":43.323365,"lon":5.406226,"is_reserved":false,"is_disabled":false,"rental_uris":{"android":"levelo://app?vid=9ddfeeff-43a1-46c2-bb2e-57596e41838f","ios":"levelo://app?vid=9ddfeeff-43a1-46c2-bb2e-57596e41838f"},"vehicle_type_id":"4","last_reported":1747339892,"current_range_meters":10000,"station_id":"ce4bhq92rcd13ifvqhjg","pricing_plan_id":"cebpf4jnsgd1na2vs0mg"},{"bike_id":"80539fb5-0346-44e5-b7fd-cd6408b36909","system_id":"levelo_inurba_marseille","lat":43.28082,"lon":5.39665,"is_reserved":false,"is_disabled":false,"rental_uris":{"android":"levelo://app?vid=80539fb5-0346-44e5-b7fd-cd6408b36909","ios":"levelo://app?vid=80539fb5-0346-44e5-b7fd-cd6408b36909"},"vehicle_type_id":"4","last_reported":1747339892,"current_range_meters":10000,"station_id":"ce4bho12rcd13ifvqh2g","pricing_plan_id":"cebpf4jnsgd1na2vs0mg"},{"bike_id":"7589aa3c-663d-4b9a-82a9-c7c89bfde8f2","system_id":"levelo_inurba_marseille","lat":43.28405,"lon":5.37533,"is_reserved":false,"is_disabled":false,"rental_uris":{"android":"levelo://app?vid=7589aa3c-663d-4b9a-82a9-c7c89bfde8f2","ios":"levelo://app?vid=7589aa3c-663d-4b9a-82a9-c7c89bfde8f2"},"vehicle_type_id":"4","last_reported":1747339892,"current_range_meters":10000,"station_id":"ce4bh412rcd13ifvqds0","pricing_plan_id":"cebpf4jnsgd1na2vs0mg"},{"bike_id":"7f4fc273-1360-4a47-aa6f-29da663bd116","system_id":"levelo_inurba_marseille","lat":43.24892,"lon":5.39418,"is_reserved":false,"is_disabled":false,"rental_uris":{"android":"levelo://app?vid=7f4fc273-1360-4a47-aa6f-29da663bd116","ios":"levelo://app?vid=7f4fc273-1360-4a47-aa6f-29da663bd116"},"vehicle_type_id":"4","last_reported":1747339892,"current_range_meters":10000,"station_id":"","pricing_plan_id":"cebpf4jnsgd1na2vs0mg"},{"bike_id":"a20360bb-41f0-4761-af07-c268cf8ac0e0","system_id":"levelo_inurba_marseille","lat":43.30135,"lon":5.38783,"is_reserved":false,"is_disabled":false,"rental_uris":{"android":"levelo://app?vid=a20360bb-41f0-4761-af07-c268cf8ac0e0","ios":"levelo://app?vid=a20360bb-41f0-4761-af07-c268cf8ac0e0"},"vehicle_type_id":"4","last_reported":1747339892,"current_range_meters":10000,"station_id":"ce4bghh2rcd13ifvqb60","pricing_plan_id":"cebpf4jnsgd1na2vs0mg"},{"bike_id":"f8708533-c882-424d-919c-8da02599e742","system_id":"levelo_inurba_marseille","lat":43.32368,"lon":5.38882,"is_reserved":false,"is_disabled":false,"rental_uris":{"android":"levelo://app?vid=f8708533-c882-424d-919c-8da02599e742","ios":"levelo://app?vid=f8708533-c882-424d-919c-8da02599e742"},"vehicle_type_id":"4","last_reported":1747339892,"current_range_meters":10800,"station_id":"ce4bhqp2rcd13ifvqhog","pricing_plan_id":"cebpf4jnsgd1na2vs0mg"},{"bike_id":"c729e29f-0fde-49aa-8bb2-1db3b2e0227e","system_id":"levelo_inurba_marseille","lat":43.28659,"lon":5.36347,"is_reserved":false,"is_disabled":false,"rental_uris":{"android":"levelo://app?vid=c729e29f-0fde-49aa-8bb2-1db3b2e0227e","ios":"levelo://app?vid=c729e29f-0fde-49aa-8bb2-1db3b2e0227e"},"vehicle_type_id":"4","last_reported":1747339892,"current_range_meters":10000,"station_id":"ce4bhah2rcd13ifvqej0","pricing_plan_id":"cebpf4jnsgd1na2vs0mg"},{"bike_id":"69395ec3-f2c3-497b-ba6e-ea857b4662d1","system_id":"levelo_inurba_marseille","lat":43.241792,"lon":5.397303,"is_reserved":false,"is_disabled":false,"rental_uris":{"android":"levelo://app?vid=69395ec3-f2c3-497b-ba6e-ea857b4662d1","ios":"levelo://app?vid=69395ec3-f2c3-497b-ba6e-ea857b4662d1"},"vehicle_type_id":"4","last_reported":1747339892,"current_range_meters":10800,"station_id":"ce4bhn12rcd13ifvqgpg","pricing_plan_id":"cebpf4jnsgd1na2vs0mg"},{"bike_id":"004ba9d4-1164-43b7-b212-a33f62c5b053","system_id":"levelo_inurba_marseille","lat":43.262207,"lon":5.404477,"is_reserved":false,"is_disabled":false,"rental_uris":{"android":"levelo://app?vid=004ba9d4-1164-43b7-b212-a33f62c5b053","ios":"levelo://app?vid=004ba9d4-1164-43b7-b212-a33f62c5b053"},"vehicle_type_id":"4","last_reported":1747339892,"current_range_meters":10800,"station_id":"ce4bhmh2rcd13ifvqgmg","pricing_plan_id":"cebpf4jnsgd1na2vs0mg"},{"bike_id":"098492cd-7a21-4527-911a-072b6030b1a3","system_id":"levelo_inurba_marseille","lat":43.29535,"lon":5.39046,"is_reserved":false,"is_disabled":false,"rental_uris":{"android":"levelo://app?vid=098492cd-7a21-4527-911a-072b6030b1a3","ios":"levelo://app?vid=098492cd-7a21-4527-911a-072b6030b1a3"},"vehicle_type_id":"4","last_reported":1747339892,"current_range_meters":10800,"station_id":"ce4bh3p2rcd13ifvqdp0","pricing_plan_id":"cebpf4jnsgd1na2vs0mg"},{"bike_id":"cb171dae-451b-43a5-9861-9c89f0d35636","system_id":"levelo_inurba_marseille","lat":43.28688,"lon":5.38673,"is_reserved":false,"is_disabled":false,"rental_uris":{"android":"levelo://app?vid=cb171dae-451b-43a5-9861-9c89f0d35636","ios":"levelo://app?vid=cb171dae-451b-43a5-9861-9c89f0d35636"},"vehicle_type_id":"4","last_reported":1747339892,"current_range_meters":10800,"station_id":"ce4bh492rcd13ifvqdug","pricing_plan_id":"cebpf4jnsgd1na2vs0mg"},{"bike_id":"f768f02c-a770-46ed-b9fb-ed1e435a3c0f","system_id":"levelo_inurba_marseille","lat":43.3294,"lon":5.38977,"is_reserved":false,"is_disabled":false,"rental_uris":{"android":"levelo://app?vid=f768f02c-a770-46ed-b9fb-ed1e435a3c0f","ios":"levelo://app?vid=f768f02c-a770-46ed-b9fb-ed1e435a3c0f"},"vehicle_type_id":"4","last_reported":1747339892,"current_range_meters":10800,"station_id":"","pricing_plan_id":"cebpf4jnsgd1na2vs0mg"},{"bike_id":"0a2c8b94-8737-4074-8da5-a615979a85ea","system_id":"levelo_inurba_marseille","lat":43.27829,"lon":5.40709,"is_reserved":false,"is_disabled":false,"rental_uris":{"android":"levelo://app?vid=0a2c8b94-8737-4074-8da5-a615979a85ea","ios":"levelo://app?vid=0a2c8b94-8737-4074-8da5-a615979a85ea"},"vehicle_type_id":"4","last_reported":1747339892,"current_range_meters":10800,"station_id":"ce4bhnh2rcd13ifvqgtg","pricing_plan_id":"cebpf4jnsgd1na2vs0mg"},{"bike_id":"f3a72af1-1864-4f80-b643-9506010f65f6","system_id":"levelo_inurba_marseille","lat":43.28726,"lon":5.3739,"is_reserved":false,"is_disabled":false,"rental_uris":{"android":"levelo://app?vid=f3a72af1-1864-4f80-b643-9506010f65f6","ios":"levelo://app?vid=f3a72af1-1864-4f80-b643-9506010f65f6"},"vehicle_type_id":"4","last_reported":1747339892,"current_range_meters":11200,"station_id":"ce4bh3p2rcd13ifvqdq0","pricing_plan_id":"cebpf4jnsgd1na2vs0mg"},{"bike_id":"9ade074e-8e3c-447e-8c34-6ff43edc4806","system_id":"levelo_inurba_marseille","lat":43.24069,"lon":5.3776,"is_reserved":false,"is_disabled":false,"rental_uris":{"android":"levelo://app?vid=9ade074e-8e3c-447e-8c34-6ff43edc4806","ios":"levelo://app?vid=9ade074e-8e3c-447e-8c34-6ff43edc4806"},"vehicle_type_id":"4","last_reported":1747339892,"current_range_meters":10800,"station_id":"ce4bhnp2rcd13ifvqgvg","pricing_plan_id":"cebpf4jnsgd1na2vs0mg"},{"bike_id":"a4254f33-dfdc-4beb-9ee4-21271a8a3aac","system_id":"levelo_inurba_marseille","lat":43.304309,"lon":5.412803,"is_reserved":false,"is_disabled":true,"rental_uris":{"android":"levelo://app?vid=a4254f33-dfdc-4beb-9ee4-21271a8a3aac","ios":"levelo://app?vid=a4254f33-dfdc-4beb-9ee4-21271a8a3aac"},"vehicle_type_id":"4","last_reported":1747339892,"current_range_meters":10800,"station_id":"ce4bhop2rcd13ifvqh8g","pricing_plan_id":"cebpf4jnsgd1na2vs0mg"},{"bike_id":"e2e8437d-242f-4cda-8001-7a4b1ad489f2","system_id":"levelo_inurba_marseille","lat":43.27493,"lon":5.42443,"is_reserved":false,"is_disabled":false,"rental_uris":{"android":"levelo://app?vid=e2e8437d-242f-4cda-8001-7a4b1ad489f2","ios":"levelo://app?vid=e2e8437d-242f-4cda-8001-7a4b1ad489f2"},"vehicle_type_id":"4","last_reported":1747339892,"current_range_meters":10800,"station_id":"ce4bhn92rcd13ifvqgrg","pricing_plan_id":"cebpf4jnsgd1na2vs0mg"},{"bike_id":"529a0108-2678-4291-8006-180b15a258c8","system_id":"levelo_inurba_marseille","lat":43.28756,"lon":5.37931,"is_reserved":false,"is_disabled":false,"rental_uris":{"android":"levelo://app?vid=529a0108-2678-4291-8006-180b15a258c8","ios":"levelo://app?vid=529a0108-2678-4291-8006-180b15a258c8"},"vehicle_type_id":"4","last_reported":1747339892,"current_range_meters":11200,"station_id":"ce4bh9p2rcd13ifvqec0","pricing_plan_id":"cebpf4jnsgd1na2vs0mg"},{"bike_id":"15577d04-3e2b-4f99-afaa-ef9ba2ad9697","system_id":"levelo_inurba_marseille","lat":43.25828,"lon":5.39426,"is_reserved":false,"is_disabled":false,"rental_uris":{"android":"levelo://app?vid=15577d04-3e2b-4f99-afaa-ef9ba2ad9697","ios":"levelo://app?vid=15577d04-3e2b-4f99-afaa-ef9ba2ad9697"},"vehicle_type_id":"4","last_reported":1747339892,"current_range_meters":11200,"station_id":"ce4bhip2rcd13ifvqft0","pricing_plan_id":"cebpf4jnsgd1na2vs0mg"},{"bike_id":"8b697f19-ca5a-440e-8172-9fdbb69a9893","system_id":"levelo_inurba_marseille","lat":43.29611,"lon":5.37723,"is_reserved":false,"is_disabled":true,"rental_uris":{"android":"levelo://app?vid=8b697f19-ca5a-440e-8172-9fdbb69a9893","ios":"levelo://app?vid=8b697f19-ca5a-440e-8172-9fdbb69a9893"},"vehicle_type_id":"4","last_reported":1747339892,"current_range_meters":11200,"station_id":"ce4bgi92rcd13ifvqb90","pricing_plan_id":"cebpf4jnsgd1na2vs0mg"},{"bike_id":"ab4e5a85-0ffe-4a65-9b04-ab3547a82031","system_id":"levelo_inurba_marseille","lat":43.24182,"lon":5.39723,"is_reserved":false,"is_disabled":false,"rental_uris":{"android":"levelo://app?vid=ab4e5a85-0ffe-4a65-9b04-ab3547a82031","ios":"levelo://app?vid=ab4e5a85-0ffe-4a65-9b04-ab3547a82031"},"vehicle_type_id":"4","last_reported":1747339892,"current_range_meters":11600,"station_id":"ce4bhn12rcd13ifvqgpg","pricing_plan_id":"cebpf4jnsgd1na2vs0mg"},{"bike_id":"c34dee5f-4e06-4011-955b-1a275c558187","system_id":"levelo_inurba_marseille","lat":43.27289,"lon":5.41009,"is_reserved":false,"is_disabled":false,"rental_uris":{"android":"levelo://app?vid=c34dee5f-4e06-4011-955b-1a275c558187","ios":"levelo://app?vid=c34dee5f-4e06-4011-955b-1a275c558187"},"vehicle_type_id":"4","last_reported":1747339892,"current_range_meters":11600,"station_id":"","pricing_plan_id":"cebpf4jnsgd1na2vs0mg"},{"bike_id":"31bedb95-5fc4-4b24-91b1-10c9cd7506c0","system_id":"levelo_inurba_marseille","lat":43.25831,"lon":5.39428,"is_reserved":false,"is_disabled":false,"rental_uris":{"android":"levelo://app?vid=31bedb95-5fc4-4b24-91b1-10c9cd7506c0","ios":"levelo://app?vid=31bedb95-5fc4-4b24-91b1-10c9cd7506c0"},"vehicle_type_id":"4","last_reported":1747339892,"current_range_meters":11600,"station_id":"ce4bhip2rcd13ifvqft0","pricing_plan_id":"cebpf4jnsgd1na2vs0mg"},{"bike_id":"c4419c00-68e4-424f-bfa0-b827ebb985c4","system_id":"levelo_inurba_marseille","lat":43.30317,"lon":5.40447,"is_reserved":false,"is_disabled":false,"rental_uris":{"android":"levelo://app?vid=c4419c00-68e4-424f-bfa0-b827ebb985c4","ios":"levelo://app?vid=c4419c00-68e4-424f-bfa0-b827ebb985c4"},"vehicle_type_id":"4","last_reported":1747339892,"current_range_meters":11200,"station_id":"ce4bh012rcd13ifvqd10","pricing_plan_id":"cebpf4jnsgd1na2vs0mg"},{"bike_id":"de66b2a2-def5-4060-a2ad-b5c568cb6eac","system_id":"levelo_inurba_marseille","lat":43.2816,"lon":5.42658,"is_reserved":false,"is_disabled":false,"rental_uris":{"android":"levelo://app?vid=de66b2a2-def5-4060-a2ad-b5c568cb6eac","ios":"levelo://app?vid=de66b2a2-def5-4060-a2ad-b5c568cb6eac"},"vehicle_type_id":"4","last_reported":1747339892,"current_range_meters":11600,"station_id":"ce4bhnh2rcd13ifvqgug","pricing_plan_id":"cebpf4jnsgd1na2vs0mg"},{"bike_id":"a1116a07-beeb-49ca-9388-7dc7ee8720e7","system_id":"levelo_inurba_marseille","lat":43.2873,"lon":5.37935,"is_reserved":false,"is_disabled":false,"rental_uris":{"android":"levelo://app?vid=a1116a07-beeb-49ca-9388-7dc7ee8720e7","ios":"levelo://app?vid=a1116a07-beeb-49ca-9388-7dc7ee8720e7"},"vehicle_type_id":"4","last_reported":1747339892,"current_range_meters":12000,"station_id":"ce4bh9p2rcd13ifvqec0","pricing_plan_id":"cebpf4jnsgd1na2vs0mg"},{"bike_id":"32c9f05c-4c24-4b09-a31e-2f3b6881feeb","system_id":"levelo_inurba_marseille","lat":43.29551,"lon":5.37504,"is_reserved":false,"is_disabled":false,"rental_uris":{"android":"levelo://app?vid=32c9f05c-4c24-4b09-a31e-2f3b6881feeb","ios":"levelo://app?vid=32c9f05c-4c24-4b09-a31e-2f3b6881feeb"},"vehicle_type_id":"4","last_reported":1747339892,"current_range_meters":12000,"station_id":"ce4bgkp2rcd13ifvqbmg","pricing_plan_id":"cebpf4jnsgd1na2vs0mg"},{"bike_id":"aff764a5-5915-435c-9997-68831ff772a7","system_id":"levelo_inurba_marseille","lat":43.31084,"lon":5.42432,"is_reserved":false,"is_disabled":false,"rental_uris":{"android":"levelo://app?vid=aff764a5-5915-435c-9997-68831ff772a7","ios":"levelo://app?vid=aff764a5-5915-435c-9997-68831ff772a7"},"vehicle_type_id":"4","last_reported":1747339892,"current_range_meters":12000,"station_id":"ce4bhp92rcd13ifvqhag","pricing_plan_id":"cebpf4jnsgd1na2vs0mg"},{"bike_id":"92879816-cca0-4788-865d-330f1e55db16","system_id":"levelo_inurba_marseille","lat":43.29642,"lon":5.40597,"is_reserved":false,"is_disabled":false,"rental_uris":{"android":"levelo://app?vid=92879816-cca0-4788-865d-330f1e55db16","ios":"levelo://app?vid=92879816-cca0-4788-865d-330f1e55db16"},"vehicle_type_id":"4","last_reported":1747339892,"current_range_meters":12000,"station_id":"ce4bh0h2rcd13ifvqd60","pricing_plan_id":"cebpf4jnsgd1na2vs0mg"},{"bike_id":"695ee1bf-f908-43ef-b5f9-177f0297b131","system_id":"levelo_inurba_marseille","lat":43.29276,"lon":5.36833,"is_reserved":false,"is_disabled":true,"rental_uris":{"android":"levelo://app?vid=695ee1bf-f908-43ef-b5f9-177f0297b131","ios":"levelo://app?vid=695ee1bf-f908-43ef-b5f9-177f0297b131"},"vehicle_type_id":"4","last_reported":1747339892,"current_range_meters":12400,"station_id":"ce4bhbp2rcd13ifvqesg","pricing_plan_id":"cebpf4jnsgd1na2vs0mg"},{"bike_id":"7fd3af6e-475c-44e9-9eb8-83b60254d73f","system_id":"levelo_inurba_marseille","lat":43.29427,"lon":5.38622,"is_reserved":false,"is_disabled":false,"rental_uris":{"android":"levelo://app?vid=7fd3af6e-475c-44e9-9eb8-83b60254d73f","ios":"levelo://app?vid=7fd3af6e-475c-44e9-9eb8-83b60254d73f"},"vehicle_type_id":"4","last_reported":1747339892,"current_range_meters":12400,"station_id":"ce4bh2h2rcd13ifvqdh0","pricing_plan_id":"cebpf4jnsgd1na2vs0mg"},{"bike_id":"bd3e560c-5b08-4cd6-bcf6-7477897c3a0d","system_id":"levelo_inurba_marseille","lat":43.324828,"lon":5.36577,"is_reserved":false,"is_disabled":true,"rental_uris":{"android":"levelo://app?vid=bd3e560c-5b08-4cd6-bcf6-7477897c3a0d","ios":"levelo://app?vid=bd3e560c-5b08-4cd6-bcf6-7477897c3a0d"},"vehicle_type_id":"4","last_reported":1747339892,"current_range_meters":12400,"station_id":"ce4bhs12rcd13ifvqhvg","pricing_plan_id":"cebpf4jnsgd1na2vs0mg"},{"bike_id":"e64e4484-2db6-41f4-beb8-e0c0ae1263cd","system_id":"levelo_inurba_marseille","lat":43.285188,"lon":5.43043,"is_reserved":false,"is_disabled":false,"rental_uris":{"android":"levelo://app?vid=e64e4484-2db6-41f4-beb8-e0c0ae1263cd","ios":"levelo://app?vid=e64e4484-2db6-41f4-beb8-e0c0ae1263cd"},"vehicle_type_id":"4","last_reported":1747339892,"current_range_meters":12400,"station_id":"","pricing_plan_id":"cebpf4jnsgd1na2vs0mg"},{"bike_id":"030390a3-dcf6-4cf9-94a6-f5f70df6cbbd","system_id":"levelo_inurba_marseille","lat":43.30093,"lon":5.3907,"is_reserved":false,"is_disabled":false,"rental_uris":{"android":"levelo://app?vid=030390a3-dcf6-4cf9-94a6-f5f70df6cbbd","ios":"levelo://app?vid=030390a3-dcf6-4cf9-94a6-f5f70df6cbbd"},"vehicle_type_id":"4","last_reported":1747339892,"current_range_meters":12000,"station_id":"ce4bh192rcd13ifvqdb0","pricing_plan_id":"cebpf4jnsgd1na2vs0mg"},{"bike_id":"238d7f52-41a9-4d4e-836b-955a6b2dfec8","system_id":"levelo_inurba_marseille","lat":43.28153,"lon":5.42643,"is_reserved":false,"is_disabled":false,"rental_uris":{"android":"levelo://app?vid=238d7f52-41a9-4d4e-836b-955a6b2dfec8","ios":"levelo://app?vid=238d7f52-41a9-4d4e-836b-955a6b2dfec8"},"vehicle_type_id":"4","last_reported":1747339892,"current_range_meters":12400,"station_id":"ce4bhnh2rcd13ifvqgug","pricing_plan_id":"cebpf4jnsgd1na2vs0mg"},{"bike_id":"f8e4732a-2ecf-431c-8f66-abc7aabb8aa1","system_id":"levelo_inurba_marseille","lat":43.32937,"lon":5.38998,"is_reserved":false,"is_disabled":false,"rental_uris":{"android":"levelo://app?vid=f8e4732a-2ecf-431c-8f66-abc7aabb8aa1","ios":"levelo://app?vid=f8e4732a-2ecf-431c-8f66-abc7aabb8aa1"},"vehicle_type_id":"4","last_reported":1747339892,"current_range_meters":12400,"station_id":"","pricing_plan_id":"cebpf4jnsgd1na2vs0mg"},{"bike_id":"fccb336e-d2ea-48fc-b4b5-69db9f976629","system_id":"levelo_inurba_marseille","lat":43.28444,"lon":5.39204,"is_reserved":false,"is_disabled":false,"rental_uris":{"android":"levelo://app?vid=fccb336e-d2ea-48fc-b4b5-69db9f976629","ios":"levelo://app?vid=fccb336e-d2ea-48fc-b4b5-69db9f976629"},"vehicle_type_id":"4","last_reported":1747339892,"current_range_meters":12000,"station_id":"ce4bhoh2rcd13ifvqh5g","pricing_plan_id":"cebpf4jnsgd1na2vs0mg"},{"bike_id":"633fcb2a-b0f6-4e02-85b4-46be01c09780","system_id":"levelo_inurba_marseille","lat":43.3021,"lon":5.39464,"is_reserved":false,"is_disabled":false,"rental_uris":{"android":"levelo://app?vid=633fcb2a-b0f6-4e02-85b4-46be01c09780","ios":"levelo://app?vid=633fcb2a-b0f6-4e02-85b4-46be01c09780"},"vehicle_type_id":"4","last_reported":1747339892,"current_range_meters":12400,"station_id":"ce4bh0p2rcd13ifvqd70","pricing_plan_id":"cebpf4jnsgd1na2vs0mg"},{"bike_id":"86f6a583-8115-47db-928c-9eea2b5263ea","system_id":"levelo_inurba_marseille","lat":43.28174,"lon":5.42643,"is_reserved":false,"is_disabled":false,"rental_uris":{"android":"levelo://app?vid=86f6a583-8115-47db-928c-9eea2b5263ea","ios":"levelo://app?vid=86f6a583-8115-47db-928c-9eea2b5263ea"},"vehicle_type_id":"4","last_reported":1747339892,"current_range_meters":12400,"station_id":"ce4bhnh2rcd13ifvqgug","pricing_plan_id":"cebpf4jnsgd1na2vs0mg"},{"bike_id":"419fd523-3f13-4ce0-b66c-77e0fec9f9af","system_id":"levelo_inurba_marseille","lat":43.30872,"lon":5.39609,"is_reserved":false,"is_disabled":false,"rental_uris":{"android":"levelo://app?vid=419fd523-3f13-4ce0-b66c-77e0fec9f9af","ios":"levelo://app?vid=419fd523-3f13-4ce0-b66c-77e0fec9f9af"},"vehicle_type_id":"4","last_reported":1747339892,"current_range_meters":12800,"station_id":"","pricing_plan_id":"cebpf4jnsgd1na2vs0mg"},{"bike_id":"acdaf25e-d849-4b21-bc18-4d2363b6a4c1","system_id":"levelo_inurba_marseille","lat":43.30211,"lon":5.39465,"is_reserved":false,"is_disabled":false,"rental_uris":{"android":"levelo://app?vid=acdaf25e-d849-4b21-bc18-4d2363b6a4c1","ios":"levelo://app?vid=acdaf25e-d849-4b21-bc18-4d2363b6a4c1"},"vehicle_type_id":"4","last_reported":1747339892,"current_range_meters":12400,"station_id":"ce4bh0p2rcd13ifvqd70","pricing_plan_id":"cebpf4jnsgd1na2vs0mg"},{"bike_id":"027f72d8-88c3-409a-9f83-3afde0954f18","system_id":"levelo_inurba_marseille","lat":43.30275,"lon":5.39702,"is_reserved":false,"is_disabled":false,"rental_uris":{"android":"levelo://app?vid=027f72d8-88c3-409a-9f83-3afde0954f18","ios":"levelo://app?vid=027f72d8-88c3-409a-9f83-3afde0954f18"},"vehicle_type_id":"4","last_reported":1747339892,"current_range_meters":12800,"station_id":"","pricing_plan_id":"cebpf4jnsgd1na2vs0mg"},{"bike_id":"4ce9b04d-9e1b-4f40-9e45-ab2e4accb04e","system_id":"levelo_inurba_marseille","lat":43.30416,"lon":5.41284,"is_reserved":false,"is_disabled":false,"rental_uris":{"android":"levelo://app?vid=4ce9b04d-9e1b-4f40-9e45-ab2e4accb04e","ios":"levelo://app?vid=4ce9b04d-9e1b-4f40-9e45-ab2e4accb04e"},"vehicle_type_id":"4","last_reported":1747339892,"current_range_meters":12800,"station_id":"ce4bhop2rcd13ifvqh8g","pricing_plan_id":"cebpf4jnsgd1na2vs0mg"},{"bike_id":"c0b9fd4f-e181-46ce-b0bf-f5119973334f","system_id":"levelo_inurba_marseille","lat":43.33771,"lon":5.37424,"is_reserved":false,"is_disabled":false,"rental_uris":{"android":"levelo://app?vid=c0b9fd4f-e181-46ce-b0bf-f5119973334f","ios":"levelo://app?vid=c0b9fd4f-e181-46ce-b0bf-f5119973334f"},"vehicle_type_id":"4","last_reported":1747339892,"current_range_meters":12800,"station_id":"","pricing_plan_id":"cebpf4jnsgd1na2vs0mg"},{"bike_id":"98268849-4101-4ddc-91f3-89d36366e0f9","system_id":"levelo_inurba_marseille","lat":43.29031,"lon":5.38651,"is_reserved":false,"is_disabled":false,"rental_uris":{"android":"levelo://app?vid=98268849-4101-4ddc-91f3-89d36366e0f9","ios":"levelo://app?vid=98268849-4101-4ddc-91f3-89d36366e0f9"},"vehicle_type_id":"4","last_reported":1747339892,"current_range_meters":13600,"station_id":"ce4bh4p2rcd13ifvqe0g","pricing_plan_id":"cebpf4jnsgd1na2vs0mg"},{"bike_id":"376235ef-3727-4be2-a231-1a4f4a4e03dd","system_id":"levelo_inurba_marseille","lat":43.29444,"lon":5.39743,"is_reserved":false,"is_disabled":false,"rental_uris":{"android":"levelo://app?vid=376235ef-3727-4be2-a231-1a4f4a4e03dd","ios":"levelo://app?vid=376235ef-3727-4be2-a231-1a4f4a4e03dd"},"vehicle_type_id":"4","last_reported":1747339892,"current_range_meters":13600,"station_id":"ce4bh3h2rcd13ifvqdo0","pricing_plan_id":"cebpf4jnsgd1na2vs0mg"},{"bike_id":"cb30f1f3-ee29-46b2-8a86-a4733a1d23e3","system_id":"levelo_inurba_marseille","lat":43.29192,"lon":5.39324,"is_reserved":false,"is_disabled":false,"rental_uris":{"android":"levelo://app?vid=cb30f1f3-ee29-46b2-8a86-a4733a1d23e3","ios":"levelo://app?vid=cb30f1f3-ee29-46b2-8a86-a4733a1d23e3"},"vehicle_type_id":"4","last_reported":1747339892,"current_range_meters":13600,"station_id":"ce4bh192rcd13ifvqdd0","pricing_plan_id":"cebpf4jnsgd1na2vs0mg"},{"bike_id":"c84a0417-89cc-4faa-9354-122740b51444","system_id":"levelo_inurba_marseille","lat":43.28109,"lon":5.37827,"is_reserved":false,"is_disabled":false,"rental_uris":{"android":"levelo://app?vid=c84a0417-89cc-4faa-9354-122740b51444","ios":"levelo://app?vid=c84a0417-89cc-4faa-9354-122740b51444"},"vehicle_type_id":"4","last_reported":1747339892,"current_range_meters":13600,"station_id":"ce4bha12rcd13ifvqee0","pricing_plan_id":"cebpf4jnsgd1na2vs0mg"},{"bike_id":"673ceb40-f0c3-4247-848a-b5c4d83940a6","system_id":"levelo_inurba_marseille","lat":43.32657,"lon":5.40996,"is_reserved":false,"is_disabled":false,"rental_uris":{"android":"levelo://app?vid=673ceb40-f0c3-4247-848a-b5c4d83940a6","ios":"levelo://app?vid=673ceb40-f0c3-4247-848a-b5c4d83940a6"},"vehicle_type_id":"4","last_reported":1747339892,"current_range_meters":13600,"station_id":"ce4bhpp2rcd13ifvqhgg","pricing_plan_id":"cebpf4jnsgd1na2vs0mg"},{"bike_id":"fee57ca9-32ee-4370-941b-c1edf28c6665","system_id":"levelo_inurba_marseille","lat":43.25693,"lon":5.41104,"is_reserved":false,"is_disabled":true,"rental_uris":{"android":"levelo://app?vid=fee57ca9-32ee-4370-941b-c1edf28c6665","ios":"levelo://app?vid=fee57ca9-32ee-4370-941b-c1edf28c6665"},"vehicle_type_id":"4","last_reported":1747339892,"current_range_meters":13600,"station_id":"ce4bhkp2rcd13ifvqgd0","pricing_plan_id":"cebpf4jnsgd1na2vs0mg"},{"bike_id":"856cdcbd-b218-4cd4-92c0-8ff99f9a0928","system_id":"levelo_inurba_marseille","lat":43.294289,"lon":5.397551,"is_reserved":false,"is_disabled":false,"rental_uris":{"android":"levelo://app?vid=856cdcbd-b218-4cd4-92c0-8ff99f9a0928","ios":"levelo://app?vid=856cdcbd-b218-4cd4-92c0-8ff99f9a0928"},"vehicle_type_id":"4","last_reported":1747339892,"current_range_meters":13600,"station_id":"ce4bh3h2rcd13ifvqdo0","pricing_plan_id":"cebpf4jnsgd1na2vs0mg"},{"bike_id":"ceb44c13-74ae-446d-a5f8-e6370804832f","system_id":"levelo_inurba_marseille","lat":43.28935,"lon":5.36631,"is_reserved":false,"is_disabled":false,"rental_uris":{"android":"levelo://app?vid=ceb44c13-74ae-446d-a5f8-e6370804832f","ios":"levelo://app?vid=ceb44c13-74ae-446d-a5f8-e6370804832f"},"vehicle_type_id":"4","last_reported":1747339892,"current_range_meters":13600,"station_id":"ce4bhap2rcd13ifvqek0","pricing_plan_id":"cebpf4jnsgd1na2vs0mg"},{"bike_id":"a15f8fdb-454f-46a9-bc40-186f54d4cbe9","system_id":"levelo_inurba_marseille","lat":43.28355,"lon":5.38112,"is_reserved":false,"is_disabled":false,"rental_uris":{"android":"levelo://app?vid=a15f8fdb-454f-46a9-bc40-186f54d4cbe9","ios":"levelo://app?vid=a15f8fdb-454f-46a9-bc40-186f54d4cbe9"},"vehicle_type_id":"4","last_reported":1747339892,"current_range_meters":13600,"station_id":"ce4bh412rcd13ifvqdr0","pricing_plan_id":"cebpf4jnsgd1na2vs0mg"},{"bike_id":"a7817ae5-fb9f-452f-848e-14ab8973a859","system_id":"levelo_inurba_marseille","lat":43.29175,"lon":5.386,"is_reserved":false,"is_disabled":false,"rental_uris":{"android":"levelo://app?vid=a7817ae5-fb9f-452f-848e-14ab8973a859","ios":"levelo://app?vid=a7817ae5-fb9f-452f-848e-14ab8973a859"},"vehicle_type_id":"4","last_reported":1747339892,"current_range_meters":13600,"station_id":"","pricing_plan_id":"cebpf4jnsgd1na2vs0mg"},{"bike_id":"a1be56e1-1fdd-4a42-afbb-9d4097e7db3c","system_id":"levelo_inurba_marseille","lat":43.30119,"lon":5.39859,"is_reserved":false,"is_disabled":false,"rental_uris":{"android":"levelo://app?vid=a1be56e1-1fdd-4a42-afbb-9d4097e7db3c","ios":"levelo://app?vid=a1be56e1-1fdd-4a42-afbb-9d4097e7db3c"},"vehicle_type_id":"4","last_reported":1747339892,"current_range_meters":13600,"station_id":"ce4bh0h2rcd13ifvqd40","pricing_plan_id":"cebpf4jnsgd1na2vs0mg"},{"bike_id":"46a3e2c1-f297-4f25-9c99-f961a1accd8c","system_id":"levelo_inurba_marseille","lat":43.33134,"lon":5.39125,"is_reserved":false,"is_disabled":false,"rental_uris":{"android":"levelo://app?vid=46a3e2c1-f297-4f25-9c99-f961a1accd8c","ios":"levelo://app?vid=46a3e2c1-f297-4f25-9c99-f961a1accd8c"},"vehicle_type_id":"4","last_reported":1747339892,"current_range_meters":14000,"station_id":"","pricing_plan_id":"cebpf4jnsgd1na2vs0mg"},{"bike_id":"fc37f0d0-0259-4c41-9fe7-e5a050019651","system_id":"levelo_inurba_marseille","lat":43.28033,"lon":5.36941,"is_reserved":false,"is_disabled":false,"rental_uris":{"android":"levelo://app?vid=fc37f0d0-0259-4c41-9fe7-e5a050019651","ios":"levelo://app?vid=fc37f0d0-0259-4c41-9fe7-e5a050019651"},"vehicle_type_id":"4","last_reported":1747339892,"current_range_meters":14000,"station_id":"ce4bha12rcd13ifvqef0","pricing_plan_id":"cebpf4jnsgd1na2vs0mg"},{"bike_id":"9e8cabfb-a191-4362-b0b0-1ee5fd5c4362","system_id":"levelo_inurba_marseille","lat":43.30657,"lon":5.40069,"is_reserved":false,"is_disabled":false,"rental_uris":{"android":"levelo://app?vid=9e8cabfb-a191-4362-b0b0-1ee5fd5c4362","ios":"levelo://app?vid=9e8cabfb-a191-4362-b0b0-1ee5fd5c4362"},"vehicle_type_id":"4","last_reported":1747339892,"current_range_meters":14000,"station_id":"ce4bh112rcd13ifvqda0","pricing_plan_id":"cebpf4jnsgd1na2vs0mg"},{"bike_id":"e57a1ff4-7949-48aa-9160-5ea69cf8f2fd","system_id":"levelo_inurba_marseille","lat":43.31121,"lon":5.37761,"is_reserved":false,"is_disabled":false,"rental_uris":{"android":"levelo://app?vid=e57a1ff4-7949-48aa-9160-5ea69cf8f2fd","ios":"levelo://app?vid=e57a1ff4-7949-48aa-9160-5ea69cf8f2fd"},"vehicle_type_id":"4","last_reported":1747339892,"current_range_meters":14000,"station_id":"ce4bgt92rcd13ifvqcg0","pricing_plan_id":"cebpf4jnsgd1na2vs0mg"},{"bike_id":"f86bff49-f428-42a7-96af-ace44757dd4a","system_id":"levelo_inurba_marseille","lat":43.33773,"lon":5.37462,"is_reserved":false,"is_disabled":false,"rental_uris":{"android":"levelo://app?vid=f86bff49-f428-42a7-96af-ace44757dd4a","ios":"levelo://app?vid=f86bff49-f428-42a7-96af-ace44757dd4a"},"vehicle_type_id":"4","last_reported":1747339892,"current_range_meters":14000,"station_id":"","pricing_plan_id":"cebpf4jnsgd1na2vs0mg"},{"bike_id":"a47c17a4-dff5-4a09-b71d-f2a0a7a70749","system_id":"levelo_inurba_marseille","lat":43.3112,"lon":5.37755,"is_reserved":false,"is_disabled":false,"rental_uris":{"android":"levelo://app?vid=a47c17a4-dff5-4a09-b71d-f2a0a7a70749","ios":"levelo://app?vid=a47c17a4-dff5-4a09-b71d-f2a0a7a70749"},"vehicle_type_id":"4","last_reported":1747339892,"current_range_meters":14000,"station_id":"ce4bgt92rcd13ifvqcg0","pricing_plan_id":"cebpf4jnsgd1na2vs0mg"},{"bike_id":"5879f203-1394-47e0-9f75-7c405ac331f5","system_id":"levelo_inurba_marseille","lat":43.32365,"lon":5.38887,"is_reserved":false,"is_disabled":false,"rental_uris":{"android":"levelo://app?vid=5879f203-1394-47e0-9f75-7c405ac331f5","ios":"levelo://app?vid=5879f203-1394-47e0-9f75-7c405ac331f5"},"vehicle_type_id":"4","last_reported":1747339892,"current_range_meters":14000,"station_id":"ce4bhqp2rcd13ifvqhog","pricing_plan_id":"cebpf4jnsgd1na2vs0mg"},{"bike_id":"bce4ac72-5680-4a8f-bd55-ade0d192b49f","system_id":"levelo_inurba_marseille","lat":43.2844,"lon":5.39187,"is_reserved":false,"is_disabled":false,"rental_uris":{"android":"levelo://app?vid=bce4ac72-5680-4a8f-bd55-ade0d192b49f","ios":"levelo://app?vid=bce4ac72-5680-4a8f-bd55-ade0d192b49f"},"vehicle_type_id":"4","last_reported":1747339892,"current_range_meters":14400,"station_id":"ce4bhoh2rcd13ifvqh5g","pricing_plan_id":"cebpf4jnsgd1na2vs0mg"},{"bike_id":"b1da2478-2b7e-49bd-a206-b74d0c23580f","system_id":"levelo_inurba_marseille","lat":43.30602,"lon":5.37214,"is_reserved":false,"is_disabled":false,"rental_uris":{"android":"levelo://app?vid=b1da2478-2b7e-49bd-a206-b74d0c23580f","ios":"levelo://app?vid=b1da2478-2b7e-49bd-a206-b74d0c23580f"},"vehicle_type_id":"4","last_reported":1747339892,"current_range_meters":14400,"station_id":"ce4bgqh2rcd13ifvqc4g","pricing_plan_id":"cebpf4jnsgd1na2vs0mg"},{"bike_id":"9c15c27f-fcd9-46c8-8f2a-d98c46ce8a5c","system_id":"levelo_inurba_marseille","lat":43.287,"lon":5.39985,"is_reserved":false,"is_disabled":false,"rental_uris":{"android":"levelo://app?vid=9c15c27f-fcd9-46c8-8f2a-d98c46ce8a5c","ios":"levelo://app?vid=9c15c27f-fcd9-46c8-8f2a-d98c46ce8a5c"},"vehicle_type_id":"4","last_reported":1747339892,"current_range_meters":14400,"station_id":"ce4bho92rcd13ifvqh3g","pricing_plan_id":"cebpf4jnsgd1na2vs0mg"},{"bike_id":"b61f6143-1801-4b56-9795-982d60ce5554","system_id":"levelo_inurba_marseille","lat":43.30904,"lon":5.368443,"is_reserved":false,"is_disabled":false,"rental_uris":{"android":"levelo://app?vid=b61f6143-1801-4b56-9795-982d60ce5554","ios":"levelo://app?vid=b61f6143-1801-4b56-9795-982d60ce5554"},"vehicle_type_id":"4","last_reported":1747339892,"current_range_meters":14400,"station_id":"ce4bgn92rcd13ifvqbvg","pricing_plan_id":"cebpf4jnsgd1na2vs0mg"},{"bike_id":"6563e80e-21af-439b-8c71-e1baa7144b09","system_id":"levelo_inurba_marseille","lat":43.24585,"lon":5.39547,"is_reserved":false,"is_disabled":false,"rental_uris":{"android":"levelo://app?vid=6563e80e-21af-439b-8c71-e1baa7144b09","ios":"levelo://app?vid=6563e80e-21af-439b-8c71-e1baa7144b09"},"vehicle_type_id":"4","last_reported":1747339892,"current_range_meters":14400,"station_id":"ce4bhlp2rcd13ifvqgjg","pricing_plan_id":"cebpf4jnsgd1na2vs0mg"},{"bike_id":"26173702-3864-4b5e-ab78-221b845e135f","system_id":"levelo_inurba_marseille","lat":43.28702,"lon":5.39987,"is_reserved":false,"is_disabled":false,"rental_uris":{"android":"levelo://app?vid=26173702-3864-4b5e-ab78-221b845e135f","ios":"levelo://app?vid=26173702-3864-4b5e-ab78-221b845e135f"},"vehicle_type_id":"4","last_reported":1747339892,"current_range_meters":14800,"station_id":"ce4bho92rcd13ifvqh3g","pricing_plan_id":"cebpf4jnsgd1na2vs0mg"},{"bike_id":"4d2a91e0-1e71-4274-8d42-028af3d58327","system_id":"levelo_inurba_marseille","lat":43.30407,"lon":5.3891,"is_reserved":false,"is_disabled":false,"rental_uris":{"android":"levelo://app?vid=4d2a91e0-1e71-4274-8d42-028af3d58327","ios":"levelo://app?vid=4d2a91e0-1e71-4274-8d42-028af3d58327"},"vehicle_type_id":"4","last_reported":1747339892,"current_range_meters":14800,"station_id":"ce4bgk12rcd13ifvqbi0","pricing_plan_id":"cebpf4jnsgd1na2vs0mg"},{"bike_id":"8c0a604a-9eb9-4b4c-bc53-4ce1c9809f77","system_id":"levelo_inurba_marseille","lat":43.24673,"lon":5.38153,"is_reserved":false,"is_disabled":false,"rental_uris":{"android":"levelo://app?vid=8c0a604a-9eb9-4b4c-bc53-4ce1c9809f77","ios":"levelo://app?vid=8c0a604a-9eb9-4b4c-bc53-4ce1c9809f77"},"vehicle_type_id":"4","last_reported":1747339892,"current_range_meters":14800,"station_id":"ce4bhih2rcd13ifvqfr0","pricing_plan_id":"cebpf4jnsgd1na2vs0mg"},{"bike_id":"2a1881cb-b73a-4175-9777-1386cb2bfbd7","system_id":"levelo_inurba_marseille","lat":43.29032,"lon":5.39979,"is_reserved":false,"is_disabled":false,"rental_uris":{"android":"levelo://app?vid=2a1881cb-b73a-4175-9777-1386cb2bfbd7","ios":"levelo://app?vid=2a1881cb-b73a-4175-9777-1386cb2bfbd7"},"vehicle_type_id":"4","last_reported":1747339892,"current_range_meters":14400,"station_id":"ce4bh392rcd13ifvqdm0","pricing_plan_id":"cebpf4jnsgd1na2vs0mg"},{"bike_id":"a488853e-8708-42f9-a9f1-40f4dc62e03d","system_id":"levelo_inurba_marseille","lat":43.305215,"lon":5.373145,"is_reserved":false,"is_disabled":false,"rental_uris":{"android":"levelo://app?vid=a488853e-8708-42f9-a9f1-40f4dc62e03d","ios":"levelo://app?vid=a488853e-8708-42f9-a9f1-40f4dc62e03d"},"vehicle_type_id":"4","last_reported":1747339892,"current_range_meters":14800,"station_id":"","pricing_plan_id":"cebpf4jnsgd1na2vs0mg"},{"bike_id":"c1fd6ccf-6a05-4dd5-8978-7b6e9911b7d4","system_id":"levelo_inurba_marseille","lat":43.28649,"lon":5.36343,"is_reserved":false,"is_disabled":false,"rental_uris":{"android":"levelo://app?vid=c1fd6ccf-6a05-4dd5-8978-7b6e9911b7d4","ios":"levelo://app?vid=c1fd6ccf-6a05-4dd5-8978-7b6e9911b7d4"},"vehicle_type_id":"4","last_reported":1747339892,"current_range_meters":15200,"station_id":"ce4bhah2rcd13ifvqej0","pricing_plan_id":"cebpf4jnsgd1na2vs0mg"},{"bike_id":"1f40b1c8-404d-4fd1-bb32-88fb923bca3f","system_id":"levelo_inurba_marseille","lat":43.297827,"lon":5.393407,"is_reserved":false,"is_disabled":false,"rental_uris":{"android":"levelo://app?vid=1f40b1c8-404d-4fd1-bb32-88fb923bca3f","ios":"levelo://app?vid=1f40b1c8-404d-4fd1-bb32-88fb923bca3f"},"vehicle_type_id":"4","last_reported":1747339892,"current_range_meters":15200,"station_id":"chh1huq6cuj3fo74tm60","pricing_plan_id":"cebpf4jnsgd1na2vs0mg"},{"bike_id":"0616fca5-17bc-40fd-90cd-c6fb1d29640d","system_id":"levelo_inurba_marseille","lat":43.28994,"lon":5.3786,"is_reserved":false,"is_disabled":true,"rental_uris":{"android":"levelo://app?vid=0616fca5-17bc-40fd-90cd-c6fb1d29640d","ios":"levelo://app?vid=0616fca5-17bc-40fd-90cd-c6fb1d29640d"},"vehicle_type_id":"4","last_reported":1747339892,"current_range_meters":15200,"station_id":"ce4bh9p2rcd13ifvqed0","pricing_plan_id":"cebpf4jnsgd1na2vs0mg"},{"bike_id":"7ea1cd83-11e2-4fce-85da-44d52dc09b4b","system_id":"levelo_inurba_marseille","lat":43.29536,"lon":5.39029,"is_reserved":false,"is_disabled":false,"rental_uris":{"android":"levelo://app?vid=7ea1cd83-11e2-4fce-85da-44d52dc09b4b","ios":"levelo://app?vid=7ea1cd83-11e2-4fce-85da-44d52dc09b4b"},"vehicle_type_id":"4","last_reported":1747339892,"current_range_meters":14800,"station_id":"ce4bh3p2rcd13ifvqdp0","pricing_plan_id":"cebpf4jnsgd1na2vs0mg"},{"bike_id":"39c7c348-baf3-417a-8df3-30f456f5c866","system_id":"levelo_inurba_marseille","lat":43.320984,"lon":5.367798,"is_reserved":false,"is_disabled":false,"rental_uris":{"android":"levelo://app?vid=39c7c348-baf3-417a-8df3-30f456f5c866","ios":"levelo://app?vid=39c7c348-baf3-417a-8df3-30f456f5c866"},"vehicle_type_id":"4","last_reported":1747339892,"current_range_meters":15200,"station_id":"ce4bhrh2rcd13ifvqhug","pricing_plan_id":"cebpf4jnsgd1na2vs0mg"},{"bike_id":"e071b33a-f14d-4949-92f6-ac3e05cbe0ac","system_id":"levelo_inurba_marseille","lat":43.28852,"lon":5.39312,"is_reserved":false,"is_disabled":false,"rental_uris":{"android":"levelo://app?vid=e071b33a-f14d-4949-92f6-ac3e05cbe0ac","ios":"levelo://app?vid=e071b33a-f14d-4949-92f6-ac3e05cbe0ac"},"vehicle_type_id":"4","last_reported":1747339892,"current_range_meters":15200,"station_id":"ce4bh2p2rcd13ifvqdi0","pricing_plan_id":"cebpf4jnsgd1na2vs0mg"},{"bike_id":"4be9c725-6293-410a-896d-f4631154a70d","system_id":"levelo_inurba_marseille","lat":43.28447,"lon":5.392,"is_reserved":false,"is_disabled":false,"rental_uris":{"android":"levelo://app?vid=4be9c725-6293-410a-896d-f4631154a70d","ios":"levelo://app?vid=4be9c725-6293-410a-896d-f4631154a70d"},"vehicle_type_id":"4","last_reported":1747339892,"current_range_meters":15200,"station_id":"ce4bhoh2rcd13ifvqh5g","pricing_plan_id":"cebpf4jnsgd1na2vs0mg"},{"bike_id":"6d886103-344e-431a-ac80-7f62879d2f7c","system_id":"levelo_inurba_marseille","lat":43.22933,"lon":5.35368,"is_reserved":false,"is_disabled":false,"rental_uris":{"android":"levelo://app?vid=6d886103-344e-431a-ac80-7f62879d2f7c","ios":"levelo://app?vid=6d886103-344e-431a-ac80-7f62879d2f7c"},"vehicle_type_id":"4","last_reported":1747339892,"current_range_meters":16000,"station_id":"cpo3532slgdg3j2ikp40","pricing_plan_id":"cebpf4jnsgd1na2vs0mg"},{"bike_id":"97debd90-929f-4fac-82c1-32872a77ce7a","system_id":"levelo_inurba_marseille","lat":43.291819,"lon":5.393293,"is_reserved":false,"is_disabled":false,"rental_uris":{"android":"levelo://app?vid=97debd90-929f-4fac-82c1-32872a77ce7a","ios":"levelo://app?vid=97debd90-929f-4fac-82c1-32872a77ce7a"},"vehicle_type_id":"4","last_reported":1747339892,"current_range_meters":16000,"station_id":"ce4bh192rcd13ifvqdd0","pricing_plan_id":"cebpf4jnsgd1na2vs0mg"},{"bike_id":"c948c4b7-d49f-43e3-a7c8-8cd20ab828ef","system_id":"levelo_inurba_marseille","lat":43.278134,"lon":5.407181,"is_reserved":false,"is_disabled":false,"rental_uris":{"android":"levelo://app?vid=c948c4b7-d49f-43e3-a7c8-8cd20ab828ef","ios":"levelo://app?vid=c948c4b7-d49f-43e3-a7c8-8cd20ab828ef"},"vehicle_type_id":"4","last_reported":1747339892,"current_range_meters":16000,"station_id":"ce4bhnh2rcd13ifvqgtg","pricing_plan_id":"cebpf4jnsgd1na2vs0mg"},{"bike_id":"9c69e55b-3827-4551-aa71-02fc928cda04","system_id":"levelo_inurba_marseille","lat":43.323663,"lon":5.388886,"is_reserved":false,"is_disabled":false,"rental_uris":{"android":"levelo://app?vid=9c69e55b-3827-4551-aa71-02fc928cda04","ios":"levelo://app?vid=9c69e55b-3827-4551-aa71-02fc928cda04"},"vehicle_type_id":"4","last_reported":1747339892,"current_range_meters":16400,"station_id":"ce4bhqp2rcd13ifvqhog","pricing_plan_id":"cebpf4jnsgd1na2vs0mg"},{"bike_id":"0277bc90-74ce-448f-b669-21c439ba7c91","system_id":"levelo_inurba_marseille","lat":43.28667,"lon":5.3635,"is_reserved":false,"is_disabled":false,"rental_uris":{"android":"levelo://app?vid=0277bc90-74ce-448f-b669-21c439ba7c91","ios":"levelo://app?vid=0277bc90-74ce-448f-b669-21c439ba7c91"},"vehicle_type_id":"4","last_reported":1747339892,"current_range_meters":16400,"station_id":"ce4bhah2rcd13ifvqej0","pricing_plan_id":"cebpf4jnsgd1na2vs0mg"},{"bike_id":"68dc72fc-dc84-4f18-b61f-37d8cd4d7006","system_id":"levelo_inurba_marseille","lat":43.29966,"lon":5.41319,"is_reserved":false,"is_disabled":false,"rental_uris":{"android":"levelo://app?vid=68dc72fc-dc84-4f18-b61f-37d8cd4d7006","ios":"levelo://app?vid=68dc72fc-dc84-4f18-b61f-37d8cd4d7006"},"vehicle_type_id":"4","last_reported":1747339892,"current_range_meters":16400,"station_id":"ce4bhp12rcd13ifvqh9g","pricing_plan_id":"cebpf4jnsgd1na2vs0mg"},{"bike_id":"03965549-f847-4165-8711-24a33d1f0f6c","system_id":"levelo_inurba_marseille","lat":43.29536,"lon":5.38555,"is_reserved":false,"is_disabled":true,"rental_uris":{"android":"levelo://app?vid=03965549-f847-4165-8711-24a33d1f0f6c","ios":"levelo://app?vid=03965549-f847-4165-8711-24a33d1f0f6c"},"vehicle_type_id":"4","last_reported":1747339892,"current_range_meters":16400,"station_id":"ce4bgih2rcd13ifvqba0","pricing_plan_id":"cebpf4jnsgd1na2vs0mg"},{"bike_id":"5983738d-9d65-49a7-bf0b-3f551513f3c0","system_id":"levelo_inurba_marseille","lat":43.24675,"lon":5.38164,"is_reserved":false,"is_disabled":false,"rental_uris":{"android":"levelo://app?vid=5983738d-9d65-49a7-bf0b-3f551513f3c0","ios":"levelo://app?vid=5983738d-9d65-49a7-bf0b-3f551513f3c0"},"vehicle_type_id":"4","last_reported":1747339892,"current_range_meters":16400,"station_id":"ce4bhih2rcd13ifvqfr0","pricing_plan_id":"cebpf4jnsgd1na2vs0mg"},{"bike_id":"2a56cf36-d3fb-4a41-8ebc-23f0abc6d7f1","system_id":"levelo_inurba_marseille","lat":43.21198,"lon":5.3506,"is_reserved":false,"is_disabled":false,"rental_uris":{"android":"levelo://app?vid=2a56cf36-d3fb-4a41-8ebc-23f0abc6d7f1","ios":"levelo://app?vid=2a56cf36-d3fb-4a41-8ebc-23f0abc6d7f1"},"vehicle_type_id":"4","last_reported":1747339892,"current_range_meters":16400,"station_id":"st_cvj6sg6p6f1abm77japg","pricing_plan_id":"cebpf4jnsgd1na2vs0mg"},{"bike_id":"da6cac54-49c9-4dc0-8258-36d41443061e","system_id":"levelo_inurba_marseille","lat":43.28676,"lon":5.38678,"is_reserved":false,"is_disabled":false,"rental_uris":{"android":"levelo://app?vid=da6cac54-49c9-4dc0-8258-36d41443061e","ios":"levelo://app?vid=da6cac54-49c9-4dc0-8258-36d41443061e"},"vehicle_type_id":"4","last_reported":1747339892,"current_range_meters":16400,"station_id":"ce4bh492rcd13ifvqdug","pricing_plan_id":"cebpf4jnsgd1na2vs0mg"},{"bike_id":"8baa25e0-806f-433a-b4cb-6f34308848ae","system_id":"levelo_inurba_marseille","lat":43.239595,"lon":5.366369,"is_reserved":false,"is_disabled":false,"rental_uris":{"android":"levelo://app?vid=8baa25e0-806f-433a-b4cb-6f34308848ae","ios":"levelo://app?vid=8baa25e0-806f-433a-b4cb-6f34308848ae"},"vehicle_type_id":"4","last_reported":1747339892,"current_range_meters":16800,"station_id":"ce4bhi12rcd13ifvqfp0","pricing_plan_id":"cebpf4jnsgd1na2vs0mg"},{"bike_id":"0169bc23-990e-472c-97a8-5c40cdd80d48","system_id":"levelo_inurba_marseille","lat":43.2301,"lon":5.40206,"is_reserved":false,"is_disabled":false,"rental_uris":{"android":"levelo://app?vid=0169bc23-990e-472c-97a8-5c40cdd80d48","ios":"levelo://app?vid=0169bc23-990e-472c-97a8-5c40cdd80d48"},"vehicle_type_id":"4","last_reported":1747339892,"current_range_meters":16800,"station_id":"","pricing_plan_id":"cebpf4jnsgd1na2vs0mg"},{"bike_id":"a7c6adb3-f5ee-40af-b02b-616f9694def2","system_id":"levelo_inurba_marseille","lat":43.29524,"lon":5.37512,"is_reserved":false,"is_disabled":false,"rental_uris":{"android":"levelo://app?vid=a7c6adb3-f5ee-40af-b02b-616f9694def2","ios":"levelo://app?vid=a7c6adb3-f5ee-40af-b02b-616f9694def2"},"vehicle_type_id":"4","last_reported":1747339892,"current_range_meters":16800,"station_id":"ce4bgkp2rcd13ifvqbmg","pricing_plan_id":"cebpf4jnsgd1na2vs0mg"},{"bike_id":"e5f8dd14-221e-443c-95a3-da91fe7401ee","system_id":"levelo_inurba_marseille","lat":43.28949,"lon":5.36621,"is_reserved":false,"is_disabled":true,"rental_uris":{"android":"levelo://app?vid=e5f8dd14-221e-443c-95a3-da91fe7401ee","ios":"levelo://app?vid=e5f8dd14-221e-443c-95a3-da91fe7401ee"},"vehicle_type_id":"4","last_reported":1747339892,"current_range_meters":16800,"station_id":"ce4bhap2rcd13ifvqek0","pricing_plan_id":"cebpf4jnsgd1na2vs0mg"},{"bike_id":"004deaad-71d8-428c-b44b-9070f09291d4","system_id":"levelo_inurba_marseille","lat":43.31834,"lon":5.37271,"is_reserved":false,"is_disabled":false,"rental_uris":{"android":"levelo://app?vid=004deaad-71d8-428c-b44b-9070f09291d4","ios":"levelo://app?vid=004deaad-71d8-428c-b44b-9070f09291d4"},"vehicle_type_id":"4","last_reported":1747339892,"current_range_meters":16800,"station_id":"","pricing_plan_id":"cebpf4jnsgd1na2vs0mg"},{"bike_id":"225d88a7-bbb1-45c7-845f-1fd1816815a2","system_id":"levelo_inurba_marseille","lat":43.34688,"lon":5.34547,"is_reserved":false,"is_disabled":false,"rental_uris":{"android":"levelo://app?vid=225d88a7-bbb1-45c7-845f-1fd1816815a2","ios":"levelo://app?vid=225d88a7-bbb1-45c7-845f-1fd1816815a2"},"vehicle_type_id":"4","last_reported":1747339892,"current_range_meters":17200,"station_id":"","pricing_plan_id":"cebpf4jnsgd1na2vs0mg"},{"bike_id":"aea9d0e8-7bc3-4aa6-aedd-20bb91ea391a","system_id":"levelo_inurba_marseille","lat":43.26806,"lon":5.40266,"is_reserved":false,"is_disabled":false,"rental_uris":{"android":"levelo://app?vid=aea9d0e8-7bc3-4aa6-aedd-20bb91ea391a","ios":"levelo://app?vid=aea9d0e8-7bc3-4aa6-aedd-20bb91ea391a"},"vehicle_type_id":"4","last_reported":1747339892,"current_range_meters":17200,"station_id":"ce501612rcd8frsf0b60","pricing_plan_id":"cebpf4jnsgd1na2vs0mg"},{"bike_id":"96041d14-95a7-49cc-9cef-f314b4a65dab","system_id":"levelo_inurba_marseille","lat":43.30188,"lon":5.393937,"is_reserved":false,"is_disabled":false,"rental_uris":{"android":"levelo://app?vid=96041d14-95a7-49cc-9cef-f314b4a65dab","ios":"levelo://app?vid=96041d14-95a7-49cc-9cef-f314b4a65dab"},"vehicle_type_id":"4","last_reported":1747339892,"current_range_meters":17200,"station_id":"ce4bh0p2rcd13ifvqd70","pricing_plan_id":"cebpf4jnsgd1na2vs0mg"},{"bike_id":"f6b9c011-b8ac-4eb5-8d1a-972f3b5e3329","system_id":"levelo_inurba_marseille","lat":43.30926,"lon":5.40143,"is_reserved":false,"is_disabled":false,"rental_uris":{"android":"levelo://app?vid=f6b9c011-b8ac-4eb5-8d1a-972f3b5e3329","ios":"levelo://app?vid=f6b9c011-b8ac-4eb5-8d1a-972f3b5e3329"},"vehicle_type_id":"4","last_reported":1747339892,"current_range_meters":17200,"station_id":"ce4bgvp2rcd13ifvqct0","pricing_plan_id":"cebpf4jnsgd1na2vs0mg"},{"bike_id":"bed39410-53dc-405b-be84-9fc0e571ddac","system_id":"levelo_inurba_marseille","lat":43.29418,"lon":5.38645,"is_reserved":false,"is_disabled":false,"rental_uris":{"android":"levelo://app?vid=bed39410-53dc-405b-be84-9fc0e571ddac","ios":"levelo://app?vid=bed39410-53dc-405b-be84-9fc0e571ddac"},"vehicle_type_id":"4","last_reported":1747339892,"current_range_meters":17200,"station_id":"ce4bh2h2rcd13ifvqdh0","pricing_plan_id":"cebpf4jnsgd1na2vs0mg"},{"bike_id":"c3af383e-457f-4f3f-87fc-a7bc3a93c413","system_id":"levelo_inurba_marseille","lat":43.29795,"lon":5.40401,"is_reserved":false,"is_disabled":false,"rental_uris":{"android":"levelo://app?vid=c3af383e-457f-4f3f-87fc-a7bc3a93c413","ios":"levelo://app?vid=c3af383e-457f-4f3f-87fc-a7bc3a93c413"},"vehicle_type_id":"4","last_reported":1747339892,"current_range_meters":16800,"station_id":"ce4bh112rcd13ifvqd90","pricing_plan_id":"cebpf4jnsgd1na2vs0mg"},{"bike_id":"4724ece7-cc29-4891-a712-ddc57190bda5","system_id":"levelo_inurba_marseille","lat":43.29893,"lon":5.38887,"is_reserved":false,"is_disabled":false,"rental_uris":{"android":"levelo://app?vid=4724ece7-cc29-4891-a712-ddc57190bda5","ios":"levelo://app?vid=4724ece7-cc29-4891-a712-ddc57190bda5"},"vehicle_type_id":"4","last_reported":1747339892,"current_range_meters":17200,"station_id":"ce4bh392rcd13ifvqdl0","pricing_plan_id":"cebpf4jnsgd1na2vs0mg"},{"bike_id":"1594da4d-fa0b-4757-93aa-d987fd61979a","system_id":"levelo_inurba_marseille","lat":43.265533,"lon":5.372871,"is_reserved":false,"is_disabled":true,"rental_uris":{"android":"levelo://app?vid=1594da4d-fa0b-4757-93aa-d987fd61979a","ios":"levelo://app?vid=1594da4d-fa0b-4757-93aa-d987fd61979a"},"vehicle_type_id":"4","last_reported":1747339892,"current_range_meters":17200,"station_id":"ce4bhg12rcd13ifvqf70","pricing_plan_id":"cebpf4jnsgd1na2vs0mg"},{"bike_id":"c376c3e3-a6b8-4eac-b17f-3a61d2ac5cb3","system_id":"levelo_inurba_marseille","lat":43.30303,"lon":5.39206,"is_reserved":false,"is_disabled":false,"rental_uris":{"android":"levelo://app?vid=c376c3e3-a6b8-4eac-b17f-3a61d2ac5cb3","ios":"levelo://app?vid=c376c3e3-a6b8-4eac-b17f-3a61d2ac5cb3"},"vehicle_type_id":"4","last_reported":1747339892,"current_range_meters":17200,"station_id":"ce4bgkh2rcd13ifvqbk0","pricing_plan_id":"cebpf4jnsgd1na2vs0mg"},{"bike_id":"b80de7a0-16b1-4437-a5dc-bb085beb2687","system_id":"levelo_inurba_marseille","lat":43.31691,"lon":5.40467,"is_reserved":false,"is_disabled":false,"rental_uris":{"android":"levelo://app?vid=b80de7a0-16b1-4437-a5dc-bb085beb2687","ios":"levelo://app?vid=b80de7a0-16b1-4437-a5dc-bb085beb2687"},"vehicle_type_id":"4","last_reported":1747339892,"current_range_meters":17200,"station_id":"ce4bh012rcd13ifvqd00","pricing_plan_id":"cebpf4jnsgd1na2vs0mg"},{"bike_id":"0cca0c98-d708-45a9-bb77-6e06cee4ecf1","system_id":"levelo_inurba_marseille","lat":43.29013,"lon":5.38129,"is_reserved":false,"is_disabled":false,"rental_uris":{"android":"levelo://app?vid=0cca0c98-d708-45a9-bb77-6e06cee4ecf1","ios":"levelo://app?vid=0cca0c98-d708-45a9-bb77-6e06cee4ecf1"},"vehicle_type_id":"4","last_reported":1747339892,"current_range_meters":17600,"station_id":"ce4bh4p2rcd13ifvqe1g","pricing_plan_id":"cebpf4jnsgd1na2vs0mg"},{"bike_id":"1c034ea3-212c-4d7a-86f6-31c895bd347f","system_id":"levelo_inurba_marseille","lat":43.2904,"lon":5.39972,"is_reserved":false,"is_disabled":true,"rental_uris":{"android":"levelo://app?vid=1c034ea3-212c-4d7a-86f6-31c895bd347f","ios":"levelo://app?vid=1c034ea3-212c-4d7a-86f6-31c895bd347f"},"vehicle_type_id":"4","last_reported":1747339892,"current_range_meters":17600,"station_id":"ce4bh392rcd13ifvqdm0","pricing_plan_id":"cebpf4jnsgd1na2vs0mg"},{"bike_id":"a80294b1-f665-4785-bc52-f4b0cce2b4a6","system_id":"levelo_inurba_marseille","lat":43.29865,"lon":5.38908,"is_reserved":false,"is_disabled":false,"rental_uris":{"android":"levelo://app?vid=a80294b1-f665-4785-bc52-f4b0cce2b4a6","ios":"levelo://app?vid=a80294b1-f665-4785-bc52-f4b0cce2b4a6"},"vehicle_type_id":"4","last_reported":1747339892,"current_range_meters":17600,"station_id":"ce4bh392rcd13ifvqdl0","pricing_plan_id":"cebpf4jnsgd1na2vs0mg"},{"bike_id":"8a2f7038-49c9-467c-882f-44797c5792b5","system_id":"levelo_inurba_marseille","lat":43.2952,"lon":5.39048,"is_reserved":false,"is_disabled":false,"rental_uris":{"android":"levelo://app?vid=8a2f7038-49c9-467c-882f-44797c5792b5","ios":"levelo://app?vid=8a2f7038-49c9-467c-882f-44797c5792b5"},"vehicle_type_id":"4","last_reported":1747339892,"current_range_meters":17600,"station_id":"ce4bh3p2rcd13ifvqdp0","pricing_plan_id":"cebpf4jnsgd1na2vs0mg"},{"bike_id":"14c75fad-f012-41d2-b4a9-1138f8ca169b","system_id":"levelo_inurba_marseille","lat":43.30879,"lon":5.39626,"is_reserved":false,"is_disabled":false,"rental_uris":{"android":"levelo://app?vid=14c75fad-f012-41d2-b4a9-1138f8ca169b","ios":"levelo://app?vid=14c75fad-f012-41d2-b4a9-1138f8ca169b"},"vehicle_type_id":"4","last_reported":1747339892,"current_range_meters":17600,"station_id":"ce4bh012rcd13ifvqcv0","pricing_plan_id":"cebpf4jnsgd1na2vs0mg"},{"bike_id":"414cf753-9f7e-48d6-b04e-4fabc33e5ac2","system_id":"levelo_inurba_marseille","lat":43.30531,"lon":5.38438,"is_reserved":false,"is_disabled":true,"rental_uris":{"android":"levelo://app?vid=414cf753-9f7e-48d6-b04e-4fabc33e5ac2","ios":"levelo://app?vid=414cf753-9f7e-48d6-b04e-4fabc33e5ac2"},"vehicle_type_id":"4","last_reported":1747339892,"current_range_meters":17600,"station_id":"ce4bgg92rcd13ifvqb30","pricing_plan_id":"cebpf4jnsgd1na2vs0mg"},{"bike_id":"571fbcb6-71d3-4cc0-b16a-fb7036ca7f5c","system_id":"levelo_inurba_marseille","lat":43.28728,"lon":5.37937,"is_reserved":false,"is_disabled":false,"rental_uris":{"android":"levelo://app?vid=571fbcb6-71d3-4cc0-b16a-fb7036ca7f5c","ios":"levelo://app?vid=571fbcb6-71d3-4cc0-b16a-fb7036ca7f5c"},"vehicle_type_id":"4","last_reported":1747339892,"current_range_meters":17600,"station_id":"ce4bh9p2rcd13ifvqec0","pricing_plan_id":"cebpf4jnsgd1na2vs0mg"},{"bike_id":"540af681-cd16-436d-b25d-6439867dee89","system_id":"levelo_inurba_marseille","lat":43.29188,"lon":5.39352,"is_reserved":false,"is_disabled":false,"rental_uris":{"android":"levelo://app?vid=540af681-cd16-436d-b25d-6439867dee89","ios":"levelo://app?vid=540af681-cd16-436d-b25d-6439867dee89"},"vehicle_type_id":"4","last_reported":1747339892,"current_range_meters":18000,"station_id":"","pricing_plan_id":"cebpf4jnsgd1na2vs0mg"},{"bike_id":"580a9bfe-af7f-49e2-9cce-b1a97ff1f602","system_id":"levelo_inurba_marseille","lat":43.295273,"lon":5.385397,"is_reserved":false,"is_disabled":false,"rental_uris":{"android":"levelo://app?vid=580a9bfe-af7f-49e2-9cce-b1a97ff1f602","ios":"levelo://app?vid=580a9bfe-af7f-49e2-9cce-b1a97ff1f602"},"vehicle_type_id":"4","last_reported":1747339892,"current_range_meters":18000,"station_id":"ce4bgih2rcd13ifvqba0","pricing_plan_id":"cebpf4jnsgd1na2vs0mg"},{"bike_id":"fba0e339-a7fd-4db9-9d30-9a0192c5b8b7","system_id":"levelo_inurba_marseille","lat":43.31486,"lon":5.37307,"is_reserved":false,"is_disabled":false,"rental_uris":{"android":"levelo://app?vid=fba0e339-a7fd-4db9-9d30-9a0192c5b8b7","ios":"levelo://app?vid=fba0e339-a7fd-4db9-9d30-9a0192c5b8b7"},"vehicle_type_id":"4","last_reported":1747339892,"current_range_meters":17600,"station_id":"ce4bgt12rcd13ifvqcd0","pricing_plan_id":"cebpf4jnsgd1na2vs0mg"},{"bike_id":"54a1a73b-9f7a-414c-a48f-eeace73bd9b0","system_id":"levelo_inurba_marseille","lat":43.22507,"lon":5.34784,"is_reserved":false,"is_disabled":false,"rental_uris":{"android":"levelo://app?vid=54a1a73b-9f7a-414c-a48f-eeace73bd9b0","ios":"levelo://app?vid=54a1a73b-9f7a-414c-a48f-eeace73bd9b0"},"vehicle_type_id":"4","last_reported":1747339892,"current_range_meters":18000,"station_id":"st_cvj5dfep6f1abm77gieg","pricing_plan_id":"cebpf4jnsgd1na2vs0mg"},{"bike_id":"e2e0e0b9-891c-4b0b-b1bc-32ada4d431f0","system_id":"levelo_inurba_marseille","lat":43.254892,"lon":5.376472,"is_reserved":false,"is_disabled":true,"rental_uris":{"android":"levelo://app?vid=e2e0e0b9-891c-4b0b-b1bc-32ada4d431f0","ios":"levelo://app?vid=e2e0e0b9-891c-4b0b-b1bc-32ada4d431f0"},"vehicle_type_id":"4","last_reported":1747339892,"current_range_meters":18000,"station_id":"ce4bhh12rcd13ifvqff0","pricing_plan_id":"cebpf4jnsgd1na2vs0mg"},{"bike_id":"54c80718-1468-47f9-9877-bc44f5940722","system_id":"levelo_inurba_marseille","lat":43.21201,"lon":5.35079,"is_reserved":false,"is_disabled":false,"rental_uris":{"android":"levelo://app?vid=54c80718-1468-47f9-9877-bc44f5940722","ios":"levelo://app?vid=54c80718-1468-47f9-9877-bc44f5940722"},"vehicle_type_id":"4","last_reported":1747339892,"current_range_meters":18000,"station_id":"st_cvj6sg6p6f1abm77japg","pricing_plan_id":"cebpf4jnsgd1na2vs0mg"},{"bike_id":"aa53c5b9-c9b8-4906-989e-6e49a1f5abe6","system_id":"levelo_inurba_marseille","lat":43.22967,"lon":5.35372,"is_reserved":false,"is_disabled":false,"rental_uris":{"android":"levelo://app?vid=aa53c5b9-c9b8-4906-989e-6e49a1f5abe6","ios":"levelo://app?vid=aa53c5b9-c9b8-4906-989e-6e49a1f5abe6"},"vehicle_type_id":"4","last_reported":1747339892,"current_range_meters":18000,"station_id":"cpo3532slgdg3j2ikp40","pricing_plan_id":"cebpf4jnsgd1na2vs0mg"},{"bike_id":"a8ecf3d5-238a-4967-b2fa-2c49a0fe2293","system_id":"levelo_inurba_marseille","lat":43.3019,"lon":5.36624,"is_reserved":false,"is_disabled":false,"rental_uris":{"android":"levelo://app?vid=a8ecf3d5-238a-4967-b2fa-2c49a0fe2293","ios":"levelo://app?vid=a8ecf3d5-238a-4967-b2fa-2c49a0fe2293"},"vehicle_type_id":"4","last_reported":1747339892,"current_range_meters":18000,"station_id":"ce4bgrh2rcd13ifvqc8g","pricing_plan_id":"cebpf4jnsgd1na2vs0mg"},{"bike_id":"5d28272a-6434-4036-8b97-27bfdfa65c1a","system_id":"levelo_inurba_marseille","lat":43.28673,"lon":5.38668,"is_reserved":false,"is_disabled":false,"rental_uris":{"android":"levelo://app?vid=5d28272a-6434-4036-8b97-27bfdfa65c1a","ios":"levelo://app?vid=5d28272a-6434-4036-8b97-27bfdfa65c1a"},"vehicle_type_id":"4","last_reported":1747339892,"current_range_meters":18000,"station_id":"ce4bh492rcd13ifvqdug","pricing_plan_id":"cebpf4jnsgd1na2vs0mg"},{"bike_id":"6f36ba33-c3ea-48f5-92e5-e808f4f35495","system_id":"levelo_inurba_marseille","lat":43.28453,"lon":5.35874,"is_reserved":false,"is_disabled":false,"rental_uris":{"android":"levelo://app?vid=6f36ba33-c3ea-48f5-92e5-e808f4f35495","ios":"levelo://app?vid=6f36ba33-c3ea-48f5-92e5-e808f4f35495"},"vehicle_type_id":"4","last_reported":1747339892,"current_range_meters":18000,"station_id":"ce4bhah2rcd13ifvqei0","pricing_plan_id":"cebpf4jnsgd1na2vs0mg"},{"bike_id":"964a307b-da46-48fe-85c6-fcdcd13bb10c","system_id":"levelo_inurba_marseille","lat":43.24546,"lon":5.39534,"is_reserved":false,"is_disabled":false,"rental_uris":{"android":"levelo://app?vid=964a307b-da46-48fe-85c6-fcdcd13bb10c","ios":"levelo://app?vid=964a307b-da46-48fe-85c6-fcdcd13bb10c"},"vehicle_type_id":"4","last_reported":1747339892,"current_range_meters":18000,"station_id":"ce4bhlp2rcd13ifvqgjg","pricing_plan_id":"cebpf4jnsgd1na2vs0mg"},{"bike_id":"6dbb2691-6afd-44a6-adc8-96cdcc1e512d","system_id":"levelo_inurba_marseille","lat":43.22973,"lon":5.35376,"is_reserved":false,"is_disabled":false,"rental_uris":{"android":"levelo://app?vid=6dbb2691-6afd-44a6-adc8-96cdcc1e512d","ios":"levelo://app?vid=6dbb2691-6afd-44a6-adc8-96cdcc1e512d"},"vehicle_type_id":"4","last_reported":1747339892,"current_range_meters":18000,"station_id":"cpo3532slgdg3j2ikp40","pricing_plan_id":"cebpf4jnsgd1na2vs0mg"},{"bike_id":"cbf0f435-cd84-49d9-a6e7-e2ce025bb7cc","system_id":"levelo_inurba_marseille","lat":43.25092,"lon":5.40328,"is_reserved":false,"is_disabled":true,"rental_uris":{"android":"levelo://app?vid=cbf0f435-cd84-49d9-a6e7-e2ce025bb7cc","ios":"levelo://app?vid=cbf0f435-cd84-49d9-a6e7-e2ce025bb7cc"},"vehicle_type_id":"4","last_reported":1747339892,"current_range_meters":18000,"station_id":"ce4bhlh2rcd13ifvqgig","pricing_plan_id":"cebpf4jnsgd1na2vs0mg"},{"bike_id":"384b8789-33d5-4c25-a055-f51e5139cca5","system_id":"levelo_inurba_marseille","lat":43.28666,"lon":5.36363,"is_reserved":false,"is_disabled":false,"rental_uris":{"android":"levelo://app?vid=384b8789-33d5-4c25-a055-f51e5139cca5","ios":"levelo://app?vid=384b8789-33d5-4c25-a055-f51e5139cca5"},"vehicle_type_id":"4","last_reported":1747339892,"current_range_meters":18000,"station_id":"ce4bhah2rcd13ifvqej0","pricing_plan_id":"cebpf4jnsgd1na2vs0mg"},{"bike_id":"d8066db6-b918-4d28-a3d2-50fa41fe6f1f","system_id":"levelo_inurba_marseille","lat":43.29977,"lon":5.385,"is_reserved":false,"is_disabled":false,"rental_uris":{"android":"levelo://app?vid=d8066db6-b918-4d28-a3d2-50fa41fe6f1f","ios":"levelo://app?vid=d8066db6-b918-4d28-a3d2-50fa41fe6f1f"},"vehicle_type_id":"4","last_reported":1747339892,"current_range_meters":18800,"station_id":"ce4bgj92rcd13ifvqbd0","pricing_plan_id":"cebpf4jnsgd1na2vs0mg"},{"bike_id":"71f4fce9-5b52-4642-a497-9e9b28984afe","system_id":"levelo_inurba_marseille","lat":43.31721,"lon":5.4043,"is_reserved":false,"is_disabled":false,"rental_uris":{"android":"levelo://app?vid=71f4fce9-5b52-4642-a497-9e9b28984afe","ios":"levelo://app?vid=71f4fce9-5b52-4642-a497-9e9b28984afe"},"vehicle_type_id":"4","last_reported":1747339892,"current_range_meters":18800,"station_id":"","pricing_plan_id":"cebpf4jnsgd1na2vs0mg"},{"bike_id":"f6205ad3-e68f-4455-a06e-4a30dd56d15c","system_id":"levelo_inurba_marseille","lat":43.31356,"lon":5.38501,"is_reserved":false,"is_disabled":true,"rental_uris":{"android":"levelo://app?vid=f6205ad3-e68f-4455-a06e-4a30dd56d15c","ios":"levelo://app?vid=f6205ad3-e68f-4455-a06e-4a30dd56d15c"},"vehicle_type_id":"4","last_reported":1747339892,"current_range_meters":18800,"station_id":"ce4bgt92rcd13ifvqcf0","pricing_plan_id":"cebpf4jnsgd1na2vs0mg"},{"bike_id":"5bf777c9-e29c-4707-862b-c20447962b1e","system_id":"levelo_inurba_marseille","lat":43.251113,"lon":5.403408,"is_reserved":false,"is_disabled":false,"rental_uris":{"android":"levelo://app?vid=5bf777c9-e29c-4707-862b-c20447962b1e","ios":"levelo://app?vid=5bf777c9-e29c-4707-862b-c20447962b1e"},"vehicle_type_id":"4","last_reported":1747339892,"current_range_meters":18800,"station_id":"ce4bhlh2rcd13ifvqgig","pricing_plan_id":"cebpf4jnsgd1na2vs0mg"},{"bike_id":"baed106c-04b2-46a8-9282-2dee5ae067da","system_id":"levelo_inurba_marseille","lat":43.30141,"lon":5.38769,"is_reserved":false,"is_disabled":false,"rental_uris":{"android":"levelo://app?vid=baed106c-04b2-46a8-9282-2dee5ae067da","ios":"levelo://app?vid=baed106c-04b2-46a8-9282-2dee5ae067da"},"vehicle_type_id":"4","last_reported":1747339892,"current_range_meters":18800,"station_id":"ce4bghh2rcd13ifvqb60","pricing_plan_id":"cebpf4jnsgd1na2vs0mg"},{"bike_id":"fc920231-66cf-4068-9492-8303be90a017","system_id":"levelo_inurba_marseille","lat":43.30428,"lon":5.38893,"is_reserved":false,"is_disabled":false,"rental_uris":{"android":"levelo://app?vid=fc920231-66cf-4068-9492-8303be90a017","ios":"levelo://app?vid=fc920231-66cf-4068-9492-8303be90a017"},"vehicle_type_id":"4","last_reported":1747339892,"current_range_meters":18800,"station_id":"ce4bgk12rcd13ifvqbi0","pricing_plan_id":"cebpf4jnsgd1na2vs0mg"},{"bike_id":"e9196693-11af-4711-8fcd-cb5b9fff8840","system_id":"levelo_inurba_marseille","lat":43.29966,"lon":5.38498,"is_reserved":false,"is_disabled":false,"rental_uris":{"android":"levelo://app?vid=e9196693-11af-4711-8fcd-cb5b9fff8840","ios":"levelo://app?vid=e9196693-11af-4711-8fcd-cb5b9fff8840"},"vehicle_type_id":"4","last_reported":1747339892,"current_range_meters":18800,"station_id":"ce4bgj92rcd13ifvqbd0","pricing_plan_id":"cebpf4jnsgd1na2vs0mg"},{"bike_id":"1fa4bedb-71ba-4dfe-9b81-ab3a825a7aae","system_id":"levelo_inurba_marseille","lat":43.30382,"lon":5.4247,"is_reserved":false,"is_disabled":false,"rental_uris":{"android":"levelo://app?vid=1fa4bedb-71ba-4dfe-9b81-ab3a825a7aae","ios":"levelo://app?vid=1fa4bedb-71ba-4dfe-9b81-ab3a825a7aae"},