{"last_updated":1745604815,"ttl":60,"version":"2.2","data":{"bikes":[{"bike_id":"17212859-5048-489d-8287-c4d9619e0597","system_id":"levelo_inurba_marseille","lat":43.21187,"lon":5.35069,"is_reserved":false,"is_disabled":false,"rental_uris":{"android":"levelo://app?vid=17212859-5048-489d-8287-c4d9619e0597","ios":"levelo://app?vid=17212859-5048-489d-8287-c4d9619e0597"},"vehicle_type_id":"4","last_reported":1745604816,"current_range_meters":2800,"station_id":"st_cvj6sg6p6f1abm77japg","pricing_plan_id":"cebpf4jnsgd1na2vs0mg"},{"bike_id":"fdff0f0f-51c6-4b39-8f10-7742b05f45fe","system_id":"levelo_inurba_marseille","lat":43.30956,"lon":5.39057,"is_reserved":false,"is_disabled":false,"rental_uris":{"android":"levelo://app?vid=fdff0f0f-51c6-4b39-8f10-7742b05f45fe","ios":"levelo://app?vid=fdff0f0f-51c6-4b39-8f10-7742b05f45fe"},"vehicle_type_id":"4","last_reported":1745604816,"current_range_meters":2800,"station_id":"ce4bgup2rcd13ifvqco0","pricing_plan_id":"cebpf4jnsgd1na2vs0mg"},{"bike_id":"6614feff-2576-4a65-8591-5472f976a3f6","system_id":"levelo_inurba_marseille","lat":43.28265,"lon":5.35062,"is_reserved":false,"is_disabled":false,"rental_uris":{"android":"levelo://app?vid=6614feff-2576-4a65-8591-5472f976a3f6","ios":"levelo://app?vid=6614feff-2576-4a65-8591-5472f976a3f6"},"vehicle_type_id":"4","last_reported":1745604816,"current_range_meters":2800,"station_id":"ce4bhbp2rcd13ifvqerg","pricing_plan_id":"cebpf4jnsgd1na2vs0mg"},{"bike_id":"477e291c-9d0b-481e-aa8b-e6afd7844aaa","system_id":"levelo_inurba_marseille","lat":43.292547,"lon":5.384473,"is_reserved":false,"is_disabled":false,"rental_uris":{"android":"levelo://app?vid=477e291c-9d0b-481e-aa8b-e6afd7844aaa","ios":"levelo://app?vid=477e291c-9d0b-481e-aa8b-e6afd7844aaa"},"vehicle_type_id":"4","last_reported":1745604816,"current_range_meters":2800,"station_id":"ce4bh692rcd13ifvqea0","pricing_plan_id":"cebpf4jnsgd1na2vs0mg"},{"bike_id":"bc60317e-fcad-4698-b493-fc257922c3dd","system_id":"levelo_inurba_marseille","lat":43.29509,"lon":5.39396,"is_reserved":false,"is_disabled":false,"rental_uris":{"android":"levelo://app?vid=bc60317e-fcad-4698-b493-fc257922c3dd","ios":"levelo://app?vid=bc60317e-fcad-4698-b493-fc257922c3dd"},"vehicle_type_id":"4","last_reported":1745604816,"current_range_meters":2800,"station_id":"ce4bh292rcd13ifvqdf0","pricing_plan_id":"cebpf4jnsgd1na2vs0mg"},{"bike_id":"b523e0d8-e562-4ca4-bc3b-09b5eb935be8","system_id":"levelo_inurba_marseille","lat":43.31712,"lon":5.43701,"is_reserved":false,"is_disabled":false,"rental_uris":{"android":"levelo://app?vid=b523e0d8-e562-4ca4-bc3b-09b5eb935be8","ios":"levelo://app?vid=b523e0d8-e562-4ca4-bc3b-09b5eb935be8"},"vehicle_type_id":"4","last_reported":1745604816,"current_range_meters":2800,"station_id":"ce4bhp92rcd13ifvqhcg","pricing_plan_id":"cebpf4jnsgd1na2vs0mg"},{"bike_id":"9c342d69-09da-4f54-beaf-e7d42cd40b02","system_id":"levelo_inurba_marseille","lat":43.27951,"lon":5.37902,"is_reserved":false,"is_disabled":false,"rental_uris":{"android":"levelo://app?vid=9c342d69-09da-4f54-beaf-e7d42cd40b02","ios":"levelo://app?vid=9c342d69-09da-4f54-beaf-e7d42cd40b02"},"vehicle_type_id":"4","last_reported":1745604816,"current_range_meters":2800,"station_id":"","pricing_plan_id":"cebpf4jnsgd1na2vs0mg"},{"bike_id":"04de76c4-a1ad-45bf-9e28-7c78bfcbb5c0","system_id":"levelo_inurba_marseille","lat":43.25195,"lon":5.37411,"is_reserved":false,"is_disabled":false,"rental_uris":{"android":"levelo://app?vid=04de76c4-a1ad-45bf-9e28-7c78bfcbb5c0","ios":"levelo://app?vid=04de76c4-a1ad-45bf-9e28-7c78bfcbb5c0"},"vehicle_type_id":"4","last_reported":1745604816,"current_range_meters":2800,"station_id":"","pricing_plan_id":"cebpf4jnsgd1na2vs0mg"},{"bike_id":"8244a416-4bf4-4b8d-a650-a77661d0576a","system_id":"levelo_inurba_marseille","lat":43.2953,"lon":5.37501,"is_reserved":false,"is_disabled":false,"rental_uris":{"android":"levelo://app?vid=8244a416-4bf4-4b8d-a650-a77661d0576a","ios":"levelo://app?vid=8244a416-4bf4-4b8d-a650-a77661d0576a"},"vehicle_type_id":"4","last_reported":1745604816,"current_range_meters":2000,"station_id":"ce4bgkp2rcd13ifvqbmg","pricing_plan_id":"cebpf4jnsgd1na2vs0mg"},{"bike_id":"4abd78a1-ae5b-4df8-9c08-37320fef4d39","system_id":"levelo_inurba_marseille","lat":43.27384,"lon":5.36268,"is_reserved":false,"is_disabled":true,"rental_uris":{"android":"levelo://app?vid=4abd78a1-ae5b-4df8-9c08-37320fef4d39","ios":"levelo://app?vid=4abd78a1-ae5b-4df8-9c08-37320fef4d39"},"vehicle_type_id":"4","last_reported":1745604816,"current_range_meters":2800,"station_id":"ce4bhbh2rcd13ifvqeo0","pricing_plan_id":"cebpf4jnsgd1na2vs0mg"},{"bike_id":"6e3abe62-c4e5-42e2-84f5-24f00292925b","system_id":"levelo_inurba_marseille","lat":43.22956,"lon":5.35417,"is_reserved":false,"is_disabled":false,"rental_uris":{"android":"levelo://app?vid=6e3abe62-c4e5-42e2-84f5-24f00292925b","ios":"levelo://app?vid=6e3abe62-c4e5-42e2-84f5-24f00292925b"},"vehicle_type_id":"4","last_reported":1745604816,"current_range_meters":3200,"station_id":"cpo3532slgdg3j2ikp40","pricing_plan_id":"cebpf4jnsgd1na2vs0mg"},{"bike_id":"fd265570-119b-4158-9264-8701f39090e6","system_id":"levelo_inurba_marseille","lat":43.29068,"lon":5.37144,"is_reserved":false,"is_disabled":true,"rental_uris":{"android":"levelo://app?vid=fd265570-119b-4158-9264-8701f39090e6","ios":"levelo://app?vid=fd265570-119b-4158-9264-8701f39090e6"},"vehicle_type_id":"4","last_reported":1745604816,"current_range_meters":3200,"station_id":"ce4bh5p2rcd13ifvqe4g","pricing_plan_id":"cebpf4jnsgd1na2vs0mg"},{"bike_id":"7bc9e0f0-1858-48cc-bec0-f8a244c96ec7","system_id":"levelo_inurba_marseille","lat":43.27495,"lon":5.42452,"is_reserved":false,"is_disabled":true,"rental_uris":{"android":"levelo://app?vid=7bc9e0f0-1858-48cc-bec0-f8a244c96ec7","ios":"levelo://app?vid=7bc9e0f0-1858-48cc-bec0-f8a244c96ec7"},"vehicle_type_id":"4","last_reported":1745604816,"current_range_meters":3200,"station_id":"ce4bhn92rcd13ifvqgrg","pricing_plan_id":"cebpf4jnsgd1na2vs0mg"},{"bike_id":"db2c16aa-7c8e-4694-813a-d0227cd09b78","system_id":"levelo_inurba_marseille","lat":43.31482,"lon":5.37298,"is_reserved":false,"is_disabled":false,"rental_uris":{"android":"levelo://app?vid=db2c16aa-7c8e-4694-813a-d0227cd09b78","ios":"levelo://app?vid=db2c16aa-7c8e-4694-813a-d0227cd09b78"},"vehicle_type_id":"4","last_reported":1745604816,"current_range_meters":3200,"station_id":"ce4bgt12rcd13ifvqcd0","pricing_plan_id":"cebpf4jnsgd1na2vs0mg"},{"bike_id":"8a09d892-fede-4f7e-8964-b5a05ebc376b","system_id":"levelo_inurba_marseille","lat":43.304183,"lon":5.412341,"is_reserved":false,"is_disabled":false,"rental_uris":{"android":"levelo://app?vid=8a09d892-fede-4f7e-8964-b5a05ebc376b","ios":"levelo://app?vid=8a09d892-fede-4f7e-8964-b5a05ebc376b"},"vehicle_type_id":"4","last_reported":1745604816,"current_range_meters":3200,"station_id":"chh1huq6cuj3fo74tm60","pricing_plan_id":"cebpf4jnsgd1na2vs0mg"},{"bike_id":"3a53585a-db59-4ab5-9070-c957bee55f5a","system_id":"levelo_inurba_marseille","lat":43.29972,"lon":5.38498,"is_reserved":false,"is_disabled":false,"rental_uris":{"android":"levelo://app?vid=3a53585a-db59-4ab5-9070-c957bee55f5a","ios":"levelo://app?vid=3a53585a-db59-4ab5-9070-c957bee55f5a"},"vehicle_type_id":"4","last_reported":1745604816,"current_range_meters":3200,"station_id":"ce4bgj92rcd13ifvqbd0","pricing_plan_id":"cebpf4jnsgd1na2vs0mg"},{"bike_id":"a00d3553-eb82-45d7-82ec-3cf0ef926517","system_id":"levelo_inurba_marseille","lat":43.262115,"lon":5.374385,"is_reserved":false,"is_disabled":false,"rental_uris":{"android":"levelo://app?vid=a00d3553-eb82-45d7-82ec-3cf0ef926517","ios":"levelo://app?vid=a00d3553-eb82-45d7-82ec-3cf0ef926517"},"vehicle_type_id":"4","last_reported":1745604816,"current_range_meters":3200,"station_id":"ce4bhgp2rcd13ifvqfc0","pricing_plan_id":"cebpf4jnsgd1na2vs0mg"},{"bike_id":"9acb7981-732d-400e-8df1-3edf730c9c00","system_id":"levelo_inurba_marseille","lat":43.23966,"lon":5.36631,"is_reserved":false,"is_disabled":false,"rental_uris":{"android":"levelo://app?vid=9acb7981-732d-400e-8df1-3edf730c9c00","ios":"levelo://app?vid=9acb7981-732d-400e-8df1-3edf730c9c00"},"vehicle_type_id":"4","last_reported":1745604816,"current_range_meters":3200,"station_id":"ce4bhi12rcd13ifvqfp0","pricing_plan_id":"cebpf4jnsgd1na2vs0mg"},{"bike_id":"15f27549-0654-4699-849a-c375a66b31c0","system_id":"levelo_inurba_marseille","lat":43.286837,"lon":5.370774,"is_reserved":false,"is_disabled":false,"rental_uris":{"android":"levelo://app?vid=15f27549-0654-4699-849a-c375a66b31c0","ios":"levelo://app?vid=15f27549-0654-4699-849a-c375a66b31c0"},"vehicle_type_id":"4","last_reported":1745604816,"current_range_meters":3200,"station_id":"ce4bht12rcd13ifvqi60","pricing_plan_id":"cebpf4jnsgd1na2vs0mg"},{"bike_id":"0cc7bc63-fea1-4e9c-84eb-b9395058ecb9","system_id":"levelo_inurba_marseille","lat":43.27372,"lon":5.36262,"is_reserved":false,"is_disabled":false,"rental_uris":{"android":"levelo://app?vid=0cc7bc63-fea1-4e9c-84eb-b9395058ecb9","ios":"levelo://app?vid=0cc7bc63-fea1-4e9c-84eb-b9395058ecb9"},"vehicle_type_id":"4","last_reported":1745604816,"current_range_meters":3200,"station_id":"ce4bhbh2rcd13ifvqeo0","pricing_plan_id":"cebpf4jnsgd1na2vs0mg"},{"bike_id":"83cf408d-bd48-48dc-ac06-024e0418cc58","system_id":"levelo_inurba_marseille","lat":43.29318,"lon":5.37449,"is_reserved":false,"is_disabled":true,"rental_uris":{"android":"levelo://app?vid=83cf408d-bd48-48dc-ac06-024e0418cc58","ios":"levelo://app?vid=83cf408d-bd48-48dc-ac06-024e0418cc58"},"vehicle_type_id":"4","last_reported":1745604816,"current_range_meters":3600,"station_id":"ce4bgi12rcd13ifvqb70","pricing_plan_id":"cebpf4jnsgd1na2vs0mg"},{"bike_id":"47c415eb-9c02-4094-bc4c-e5bc6add6cc6","system_id":"levelo_inurba_marseille","lat":43.2118,"lon":5.35076,"is_reserved":false,"is_disabled":false,"rental_uris":{"android":"levelo://app?vid=47c415eb-9c02-4094-bc4c-e5bc6add6cc6","ios":"levelo://app?vid=47c415eb-9c02-4094-bc4c-e5bc6add6cc6"},"vehicle_type_id":"4","last_reported":1745604816,"current_range_meters":3600,"station_id":"st_cvj6sg6p6f1abm77japg","pricing_plan_id":"cebpf4jnsgd1na2vs0mg"},{"bike_id":"0da19e12-967a-4f49-8df8-6146e4e54cfe","system_id":"levelo_inurba_marseille","lat":43.23194,"lon":5.35571,"is_reserved":false,"is_disabled":false,"rental_uris":{"android":"levelo://app?vid=0da19e12-967a-4f49-8df8-6146e4e54cfe","ios":"levelo://app?vid=0da19e12-967a-4f49-8df8-6146e4e54cfe"},"vehicle_type_id":"4","last_reported":1745604816,"current_range_meters":3600,"station_id":"ce4bhu92rcd13ifvqi70","pricing_plan_id":"cebpf4jnsgd1na2vs0mg"},{"bike_id":"5886184e-09da-44a7-86b1-f23098d30075","system_id":"levelo_inurba_marseille","lat":43.28403,"lon":5.37541,"is_reserved":false,"is_disabled":false,"rental_uris":{"android":"levelo://app?vid=5886184e-09da-44a7-86b1-f23098d30075","ios":"levelo://app?vid=5886184e-09da-44a7-86b1-f23098d30075"},"vehicle_type_id":"4","last_reported":1745604816,"current_range_meters":3600,"station_id":"ce4bh412rcd13ifvqds0","pricing_plan_id":"cebpf4jnsgd1na2vs0mg"},{"bike_id":"fe68ddd7-fbe4-41f9-962d-265f3ddf99e6","system_id":"levelo_inurba_marseille","lat":43.31756,"lon":5.39012,"is_reserved":false,"is_disabled":false,"rental_uris":{"android":"levelo://app?vid=fe68ddd7-fbe4-41f9-962d-265f3ddf99e6","ios":"levelo://app?vid=fe68ddd7-fbe4-41f9-962d-265f3ddf99e6"},"vehicle_type_id":"4","last_reported":1745604816,"current_range_meters":4000,"station_id":"ce4bhqp2rcd13ifvqhng","pricing_plan_id":"cebpf4jnsgd1na2vs0mg"},{"bike_id":"a7b74c5c-69bc-481e-9583-cb07d0d36d7f","system_id":"levelo_inurba_marseille","lat":43.255074,"lon":5.376504,"is_reserved":false,"is_disabled":false,"rental_uris":{"android":"levelo://app?vid=a7b74c5c-69bc-481e-9583-cb07d0d36d7f","ios":"levelo://app?vid=a7b74c5c-69bc-481e-9583-cb07d0d36d7f"},"vehicle_type_id":"4","last_reported":1745604816,"current_range_meters":4000,"station_id":"ce4bhh12rcd13ifvqff0","pricing_plan_id":"cebpf4jnsgd1na2vs0mg"},{"bike_id":"0665421a-052d-4840-9df9-d527b568d595","system_id":"levelo_inurba_marseille","lat":43.32412,"lon":5.39086,"is_reserved":false,"is_disabled":false,"rental_uris":{"android":"levelo://app?vid=0665421a-052d-4840-9df9-d527b568d595","ios":"levelo://app?vid=0665421a-052d-4840-9df9-d527b568d595"},"vehicle_type_id":"4","last_reported":1745604816,"current_range_meters":4000,"station_id":"","pricing_plan_id":"cebpf4jnsgd1na2vs0mg"},{"bike_id":"f546f1c9-a494-4c2c-b1f6-c2b8b5801bdb","system_id":"levelo_inurba_marseille","lat":43.29422,"lon":5.38619,"is_reserved":false,"is_disabled":false,"rental_uris":{"android":"levelo://app?vid=f546f1c9-a494-4c2c-b1f6-c2b8b5801bdb","ios":"levelo://app?vid=f546f1c9-a494-4c2c-b1f6-c2b8b5801bdb"},"vehicle_type_id":"4","last_reported":1745604816,"current_range_meters":4000,"station_id":"ce4bh2h2rcd13ifvqdh0","pricing_plan_id":"cebpf4jnsgd1na2vs0mg"},{"bike_id":"a981b7e1-a44a-40fc-875d-64e765d85b16","system_id":"levelo_inurba_marseille","lat":43.31751,"lon":5.39014,"is_reserved":false,"is_disabled":false,"rental_uris":{"android":"levelo://app?vid=a981b7e1-a44a-40fc-875d-64e765d85b16","ios":"levelo://app?vid=a981b7e1-a44a-40fc-875d-64e765d85b16"},"vehicle_type_id":"4","last_reported":1745604816,"current_range_meters":4000,"station_id":"ce4bhqp2rcd13ifvqhng","pricing_plan_id":"cebpf4jnsgd1na2vs0mg"},{"bike_id":"f9f869ce-8e68-4508-9020-498a2158d817","system_id":"levelo_inurba_marseille","lat":43.29098,"lon":5.38127,"is_reserved":false,"is_disabled":false,"rental_uris":{"android":"levelo://app?vid=f9f869ce-8e68-4508-9020-498a2158d817","ios":"levelo://app?vid=f9f869ce-8e68-4508-9020-498a2158d817"},"vehicle_type_id":"4","last_reported":1745604816,"current_range_meters":4000,"station_id":"ce4bh512rcd13ifvqe2g","pricing_plan_id":"cebpf4jnsgd1na2vs0mg"},{"bike_id":"c3a03095-7584-47c7-b03d-4a009ac8565c","system_id":"levelo_inurba_marseille","lat":43.28615,"lon":5.35109,"is_reserved":false,"is_disabled":false,"rental_uris":{"android":"levelo://app?vid=c3a03095-7584-47c7-b03d-4a009ac8565c","ios":"levelo://app?vid=c3a03095-7584-47c7-b03d-4a009ac8565c"},"vehicle_type_id":"4","last_reported":1745604816,"current_range_meters":4400,"station_id":"ce4bhch2rcd13ifvqeug","pricing_plan_id":"cebpf4jnsgd1na2vs0mg"},{"bike_id":"d1be9994-1ec2-4d9d-a1b8-9626ac9d73bf","system_id":"levelo_inurba_marseille","lat":43.30936,"lon":5.39962,"is_reserved":false,"is_disabled":false,"rental_uris":{"android":"levelo://app?vid=d1be9994-1ec2-4d9d-a1b8-9626ac9d73bf","ios":"levelo://app?vid=d1be9994-1ec2-4d9d-a1b8-9626ac9d73bf"},"vehicle_type_id":"4","last_reported":1745604816,"current_range_meters":4400,"station_id":"","pricing_plan_id":"cebpf4jnsgd1na2vs0mg"},{"bike_id":"cf1b22e2-97d4-4cf7-8364-17604e4d0b5e","system_id":"levelo_inurba_marseille","lat":43.25503,"lon":5.37647,"is_reserved":false,"is_disabled":false,"rental_uris":{"android":"levelo://app?vid=cf1b22e2-97d4-4cf7-8364-17604e4d0b5e","ios":"levelo://app?vid=cf1b22e2-97d4-4cf7-8364-17604e4d0b5e"},"vehicle_type_id":"4","last_reported":1745604816,"current_range_meters":4400,"station_id":"ce4bhh12rcd13ifvqff0","pricing_plan_id":"cebpf4jnsgd1na2vs0mg"},{"bike_id":"2d2fe6d6-cc0d-4617-b3a7-e03a12448c2e","system_id":"levelo_inurba_marseille","lat":43.29285,"lon":5.38427,"is_reserved":false,"is_disabled":false,"rental_uris":{"android":"levelo://app?vid=2d2fe6d6-cc0d-4617-b3a7-e03a12448c2e","ios":"levelo://app?vid=2d2fe6d6-cc0d-4617-b3a7-e03a12448c2e"},"vehicle_type_id":"4","last_reported":1745604816,"current_range_meters":4400,"station_id":"ce4bh692rcd13ifvqea0","pricing_plan_id":"cebpf4jnsgd1na2vs0mg"},{"bike_id":"863f2025-aaf5-44d9-92fe-51197c899835","system_id":"levelo_inurba_marseille","lat":43.28934,"lon":5.36638,"is_reserved":false,"is_disabled":false,"rental_uris":{"android":"levelo://app?vid=863f2025-aaf5-44d9-92fe-51197c899835","ios":"levelo://app?vid=863f2025-aaf5-44d9-92fe-51197c899835"},"vehicle_type_id":"4","last_reported":1745604816,"current_range_meters":4400,"station_id":"ce4bhap2rcd13ifvqek0","pricing_plan_id":"cebpf4jnsgd1na2vs0mg"},{"bike_id":"617fbf20-bb15-4117-b0a0-f63054ce20f7","system_id":"levelo_inurba_marseille","lat":43.27859,"lon":5.35431,"is_reserved":false,"is_disabled":false,"rental_uris":{"android":"levelo://app?vid=617fbf20-bb15-4117-b0a0-f63054ce20f7","ios":"levelo://app?vid=617fbf20-bb15-4117-b0a0-f63054ce20f7"},"vehicle_type_id":"4","last_reported":1745604816,"current_range_meters":4400,"station_id":"","pricing_plan_id":"cebpf4jnsgd1na2vs0mg"},{"bike_id":"267ef5ac-1c42-45d2-8f96-989d1a76e7da","system_id":"levelo_inurba_marseille","lat":43.28421,"lon":5.37517,"is_reserved":false,"is_disabled":false,"rental_uris":{"android":"levelo://app?vid=267ef5ac-1c42-45d2-8f96-989d1a76e7da","ios":"levelo://app?vid=267ef5ac-1c42-45d2-8f96-989d1a76e7da"},"vehicle_type_id":"4","last_reported":1745604816,"current_range_meters":4400,"station_id":"ce4bh412rcd13ifvqds0","pricing_plan_id":"cebpf4jnsgd1na2vs0mg"},{"bike_id":"a6f1a769-0e19-4019-8c70-c80cd7f3ca95","system_id":"levelo_inurba_marseille","lat":43.28942,"lon":5.36619,"is_reserved":false,"is_disabled":false,"rental_uris":{"android":"levelo://app?vid=a6f1a769-0e19-4019-8c70-c80cd7f3ca95","ios":"levelo://app?vid=a6f1a769-0e19-4019-8c70-c80cd7f3ca95"},"vehicle_type_id":"4","last_reported":1745604816,"current_range_meters":4400,"station_id":"ce4bhap2rcd13ifvqek0","pricing_plan_id":"cebpf4jnsgd1na2vs0mg"},{"bike_id":"5b85a1e9-99e7-4410-85d0-6f4e6202cbc1","system_id":"levelo_inurba_marseille","lat":43.29192,"lon":5.35809,"is_reserved":false,"is_disabled":false,"rental_uris":{"android":"levelo://app?vid=5b85a1e9-99e7-4410-85d0-6f4e6202cbc1","ios":"levelo://app?vid=5b85a1e9-99e7-4410-85d0-6f4e6202cbc1"},"vehicle_type_id":"4","last_reported":1745604816,"current_range_meters":5600,"station_id":"ce4bhb12rcd13ifvqel0","pricing_plan_id":"cebpf4jnsgd1na2vs0mg"},{"bike_id":"8d3a343e-bb95-489f-9107-94e6311896e0","system_id":"levelo_inurba_marseille","lat":43.29701,"lon":5.36612,"is_reserved":false,"is_disabled":false,"rental_uris":{"android":"levelo://app?vid=8d3a343e-bb95-489f-9107-94e6311896e0","ios":"levelo://app?vid=8d3a343e-bb95-489f-9107-94e6311896e0"},"vehicle_type_id":"4","last_reported":1745604816,"current_range_meters":4800,"station_id":"ce4bgn12rcd13ifvqbt0","pricing_plan_id":"cebpf4jnsgd1na2vs0mg"},{"bike_id":"1fb4d17e-c77d-4b9c-8b60-3d72c19feeaf","system_id":"levelo_inurba_marseille","lat":43.2987,"lon":5.39727,"is_reserved":false,"is_disabled":false,"rental_uris":{"android":"levelo://app?vid=1fb4d17e-c77d-4b9c-8b60-3d72c19feeaf","ios":"levelo://app?vid=1fb4d17e-c77d-4b9c-8b60-3d72c19feeaf"},"vehicle_type_id":"4","last_reported":1745604816,"current_range_meters":4800,"station_id":"ce4bh0h2rcd13ifvqd50","pricing_plan_id":"cebpf4jnsgd1na2vs0mg"},{"bike_id":"4de7658f-f470-4d8f-9db1-41bcc8035146","system_id":"levelo_inurba_marseille","lat":43.23153,"lon":5.43709,"is_reserved":false,"is_disabled":false,"rental_uris":{"android":"levelo://app?vid=4de7658f-f470-4d8f-9db1-41bcc8035146","ios":"levelo://app?vid=4de7658f-f470-4d8f-9db1-41bcc8035146"},"vehicle_type_id":"4","last_reported":1745604816,"current_range_meters":4800,"station_id":"ce4bhmp2rcd13ifvqgog","pricing_plan_id":"cebpf4jnsgd1na2vs0mg"},{"bike_id":"0ef090c8-b30d-42aa-a986-f1a5509bf3d5","system_id":"levelo_inurba_marseille","lat":43.260247,"lon":5.375583,"is_reserved":false,"is_disabled":false,"rental_uris":{"android":"levelo://app?vid=0ef090c8-b30d-42aa-a986-f1a5509bf3d5","ios":"levelo://app?vid=0ef090c8-b30d-42aa-a986-f1a5509bf3d5"},"vehicle_type_id":"4","last_reported":1745604816,"current_range_meters":5600,"station_id":"ce4bhgh2rcd13ifvqfa0","pricing_plan_id":"cebpf4jnsgd1na2vs0mg"},{"bike_id":"2ce66bd4-1939-4652-b21c-c4f27f9ddc89","system_id":"levelo_inurba_marseille","lat":43.29736,"lon":5.36598,"is_reserved":false,"is_disabled":false,"rental_uris":{"android":"levelo://app?vid=2ce66bd4-1939-4652-b21c-c4f27f9ddc89","ios":"levelo://app?vid=2ce66bd4-1939-4652-b21c-c4f27f9ddc89"},"vehicle_type_id":"4","last_reported":1745604816,"current_range_meters":5600,"station_id":"ce4bgn12rcd13ifvqbt0","pricing_plan_id":"cebpf4jnsgd1na2vs0mg"},{"bike_id":"f3aebe7b-dfc2-4f94-9488-f3e4d26d56de","system_id":"levelo_inurba_marseille","lat":43.3014,"lon":5.37422,"is_reserved":false,"is_disabled":false,"rental_uris":{"android":"levelo://app?vid=f3aebe7b-dfc2-4f94-9488-f3e4d26d56de","ios":"levelo://app?vid=f3aebe7b-dfc2-4f94-9488-f3e4d26d56de"},"vehicle_type_id":"4","last_reported":1745604816,"current_range_meters":5600,"station_id":"ce4bgs92rcd13ifvqcc0","pricing_plan_id":"cebpf4jnsgd1na2vs0mg"},{"bike_id":"0c06fffa-b3df-44ba-a253-4ca1f270c9fb","system_id":"levelo_inurba_marseille","lat":43.29264,"lon":5.38429,"is_reserved":false,"is_disabled":false,"rental_uris":{"android":"levelo://app?vid=0c06fffa-b3df-44ba-a253-4ca1f270c9fb","ios":"levelo://app?vid=0c06fffa-b3df-44ba-a253-4ca1f270c9fb"},"vehicle_type_id":"4","last_reported":1745604816,"current_range_meters":5600,"station_id":"ce4bh692rcd13ifvqea0","pricing_plan_id":"cebpf4jnsgd1na2vs0mg"},{"bike_id":"7a357558-abac-4c6f-b881-da4e6162641d","system_id":"levelo_inurba_marseille","lat":43.28569,"lon":5.39497,"is_reserved":false,"is_disabled":false,"rental_uris":{"android":"levelo://app?vid=7a357558-abac-4c6f-b881-da4e6162641d","ios":"levelo://app?vid=7a357558-abac-4c6f-b881-da4e6162641d"},"vehicle_type_id":"4","last_reported":1745604816,"current_range_meters":6000,"station_id":"ce4bh292rcd13ifvqdg0","pricing_plan_id":"cebpf4jnsgd1na2vs0mg"},{"bike_id":"c9b8fb59-a4a4-46c6-942a-529faeefd538","system_id":"levelo_inurba_marseille","lat":43.31093,"lon":5.39737,"is_reserved":false,"is_disabled":false,"rental_uris":{"android":"levelo://app?vid=c9b8fb59-a4a4-46c6-942a-529faeefd538","ios":"levelo://app?vid=c9b8fb59-a4a4-46c6-942a-529faeefd538"},"vehicle_type_id":"4","last_reported":1745604816,"current_range_meters":6000,"station_id":"","pricing_plan_id":"cebpf4jnsgd1na2vs0mg"},{"bike_id":"6c416c0d-3464-459c-ac79-4625af42f02e","system_id":"levelo_inurba_marseille","lat":43.30302,"lon":5.39209,"is_reserved":false,"is_disabled":false,"rental_uris":{"android":"levelo://app?vid=6c416c0d-3464-459c-ac79-4625af42f02e","ios":"levelo://app?vid=6c416c0d-3464-459c-ac79-4625af42f02e"},"vehicle_type_id":"4","last_reported":1745604816,"current_range_meters":6000,"station_id":"ce4bgkh2rcd13ifvqbk0","pricing_plan_id":"cebpf4jnsgd1na2vs0mg"},{"bike_id":"d5d7b7d8-6f30-41e7-9e80-a8f525bab271","system_id":"levelo_inurba_marseille","lat":43.297917,"lon":5.380988,"is_reserved":false,"is_disabled":false,"rental_uris":{"android":"levelo://app?vid=d5d7b7d8-6f30-41e7-9e80-a8f525bab271","ios":"levelo://app?vid=d5d7b7d8-6f30-41e7-9e80-a8f525bab271"},"vehicle_type_id":"4","last_reported":1745604816,"current_range_meters":6000,"station_id":"ce4bgip2rcd13ifvqbb0","pricing_plan_id":"cebpf4jnsgd1na2vs0mg"},{"bike_id":"112179e2-b51a-46a6-a058-7cfcabdf94dd","system_id":"levelo_inurba_marseille","lat":43.29268,"lon":5.38422,"is_reserved":false,"is_disabled":false,"rental_uris":{"android":"levelo://app?vid=112179e2-b51a-46a6-a058-7cfcabdf94dd","ios":"levelo://app?vid=112179e2-b51a-46a6-a058-7cfcabdf94dd"},"vehicle_type_id":"4","last_reported":1745604816,"current_range_meters":6000,"station_id":"ce4bh692rcd13ifvqea0","pricing_plan_id":"cebpf4jnsgd1na2vs0mg"},{"bike_id":"c8c9c681-6fc9-4795-ab3d-1ba9e3d4bb1e","system_id":"levelo_inurba_marseille","lat":43.29709,"lon":5.36615,"is_reserved":false,"is_disabled":false,"rental_uris":{"android":"levelo://app?vid=c8c9c681-6fc9-4795-ab3d-1ba9e3d4bb1e","ios":"levelo://app?vid=c8c9c681-6fc9-4795-ab3d-1ba9e3d4bb1e"},"vehicle_type_id":"4","last_reported":1745604816,"current_range_meters":6400,"station_id":"ce4bgn12rcd13ifvqbt0","pricing_plan_id":"cebpf4jnsgd1na2vs0mg"},{"bike_id":"4156b6a2-b327-41b5-8072-857ab6d6dfd3","system_id":"levelo_inurba_marseille","lat":43.22935,"lon":5.35375,"is_reserved":false,"is_disabled":false,"rental_uris":{"android":"levelo://app?vid=4156b6a2-b327-41b5-8072-857ab6d6dfd3","ios":"levelo://app?vid=4156b6a2-b327-41b5-8072-857ab6d6dfd3"},"vehicle_type_id":"4","last_reported":1745604816,"current_range_meters":6400,"station_id":"cpo3532slgdg3j2ikp40","pricing_plan_id":"cebpf4jnsgd1na2vs0mg"},{"bike_id":"46374c49-3adc-4c5a-8966-e00f056c0d57","system_id":"levelo_inurba_marseille","lat":43.27846,"lon":5.35442,"is_reserved":false,"is_disabled":false,"rental_uris":{"android":"levelo://app?vid=46374c49-3adc-4c5a-8966-e00f056c0d57","ios":"levelo://app?vid=46374c49-3adc-4c5a-8966-e00f056c0d57"},"vehicle_type_id":"4","last_reported":1745604816,"current_range_meters":6400,"station_id":"","pricing_plan_id":"cebpf4jnsgd1na2vs0mg"},{"bike_id":"9ed7f8b0-1b74-4fb2-bf17-4c079263a406","system_id":"levelo_inurba_marseille","lat":43.25494,"lon":5.37648,"is_reserved":false,"is_disabled":false,"rental_uris":{"android":"levelo://app?vid=9ed7f8b0-1b74-4fb2-bf17-4c079263a406","ios":"levelo://app?vid=9ed7f8b0-1b74-4fb2-bf17-4c079263a406"},"vehicle_type_id":"4","last_reported":1745604816,"current_range_meters":6400,"station_id":"ce4bhh12rcd13ifvqff0","pricing_plan_id":"cebpf4jnsgd1na2vs0mg"},{"bike_id":"1bafae7e-0f05-4a2b-8dbe-98b3b0158d0e","system_id":"levelo_inurba_marseille","lat":43.29004,"lon":5.35607,"is_reserved":false,"is_disabled":false,"rental_uris":{"android":"levelo://app?vid=1bafae7e-0f05-4a2b-8dbe-98b3b0158d0e","ios":"levelo://app?vid=1bafae7e-0f05-4a2b-8dbe-98b3b0158d0e"},"vehicle_type_id":"4","last_reported":1745604816,"current_range_meters":6400,"station_id":"ce4bhb92rcd13ifvqen0","pricing_plan_id":"cebpf4jnsgd1na2vs0mg"},{"bike_id":"0ddf9a34-7243-4c9d-87ba-dde21cf7091e","system_id":"levelo_inurba_marseille","lat":43.28938,"lon":5.36633,"is_reserved":false,"is_disabled":false,"rental_uris":{"android":"levelo://app?vid=0ddf9a34-7243-4c9d-87ba-dde21cf7091e","ios":"levelo://app?vid=0ddf9a34-7243-4c9d-87ba-dde21cf7091e"},"vehicle_type_id":"4","last_reported":1745604816,"current_range_meters":6400,"station_id":"ce4bhap2rcd13ifvqek0","pricing_plan_id":"cebpf4jnsgd1na2vs0mg"},{"bike_id":"f587b1ad-8767-42fd-bb98-bdf1bb330f9a","system_id":"levelo_inurba_marseille","lat":43.32385,"lon":5.42088,"is_reserved":false,"is_disabled":false,"rental_uris":{"android":"levelo://app?vid=f587b1ad-8767-42fd-bb98-bdf1bb330f9a","ios":"levelo://app?vid=f587b1ad-8767-42fd-bb98-bdf1bb330f9a"},"vehicle_type_id":"4","last_reported":1745604816,"current_range_meters":6400,"station_id":"","pricing_plan_id":"cebpf4jnsgd1na2vs0mg"},{"bike_id":"e725be89-03eb-4efa-abd9-401ea99c5e6d","system_id":"levelo_inurba_marseille","lat":43.30883,"lon":5.37817,"is_reserved":false,"is_disabled":false,"rental_uris":{"android":"levelo://app?vid=e725be89-03eb-4efa-abd9-401ea99c5e6d","ios":"levelo://app?vid=e725be89-03eb-4efa-abd9-401ea99c5e6d"},"vehicle_type_id":"4","last_reported":1745604816,"current_range_meters":6400,"station_id":"","pricing_plan_id":"cebpf4jnsgd1na2vs0mg"},{"bike_id":"9594de87-e2b1-45c6-857f-d8c74b8f3073","system_id":"levelo_inurba_marseille","lat":43.30185,"lon":5.36606,"is_reserved":false,"is_disabled":false,"rental_uris":{"android":"levelo://app?vid=9594de87-e2b1-45c6-857f-d8c74b8f3073","ios":"levelo://app?vid=9594de87-e2b1-45c6-857f-d8c74b8f3073"},"vehicle_type_id":"4","last_reported":1745604816,"current_range_meters":6400,"station_id":"ce4bgrh2rcd13ifvqc8g","pricing_plan_id":"cebpf4jnsgd1na2vs0mg"},{"bike_id":"b9542b08-549c-4271-9007-e383f662aeb9","system_id":"levelo_inurba_marseille","lat":43.29265,"lon":5.38437,"is_reserved":false,"is_disabled":false,"rental_uris":{"android":"levelo://app?vid=b9542b08-549c-4271-9007-e383f662aeb9","ios":"levelo://app?vid=b9542b08-549c-4271-9007-e383f662aeb9"},"vehicle_type_id":"4","last_reported":1745604816,"current_range_meters":6400,"station_id":"ce4bh692rcd13ifvqea0","pricing_plan_id":"cebpf4jnsgd1na2vs0mg"},{"bike_id":"98182166-4fcb-4dc0-9c52-de1b349f298b","system_id":"levelo_inurba_marseille","lat":43.28722,"lon":5.39992,"is_reserved":false,"is_disabled":true,"rental_uris":{"android":"levelo://app?vid=98182166-4fcb-4dc0-9c52-de1b349f298b","ios":"levelo://app?vid=98182166-4fcb-4dc0-9c52-de1b349f298b"},"vehicle_type_id":"4","last_reported":1745604816,"current_range_meters":6400,"station_id":"ce4bho92rcd13ifvqh3g","pricing_plan_id":"cebpf4jnsgd1na2vs0mg"},{"bike_id":"ecdd0875-7d56-4cd2-a14a-671f78e26c97","system_id":"levelo_inurba_marseille","lat":43.23056,"lon":5.35495,"is_reserved":false,"is_disabled":false,"rental_uris":{"android":"levelo://app?vid=ecdd0875-7d56-4cd2-a14a-671f78e26c97","ios":"levelo://app?vid=ecdd0875-7d56-4cd2-a14a-671f78e26c97"},"vehicle_type_id":"4","last_reported":1745604816,"current_range_meters":6800,"station_id":"cpo3342slgdg3j2ifvpg","pricing_plan_id":"cebpf4jnsgd1na2vs0mg"},{"bike_id":"f9d6cd67-0c16-4a0c-8969-7b394e276607","system_id":"levelo_inurba_marseille","lat":43.28943,"lon":5.36638,"is_reserved":false,"is_disabled":false,"rental_uris":{"android":"levelo://app?vid=f9d6cd67-0c16-4a0c-8969-7b394e276607","ios":"levelo://app?vid=f9d6cd67-0c16-4a0c-8969-7b394e276607"},"vehicle_type_id":"4","last_reported":1745604816,"current_range_meters":6800,"station_id":"ce4bhap2rcd13ifvqek0","pricing_plan_id":"cebpf4jnsgd1na2vs0mg"},{"bike_id":"6e94a711-5402-4704-b611-7db8261a971d","system_id":"levelo_inurba_marseille","lat":43.25701,"lon":5.41078,"is_reserved":false,"is_disabled":false,"rental_uris":{"android":"levelo://app?vid=6e94a711-5402-4704-b611-7db8261a971d","ios":"levelo://app?vid=6e94a711-5402-4704-b611-7db8261a971d"},"vehicle_type_id":"4","last_reported":1745604816,"current_range_meters":6800,"station_id":"ce4bhkp2rcd13ifvqgd0","pricing_plan_id":"cebpf4jnsgd1na2vs0mg"},{"bike_id":"6fe66e94-98b3-4655-aec4-16c069a9ef5d","system_id":"levelo_inurba_marseille","lat":43.2942,"lon":5.3862,"is_reserved":false,"is_disabled":false,"rental_uris":{"android":"levelo://app?vid=6fe66e94-98b3-4655-aec4-16c069a9ef5d","ios":"levelo://app?vid=6fe66e94-98b3-4655-aec4-16c069a9ef5d"},"vehicle_type_id":"4","last_reported":1745604816,"current_range_meters":6800,"station_id":"ce4bh2h2rcd13ifvqdh0","pricing_plan_id":"cebpf4jnsgd1na2vs0mg"},{"bike_id":"566af3c7-55e6-47d8-98d6-26dbaee4cf9e","system_id":"levelo_inurba_marseille","lat":43.30204,"lon":5.37121,"is_reserved":false,"is_disabled":false,"rental_uris":{"android":"levelo://app?vid=566af3c7-55e6-47d8-98d6-26dbaee4cf9e","ios":"levelo://app?vid=566af3c7-55e6-47d8-98d6-26dbaee4cf9e"},"vehicle_type_id":"4","last_reported":1745604816,"current_range_meters":6800,"station_id":"","pricing_plan_id":"cebpf4jnsgd1na2vs0mg"},{"bike_id":"76b18a23-a5ae-4915-ba04-81c90b328f4d","system_id":"levelo_inurba_marseille","lat":43.29776,"lon":5.3809,"is_reserved":false,"is_disabled":false,"rental_uris":{"android":"levelo://app?vid=76b18a23-a5ae-4915-ba04-81c90b328f4d","ios":"levelo://app?vid=76b18a23-a5ae-4915-ba04-81c90b328f4d"},"vehicle_type_id":"4","last_reported":1745604816,"current_range_meters":6800,"station_id":"ce4bgip2rcd13ifvqbb0","pricing_plan_id":"cebpf4jnsgd1na2vs0mg"},{"bike_id":"d05b82dd-832d-4d38-82b8-2dd8d766c25e","system_id":"levelo_inurba_marseille","lat":43.284073,"lon":5.374971,"is_reserved":false,"is_disabled":false,"rental_uris":{"android":"levelo://app?vid=d05b82dd-832d-4d38-82b8-2dd8d766c25e","ios":"levelo://app?vid=d05b82dd-832d-4d38-82b8-2dd8d766c25e"},"vehicle_type_id":"4","last_reported":1745604816,"current_range_meters":6800,"station_id":"ce4bh412rcd13ifvqds0","pricing_plan_id":"cebpf4jnsgd1na2vs0mg"},{"bike_id":"f79f599e-458e-46dc-a1c4-46c085c6ab74","system_id":"levelo_inurba_marseille","lat":43.26566,"lon":5.39013,"is_reserved":false,"is_disabled":false,"rental_uris":{"android":"levelo://app?vid=f79f599e-458e-46dc-a1c4-46c085c6ab74","ios":"levelo://app?vid=f79f599e-458e-46dc-a1c4-46c085c6ab74"},"vehicle_type_id":"4","last_reported":1745604816,"current_range_meters":6800,"station_id":"ce4bhe12rcd13ifvqf30","pricing_plan_id":"cebpf4jnsgd1na2vs0mg"},{"bike_id":"4bf0cade-afa0-4731-b40e-ef3f8f4a4fe5","system_id":"levelo_inurba_marseille","lat":43.30104,"lon":5.39084,"is_reserved":false,"is_disabled":true,"rental_uris":{"android":"levelo://app?vid=4bf0cade-afa0-4731-b40e-ef3f8f4a4fe5","ios":"levelo://app?vid=4bf0cade-afa0-4731-b40e-ef3f8f4a4fe5"},"vehicle_type_id":"4","last_reported":1745604816,"current_range_meters":7200,"station_id":"ce4bh192rcd13ifvqdb0","pricing_plan_id":"cebpf4jnsgd1na2vs0mg"},{"bike_id":"1792ddb6-faa6-4a97-9f28-acce9cb9f165","system_id":"levelo_inurba_marseille","lat":43.28423,"lon":5.3498,"is_reserved":false,"is_disabled":false,"rental_uris":{"android":"levelo://app?vid=1792ddb6-faa6-4a97-9f28-acce9cb9f165","ios":"levelo://app?vid=1792ddb6-faa6-4a97-9f28-acce9cb9f165"},"vehicle_type_id":"4","last_reported":1745604816,"current_range_meters":7200,"station_id":"ce4bhbh2rcd13ifvqepg","pricing_plan_id":"cebpf4jnsgd1na2vs0mg"},{"bike_id":"fa08c917-15f0-46bf-9b4b-3ce0e752e62f","system_id":"levelo_inurba_marseille","lat":43.3343,"lon":5.40012,"is_reserved":false,"is_disabled":false,"rental_uris":{"android":"levelo://app?vid=fa08c917-15f0-46bf-9b4b-3ce0e752e62f","ios":"levelo://app?vid=fa08c917-15f0-46bf-9b4b-3ce0e752e62f"},"vehicle_type_id":"4","last_reported":1745604816,"current_range_meters":7200,"station_id":"","pricing_plan_id":"cebpf4jnsgd1na2vs0mg"},{"bike_id":"0fae9b4c-c6d2-4fa8-87d3-0bfcc5f031fb","system_id":"levelo_inurba_marseille","lat":43.308,"lon":5.43526,"is_reserved":false,"is_disabled":false,"rental_uris":{"android":"levelo://app?vid=0fae9b4c-c6d2-4fa8-87d3-0bfcc5f031fb","ios":"levelo://app?vid=0fae9b4c-c6d2-4fa8-87d3-0bfcc5f031fb"},"vehicle_type_id":"4","last_reported":1745604816,"current_range_meters":7200,"station_id":"ce4bhph2rcd13ifvqheg","pricing_plan_id":"cebpf4jnsgd1na2vs0mg"},{"bike_id":"f2ca7242-a5f4-407e-9e63-075d1492ecf1","system_id":"levelo_inurba_marseille","lat":43.30145,"lon":5.38071,"is_reserved":false,"is_disabled":false,"rental_uris":{"android":"levelo://app?vid=f2ca7242-a5f4-407e-9e63-075d1492ecf1","ios":"levelo://app?vid=f2ca7242-a5f4-407e-9e63-075d1492ecf1"},"vehicle_type_id":"4","last_reported":1745604816,"current_range_meters":7200,"station_id":"ce4bgjp2rcd13ifvqbh0","pricing_plan_id":"cebpf4jnsgd1na2vs0mg"},{"bike_id":"52cb41a7-5096-4f42-a09a-abce4785d5e2","system_id":"levelo_inurba_marseille","lat":43.27077,"lon":5.42275,"is_reserved":false,"is_disabled":true,"rental_uris":{"android":"levelo://app?vid=52cb41a7-5096-4f42-a09a-abce4785d5e2","ios":"levelo://app?vid=52cb41a7-5096-4f42-a09a-abce4785d5e2"},"vehicle_type_id":"4","last_reported":1745604816,"current_range_meters":7200,"station_id":"ce4bhk92rcd13ifvqgb0","pricing_plan_id":"cebpf4jnsgd1na2vs0mg"},{"bike_id":"2e75dd77-9f47-4d4c-8c8c-abf16a3b522b","system_id":"levelo_inurba_marseille","lat":43.29814,"lon":5.38089,"is_reserved":false,"is_disabled":false,"rental_uris":{"android":"levelo://app?vid=2e75dd77-9f47-4d4c-8c8c-abf16a3b522b","ios":"levelo://app?vid=2e75dd77-9f47-4d4c-8c8c-abf16a3b522b"},"vehicle_type_id":"4","last_reported":1745604816,"current_range_meters":7200,"station_id":"ce4bgip2rcd13ifvqbb0","pricing_plan_id":"cebpf4jnsgd1na2vs0mg"},{"bike_id":"717449a1-7a0d-4d8a-92c9-fe358a856b0b","system_id":"levelo_inurba_marseille","lat":43.28998,"lon":5.356,"is_reserved":false,"is_disabled":false,"rental_uris":{"android":"levelo://app?vid=717449a1-7a0d-4d8a-92c9-fe358a856b0b","ios":"levelo://app?vid=717449a1-7a0d-4d8a-92c9-fe358a856b0b"},"vehicle_type_id":"4","last_reported":1745604816,"current_range_meters":8000,"station_id":"ce4bhb92rcd13ifvqen0","pricing_plan_id":"cebpf4jnsgd1na2vs0mg"},{"bike_id":"69297328-a926-4991-b5a8-9b525c2cd8ff","system_id":"levelo_inurba_marseille","lat":43.24542,"lon":5.39521,"is_reserved":false,"is_disabled":false,"rental_uris":{"android":"levelo://app?vid=69297328-a926-4991-b5a8-9b525c2cd8ff","ios":"levelo://app?vid=69297328-a926-4991-b5a8-9b525c2cd8ff"},"vehicle_type_id":"4","last_reported":1745604816,"current_range_meters":8000,"station_id":"ce4bhlp2rcd13ifvqgjg","pricing_plan_id":"cebpf4jnsgd1na2vs0mg"},{"bike_id":"ab49b0ae-90ee-4214-bbd8-e0867a6763e8","system_id":"levelo_inurba_marseille","lat":43.31255,"lon":5.37167,"is_reserved":false,"is_disabled":false,"rental_uris":{"android":"levelo://app?vid=ab49b0ae-90ee-4214-bbd8-e0867a6763e8","ios":"levelo://app?vid=ab49b0ae-90ee-4214-bbd8-e0867a6763e8"},"vehicle_type_id":"4","last_reported":1745604816,"current_range_meters":8000,"station_id":"","pricing_plan_id":"cebpf4jnsgd1na2vs0mg"},{"bike_id":"10cad3e8-7310-4777-b799-5903361d4c14","system_id":"levelo_inurba_marseille","lat":43.28034,"lon":5.36941,"is_reserved":false,"is_disabled":false,"rental_uris":{"android":"levelo://app?vid=10cad3e8-7310-4777-b799-5903361d4c14","ios":"levelo://app?vid=10cad3e8-7310-4777-b799-5903361d4c14"},"vehicle_type_id":"4","last_reported":1745604816,"current_range_meters":8000,"station_id":"ce4bha12rcd13ifvqef0","pricing_plan_id":"cebpf4jnsgd1na2vs0mg"},{"bike_id":"3767ba54-0ee2-464a-8805-d28bad95405b","system_id":"levelo_inurba_marseille","lat":43.25967,"lon":5.3756,"is_reserved":false,"is_disabled":false,"rental_uris":{"android":"levelo://app?vid=3767ba54-0ee2-464a-8805-d28bad95405b","ios":"levelo://app?vid=3767ba54-0ee2-464a-8805-d28bad95405b"},"vehicle_type_id":"4","last_reported":1745604816,"current_range_meters":8000,"station_id":"","pricing_plan_id":"cebpf4jnsgd1na2vs0mg"},{"bike_id":"a1cc7d6a-9e6d-4050-a3ce-2b76809b72ff","system_id":"levelo_inurba_marseille","lat":43.30182,"lon":5.36621,"is_reserved":false,"is_disabled":false,"rental_uris":{"android":"levelo://app?vid=a1cc7d6a-9e6d-4050-a3ce-2b76809b72ff","ios":"levelo://app?vid=a1cc7d6a-9e6d-4050-a3ce-2b76809b72ff"},"vehicle_type_id":"4","last_reported":1745604816,"current_range_meters":8000,"station_id":"ce4bgrh2rcd13ifvqc8g","pricing_plan_id":"cebpf4jnsgd1na2vs0mg"},{"bike_id":"fe8b7022-372f-450b-89d8-bbd5e6141cd8","system_id":"levelo_inurba_marseille","lat":43.29692,"lon":5.3662,"is_reserved":false,"is_disabled":false,"rental_uris":{"android":"levelo://app?vid=fe8b7022-372f-450b-89d8-bbd5e6141cd8","ios":"levelo://app?vid=fe8b7022-372f-450b-89d8-bbd5e6141cd8"},"vehicle_type_id":"4","last_reported":1745604816,"current_range_meters":8400,"station_id":"ce4bgn12rcd13ifvqbt0","pricing_plan_id":"cebpf4jnsgd1na2vs0mg"},{"bike_id":"f64eb51c-27ac-4731-b7e6-48b74e2d5fe3","system_id":"levelo_inurba_marseille","lat":43.27557,"lon":5.38417,"is_reserved":false,"is_disabled":false,"rental_uris":{"android":"levelo://app?vid=f64eb51c-27ac-4731-b7e6-48b74e2d5fe3","ios":"levelo://app?vid=f64eb51c-27ac-4731-b7e6-48b74e2d5fe3"},"vehicle_type_id":"4","last_reported":1745604816,"current_range_meters":8400,"station_id":"ce4bhh92rcd13ifvqfi0","pricing_plan_id":"cebpf4jnsgd1na2vs0mg"},{"bike_id":"c1ccd199-3bfe-4293-a4cb-6829c97c125f","system_id":"levelo_inurba_marseille","lat":43.32415,"lon":5.39097,"is_reserved":false,"is_disabled":false,"rental_uris":{"android":"levelo://app?vid=c1ccd199-3bfe-4293-a4cb-6829c97c125f","ios":"levelo://app?vid=c1ccd199-3bfe-4293-a4cb-6829c97c125f"},"vehicle_type_id":"4","last_reported":1745604816,"current_range_meters":8400,"station_id":"","pricing_plan_id":"cebpf4jnsgd1na2vs0mg"},{"bike_id":"799938bb-11ab-4e7a-a851-3fac952672f8","system_id":"levelo_inurba_marseille","lat":43.28835,"lon":5.39311,"is_reserved":false,"is_disabled":false,"rental_uris":{"android":"levelo://app?vid=799938bb-11ab-4e7a-a851-3fac952672f8","ios":"levelo://app?vid=799938bb-11ab-4e7a-a851-3fac952672f8"},"vehicle_type_id":"4","last_reported":1745604816,"current_range_meters":8400,"station_id":"ce4bh2p2rcd13ifvqdi0","pricing_plan_id":"cebpf4jnsgd1na2vs0mg"},{"bike_id":"671f67fc-de48-4783-a62f-1d2f6a6a04eb","system_id":"levelo_inurba_marseille","lat":43.29577,"lon":5.36733,"is_reserved":false,"is_disabled":false,"rental_uris":{"android":"levelo://app?vid=671f67fc-de48-4783-a62f-1d2f6a6a04eb","ios":"levelo://app?vid=671f67fc-de48-4783-a62f-1d2f6a6a04eb"},"vehicle_type_id":"4","last_reported":1745604816,"current_range_meters":8400,"station_id":"ce4bgph2rcd13ifvqc2g","pricing_plan_id":"cebpf4jnsgd1na2vs0mg"},{"bike_id":"4e4f5e38-b767-4f9f-ad3d-9befd10f2167","system_id":"levelo_inurba_marseille","lat":43.28436,"lon":5.39199,"is_reserved":false,"is_disabled":false,"rental_uris":{"android":"levelo://app?vid=4e4f5e38-b767-4f9f-ad3d-9befd10f2167","ios":"levelo://app?vid=4e4f5e38-b767-4f9f-ad3d-9befd10f2167"},"vehicle_type_id":"4","last_reported":1745604816,"current_range_meters":8400,"station_id":"ce4bhoh2rcd13ifvqh5g","pricing_plan_id":"cebpf4jnsgd1na2vs0mg"},{"bike_id":"90b2a0c1-f5e7-4258-8b3b-6edb7873a2fc","system_id":"levelo_inurba_marseille","lat":43.29265,"lon":5.38446,"is_reserved":false,"is_disabled":false,"rental_uris":{"android":"levelo://app?vid=90b2a0c1-f5e7-4258-8b3b-6edb7873a2fc","ios":"levelo://app?vid=90b2a0c1-f5e7-4258-8b3b-6edb7873a2fc"},"vehicle_type_id":"4","last_reported":1745604816,"current_range_meters":8400,"station_id":"ce4bh692rcd13ifvqea0","pricing_plan_id":"cebpf4jnsgd1na2vs0mg"},{"bike_id":"ad8e5f10-8633-4ee1-a87f-363a1a3a274a","system_id":"levelo_inurba_marseille","lat":43.24156,"lon":5.36403,"is_reserved":false,"is_disabled":false,"rental_uris":{"android":"levelo://app?vid=ad8e5f10-8633-4ee1-a87f-363a1a3a274a","ios":"levelo://app?vid=ad8e5f10-8633-4ee1-a87f-363a1a3a274a"},"vehicle_type_id":"4","last_reported":1745604816,"current_range_meters":8400,"station_id":"cpo36qri1sfpv3e86is0","pricing_plan_id":"cebpf4jnsgd1na2vs0mg"},{"bike_id":"d503d993-daa6-4c15-ab78-253e829ea722","system_id":"levelo_inurba_marseille","lat":43.29005,"lon":5.35615,"is_reserved":false,"is_disabled":false,"rental_uris":{"android":"levelo://app?vid=d503d993-daa6-4c15-ab78-253e829ea722","ios":"levelo://app?vid=d503d993-daa6-4c15-ab78-253e829ea722"},"vehicle_type_id":"4","last_reported":1745604816,"current_range_meters":8400,"station_id":"ce4bhb92rcd13ifvqen0","pricing_plan_id":"cebpf4jnsgd1na2vs0mg"},{"bike_id":"0c098f6c-d971-4093-bf4e-bd7030082202","system_id":"levelo_inurba_marseille","lat":43.26214,"lon":5.3744,"is_reserved":false,"is_disabled":false,"rental_uris":{"android":"levelo://app?vid=0c098f6c-d971-4093-bf4e-bd7030082202","ios":"levelo://app?vid=0c098f6c-d971-4093-bf4e-bd7030082202"},"vehicle_type_id":"4","last_reported":1745604816,"current_range_meters":8400,"station_id":"ce4bhgp2rcd13ifvqfc0","pricing_plan_id":"cebpf4jnsgd1na2vs0mg"},{"bike_id":"bb34a576-c24d-4e09-af2b-fa8159c0da8b","system_id":"levelo_inurba_marseille","lat":43.29276,"lon":5.36837,"is_reserved":false,"is_disabled":false,"rental_uris":{"android":"levelo://app?vid=bb34a576-c24d-4e09-af2b-fa8159c0da8b","ios":"levelo://app?vid=bb34a576-c24d-4e09-af2b-fa8159c0da8b"},"vehicle_type_id":"4","last_reported":1745604816,"current_range_meters":8400,"station_id":"ce4bhbp2rcd13ifvqesg","pricing_plan_id":"cebpf4jnsgd1na2vs0mg"},{"bike_id":"1746265e-27ad-4913-8a06-b6dc5372d844","system_id":"levelo_inurba_marseille","lat":43.26033,"lon":5.37482,"is_reserved":false,"is_disabled":false,"rental_uris":{"android":"levelo://app?vid=1746265e-27ad-4913-8a06-b6dc5372d844","ios":"levelo://app?vid=1746265e-27ad-4913-8a06-b6dc5372d844"},"vehicle_type_id":"4","last_reported":1745604816,"current_range_meters":8800,"station_id":"","pricing_plan_id":"cebpf4jnsgd1na2vs0mg"},{"bike_id":"d4c58439-9a21-4bb1-8d01-461656a2888d","system_id":"levelo_inurba_marseille","lat":43.30186,"lon":5.36609,"is_reserved":false,"is_disabled":false,"rental_uris":{"android":"levelo://app?vid=d4c58439-9a21-4bb1-8d01-461656a2888d","ios":"levelo://app?vid=d4c58439-9a21-4bb1-8d01-461656a2888d"},"vehicle_type_id":"4","last_reported":1745604816,"current_range_meters":8800,"station_id":"ce4bgrh2rcd13ifvqc8g","pricing_plan_id":"cebpf4jnsgd1na2vs0mg"},{"bike_id":"cfa34a75-efec-4eb8-a020-77feca0ad5e2","system_id":"levelo_inurba_marseille","lat":43.21219,"lon":5.35061,"is_reserved":false,"is_disabled":false,"rental_uris":{"android":"levelo://app?vid=cfa34a75-efec-4eb8-a020-77feca0ad5e2","ios":"levelo://app?vid=cfa34a75-efec-4eb8-a020-77feca0ad5e2"},"vehicle_type_id":"4","last_reported":1745604816,"current_range_meters":8800,"station_id":"st_cvj6sg6p6f1abm77japg","pricing_plan_id":"cebpf4jnsgd1na2vs0mg"},{"bike_id":"859c00b9-33f6-447c-a76b-d13c41664022","system_id":"levelo_inurba_marseille","lat":43.29578,"lon":5.36745,"is_reserved":false,"is_disabled":false,"rental_uris":{"android":"levelo://app?vid=859c00b9-33f6-447c-a76b-d13c41664022","ios":"levelo://app?vid=859c00b9-33f6-447c-a76b-d13c41664022"},"vehicle_type_id":"4","last_reported":1745604816,"current_range_meters":8800,"station_id":"ce4bgph2rcd13ifvqc2g","pricing_plan_id":"cebpf4jnsgd1na2vs0mg"},{"bike_id":"d4713753-e36d-4e43-8d9b-08fae9f44b07","system_id":"levelo_inurba_marseille","lat":43.26212,"lon":5.37444,"is_reserved":false,"is_disabled":false,"rental_uris":{"android":"levelo://app?vid=d4713753-e36d-4e43-8d9b-08fae9f44b07","ios":"levelo://app?vid=d4713753-e36d-4e43-8d9b-08fae9f44b07"},"vehicle_type_id":"4","last_reported":1745604816,"current_range_meters":8800,"station_id":"ce4bhgp2rcd13ifvqfc0","pricing_plan_id":"cebpf4jnsgd1na2vs0mg"},{"bike_id":"1d6d102f-89dc-4052-9661-a1eaff1c6b0a","system_id":"levelo_inurba_marseille","lat":43.24817,"lon":5.3746,"is_reserved":false,"is_disabled":false,"rental_uris":{"android":"levelo://app?vid=1d6d102f-89dc-4052-9661-a1eaff1c6b0a","ios":"levelo://app?vid=1d6d102f-89dc-4052-9661-a1eaff1c6b0a"},"vehicle_type_id":"4","last_reported":1745604816,"current_range_meters":8800,"station_id":"ce4bhgh2rcd13ifvqfb0","pricing_plan_id":"cebpf4jnsgd1na2vs0mg"},{"bike_id":"106af57c-933e-4904-a27c-6ccad4fd07b8","system_id":"levelo_inurba_marseille","lat":43.30542,"lon":5.36571,"is_reserved":false,"is_disabled":false,"rental_uris":{"android":"levelo://app?vid=106af57c-933e-4904-a27c-6ccad4fd07b8","ios":"levelo://app?vid=106af57c-933e-4904-a27c-6ccad4fd07b8"},"vehicle_type_id":"4","last_reported":1745604816,"current_range_meters":8800,"station_id":"ce4bhs12rcd13ifvqhvg","pricing_plan_id":"cebpf4jnsgd1na2vs0mg"},{"bike_id":"4f61d901-1ed6-4e9f-9e85-9a8905f61b6b","system_id":"levelo_inurba_marseille","lat":43.2902,"lon":5.38133,"is_reserved":false,"is_disabled":false,"rental_uris":{"android":"levelo://app?vid=4f61d901-1ed6-4e9f-9e85-9a8905f61b6b","ios":"levelo://app?vid=4f61d901-1ed6-4e9f-9e85-9a8905f61b6b"},"vehicle_type_id":"4","last_reported":1745604816,"current_range_meters":8800,"station_id":"ce4bh4p2rcd13ifvqe1g","pricing_plan_id":"cebpf4jnsgd1na2vs0mg"},{"bike_id":"8eab2f9f-f610-443a-acb5-1ca319c412d9","system_id":"levelo_inurba_marseille","lat":43.29005,"lon":5.35609,"is_reserved":false,"is_disabled":false,"rental_uris":{"android":"levelo://app?vid=8eab2f9f-f610-443a-acb5-1ca319c412d9","ios":"levelo://app?vid=8eab2f9f-f610-443a-acb5-1ca319c412d9"},"vehicle_type_id":"4","last_reported":1745604816,"current_range_meters":9200,"station_id":"ce4bhb92rcd13ifvqen0","pricing_plan_id":"cebpf4jnsgd1na2vs0mg"},{"bike_id":"e0176296-2f0a-46c7-bd15-11425e99d2da","system_id":"levelo_inurba_marseille","lat":43.29874,"lon":5.39736,"is_reserved":false,"is_disabled":false,"rental_uris":{"android":"levelo://app?vid=e0176296-2f0a-46c7-bd15-11425e99d2da","ios":"levelo://app?vid=e0176296-2f0a-46c7-bd15-11425e99d2da"},"vehicle_type_id":"4","last_reported":1745604816,"current_range_meters":9200,"station_id":"ce4bh0h2rcd13ifvqd50","pricing_plan_id":"cebpf4jnsgd1na2vs0mg"},{"bike_id":"96e4b970-67d3-4ba0-b15b-09896015333e","system_id":"levelo_inurba_marseille","lat":43.28474,"lon":5.38412,"is_reserved":false,"is_disabled":false,"rental_uris":{"android":"levelo://app?vid=96e4b970-67d3-4ba0-b15b-09896015333e","ios":"levelo://app?vid=96e4b970-67d3-4ba0-b15b-09896015333e"},"vehicle_type_id":"4","last_reported":1745604816,"current_range_meters":9200,"station_id":"ce4bh512rcd13ifvqe3g","pricing_plan_id":"cebpf4jnsgd1na2vs0mg"},{"bike_id":"cc49d7df-7ac8-4737-8445-c197f979bd4d","system_id":"levelo_inurba_marseille","lat":43.28851,"lon":5.35842,"is_reserved":false,"is_disabled":true,"rental_uris":{"android":"levelo://app?vid=cc49d7df-7ac8-4737-8445-c197f979bd4d","ios":"levelo://app?vid=cc49d7df-7ac8-4737-8445-c197f979bd4d"},"vehicle_type_id":"4","last_reported":1745604816,"current_range_meters":9200,"station_id":"ce4bhb12rcd13ifvqem0","pricing_plan_id":"cebpf4jnsgd1na2vs0mg"},{"bike_id":"92b714df-d457-444d-a05d-e491aa1529d5","system_id":"levelo_inurba_marseille","lat":43.29098,"lon":5.38126,"is_reserved":false,"is_disabled":false,"rental_uris":{"android":"levelo://app?vid=92b714df-d457-444d-a05d-e491aa1529d5","ios":"levelo://app?vid=92b714df-d457-444d-a05d-e491aa1529d5"},"vehicle_type_id":"4","last_reported":1745604816,"current_range_meters":9200,"station_id":"ce4bh512rcd13ifvqe2g","pricing_plan_id":"cebpf4jnsgd1na2vs0mg"},{"bike_id":"207bb0e0-c985-41eb-91a3-2c07ca87e2b6","system_id":"levelo_inurba_marseille","lat":43.29894,"lon":5.38907,"is_reserved":false,"is_disabled":false,"rental_uris":{"android":"levelo://app?vid=207bb0e0-c985-41eb-91a3-2c07ca87e2b6","ios":"levelo://app?vid=207bb0e0-c985-41eb-91a3-2c07ca87e2b6"},"vehicle_type_id":"4","last_reported":1745604816,"current_range_meters":8800,"station_id":"ce4bh392rcd13ifvqdl0","pricing_plan_id":"cebpf4jnsgd1na2vs0mg"},{"bike_id":"f53ca2be-5e14-4232-a442-dc2e98de0bb7","system_id":"levelo_inurba_marseille","lat":43.2731,"lon":5.39139,"is_reserved":false,"is_disabled":true,"rental_uris":{"android":"levelo://app?vid=f53ca2be-5e14-4232-a442-dc2e98de0bb7","ios":"levelo://app?vid=f53ca2be-5e14-4232-a442-dc2e98de0bb7"},"vehicle_type_id":"4","last_reported":1745604816,"current_range_meters":9200,"station_id":"","pricing_plan_id":"cebpf4jnsgd1na2vs0mg"},{"bike_id":"37e090c5-fffc-49b5-9066-f7a403374a27","system_id":"levelo_inurba_marseille","lat":43.29791,"lon":5.39343,"is_reserved":false,"is_disabled":false,"rental_uris":{"android":"levelo://app?vid=37e090c5-fffc-49b5-9066-f7a403374a27","ios":"levelo://app?vid=37e090c5-fffc-49b5-9066-f7a403374a27"},"vehicle_type_id":"4","last_reported":1745604816,"current_range_meters":9200,"station_id":"chh1huq6cuj3fo74tm60","pricing_plan_id":"cebpf4jnsgd1na2vs0mg"},{"bike_id":"78c7f484-570c-4dec-877d-06e748e2a726","system_id":"levelo_inurba_marseille","lat":43.29796,"lon":5.38095,"is_reserved":false,"is_disabled":true,"rental_uris":{"android":"levelo://app?vid=78c7f484-570c-4dec-877d-06e748e2a726","ios":"levelo://app?vid=78c7f484-570c-4dec-877d-06e748e2a726"},"vehicle_type_id":"4","last_reported":1745604816,"current_range_meters":9600,"station_id":"ce4bgip2rcd13ifvqbb0","pricing_plan_id":"cebpf4jnsgd1na2vs0mg"},{"bike_id":"dcf56d5c-8acd-4313-9256-9f38fd8e78b9","system_id":"levelo_inurba_marseille","lat":43.27374,"lon":5.36261,"is_reserved":false,"is_disabled":false,"rental_uris":{"android":"levelo://app?vid=dcf56d5c-8acd-4313-9256-9f38fd8e78b9","ios":"levelo://app?vid=dcf56d5c-8acd-4313-9256-9f38fd8e78b9"},"vehicle_type_id":"4","last_reported":1745604816,"current_range_meters":9600,"station_id":"ce4bhbh2rcd13ifvqeo0","pricing_plan_id":"cebpf4jnsgd1na2vs0mg"},{"bike_id":"cc2c5d23-9f21-412f-8ef0-e554f6c96319","system_id":"levelo_inurba_marseille","lat":43.280359,"lon":5.369495,"is_reserved":false,"is_disabled":false,"rental_uris":{"android":"levelo://app?vid=cc2c5d23-9f21-412f-8ef0-e554f6c96319","ios":"levelo://app?vid=cc2c5d23-9f21-412f-8ef0-e554f6c96319"},"vehicle_type_id":"4","last_reported":1745604816,"current_range_meters":11200,"station_id":"ce4bha12rcd13ifvqef0","pricing_plan_id":"cebpf4jnsgd1na2vs0mg"},{"bike_id":"4119d992-d158-494b-9ffc-ababd21ba13d","system_id":"levelo_inurba_marseille","lat":43.27068,"lon":5.42281,"is_reserved":false,"is_disabled":false,"rental_uris":{"android":"levelo://app?vid=4119d992-d158-494b-9ffc-ababd21ba13d","ios":"levelo://app?vid=4119d992-d158-494b-9ffc-ababd21ba13d"},"vehicle_type_id":"4","last_reported":1745604816,"current_range_meters":9600,"station_id":"ce4bhk92rcd13ifvqgb0","pricing_plan_id":"cebpf4jnsgd1na2vs0mg"},{"bike_id":"37922e40-0cdb-4928-b112-d25ba61cadd7","system_id":"levelo_inurba_marseille","lat":43.29068,"lon":5.3716,"is_reserved":false,"is_disabled":false,"rental_uris":{"android":"levelo://app?vid=37922e40-0cdb-4928-b112-d25ba61cadd7","ios":"levelo://app?vid=37922e40-0cdb-4928-b112-d25ba61cadd7"},"vehicle_type_id":"4","last_reported":1745604816,"current_range_meters":10000,"station_id":"ce4bh5p2rcd13ifvqe4g","pricing_plan_id":"cebpf4jnsgd1na2vs0mg"},{"bike_id":"6172de8a-1532-4523-b41c-7aa4caf0e2be","system_id":"levelo_inurba_marseille","lat":43.29259,"lon":5.38452,"is_reserved":false,"is_disabled":false,"rental_uris":{"android":"levelo://app?vid=6172de8a-1532-4523-b41c-7aa4caf0e2be","ios":"levelo://app?vid=6172de8a-1532-4523-b41c-7aa4caf0e2be"},"vehicle_type_id":"4","last_reported":1745604816,"current_range_meters":10000,"station_id":"ce4bh692rcd13ifvqea0","pricing_plan_id":"cebpf4jnsgd1na2vs0mg"},{"bike_id":"5c8dde23-03af-4ec7-8c64-b6a7b95cfa5a","system_id":"levelo_inurba_marseille","lat":43.33715,"lon":5.3919,"is_reserved":false,"is_disabled":false,"rental_uris":{"android":"levelo://app?vid=5c8dde23-03af-4ec7-8c64-b6a7b95cfa5a","ios":"levelo://app?vid=5c8dde23-03af-4ec7-8c64-b6a7b95cfa5a"},"vehicle_type_id":"4","last_reported":1745604816,"current_range_meters":10000,"station_id":"ce4bhr92rcd13ifvqhsg","pricing_plan_id":"cebpf4jnsgd1na2vs0mg"},{"bike_id":"73c6fe98-6196-4c44-86a2-23ac19f69589","system_id":"levelo_inurba_marseille","lat":43.30259,"lon":5.40075,"is_reserved":false,"is_disabled":false,"rental_uris":{"android":"levelo://app?vid=73c6fe98-6196-4c44-86a2-23ac19f69589","ios":"levelo://app?vid=73c6fe98-6196-4c44-86a2-23ac19f69589"},"vehicle_type_id":"4","last_reported":1745604816,"current_range_meters":10000,"station_id":"ce4bgvh2rcd13ifvqcs0","pricing_plan_id":"cebpf4jnsgd1na2vs0mg"},{"bike_id":"bd95f0bb-c5b1-4d5c-837c-b505e5069d47","system_id":"levelo_inurba_marseille","lat":43.33244,"lon":5.39774,"is_reserved":false,"is_disabled":false,"rental_uris":{"android":"levelo://app?vid=bd95f0bb-c5b1-4d5c-837c-b505e5069d47","ios":"levelo://app?vid=bd95f0bb-c5b1-4d5c-837c-b505e5069d47"},"vehicle_type_id":"4","last_reported":1745604816,"current_range_meters":10000,"station_id":"","pricing_plan_id":"cebpf4jnsgd1na2vs0mg"},{"bike_id":"310b325c-e0fb-46cd-824c-0baeb7a61f9a","system_id":"levelo_inurba_marseille","lat":43.269575,"lon":5.386314,"is_reserved":false,"is_disabled":false,"rental_uris":{"android":"levelo://app?vid=310b325c-e0fb-46cd-824c-0baeb7a61f9a","ios":"levelo://app?vid=310b325c-e0fb-46cd-824c-0baeb7a61f9a"},"vehicle_type_id":"4","last_reported":1745604816,"current_range_meters":10800,"station_id":"ce4bhh92rcd13ifvqfh0","pricing_plan_id":"cebpf4jnsgd1na2vs0mg"},{"bike_id":"fdede74d-9c7d-4c86-b899-a99a26160b45","system_id":"levelo_inurba_marseille","lat":43.286172,"lon":5.35093,"is_reserved":false,"is_disabled":false,"rental_uris":{"android":"levelo://app?vid=fdede74d-9c7d-4c86-b899-a99a26160b45","ios":"levelo://app?vid=fdede74d-9c7d-4c86-b899-a99a26160b45"},"vehicle_type_id":"4","last_reported":1745604816,"current_range_meters":10800,"station_id":"ce4bhch2rcd13ifvqeug","pricing_plan_id":"cebpf4jnsgd1na2vs0mg"},{"bike_id":"e9b40b8c-aa8b-493b-9704-ac204b4fdb74","system_id":"levelo_inurba_marseille","lat":43.22531,"lon":5.34783,"is_reserved":false,"is_disabled":false,"rental_uris":{"android":"levelo://app?vid=e9b40b8c-aa8b-493b-9704-ac204b4fdb74","ios":"levelo://app?vid=e9b40b8c-aa8b-493b-9704-ac204b4fdb74"},"vehicle_type_id":"4","last_reported":1745604816,"current_range_meters":10800,"station_id":"st_cvj5dfep6f1abm77gieg","pricing_plan_id":"cebpf4jnsgd1na2vs0mg"},{"bike_id":"0d77ab05-bf6a-4c71-8cc1-5f9ca0f58381","system_id":"levelo_inurba_marseille","lat":43.31222,"lon":5.36875,"is_reserved":false,"is_disabled":false,"rental_uris":{"android":"levelo://app?vid=0d77ab05-bf6a-4c71-8cc1-5f9ca0f58381","ios":"levelo://app?vid=0d77ab05-bf6a-4c71-8cc1-5f9ca0f58381"},"vehicle_type_id":"4","last_reported":1745604816,"current_range_meters":10800,"station_id":"ce4bgl92rcd13ifvqbq0","pricing_plan_id":"cebpf4jnsgd1na2vs0mg"},{"bike_id":"2ec727cf-784a-45a8-8e9e-ca5a9dc1524e","system_id":"levelo_inurba_marseille","lat":43.29981,"lon":5.38485,"is_reserved":false,"is_disabled":false,"rental_uris":{"android":"levelo://app?vid=2ec727cf-784a-45a8-8e9e-ca5a9dc1524e","ios":"levelo://app?vid=2ec727cf-784a-45a8-8e9e-ca5a9dc1524e"},"vehicle_type_id":"4","last_reported":1745604816,"current_range_meters":10800,"station_id":"ce4bgj92rcd13ifvqbd0","pricing_plan_id":"cebpf4jnsgd1na2vs0mg"},{"bike_id":"78293dca-20d0-4eca-87a1-2005046f22a9","system_id":"levelo_inurba_marseille","lat":43.24164,"lon":5.3639,"is_reserved":false,"is_disabled":false,"rental_uris":{"android":"levelo://app?vid=78293dca-20d0-4eca-87a1-2005046f22a9","ios":"levelo://app?vid=78293dca-20d0-4eca-87a1-2005046f22a9"},"vehicle_type_id":"4","last_reported":1745604816,"current_range_meters":10800,"station_id":"cpo36qri1sfpv3e86is0","pricing_plan_id":"cebpf4jnsgd1na2vs0mg"},{"bike_id":"46ee0d40-5889-4f5d-958d-f3b1e629763c","system_id":"levelo_inurba_marseille","lat":43.27561,"lon":5.38424,"is_reserved":false,"is_disabled":false,"rental_uris":{"android":"levelo://app?vid=46ee0d40-5889-4f5d-958d-f3b1e629763c","ios":"levelo://app?vid=46ee0d40-5889-4f5d-958d-f3b1e629763c"},"vehicle_type_id":"4","last_reported":1745604816,"current_range_meters":10800,"station_id":"ce4bhh92rcd13ifvqfi0","pricing_plan_id":"cebpf4jnsgd1na2vs0mg"},{"bike_id":"edbc9bff-8242-42ee-887f-3b5d28f3a582","system_id":"levelo_inurba_marseille","lat":43.29391,"lon":5.37853,"is_reserved":false,"is_disabled":true,"rental_uris":{"android":"levelo://app?vid=edbc9bff-8242-42ee-887f-3b5d28f3a582","ios":"levelo://app?vid=edbc9bff-8242-42ee-887f-3b5d28f3a582"},"vehicle_type_id":"4","last_reported":1745604816,"current_range_meters":10800,"station_id":"ce4bgjh2rcd13ifvqbf0","pricing_plan_id":"cebpf4jnsgd1na2vs0mg"},{"bike_id":"863e8ff7-7d81-4292-9eea-c0ebb602429a","system_id":"levelo_inurba_marseille","lat":43.310547,"lon":5.400837,"is_reserved":false,"is_disabled":false,"rental_uris":{"android":"levelo://app?vid=863e8ff7-7d81-4292-9eea-c0ebb602429a","ios":"levelo://app?vid=863e8ff7-7d81-4292-9eea-c0ebb602429a"},"vehicle_type_id":"4","last_reported":1745604816,"current_range_meters":10800,"station_id":"","pricing_plan_id":"cebpf4jnsgd1na2vs0mg"},{"bike_id":"dc01f0b5-b1ff-492a-9187-c2aa24895f43","system_id":"levelo_inurba_marseille","lat":43.23192,"lon":5.39967,"is_reserved":false,"is_disabled":false,"rental_uris":{"android":"levelo://app?vid=dc01f0b5-b1ff-492a-9187-c2aa24895f43","ios":"levelo://app?vid=dc01f0b5-b1ff-492a-9187-c2aa24895f43"},"vehicle_type_id":"4","last_reported":1745604816,"current_range_meters":10800,"station_id":"ce4bhn12rcd13ifvqgqg","pricing_plan_id":"cebpf4jnsgd1na2vs0mg"},{"bike_id":"f7bcf4a3-4caf-4166-9f29-cdb055af1179","system_id":"levelo_inurba_marseille","lat":43.26228,"lon":5.40449,"is_reserved":false,"is_disabled":false,"rental_uris":{"android":"levelo://app?vid=f7bcf4a3-4caf-4166-9f29-cdb055af1179","ios":"levelo://app?vid=f7bcf4a3-4caf-4166-9f29-cdb055af1179"},"vehicle_type_id":"4","last_reported":1745604816,"current_range_meters":10800,"station_id":"ce4bhmh2rcd13ifvqgmg","pricing_plan_id":"cebpf4jnsgd1na2vs0mg"},{"bike_id":"d11ac4ca-673c-4b33-9a78-e133c4960d34","system_id":"levelo_inurba_marseille","lat":43.32483,"lon":5.3656,"is_reserved":false,"is_disabled":false,"rental_uris":{"android":"levelo://app?vid=d11ac4ca-673c-4b33-9a78-e133c4960d34","ios":"levelo://app?vid=d11ac4ca-673c-4b33-9a78-e133c4960d34"},"vehicle_type_id":"4","last_reported":1745604816,"current_range_meters":11200,"station_id":"ce4bhs12rcd13ifvqhvg","pricing_plan_id":"cebpf4jnsgd1na2vs0mg"},{"bike_id":"c5af7a15-3ea8-49cc-bdc5-b0b093964bd5","system_id":"levelo_inurba_marseille","lat":43.2816,"lon":5.42637,"is_reserved":false,"is_disabled":false,"rental_uris":{"android":"levelo://app?vid=c5af7a15-3ea8-49cc-bdc5-b0b093964bd5","ios":"levelo://app?vid=c5af7a15-3ea8-49cc-bdc5-b0b093964bd5"},"vehicle_type_id":"4","last_reported":1745604816,"current_range_meters":11200,"station_id":"ce4bhnh2rcd13ifvqgug","pricing_plan_id":"cebpf4jnsgd1na2vs0mg"},{"bike_id":"9f5578ed-5577-43eb-b8df-e2b6a45d6d89","system_id":"levelo_inurba_marseille","lat":43.28609,"lon":5.37072,"is_reserved":false,"is_disabled":false,"rental_uris":{"android":"levelo://app?vid=9f5578ed-5577-43eb-b8df-e2b6a45d6d89","ios":"levelo://app?vid=9f5578ed-5577-43eb-b8df-e2b6a45d6d89"},"vehicle_type_id":"4","last_reported":1745604816,"current_range_meters":11200,"station_id":"ce4bht12rcd13ifvqi60","pricing_plan_id":"cebpf4jnsgd1na2vs0mg"},{"bike_id":"76aa1e3b-0fcd-4731-b078-1f38f213cdb8","system_id":"levelo_inurba_marseille","lat":43.33,"lon":5.39059,"is_reserved":false,"is_disabled":false,"rental_uris":{"android":"levelo://app?vid=76aa1e3b-0fcd-4731-b078-1f38f213cdb8","ios":"levelo://app?vid=76aa1e3b-0fcd-4731-b078-1f38f213cdb8"},"vehicle_type_id":"4","last_reported":1745604816,"current_range_meters":10800,"station_id":"ce4bhr92rcd13ifvqhrg","pricing_plan_id":"cebpf4jnsgd1na2vs0mg"},{"bike_id":"fa72b649-3018-4187-96fe-d31c0b11e0f8","system_id":"levelo_inurba_marseille","lat":43.2966,"lon":5.3764,"is_reserved":false,"is_disabled":false,"rental_uris":{"android":"levelo://app?vid=fa72b649-3018-4187-96fe-d31c0b11e0f8","ios":"levelo://app?vid=fa72b649-3018-4187-96fe-d31c0b11e0f8"},"vehicle_type_id":"4","last_reported":1745604816,"current_range_meters":11200,"station_id":"","pricing_plan_id":"cebpf4jnsgd1na2vs0mg"},{"bike_id":"1c47ee6b-c3d2-4151-9b42-46038abb314f","system_id":"levelo_inurba_marseille","lat":43.3014,"lon":5.38068,"is_reserved":false,"is_disabled":false,"rental_uris":{"android":"levelo://app?vid=1c47ee6b-c3d2-4151-9b42-46038abb314f","ios":"levelo://app?vid=1c47ee6b-c3d2-4151-9b42-46038abb314f"},"vehicle_type_id":"4","last_reported":1745604816,"current_range_meters":11200,"station_id":"ce4bgjp2rcd13ifvqbh0","pricing_plan_id":"cebpf4jnsgd1na2vs0mg"},{"bike_id":"2775e374-0787-4432-98a6-68694e0b114d","system_id":"levelo_inurba_marseille","lat":43.24565,"lon":5.39531,"is_reserved":false,"is_disabled":false,"rental_uris":{"android":"levelo://app?vid=2775e374-0787-4432-98a6-68694e0b114d","ios":"levelo://app?vid=2775e374-0787-4432-98a6-68694e0b114d"},"vehicle_type_id":"4","last_reported":1745604816,"current_range_meters":11600,"station_id":"ce4bhlp2rcd13ifvqgjg","pricing_plan_id":"cebpf4jnsgd1na2vs0mg"},{"bike_id":"3c976c1b-644c-4432-ad5a-b823ebcbcc9c","system_id":"levelo_inurba_marseille","lat":43.30141,"lon":5.37428,"is_reserved":false,"is_disabled":true,"rental_uris":{"android":"levelo://app?vid=3c976c1b-644c-4432-ad5a-b823ebcbcc9c","ios":"levelo://app?vid=3c976c1b-644c-4432-ad5a-b823ebcbcc9c"},"vehicle_type_id":"4","last_reported":1745604816,"current_range_meters":11600,"station_id":"ce4bgs92rcd13ifvqcc0","pricing_plan_id":"cebpf4jnsgd1na2vs0mg"},{"bike_id":"1210bd52-249e-4554-92fb-40510817e3aa","system_id":"levelo_inurba_marseille","lat":43.299204,"lon":5.38821,"is_reserved":false,"is_disabled":false,"rental_uris":{"android":"levelo://app?vid=1210bd52-249e-4554-92fb-40510817e3aa","ios":"levelo://app?vid=1210bd52-249e-4554-92fb-40510817e3aa"},"vehicle_type_id":"4","last_reported":1745604816,"current_range_meters":11600,"station_id":"ce4bh192rcd13ifvqdb0","pricing_plan_id":"cebpf4jnsgd1na2vs0mg"},{"bike_id":"a44c41a4-622a-4a4e-ac16-266ec0cdc544","system_id":"levelo_inurba_marseille","lat":43.28035,"lon":5.36942,"is_reserved":false,"is_disabled":false,"rental_uris":{"android":"levelo://app?vid=a44c41a4-622a-4a4e-ac16-266ec0cdc544","ios":"levelo://app?vid=a44c41a4-622a-4a4e-ac16-266ec0cdc544"},"vehicle_type_id":"4","last_reported":1745604816,"current_range_meters":11600,"station_id":"ce4bha12rcd13ifvqef0","pricing_plan_id":"cebpf4jnsgd1na2vs0mg"},{"bike_id":"8e5bf40b-de71-4be0-b16f-081d8f219b7c","system_id":"levelo_inurba_marseille","lat":43.26214,"lon":5.37439,"is_reserved":false,"is_disabled":false,"rental_uris":{"android":"levelo://app?vid=8e5bf40b-de71-4be0-b16f-081d8f219b7c","ios":"levelo://app?vid=8e5bf40b-de71-4be0-b16f-081d8f219b7c"},"vehicle_type_id":"4","last_reported":1745604816,"current_range_meters":8400,"station_id":"ce4bhgp2rcd13ifvqfc0","pricing_plan_id":"cebpf4jnsgd1na2vs0mg"},{"bike_id":"03ec5728-5a8d-475c-be69-d63e54c8d683","system_id":"levelo_inurba_marseille","lat":43.32469,"lon":5.36727,"is_reserved":false,"is_disabled":false,"rental_uris":{"android":"levelo://app?vid=03ec5728-5a8d-475c-be69-d63e54c8d683","ios":"levelo://app?vid=03ec5728-5a8d-475c-be69-d63e54c8d683"},"vehicle_type_id":"4","last_reported":1745604816,"current_range_meters":12000,"station_id":"","pricing_plan_id":"cebpf4jnsgd1na2vs0mg"},{"bike_id":"9c60ae08-b26c-4568-b58a-c000e3069d4a","system_id":"levelo_inurba_marseille","lat":43.29517,"lon":5.39405,"is_reserved":false,"is_disabled":false,"rental_uris":{"android":"levelo://app?vid=9c60ae08-b26c-4568-b58a-c000e3069d4a","ios":"levelo://app?vid=9c60ae08-b26c-4568-b58a-c000e3069d4a"},"vehicle_type_id":"4","last_reported":1745604816,"current_range_meters":12000,"station_id":"ce4bh292rcd13ifvqdf0","pricing_plan_id":"cebpf4jnsgd1na2vs0mg"},{"bike_id":"baf3993a-9585-4cdb-9001-4ac38cc2c33d","system_id":"levelo_inurba_marseille","lat":43.28623,"lon":5.35092,"is_reserved":false,"is_disabled":false,"rental_uris":{"android":"levelo://app?vid=baf3993a-9585-4cdb-9001-4ac38cc2c33d","ios":"levelo://app?vid=baf3993a-9585-4cdb-9001-4ac38cc2c33d"},"vehicle_type_id":"4","last_reported":1745604816,"current_range_meters":12000,"station_id":"ce4bhch2rcd13ifvqeug","pricing_plan_id":"cebpf4jnsgd1na2vs0mg"},{"bike_id":"1807291e-0798-4182-a244-905aa2358517","system_id":"levelo_inurba_marseille","lat":43.27614,"lon":5.36104,"is_reserved":false,"is_disabled":false,"rental_uris":{"android":"levelo://app?vid=1807291e-0798-4182-a244-905aa2358517","ios":"levelo://app?vid=1807291e-0798-4182-a244-905aa2358517"},"vehicle_type_id":"4","last_reported":1745604816,"current_range_meters":12000,"station_id":"ce4bgj92rcd13ifvqbe0","pricing_plan_id":"cebpf4jnsgd1na2vs0mg"},{"bike_id":"422b5989-c8b6-43aa-b2b9-3bfeb2e1ddc0","system_id":"levelo_inurba_marseille","lat":43.247066,"lon":5.411882,"is_reserved":false,"is_disabled":false,"rental_uris":{"android":"levelo://app?vid=422b5989-c8b6-43aa-b2b9-3bfeb2e1ddc0","ios":"levelo://app?vid=422b5989-c8b6-43aa-b2b9-3bfeb2e1ddc0"},"vehicle_type_id":"4","last_reported":1745604816,"current_range_meters":12400,"station_id":"","pricing_plan_id":"cebpf4jnsgd1na2vs0mg"},{"bike_id":"49e06051-2f7a-4614-9793-5a76d21de92c","system_id":"levelo_inurba_marseille","lat":43.28104,"lon":5.37836,"is_reserved":false,"is_disabled":false,"rental_uris":{"android":"levelo://app?vid=49e06051-2f7a-4614-9793-5a76d21de92c","ios":"levelo://app?vid=49e06051-2f7a-4614-9793-5a76d21de92c"},"vehicle_type_id":"4","last_reported":1745604816,"current_range_meters":12400,"station_id":"ce4bha12rcd13ifvqee0","pricing_plan_id":"cebpf4jnsgd1na2vs0mg"},{"bike_id":"d3a2af0b-07b4-4abf-9e40-0158c33178f0","system_id":"levelo_inurba_marseille","lat":43.31214,"lon":5.36884,"is_reserved":false,"is_disabled":false,"rental_uris":{"android":"levelo://app?vid=d3a2af0b-07b4-4abf-9e40-0158c33178f0","ios":"levelo://app?vid=d3a2af0b-07b4-4abf-9e40-0158c33178f0"},"vehicle_type_id":"4","last_reported":1745604816,"current_range_meters":12400,"station_id":"ce4bgl92rcd13ifvqbq0","pricing_plan_id":"cebpf4jnsgd1na2vs0mg"},{"bike_id":"c702923b-3673-4676-bae1-8c3c85be0452","system_id":"levelo_inurba_marseille","lat":43.26806,"lon":5.40247,"is_reserved":false,"is_disabled":false,"rental_uris":{"android":"levelo://app?vid=c702923b-3673-4676-bae1-8c3c85be0452","ios":"levelo://app?vid=c702923b-3673-4676-bae1-8c3c85be0452"},"vehicle_type_id":"4","last_reported":1745604816,"current_range_meters":12400,"station_id":"ce501612rcd8frsf0b60","pricing_plan_id":"cebpf4jnsgd1na2vs0mg"},{"bike_id":"e2dcabcf-64d8-4394-bb9a-ff877bee611a","system_id":"levelo_inurba_marseille","lat":43.32057,"lon":5.41519,"is_reserved":false,"is_disabled":false,"rental_uris":{"android":"levelo://app?vid=e2dcabcf-64d8-4394-bb9a-ff877bee611a","ios":"levelo://app?vid=e2dcabcf-64d8-4394-bb9a-ff877bee611a"},"vehicle_type_id":"4","last_reported":1745604816,"current_range_meters":12400,"station_id":"ce4bhq92rcd13ifvqhkg","pricing_plan_id":"cebpf4jnsgd1na2vs0mg"},{"bike_id":"4c11ff0f-a579-4f78-9960-a443174b0bdd","system_id":"levelo_inurba_marseille","lat":43.21191,"lon":5.35109,"is_reserved":false,"is_disabled":false,"rental_uris":{"android":"levelo://app?vid=4c11ff0f-a579-4f78-9960-a443174b0bdd","ios":"levelo://app?vid=4c11ff0f-a579-4f78-9960-a443174b0bdd"},"vehicle_type_id":"4","last_reported":1745604816,"current_range_meters":12400,"station_id":"st_cvj6sg6p6f1abm77japg","pricing_plan_id":"cebpf4jnsgd1na2vs0mg"},{"bike_id":"4e8ce4f9-111b-4922-b7d7-65c85ab97561","system_id":"levelo_inurba_marseille","lat":43.24542,"lon":5.3953,"is_reserved":false,"is_disabled":false,"rental_uris":{"android":"levelo://app?vid=4e8ce4f9-111b-4922-b7d7-65c85ab97561","ios":"levelo://app?vid=4e8ce4f9-111b-4922-b7d7-65c85ab97561"},"vehicle_type_id":"4","last_reported":1745604816,"current_range_meters":12400,"station_id":"ce4bhlp2rcd13ifvqgjg","pricing_plan_id":"cebpf4jnsgd1na2vs0mg"},{"bike_id":"c2bf1425-1d2c-4886-9511-2207273b18fb","system_id":"levelo_inurba_marseille","lat":43.28942,"lon":5.39614,"is_reserved":false,"is_disabled":false,"rental_uris":{"android":"levelo://app?vid=c2bf1425-1d2c-4886-9511-2207273b18fb","ios":"levelo://app?vid=c2bf1425-1d2c-4886-9511-2207273b18fb"},"vehicle_type_id":"4","last_reported":1745604816,"current_range_meters":12400,"station_id":"ce4bh3h2rcd13ifvqdn0","pricing_plan_id":"cebpf4jnsgd1na2vs0mg"},{"bike_id":"0bfff189-ec6a-4439-b345-e9dd168ab867","system_id":"levelo_inurba_marseille","lat":43.337171,"lon":5.39203,"is_reserved":false,"is_disabled":false,"rental_uris":{"android":"levelo://app?vid=0bfff189-ec6a-4439-b345-e9dd168ab867","ios":"levelo://app?vid=0bfff189-ec6a-4439-b345-e9dd168ab867"},"vehicle_type_id":"4","last_reported":1745604816,"current_range_meters":12400,"station_id":"ce4bhr92rcd13ifvqhsg","pricing_plan_id":"cebpf4jnsgd1na2vs0mg"},{"bike_id":"ec5092a9-c16d-4393-a2ef-528e52e05220","system_id":"levelo_inurba_marseille","lat":43.29598,"lon":5.38102,"is_reserved":false,"is_disabled":false,"rental_uris":{"android":"levelo://app?vid=ec5092a9-c16d-4393-a2ef-528e52e05220","ios":"levelo://app?vid=ec5092a9-c16d-4393-a2ef-528e52e05220"},"vehicle_type_id":"4","last_reported":1745604816,"current_range_meters":12400,"station_id":"ce4bgl12rcd13ifvqbo0","pricing_plan_id":"cebpf4jnsgd1na2vs0mg"},{"bike_id":"52300e33-d1f2-4264-9f31-7351167a7116","system_id":"levelo_inurba_marseille","lat":43.27804,"lon":5.40714,"is_reserved":false,"is_disabled":false,"rental_uris":{"android":"levelo://app?vid=52300e33-d1f2-4264-9f31-7351167a7116","ios":"levelo://app?vid=52300e33-d1f2-4264-9f31-7351167a7116"},"vehicle_type_id":"4","last_reported":1745604816,"current_range_meters":12800,"station_id":"ce4bhnh2rcd13ifvqgtg","pricing_plan_id":"cebpf4jnsgd1na2vs0mg"},{"bike_id":"cd7c45a3-d4bb-49fc-a5a6-92fe5f8ff539","system_id":"levelo_inurba_marseille","lat":43.28411,"lon":5.37516,"is_reserved":false,"is_disabled":false,"rental_uris":{"android":"levelo://app?vid=cd7c45a3-d4bb-49fc-a5a6-92fe5f8ff539","ios":"levelo://app?vid=cd7c45a3-d4bb-49fc-a5a6-92fe5f8ff539"},"vehicle_type_id":"4","last_reported":1745604816,"current_range_meters":12800,"station_id":"ce4bh412rcd13ifvqds0","pricing_plan_id":"cebpf4jnsgd1na2vs0mg"},{"bike_id":"a7c4085f-8078-4a80-85b1-1502221d9235","system_id":"levelo_inurba_marseille","lat":43.29555,"lon":5.4229,"is_reserved":false,"is_disabled":false,"rental_uris":{"android":"levelo://app?vid=a7c4085f-8078-4a80-85b1-1502221d9235","ios":"levelo://app?vid=a7c4085f-8078-4a80-85b1-1502221d9235"},"vehicle_type_id":"4","last_reported":1745604816,"current_range_meters":12800,"station_id":"ce4bhph2rcd13ifvqhdg","pricing_plan_id":"cebpf4jnsgd1na2vs0mg"},{"bike_id":"b682711b-6354-4cbb-9798-0a277eac25f3","system_id":"levelo_inurba_marseille","lat":43.30798,"lon":5.43535,"is_reserved":false,"is_disabled":false,"rental_uris":{"android":"levelo://app?vid=b682711b-6354-4cbb-9798-0a277eac25f3","ios":"levelo://app?vid=b682711b-6354-4cbb-9798-0a277eac25f3"},"vehicle_type_id":"4","last_reported":1745604816,"current_range_meters":12800,"station_id":"ce4bhph2rcd13ifvqheg","pricing_plan_id":"cebpf4jnsgd1na2vs0mg"},{"bike_id":"cd575add-27f8-4141-b098-9023799f65d6","system_id":"levelo_inurba_marseille","lat":43.29858,"lon":5.39738,"is_reserved":false,"is_disabled":false,"rental_uris":{"android":"levelo://app?vid=cd575add-27f8-4141-b098-9023799f65d6","ios":"levelo://app?vid=cd575add-27f8-4141-b098-9023799f65d6"},"vehicle_type_id":"4","last_reported":1745604816,"current_range_meters":12800,"station_id":"ce4bh0h2rcd13ifvqd50","pricing_plan_id":"cebpf4jnsgd1na2vs0mg"},{"bike_id":"0dc6b54d-d00e-4f1f-b5ae-554620440645","system_id":"levelo_inurba_marseille","lat":43.30909,"lon":5.36845,"is_reserved":false,"is_disabled":false,"rental_uris":{"android":"levelo://app?vid=0dc6b54d-d00e-4f1f-b5ae-554620440645","ios":"levelo://app?vid=0dc6b54d-d00e-4f1f-b5ae-554620440645"},"vehicle_type_id":"4","last_reported":1745604816,"current_range_meters":12800,"station_id":"ce4bgn92rcd13ifvqbvg","pricing_plan_id":"cebpf4jnsgd1na2vs0mg"},{"bike_id":"19d4f083-5145-48a3-931a-94039af86e07","system_id":"levelo_inurba_marseille","lat":43.31116,"lon":5.37757,"is_reserved":false,"is_disabled":false,"rental_uris":{"android":"levelo://app?vid=19d4f083-5145-48a3-931a-94039af86e07","ios":"levelo://app?vid=19d4f083-5145-48a3-931a-94039af86e07"},"vehicle_type_id":"4","last_reported":1745604816,"current_range_meters":12800,"station_id":"ce4bgt92rcd13ifvqcg0","pricing_plan_id":"cebpf4jnsgd1na2vs0mg"},{"bike_id":"e9284708-07a7-4752-bcaa-982891a687b8","system_id":"levelo_inurba_marseille","lat":43.302706,"lon":5.395479,"is_reserved":false,"is_disabled":false,"rental_uris":{"android":"levelo://app?vid=e9284708-07a7-4752-bcaa-982891a687b8","ios":"levelo://app?vid=e9284708-07a7-4752-bcaa-982891a687b8"},"vehicle_type_id":"4","last_reported":1745604816,"current_range_meters":12800,"station_id":"ce4bh0h2rcd13ifvqd40","pricing_plan_id":"cebpf4jnsgd1na2vs0mg"},{"bike_id":"89c3afd8-2516-49aa-a859-402ffbfdc686","system_id":"levelo_inurba_marseille","lat":43.28077,"lon":5.39658,"is_reserved":false,"is_disabled":false,"rental_uris":{"android":"levelo://app?vid=89c3afd8-2516-49aa-a859-402ffbfdc686","ios":"levelo://app?vid=89c3afd8-2516-49aa-a859-402ffbfdc686"},"vehicle_type_id":"4","last_reported":1745604816,"current_range_meters":12800,"station_id":"ce4bho12rcd13ifvqh2g","pricing_plan_id":"cebpf4jnsgd1na2vs0mg"},{"bike_id":"77699f4b-4157-4593-bca0-7f31d475f383","system_id":"levelo_inurba_marseille","lat":43.2781,"lon":5.40716,"is_reserved":false,"is_disabled":false,"rental_uris":{"android":"levelo://app?vid=77699f4b-4157-4593-bca0-7f31d475f383","ios":"levelo://app?vid=77699f4b-4157-4593-bca0-7f31d475f383"},"vehicle_type_id":"4","last_reported":1745604816,"current_range_meters":12800,"station_id":"ce4bhnh2rcd13ifvqgtg","pricing_plan_id":"cebpf4jnsgd1na2vs0mg"},{"bike_id":"c65adb3e-50be-42af-92da-68dd7e4eacc9","system_id":"levelo_inurba_marseille","lat":43.301647,"lon":5.380883,"is_reserved":false,"is_disabled":true,"rental_uris":{"android":"levelo://app?vid=c65adb3e-50be-42af-92da-68dd7e4eacc9","ios":"levelo://app?vid=c65adb3e-50be-42af-92da-68dd7e4eacc9"},"vehicle_type_id":"4","last_reported":1745604816,"current_range_meters":12800,"station_id":"ce4bgjp2rcd13ifvqbh0","pricing_plan_id":"cebpf4jnsgd1na2vs0mg"},{"bike_id":"4a1493c7-4895-480a-b90d-11ec623fa9d5","system_id":"levelo_inurba_marseille","lat":43.28473,"lon":5.384132,"is_reserved":false,"is_disabled":false,"rental_uris":{"android":"levelo://app?vid=4a1493c7-4895-480a-b90d-11ec623fa9d5","ios":"levelo://app?vid=4a1493c7-4895-480a-b90d-11ec623fa9d5"},"vehicle_type_id":"4","last_reported":1745604816,"current_range_meters":13600,"station_id":"ce4bh512rcd13ifvqe3g","pricing_plan_id":"cebpf4jnsgd1na2vs0mg"},{"bike_id":"24ff11a2-c294-4f2b-9ee1-38557899de87","system_id":"levelo_inurba_marseille","lat":43.301089,"lon":5.398847,"is_reserved":false,"is_disabled":false,"rental_uris":{"android":"levelo://app?vid=24ff11a2-c294-4f2b-9ee1-38557899de87","ios":"levelo://app?vid=24ff11a2-c294-4f2b-9ee1-38557899de87"},"vehicle_type_id":"4","last_reported":1745604816,"current_range_meters":13600,"station_id":"ce4bh0h2rcd13ifvqd40","pricing_plan_id":"cebpf4jnsgd1na2vs0mg"},{"bike_id":"856c43a0-e171-4181-9814-dddc2db08fc7","system_id":"levelo_inurba_marseille","lat":43.29931,"lon":5.3655,"is_reserved":false,"is_disabled":false,"rental_uris":{"android":"levelo://app?vid=856c43a0-e171-4181-9814-dddc2db08fc7","ios":"levelo://app?vid=856c43a0-e171-4181-9814-dddc2db08fc7"},"vehicle_type_id":"4","last_reported":1745604816,"current_range_meters":13600,"station_id":"ce4bgs92rcd13ifvqcc0","pricing_plan_id":"cebpf4jnsgd1na2vs0mg"},{"bike_id":"2d1ec450-feed-498f-8c2e-b7bcb0bf4860","system_id":"levelo_inurba_marseille","lat":43.30944,"lon":5.39035,"is_reserved":false,"is_disabled":false,"rental_uris":{"android":"levelo://app?vid=2d1ec450-feed-498f-8c2e-b7bcb0bf4860","ios":"levelo://app?vid=2d1ec450-feed-498f-8c2e-b7bcb0bf4860"},"vehicle_type_id":"4","last_reported":1745604816,"current_range_meters":13600,"station_id":"ce4bgup2rcd13ifvqco0","pricing_plan_id":"cebpf4jnsgd1na2vs0mg"},{"bike_id":"e90112e4-419c-4ca8-88e0-00d308536189","system_id":"levelo_inurba_marseille","lat":43.289657,"lon":5.378365,"is_reserved":false,"is_disabled":false,"rental_uris":{"android":"levelo://app?vid=e90112e4-419c-4ca8-88e0-00d308536189","ios":"levelo://app?vid=e90112e4-419c-4ca8-88e0-00d308536189"},"vehicle_type_id":"4","last_reported":1745604816,"current_range_meters":14000,"station_id":"ce4bhh92rcd13ifvqfi0","pricing_plan_id":"cebpf4jnsgd1na2vs0mg"},{"bike_id":"c60158e7-eec6-45fa-afa1-911a11f3106b","system_id":"levelo_inurba_marseille","lat":43.299774,"lon":5.385347,"is_reserved":false,"is_disabled":false,"rental_uris":{"android":"levelo://app?vid=c60158e7-eec6-45fa-afa1-911a11f3106b","ios":"levelo://app?vid=c60158e7-eec6-45fa-afa1-911a11f3106b"},"vehicle_type_id":"4","last_reported":1745604816,"current_range_meters":14000,"station_id":"ce4bgj92rcd13ifvqbd0","pricing_plan_id":"cebpf4jnsgd1na2vs0mg"},{"bike_id":"ca039128-babe-4be1-8e90-24d16545e568","system_id":"levelo_inurba_marseille","lat":43.29378,"lon":5.37834,"is_reserved":false,"is_disabled":false,"rental_uris":{"android":"levelo://app?vid=ca039128-babe-4be1-8e90-24d16545e568","ios":"levelo://app?vid=ca039128-babe-4be1-8e90-24d16545e568"},"vehicle_type_id":"4","last_reported":1745604816,"current_range_meters":14400,"station_id":"ce4bgjh2rcd13ifvqbf0","pricing_plan_id":"cebpf4jnsgd1na2vs0mg"},{"bike_id":"262de007-d0f9-4b5c-9db4-1c829c9329a9","system_id":"levelo_inurba_marseille","lat":43.27942,"lon":5.41046,"is_reserved":false,"is_disabled":false,"rental_uris":{"android":"levelo://app?vid=262de007-d0f9-4b5c-9db4-1c829c9329a9","ios":"levelo://app?vid=262de007-d0f9-4b5c-9db4-1c829c9329a9"},"vehicle_type_id":"4","last_reported":1745604816,"current_range_meters":14800,"station_id":"ce4bhnp2rcd13ifvqh0g","pricing_plan_id":"cebpf4jnsgd1na2vs0mg"},{"bike_id":"b6c6d9f7-b123-42c6-8ea7-68299b7c9958","system_id":"levelo_inurba_marseille","lat":43.324,"lon":5.39156,"is_reserved":false,"is_disabled":false,"rental_uris":{"android":"levelo://app?vid=b6c6d9f7-b123-42c6-8ea7-68299b7c9958","ios":"levelo://app?vid=b6c6d9f7-b123-42c6-8ea7-68299b7c9958"},"vehicle_type_id":"4","last_reported":1745604816,"current_range_meters":14800,"station_id":"","pricing_plan_id":"cebpf4jnsgd1na2vs0mg"},{"bike_id":"8e33e3c9-17a9-4b1e-97e8-7f2ba7e86b68","system_id":"levelo_inurba_marseille","lat":43.266167,"lon":5.372692,"is_reserved":false,"is_disabled":false,"rental_uris":{"android":"levelo://app?vid=8e33e3c9-17a9-4b1e-97e8-7f2ba7e86b68","ios":"levelo://app?vid=8e33e3c9-17a9-4b1e-97e8-7f2ba7e86b68"},"vehicle_type_id":"4","last_reported":1745604816,"current_range_meters":14800,"station_id":"ce4bgkp2rcd13ifvqbmg","pricing_plan_id":"cebpf4jnsgd1na2vs0mg"},{"bike_id":"d73245df-ea0f-4de3-9923-299eb48693b3","system_id":"levelo_inurba_marseille","lat":43.288545,"lon":5.358425,"is_reserved":false,"is_disabled":false,"rental_uris":{"android":"levelo://app?vid=d73245df-ea0f-4de3-9923-299eb48693b3","ios":"levelo://app?vid=d73245df-ea0f-4de3-9923-299eb48693b3"},"vehicle_type_id":"4","last_reported":1745604816,"current_range_meters":14800,"station_id":"ce4bhbh2rcd13ifvqeo0","pricing_plan_id":"cebpf4jnsgd1na2vs0mg"},{"bike_id":"ec5f1667-0436-4eda-ad90-b2165f76a59a","system_id":"levelo_inurba_marseille","lat":43.28154,"lon":5.4265,"is_reserved":false,"is_disabled":false,"rental_uris":{"android":"levelo://app?vid=ec5f1667-0436-4eda-ad90-b2165f76a59a","ios":"levelo://app?vid=ec5f1667-0436-4eda-ad90-b2165f76a59a"},"vehicle_type_id":"4","last_reported":1745604816,"current_range_meters":15200,"station_id":"ce4bhnh2rcd13ifvqgug","pricing_plan_id":"cebpf4jnsgd1na2vs0mg"},{"bike_id":"568053e1-9183-4cee-acca-959027493876","system_id":"levelo_inurba_marseille","lat":43.30914,"lon":5.36834,"is_reserved":false,"is_disabled":true,"rental_uris":{"android":"levelo://app?vid=568053e1-9183-4cee-acca-959027493876","ios":"levelo://app?vid=568053e1-9183-4cee-acca-959027493876"},"vehicle_type_id":"4","last_reported":1745604816,"current_range_meters":15200,"station_id":"ce4bgn92rcd13ifvqbvg","pricing_plan_id":"cebpf4jnsgd1na2vs0mg"},{"bike_id":"1b835e53-da1a-4ed9-8d1d-e7ae18f850ec","system_id":"levelo_inurba_marseille","lat":43.280419,"lon":5.36951,"is_reserved":false,"is_disabled":false,"rental_uris":{"android":"levelo://app?vid=1b835e53-da1a-4ed9-8d1d-e7ae18f850ec","ios":"levelo://app?vid=1b835e53-da1a-4ed9-8d1d-e7ae18f850ec"},"vehicle_type_id":"4","last_reported":1745604816,"current_range_meters":14800,"station_id":"ce4bha12rcd13ifvqef0","pricing_plan_id":"cebpf4jnsgd1na2vs0mg"},{"bike_id":"af6af1ea-83a0-4448-a6b9-d143557f7290","system_id":"levelo_inurba_marseille","lat":43.27029,"lon":5.40216,"is_reserved":false,"is_disabled":false,"rental_uris":{"android":"levelo://app?vid=af6af1ea-83a0-4448-a6b9-d143557f7290","ios":"levelo://app?vid=af6af1ea-83a0-4448-a6b9-d143557f7290"},"vehicle_type_id":"4","last_reported":1745604816,"current_range_meters":15200,"station_id":"ce4bhk92rcd13ifvqgc0","pricing_plan_id":"cebpf4jnsgd1na2vs0mg"},{"bike_id":"b80f07f3-c7a6-40df-a853-431c03f61dc4","system_id":"levelo_inurba_marseille","lat":43.28408,"lon":5.37517,"is_reserved":false,"is_disabled":false,"rental_uris":{"android":"levelo://app?vid=b80f07f3-c7a6-40df-a853-431c03f61dc4","ios":"levelo://app?vid=b80f07f3-c7a6-40df-a853-431c03f61dc4"},"vehicle_type_id":"4","last_reported":1745604816,"current_range_meters":15200,"station_id":"ce4bh412rcd13ifvqds0","pricing_plan_id":"cebpf4jnsgd1na2vs0mg"},{"bike_id":"b5f3830b-9cf3-4a7e-9fb4-0c12bdb8f4d4","system_id":"levelo_inurba_marseille","lat":43.29049,"lon":5.35921,"is_reserved":false,"is_disabled":false,"rental_uris":{"android":"levelo://app?vid=b5f3830b-9cf3-4a7e-9fb4-0c12bdb8f4d4","ios":"levelo://app?vid=b5f3830b-9cf3-4a7e-9fb4-0c12bdb8f4d4"},"vehicle_type_id":"4","last_reported":1745604816,"current_range_meters":15200,"station_id":"ce4bha92rcd13ifvqeg0","pricing_plan_id":"cebpf4jnsgd1na2vs0mg"},{"bike_id":"c046728f-b45a-47a0-8bba-da769c3efd25","system_id":"levelo_inurba_marseille","lat":43.31336,"lon":5.36728,"is_reserved":false,"is_disabled":false,"rental_uris":{"android":"levelo://app?vid=c046728f-b45a-47a0-8bba-da769c3efd25","ios":"levelo://app?vid=c046728f-b45a-47a0-8bba-da769c3efd25"},"vehicle_type_id":"4","last_reported":1745604816,"current_range_meters":16000,"station_id":"ce4bgr92rcd13ifvqc6g","pricing_plan_id":"cebpf4jnsgd1na2vs0mg"},{"bike_id":"0a43d2eb-dde7-4702-88ea-6ee9a8155069","system_id":"levelo_inurba_marseille","lat":43.260589,"lon":5.393953,"is_reserved":false,"is_disabled":false,"rental_uris":{"android":"levelo://app?vid=0a43d2eb-dde7-4702-88ea-6ee9a8155069","ios":"levelo://app?vid=0a43d2eb-dde7-4702-88ea-6ee9a8155069"},"vehicle_type_id":"4","last_reported":1745604816,"current_range_meters":16000,"station_id":"ce4bhh92rcd13ifvqfj0","pricing_plan_id":"cebpf4jnsgd1na2vs0mg"},{"bike_id":"d4fac4f8-0a33-4fba-a520-ef4f03ca4bb4","system_id":"levelo_inurba_marseille","lat":43.30948,"lon":5.39029,"is_reserved":false,"is_disabled":false,"rental_uris":{"android":"levelo://app?vid=d4fac4f8-0a33-4fba-a520-ef4f03ca4bb4","ios":"levelo://app?vid=d4fac4f8-0a33-4fba-a520-ef4f03ca4bb4"},"vehicle_type_id":"4","last_reported":1745604816,"current_range_meters":16000,"station_id":"ce4bgup2rcd13ifvqco0","pricing_plan_id":"cebpf4jnsgd1na2vs0mg"},{"bike_id":"49a5be0b-2b23-4d57-a2bd-3a5d802fab0b","system_id":"levelo_inurba_marseille","lat":43.29006,"lon":5.35617,"is_reserved":false,"is_disabled":true,"rental_uris":{"android":"levelo://app?vid=49a5be0b-2b23-4d57-a2bd-3a5d802fab0b","ios":"levelo://app?vid=49a5be0b-2b23-4d57-a2bd-3a5d802fab0b"},"vehicle_type_id":"4","last_reported":1745604816,"current_range_meters":16000,"station_id":"ce4bhb92rcd13ifvqen0","pricing_plan_id":"cebpf4jnsgd1na2vs0mg"},{"bike_id":"ffce1071-921f-431a-8edb-e60c46a1da21","system_id":"levelo_inurba_marseille","lat":43.29549,"lon":5.42289,"is_reserved":false,"is_disabled":false,"rental_uris":{"android":"levelo://app?vid=ffce1071-921f-431a-8edb-e60c46a1da21","ios":"levelo://app?vid=ffce1071-921f-431a-8edb-e60c46a1da21"},"vehicle_type_id":"4","last_reported":1745604816,"current_range_meters":16400,"station_id":"ce4bhph2rcd13ifvqhdg","pricing_plan_id":"cebpf4jnsgd1na2vs0mg"},{"bike_id":"27f20efb-9bf4-43c5-882b-de5a9e5c6c3c","system_id":"levelo_inurba_marseille","lat":43.29266,"lon":5.38427,"is_reserved":false,"is_disabled":false,"rental_uris":{"android":"levelo://app?vid=27f20efb-9bf4-43c5-882b-de5a9e5c6c3c","ios":"levelo://app?vid=27f20efb-9bf4-43c5-882b-de5a9e5c6c3c"},"vehicle_type_id":"4","last_reported":1745604816,"current_range_meters":16400,"station_id":"ce4bh692rcd13ifvqea0","pricing_plan_id":"cebpf4jnsgd1na2vs0mg"},{"bike_id":"9cab2a7f-a285-45fb-8775-ae6cc0ee14e9","system_id":"levelo_inurba_marseille","lat":43.28934,"lon":5.36635,"is_reserved":false,"is_disabled":false,"rental_uris":{"android":"levelo://app?vid=9cab2a7f-a285-45fb-8775-ae6cc0ee14e9","ios":"levelo://app?vid=9cab2a7f-a285-45fb-8775-ae6cc0ee14e9"},"vehicle_type_id":"4","last_reported":1745604816,"current_range_meters":16400,"station_id":"ce4bhap2rcd13ifvqek0","pricing_plan_id":"cebpf4jnsgd1na2vs0mg"},{"bike_id":"6578750a-cec8-46c8-96c8-133a75eddf63","system_id":"levelo_inurba_marseille","lat":43.31325,"lon":5.39692,"is_reserved":false,"is_disabled":false,"rental_uris":{"android":"levelo://app?vid=6578750a-cec8-46c8-96c8-133a75eddf63","ios":"levelo://app?vid=6578750a-cec8-46c8-96c8-133a75eddf63"},"vehicle_type_id":"4","last_reported":1745604816,"current_range_meters":16400,"station_id":"ce4bgvp2rcd13ifvqcu0","pricing_plan_id":"cebpf4jnsgd1na2vs0mg"},{"bike_id":"987d7900-bb2a-45cb-bed7-6d69f6fd4fa3","system_id":"levelo_inurba_marseille","lat":43.28496,"lon":5.38461,"is_reserved":false,"is_disabled":false,"rental_uris":{"android":"levelo://app?vid=987d7900-bb2a-45cb-bed7-6d69f6fd4fa3","ios":"levelo://app?vid=987d7900-bb2a-45cb-bed7-6d69f6fd4fa3"},"vehicle_type_id":"4","last_reported":1745604816,"current_range_meters":16400,"station_id":"ce4bh512rcd13ifvqe3g","pricing_plan_id":"cebpf4jnsgd1na2vs0mg"},{"bike_id":"0afd65b3-f25a-42cb-ba9f-b2d772ef38e3","system_id":"levelo_inurba_marseille","lat":43.28021,"lon":5.36953,"is_reserved":false,"is_disabled":false,"rental_uris":{"android":"levelo://app?vid=0afd65b3-f25a-42cb-ba9f-b2d772ef38e3","ios":"levelo://app?vid=0afd65b3-f25a-42cb-ba9f-b2d772ef38e3"},"vehicle_type_id":"4","last_reported":1745604816,"current_range_meters":16400,"station_id":"ce4bha12rcd13ifvqef0","pricing_plan_id":"cebpf4jnsgd1na2vs0mg"},{"bike_id":"5c59969d-437f-43ab-990f-664c9830a931","system_id":"levelo_inurba_marseille","lat":43.31381,"lon":5.38651,"is_reserved":false,"is_disabled":false,"rental_uris":{"android":"levelo://app?vid=5c59969d-437f-43ab-990f-664c9830a931","ios":"levelo://app?vid=5c59969d-437f-43ab-990f-664c9830a931"},"vehicle_type_id":"4","last_reported":1745604816,"current_range_meters":16800,"station_id":"","pricing_plan_id":"cebpf4jnsgd1na2vs0mg"},{"bike_id":"ac14fa8d-dd1d-4c45-b20e-3cf52551c904","system_id":"levelo_inurba_marseille","lat":43.29894,"lon":5.43669,"is_reserved":false,"is_disabled":false,"rental_uris":{"android":"levelo://app?vid=ac14fa8d-dd1d-4c45-b20e-3cf52551c904","ios":"levelo://app?vid=ac14fa8d-dd1d-4c45-b20e-3cf52551c904"},"vehicle_type_id":"4","last_reported":1745604816,"current_range_meters":16800,"station_id":"ce4bhpp2rcd13ifvqhfg","pricing_plan_id":"cebpf4jnsgd1na2vs0mg"},{"bike_id":"7fe1ad88-6f9b-4569-bb5f-c6e6a0381210","system_id":"levelo_inurba_marseille","lat":43.30798,"lon":5.43522,"is_reserved":false,"is_disabled":false,"rental_uris":{"android":"levelo://app?vid=7fe1ad88-6f9b-4569-bb5f-c6e6a0381210","ios":"levelo://app?vid=7fe1ad88-6f9b-4569-bb5f-c6e6a0381210"},"vehicle_type_id":"4","last_reported":1745604816,"current_range_meters":16800,"station_id":"ce4bhph2rcd13ifvqheg","pricing_plan_id":"cebpf4jnsgd1na2vs0mg"},{"bike_id":"51a4b1f4-4cfb-4b9e-b7e6-50254ee4c796","system_id":"levelo_inurba_marseille","lat":43.28615,"lon":5.37082,"is_reserved":false,"is_disabled":true,"rental_uris":{"android":"levelo://app?vid=51a4b1f4-4cfb-4b9e-b7e6-50254ee4c796","ios":"levelo://app?vid=51a4b1f4-4cfb-4b9e-b7e6-50254ee4c796"},"vehicle_type_id":"4","last_reported":1745604816,"current_range_meters":16800,"station_id":"ce4bht12rcd13ifvqi60","pricing_plan_id":"cebpf4jnsgd1na2vs0mg"},{"bike_id":"ae725367-6a5a-4812-84d0-421018825f98","system_id":"levelo_inurba_marseille","lat":43.304183,"lon":5.412859,"is_reserved":false,"is_disabled":false,"rental_uris":{"android":"levelo://app?vid=ae725367-6a5a-4812-84d0-421018825f98","ios":"levelo://app?vid=ae725367-6a5a-4812-84d0-421018825f98"},"vehicle_type_id":"4","last_reported":1745604816,"current_range_meters":17200,"station_id":"ce4bhop2rcd13ifvqh8g","pricing_plan_id":"cebpf4jnsgd1na2vs0mg"},{"bike_id":"f3fb299c-e274-45a5-817d-948be90d2ec3","system_id":"levelo_inurba_marseille","lat":43.26566,"lon":5.39004,"is_reserved":false,"is_disabled":false,"rental_uris":{"android":"levelo://app?vid=f3fb299c-e274-45a5-817d-948be90d2ec3","ios":"levelo://app?vid=f3fb299c-e274-45a5-817d-948be90d2ec3"},"vehicle_type_id":"4","last_reported":1745604816,"current_range_meters":17200,"station_id":"ce4bhe12rcd13ifvqf30","pricing_plan_id":"cebpf4jnsgd1na2vs0mg"},{"bike_id":"13967125-01c3-4ad2-917a-6a6e82357a91","system_id":"levelo_inurba_marseille","lat":43.31768,"lon":5.39025,"is_reserved":false,"is_disabled":false,"rental_uris":{"android":"levelo://app?vid=13967125-01c3-4ad2-917a-6a6e82357a91","ios":"levelo://app?vid=13967125-01c3-4ad2-917a-6a6e82357a91"},"vehicle_type_id":"4","last_reported":1745604816,"current_range_meters":16800,"station_id":"ce4bhqp2rcd13ifvqhng","pricing_plan_id":"cebpf4jnsgd1na2vs0mg"},{"bike_id":"31de0553-c9b8-4cd4-844d-7d7b36fa3ecd","system_id":"levelo_inurba_marseille","lat":43.28159,"lon":5.42629,"is_reserved":false,"is_disabled":false,"rental_uris":{"android":"levelo://app?vid=31de0553-c9b8-4cd4-844d-7d7b36fa3ecd","ios":"levelo://app?vid=31de0553-c9b8-4cd4-844d-7d7b36fa3ecd"},"vehicle_type_id":"4","last_reported":1745604816,"current_range_meters":17200,"station_id":"ce4bhnh2rcd13ifvqgug","pricing_plan_id":"cebpf4jnsgd1na2vs0mg"},{"bike_id":"0370b3f6-a647-4ce6-85ee-a160c04dbccb","system_id":"levelo_inurba_marseille","lat":43.24555,"lon":5.3951,"is_reserved":false,"is_disabled":false,"rental_uris":{"android":"levelo://app?vid=0370b3f6-a647-4ce6-85ee-a160c04dbccb","ios":"levelo://app?vid=0370b3f6-a647-4ce6-85ee-a160c04dbccb"},"vehicle_type_id":"4","last_reported":1745604816,"current_range_meters":17200,"station_id":"ce4bhlp2rcd13ifvqgjg","pricing_plan_id":"cebpf4jnsgd1na2vs0mg"},{"bike_id":"6af27718-a240-4511-b105-026b1985396f","system_id":"levelo_inurba_marseille","lat":43.29614,"lon":5.36276,"is_reserved":false,"is_disabled":false,"rental_uris":{"android":"levelo://app?vid=6af27718-a240-4511-b105-026b1985396f","ios":"levelo://app?vid=6af27718-a240-4511-b105-026b1985396f"},"vehicle_type_id":"4","last_reported":1745604816,"current_range_meters":17200,"station_id":"","pricing_plan_id":"cebpf4jnsgd1na2vs0mg"},{"bike_id":"009b4d31-b1e1-449b-99fe-26b589d67db6","system_id":"levelo_inurba_marseille","lat":43.28624,"lon":5.37058,"is_reserved":false,"is_disabled":false,"rental_uris":{"android":"levelo://app?vid=009b4d31-b1e1-449b-99fe-26b589d67db6","ios":"levelo://app?vid=009b4d31-b1e1-449b-99fe-26b589d67db6"},"vehicle_type_id":"4","last_reported":1745604816,"current_range_meters":17200,"station_id":"ce4bht12rcd13ifvqi60","pricing_plan_id":"cebpf4jnsgd1na2vs0mg"},{"bike_id":"920ea5a6-0116-47fc-9c56-b4db7f3a4053","system_id":"levelo_inurba_marseille","lat":43.30801,"lon":5.43518,"is_reserved":false,"is_disabled":false,"rental_uris":{"android":"levelo://app?vid=920ea5a6-0116-47fc-9c56-b4db7f3a4053","ios":"levelo://app?vid=920ea5a6-0116-47fc-9c56-b4db7f3a4053"},"vehicle_type_id":"4","last_reported":1745604816,"current_range_meters":17600,"station_id":"ce4bhph2rcd13ifvqheg","pricing_plan_id":"cebpf4jnsgd1na2vs0mg"},{"bike_id":"6970245c-72f6-4d51-a66c-01425d3eddc9","system_id":"levelo_inurba_marseille","lat":43.29909,"lon":5.38142,"is_reserved":false,"is_disabled":false,"rental_uris":{"android":"levelo://app?vid=6970245c-72f6-4d51-a66c-01425d3eddc9","ios":"levelo://app?vid=6970245c-72f6-4d51-a66c-01425d3eddc9"},"vehicle_type_id":"4","last_reported":1745604816,"current_range_meters":17600,"station_id":"ce4bgj12rcd13ifvqbc0","pricing_plan_id":"cebpf4jnsgd1na2vs0mg"},{"bike_id":"b565ceb4-9f51-406a-ba3c-7dad4264acca","system_id":"levelo_inurba_marseille","lat":43.32482,"lon":5.36555,"is_reserved":false,"is_disabled":false,"rental_uris":{"android":"levelo://app?vid=b565ceb4-9f51-406a-ba3c-7dad4264acca","ios":"levelo://app?vid=b565ceb4-9f51-406a-ba3c-7dad4264acca"},"vehicle_type_id":"4","last_reported":1745604816,"current_range_meters":17600,"station_id":"ce4bhs12rcd13ifvqhvg","pricing_plan_id":"cebpf4jnsgd1na2vs0mg"},{"bike_id":"f253dbf1-2a54-4f08-8c72-a6001f6e9588","system_id":"levelo_inurba_marseille","lat":43.310783,"lon":5.383528,"is_reserved":false,"is_disabled":false,"rental_uris":{"android":"levelo://app?vid=f253dbf1-2a54-4f08-8c72-a6001f6e9588","ios":"levelo://app?vid=f253dbf1-2a54-4f08-8c72-a6001f6e9588"},"vehicle_type_id":"4","last_reported":1745604816,"current_range_meters":17600,"station_id":"ce4bgv92rcd13ifvqcr0","pricing_plan_id":"cebpf4jnsgd1na2vs0mg"},{"bike_id":"4741e6af-20c0-42f4-b950-4d85a1b8cba0","system_id":"levelo_inurba_marseille","lat":43.30828,"lon":5.37915,"is_reserved":false,"is_disabled":false,"rental_uris":{"android":"levelo://app?vid=4741e6af-20c0-42f4-b950-4d85a1b8cba0","ios":"levelo://app?vid=4741e6af-20c0-42f4-b950-4d85a1b8cba0"},"vehicle_type_id":"4","last_reported":1745604816,"current_range_meters":17600,"station_id":"","pricing_plan_id":"cebpf4jnsgd1na2vs0mg"},{"bike_id":"e3cdf67a-5fc2-4703-9c39-57d29454c8ba","system_id":"levelo_inurba_marseille","lat":43.340425,"lon":5.386994,"is_reserved":false,"is_disabled":false,"rental_uris":{"android":"levelo://app?vid=e3cdf67a-5fc2-4703-9c39-57d29454c8ba","ios":"levelo://app?vid=e3cdf67a-5fc2-4703-9c39-57d29454c8ba"},"vehicle_type_id":"4","last_reported":1745604816,"current_range_meters":18000,"station_id":"","pricing_plan_id":"cebpf4jnsgd1na2vs0mg"},{"bike_id":"4046a82f-66e8-4b55-bd0a-356edea772d8","system_id":"levelo_inurba_marseille","lat":43.30786,"lon":5.37416,"is_reserved":false,"is_disabled":false,"rental_uris":{"android":"levelo://app?vid=4046a82f-66e8-4b55-bd0a-356edea772d8","ios":"levelo://app?vid=4046a82f-66e8-4b55-bd0a-356edea772d8"},"vehicle_type_id":"4","last_reported":1745604816,"current_range_meters":18000,"station_id":"","pricing_plan_id":"cebpf4jnsgd1na2vs0mg"},{"bike_id":"07dbcea6-efda-4414-802a-ff4af4d4b95a","system_id":"levelo_inurba_marseille","lat":43.31715,"lon":5.43712,"is_reserved":false,"is_disabled":false,"rental_uris":{"android":"levelo://app?vid=07dbcea6-efda-4414-802a-ff4af4d4b95a","ios":"levelo://app?vid=07dbcea6-efda-4414-802a-ff4af4d4b95a"},"vehicle_type_id":"4","last_reported":1745604816,"current_range_meters":18000,"station_id":"ce4bhp92rcd13ifvqhcg","pricing_plan_id":"cebpf4jnsgd1na2vs0mg"},{"bike_id":"d28bf9af-5868-40cf-bc78-dd7cb5c022b5","system_id":"levelo_inurba_marseille","lat":43.29975,"lon":5.38503,"is_reserved":false,"is_disabled":true,"rental_uris":{"android":"levelo://app?vid=d28bf9af-5868-40cf-bc78-dd7cb5c022b5","ios":"levelo://app?vid=d28bf9af-5868-40cf-bc78-dd7cb5c022b5"},"vehicle_type_id":"4","last_reported":1745604816,"current_range_meters":18000,"station_id":"ce4bgj92rcd13ifvqbd0","pricing_plan_id":"cebpf4jnsgd1na2vs0mg"},{"bike_id":"444de572-452b-45fb-b735-240e9f9f4413","system_id":"levelo_inurba_marseille","lat":43.25102,"lon":5.37559,"is_reserved":false,"is_disabled":false,"rental_uris":{"android":"levelo://app?vid=444de572-452b-45fb-b735-240e9f9f4413","ios":"levelo://app?vid=444de572-452b-45fb-b735-240e9f9f4413"},"vehicle_type_id":"4","last_reported":1745604816,"current_range_meters":18800,"station_id":"","pricing_plan_id":"cebpf4jnsgd1na2vs0mg"},{"bike_id":"0a147781-9e4d-49f1-b38c-ccd4602f84ab","system_id":"levelo_inurba_marseille","lat":43.27918,"lon":5.39589,"is_reserved":false,"is_disabled":false,"rental_uris":{"android":"levelo://app?vid=0a147781-9e4d-49f1-b38c-ccd4602f84ab","ios":"levelo://app?vid=0a147781-9e4d-49f1-b38c-ccd4602f84ab"},"vehicle_type_id":"4","last_reported":1745604816,"current_range_meters":18000,"station_id":"ce4bhf92rcd13ifvqf40","pricing_plan_id":"cebpf4jnsgd1na2vs0mg"},{"bike_id":"79ffd577-c06f-4898-b813-2dd8142120d9","system_id":"levelo_inurba_marseille","lat":43.28614,"lon":5.35095,"is_reserved":false,"is_disabled":false,"rental_uris":{"android":"levelo://app?vid=79ffd577-c06f-4898-b813-2dd8142120d9","ios":"levelo://app?vid=79ffd577-c06f-4898-b813-2dd8142120d9"},"vehicle_type_id":"4","last_reported":1745604816,"current_range_meters":18000,"station_id":"ce4bhch2rcd13ifvqeug","pricing_plan_id":"cebpf4jnsgd1na2vs0mg"},{"bike_id":"358f46f3-e169-4a31-8c22-639ddadbc7a4","system_id":"levelo_inurba_marseille","lat":43.262756,"lon":5.374178,"is_reserved":false,"is_disabled":false,"rental_uris":{"android":"levelo://app?vid=358f46f3-e169-4a31-8c22-639ddadbc7a4","ios":"levelo://app?vid=358f46f3-e169-4a31-8c22-639ddadbc7a4"},"vehicle_type_id":"4","last_reported":1745604816,"current_range_meters":18000,"station_id":"ce4bgj92rcd13ifvqbe0","pricing_plan_id":"cebpf4jnsgd1na2vs0mg"},{"bike_id":"9fac8949-580c-4814-ac69-31148581f4a2","system_id":"levelo_inurba_marseille","lat":43.33005,"lon":5.39139,"is_reserved":false,"is_disabled":false,"rental_uris":{"android":"levelo://app?vid=9fac8949-580c-4814-ac69-31148581f4a2","ios":"levelo://app?vid=9fac8949-580c-4814-ac69-31148581f4a2"},"vehicle_type_id":"4","last_reported":1745604816,"current_range_meters":18000,"station_id":"","pricing_plan_id":"cebpf4jnsgd1na2vs0mg"},{"bike_id":"4c033cd2-a5fe-4dc6-9867-cf212e16a40f","system_id":"levelo_inurba_marseille","lat":43.29578,"lon":5.36738,"is_reserved":false,"is_disabled":false,"rental_uris":{"android":"levelo://app?vid=4c033cd2-a5fe-4dc6-9867-cf212e16a40f","ios":"levelo://app?vid=4c033cd2-a5fe-4dc6-9867-cf212e16a40f"},"vehicle_type_id":"4","last_reported":1745604816,"current_range_meters":18800,"station_id":"ce4bgph2rcd13ifvqc2g","pricing_plan_id":"cebpf4jnsgd1na2vs0mg"},{"bike_id":"a91a425f-c874-4ae8-8c70-425d15d54624","system_id":"levelo_inurba_marseille","lat":43.29872,"lon":5.39731,"is_reserved":false,"is_disabled":false,"rental_uris":{"android":"levelo://app?vid=a91a425f-c874-4ae8-8c70-425d15d54624","ios":"levelo://app?vid=a91a425f-c874-4ae8-8c70-425d15d54624"},"vehicle_type_id":"4","last_reported":1745604816,"current_range_meters":18800,"station_id":"ce4bh0h2rcd13ifvqd50","pricing_plan_id":"cebpf4jnsgd1na2vs0mg"},