{"last_updated":1685397983,"ttl":30,"version":"2.2","data":{"bikes":[{"bike_id":"8def1d03-e0f0-4546-a13d-0d93ecc5df11","system_id":"levelo_inurba_marseille","lat":43.313391,"lon":5.36706,"is_reserved":false,"is_disabled":false,"rental_uris":{"android":"levelo://app?vid=8def1d03-e0f0-4546-a13d-0d93ecc5df11","ios":"levelo://app?vid=8def1d03-e0f0-4546-a13d-0d93ecc5df11"},"vehicle_type_id":"4","last_reported":1685397983,"current_range_meters":13200,"station_id":"ce4bgr92rcd13ifvqc6g","pricing_plan_id":"free"},{"bike_id":"bec845d2-2d87-4937-aacc-788b846ce2cd","system_id":"levelo_inurba_marseille","lat":43.31341,"lon":5.367098,"is_reserved":false,"is_disabled":false,"rental_uris":{"android":"levelo://app?vid=bec845d2-2d87-4937-aacc-788b846ce2cd","ios":"levelo://app?vid=bec845d2-2d87-4937-aacc-788b846ce2cd"},"vehicle_type_id":"4","last_reported":1685397983,"current_range_meters":17600,"station_id":"ce4bgr92rcd13ifvqc6g","pricing_plan_id":"free"},{"bike_id":"e08eda01-b452-4e01-9b74-f7bdbd308eb5","system_id":"levelo_inurba_marseille","lat":43.31341,"lon":5.367098,"is_reserved":false,"is_disabled":false,"rental_uris":{"android":"levelo://app?vid=e08eda01-b452-4e01-9b74-f7bdbd308eb5","ios":"levelo://app?vid=e08eda01-b452-4e01-9b74-f7bdbd308eb5"},"vehicle_type_id":"4","last_reported":1685397983,"current_range_meters":16800,"station_id":"ce4bgr92rcd13ifvqc6g","pricing_plan_id":"free"},{"bike_id":"f69a3f8a-adab-435a-ad98-4302ca7a3c35","system_id":"levelo_inurba_marseille","lat":43.312239,"lon":5.368562,"is_reserved":false,"is_disabled":false,"rental_uris":{"android":"levelo://app?vid=f69a3f8a-adab-435a-ad98-4302ca7a3c35","ios":"levelo://app?vid=f69a3f8a-adab-435a-ad98-4302ca7a3c35"},"vehicle_type_id":"4","last_reported":1685397983,"current_range_meters":24800,"station_id":"ce4bgl92rcd13ifvqbq0","pricing_plan_id":"free"},{"bike_id":"6a1b2239-b3ba-4402-9bf6-1b600d0c9e36","system_id":"levelo_inurba_marseille","lat":43.312239,"lon":5.368562,"is_reserved":false,"is_disabled":false,"rental_uris":{"android":"levelo://app?vid=6a1b2239-b3ba-4402-9bf6-1b600d0c9e36","ios":"levelo://app?vid=6a1b2239-b3ba-4402-9bf6-1b600d0c9e36"},"vehicle_type_id":"4","last_reported":1685397983,"current_range_meters":24400,"station_id":"ce4bgl92rcd13ifvqbq0","pricing_plan_id":"free"},{"bike_id":"5d05cf81-1ecd-4d07-8d31-98418ee78e51","system_id":"levelo_inurba_marseille","lat":43.309076,"lon":5.368465,"is_reserved":false,"is_disabled":false,"rental_uris":{"android":"levelo://app?vid=5d05cf81-1ecd-4d07-8d31-98418ee78e51","ios":"levelo://app?vid=5d05cf81-1ecd-4d07-8d31-98418ee78e51"},"vehicle_type_id":"4","last_reported":1685397983,"current_range_meters":22400,"station_id":"ce4bgn92rcd13ifvqbvg","pricing_plan_id":"free"},{"bike_id":"d226e977-3f0b-4b0c-a0e0-157c44aec210","system_id":"levelo_inurba_marseille","lat":43.314811,"lon":5.373104,"is_reserved":false,"is_disabled":false,"rental_uris":{"android":"levelo://app?vid=d226e977-3f0b-4b0c-a0e0-157c44aec210","ios":"levelo://app?vid=d226e977-3f0b-4b0c-a0e0-157c44aec210"},"vehicle_type_id":"4","last_reported":1685397983,"current_range_meters":28000,"station_id":"ce4bgt12rcd13ifvqcd0","pricing_plan_id":"free"},{"bike_id":"1b000bd2-4a72-44c5-a438-9d6ecfb521e0","system_id":"levelo_inurba_marseille","lat":43.308614,"lon":5.372098,"is_reserved":false,"is_disabled":false,"rental_uris":{"android":"levelo://app?vid=1b000bd2-4a72-44c5-a438-9d6ecfb521e0","ios":"levelo://app?vid=1b000bd2-4a72-44c5-a438-9d6ecfb521e0"},"vehicle_type_id":"4","last_reported":1685397983,"current_range_meters":22000,"station_id":"ce4bguh2rcd13ifvqckg","pricing_plan_id":"free"},{"bike_id":"3fc5f3f6-2d9f-4939-bfac-2f0571866a44","system_id":"levelo_inurba_marseille","lat":43.311131,"lon":5.377651,"is_reserved":false,"is_disabled":false,"rental_uris":{"android":"levelo://app?vid=3fc5f3f6-2d9f-4939-bfac-2f0571866a44","ios":"levelo://app?vid=3fc5f3f6-2d9f-4939-bfac-2f0571866a44"},"vehicle_type_id":"4","last_reported":1685397983,"current_range_meters":12400,"station_id":"ce4bgt92rcd13ifvqcg0","pricing_plan_id":"free"},{"bike_id":"b452b2b6-8252-48c5-90df-b8f3d43379c1","system_id":"levelo_inurba_marseille","lat":43.311125,"lon":5.377624,"is_reserved":false,"is_disabled":false,"rental_uris":{"android":"levelo://app?vid=b452b2b6-8252-48c5-90df-b8f3d43379c1","ios":"levelo://app?vid=b452b2b6-8252-48c5-90df-b8f3d43379c1"},"vehicle_type_id":"4","last_reported":1685397983,"current_range_meters":22800,"station_id":"ce4bgt92rcd13ifvqcg0","pricing_plan_id":"free"},{"bike_id":"ac751029-a36a-4c20-84c0-fbf41f302d46","system_id":"levelo_inurba_marseille","lat":43.311125,"lon":5.377624,"is_reserved":false,"is_disabled":false,"rental_uris":{"android":"levelo://app?vid=ac751029-a36a-4c20-84c0-fbf41f302d46","ios":"levelo://app?vid=ac751029-a36a-4c20-84c0-fbf41f302d46"},"vehicle_type_id":"4","last_reported":1685397983,"current_range_meters":31200,"station_id":"ce4bgt92rcd13ifvqcg0","pricing_plan_id":"free"},{"bike_id":"37a85ad5-7654-4f7c-91cb-95c4eda6da41","system_id":"levelo_inurba_marseille","lat":43.30473,"lon":5.36654,"is_reserved":false,"is_disabled":false,"rental_uris":{"android":"levelo://app?vid=37a85ad5-7654-4f7c-91cb-95c4eda6da41","ios":"levelo://app?vid=37a85ad5-7654-4f7c-91cb-95c4eda6da41"},"vehicle_type_id":"4","last_reported":1685397983,"current_range_meters":0,"station_id":"","pricing_plan_id":"free"},{"bike_id":"63d2131f-8a77-4ba6-a3ba-21102844d528","system_id":"levelo_inurba_marseille","lat":43.317075,"lon":5.377367,"is_reserved":false,"is_disabled":false,"rental_uris":{"android":"levelo://app?vid=63d2131f-8a77-4ba6-a3ba-21102844d528","ios":"levelo://app?vid=63d2131f-8a77-4ba6-a3ba-21102844d528"},"vehicle_type_id":"4","last_reported":1685397983,"current_range_meters":12400,"station_id":"ce4bgth2rcd13ifvqch0","pricing_plan_id":"free"},{"bike_id":"e7cafefa-7e04-4903-b330-192a1d161bf9","system_id":"levelo_inurba_marseille","lat":43.303046,"lon":5.368981,"is_reserved":false,"is_disabled":false,"rental_uris":{"android":"levelo://app?vid=e7cafefa-7e04-4903-b330-192a1d161bf9","ios":"levelo://app?vid=e7cafefa-7e04-4903-b330-192a1d161bf9"},"vehicle_type_id":"4","last_reported":1685397983,"current_range_meters":16400,"station_id":"ce4bgqh2rcd13ifvqc5g","pricing_plan_id":"free"},{"bike_id":"c30f66ea-6e26-472f-9cbe-35fed83adc6f","system_id":"levelo_inurba_marseille","lat":43.315293,"lon":5.380349,"is_reserved":false,"is_disabled":false,"rental_uris":{"android":"levelo://app?vid=c30f66ea-6e26-472f-9cbe-35fed83adc6f","ios":"levelo://app?vid=c30f66ea-6e26-472f-9cbe-35fed83adc6f"},"vehicle_type_id":"4","last_reported":1685397983,"current_range_meters":0,"station_id":"ce4bhsp2rcd13ifvqi50","pricing_plan_id":"free"},{"bike_id":"d03dfde3-848d-4a12-b8c5-302f4c16e8c3","system_id":"levelo_inurba_marseille","lat":43.31562,"lon":5.38057,"is_reserved":false,"is_disabled":false,"rental_uris":{"android":"levelo://app?vid=d03dfde3-848d-4a12-b8c5-302f4c16e8c3","ios":"levelo://app?vid=d03dfde3-848d-4a12-b8c5-302f4c16e8c3"},"vehicle_type_id":"4","last_reported":1685397983,"current_range_meters":16000,"station_id":"","pricing_plan_id":"free"},{"bike_id":"13ee7c9f-86a0-4a18-9b44-92afd17d1b29","system_id":"levelo_inurba_marseille","lat":43.301939,"lon":5.366286,"is_reserved":false,"is_disabled":false,"rental_uris":{"android":"levelo://app?vid=13ee7c9f-86a0-4a18-9b44-92afd17d1b29","ios":"levelo://app?vid=13ee7c9f-86a0-4a18-9b44-92afd17d1b29"},"vehicle_type_id":"4","last_reported":1685397983,"current_range_meters":22400,"station_id":"ce4bgrh2rcd13ifvqc8g","pricing_plan_id":"free"},{"bike_id":"48b782e6-a526-4e77-aac0-081d590a388e","system_id":"levelo_inurba_marseille","lat":43.308012,"lon":5.381511,"is_reserved":false,"is_disabled":false,"rental_uris":{"android":"levelo://app?vid=48b782e6-a526-4e77-aac0-081d590a388e","ios":"levelo://app?vid=48b782e6-a526-4e77-aac0-081d590a388e"},"vehicle_type_id":"4","last_reported":1685397983,"current_range_meters":0,"station_id":"ce4bgt12rcd13ifvqce0","pricing_plan_id":"free"},{"bike_id":"edda1cc0-378a-4e10-bdad-abee79f7145f","system_id":"levelo_inurba_marseille","lat":43.30793,"lon":5.381651,"is_reserved":false,"is_disabled":false,"rental_uris":{"android":"levelo://app?vid=edda1cc0-378a-4e10-bdad-abee79f7145f","ios":"levelo://app?vid=edda1cc0-378a-4e10-bdad-abee79f7145f"},"vehicle_type_id":"4","last_reported":1685397983,"current_range_meters":25200,"station_id":"","pricing_plan_id":"free"},{"bike_id":"c400e462-a4de-4542-ac86-b99081db2f1e","system_id":"levelo_inurba_marseille","lat":43.31639,"lon":5.38326,"is_reserved":false,"is_disabled":false,"rental_uris":{"android":"levelo://app?vid=c400e462-a4de-4542-ac86-b99081db2f1e","ios":"levelo://app?vid=c400e462-a4de-4542-ac86-b99081db2f1e"},"vehicle_type_id":"4","last_reported":1685397983,"current_range_meters":8400,"station_id":"","pricing_plan_id":"free"},{"bike_id":"d11da2d4-50ab-475d-a497-999f76f85bd5","system_id":"levelo_inurba_marseille","lat":43.31633,"lon":5.38335,"is_reserved":false,"is_disabled":false,"rental_uris":{"android":"levelo://app?vid=d11da2d4-50ab-475d-a497-999f76f85bd5","ios":"levelo://app?vid=d11da2d4-50ab-475d-a497-999f76f85bd5"},"vehicle_type_id":"4","last_reported":1685397983,"current_range_meters":20400,"station_id":"","pricing_plan_id":"free"},{"bike_id":"f9192e4d-971e-4e40-81bf-588a6fd11389","system_id":"levelo_inurba_marseille","lat":43.31999,"lon":5.38143,"is_reserved":false,"is_disabled":false,"rental_uris":{"android":"levelo://app?vid=f9192e4d-971e-4e40-81bf-588a6fd11389","ios":"levelo://app?vid=f9192e4d-971e-4e40-81bf-588a6fd11389"},"vehicle_type_id":"4","last_reported":1685397983,"current_range_meters":4000,"station_id":"ce4bhr12rcd13ifvqhpg","pricing_plan_id":"free"},{"bike_id":"ac29a3e2-3de3-4ef9-a505-87d7fa405400","system_id":"levelo_inurba_marseille","lat":43.319935,"lon":5.381699,"is_reserved":false,"is_disabled":false,"rental_uris":{"android":"levelo://app?vid=ac29a3e2-3de3-4ef9-a505-87d7fa405400","ios":"levelo://app?vid=ac29a3e2-3de3-4ef9-a505-87d7fa405400"},"vehicle_type_id":"4","last_reported":1685397983,"current_range_meters":6400,"station_id":"ce4bhr12rcd13ifvqhpg","pricing_plan_id":"free"},{"bike_id":"2b59d5aa-c585-4cc7-8cd7-ecacf95a3812","system_id":"levelo_inurba_marseille","lat":43.319935,"lon":5.381699,"is_reserved":false,"is_disabled":false,"rental_uris":{"android":"levelo://app?vid=2b59d5aa-c585-4cc7-8cd7-ecacf95a3812","ios":"levelo://app?vid=2b59d5aa-c585-4cc7-8cd7-ecacf95a3812"},"vehicle_type_id":"4","last_reported":1685397983,"current_range_meters":2400,"station_id":"ce4bhr12rcd13ifvqhpg","pricing_plan_id":"free"},{"bike_id":"3e06b23c-e123-4576-bcdc-4d8e14e1a50b","system_id":"levelo_inurba_marseille","lat":43.313571,"lon":5.384829,"is_reserved":false,"is_disabled":false,"rental_uris":{"android":"levelo://app?vid=3e06b23c-e123-4576-bcdc-4d8e14e1a50b","ios":"levelo://app?vid=3e06b23c-e123-4576-bcdc-4d8e14e1a50b"},"vehicle_type_id":"4","last_reported":1685397983,"current_range_meters":0,"station_id":"ce4bgt92rcd13ifvqcf0","pricing_plan_id":"free"},{"bike_id":"2b79add7-fc91-4aff-9cc8-04f933dd2ada","system_id":"levelo_inurba_marseille","lat":43.313571,"lon":5.384829,"is_reserved":false,"is_disabled":false,"rental_uris":{"android":"levelo://app?vid=2b79add7-fc91-4aff-9cc8-04f933dd2ada","ios":"levelo://app?vid=2b79add7-fc91-4aff-9cc8-04f933dd2ada"},"vehicle_type_id":"4","last_reported":1685397983,"current_range_meters":29200,"station_id":"ce4bgt92rcd13ifvqcf0","pricing_plan_id":"free"},{"bike_id":"63d75108-1b2f-40da-b8e4-9f296ffa97d8","system_id":"levelo_inurba_marseille","lat":43.32542,"lon":5.37571,"is_reserved":false,"is_disabled":false,"rental_uris":{"android":"levelo://app?vid=63d75108-1b2f-40da-b8e4-9f296ffa97d8","ios":"levelo://app?vid=63d75108-1b2f-40da-b8e4-9f296ffa97d8"},"vehicle_type_id":"4","last_reported":1685397983,"current_range_meters":7200,"station_id":"","pricing_plan_id":"free"},{"bike_id":"0b5c8faa-ad42-48c7-a8b4-f63882c57f4b","system_id":"levelo_inurba_marseille","lat":43.305364,"lon":5.384119,"is_reserved":false,"is_disabled":false,"rental_uris":{"android":"levelo://app?vid=0b5c8faa-ad42-48c7-a8b4-f63882c57f4b","ios":"levelo://app?vid=0b5c8faa-ad42-48c7-a8b4-f63882c57f4b"},"vehicle_type_id":"4","last_reported":1685397983,"current_range_meters":0,"station_id":"ce4bgg92rcd13ifvqb30","pricing_plan_id":"free"},{"bike_id":"3c2b22b1-05cc-4d62-aa6b-3c3dd6da8baa","system_id":"levelo_inurba_marseille","lat":43.311722,"lon":5.387247,"is_reserved":false,"is_disabled":false,"rental_uris":{"android":"levelo://app?vid=3c2b22b1-05cc-4d62-aa6b-3c3dd6da8baa","ios":"levelo://app?vid=3c2b22b1-05cc-4d62-aa6b-3c3dd6da8baa"},"vehicle_type_id":"4","last_reported":1685397983,"current_range_meters":14800,"station_id":"ce4bgv12rcd13ifvqcp0","pricing_plan_id":"free"},{"bike_id":"a2a8cab4-0307-45b1-8fc4-2f928c3bce48","system_id":"levelo_inurba_marseille","lat":43.311722,"lon":5.387247,"is_reserved":false,"is_disabled":false,"rental_uris":{"android":"levelo://app?vid=a2a8cab4-0307-45b1-8fc4-2f928c3bce48","ios":"levelo://app?vid=a2a8cab4-0307-45b1-8fc4-2f928c3bce48"},"vehicle_type_id":"4","last_reported":1685397983,"current_range_meters":15200,"station_id":"ce4bgv12rcd13ifvqcp0","pricing_plan_id":"free"},{"bike_id":"df3d6a81-7580-4937-8c41-ddda94ee5a95","system_id":"levelo_inurba_marseille","lat":43.311722,"lon":5.387247,"is_reserved":false,"is_disabled":false,"rental_uris":{"android":"levelo://app?vid=df3d6a81-7580-4937-8c41-ddda94ee5a95","ios":"levelo://app?vid=df3d6a81-7580-4937-8c41-ddda94ee5a95"},"vehicle_type_id":"4","last_reported":1685397983,"current_range_meters":28000,"station_id":"ce4bgv12rcd13ifvqcp0","pricing_plan_id":"free"},{"bike_id":"1ec1dde0-b812-4c1e-9e22-a25041461290","system_id":"levelo_inurba_marseille","lat":43.297774,"lon":5.370875,"is_reserved":false,"is_disabled":false,"rental_uris":{"android":"levelo://app?vid=1ec1dde0-b812-4c1e-9e22-a25041461290","ios":"levelo://app?vid=1ec1dde0-b812-4c1e-9e22-a25041461290"},"vehicle_type_id":"4","last_reported":1685397983,"current_range_meters":8400,"station_id":"ce4bgop2rcd13ifvqc1g","pricing_plan_id":"free"},{"bike_id":"5895156f-f83a-4b54-a0b5-57f02c18ef1a","system_id":"levelo_inurba_marseille","lat":43.32823,"lon":5.36678,"is_reserved":false,"is_disabled":false,"rental_uris":{"android":"levelo://app?vid=5895156f-f83a-4b54-a0b5-57f02c18ef1a","ios":"levelo://app?vid=5895156f-f83a-4b54-a0b5-57f02c18ef1a"},"vehicle_type_id":"4","last_reported":1685397983,"current_range_meters":20400,"station_id":"ce4bhs92rcd13ifvqi0g","pricing_plan_id":"free"},{"bike_id":"5239b8c9-2b0a-444c-a18d-56bc5f022304","system_id":"levelo_inurba_marseille","lat":43.328371,"lon":5.366909,"is_reserved":false,"is_disabled":false,"rental_uris":{"android":"levelo://app?vid=5239b8c9-2b0a-444c-a18d-56bc5f022304","ios":"levelo://app?vid=5239b8c9-2b0a-444c-a18d-56bc5f022304"},"vehicle_type_id":"4","last_reported":1685397983,"current_range_meters":31200,"station_id":"ce4bhs92rcd13ifvqi0g","pricing_plan_id":"free"},{"bike_id":"b4a10882-5bd8-431d-9407-df26a94d9353","system_id":"levelo_inurba_marseille","lat":43.29716,"lon":5.36606,"is_reserved":false,"is_disabled":false,"rental_uris":{"android":"levelo://app?vid=b4a10882-5bd8-431d-9407-df26a94d9353","ios":"levelo://app?vid=b4a10882-5bd8-431d-9407-df26a94d9353"},"vehicle_type_id":"4","last_reported":1685397983,"current_range_meters":7200,"station_id":"","pricing_plan_id":"free"},{"bike_id":"bfcee4c7-8dc0-4f3e-a9f5-26101145ee75","system_id":"levelo_inurba_marseille","lat":43.29714,"lon":5.36602,"is_reserved":false,"is_disabled":false,"rental_uris":{"android":"levelo://app?vid=bfcee4c7-8dc0-4f3e-a9f5-26101145ee75","ios":"levelo://app?vid=bfcee4c7-8dc0-4f3e-a9f5-26101145ee75"},"vehicle_type_id":"4","last_reported":1685397983,"current_range_meters":4400,"station_id":"","pricing_plan_id":"free"},{"bike_id":"5fda6268-042e-46ec-ba1f-4f167e8e944a","system_id":"levelo_inurba_marseille","lat":43.29709,"lon":5.36609,"is_reserved":false,"is_disabled":false,"rental_uris":{"android":"levelo://app?vid=5fda6268-042e-46ec-ba1f-4f167e8e944a","ios":"levelo://app?vid=5fda6268-042e-46ec-ba1f-4f167e8e944a"},"vehicle_type_id":"4","last_reported":1685397983,"current_range_meters":14800,"station_id":"","pricing_plan_id":"free"},{"bike_id":"574190e5-850d-4dd1-8eea-8ea5be63aef3","system_id":"levelo_inurba_marseille","lat":43.309589,"lon":5.390258,"is_reserved":false,"is_disabled":false,"rental_uris":{"android":"levelo://app?vid=574190e5-850d-4dd1-8eea-8ea5be63aef3","ios":"levelo://app?vid=574190e5-850d-4dd1-8eea-8ea5be63aef3"},"vehicle_type_id":"4","last_reported":1685397983,"current_range_meters":0,"station_id":"ce4bgup2rcd13ifvqco0","pricing_plan_id":"free"},{"bike_id":"db9d0b8c-a66e-4144-a40d-f2a5f8a93f17","system_id":"levelo_inurba_marseille","lat":43.30009,"lon":5.38362,"is_reserved":false,"is_disabled":false,"rental_uris":{"android":"levelo://app?vid=db9d0b8c-a66e-4144-a40d-f2a5f8a93f17","ios":"levelo://app?vid=db9d0b8c-a66e-4144-a40d-f2a5f8a93f17"},"vehicle_type_id":"4","last_reported":1685397983,"current_range_meters":4800,"station_id":"","pricing_plan_id":"free"},{"bike_id":"901e3725-d342-4060-91ae-95430ab7f8e0","system_id":"levelo_inurba_marseille","lat":43.304278,"lon":5.388868,"is_reserved":false,"is_disabled":false,"rental_uris":{"android":"levelo://app?vid=901e3725-d342-4060-91ae-95430ab7f8e0","ios":"levelo://app?vid=901e3725-d342-4060-91ae-95430ab7f8e0"},"vehicle_type_id":"4","last_reported":1685397983,"current_range_meters":29600,"station_id":"ce4bgk12rcd13ifvqbi0","pricing_plan_id":"free"},{"bike_id":"4b6f8396-508c-4a49-8994-aea821970ab7","system_id":"levelo_inurba_marseille","lat":43.304278,"lon":5.388868,"is_reserved":false,"is_disabled":false,"rental_uris":{"android":"levelo://app?vid=4b6f8396-508c-4a49-8994-aea821970ab7","ios":"levelo://app?vid=4b6f8396-508c-4a49-8994-aea821970ab7"},"vehicle_type_id":"4","last_reported":1685397983,"current_range_meters":18800,"station_id":"ce4bgk12rcd13ifvqbi0","pricing_plan_id":"free"},{"bike_id":"9c2964a5-3243-4712-9f9d-10a524f7e531","system_id":"levelo_inurba_marseille","lat":43.304278,"lon":5.388868,"is_reserved":false,"is_disabled":false,"rental_uris":{"android":"levelo://app?vid=9c2964a5-3243-4712-9f9d-10a524f7e531","ios":"levelo://app?vid=9c2964a5-3243-4712-9f9d-10a524f7e531"},"vehicle_type_id":"4","last_reported":1685397983,"current_range_meters":31200,"station_id":"ce4bgk12rcd13ifvqbi0","pricing_plan_id":"free"},{"bike_id":"cb7f324a-61b2-4f8d-8ab6-72ed2fe23c4e","system_id":"levelo_inurba_marseille","lat":43.304278,"lon":5.388868,"is_reserved":false,"is_disabled":false,"rental_uris":{"android":"levelo://app?vid=cb7f324a-61b2-4f8d-8ab6-72ed2fe23c4e","ios":"levelo://app?vid=cb7f324a-61b2-4f8d-8ab6-72ed2fe23c4e"},"vehicle_type_id":"4","last_reported":1685397983,"current_range_meters":31200,"station_id":"ce4bgk12rcd13ifvqbi0","pricing_plan_id":"free"},{"bike_id":"0c8e7e5f-7836-44ac-9780-8e0a75fe60a9","system_id":"levelo_inurba_marseille","lat":43.295279,"lon":5.375048,"is_reserved":false,"is_disabled":false,"rental_uris":{"android":"levelo://app?vid=0c8e7e5f-7836-44ac-9780-8e0a75fe60a9","ios":"levelo://app?vid=0c8e7e5f-7836-44ac-9780-8e0a75fe60a9"},"vehicle_type_id":"4","last_reported":1685397983,"current_range_meters":1200,"station_id":"ce4bgkp2rcd13ifvqbmg","pricing_plan_id":"free"},{"bike_id":"dd0ab699-e7f4-4c91-b46d-b06273062827","system_id":"levelo_inurba_marseille","lat":43.2997,"lon":5.38488,"is_reserved":false,"is_disabled":false,"rental_uris":{"android":"levelo://app?vid=dd0ab699-e7f4-4c91-b46d-b06273062827","ios":"levelo://app?vid=dd0ab699-e7f4-4c91-b46d-b06273062827"},"vehicle_type_id":"4","last_reported":1685397983,"current_range_meters":23200,"station_id":"ce4bgj92rcd13ifvqbd0","pricing_plan_id":"free"},{"bike_id":"1c80e72b-4d3c-4d34-bd86-5824c126b5a1","system_id":"levelo_inurba_marseille","lat":43.29918,"lon":5.38513,"is_reserved":false,"is_disabled":false,"rental_uris":{"android":"levelo://app?vid=1c80e72b-4d3c-4d34-bd86-5824c126b5a1","ios":"levelo://app?vid=1c80e72b-4d3c-4d34-bd86-5824c126b5a1"},"vehicle_type_id":"4","last_reported":1685397983,"current_range_meters":12000,"station_id":"","pricing_plan_id":"free"},{"bike_id":"6345f779-7590-4ebf-81b7-14a3c3a95e37","system_id":"levelo_inurba_marseille","lat":43.32367,"lon":5.388836,"is_reserved":false,"is_disabled":false,"rental_uris":{"android":"levelo://app?vid=6345f779-7590-4ebf-81b7-14a3c3a95e37","ios":"levelo://app?vid=6345f779-7590-4ebf-81b7-14a3c3a95e37"},"vehicle_type_id":"4","last_reported":1685397983,"current_range_meters":4000,"station_id":"ce4bhqp2rcd13ifvqhog","pricing_plan_id":"free"},{"bike_id":"00c9b202-b5b6-4f69-8084-db1f9466ee79","system_id":"levelo_inurba_marseille","lat":43.32367,"lon":5.388836,"is_reserved":false,"is_disabled":false,"rental_uris":{"android":"levelo://app?vid=00c9b202-b5b6-4f69-8084-db1f9466ee79","ios":"levelo://app?vid=00c9b202-b5b6-4f69-8084-db1f9466ee79"},"vehicle_type_id":"4","last_reported":1685397983,"current_range_meters":24000,"station_id":"ce4bhqp2rcd13ifvqhog","pricing_plan_id":"free"},{"bike_id":"d1ab7cdd-c6a3-4e43-a50c-3d50e564a673","system_id":"levelo_inurba_marseille","lat":43.32367,"lon":5.388836,"is_reserved":false,"is_disabled":false,"rental_uris":{"android":"levelo://app?vid=d1ab7cdd-c6a3-4e43-a50c-3d50e564a673","ios":"levelo://app?vid=d1ab7cdd-c6a3-4e43-a50c-3d50e564a673"},"vehicle_type_id":"4","last_reported":1685397983,"current_range_meters":14000,"station_id":"ce4bhqp2rcd13ifvqhog","pricing_plan_id":"free"},{"bike_id":"1c37c083-39b8-4242-99c8-3430fc05b14b","system_id":"levelo_inurba_marseille","lat":43.32367,"lon":5.388836,"is_reserved":false,"is_disabled":false,"rental_uris":{"android":"levelo://app?vid=1c37c083-39b8-4242-99c8-3430fc05b14b","ios":"levelo://app?vid=1c37c083-39b8-4242-99c8-3430fc05b14b"},"vehicle_type_id":"4","last_reported":1685397983,"current_range_meters":20400,"station_id":"ce4bhqp2rcd13ifvqhog","pricing_plan_id":"free"},{"bike_id":"950f3a0b-8466-40bf-8f81-5f5cf1a96632","system_id":"levelo_inurba_marseille","lat":43.32367,"lon":5.388836,"is_reserved":false,"is_disabled":false,"rental_uris":{"android":"levelo://app?vid=950f3a0b-8466-40bf-8f81-5f5cf1a96632","ios":"levelo://app?vid=950f3a0b-8466-40bf-8f81-5f5cf1a96632"},"vehicle_type_id":"4","last_reported":1685397983,"current_range_meters":7200,"station_id":"ce4bhqp2rcd13ifvqhog","pricing_plan_id":"free"},{"bike_id":"3361876b-5ac1-40cb-960f-347ce30a1e80","system_id":"levelo_inurba_marseille","lat":43.32367,"lon":5.38884,"is_reserved":false,"is_disabled":false,"rental_uris":{"android":"levelo://app?vid=3361876b-5ac1-40cb-960f-347ce30a1e80","ios":"levelo://app?vid=3361876b-5ac1-40cb-960f-347ce30a1e80"},"vehicle_type_id":"4","last_reported":1685397983,"current_range_meters":20000,"station_id":"ce4bhqp2rcd13ifvqhog","pricing_plan_id":"free"},{"bike_id":"ac7fd094-5a9a-44a0-bf01-6dabcc14ff83","system_id":"levelo_inurba_marseille","lat":43.29602,"lon":5.381084,"is_reserved":false,"is_disabled":false,"rental_uris":{"android":"levelo://app?vid=ac7fd094-5a9a-44a0-bf01-6dabcc14ff83","ios":"levelo://app?vid=ac7fd094-5a9a-44a0-bf01-6dabcc14ff83"},"vehicle_type_id":"4","last_reported":1685397983,"current_range_meters":24000,"station_id":"ce4bgl12rcd13ifvqbo0","pricing_plan_id":"free"},{"bike_id":"8d9380e2-251a-4be8-81d4-0367566e34d4","system_id":"levelo_inurba_marseille","lat":43.29313,"lon":5.37168,"is_reserved":false,"is_disabled":false,"rental_uris":{"android":"levelo://app?vid=8d9380e2-251a-4be8-81d4-0367566e34d4","ios":"levelo://app?vid=8d9380e2-251a-4be8-81d4-0367566e34d4"},"vehicle_type_id":"4","last_reported":1685397983,"current_range_meters":0,"station_id":"ce4bgh92rcd13ifvqb40","pricing_plan_id":"free"},{"bike_id":"424bde45-b39b-4e4d-9d03-74e00f218813","system_id":"levelo_inurba_marseille","lat":43.29716,"lon":5.38534,"is_reserved":false,"is_disabled":false,"rental_uris":{"android":"levelo://app?vid=424bde45-b39b-4e4d-9d03-74e00f218813","ios":"levelo://app?vid=424bde45-b39b-4e4d-9d03-74e00f218813"},"vehicle_type_id":"4","last_reported":1685397983,"current_range_meters":31200,"station_id":"","pricing_plan_id":"free"},{"bike_id":"ae0fef03-2ba4-463a-8773-a07600784cf4","system_id":"levelo_inurba_marseille","lat":43.302992,"lon":5.392136,"is_reserved":false,"is_disabled":false,"rental_uris":{"android":"levelo://app?vid=ae0fef03-2ba4-463a-8773-a07600784cf4","ios":"levelo://app?vid=ae0fef03-2ba4-463a-8773-a07600784cf4"},"vehicle_type_id":"4","last_reported":1685397983,"current_range_meters":31200,"station_id":"ce4bgkh2rcd13ifvqbk0","pricing_plan_id":"free"},{"bike_id":"7cc25710-1ec8-4d12-866f-0eb82b1ade21","system_id":"levelo_inurba_marseille","lat":43.30305,"lon":5.39211,"is_reserved":false,"is_disabled":false,"rental_uris":{"android":"levelo://app?vid=7cc25710-1ec8-4d12-866f-0eb82b1ade21","ios":"levelo://app?vid=7cc25710-1ec8-4d12-866f-0eb82b1ade21"},"vehicle_type_id":"4","last_reported":1685397983,"current_range_meters":13600,"station_id":"ce4bgkh2rcd13ifvqbk0","pricing_plan_id":"free"},{"bike_id":"f7983b47-f344-4823-954c-0cfa2671d49d","system_id":"levelo_inurba_marseille","lat":43.302992,"lon":5.392136,"is_reserved":false,"is_disabled":false,"rental_uris":{"android":"levelo://app?vid=f7983b47-f344-4823-954c-0cfa2671d49d","ios":"levelo://app?vid=f7983b47-f344-4823-954c-0cfa2671d49d"},"vehicle_type_id":"4","last_reported":1685397983,"current_range_meters":4400,"station_id":"ce4bgkh2rcd13ifvqbk0","pricing_plan_id":"free"},{"bike_id":"39277cc0-9fd5-48bb-b3fd-a645491dafdd","system_id":"levelo_inurba_marseille","lat":43.302992,"lon":5.392136,"is_reserved":false,"is_disabled":false,"rental_uris":{"android":"levelo://app?vid=39277cc0-9fd5-48bb-b3fd-a645491dafdd","ios":"levelo://app?vid=39277cc0-9fd5-48bb-b3fd-a645491dafdd"},"vehicle_type_id":"4","last_reported":1685397983,"current_range_meters":30800,"station_id":"ce4bgkh2rcd13ifvqbk0","pricing_plan_id":"free"},{"bike_id":"c7743222-31dd-4a1e-8044-f44d03d2328b","system_id":"levelo_inurba_marseille","lat":43.30096,"lon":5.39069,"is_reserved":false,"is_disabled":false,"rental_uris":{"android":"levelo://app?vid=c7743222-31dd-4a1e-8044-f44d03d2328b","ios":"levelo://app?vid=c7743222-31dd-4a1e-8044-f44d03d2328b"},"vehicle_type_id":"4","last_reported":1685397983,"current_range_meters":17200,"station_id":"ce4bh192rcd13ifvqdb0","pricing_plan_id":"free"},{"bike_id":"4179911a-746e-49e2-9bb7-1223475fcc3f","system_id":"levelo_inurba_marseille","lat":43.292311,"lon":5.360731,"is_reserved":false,"is_disabled":false,"rental_uris":{"android":"levelo://app?vid=4179911a-746e-49e2-9bb7-1223475fcc3f","ios":"levelo://app?vid=4179911a-746e-49e2-9bb7-1223475fcc3f"},"vehicle_type_id":"4","last_reported":1685397983,"current_range_meters":15200,"station_id":"ce4bhbh2rcd13ifvqeqg","pricing_plan_id":"free"},{"bike_id":"6eded208-95be-4ab0-a7a2-d3dc6b4a7af8","system_id":"levelo_inurba_marseille","lat":43.30085,"lon":5.390856,"is_reserved":false,"is_disabled":false,"rental_uris":{"android":"levelo://app?vid=6eded208-95be-4ab0-a7a2-d3dc6b4a7af8","ios":"levelo://app?vid=6eded208-95be-4ab0-a7a2-d3dc6b4a7af8"},"vehicle_type_id":"4","last_reported":1685397983,"current_range_meters":19200,"station_id":"ce4bh192rcd13ifvqdb0","pricing_plan_id":"free"},{"bike_id":"42d6516d-09c6-4b7f-8b35-0eb6e2e1961c","system_id":"levelo_inurba_marseille","lat":43.30085,"lon":5.390856,"is_reserved":false,"is_disabled":false,"rental_uris":{"android":"levelo://app?vid=42d6516d-09c6-4b7f-8b35-0eb6e2e1961c","ios":"levelo://app?vid=42d6516d-09c6-4b7f-8b35-0eb6e2e1961c"},"vehicle_type_id":"4","last_reported":1685397983,"current_range_meters":21200,"station_id":"ce4bh192rcd13ifvqdb0","pricing_plan_id":"free"},{"bike_id":"6e78e571-7839-4f29-87cd-e6a109e14953","system_id":"levelo_inurba_marseille","lat":43.30085,"lon":5.390856,"is_reserved":false,"is_disabled":false,"rental_uris":{"android":"levelo://app?vid=6e78e571-7839-4f29-87cd-e6a109e14953","ios":"levelo://app?vid=6e78e571-7839-4f29-87cd-e6a109e14953"},"vehicle_type_id":"4","last_reported":1685397983,"current_range_meters":20000,"station_id":"ce4bh192rcd13ifvqdb0","pricing_plan_id":"free"},{"bike_id":"526e8797-7fe4-41c6-b046-9a97d0377d18","system_id":"levelo_inurba_marseille","lat":43.30085,"lon":5.390856,"is_reserved":false,"is_disabled":false,"rental_uris":{"android":"levelo://app?vid=526e8797-7fe4-41c6-b046-9a97d0377d18","ios":"levelo://app?vid=526e8797-7fe4-41c6-b046-9a97d0377d18"},"vehicle_type_id":"4","last_reported":1685397983,"current_range_meters":12000,"station_id":"ce4bh192rcd13ifvqdb0","pricing_plan_id":"free"},{"bike_id":"6b392ac7-d4c2-47d5-ba55-47e212790911","system_id":"levelo_inurba_marseille","lat":43.309038,"lon":5.396546,"is_reserved":false,"is_disabled":false,"rental_uris":{"android":"levelo://app?vid=6b392ac7-d4c2-47d5-ba55-47e212790911","ios":"levelo://app?vid=6b392ac7-d4c2-47d5-ba55-47e212790911"},"vehicle_type_id":"4","last_reported":1685397983,"current_range_meters":31200,"station_id":"ce4bh012rcd13ifvqcv0","pricing_plan_id":"free"},{"bike_id":"2a4760d2-1a38-4cf5-b1ba-1635729dc47a","system_id":"levelo_inurba_marseille","lat":43.309038,"lon":5.396546,"is_reserved":false,"is_disabled":false,"rental_uris":{"android":"levelo://app?vid=2a4760d2-1a38-4cf5-b1ba-1635729dc47a","ios":"levelo://app?vid=2a4760d2-1a38-4cf5-b1ba-1635729dc47a"},"vehicle_type_id":"4","last_reported":1685397983,"current_range_meters":30000,"station_id":"ce4bh012rcd13ifvqcv0","pricing_plan_id":"free"},{"bike_id":"150af1ec-306f-4ac6-a398-b989a01e9d6c","system_id":"levelo_inurba_marseille","lat":43.309038,"lon":5.396546,"is_reserved":false,"is_disabled":false,"rental_uris":{"android":"levelo://app?vid=150af1ec-306f-4ac6-a398-b989a01e9d6c","ios":"levelo://app?vid=150af1ec-306f-4ac6-a398-b989a01e9d6c"},"vehicle_type_id":"4","last_reported":1685397983,"current_range_meters":31200,"station_id":"ce4bh012rcd13ifvqcv0","pricing_plan_id":"free"},{"bike_id":"87313bea-0c5e-47f5-a3c9-98a2270389a7","system_id":"levelo_inurba_marseille","lat":43.309038,"lon":5.396546,"is_reserved":false,"is_disabled":false,"rental_uris":{"android":"levelo://app?vid=87313bea-0c5e-47f5-a3c9-98a2270389a7","ios":"levelo://app?vid=87313bea-0c5e-47f5-a3c9-98a2270389a7"},"vehicle_type_id":"4","last_reported":1685397983,"current_range_meters":30000,"station_id":"ce4bh012rcd13ifvqcv0","pricing_plan_id":"free"},{"bike_id":"8649da42-9253-42c3-adef-ebe24c61f84f","system_id":"levelo_inurba_marseille","lat":43.309038,"lon":5.396546,"is_reserved":false,"is_disabled":false,"rental_uris":{"android":"levelo://app?vid=8649da42-9253-42c3-adef-ebe24c61f84f","ios":"levelo://app?vid=8649da42-9253-42c3-adef-ebe24c61f84f"},"vehicle_type_id":"4","last_reported":1685397983,"current_range_meters":10000,"station_id":"ce4bh012rcd13ifvqcv0","pricing_plan_id":"free"},{"bike_id":"e039994a-6162-4aa7-824e-36afa056beb7","system_id":"levelo_inurba_marseille","lat":43.309038,"lon":5.396546,"is_reserved":false,"is_disabled":false,"rental_uris":{"android":"levelo://app?vid=e039994a-6162-4aa7-824e-36afa056beb7","ios":"levelo://app?vid=e039994a-6162-4aa7-824e-36afa056beb7"},"vehicle_type_id":"4","last_reported":1685397983,"current_range_meters":24800,"station_id":"ce4bh012rcd13ifvqcv0","pricing_plan_id":"free"},{"bike_id":"fb02c64a-0342-49a0-8869-f96219ce4c51","system_id":"levelo_inurba_marseille","lat":43.309038,"lon":5.396546,"is_reserved":false,"is_disabled":false,"rental_uris":{"android":"levelo://app?vid=fb02c64a-0342-49a0-8869-f96219ce4c51","ios":"levelo://app?vid=fb02c64a-0342-49a0-8869-f96219ce4c51"},"vehicle_type_id":"4","last_reported":1685397983,"current_range_meters":17200,"station_id":"ce4bh012rcd13ifvqcv0","pricing_plan_id":"free"},{"bike_id":"1ccf3a3c-f7b8-49b2-881a-426c6317875b","system_id":"levelo_inurba_marseille","lat":43.309038,"lon":5.396546,"is_reserved":false,"is_disabled":false,"rental_uris":{"android":"levelo://app?vid=1ccf3a3c-f7b8-49b2-881a-426c6317875b","ios":"levelo://app?vid=1ccf3a3c-f7b8-49b2-881a-426c6317875b"},"vehicle_type_id":"4","last_reported":1685397983,"current_range_meters":7600,"station_id":"ce4bh012rcd13ifvqcv0","pricing_plan_id":"free"},{"bike_id":"d84748ca-56de-4c39-8d97-8763d6af5c17","system_id":"levelo_inurba_marseille","lat":43.313291,"lon":5.396838,"is_reserved":false,"is_disabled":false,"rental_uris":{"android":"levelo://app?vid=d84748ca-56de-4c39-8d97-8763d6af5c17","ios":"levelo://app?vid=d84748ca-56de-4c39-8d97-8763d6af5c17"},"vehicle_type_id":"4","last_reported":1685397983,"current_range_meters":18000,"station_id":"ce4bgvp2rcd13ifvqcu0","pricing_plan_id":"free"},{"bike_id":"111b5415-95a9-4206-a13d-effaf8788d28","system_id":"levelo_inurba_marseille","lat":43.309038,"lon":5.396546,"is_reserved":false,"is_disabled":false,"rental_uris":{"android":"levelo://app?vid=111b5415-95a9-4206-a13d-effaf8788d28","ios":"levelo://app?vid=111b5415-95a9-4206-a13d-effaf8788d28"},"vehicle_type_id":"4","last_reported":1685397983,"current_range_meters":17200,"station_id":"ce4bh012rcd13ifvqcv0","pricing_plan_id":"free"},{"bike_id":"83b297ac-0a4f-4d68-83ab-27f4c9276387","system_id":"levelo_inurba_marseille","lat":43.309038,"lon":5.396546,"is_reserved":false,"is_disabled":false,"rental_uris":{"android":"levelo://app?vid=83b297ac-0a4f-4d68-83ab-27f4c9276387","ios":"levelo://app?vid=83b297ac-0a4f-4d68-83ab-27f4c9276387"},"vehicle_type_id":"4","last_reported":1685397983,"current_range_meters":31200,"station_id":"ce4bh012rcd13ifvqcv0","pricing_plan_id":"free"},{"bike_id":"d0b6e14f-45a2-42a4-9a9f-9f37c19a68c8","system_id":"levelo_inurba_marseille","lat":43.309038,"lon":5.396546,"is_reserved":false,"is_disabled":false,"rental_uris":{"android":"levelo://app?vid=d0b6e14f-45a2-42a4-9a9f-9f37c19a68c8","ios":"levelo://app?vid=d0b6e14f-45a2-42a4-9a9f-9f37c19a68c8"},"vehicle_type_id":"4","last_reported":1685397983,"current_range_meters":31200,"station_id":"ce4bh012rcd13ifvqcv0","pricing_plan_id":"free"},{"bike_id":"fa9e0433-dcf4-413e-903d-3a22394dc660","system_id":"levelo_inurba_marseille","lat":43.309038,"lon":5.396546,"is_reserved":false,"is_disabled":false,"rental_uris":{"android":"levelo://app?vid=fa9e0433-dcf4-413e-903d-3a22394dc660","ios":"levelo://app?vid=fa9e0433-dcf4-413e-903d-3a22394dc660"},"vehicle_type_id":"4","last_reported":1685397983,"current_range_meters":25600,"station_id":"ce4bh012rcd13ifvqcv0","pricing_plan_id":"free"},{"bike_id":"bc17d2b5-5d04-49c9-8ec1-af0fde3cab74","system_id":"levelo_inurba_marseille","lat":43.3021,"lon":5.39473,"is_reserved":false,"is_disabled":false,"rental_uris":{"android":"levelo://app?vid=bc17d2b5-5d04-49c9-8ec1-af0fde3cab74","ios":"levelo://app?vid=bc17d2b5-5d04-49c9-8ec1-af0fde3cab74"},"vehicle_type_id":"4","last_reported":1685397983,"current_range_meters":12400,"station_id":"ce4bh0p2rcd13ifvqd70","pricing_plan_id":"free"},{"bike_id":"6735f361-a4bd-4b38-8f3a-03c1195b3ca7","system_id":"levelo_inurba_marseille","lat":43.30209,"lon":5.39481,"is_reserved":false,"is_disabled":false,"rental_uris":{"android":"levelo://app?vid=6735f361-a4bd-4b38-8f3a-03c1195b3ca7","ios":"levelo://app?vid=6735f361-a4bd-4b38-8f3a-03c1195b3ca7"},"vehicle_type_id":"4","last_reported":1685397983,"current_range_meters":21600,"station_id":"ce4bh0p2rcd13ifvqd70","pricing_plan_id":"free"},{"bike_id":"4065111e-1274-453f-932f-f63cdac7407f","system_id":"levelo_inurba_marseille","lat":43.289184,"lon":5.366408,"is_reserved":false,"is_disabled":false,"rental_uris":{"android":"levelo://app?vid=4065111e-1274-453f-932f-f63cdac7407f","ios":"levelo://app?vid=4065111e-1274-453f-932f-f63cdac7407f"},"vehicle_type_id":"4","last_reported":1685397983,"current_range_meters":16000,"station_id":"ce4bhap2rcd13ifvqek0","pricing_plan_id":"free"},{"bike_id":"808310db-dd4c-41e3-9225-e07e2944801b","system_id":"levelo_inurba_marseille","lat":43.289184,"lon":5.366408,"is_reserved":false,"is_disabled":false,"rental_uris":{"android":"levelo://app?vid=808310db-dd4c-41e3-9225-e07e2944801b","ios":"levelo://app?vid=808310db-dd4c-41e3-9225-e07e2944801b"},"vehicle_type_id":"4","last_reported":1685397983,"current_range_meters":10800,"station_id":"ce4bhap2rcd13ifvqek0","pricing_plan_id":"free"},{"bike_id":"74523e2a-6966-4b78-aa66-faea97e87801","system_id":"levelo_inurba_marseille","lat":43.29272,"lon":5.384377,"is_reserved":false,"is_disabled":false,"rental_uris":{"android":"levelo://app?vid=74523e2a-6966-4b78-aa66-faea97e87801","ios":"levelo://app?vid=74523e2a-6966-4b78-aa66-faea97e87801"},"vehicle_type_id":"4","last_reported":1685397983,"current_range_meters":2000,"station_id":"ce4bh692rcd13ifvqea0","pricing_plan_id":"free"},{"bike_id":"eb2ddfe4-4895-492a-9ef3-9d8d5fc8230b","system_id":"levelo_inurba_marseille","lat":43.33043,"lon":5.38917,"is_reserved":false,"is_disabled":false,"rental_uris":{"android":"levelo://app?vid=eb2ddfe4-4895-492a-9ef3-9d8d5fc8230b","ios":"levelo://app?vid=eb2ddfe4-4895-492a-9ef3-9d8d5fc8230b"},"vehicle_type_id":"4","last_reported":1685397983,"current_range_meters":0,"station_id":"ce4bhr92rcd13ifvqhrg","pricing_plan_id":"free"},{"bike_id":"a8a0a2ce-882c-480d-9c8d-104ff0262970","system_id":"levelo_inurba_marseille","lat":43.33044,"lon":5.38917,"is_reserved":false,"is_disabled":false,"rental_uris":{"android":"levelo://app?vid=a8a0a2ce-882c-480d-9c8d-104ff0262970","ios":"levelo://app?vid=a8a0a2ce-882c-480d-9c8d-104ff0262970"},"vehicle_type_id":"4","last_reported":1685397983,"current_range_meters":11200,"station_id":"ce4bhr92rcd13ifvqhrg","pricing_plan_id":"free"},{"bike_id":"5ce57644-4ffa-47e2-8542-af764691264c","system_id":"levelo_inurba_marseille","lat":43.33046,"lon":5.38918,"is_reserved":false,"is_disabled":false,"rental_uris":{"android":"levelo://app?vid=5ce57644-4ffa-47e2-8542-af764691264c","ios":"levelo://app?vid=5ce57644-4ffa-47e2-8542-af764691264c"},"vehicle_type_id":"4","last_reported":1685397983,"current_range_meters":6000,"station_id":"ce4bhr92rcd13ifvqhrg","pricing_plan_id":"free"},{"bike_id":"37779d1a-29b1-40f4-befc-fafeb0e830e1","system_id":"levelo_inurba_marseille","lat":43.297814,"lon":5.393513,"is_reserved":false,"is_disabled":false,"rental_uris":{"android":"levelo://app?vid=37779d1a-29b1-40f4-befc-fafeb0e830e1","ios":"levelo://app?vid=37779d1a-29b1-40f4-befc-fafeb0e830e1"},"vehicle_type_id":"4","last_reported":1685397983,"current_range_meters":12400,"station_id":"chh1huq6cuj3fo74tm60","pricing_plan_id":"free"},{"bike_id":"b30f61d6-86b5-4a92-a7bb-6b2c1cb0b442","system_id":"levelo_inurba_marseille","lat":43.28856,"lon":5.358371,"is_reserved":false,"is_disabled":false,"rental_uris":{"android":"levelo://app?vid=b30f61d6-86b5-4a92-a7bb-6b2c1cb0b442","ios":"levelo://app?vid=b30f61d6-86b5-4a92-a7bb-6b2c1cb0b442"},"vehicle_type_id":"4","last_reported":1685397983,"current_range_meters":26400,"station_id":"ce4bhb12rcd13ifvqem0","pricing_plan_id":"free"},{"bike_id":"25cad7da-e7e5-4651-b5c2-ed02405f2110","system_id":"levelo_inurba_marseille","lat":43.28856,"lon":5.358371,"is_reserved":false,"is_disabled":false,"rental_uris":{"android":"levelo://app?vid=25cad7da-e7e5-4651-b5c2-ed02405f2110","ios":"levelo://app?vid=25cad7da-e7e5-4651-b5c2-ed02405f2110"},"vehicle_type_id":"4","last_reported":1685397983,"current_range_meters":23600,"station_id":"ce4bhb12rcd13ifvqem0","pricing_plan_id":"free"},{"bike_id":"42e6983f-c75a-4eda-b190-c6ed2031b930","system_id":"levelo_inurba_marseille","lat":43.28856,"lon":5.358371,"is_reserved":false,"is_disabled":false,"rental_uris":{"android":"levelo://app?vid=42e6983f-c75a-4eda-b190-c6ed2031b930","ios":"levelo://app?vid=42e6983f-c75a-4eda-b190-c6ed2031b930"},"vehicle_type_id":"4","last_reported":1685397983,"current_range_meters":30000,"station_id":"ce4bhb12rcd13ifvqem0","pricing_plan_id":"free"},{"bike_id":"141c14ea-594b-43ee-894e-8c44af1dcd73","system_id":"levelo_inurba_marseille","lat":43.33741,"lon":5.37457,"is_reserved":false,"is_disabled":false,"rental_uris":{"android":"levelo://app?vid=141c14ea-594b-43ee-894e-8c44af1dcd73","ios":"levelo://app?vid=141c14ea-594b-43ee-894e-8c44af1dcd73"},"vehicle_type_id":"4","last_reported":1685397983,"current_range_meters":30800,"station_id":"","pricing_plan_id":"free"},{"bike_id":"493860ce-e063-4684-ab33-c360eaf64153","system_id":"levelo_inurba_marseille","lat":43.33744,"lon":5.37451,"is_reserved":false,"is_disabled":false,"rental_uris":{"android":"levelo://app?vid=493860ce-e063-4684-ab33-c360eaf64153","ios":"levelo://app?vid=493860ce-e063-4684-ab33-c360eaf64153"},"vehicle_type_id":"4","last_reported":1685397983,"current_range_meters":12800,"station_id":"","pricing_plan_id":"free"},{"bike_id":"c67b547c-3fcb-4384-8614-e15f558fec55","system_id":"levelo_inurba_marseille","lat":43.33744,"lon":5.37451,"is_reserved":false,"is_disabled":false,"rental_uris":{"android":"levelo://app?vid=c67b547c-3fcb-4384-8614-e15f558fec55","ios":"levelo://app?vid=c67b547c-3fcb-4384-8614-e15f558fec55"},"vehicle_type_id":"4","last_reported":1685397983,"current_range_meters":22000,"station_id":"","pricing_plan_id":"free"},{"bike_id":"5b9adb25-5416-43b4-b68b-894fc7969186","system_id":"levelo_inurba_marseille","lat":43.30642,"lon":5.401031,"is_reserved":false,"is_disabled":false,"rental_uris":{"android":"levelo://app?vid=5b9adb25-5416-43b4-b68b-894fc7969186","ios":"levelo://app?vid=5b9adb25-5416-43b4-b68b-894fc7969186"},"vehicle_type_id":"4","last_reported":1685397983,"current_range_meters":31200,"station_id":"ce4bh112rcd13ifvqda0","pricing_plan_id":"free"},{"bike_id":"556c6db1-2600-4c2b-9521-aae8453517c1","system_id":"levelo_inurba_marseille","lat":43.33749,"lon":5.37445,"is_reserved":false,"is_disabled":false,"rental_uris":{"android":"levelo://app?vid=556c6db1-2600-4c2b-9521-aae8453517c1","ios":"levelo://app?vid=556c6db1-2600-4c2b-9521-aae8453517c1"},"vehicle_type_id":"4","last_reported":1685397983,"current_range_meters":8400,"station_id":"","pricing_plan_id":"free"},{"bike_id":"29587ac5-5a5d-4b19-85d3-29ebc9ed137d","system_id":"levelo_inurba_marseille","lat":43.30642,"lon":5.401031,"is_reserved":false,"is_disabled":false,"rental_uris":{"android":"levelo://app?vid=29587ac5-5a5d-4b19-85d3-29ebc9ed137d","ios":"levelo://app?vid=29587ac5-5a5d-4b19-85d3-29ebc9ed137d"},"vehicle_type_id":"4","last_reported":1685397983,"current_range_meters":30000,"station_id":"ce4bh112rcd13ifvqda0","pricing_plan_id":"free"},{"bike_id":"b63024a5-d50e-4c77-88bc-74fb60141eba","system_id":"levelo_inurba_marseille","lat":43.30642,"lon":5.401031,"is_reserved":false,"is_disabled":false,"rental_uris":{"android":"levelo://app?vid=b63024a5-d50e-4c77-88bc-74fb60141eba","ios":"levelo://app?vid=b63024a5-d50e-4c77-88bc-74fb60141eba"},"vehicle_type_id":"4","last_reported":1685397983,"current_range_meters":0,"station_id":"ce4bh112rcd13ifvqda0","pricing_plan_id":"free"},{"bike_id":"bef5636e-69c5-45c3-a1c1-15c6ae91439a","system_id":"levelo_inurba_marseille","lat":43.30642,"lon":5.401031,"is_reserved":false,"is_disabled":false,"rental_uris":{"android":"levelo://app?vid=bef5636e-69c5-45c3-a1c1-15c6ae91439a","ios":"levelo://app?vid=bef5636e-69c5-45c3-a1c1-15c6ae91439a"},"vehicle_type_id":"4","last_reported":1685397983,"current_range_meters":22400,"station_id":"ce4bh112rcd13ifvqda0","pricing_plan_id":"free"},{"bike_id":"21fc766d-c21a-4b5f-ab55-266de1de1997","system_id":"levelo_inurba_marseille","lat":43.30642,"lon":5.401031,"is_reserved":false,"is_disabled":false,"rental_uris":{"android":"levelo://app?vid=21fc766d-c21a-4b5f-ab55-266de1de1997","ios":"levelo://app?vid=21fc766d-c21a-4b5f-ab55-266de1de1997"},"vehicle_type_id":"4","last_reported":1685397983,"current_range_meters":31200,"station_id":"ce4bh112rcd13ifvqda0","pricing_plan_id":"free"},{"bike_id":"9f5934bd-90f4-4a7e-8f1d-13cd883e0ec6","system_id":"levelo_inurba_marseille","lat":43.30642,"lon":5.401031,"is_reserved":false,"is_disabled":false,"rental_uris":{"android":"levelo://app?vid=9f5934bd-90f4-4a7e-8f1d-13cd883e0ec6","ios":"levelo://app?vid=9f5934bd-90f4-4a7e-8f1d-13cd883e0ec6"},"vehicle_type_id":"4","last_reported":1685397983,"current_range_meters":20800,"station_id":"ce4bh112rcd13ifvqda0","pricing_plan_id":"free"},{"bike_id":"c147154c-6e2a-483d-b1c9-4a7668c7b73b","system_id":"levelo_inurba_marseille","lat":43.30642,"lon":5.401031,"is_reserved":false,"is_disabled":false,"rental_uris":{"android":"levelo://app?vid=c147154c-6e2a-483d-b1c9-4a7668c7b73b","ios":"levelo://app?vid=c147154c-6e2a-483d-b1c9-4a7668c7b73b"},"vehicle_type_id":"4","last_reported":1685397983,"current_range_meters":31200,"station_id":"ce4bh112rcd13ifvqda0","pricing_plan_id":"free"},{"bike_id":"88eff76d-2f4f-4598-b8bf-a1e1ee974d5e","system_id":"levelo_inurba_marseille","lat":43.30642,"lon":5.401031,"is_reserved":false,"is_disabled":false,"rental_uris":{"android":"levelo://app?vid=88eff76d-2f4f-4598-b8bf-a1e1ee974d5e","ios":"levelo://app?vid=88eff76d-2f4f-4598-b8bf-a1e1ee974d5e"},"vehicle_type_id":"4","last_reported":1685397983,"current_range_meters":7200,"station_id":"ce4bh112rcd13ifvqda0","pricing_plan_id":"free"},{"bike_id":"708c0b63-71a9-4572-9cf4-14801ef4cae0","system_id":"levelo_inurba_marseille","lat":43.30642,"lon":5.401031,"is_reserved":false,"is_disabled":false,"rental_uris":{"android":"levelo://app?vid=708c0b63-71a9-4572-9cf4-14801ef4cae0","ios":"levelo://app?vid=708c0b63-71a9-4572-9cf4-14801ef4cae0"},"vehicle_type_id":"4","last_reported":1685397983,"current_range_meters":24000,"station_id":"ce4bh112rcd13ifvqda0","pricing_plan_id":"free"},{"bike_id":"12efc254-3fb2-4f70-aeb6-bc4d3511f47f","system_id":"levelo_inurba_marseille","lat":43.301117,"lon":5.398795,"is_reserved":false,"is_disabled":false,"rental_uris":{"android":"levelo://app?vid=12efc254-3fb2-4f70-aeb6-bc4d3511f47f","ios":"levelo://app?vid=12efc254-3fb2-4f70-aeb6-bc4d3511f47f"},"vehicle_type_id":"4","last_reported":1685397983,"current_range_meters":0,"station_id":"ce4bh0h2rcd13ifvqd40","pricing_plan_id":"free"},{"bike_id":"3eb9dd09-ec82-4940-9cd2-db24ca7d5eba","system_id":"levelo_inurba_marseille","lat":43.301117,"lon":5.398795,"is_reserved":false,"is_disabled":false,"rental_uris":{"android":"levelo://app?vid=3eb9dd09-ec82-4940-9cd2-db24ca7d5eba","ios":"levelo://app?vid=3eb9dd09-ec82-4940-9cd2-db24ca7d5eba"},"vehicle_type_id":"4","last_reported":1685397983,"current_range_meters":25600,"station_id":"ce4bh0h2rcd13ifvqd40","pricing_plan_id":"free"},{"bike_id":"63a9223a-b042-46b7-8247-e66689d83fc0","system_id":"levelo_inurba_marseille","lat":43.301117,"lon":5.398795,"is_reserved":false,"is_disabled":false,"rental_uris":{"android":"levelo://app?vid=63a9223a-b042-46b7-8247-e66689d83fc0","ios":"levelo://app?vid=63a9223a-b042-46b7-8247-e66689d83fc0"},"vehicle_type_id":"4","last_reported":1685397983,"current_range_meters":31200,"station_id":"ce4bh0h2rcd13ifvqd40","pricing_plan_id":"free"},{"bike_id":"6df02acd-b0bc-4eb6-bd3f-b43c1a7bb5b8","system_id":"levelo_inurba_marseille","lat":43.298681,"lon":5.397225,"is_reserved":false,"is_disabled":false,"rental_uris":{"android":"levelo://app?vid=6df02acd-b0bc-4eb6-bd3f-b43c1a7bb5b8","ios":"levelo://app?vid=6df02acd-b0bc-4eb6-bd3f-b43c1a7bb5b8"},"vehicle_type_id":"4","last_reported":1685397983,"current_range_meters":11200,"station_id":"ce4bh0h2rcd13ifvqd50","pricing_plan_id":"free"},{"bike_id":"41a18f88-e391-47a1-8770-27b00653615b","system_id":"levelo_inurba_marseille","lat":43.286591,"lon":5.363346,"is_reserved":false,"is_disabled":false,"rental_uris":{"android":"levelo://app?vid=41a18f88-e391-47a1-8770-27b00653615b","ios":"levelo://app?vid=41a18f88-e391-47a1-8770-27b00653615b"},"vehicle_type_id":"4","last_reported":1685397983,"current_range_meters":20400,"station_id":"ce4bhah2rcd13ifvqej0","pricing_plan_id":"free"},{"bike_id":"f2f4f834-0c25-4caf-99a4-fbf1b987b888","system_id":"levelo_inurba_marseille","lat":43.286591,"lon":5.363346,"is_reserved":false,"is_disabled":false,"rental_uris":{"android":"levelo://app?vid=f2f4f834-0c25-4caf-99a4-fbf1b987b888","ios":"levelo://app?vid=f2f4f834-0c25-4caf-99a4-fbf1b987b888"},"vehicle_type_id":"4","last_reported":1685397983,"current_range_meters":31200,"station_id":"ce4bhah2rcd13ifvqej0","pricing_plan_id":"free"},{"bike_id":"b0b4f489-2855-415c-af10-f94745f59102","system_id":"levelo_inurba_marseille","lat":43.298681,"lon":5.397225,"is_reserved":false,"is_disabled":false,"rental_uris":{"android":"levelo://app?vid=b0b4f489-2855-415c-af10-f94745f59102","ios":"levelo://app?vid=b0b4f489-2855-415c-af10-f94745f59102"},"vehicle_type_id":"4","last_reported":1685397983,"current_range_meters":22800,"station_id":"ce4bh0h2rcd13ifvqd50","pricing_plan_id":"free"},{"bike_id":"e2e15a3d-96f2-4aa1-b243-1c64aff9baf2","system_id":"levelo_inurba_marseille","lat":43.30937,"lon":5.40276,"is_reserved":false,"is_disabled":false,"rental_uris":{"android":"levelo://app?vid=e2e15a3d-96f2-4aa1-b243-1c64aff9baf2","ios":"levelo://app?vid=e2e15a3d-96f2-4aa1-b243-1c64aff9baf2"},"vehicle_type_id":"4","last_reported":1685397983,"current_range_meters":2400,"station_id":"","pricing_plan_id":"free"},{"bike_id":"b161f55b-f518-4788-a784-54e2516213e1","system_id":"levelo_inurba_marseille","lat":43.295194,"lon":5.39397,"is_reserved":false,"is_disabled":false,"rental_uris":{"android":"levelo://app?vid=b161f55b-f518-4788-a784-54e2516213e1","ios":"levelo://app?vid=b161f55b-f518-4788-a784-54e2516213e1"},"vehicle_type_id":"4","last_reported":1685397983,"current_range_meters":17200,"station_id":"ce4bh292rcd13ifvqdf0","pricing_plan_id":"free"},{"bike_id":"b54ddb2c-a35d-4aed-8f7d-0ef06a3c3408","system_id":"levelo_inurba_marseille","lat":43.286593,"lon":5.363346,"is_reserved":false,"is_disabled":false,"rental_uris":{"android":"levelo://app?vid=b54ddb2c-a35d-4aed-8f7d-0ef06a3c3408","ios":"levelo://app?vid=b54ddb2c-a35d-4aed-8f7d-0ef06a3c3408"},"vehicle_type_id":"4","last_reported":1685397983,"current_range_meters":26000,"station_id":"ce4bhah2rcd13ifvqej0","pricing_plan_id":"free"},{"bike_id":"0aabc8ae-63f0-4954-b2df-0a34d6ee7bad","system_id":"levelo_inurba_marseille","lat":43.302759,"lon":5.400793,"is_reserved":false,"is_disabled":false,"rental_uris":{"android":"levelo://app?vid=0aabc8ae-63f0-4954-b2df-0a34d6ee7bad","ios":"levelo://app?vid=0aabc8ae-63f0-4954-b2df-0a34d6ee7bad"},"vehicle_type_id":"4","last_reported":1685397983,"current_range_meters":26400,"station_id":"ce4bgvh2rcd13ifvqcs0","pricing_plan_id":"free"},{"bike_id":"6ba4cd76-914e-407a-ac32-5b0536449eb2","system_id":"levelo_inurba_marseille","lat":43.302759,"lon":5.400793,"is_reserved":false,"is_disabled":false,"rental_uris":{"android":"levelo://app?vid=6ba4cd76-914e-407a-ac32-5b0536449eb2","ios":"levelo://app?vid=6ba4cd76-914e-407a-ac32-5b0536449eb2"},"vehicle_type_id":"4","last_reported":1685397983,"current_range_meters":22400,"station_id":"ce4bgvh2rcd13ifvqcs0","pricing_plan_id":"free"},{"bike_id":"8f69b313-b576-433f-9e99-11700dbd4fe9","system_id":"levelo_inurba_marseille","lat":43.302759,"lon":5.400793,"is_reserved":false,"is_disabled":false,"rental_uris":{"android":"levelo://app?vid=8f69b313-b576-433f-9e99-11700dbd4fe9","ios":"levelo://app?vid=8f69b313-b576-433f-9e99-11700dbd4fe9"},"vehicle_type_id":"4","last_reported":1685397983,"current_range_meters":7600,"station_id":"ce4bgvh2rcd13ifvqcs0","pricing_plan_id":"free"},{"bike_id":"fde3b85f-8c03-4110-95e2-af0173351304","system_id":"levelo_inurba_marseille","lat":43.287184,"lon":5.37937,"is_reserved":false,"is_disabled":false,"rental_uris":{"android":"levelo://app?vid=fde3b85f-8c03-4110-95e2-af0173351304","ios":"levelo://app?vid=fde3b85f-8c03-4110-95e2-af0173351304"},"vehicle_type_id":"4","last_reported":1685397983,"current_range_meters":6400,"station_id":"ce4bh9p2rcd13ifvqec0","pricing_plan_id":"free"},{"bike_id":"d0da7b4c-a280-4677-be54-4bcae94e29d4","system_id":"levelo_inurba_marseille","lat":43.287185,"lon":5.379373,"is_reserved":false,"is_disabled":false,"rental_uris":{"android":"levelo://app?vid=d0da7b4c-a280-4677-be54-4bcae94e29d4","ios":"levelo://app?vid=d0da7b4c-a280-4677-be54-4bcae94e29d4"},"vehicle_type_id":"4","last_reported":1685397983,"current_range_meters":12000,"station_id":"ce4bh9p2rcd13ifvqec0","pricing_plan_id":"free"},{"bike_id":"9fff95c1-d276-4a15-97c0-3315778eb5d6","system_id":"levelo_inurba_marseille","lat":43.287184,"lon":5.37937,"is_reserved":false,"is_disabled":false,"rental_uris":{"android":"levelo://app?vid=9fff95c1-d276-4a15-97c0-3315778eb5d6","ios":"levelo://app?vid=9fff95c1-d276-4a15-97c0-3315778eb5d6"},"vehicle_type_id":"4","last_reported":1685397983,"current_range_meters":28800,"station_id":"ce4bh9p2rcd13ifvqec0","pricing_plan_id":"free"},{"bike_id":"1606c1b0-fef6-41aa-b776-0d8aef810713","system_id":"levelo_inurba_marseille","lat":43.316517,"lon":5.404375,"is_reserved":false,"is_disabled":false,"rental_uris":{"android":"levelo://app?vid=1606c1b0-fef6-41aa-b776-0d8aef810713","ios":"levelo://app?vid=1606c1b0-fef6-41aa-b776-0d8aef810713"},"vehicle_type_id":"4","last_reported":1685397983,"current_range_meters":10400,"station_id":"ce4bh012rcd13ifvqd00","pricing_plan_id":"free"},{"bike_id":"4254c66c-5909-4d21-bb42-4a6b3ae89a26","system_id":"levelo_inurba_marseille","lat":43.316517,"lon":5.404375,"is_reserved":false,"is_disabled":false,"rental_uris":{"android":"levelo://app?vid=4254c66c-5909-4d21-bb42-4a6b3ae89a26","ios":"levelo://app?vid=4254c66c-5909-4d21-bb42-4a6b3ae89a26"},"vehicle_type_id":"4","last_reported":1685397983,"current_range_meters":9200,"station_id":"ce4bh012rcd13ifvqd00","pricing_plan_id":"free"},{"bike_id":"911523ab-6644-409c-81a0-c5885a4c1d83","system_id":"levelo_inurba_marseille","lat":43.316517,"lon":5.404375,"is_reserved":false,"is_disabled":false,"rental_uris":{"android":"levelo://app?vid=911523ab-6644-409c-81a0-c5885a4c1d83","ios":"levelo://app?vid=911523ab-6644-409c-81a0-c5885a4c1d83"},"vehicle_type_id":"4","last_reported":1685397983,"current_range_meters":6400,"station_id":"ce4bh012rcd13ifvqd00","pricing_plan_id":"free"},{"bike_id":"623adf98-fec5-4711-8ef4-28f22ca4494d","system_id":"levelo_inurba_marseille","lat":43.316517,"lon":5.404375,"is_reserved":false,"is_disabled":false,"rental_uris":{"android":"levelo://app?vid=623adf98-fec5-4711-8ef4-28f22ca4494d","ios":"levelo://app?vid=623adf98-fec5-4711-8ef4-28f22ca4494d"},"vehicle_type_id":"4","last_reported":1685397983,"current_range_meters":13600,"station_id":"ce4bh012rcd13ifvqd00","pricing_plan_id":"free"},{"bike_id":"e752d6b8-aebe-499f-9fc3-5c51337b9708","system_id":"levelo_inurba_marseille","lat":43.316517,"lon":5.404375,"is_reserved":false,"is_disabled":false,"rental_uris":{"android":"levelo://app?vid=e752d6b8-aebe-499f-9fc3-5c51337b9708","ios":"levelo://app?vid=e752d6b8-aebe-499f-9fc3-5c51337b9708"},"vehicle_type_id":"4","last_reported":1685397983,"current_range_meters":3200,"station_id":"ce4bh012rcd13ifvqd00","pricing_plan_id":"free"},{"bike_id":"5a86566e-ea2d-4d34-b28a-bd6d67f2f854","system_id":"levelo_inurba_marseille","lat":43.316517,"lon":5.404375,"is_reserved":false,"is_disabled":false,"rental_uris":{"android":"levelo://app?vid=5a86566e-ea2d-4d34-b28a-bd6d67f2f854","ios":"levelo://app?vid=5a86566e-ea2d-4d34-b28a-bd6d67f2f854"},"vehicle_type_id":"4","last_reported":1685397983,"current_range_meters":21600,"station_id":"ce4bh012rcd13ifvqd00","pricing_plan_id":"free"},{"bike_id":"356a0ed3-f419-4208-abb4-25a6818607c4","system_id":"levelo_inurba_marseille","lat":43.316517,"lon":5.404375,"is_reserved":false,"is_disabled":false,"rental_uris":{"android":"levelo://app?vid=356a0ed3-f419-4208-abb4-25a6818607c4","ios":"levelo://app?vid=356a0ed3-f419-4208-abb4-25a6818607c4"},"vehicle_type_id":"4","last_reported":1685397983,"current_range_meters":14800,"station_id":"ce4bh012rcd13ifvqd00","pricing_plan_id":"free"},{"bike_id":"c5021a32-e1c0-4ed6-803c-4998512206c4","system_id":"levelo_inurba_marseille","lat":43.31646,"lon":5.4044,"is_reserved":false,"is_disabled":false,"rental_uris":{"android":"levelo://app?vid=c5021a32-e1c0-4ed6-803c-4998512206c4","ios":"levelo://app?vid=c5021a32-e1c0-4ed6-803c-4998512206c4"},"vehicle_type_id":"4","last_reported":1685397983,"current_range_meters":2000,"station_id":"ce4bh012rcd13ifvqd00","pricing_plan_id":"free"},{"bike_id":"789a27c0-d9f7-4af1-96f3-f2feb6ebf9d5","system_id":"levelo_inurba_marseille","lat":43.28464,"lon":5.35883,"is_reserved":false,"is_disabled":false,"rental_uris":{"android":"levelo://app?vid=789a27c0-d9f7-4af1-96f3-f2feb6ebf9d5","ios":"levelo://app?vid=789a27c0-d9f7-4af1-96f3-f2feb6ebf9d5"},"vehicle_type_id":"4","last_reported":1685397983,"current_range_meters":8800,"station_id":"ce4bhah2rcd13ifvqei0","pricing_plan_id":"free"},{"bike_id":"8decf36e-a88a-4616-9949-a6296ebe70d3","system_id":"levelo_inurba_marseille","lat":43.284622,"lon":5.358806,"is_reserved":false,"is_disabled":false,"rental_uris":{"android":"levelo://app?vid=8decf36e-a88a-4616-9949-a6296ebe70d3","ios":"levelo://app?vid=8decf36e-a88a-4616-9949-a6296ebe70d3"},"vehicle_type_id":"4","last_reported":1685397983,"current_range_meters":13600,"station_id":"ce4bhah2rcd13ifvqei0","pricing_plan_id":"free"},{"bike_id":"3c83aa28-a5f3-4e32-8842-87922f0cf9ac","system_id":"levelo_inurba_marseille","lat":43.2846,"lon":5.35893,"is_reserved":false,"is_disabled":false,"rental_uris":{"android":"levelo://app?vid=3c83aa28-a5f3-4e32-8842-87922f0cf9ac","ios":"levelo://app?vid=3c83aa28-a5f3-4e32-8842-87922f0cf9ac"},"vehicle_type_id":"4","last_reported":1685397983,"current_range_meters":31200,"station_id":"","pricing_plan_id":"free"},{"bike_id":"74522760-4228-47cc-9090-0a17df0f19e4","system_id":"levelo_inurba_marseille","lat":43.2846,"lon":5.35886,"is_reserved":false,"is_disabled":false,"rental_uris":{"android":"levelo://app?vid=74522760-4228-47cc-9090-0a17df0f19e4","ios":"levelo://app?vid=74522760-4228-47cc-9090-0a17df0f19e4"},"vehicle_type_id":"4","last_reported":1685397983,"current_range_meters":10800,"station_id":"ce4bhah2rcd13ifvqei0","pricing_plan_id":"free"},{"bike_id":"6743f7cf-1f5a-4f61-abd7-cc5bbe0223c9","system_id":"levelo_inurba_marseille","lat":43.28458,"lon":5.35897,"is_reserved":false,"is_disabled":false,"rental_uris":{"android":"levelo://app?vid=6743f7cf-1f5a-4f61-abd7-cc5bbe0223c9","ios":"levelo://app?vid=6743f7cf-1f5a-4f61-abd7-cc5bbe0223c9"},"vehicle_type_id":"4","last_reported":1685397983,"current_range_meters":22800,"station_id":"ce4bhah2rcd13ifvqei0","pricing_plan_id":"free"},{"bike_id":"f8ed514f-b73e-439c-8783-0306ab4c690f","system_id":"levelo_inurba_marseille","lat":43.31753,"lon":5.40589,"is_reserved":false,"is_disabled":false,"rental_uris":{"android":"levelo://app?vid=f8ed514f-b73e-439c-8783-0306ab4c690f","ios":"levelo://app?vid=f8ed514f-b73e-439c-8783-0306ab4c690f"},"vehicle_type_id":"4","last_reported":1685397983,"current_range_meters":18800,"station_id":"","pricing_plan_id":"free"},{"bike_id":"fa6dccac-e3ae-4778-a53d-69df45939d54","system_id":"levelo_inurba_marseille","lat":43.28458,"lon":5.35879,"is_reserved":false,"is_disabled":false,"rental_uris":{"android":"levelo://app?vid=fa6dccac-e3ae-4778-a53d-69df45939d54","ios":"levelo://app?vid=fa6dccac-e3ae-4778-a53d-69df45939d54"},"vehicle_type_id":"4","last_reported":1685397983,"current_range_meters":0,"station_id":"ce4bhah2rcd13ifvqei0","pricing_plan_id":"free"},{"bike_id":"6d5333f4-e6af-4086-9947-0d87e5878dd7","system_id":"levelo_inurba_marseille","lat":43.28456,"lon":5.35889,"is_reserved":false,"is_disabled":false,"rental_uris":{"android":"levelo://app?vid=6d5333f4-e6af-4086-9947-0d87e5878dd7","ios":"levelo://app?vid=6d5333f4-e6af-4086-9947-0d87e5878dd7"},"vehicle_type_id":"4","last_reported":1685397983,"current_range_meters":0,"station_id":"ce4bhah2rcd13ifvqei0","pricing_plan_id":"free"},{"bike_id":"8d34a19f-90a9-45d2-8d9a-773597eb7cf0","system_id":"levelo_inurba_marseille","lat":43.284539,"lon":5.358901,"is_reserved":false,"is_disabled":false,"rental_uris":{"android":"levelo://app?vid=8d34a19f-90a9-45d2-8d9a-773597eb7cf0","ios":"levelo://app?vid=8d34a19f-90a9-45d2-8d9a-773597eb7cf0"},"vehicle_type_id":"4","last_reported":1685397983,"current_range_meters":14000,"station_id":"ce4bhah2rcd13ifvqei0","pricing_plan_id":"free"},{"bike_id":"c1ed57af-de4a-48f4-87ca-e0e2df94f1aa","system_id":"levelo_inurba_marseille","lat":43.28619,"lon":5.35096,"is_reserved":false,"is_disabled":false,"rental_uris":{"android":"levelo://app?vid=c1ed57af-de4a-48f4-87ca-e0e2df94f1aa","ios":"levelo://app?vid=c1ed57af-de4a-48f4-87ca-e0e2df94f1aa"},"vehicle_type_id":"4","last_reported":1685397983,"current_range_meters":20400,"station_id":"","pricing_plan_id":"free"},{"bike_id":"db5c134f-ad61-41d3-877a-3d5e88175d32","system_id":"levelo_inurba_marseille","lat":43.295713,"lon":5.399639,"is_reserved":false,"is_disabled":false,"rental_uris":{"android":"levelo://app?vid=db5c134f-ad61-41d3-877a-3d5e88175d32","ios":"levelo://app?vid=db5c134f-ad61-41d3-877a-3d5e88175d32"},"vehicle_type_id":"4","last_reported":1685397983,"current_range_meters":20400,"station_id":"ce4bh312rcd13ifvqdj0","pricing_plan_id":"free"},{"bike_id":"c66d9da6-e508-458d-b985-aea348e3b1c4","system_id":"levelo_inurba_marseille","lat":43.323464,"lon":5.406297,"is_reserved":false,"is_disabled":false,"rental_uris":{"android":"levelo://app?vid=c66d9da6-e508-458d-b985-aea348e3b1c4","ios":"levelo://app?vid=c66d9da6-e508-458d-b985-aea348e3b1c4"},"vehicle_type_id":"4","last_reported":1685397983,"current_range_meters":8400,"station_id":"ce4bhq92rcd13ifvqhjg","pricing_plan_id":"free"},{"bike_id":"e2fc3e02-c01e-4cf9-b6e1-91c460e6e31b","system_id":"levelo_inurba_marseille","lat":43.323464,"lon":5.406297,"is_reserved":false,"is_disabled":false,"rental_uris":{"android":"levelo://app?vid=e2fc3e02-c01e-4cf9-b6e1-91c460e6e31b","ios":"levelo://app?vid=e2fc3e02-c01e-4cf9-b6e1-91c460e6e31b"},"vehicle_type_id":"4","last_reported":1685397983,"current_range_meters":400,"station_id":"ce4bhq92rcd13ifvqhjg","pricing_plan_id":"free"},{"bike_id":"1225aaac-710b-451f-81d3-bec87b5dcd6a","system_id":"levelo_inurba_marseille","lat":43.288497,"lon":5.393089,"is_reserved":false,"is_disabled":false,"rental_uris":{"android":"levelo://app?vid=1225aaac-710b-451f-81d3-bec87b5dcd6a","ios":"levelo://app?vid=1225aaac-710b-451f-81d3-bec87b5dcd6a"},"vehicle_type_id":"4","last_reported":1685397983,"current_range_meters":14400,"station_id":"ce4bh2p2rcd13ifvqdi0","pricing_plan_id":"free"},{"bike_id":"b340bc7c-339a-41ef-8d27-a5687ae287d8","system_id":"levelo_inurba_marseille","lat":43.28842,"lon":5.39313,"is_reserved":false,"is_disabled":false,"rental_uris":{"android":"levelo://app?vid=b340bc7c-339a-41ef-8d27-a5687ae287d8","ios":"levelo://app?vid=b340bc7c-339a-41ef-8d27-a5687ae287d8"},"vehicle_type_id":"4","last_reported":1685397983,"current_range_meters":5200,"station_id":"ce4bh2p2rcd13ifvqdi0","pricing_plan_id":"free"},{"bike_id":"aba32860-f47b-454b-9119-198634c6c004","system_id":"levelo_inurba_marseille","lat":43.288501,"lon":5.393087,"is_reserved":false,"is_disabled":false,"rental_uris":{"android":"levelo://app?vid=aba32860-f47b-454b-9119-198634c6c004","ios":"levelo://app?vid=aba32860-f47b-454b-9119-198634c6c004"},"vehicle_type_id":"4","last_reported":1685397983,"current_range_meters":22000,"station_id":"ce4bh2p2rcd13ifvqdi0","pricing_plan_id":"free"},{"bike_id":"ff038a5f-e1f1-4f3c-acd8-0910f26eaf23","system_id":"levelo_inurba_marseille","lat":43.283494,"lon":5.380945,"is_reserved":false,"is_disabled":false,"rental_uris":{"android":"levelo://app?vid=ff038a5f-e1f1-4f3c-acd8-0910f26eaf23","ios":"levelo://app?vid=ff038a5f-e1f1-4f3c-acd8-0910f26eaf23"},"vehicle_type_id":"4","last_reported":1685397983,"current_range_meters":31200,"station_id":"ce4bh412rcd13ifvqdr0","pricing_plan_id":"free"},{"bike_id":"2c559ea2-091d-4095-8324-64c65232abc0","system_id":"levelo_inurba_marseille","lat":43.292724,"lon":5.401131,"is_reserved":false,"is_disabled":false,"rental_uris":{"android":"levelo://app?vid=2c559ea2-091d-4095-8324-64c65232abc0","ios":"levelo://app?vid=2c559ea2-091d-4095-8324-64c65232abc0"},"vehicle_type_id":"4","last_reported":1685397983,"current_range_meters":16000,"station_id":"ce4bh312rcd13ifvqdk0","pricing_plan_id":"free"},{"bike_id":"88b8acc3-4a95-431a-baf9-36ce3bef15ff","system_id":"levelo_inurba_marseille","lat":43.292724,"lon":5.401131,"is_reserved":false,"is_disabled":false,"rental_uris":{"android":"levelo://app?vid=88b8acc3-4a95-431a-baf9-36ce3bef15ff","ios":"levelo://app?vid=88b8acc3-4a95-431a-baf9-36ce3bef15ff"},"vehicle_type_id":"4","last_reported":1685397983,"current_range_meters":6800,"station_id":"ce4bh312rcd13ifvqdk0","pricing_plan_id":"free"},{"bike_id":"0d4f96f6-cc46-4828-a8f7-539d5779989d","system_id":"levelo_inurba_marseille","lat":43.292724,"lon":5.401131,"is_reserved":false,"is_disabled":false,"rental_uris":{"android":"levelo://app?vid=0d4f96f6-cc46-4828-a8f7-539d5779989d","ios":"levelo://app?vid=0d4f96f6-cc46-4828-a8f7-539d5779989d"},"vehicle_type_id":"4","last_reported":1685397983,"current_range_meters":4000,"station_id":"ce4bh312rcd13ifvqdk0","pricing_plan_id":"free"},{"bike_id":"593056ad-d3fc-4396-8b48-97fc525274ef","system_id":"levelo_inurba_marseille","lat":43.292724,"lon":5.401131,"is_reserved":false,"is_disabled":false,"rental_uris":{"android":"levelo://app?vid=593056ad-d3fc-4396-8b48-97fc525274ef","ios":"levelo://app?vid=593056ad-d3fc-4396-8b48-97fc525274ef"},"vehicle_type_id":"4","last_reported":1685397983,"current_range_meters":8000,"station_id":"ce4bh312rcd13ifvqdk0","pricing_plan_id":"free"},{"bike_id":"67e9e9e9-9d95-42d6-a85d-24edac920208","system_id":"levelo_inurba_marseille","lat":43.292724,"lon":5.401131,"is_reserved":false,"is_disabled":false,"rental_uris":{"android":"levelo://app?vid=67e9e9e9-9d95-42d6-a85d-24edac920208","ios":"levelo://app?vid=67e9e9e9-9d95-42d6-a85d-24edac920208"},"vehicle_type_id":"4","last_reported":1685397983,"current_range_meters":7200,"station_id":"ce4bh312rcd13ifvqdk0","pricing_plan_id":"free"},{"bike_id":"ec95eea7-d958-4268-96fb-0e575c483067","system_id":"levelo_inurba_marseille","lat":43.292724,"lon":5.401131,"is_reserved":false,"is_disabled":false,"rental_uris":{"android":"levelo://app?vid=ec95eea7-d958-4268-96fb-0e575c483067","ios":"levelo://app?vid=ec95eea7-d958-4268-96fb-0e575c483067"},"vehicle_type_id":"4","last_reported":1685397983,"current_range_meters":28800,"station_id":"ce4bh312rcd13ifvqdk0","pricing_plan_id":"free"},{"bike_id":"95339fdd-0215-41a6-b7d7-903411ef2cb6","system_id":"levelo_inurba_marseille","lat":43.28039,"lon":5.369297,"is_reserved":false,"is_disabled":false,"rental_uris":{"android":"levelo://app?vid=95339fdd-0215-41a6-b7d7-903411ef2cb6","ios":"levelo://app?vid=95339fdd-0215-41a6-b7d7-903411ef2cb6"},"vehicle_type_id":"4","last_reported":1685397983,"current_range_meters":30400,"station_id":"ce4bha12rcd13ifvqef0","pricing_plan_id":"free"},{"bike_id":"47b1bee4-243b-4c06-9926-dbadcdb9f7ae","system_id":"levelo_inurba_marseille","lat":43.28039,"lon":5.369297,"is_reserved":false,"is_disabled":false,"rental_uris":{"android":"levelo://app?vid=47b1bee4-243b-4c06-9926-dbadcdb9f7ae","ios":"levelo://app?vid=47b1bee4-243b-4c06-9926-dbadcdb9f7ae"},"vehicle_type_id":"4","last_reported":1685397983,"current_range_meters":19200,"station_id":"ce4bha12rcd13ifvqef0","pricing_plan_id":"free"},{"bike_id":"888dfc7e-c918-47f4-b64a-6b89affe48b1","system_id":"levelo_inurba_marseille","lat":43.2904,"lon":5.39946,"is_reserved":false,"is_disabled":false,"rental_uris":{"android":"levelo://app?vid=888dfc7e-c918-47f4-b64a-6b89affe48b1","ios":"levelo://app?vid=888dfc7e-c918-47f4-b64a-6b89affe48b1"},"vehicle_type_id":"4","last_reported":1685397983,"current_range_meters":23600,"station_id":"ce4bh392rcd13ifvqdm0","pricing_plan_id":"free"},{"bike_id":"1a45aa28-1d82-4b06-b92f-dc36e836b6b0","system_id":"levelo_inurba_marseille","lat":43.29037,"lon":5.39971,"is_reserved":false,"is_disabled":false,"rental_uris":{"android":"levelo://app?vid=1a45aa28-1d82-4b06-b92f-dc36e836b6b0","ios":"levelo://app?vid=1a45aa28-1d82-4b06-b92f-dc36e836b6b0"},"vehicle_type_id":"4","last_reported":1685397983,"current_range_meters":18400,"station_id":"ce4bh392rcd13ifvqdm0","pricing_plan_id":"free"},{"bike_id":"f76c0686-61f9-4a8a-be7a-ab685e168a08","system_id":"levelo_inurba_marseille","lat":43.281044,"lon":5.378308,"is_reserved":false,"is_disabled":false,"rental_uris":{"android":"levelo://app?vid=f76c0686-61f9-4a8a-be7a-ab685e168a08","ios":"levelo://app?vid=f76c0686-61f9-4a8a-be7a-ab685e168a08"},"vehicle_type_id":"4","last_reported":1685397983,"current_range_meters":1600,"station_id":"ce4bha12rcd13ifvqee0","pricing_plan_id":"free"},{"bike_id":"971ed3cc-3b28-4216-81fe-046c44a956ec","system_id":"levelo_inurba_marseille","lat":43.281044,"lon":5.378308,"is_reserved":false,"is_disabled":false,"rental_uris":{"android":"levelo://app?vid=971ed3cc-3b28-4216-81fe-046c44a956ec","ios":"levelo://app?vid=971ed3cc-3b28-4216-81fe-046c44a956ec"},"vehicle_type_id":"4","last_reported":1685397983,"current_range_meters":6400,"station_id":"ce4bha12rcd13ifvqee0","pricing_plan_id":"free"},{"bike_id":"a58a5910-b4f5-490a-bbd7-038ce7c04af8","system_id":"levelo_inurba_marseille","lat":43.281044,"lon":5.378308,"is_reserved":false,"is_disabled":false,"rental_uris":{"android":"levelo://app?vid=a58a5910-b4f5-490a-bbd7-038ce7c04af8","ios":"levelo://app?vid=a58a5910-b4f5-490a-bbd7-038ce7c04af8"},"vehicle_type_id":"4","last_reported":1685397983,"current_range_meters":23200,"station_id":"ce4bha12rcd13ifvqee0","pricing_plan_id":"free"},{"bike_id":"ec70ec26-77d3-444d-a4ef-25c73a19aba3","system_id":"levelo_inurba_marseille","lat":43.29041,"lon":5.399634,"is_reserved":false,"is_disabled":false,"rental_uris":{"android":"levelo://app?vid=ec70ec26-77d3-444d-a4ef-25c73a19aba3","ios":"levelo://app?vid=ec70ec26-77d3-444d-a4ef-25c73a19aba3"},"vehicle_type_id":"4","last_reported":1685397983,"current_range_meters":21600,"station_id":"ce4bh392rcd13ifvqdm0","pricing_plan_id":"free"},{"bike_id":"bf454ce7-5b76-42b2-ad17-4d9dde60a9da","system_id":"levelo_inurba_marseille","lat":43.296263,"lon":5.40601,"is_reserved":false,"is_disabled":false,"rental_uris":{"android":"levelo://app?vid=bf454ce7-5b76-42b2-ad17-4d9dde60a9da","ios":"levelo://app?vid=bf454ce7-5b76-42b2-ad17-4d9dde60a9da"},"vehicle_type_id":"4","last_reported":1685397983,"current_range_meters":31200,"station_id":"ce4bh0h2rcd13ifvqd60","pricing_plan_id":"free"},{"bike_id":"b5e523e4-f969-4839-a37a-5a1dd7ad7df6","system_id":"levelo_inurba_marseille","lat":43.281044,"lon":5.378308,"is_reserved":false,"is_disabled":false,"rental_uris":{"android":"levelo://app?vid=b5e523e4-f969-4839-a37a-5a1dd7ad7df6","ios":"levelo://app?vid=b5e523e4-f969-4839-a37a-5a1dd7ad7df6"},"vehicle_type_id":"4","last_reported":1685397983,"current_range_meters":21600,"station_id":"ce4bha12rcd13ifvqee0","pricing_plan_id":"free"},{"bike_id":"a90eaae8-932f-45d4-9d04-ace4926ccd04","system_id":"levelo_inurba_marseille","lat":43.281044,"lon":5.378308,"is_reserved":false,"is_disabled":false,"rental_uris":{"android":"levelo://app?vid=a90eaae8-932f-45d4-9d04-ace4926ccd04","ios":"levelo://app?vid=a90eaae8-932f-45d4-9d04-ace4926ccd04"},"vehicle_type_id":"4","last_reported":1685397983,"current_range_meters":400,"station_id":"ce4bha12rcd13ifvqee0","pricing_plan_id":"free"},{"bike_id":"b6bf9326-00f0-493c-b398-db2433806ad0","system_id":"levelo_inurba_marseille","lat":43.281044,"lon":5.378308,"is_reserved":false,"is_disabled":false,"rental_uris":{"android":"levelo://app?vid=b6bf9326-00f0-493c-b398-db2433806ad0","ios":"levelo://app?vid=b6bf9326-00f0-493c-b398-db2433806ad0"},"vehicle_type_id":"4","last_reported":1685397983,"current_range_meters":16800,"station_id":"ce4bha12rcd13ifvqee0","pricing_plan_id":"free"},{"bike_id":"3653d1c0-6b75-484a-96d1-d9e70ac21284","system_id":"levelo_inurba_marseille","lat":43.296263,"lon":5.40601,"is_reserved":false,"is_disabled":false,"rental_uris":{"android":"levelo://app?vid=3653d1c0-6b75-484a-96d1-d9e70ac21284","ios":"levelo://app?vid=3653d1c0-6b75-484a-96d1-d9e70ac21284"},"vehicle_type_id":"4","last_reported":1685397983,"current_range_meters":31200,"station_id":"ce4bh0h2rcd13ifvqd60","pricing_plan_id":"free"},{"bike_id":"8d9728c1-028c-48c5-82d0-7d3221e6fc74","system_id":"levelo_inurba_marseille","lat":43.296263,"lon":5.40601,"is_reserved":false,"is_disabled":false,"rental_uris":{"android":"levelo://app?vid=8d9728c1-028c-48c5-82d0-7d3221e6fc74","ios":"levelo://app?vid=8d9728c1-028c-48c5-82d0-7d3221e6fc74"},"vehicle_type_id":"4","last_reported":1685397983,"current_range_meters":31200,"station_id":"ce4bh0h2rcd13ifvqd60","pricing_plan_id":"free"},{"bike_id":"57626bc4-351b-4d87-abb0-0ff27564887c","system_id":"levelo_inurba_marseille","lat":43.281044,"lon":5.378308,"is_reserved":false,"is_disabled":false,"rental_uris":{"android":"levelo://app?vid=57626bc4-351b-4d87-abb0-0ff27564887c","ios":"levelo://app?vid=57626bc4-351b-4d87-abb0-0ff27564887c"},"vehicle_type_id":"4","last_reported":1685397983,"current_range_meters":20400,"station_id":"ce4bha12rcd13ifvqee0","pricing_plan_id":"free"},{"bike_id":"b18c48b7-d128-4530-9349-ee6c2e774019","system_id":"levelo_inurba_marseille","lat":43.290305,"lon":5.399825,"is_reserved":false,"is_disabled":false,"rental_uris":{"android":"levelo://app?vid=b18c48b7-d128-4530-9349-ee6c2e774019","ios":"levelo://app?vid=b18c48b7-d128-4530-9349-ee6c2e774019"},"vehicle_type_id":"4","last_reported":1685397983,"current_range_meters":14400,"station_id":"ce4bh392rcd13ifvqdm0","pricing_plan_id":"free"},{"bike_id":"805e9008-13f2-4e42-a226-b065fa37c4ad","system_id":"levelo_inurba_marseille","lat":43.281044,"lon":5.378308,"is_reserved":false,"is_disabled":false,"rental_uris":{"android":"levelo://app?vid=805e9008-13f2-4e42-a226-b065fa37c4ad","ios":"levelo://app?vid=805e9008-13f2-4e42-a226-b065fa37c4ad"},"vehicle_type_id":"4","last_reported":1685397983,"current_range_meters":0,"station_id":"ce4bha12rcd13ifvqee0","pricing_plan_id":"free"},{"bike_id":"53793c2d-d584-4c37-a309-161cfcf7a01d","system_id":"levelo_inurba_marseille","lat":43.281044,"lon":5.378308,"is_reserved":false,"is_disabled":false,"rental_uris":{"android":"levelo://app?vid=53793c2d-d584-4c37-a309-161cfcf7a01d","ios":"levelo://app?vid=53793c2d-d584-4c37-a309-161cfcf7a01d"},"vehicle_type_id":"4","last_reported":1685397983,"current_range_meters":0,"station_id":"ce4bha12rcd13ifvqee0","pricing_plan_id":"free"},{"bike_id":"2df6825a-3882-485b-82be-f876cb9f62b7","system_id":"levelo_inurba_marseille","lat":43.29023,"lon":5.39975,"is_reserved":false,"is_disabled":false,"rental_uris":{"android":"levelo://app?vid=2df6825a-3882-485b-82be-f876cb9f62b7","ios":"levelo://app?vid=2df6825a-3882-485b-82be-f876cb9f62b7"},"vehicle_type_id":"4","last_reported":1685397983,"current_range_meters":7600,"station_id":"ce4bh392rcd13ifvqdm0","pricing_plan_id":"free"},{"bike_id":"caa21cc0-dee7-4c23-b1cf-9dac9fbadfb0","system_id":"levelo_inurba_marseille","lat":43.281044,"lon":5.378308,"is_reserved":false,"is_disabled":false,"rental_uris":{"android":"levelo://app?vid=caa21cc0-dee7-4c23-b1cf-9dac9fbadfb0","ios":"levelo://app?vid=caa21cc0-dee7-4c23-b1cf-9dac9fbadfb0"},"vehicle_type_id":"4","last_reported":1685397983,"current_range_meters":28000,"station_id":"ce4bha12rcd13ifvqee0","pricing_plan_id":"free"},{"bike_id":"2423bcff-c7d6-4809-81cc-5da4bd7f7f2d","system_id":"levelo_inurba_marseille","lat":43.281044,"lon":5.378308,"is_reserved":false,"is_disabled":false,"rental_uris":{"android":"levelo://app?vid=2423bcff-c7d6-4809-81cc-5da4bd7f7f2d","ios":"levelo://app?vid=2423bcff-c7d6-4809-81cc-5da4bd7f7f2d"},"vehicle_type_id":"4","last_reported":1685397983,"current_range_meters":19200,"station_id":"ce4bha12rcd13ifvqee0","pricing_plan_id":"free"},{"bike_id":"891d5fc2-24b5-4a43-8ec4-e98b1ae34854","system_id":"levelo_inurba_marseille","lat":43.284462,"lon":5.392121,"is_reserved":false,"is_disabled":false,"rental_uris":{"android":"levelo://app?vid=891d5fc2-24b5-4a43-8ec4-e98b1ae34854","ios":"levelo://app?vid=891d5fc2-24b5-4a43-8ec4-e98b1ae34854"},"vehicle_type_id":"4","last_reported":1685397983,"current_range_meters":8000,"station_id":"ce4bhoh2rcd13ifvqh5g","pricing_plan_id":"free"},{"bike_id":"561af9a0-a947-4d54-9416-8cb5ff96a858","system_id":"levelo_inurba_marseille","lat":43.28573,"lon":5.394992,"is_reserved":false,"is_disabled":false,"rental_uris":{"android":"levelo://app?vid=561af9a0-a947-4d54-9416-8cb5ff96a858","ios":"levelo://app?vid=561af9a0-a947-4d54-9416-8cb5ff96a858"},"vehicle_type_id":"4","last_reported":1685397983,"current_range_meters":14000,"station_id":"ce4bh292rcd13ifvqdg0","pricing_plan_id":"free"},{"bike_id":"47f1c969-39b0-49ad-933e-fd9e2f9169a0","system_id":"levelo_inurba_marseille","lat":43.28573,"lon":5.394992,"is_reserved":false,"is_disabled":false,"rental_uris":{"android":"levelo://app?vid=47f1c969-39b0-49ad-933e-fd9e2f9169a0","ios":"levelo://app?vid=47f1c969-39b0-49ad-933e-fd9e2f9169a0"},"vehicle_type_id":"4","last_reported":1685397983,"current_range_meters":30800,"station_id":"ce4bh292rcd13ifvqdg0","pricing_plan_id":"free"},{"bike_id":"fbf68215-6d10-4ab6-a624-a9ff35423a8b","system_id":"levelo_inurba_marseille","lat":43.285742,"lon":5.395004,"is_reserved":false,"is_disabled":false,"rental_uris":{"android":"levelo://app?vid=fbf68215-6d10-4ab6-a624-a9ff35423a8b","ios":"levelo://app?vid=fbf68215-6d10-4ab6-a624-a9ff35423a8b"},"vehicle_type_id":"4","last_reported":1685397983,"current_range_meters":26800,"station_id":"ce4bh292rcd13ifvqdg0","pricing_plan_id":"free"},{"bike_id":"66668c22-6aa3-4657-8f7a-1fafef019cda","system_id":"levelo_inurba_marseille","lat":43.285742,"lon":5.395004,"is_reserved":false,"is_disabled":false,"rental_uris":{"android":"levelo://app?vid=66668c22-6aa3-4657-8f7a-1fafef019cda","ios":"levelo://app?vid=66668c22-6aa3-4657-8f7a-1fafef019cda"},"vehicle_type_id":"4","last_reported":1685397983,"current_range_meters":29600,"station_id":"ce4bh292rcd13ifvqdg0","pricing_plan_id":"free"},{"bike_id":"6ebfea49-f843-4651-b8df-ca3c67b4a2f1","system_id":"levelo_inurba_marseille","lat":43.28567,"lon":5.39499,"is_reserved":false,"is_disabled":false,"rental_uris":{"android":"levelo://app?vid=6ebfea49-f843-4651-b8df-ca3c67b4a2f1","ios":"levelo://app?vid=6ebfea49-f843-4651-b8df-ca3c67b4a2f1"},"vehicle_type_id":"4","last_reported":1685397983,"current_range_meters":8400,"station_id":"ce4bh292rcd13ifvqdg0","pricing_plan_id":"free"},{"bike_id":"ea9c728c-75f4-40c5-9f20-645d746ed5f1","system_id":"levelo_inurba_marseille","lat":43.28573,"lon":5.394992,"is_reserved":false,"is_disabled":false,"rental_uris":{"android":"levelo://app?vid=ea9c728c-75f4-40c5-9f20-645d746ed5f1","ios":"levelo://app?vid=ea9c728c-75f4-40c5-9f20-645d746ed5f1"},"vehicle_type_id":"4","last_reported":1685397983,"current_range_meters":27600,"station_id":"ce4bh292rcd13ifvqdg0","pricing_plan_id":"free"},{"bike_id":"f0447088-943e-440a-adb7-8886e9f79049","system_id":"levelo_inurba_marseille","lat":43.28573,"lon":5.394992,"is_reserved":false,"is_disabled":false,"rental_uris":{"android":"levelo://app?vid=f0447088-943e-440a-adb7-8886e9f79049","ios":"levelo://app?vid=f0447088-943e-440a-adb7-8886e9f79049"},"vehicle_type_id":"4","last_reported":1685397983,"current_range_meters":20400,"station_id":"ce4bh292rcd13ifvqdg0","pricing_plan_id":"free"},{"bike_id":"07a9d810-069c-48dd-b6a1-7cab683fa4c7","system_id":"levelo_inurba_marseille","lat":43.304188,"lon":5.412904,"is_reserved":false,"is_disabled":false,"rental_uris":{"android":"levelo://app?vid=07a9d810-069c-48dd-b6a1-7cab683fa4c7","ios":"levelo://app?vid=07a9d810-069c-48dd-b6a1-7cab683fa4c7"},"vehicle_type_id":"4","last_reported":1685397983,"current_range_meters":18000,"station_id":"ce4bhop2rcd13ifvqh8g","pricing_plan_id":"free"},{"bike_id":"4cb4f14c-101a-42bd-a855-c4d9f4718faf","system_id":"levelo_inurba_marseille","lat":43.28717,"lon":5.3999,"is_reserved":false,"is_disabled":false,"rental_uris":{"android":"levelo://app?vid=4cb4f14c-101a-42bd-a855-c4d9f4718faf","ios":"levelo://app?vid=4cb4f14c-101a-42bd-a855-c4d9f4718faf"},"vehicle_type_id":"4","last_reported":1685397983,"current_range_meters":0,"station_id":"ce4bho92rcd13ifvqh3g","pricing_plan_id":"free"},{"bike_id":"96c14c55-11db-4a0e-9b9e-0e46d7fc6f3e","system_id":"levelo_inurba_marseille","lat":43.28714,"lon":5.39987,"is_reserved":false,"is_disabled":false,"rental_uris":{"android":"levelo://app?vid=96c14c55-11db-4a0e-9b9e-0e46d7fc6f3e","ios":"levelo://app?vid=96c14c55-11db-4a0e-9b9e-0e46d7fc6f3e"},"vehicle_type_id":"4","last_reported":1685397983,"current_range_meters":0,"station_id":"ce4bho92rcd13ifvqh3g","pricing_plan_id":"free"},{"bike_id":"d6698cbb-244c-45bf-b307-afb8f8991e36","system_id":"levelo_inurba_marseille","lat":43.287154,"lon":5.399979,"is_reserved":false,"is_disabled":false,"rental_uris":{"android":"levelo://app?vid=d6698cbb-244c-45bf-b307-afb8f8991e36","ios":"levelo://app?vid=d6698cbb-244c-45bf-b307-afb8f8991e36"},"vehicle_type_id":"4","last_reported":1685397983,"current_range_meters":4000,"station_id":"ce4bho92rcd13ifvqh3g","pricing_plan_id":"free"},{"bike_id":"febbcc14-4cbc-436a-a2a9-ca0af077f23b","system_id":"levelo_inurba_marseille","lat":43.287154,"lon":5.399979,"is_reserved":false,"is_disabled":false,"rental_uris":{"android":"levelo://app?vid=febbcc14-4cbc-436a-a2a9-ca0af077f23b","ios":"levelo://app?vid=febbcc14-4cbc-436a-a2a9-ca0af077f23b"},"vehicle_type_id":"4","last_reported":1685397983,"current_range_meters":7200,"station_id":"ce4bho92rcd13ifvqh3g","pricing_plan_id":"free"},{"bike_id":"c1a25389-e92f-4993-a45e-ac736d0bb785","system_id":"levelo_inurba_marseille","lat":43.28704,"lon":5.39981,"is_reserved":false,"is_disabled":false,"rental_uris":{"android":"levelo://app?vid=c1a25389-e92f-4993-a45e-ac736d0bb785","ios":"levelo://app?vid=c1a25389-e92f-4993-a45e-ac736d0bb785"},"vehicle_type_id":"4","last_reported":1685397983,"current_range_meters":24800,"station_id":"ce4bho92rcd13ifvqh3g","pricing_plan_id":"free"},{"bike_id":"b45be651-f332-41af-8415-8b7c1e1524e5","system_id":"levelo_inurba_marseille","lat":43.287154,"lon":5.399979,"is_reserved":false,"is_disabled":false,"rental_uris":{"android":"levelo://app?vid=b45be651-f332-41af-8415-8b7c1e1524e5","ios":"levelo://app?vid=b45be651-f332-41af-8415-8b7c1e1524e5"},"vehicle_type_id":"4","last_reported":1685397983,"current_range_meters":14800,"station_id":"ce4bho92rcd13ifvqh3g","pricing_plan_id":"free"},{"bike_id":"feee442a-a43f-42b4-85c5-2deb55b9bd82","system_id":"levelo_inurba_marseille","lat":43.287154,"lon":5.399979,"is_reserved":false,"is_disabled":false,"rental_uris":{"android":"levelo://app?vid=feee442a-a43f-42b4-85c5-2deb55b9bd82","ios":"levelo://app?vid=feee442a-a43f-42b4-85c5-2deb55b9bd82"},"vehicle_type_id":"4","last_reported":1685397983,"current_range_meters":0,"station_id":"ce4bho92rcd13ifvqh3g","pricing_plan_id":"free"},{"bike_id":"7b347dc2-3947-40d8-91ef-9c492af93b5d","system_id":"levelo_inurba_marseille","lat":43.2871,"lon":5.39994,"is_reserved":false,"is_disabled":false,"rental_uris":{"android":"levelo://app?vid=7b347dc2-3947-40d8-91ef-9c492af93b5d","ios":"levelo://app?vid=7b347dc2-3947-40d8-91ef-9c492af93b5d"},"vehicle_type_id":"4","last_reported":1685397983,"current_range_meters":6800,"station_id":"ce4bho92rcd13ifvqh3g","pricing_plan_id":"free"},{"bike_id":"98e3d257-e428-414b-8a17-9595b5ad90e2","system_id":"levelo_inurba_marseille","lat":43.287154,"lon":5.399979,"is_reserved":false,"is_disabled":false,"rental_uris":{"android":"levelo://app?vid=98e3d257-e428-414b-8a17-9595b5ad90e2","ios":"levelo://app?vid=98e3d257-e428-414b-8a17-9595b5ad90e2"},"vehicle_type_id":"4","last_reported":1685397983,"current_range_meters":2000,"station_id":"ce4bho92rcd13ifvqh3g","pricing_plan_id":"free"},{"bike_id":"4388dea2-9390-4e76-b8b2-f20a2cc0f4b8","system_id":"levelo_inurba_marseille","lat":43.287154,"lon":5.399979,"is_reserved":false,"is_disabled":false,"rental_uris":{"android":"levelo://app?vid=4388dea2-9390-4e76-b8b2-f20a2cc0f4b8","ios":"levelo://app?vid=4388dea2-9390-4e76-b8b2-f20a2cc0f4b8"},"vehicle_type_id":"4","last_reported":1685397983,"current_range_meters":27200,"station_id":"ce4bho92rcd13ifvqh3g","pricing_plan_id":"free"},{"bike_id":"d5fe7e8c-ae03-4907-9c6c-ce049ac2dd34","system_id":"levelo_inurba_marseille","lat":43.299579,"lon":5.413255,"is_reserved":false,"is_disabled":false,"rental_uris":{"android":"levelo://app?vid=d5fe7e8c-ae03-4907-9c6c-ce049ac2dd34","ios":"levelo://app?vid=d5fe7e8c-ae03-4907-9c6c-ce049ac2dd34"},"vehicle_type_id":"4","last_reported":1685397983,"current_range_meters":13600,"station_id":"ce4bhp12rcd13ifvqh9g","pricing_plan_id":"free"},{"bike_id":"cfdb00e0-7474-43d2-9c68-e800cc394a9c","system_id":"levelo_inurba_marseille","lat":43.279742,"lon":5.38744,"is_reserved":false,"is_disabled":false,"rental_uris":{"android":"levelo://app?vid=cfdb00e0-7474-43d2-9c68-e800cc394a9c","ios":"levelo://app?vid=cfdb00e0-7474-43d2-9c68-e800cc394a9c"},"vehicle_type_id":"4","last_reported":1685397983,"current_range_meters":6400,"station_id":"ce4bhg12rcd13ifvqf80","pricing_plan_id":"free"},{"bike_id":"17a8ae1f-de61-4141-8387-f72209883594","system_id":"levelo_inurba_marseille","lat":43.292571,"lon":5.409107,"is_reserved":false,"is_disabled":false,"rental_uris":{"android":"levelo://app?vid=17a8ae1f-de61-4141-8387-f72209883594","ios":"levelo://app?vid=17a8ae1f-de61-4141-8387-f72209883594"},"vehicle_type_id":"4","last_reported":1685397983,"current_range_meters":20000,"station_id":"ce4bh192rcd13ifvqdc0","pricing_plan_id":"free"},{"bike_id":"427770fe-135d-4645-adaf-68df475405ab","system_id":"levelo_inurba_marseille","lat":43.292569,"lon":5.409107,"is_reserved":false,"is_disabled":false,"rental_uris":{"android":"levelo://app?vid=427770fe-135d-4645-adaf-68df475405ab","ios":"levelo://app?vid=427770fe-135d-4645-adaf-68df475405ab"},"vehicle_type_id":"4","last_reported":1685397983,"current_range_meters":0,"station_id":"ce4bh192rcd13ifvqdc0","pricing_plan_id":"free"},{"bike_id":"52a5d0da-78ef-4d82-bf9b-80a2912ceddb","system_id":"levelo_inurba_marseille","lat":43.292571,"lon":5.409107,"is_reserved":false,"is_disabled":false,"rental_uris":{"android":"levelo://app?vid=52a5d0da-78ef-4d82-bf9b-80a2912ceddb","ios":"levelo://app?vid=52a5d0da-78ef-4d82-bf9b-80a2912ceddb"},"vehicle_type_id":"4","last_reported":1685397983,"current_range_meters":11200,"station_id":"ce4bh192rcd13ifvqdc0","pricing_plan_id":"free"},{"bike_id":"9f83bcaf-971a-4ba8-8a7e-0dda8f036444","system_id":"levelo_inurba_marseille","lat":43.292571,"lon":5.409107,"is_reserved":false,"is_disabled":false,"rental_uris":{"android":"levelo://app?vid=9f83bcaf-971a-4ba8-8a7e-0dda8f036444","ios":"levelo://app?vid=9f83bcaf-971a-4ba8-8a7e-0dda8f036444"},"vehicle_type_id":"4","last_reported":1685397983,"current_range_meters":800,"station_id":"ce4bh192rcd13ifvqdc0","pricing_plan_id":"free"},{"bike_id":"0d2bb763-a177-4465-ba96-6cce01494a0e","system_id":"levelo_inurba_marseille","lat":43.292571,"lon":5.409107,"is_reserved":false,"is_disabled":false,"rental_uris":{"android":"levelo://app?vid=0d2bb763-a177-4465-ba96-6cce01494a0e","ios":"levelo://app?vid=0d2bb763-a177-4465-ba96-6cce01494a0e"},"vehicle_type_id":"4","last_reported":1685397983,"current_range_meters":15200,"station_id":"ce4bh192rcd13ifvqdc0","pricing_plan_id":"free"},{"bike_id":"aed2301c-40f9-4798-91c7-5b0fc659da79","system_id":"levelo_inurba_marseille","lat":43.292571,"lon":5.409107,"is_reserved":false,"is_disabled":false,"rental_uris":{"android":"levelo://app?vid=aed2301c-40f9-4798-91c7-5b0fc659da79","ios":"levelo://app?vid=aed2301c-40f9-4798-91c7-5b0fc659da79"},"vehicle_type_id":"4","last_reported":1685397983,"current_range_meters":5200,"station_id":"ce4bh192rcd13ifvqdc0","pricing_plan_id":"free"},{"bike_id":"8cf46f3b-e5d5-4c3c-9471-8c19bda836be","system_id":"levelo_inurba_marseille","lat":43.292569,"lon":5.409107,"is_reserved":false,"is_disabled":false,"rental_uris":{"android":"levelo://app?vid=8cf46f3b-e5d5-4c3c-9471-8c19bda836be","ios":"levelo://app?vid=8cf46f3b-e5d5-4c3c-9471-8c19bda836be"},"vehicle_type_id":"4","last_reported":1685397983,"current_range_meters":18400,"station_id":"ce4bh192rcd13ifvqdc0","pricing_plan_id":"free"},{"bike_id":"714a3863-0dd0-42f8-b987-49a452450bf6","system_id":"levelo_inurba_marseille","lat":43.292571,"lon":5.409107,"is_reserved":false,"is_disabled":false,"rental_uris":{"android":"levelo://app?vid=714a3863-0dd0-42f8-b987-49a452450bf6","ios":"levelo://app?vid=714a3863-0dd0-42f8-b987-49a452450bf6"},"vehicle_type_id":"4","last_reported":1685397983,"current_range_meters":15600,"station_id":"ce4bh192rcd13ifvqdc0","pricing_plan_id":"free"},{"bike_id":"e8c8fa44-1d52-4097-ae3a-799964ea5f4f","system_id":"levelo_inurba_marseille","lat":43.292571,"lon":5.409107,"is_reserved":false,"is_disabled":false,"rental_uris":{"android":"levelo://app?vid=e8c8fa44-1d52-4097-ae3a-799964ea5f4f","ios":"levelo://app?vid=e8c8fa44-1d52-4097-ae3a-799964ea5f4f"},"vehicle_type_id":"4","last_reported":1685397983,"current_range_meters":1200,"station_id":"ce4bh192rcd13ifvqdc0","pricing_plan_id":"free"},{"bike_id":"a559be4f-2ec9-4a49-85bc-72621f478390","system_id":"levelo_inurba_marseille","lat":43.28085,"lon":5.39654,"is_reserved":false,"is_disabled":false,"rental_uris":{"android":"levelo://app?vid=a559be4f-2ec9-4a49-85bc-72621f478390","ios":"levelo://app?vid=a559be4f-2ec9-4a49-85bc-72621f478390"},"vehicle_type_id":"4","last_reported":1685397983,"current_range_meters":27200,"station_id":"ce4bho12rcd13ifvqh2g","pricing_plan_id":"free"},{"bike_id":"11e087f0-1314-4c9e-a82b-630bc8d28915","system_id":"levelo_inurba_marseille","lat":43.280784,"lon":5.396622,"is_reserved":false,"is_disabled":false,"rental_uris":{"android":"levelo://app?vid=11e087f0-1314-4c9e-a82b-630bc8d28915","ios":"levelo://app?vid=11e087f0-1314-4c9e-a82b-630bc8d28915"},"vehicle_type_id":"4","last_reported":1685397983,"current_range_meters":12000,"station_id":"ce4bho12rcd13ifvqh2g","pricing_plan_id":"free"},{"bike_id":"43e751b2-af47-482c-b4ff-066feca566a0","system_id":"levelo_inurba_marseille","lat":43.280784,"lon":5.396622,"is_reserved":false,"is_disabled":false,"rental_uris":{"android":"levelo://app?vid=43e751b2-af47-482c-b4ff-066feca566a0","ios":"levelo://app?vid=43e751b2-af47-482c-b4ff-066feca566a0"},"vehicle_type_id":"4","last_reported":1685397983,"current_range_meters":9600,"station_id":"ce4bho12rcd13ifvqh2g","pricing_plan_id":"free"},{"bike_id":"71c01a2d-13df-42f3-a099-8a53135a974b","system_id":"levelo_inurba_marseille","lat":43.273723,"lon":5.362625,"is_reserved":false,"is_disabled":false,"rental_uris":{"android":"levelo://app?vid=71c01a2d-13df-42f3-a099-8a53135a974b","ios":"levelo://app?vid=71c01a2d-13df-42f3-a099-8a53135a974b"},"vehicle_type_id":"4","last_reported":1685397983,"current_range_meters":800,"station_id":"","pricing_plan_id":"free"},{"bike_id":"43072536-585c-4ccd-b5a3-d81511196a3a","system_id":"levelo_inurba_marseille","lat":43.276769,"lon":5.388787,"is_reserved":false,"is_disabled":false,"rental_uris":{"android":"levelo://app?vid=43072536-585c-4ccd-b5a3-d81511196a3a","ios":"levelo://app?vid=43072536-585c-4ccd-b5a3-d81511196a3a"},"vehicle_type_id":"4","last_reported":1685397983,"current_range_meters":18000,"station_id":"ce4bhi12rcd13ifvqfo0","pricing_plan_id":"free"},{"bike_id":"a0c7b814-bc44-405e-a078-9d675d832ae0","system_id":"levelo_inurba_marseille","lat":43.33612,"lon":5.410321,"is_reserved":false,"is_disabled":false,"rental_uris":{"android":"levelo://app?vid=a0c7b814-bc44-405e-a078-9d675d832ae0","ios":"levelo://app?vid=a0c7b814-bc44-405e-a078-9d675d832ae0"},"vehicle_type_id":"4","last_reported":1685397983,"current_range_meters":14000,"station_id":"ce4bhqh2rcd13ifvqhmg","pricing_plan_id":"free"},{"bike_id":"63d68d0c-d4fc-4abc-a0e9-0df5945d2360","system_id":"levelo_inurba_marseille","lat":43.276769,"lon":5.388787,"is_reserved":false,"is_disabled":false,"rental_uris":{"android":"levelo://app?vid=63d68d0c-d4fc-4abc-a0e9-0df5945d2360","ios":"levelo://app?vid=63d68d0c-d4fc-4abc-a0e9-0df5945d2360"},"vehicle_type_id":"4","last_reported":1685397983,"current_range_meters":21600,"station_id":"ce4bhi12rcd13ifvqfo0","pricing_plan_id":"free"},{"bike_id":"91b49189-18df-431a-bbbf-f0b2350181de","system_id":"levelo_inurba_marseille","lat":43.28429,"lon":5.40777,"is_reserved":false,"is_disabled":false,"rental_uris":{"android":"levelo://app?vid=91b49189-18df-431a-bbbf-f0b2350181de","ios":"levelo://app?vid=91b49189-18df-431a-bbbf-f0b2350181de"},"vehicle_type_id":"4","last_reported":1685397983,"current_range_meters":2000,"station_id":"","pricing_plan_id":"free"},{"bike_id":"d16b63f0-d155-4937-9eb9-181edfabe40a","system_id":"levelo_inurba_marseille","lat":43.317121,"lon":5.423936,"is_reserved":false,"is_disabled":false,"rental_uris":{"android":"levelo://app?vid=d16b63f0-d155-4937-9eb9-181edfabe40a","ios":"levelo://app?vid=d16b63f0-d155-4937-9eb9-181edfabe40a"},"vehicle_type_id":"4","last_reported":1685397983,"current_range_meters":5200,"station_id":"ce4bhp92rcd13ifvqhbg","pricing_plan_id":"free"},{"bike_id":"c9d3915b-bc9c-454a-b0cd-7582e94fb34a","system_id":"levelo_inurba_marseille","lat":43.31084,"lon":5.42433,"is_reserved":false,"is_disabled":false,"rental_uris":{"android":"levelo://app?vid=c9d3915b-bc9c-454a-b0cd-7582e94fb34a","ios":"levelo://app?vid=c9d3915b-bc9c-454a-b0cd-7582e94fb34a"},"vehicle_type_id":"4","last_reported":1685397983,"current_range_meters":2400,"station_id":"ce4bhp92rcd13ifvqhag","pricing_plan_id":"free"},{"bike_id":"e4029059-5752-4001-ac9e-bd305066d13f","system_id":"levelo_inurba_marseille","lat":43.31083,"lon":5.42434,"is_reserved":false,"is_disabled":false,"rental_uris":{"android":"levelo://app?vid=e4029059-5752-4001-ac9e-bd305066d13f","ios":"levelo://app?vid=e4029059-5752-4001-ac9e-bd305066d13f"},"vehicle_type_id":"4","last_reported":1685397983,"current_range_meters":0,"station_id":"ce4bhp92rcd13ifvqhag","pricing_plan_id":"free"},{"bike_id":"6d7ca6ca-6afd-48a0-9a53-d1d396c40a8f","system_id":"levelo_inurba_marseille","lat":43.273125,"lon":5.390731,"is_reserved":false,"is_disabled":false,"rental_uris":{"android":"levelo://app?vid=6d7ca6ca-6afd-48a0-9a53-d1d396c40a8f","ios":"levelo://app?vid=6d7ca6ca-6afd-48a0-9a53-d1d396c40a8f"},"vehicle_type_id":"4","last_reported":1685397983,"current_range_meters":20000,"station_id":"ce4bhgp2rcd13ifvqfe0","pricing_plan_id":"free"},{"bike_id":"d57c1e39-c8a2-46ba-a47b-a6980483d2a5","system_id":"levelo_inurba_marseille","lat":43.304096,"lon":5.425385,"is_reserved":false,"is_disabled":false,"rental_uris":{"android":"levelo://app?vid=d57c1e39-c8a2-46ba-a47b-a6980483d2a5","ios":"levelo://app?vid=d57c1e39-c8a2-46ba-a47b-a6980483d2a5"},"vehicle_type_id":"4","last_reported":1685397983,"current_range_meters":10800,"station_id":"ce4bhoh2rcd13ifvqh6g","pricing_plan_id":"free"},{"bike_id":"7ced472c-e968-4f03-8dcf-84938741b45b","system_id":"levelo_inurba_marseille","lat":43.295523,"lon":5.422926,"is_reserved":false,"is_disabled":false,"rental_uris":{"android":"levelo://app?vid=7ced472c-e968-4f03-8dcf-84938741b45b","ios":"levelo://app?vid=7ced472c-e968-4f03-8dcf-84938741b45b"},"vehicle_type_id":"4","last_reported":1685397983,"current_range_meters":0,"station_id":"ce4bhph2rcd13ifvqhdg","pricing_plan_id":"free"},{"bike_id":"006b1477-59d9-4abf-bf30-fe468e8a0337","system_id":"levelo_inurba_marseille","lat":43.30778,"lon":5.42778,"is_reserved":false,"is_disabled":false,"rental_uris":{"android":"levelo://app?vid=006b1477-59d9-4abf-bf30-fe468e8a0337","ios":"levelo://app?vid=006b1477-59d9-4abf-bf30-fe468e8a0337"},"vehicle_type_id":"4","last_reported":1685397983,"current_range_meters":25200,"station_id":"","pricing_plan_id":"free"},{"bike_id":"d5dd3644-ecf4-433e-8139-84aa72f51b1a","system_id":"levelo_inurba_marseille","lat":43.278128,"lon":5.407195,"is_reserved":false,"is_disabled":false,"rental_uris":{"android":"levelo://app?vid=d5dd3644-ecf4-433e-8139-84aa72f51b1a","ios":"levelo://app?vid=d5dd3644-ecf4-433e-8139-84aa72f51b1a"},"vehicle_type_id":"4","last_reported":1685397983,"current_range_meters":28800,"station_id":"ce4bhnh2rcd13ifvqgtg","pricing_plan_id":"free"},{"bike_id":"065d3873-a0bb-4371-95c5-a024d87274be","system_id":"levelo_inurba_marseille","lat":43.2781,"lon":5.40706,"is_reserved":false,"is_disabled":false,"rental_uris":{"android":"levelo://app?vid=065d3873-a0bb-4371-95c5-a024d87274be","ios":"levelo://app?vid=065d3873-a0bb-4371-95c5-a024d87274be"},"vehicle_type_id":"4","last_reported":1685397983,"current_range_meters":5600,"station_id":"ce4bhnh2rcd13ifvqgtg","pricing_plan_id":"free"},{"bike_id":"36cfcc84-42bc-4ae0-a61f-489bb9e90e8f","system_id":"levelo_inurba_marseille","lat":43.278128,"lon":5.407195,"is_reserved":false,"is_disabled":false,"rental_uris":{"android":"levelo://app?vid=36cfcc84-42bc-4ae0-a61f-489bb9e90e8f","ios":"levelo://app?vid=36cfcc84-42bc-4ae0-a61f-489bb9e90e8f"},"vehicle_type_id":"4","last_reported":1685397983,"current_range_meters":11200,"station_id":"ce4bhnh2rcd13ifvqgtg","pricing_plan_id":"free"},{"bike_id":"d9d9b657-7cdd-4600-acb5-7fc6140ff404","system_id":"levelo_inurba_marseille","lat":43.26548,"lon":5.372857,"is_reserved":false,"is_disabled":false,"rental_uris":{"android":"levelo://app?vid=d9d9b657-7cdd-4600-acb5-7fc6140ff404","ios":"levelo://app?vid=d9d9b657-7cdd-4600-acb5-7fc6140ff404"},"vehicle_type_id":"4","last_reported":1685397983,"current_range_meters":1200,"station_id":"ce4bh492rcd13ifvqdvg","pricing_plan_id":"free"},{"bike_id":"97f92444-dc7f-4ac8-885e-43ac50454dc0","system_id":"levelo_inurba_marseille","lat":43.31679,"lon":5.4333,"is_reserved":false,"is_disabled":false,"rental_uris":{"android":"levelo://app?vid=97f92444-dc7f-4ac8-885e-43ac50454dc0","ios":"levelo://app?vid=97f92444-dc7f-4ac8-885e-43ac50454dc0"},"vehicle_type_id":"4","last_reported":1685397983,"current_range_meters":0,"station_id":"","pricing_plan_id":"free"},{"bike_id":"b07754a3-4ded-4fe4-a6f2-f4df0b4283cc","system_id":"levelo_inurba_marseille","lat":43.27996,"lon":5.416624,"is_reserved":false,"is_disabled":false,"rental_uris":{"android":"levelo://app?vid=b07754a3-4ded-4fe4-a6f2-f4df0b4283cc","ios":"levelo://app?vid=b07754a3-4ded-4fe4-a6f2-f4df0b4283cc"},"vehicle_type_id":"4","last_reported":1685397983,"current_range_meters":4400,"station_id":"ce4bho12rcd13ifvqh1g","pricing_plan_id":"free"},{"bike_id":"cbf3dd7e-eb0d-4a8c-8731-9d8d76845613","system_id":"levelo_inurba_marseille","lat":43.27996,"lon":5.416624,"is_reserved":false,"is_disabled":false,"rental_uris":{"android":"levelo://app?vid=cbf3dd7e-eb0d-4a8c-8731-9d8d76845613","ios":"levelo://app?vid=cbf3dd7e-eb0d-4a8c-8731-9d8d76845613"},"vehicle_type_id":"4","last_reported":1685397983,"current_range_meters":1200,"station_id":"ce4bho12rcd13ifvqh1g","pricing_plan_id":"free"},{"bike_id":"0d2b983e-0f91-40fa-bb97-fb10c1d47d44","system_id":"levelo_inurba_marseille","lat":43.27996,"lon":5.416624,"is_reserved":false,"is_disabled":false,"rental_uris":{"android":"levelo://app?vid=0d2b983e-0f91-40fa-bb97-fb10c1d47d44","ios":"levelo://app?vid=0d2b983e-0f91-40fa-bb97-fb10c1d47d44"},"vehicle_type_id":"4","last_reported":1685397983,"current_range_meters":400,"station_id":"ce4bho12rcd13ifvqh1g","pricing_plan_id":"free"},{"bike_id":"2970e44d-1019-413f-946c-d9b4a4581ef7","system_id":"levelo_inurba_marseille","lat":43.27996,"lon":5.416624,"is_reserved":false,"is_disabled":false,"rental_uris":{"android":"levelo://app?vid=2970e44d-1019-413f-946c-d9b4a4581ef7","ios":"levelo://app?vid=2970e44d-1019-413f-946c-d9b4a4581ef7"},"vehicle_type_id":"4","last_reported":1685397983,"current_range_meters":20400,"station_id":"ce4bho12rcd13ifvqh1g","pricing_plan_id":"free"},{"bike_id":"43f13e32-2027-4eb6-9c1f-d6455f8722f0","system_id":"levelo_inurba_marseille","lat":43.27996,"lon":5.416624,"is_reserved":false,"is_disabled":false,"rental_uris":{"android":"levelo://app?vid=43f13e32-2027-4eb6-9c1f-d6455f8722f0","ios":"levelo://app?vid=43f13e32-2027-4eb6-9c1f-d6455f8722f0"},"vehicle_type_id":"4","last_reported":1685397983,"current_range_meters":26400,"station_id":"ce4bho12rcd13ifvqh1g","pricing_plan_id":"free"},{"bike_id":"1832cdc6-f55c-4155-b971-f0ffbabda88c","system_id":"levelo_inurba_marseille","lat":43.265569,"lon":5.390047,"is_reserved":false,"is_disabled":false,"rental_uris":{"android":"levelo://app?vid=1832cdc6-f55c-4155-b971-f0ffbabda88c","ios":"levelo://app?vid=1832cdc6-f55c-4155-b971-f0ffbabda88c"},"vehicle_type_id":"4","last_reported":1685397983,"current_range_meters":0,"station_id":"ce4bhe12rcd13ifvqf30","pricing_plan_id":"free"},