{"last_updated":1728601719,"ttl":60,"version":"2.2","data":{"bikes":[{"bike_id":"6036dc5a-3a4e-4f58-b50c-80d225d761a5","system_id":"levelo_inurba_marseille","lat":43.28438,"lon":5.39189,"is_reserved":false,"is_disabled":false,"rental_uris":{"android":"levelo://app?vid=6036dc5a-3a4e-4f58-b50c-80d225d761a5","ios":"levelo://app?vid=6036dc5a-3a4e-4f58-b50c-80d225d761a5"},"vehicle_type_id":"4","last_reported":1728601719,"current_range_meters":34000,"station_id":"ce4bhoh2rcd13ifvqh5g","pricing_plan_id":"cebpf4jnsgd1na2vs0mg"},{"bike_id":"78bd00ee-cfc3-4e09-bf3b-3c0deb6ca425","system_id":"levelo_inurba_marseille","lat":43.30358,"lon":5.41883,"is_reserved":false,"is_disabled":false,"rental_uris":{"android":"levelo://app?vid=78bd00ee-cfc3-4e09-bf3b-3c0deb6ca425","ios":"levelo://app?vid=78bd00ee-cfc3-4e09-bf3b-3c0deb6ca425"},"vehicle_type_id":"4","last_reported":1728601719,"current_range_meters":36400,"station_id":"ce4bhop2rcd13ifvqh7g","pricing_plan_id":"cebpf4jnsgd1na2vs0mg"},{"bike_id":"11af3283-ed60-42f7-b864-8d82a0626871","system_id":"levelo_inurba_marseille","lat":43.25864,"lon":5.39911,"is_reserved":false,"is_disabled":false,"rental_uris":{"android":"levelo://app?vid=11af3283-ed60-42f7-b864-8d82a0626871","ios":"levelo://app?vid=11af3283-ed60-42f7-b864-8d82a0626871"},"vehicle_type_id":"4","last_reported":1728601719,"current_range_meters":6400,"station_id":"ce4bhl92rcd13ifvqghg","pricing_plan_id":"cebpf4jnsgd1na2vs0mg"},{"bike_id":"fb4bc477-b12d-4a53-8083-f24d887251e5","system_id":"levelo_inurba_marseille","lat":43.3059,"lon":5.37228,"is_reserved":false,"is_disabled":false,"rental_uris":{"android":"levelo://app?vid=fb4bc477-b12d-4a53-8083-f24d887251e5","ios":"levelo://app?vid=fb4bc477-b12d-4a53-8083-f24d887251e5"},"vehicle_type_id":"4","last_reported":1728601719,"current_range_meters":11200,"station_id":"ce4bgqh2rcd13ifvqc4g","pricing_plan_id":"cebpf4jnsgd1na2vs0mg"},{"bike_id":"830ca16d-232b-4327-a07c-9df083f0646c","system_id":"levelo_inurba_marseille","lat":43.30885,"lon":5.39654,"is_reserved":false,"is_disabled":false,"rental_uris":{"android":"levelo://app?vid=830ca16d-232b-4327-a07c-9df083f0646c","ios":"levelo://app?vid=830ca16d-232b-4327-a07c-9df083f0646c"},"vehicle_type_id":"4","last_reported":1728601719,"current_range_meters":8800,"station_id":"ce4bh012rcd13ifvqcv0","pricing_plan_id":"cebpf4jnsgd1na2vs0mg"},{"bike_id":"46e41d5a-f5a5-4cac-88d8-0888a53a6168","system_id":"levelo_inurba_marseille","lat":43.29327,"lon":5.38563,"is_reserved":false,"is_disabled":false,"rental_uris":{"android":"levelo://app?vid=46e41d5a-f5a5-4cac-88d8-0888a53a6168","ios":"levelo://app?vid=46e41d5a-f5a5-4cac-88d8-0888a53a6168"},"vehicle_type_id":"4","last_reported":1728601719,"current_range_meters":6800,"station_id":"ce4bhb12rcd13ifvqel0","pricing_plan_id":"cebpf4jnsgd1na2vs0mg"},{"bike_id":"971b85e0-c27b-48bc-b1fc-809d55a50ae0","system_id":"levelo_inurba_marseille","lat":43.31074,"lon":5.38345,"is_reserved":false,"is_disabled":false,"rental_uris":{"android":"levelo://app?vid=971b85e0-c27b-48bc-b1fc-809d55a50ae0","ios":"levelo://app?vid=971b85e0-c27b-48bc-b1fc-809d55a50ae0"},"vehicle_type_id":"4","last_reported":1728601719,"current_range_meters":24800,"station_id":"ce4bgv92rcd13ifvqcr0","pricing_plan_id":"cebpf4jnsgd1na2vs0mg"},{"bike_id":"3342229a-448c-4e67-8c8b-1ef839d1dd73","system_id":"levelo_inurba_marseille","lat":43.26562,"lon":5.37288,"is_reserved":false,"is_disabled":false,"rental_uris":{"android":"levelo://app?vid=3342229a-448c-4e67-8c8b-1ef839d1dd73","ios":"levelo://app?vid=3342229a-448c-4e67-8c8b-1ef839d1dd73"},"vehicle_type_id":"4","last_reported":1728601719,"current_range_meters":38800,"station_id":"ce4bhg12rcd13ifvqf70","pricing_plan_id":"cebpf4jnsgd1na2vs0mg"},{"bike_id":"dd20aa57-6fda-4ed9-9cbf-9d695aa02600","system_id":"levelo_inurba_marseille","lat":43.24085,"lon":5.37752,"is_reserved":false,"is_disabled":false,"rental_uris":{"android":"levelo://app?vid=dd20aa57-6fda-4ed9-9cbf-9d695aa02600","ios":"levelo://app?vid=dd20aa57-6fda-4ed9-9cbf-9d695aa02600"},"vehicle_type_id":"4","last_reported":1728601719,"current_range_meters":37600,"station_id":"ce4bhnp2rcd13ifvqgvg","pricing_plan_id":"cebpf4jnsgd1na2vs0mg"},{"bike_id":"d3ec245f-0a3f-416b-a911-c82b4c789946","system_id":"levelo_inurba_marseille","lat":43.25586,"lon":5.38235,"is_reserved":false,"is_disabled":false,"rental_uris":{"android":"levelo://app?vid=d3ec245f-0a3f-416b-a911-c82b4c789946","ios":"levelo://app?vid=d3ec245f-0a3f-416b-a911-c82b4c789946"},"vehicle_type_id":"4","last_reported":1728601719,"current_range_meters":38000,"station_id":"ce4bhih2rcd13ifvqfs0","pricing_plan_id":"cebpf4jnsgd1na2vs0mg"},{"bike_id":"32f9a3ad-41c8-4638-8ef0-a54e1eb0566a","system_id":"levelo_inurba_marseille","lat":43.31367,"lon":5.38499,"is_reserved":false,"is_disabled":false,"rental_uris":{"android":"levelo://app?vid=32f9a3ad-41c8-4638-8ef0-a54e1eb0566a","ios":"levelo://app?vid=32f9a3ad-41c8-4638-8ef0-a54e1eb0566a"},"vehicle_type_id":"4","last_reported":1728601719,"current_range_meters":16000,"station_id":"ce4bgt92rcd13ifvqcf0","pricing_plan_id":"cebpf4jnsgd1na2vs0mg"},{"bike_id":"c244c6f9-bade-42d4-83fb-bcbe5ab70ddd","system_id":"levelo_inurba_marseille","lat":43.24394,"lon":5.37059,"is_reserved":false,"is_disabled":false,"rental_uris":{"android":"levelo://app?vid=c244c6f9-bade-42d4-83fb-bcbe5ab70ddd","ios":"levelo://app?vid=c244c6f9-bade-42d4-83fb-bcbe5ab70ddd"},"vehicle_type_id":"4","last_reported":1728601719,"current_range_meters":32000,"station_id":"ce4bhhh2rcd13ifvqfk0","pricing_plan_id":"cebpf4jnsgd1na2vs0mg"},{"bike_id":"182fb731-1631-41fd-80c2-5dbd78ac79c5","system_id":"levelo_inurba_marseille","lat":43.2738,"lon":5.36261,"is_reserved":false,"is_disabled":false,"rental_uris":{"android":"levelo://app?vid=182fb731-1631-41fd-80c2-5dbd78ac79c5","ios":"levelo://app?vid=182fb731-1631-41fd-80c2-5dbd78ac79c5"},"vehicle_type_id":"4","last_reported":1728601719,"current_range_meters":37600,"station_id":"ce4bhbh2rcd13ifvqeo0","pricing_plan_id":"cebpf4jnsgd1na2vs0mg"},{"bike_id":"1ad7f92d-f07f-4dbf-bec4-341a88188d03","system_id":"levelo_inurba_marseille","lat":43.31332,"lon":5.39689,"is_reserved":false,"is_disabled":false,"rental_uris":{"android":"levelo://app?vid=1ad7f92d-f07f-4dbf-bec4-341a88188d03","ios":"levelo://app?vid=1ad7f92d-f07f-4dbf-bec4-341a88188d03"},"vehicle_type_id":"4","last_reported":1728601719,"current_range_meters":33600,"station_id":"ce4bgvp2rcd13ifvqcu0","pricing_plan_id":"cebpf4jnsgd1na2vs0mg"},{"bike_id":"0d7ad631-63ee-459d-8593-5978e0e6c102","system_id":"levelo_inurba_marseille","lat":43.29274,"lon":5.36847,"is_reserved":false,"is_disabled":false,"rental_uris":{"android":"levelo://app?vid=0d7ad631-63ee-459d-8593-5978e0e6c102","ios":"levelo://app?vid=0d7ad631-63ee-459d-8593-5978e0e6c102"},"vehicle_type_id":"4","last_reported":1728601719,"current_range_meters":29600,"station_id":"ce4bhbp2rcd13ifvqesg","pricing_plan_id":"cebpf4jnsgd1na2vs0mg"},{"bike_id":"5ce2a66a-b949-4239-ae17-6ee1644fc5f2","system_id":"levelo_inurba_marseille","lat":43.25499,"lon":5.37652,"is_reserved":false,"is_disabled":false,"rental_uris":{"android":"levelo://app?vid=5ce2a66a-b949-4239-ae17-6ee1644fc5f2","ios":"levelo://app?vid=5ce2a66a-b949-4239-ae17-6ee1644fc5f2"},"vehicle_type_id":"4","last_reported":1728601719,"current_range_meters":17600,"station_id":"ce4bhh12rcd13ifvqff0","pricing_plan_id":"cebpf4jnsgd1na2vs0mg"},{"bike_id":"6cb2fd54-0aca-4f7d-aadb-bc057dc4fb59","system_id":"levelo_inurba_marseille","lat":43.23073,"lon":5.35492,"is_reserved":false,"is_disabled":false,"rental_uris":{"android":"levelo://app?vid=6cb2fd54-0aca-4f7d-aadb-bc057dc4fb59","ios":"levelo://app?vid=6cb2fd54-0aca-4f7d-aadb-bc057dc4fb59"},"vehicle_type_id":"4","last_reported":1728601719,"current_range_meters":30800,"station_id":"cpo3342slgdg3j2ifvpg","pricing_plan_id":"cebpf4jnsgd1na2vs0mg"},{"bike_id":"93398a5b-b460-490a-8539-2385a41bcfed","system_id":"levelo_inurba_marseille","lat":43.28159,"lon":5.42647,"is_reserved":false,"is_disabled":false,"rental_uris":{"android":"levelo://app?vid=93398a5b-b460-490a-8539-2385a41bcfed","ios":"levelo://app?vid=93398a5b-b460-490a-8539-2385a41bcfed"},"vehicle_type_id":"4","last_reported":1728601719,"current_range_meters":38800,"station_id":"ce4bhnh2rcd13ifvqgug","pricing_plan_id":"cebpf4jnsgd1na2vs0mg"},{"bike_id":"dc45cfa3-0aa1-471c-8ae9-f9e534788b3b","system_id":"levelo_inurba_marseille","lat":43.31178,"lon":5.38717,"is_reserved":false,"is_disabled":false,"rental_uris":{"android":"levelo://app?vid=dc45cfa3-0aa1-471c-8ae9-f9e534788b3b","ios":"levelo://app?vid=dc45cfa3-0aa1-471c-8ae9-f9e534788b3b"},"vehicle_type_id":"4","last_reported":1728601719,"current_range_meters":34800,"station_id":"ce4bgv12rcd13ifvqcp0","pricing_plan_id":"cebpf4jnsgd1na2vs0mg"},{"bike_id":"f7c000a6-de70-456b-9728-7ca2586ec830","system_id":"levelo_inurba_marseille","lat":43.33613,"lon":5.41037,"is_reserved":false,"is_disabled":false,"rental_uris":{"android":"levelo://app?vid=f7c000a6-de70-456b-9728-7ca2586ec830","ios":"levelo://app?vid=f7c000a6-de70-456b-9728-7ca2586ec830"},"vehicle_type_id":"4","last_reported":1728601719,"current_range_meters":6000,"station_id":"ce4bhqh2rcd13ifvqhmg","pricing_plan_id":"cebpf4jnsgd1na2vs0mg"},{"bike_id":"eb20bf6c-b00d-4b56-93cf-19f8e42e6304","system_id":"levelo_inurba_marseille","lat":43.299214,"lon":5.374778,"is_reserved":false,"is_disabled":false,"rental_uris":{"android":"levelo://app?vid=eb20bf6c-b00d-4b56-93cf-19f8e42e6304","ios":"levelo://app?vid=eb20bf6c-b00d-4b56-93cf-19f8e42e6304"},"vehicle_type_id":"4","last_reported":1728601719,"current_range_meters":38000,"station_id":"ce4bgjh2rcd13ifvqbg0","pricing_plan_id":"cebpf4jnsgd1na2vs0mg"},{"bike_id":"7ae79265-a4f3-408c-9c9a-ba4aa51d6423","system_id":"levelo_inurba_marseille","lat":43.24671,"lon":5.38157,"is_reserved":false,"is_disabled":false,"rental_uris":{"android":"levelo://app?vid=7ae79265-a4f3-408c-9c9a-ba4aa51d6423","ios":"levelo://app?vid=7ae79265-a4f3-408c-9c9a-ba4aa51d6423"},"vehicle_type_id":"4","last_reported":1728601719,"current_range_meters":38000,"station_id":"ce4bhih2rcd13ifvqfr0","pricing_plan_id":"cebpf4jnsgd1na2vs0mg"},{"bike_id":"636602df-f299-4e94-ad73-1a96868e57db","system_id":"levelo_inurba_marseille","lat":43.27925,"lon":5.39584,"is_reserved":false,"is_disabled":false,"rental_uris":{"android":"levelo://app?vid=636602df-f299-4e94-ad73-1a96868e57db","ios":"levelo://app?vid=636602df-f299-4e94-ad73-1a96868e57db"},"vehicle_type_id":"4","last_reported":1728601719,"current_range_meters":26800,"station_id":"ce4bhf92rcd13ifvqf40","pricing_plan_id":"cebpf4jnsgd1na2vs0mg"},{"bike_id":"64eed1d5-ad43-4843-90ca-92dd71d6f243","system_id":"levelo_inurba_marseille","lat":43.2847,"lon":5.35887,"is_reserved":false,"is_disabled":false,"rental_uris":{"android":"levelo://app?vid=64eed1d5-ad43-4843-90ca-92dd71d6f243","ios":"levelo://app?vid=64eed1d5-ad43-4843-90ca-92dd71d6f243"},"vehicle_type_id":"4","last_reported":1728601719,"current_range_meters":38800,"station_id":"ce4bhah2rcd13ifvqei0","pricing_plan_id":"cebpf4jnsgd1na2vs0mg"},{"bike_id":"7f5ac9d4-ec5b-49e8-bd91-1a9cf6d738b6","system_id":"levelo_inurba_marseille","lat":43.2816,"lon":5.42643,"is_reserved":false,"is_disabled":false,"rental_uris":{"android":"levelo://app?vid=7f5ac9d4-ec5b-49e8-bd91-1a9cf6d738b6","ios":"levelo://app?vid=7f5ac9d4-ec5b-49e8-bd91-1a9cf6d738b6"},"vehicle_type_id":"4","last_reported":1728601719,"current_range_meters":38800,"station_id":"ce4bhnh2rcd13ifvqgug","pricing_plan_id":"cebpf4jnsgd1na2vs0mg"},{"bike_id":"0d1a388f-a31d-472e-afc1-ba8d098fb8a6","system_id":"levelo_inurba_marseille","lat":43.28857,"lon":5.35846,"is_reserved":false,"is_disabled":false,"rental_uris":{"android":"levelo://app?vid=0d1a388f-a31d-472e-afc1-ba8d098fb8a6","ios":"levelo://app?vid=0d1a388f-a31d-472e-afc1-ba8d098fb8a6"},"vehicle_type_id":"4","last_reported":1728601719,"current_range_meters":38800,"station_id":"ce4bhb12rcd13ifvqem0","pricing_plan_id":"cebpf4jnsgd1na2vs0mg"},{"bike_id":"f4c23eb9-ba3d-49f5-8944-49323079f226","system_id":"levelo_inurba_marseille","lat":43.255,"lon":5.37651,"is_reserved":false,"is_disabled":false,"rental_uris":{"android":"levelo://app?vid=f4c23eb9-ba3d-49f5-8944-49323079f226","ios":"levelo://app?vid=f4c23eb9-ba3d-49f5-8944-49323079f226"},"vehicle_type_id":"4","last_reported":1728601719,"current_range_meters":38400,"station_id":"ce4bhh12rcd13ifvqff0","pricing_plan_id":"cebpf4jnsgd1na2vs0mg"},{"bike_id":"e3922387-448d-47fb-a213-f4adf9e12e50","system_id":"levelo_inurba_marseille","lat":43.28283,"lon":5.39825,"is_reserved":false,"is_disabled":false,"rental_uris":{"android":"levelo://app?vid=e3922387-448d-47fb-a213-f4adf9e12e50","ios":"levelo://app?vid=e3922387-448d-47fb-a213-f4adf9e12e50"},"vehicle_type_id":"4","last_reported":1728601719,"current_range_meters":2800,"station_id":"ce4bhn92rcd13ifvqgrg","pricing_plan_id":"cebpf4jnsgd1na2vs0mg"},{"bike_id":"3dc1b224-9540-4dfa-9264-01d2f90e74aa","system_id":"levelo_inurba_marseille","lat":43.28728,"lon":5.36085,"is_reserved":false,"is_disabled":false,"rental_uris":{"android":"levelo://app?vid=3dc1b224-9540-4dfa-9264-01d2f90e74aa","ios":"levelo://app?vid=3dc1b224-9540-4dfa-9264-01d2f90e74aa"},"vehicle_type_id":"4","last_reported":1728601719,"current_range_meters":36800,"station_id":"cki0cbj6b192h4jlfktg","pricing_plan_id":"cebpf4jnsgd1na2vs0mg"},{"bike_id":"6fccb379-adca-4617-bbeb-442137e4c023","system_id":"levelo_inurba_marseille","lat":43.284645,"lon":5.358855,"is_reserved":false,"is_disabled":false,"rental_uris":{"android":"levelo://app?vid=6fccb379-adca-4617-bbeb-442137e4c023","ios":"levelo://app?vid=6fccb379-adca-4617-bbeb-442137e4c023"},"vehicle_type_id":"4","last_reported":1728601719,"current_range_meters":19600,"station_id":"ce4bhah2rcd13ifvqei0","pricing_plan_id":"cebpf4jnsgd1na2vs0mg"},{"bike_id":"7d0ca2b9-222a-41c6-877b-cb24f395b5ad","system_id":"levelo_inurba_marseille","lat":43.32106,"lon":5.36786,"is_reserved":false,"is_disabled":false,"rental_uris":{"android":"levelo://app?vid=7d0ca2b9-222a-41c6-877b-cb24f395b5ad","ios":"levelo://app?vid=7d0ca2b9-222a-41c6-877b-cb24f395b5ad"},"vehicle_type_id":"4","last_reported":1728601719,"current_range_meters":36000,"station_id":"ce4bhrh2rcd13ifvqhug","pricing_plan_id":"cebpf4jnsgd1na2vs0mg"},{"bike_id":"f21ff7cf-a5e7-4036-9a78-a2aa83b6340b","system_id":"levelo_inurba_marseille","lat":43.23194,"lon":5.35547,"is_reserved":false,"is_disabled":false,"rental_uris":{"android":"levelo://app?vid=f21ff7cf-a5e7-4036-9a78-a2aa83b6340b","ios":"levelo://app?vid=f21ff7cf-a5e7-4036-9a78-a2aa83b6340b"},"vehicle_type_id":"4","last_reported":1728601719,"current_range_meters":38800,"station_id":"ce4bhu92rcd13ifvqi70","pricing_plan_id":"cebpf4jnsgd1na2vs0mg"},{"bike_id":"7efdf176-1aae-4e18-859f-cdcd2aafaa19","system_id":"levelo_inurba_marseille","lat":43.32341,"lon":5.40617,"is_reserved":false,"is_disabled":false,"rental_uris":{"android":"levelo://app?vid=7efdf176-1aae-4e18-859f-cdcd2aafaa19","ios":"levelo://app?vid=7efdf176-1aae-4e18-859f-cdcd2aafaa19"},"vehicle_type_id":"4","last_reported":1728601719,"current_range_meters":4800,"station_id":"ce4bhq92rcd13ifvqhjg","pricing_plan_id":"cebpf4jnsgd1na2vs0mg"},{"bike_id":"b3de404d-5abc-4903-b89a-dee8e2de833a","system_id":"levelo_inurba_marseille","lat":43.28038,"lon":5.36942,"is_reserved":false,"is_disabled":false,"rental_uris":{"android":"levelo://app?vid=b3de404d-5abc-4903-b89a-dee8e2de833a","ios":"levelo://app?vid=b3de404d-5abc-4903-b89a-dee8e2de833a"},"vehicle_type_id":"4","last_reported":1728601719,"current_range_meters":36400,"station_id":"ce4bha12rcd13ifvqef0","pricing_plan_id":"cebpf4jnsgd1na2vs0mg"},{"bike_id":"db0f29d4-48fb-4f25-9465-ea5338ef12e5","system_id":"levelo_inurba_marseille","lat":43.3089,"lon":5.39654,"is_reserved":false,"is_disabled":false,"rental_uris":{"android":"levelo://app?vid=db0f29d4-48fb-4f25-9465-ea5338ef12e5","ios":"levelo://app?vid=db0f29d4-48fb-4f25-9465-ea5338ef12e5"},"vehicle_type_id":"4","last_reported":1728601719,"current_range_meters":14000,"station_id":"ce4bh012rcd13ifvqcv0","pricing_plan_id":"cebpf4jnsgd1na2vs0mg"},{"bike_id":"1482f819-5f1d-4428-9c78-496de59b7053","system_id":"levelo_inurba_marseille","lat":43.30892,"lon":5.37199,"is_reserved":false,"is_disabled":false,"rental_uris":{"android":"levelo://app?vid=1482f819-5f1d-4428-9c78-496de59b7053","ios":"levelo://app?vid=1482f819-5f1d-4428-9c78-496de59b7053"},"vehicle_type_id":"4","last_reported":1728601719,"current_range_meters":15200,"station_id":"ce4bguh2rcd13ifvqckg","pricing_plan_id":"cebpf4jnsgd1na2vs0mg"},{"bike_id":"6302552d-0538-4406-bf49-43803291e745","system_id":"levelo_inurba_marseille","lat":43.30429,"lon":5.39747,"is_reserved":false,"is_disabled":false,"rental_uris":{"android":"levelo://app?vid=6302552d-0538-4406-bf49-43803291e745","ios":"levelo://app?vid=6302552d-0538-4406-bf49-43803291e745"},"vehicle_type_id":"4","last_reported":1728601719,"current_range_meters":38400,"station_id":"ce4bh092rcd13ifvqd20","pricing_plan_id":"cebpf4jnsgd1na2vs0mg"},{"bike_id":"86f1a2d4-4c8e-42a8-8d84-44de2c62ad54","system_id":"levelo_inurba_marseille","lat":43.30888,"lon":5.37189,"is_reserved":false,"is_disabled":false,"rental_uris":{"android":"levelo://app?vid=86f1a2d4-4c8e-42a8-8d84-44de2c62ad54","ios":"levelo://app?vid=86f1a2d4-4c8e-42a8-8d84-44de2c62ad54"},"vehicle_type_id":"4","last_reported":1728601719,"current_range_meters":30400,"station_id":"ce4bguh2rcd13ifvqckg","pricing_plan_id":"cebpf4jnsgd1na2vs0mg"},{"bike_id":"a9e92934-6d25-4206-b747-dd1555ec108e","system_id":"levelo_inurba_marseille","lat":43.286644,"lon":5.363446,"is_reserved":false,"is_disabled":false,"rental_uris":{"android":"levelo://app?vid=a9e92934-6d25-4206-b747-dd1555ec108e","ios":"levelo://app?vid=a9e92934-6d25-4206-b747-dd1555ec108e"},"vehicle_type_id":"4","last_reported":1728601719,"current_range_meters":24800,"station_id":"ce4bhah2rcd13ifvqej0","pricing_plan_id":"cebpf4jnsgd1na2vs0mg"},{"bike_id":"6e7d9ad6-b3f3-42f9-8e61-c655b64004ec","system_id":"levelo_inurba_marseille","lat":43.3118,"lon":5.38706,"is_reserved":false,"is_disabled":false,"rental_uris":{"android":"levelo://app?vid=6e7d9ad6-b3f3-42f9-8e61-c655b64004ec","ios":"levelo://app?vid=6e7d9ad6-b3f3-42f9-8e61-c655b64004ec"},"vehicle_type_id":"4","last_reported":1728601719,"current_range_meters":38800,"station_id":"ce4bgv12rcd13ifvqcp0","pricing_plan_id":"cebpf4jnsgd1na2vs0mg"},{"bike_id":"9f04388b-2d34-4589-998f-7bb2bb920f94","system_id":"levelo_inurba_marseille","lat":43.27176,"lon":5.40994,"is_reserved":false,"is_disabled":false,"rental_uris":{"android":"levelo://app?vid=9f04388b-2d34-4589-998f-7bb2bb920f94","ios":"levelo://app?vid=9f04388b-2d34-4589-998f-7bb2bb920f94"},"vehicle_type_id":"4","last_reported":1728601719,"current_range_meters":38000,"station_id":"ce4bhl12rcd13ifvqgf0","pricing_plan_id":"cebpf4jnsgd1na2vs0mg"},{"bike_id":"245731eb-87f3-4085-9c2e-f613ec9cc480","system_id":"levelo_inurba_marseille","lat":43.28461,"lon":5.35886,"is_reserved":false,"is_disabled":false,"rental_uris":{"android":"levelo://app?vid=245731eb-87f3-4085-9c2e-f613ec9cc480","ios":"levelo://app?vid=245731eb-87f3-4085-9c2e-f613ec9cc480"},"vehicle_type_id":"4","last_reported":1728601719,"current_range_meters":11200,"station_id":"ce4bhah2rcd13ifvqei0","pricing_plan_id":"cebpf4jnsgd1na2vs0mg"},{"bike_id":"0555b5e4-8802-4733-8989-ff00fb61ea3e","system_id":"levelo_inurba_marseille","lat":43.27375,"lon":5.36259,"is_reserved":false,"is_disabled":false,"rental_uris":{"android":"levelo://app?vid=0555b5e4-8802-4733-8989-ff00fb61ea3e","ios":"levelo://app?vid=0555b5e4-8802-4733-8989-ff00fb61ea3e"},"vehicle_type_id":"4","last_reported":1728601719,"current_range_meters":26000,"station_id":"ce4bhbh2rcd13ifvqeo0","pricing_plan_id":"cebpf4jnsgd1na2vs0mg"},{"bike_id":"57add596-5b6d-4189-8e90-4c3eff7a193a","system_id":"levelo_inurba_marseille","lat":43.31366,"lon":5.38499,"is_reserved":false,"is_disabled":false,"rental_uris":{"android":"levelo://app?vid=57add596-5b6d-4189-8e90-4c3eff7a193a","ios":"levelo://app?vid=57add596-5b6d-4189-8e90-4c3eff7a193a"},"vehicle_type_id":"4","last_reported":1728601719,"current_range_meters":8000,"station_id":"ce4bgt92rcd13ifvqcf0","pricing_plan_id":"cebpf4jnsgd1na2vs0mg"},{"bike_id":"36be1c97-4211-4e9d-81ea-7936074bb272","system_id":"levelo_inurba_marseille","lat":43.31116,"lon":5.37765,"is_reserved":false,"is_disabled":false,"rental_uris":{"android":"levelo://app?vid=36be1c97-4211-4e9d-81ea-7936074bb272","ios":"levelo://app?vid=36be1c97-4211-4e9d-81ea-7936074bb272"},"vehicle_type_id":"4","last_reported":1728601719,"current_range_meters":30400,"station_id":"ce4bgt92rcd13ifvqcg0","pricing_plan_id":"cebpf4jnsgd1na2vs0mg"},{"bike_id":"9db4d985-7949-4b7f-b898-6a0ca7ba3693","system_id":"levelo_inurba_marseille","lat":43.33761,"lon":5.37396,"is_reserved":false,"is_disabled":false,"rental_uris":{"android":"levelo://app?vid=9db4d985-7949-4b7f-b898-6a0ca7ba3693","ios":"levelo://app?vid=9db4d985-7949-4b7f-b898-6a0ca7ba3693"},"vehicle_type_id":"4","last_reported":1728601719,"current_range_meters":33200,"station_id":"ce4rr2p2rcd13i802rgg","pricing_plan_id":"cebpf4jnsgd1na2vs0mg"},{"bike_id":"325ba49d-0962-4176-98a0-49b50b02aaf6","system_id":"levelo_inurba_marseille","lat":43.31887,"lon":5.4074,"is_reserved":false,"is_disabled":false,"rental_uris":{"android":"levelo://app?vid=325ba49d-0962-4176-98a0-49b50b02aaf6","ios":"levelo://app?vid=325ba49d-0962-4176-98a0-49b50b02aaf6"},"vehicle_type_id":"4","last_reported":1728601719,"current_range_meters":38800,"station_id":"ce4bhq12rcd13ifvqhig","pricing_plan_id":"cebpf4jnsgd1na2vs0mg"},{"bike_id":"d2118e1c-9062-47ef-8d68-8f1752acfb6f","system_id":"levelo_inurba_marseille","lat":43.31706,"lon":5.37773,"is_reserved":false,"is_disabled":false,"rental_uris":{"android":"levelo://app?vid=d2118e1c-9062-47ef-8d68-8f1752acfb6f","ios":"levelo://app?vid=d2118e1c-9062-47ef-8d68-8f1752acfb6f"},"vehicle_type_id":"4","last_reported":1728601719,"current_range_meters":39200,"station_id":"ce4bgth2rcd13ifvqch0","pricing_plan_id":"cebpf4jnsgd1na2vs0mg"},{"bike_id":"bd2aec49-c05b-410c-856c-a14327810257","system_id":"levelo_inurba_marseille","lat":43.30888,"lon":5.39652,"is_reserved":false,"is_disabled":false,"rental_uris":{"android":"levelo://app?vid=bd2aec49-c05b-410c-856c-a14327810257","ios":"levelo://app?vid=bd2aec49-c05b-410c-856c-a14327810257"},"vehicle_type_id":"4","last_reported":1728601719,"current_range_meters":38800,"station_id":"ce4bh012rcd13ifvqcv0","pricing_plan_id":"cebpf4jnsgd1na2vs0mg"},{"bike_id":"993d1cf8-e533-4dda-8405-3f2a846d5998","system_id":"levelo_inurba_marseille","lat":43.28705,"lon":5.37389,"is_reserved":false,"is_disabled":false,"rental_uris":{"android":"levelo://app?vid=993d1cf8-e533-4dda-8405-3f2a846d5998","ios":"levelo://app?vid=993d1cf8-e533-4dda-8405-3f2a846d5998"},"vehicle_type_id":"4","last_reported":1728601719,"current_range_meters":38800,"station_id":"ce4bh3p2rcd13ifvqdq0","pricing_plan_id":"cebpf4jnsgd1na2vs0mg"},{"bike_id":"25b1fb8d-043b-40f4-aa3f-c415f5d84a10","system_id":"levelo_inurba_marseille","lat":43.31357,"lon":5.3671,"is_reserved":false,"is_disabled":false,"rental_uris":{"android":"levelo://app?vid=25b1fb8d-043b-40f4-aa3f-c415f5d84a10","ios":"levelo://app?vid=25b1fb8d-043b-40f4-aa3f-c415f5d84a10"},"vehicle_type_id":"4","last_reported":1728601719,"current_range_meters":20400,"station_id":"ce4bgr92rcd13ifvqc6g","pricing_plan_id":"cebpf4jnsgd1na2vs0mg"},{"bike_id":"4f9e2490-f71f-437e-b9eb-287889cbbc82","system_id":"levelo_inurba_marseille","lat":43.31493,"lon":5.3731,"is_reserved":false,"is_disabled":false,"rental_uris":{"android":"levelo://app?vid=4f9e2490-f71f-437e-b9eb-287889cbbc82","ios":"levelo://app?vid=4f9e2490-f71f-437e-b9eb-287889cbbc82"},"vehicle_type_id":"4","last_reported":1728601719,"current_range_meters":38000,"station_id":"ce4bgt12rcd13ifvqcd0","pricing_plan_id":"cebpf4jnsgd1na2vs0mg"},{"bike_id":"9c800c6d-f6e1-4c71-aaaa-2309eea3693d","system_id":"levelo_inurba_marseille","lat":43.30607,"lon":5.37214,"is_reserved":false,"is_disabled":false,"rental_uris":{"android":"levelo://app?vid=9c800c6d-f6e1-4c71-aaaa-2309eea3693d","ios":"levelo://app?vid=9c800c6d-f6e1-4c71-aaaa-2309eea3693d"},"vehicle_type_id":"4","last_reported":1728601719,"current_range_meters":37600,"station_id":"ce4bgqh2rcd13ifvqc4g","pricing_plan_id":"cebpf4jnsgd1na2vs0mg"},{"bike_id":"c2709d8c-182c-4c66-9678-32143d413767","system_id":"levelo_inurba_marseille","lat":43.22936,"lon":5.35378,"is_reserved":false,"is_disabled":false,"rental_uris":{"android":"levelo://app?vid=c2709d8c-182c-4c66-9678-32143d413767","ios":"levelo://app?vid=c2709d8c-182c-4c66-9678-32143d413767"},"vehicle_type_id":"4","last_reported":1728601719,"current_range_meters":34800,"station_id":"cpo3532slgdg3j2ikp40","pricing_plan_id":"cebpf4jnsgd1na2vs0mg"},{"bike_id":"9a7d337d-46a9-4a3e-ac0e-e31480127a4d","system_id":"levelo_inurba_marseille","lat":43.31544,"lon":5.38029,"is_reserved":false,"is_disabled":false,"rental_uris":{"android":"levelo://app?vid=9a7d337d-46a9-4a3e-ac0e-e31480127a4d","ios":"levelo://app?vid=9a7d337d-46a9-4a3e-ac0e-e31480127a4d"},"vehicle_type_id":"4","last_reported":1728601719,"current_range_meters":37600,"station_id":"ce4bhsp2rcd13ifvqi50","pricing_plan_id":"cebpf4jnsgd1na2vs0mg"},{"bike_id":"2d4abd7f-c14b-4585-934c-21c11d459db8","system_id":"levelo_inurba_marseille","lat":43.33723,"lon":5.39172,"is_reserved":false,"is_disabled":false,"rental_uris":{"android":"levelo://app?vid=2d4abd7f-c14b-4585-934c-21c11d459db8","ios":"levelo://app?vid=2d4abd7f-c14b-4585-934c-21c11d459db8"},"vehicle_type_id":"4","last_reported":1728601719,"current_range_meters":36800,"station_id":"ce4bhr92rcd13ifvqhsg","pricing_plan_id":"cebpf4jnsgd1na2vs0mg"},{"bike_id":"06d1f44d-bb6c-4374-8db9-6c0fc6ef35d8","system_id":"levelo_inurba_marseille","lat":43.316961,"lon":5.40457,"is_reserved":false,"is_disabled":false,"rental_uris":{"android":"levelo://app?vid=06d1f44d-bb6c-4374-8db9-6c0fc6ef35d8","ios":"levelo://app?vid=06d1f44d-bb6c-4374-8db9-6c0fc6ef35d8"},"vehicle_type_id":"4","last_reported":1728601719,"current_range_meters":37600,"station_id":"ce4bh012rcd13ifvqd00","pricing_plan_id":"cebpf4jnsgd1na2vs0mg"},{"bike_id":"6ff769cf-ecc4-4125-a3ff-0958a47aaed0","system_id":"levelo_inurba_marseille","lat":43.287048,"lon":5.373936,"is_reserved":false,"is_disabled":false,"rental_uris":{"android":"levelo://app?vid=6ff769cf-ecc4-4125-a3ff-0958a47aaed0","ios":"levelo://app?vid=6ff769cf-ecc4-4125-a3ff-0958a47aaed0"},"vehicle_type_id":"4","last_reported":1728601719,"current_range_meters":39200,"station_id":"ce4bh3p2rcd13ifvqdq0","pricing_plan_id":"cebpf4jnsgd1na2vs0mg"},{"bike_id":"7f4b1180-67ca-41d5-bb4a-b985e8f2f93d","system_id":"levelo_inurba_marseille","lat":43.29524,"lon":5.39403,"is_reserved":false,"is_disabled":false,"rental_uris":{"android":"levelo://app?vid=7f4b1180-67ca-41d5-bb4a-b985e8f2f93d","ios":"levelo://app?vid=7f4b1180-67ca-41d5-bb4a-b985e8f2f93d"},"vehicle_type_id":"4","last_reported":1728601719,"current_range_meters":38400,"station_id":"ce4bh292rcd13ifvqdf0","pricing_plan_id":"cebpf4jnsgd1na2vs0mg"},{"bike_id":"b4e8bd77-a3ff-4b3b-85c3-f17839ebfc15","system_id":"levelo_inurba_marseille","lat":43.3176,"lon":5.39025,"is_reserved":false,"is_disabled":false,"rental_uris":{"android":"levelo://app?vid=b4e8bd77-a3ff-4b3b-85c3-f17839ebfc15","ios":"levelo://app?vid=b4e8bd77-a3ff-4b3b-85c3-f17839ebfc15"},"vehicle_type_id":"4","last_reported":1728601719,"current_range_meters":38800,"station_id":"ce4bhqp2rcd13ifvqhng","pricing_plan_id":"cebpf4jnsgd1na2vs0mg"},{"bike_id":"480aee4b-d516-4b03-874e-995df5f32160","system_id":"levelo_inurba_marseille","lat":43.28352,"lon":5.38104,"is_reserved":false,"is_disabled":false,"rental_uris":{"android":"levelo://app?vid=480aee4b-d516-4b03-874e-995df5f32160","ios":"levelo://app?vid=480aee4b-d516-4b03-874e-995df5f32160"},"vehicle_type_id":"4","last_reported":1728601719,"current_range_meters":30800,"station_id":"ce4bh412rcd13ifvqdr0","pricing_plan_id":"cebpf4jnsgd1na2vs0mg"},{"bike_id":"919c9514-57dd-4c69-b117-1e44e2297271","system_id":"levelo_inurba_marseille","lat":43.26581,"lon":5.38991,"is_reserved":false,"is_disabled":false,"rental_uris":{"android":"levelo://app?vid=919c9514-57dd-4c69-b117-1e44e2297271","ios":"levelo://app?vid=919c9514-57dd-4c69-b117-1e44e2297271"},"vehicle_type_id":"4","last_reported":1728601719,"current_range_meters":11600,"station_id":"ce4bhe12rcd13ifvqf30","pricing_plan_id":"cebpf4jnsgd1na2vs0mg"},{"bike_id":"7f30f54d-4897-4821-a6ef-7f70c9c34e64","system_id":"levelo_inurba_marseille","lat":43.2857,"lon":5.39494,"is_reserved":false,"is_disabled":false,"rental_uris":{"android":"levelo://app?vid=7f30f54d-4897-4821-a6ef-7f70c9c34e64","ios":"levelo://app?vid=7f30f54d-4897-4821-a6ef-7f70c9c34e64"},"vehicle_type_id":"4","last_reported":1728601719,"current_range_meters":38800,"station_id":"ce4bh292rcd13ifvqdg0","pricing_plan_id":"cebpf4jnsgd1na2vs0mg"},{"bike_id":"2b3648bb-e792-419a-96c0-e5aba7247d9b","system_id":"levelo_inurba_marseille","lat":43.24652,"lon":5.38897,"is_reserved":false,"is_disabled":false,"rental_uris":{"android":"levelo://app?vid=2b3648bb-e792-419a-96c0-e5aba7247d9b","ios":"levelo://app?vid=2b3648bb-e792-419a-96c0-e5aba7247d9b"},"vehicle_type_id":"4","last_reported":1728601719,"current_range_meters":16800,"station_id":"ce4bhg12rcd13ifvqf60","pricing_plan_id":"cebpf4jnsgd1na2vs0mg"},{"bike_id":"87ae3f18-f840-4e58-9750-f094922121be","system_id":"levelo_inurba_marseille","lat":43.31362,"lon":5.38491,"is_reserved":false,"is_disabled":false,"rental_uris":{"android":"levelo://app?vid=87ae3f18-f840-4e58-9750-f094922121be","ios":"levelo://app?vid=87ae3f18-f840-4e58-9750-f094922121be"},"vehicle_type_id":"4","last_reported":1728601719,"current_range_meters":9600,"station_id":"ce4bgt92rcd13ifvqcf0","pricing_plan_id":"cebpf4jnsgd1na2vs0mg"},{"bike_id":"f92a9fb8-9f73-4cf9-bc9b-2bdf5b520248","system_id":"levelo_inurba_marseille","lat":43.32536,"lon":5.41447,"is_reserved":false,"is_disabled":false,"rental_uris":{"android":"levelo://app?vid=f92a9fb8-9f73-4cf9-bc9b-2bdf5b520248","ios":"levelo://app?vid=f92a9fb8-9f73-4cf9-bc9b-2bdf5b520248"},"vehicle_type_id":"4","last_reported":1728601719,"current_range_meters":38800,"station_id":"ce4bhq12rcd13ifvqhhg","pricing_plan_id":"cebpf4jnsgd1na2vs0mg"},{"bike_id":"4b7be203-7111-4ecd-9808-00597656e983","system_id":"levelo_inurba_marseille","lat":43.33026,"lon":5.39042,"is_reserved":false,"is_disabled":false,"rental_uris":{"android":"levelo://app?vid=4b7be203-7111-4ecd-9808-00597656e983","ios":"levelo://app?vid=4b7be203-7111-4ecd-9808-00597656e983"},"vehicle_type_id":"4","last_reported":1728601719,"current_range_meters":36800,"station_id":"ce4bhr92rcd13ifvqhrg","pricing_plan_id":"cebpf4jnsgd1na2vs0mg"},{"bike_id":"584605d3-be30-4090-92d5-abf6d6a75e1b","system_id":"levelo_inurba_marseille","lat":43.28361,"lon":5.38645,"is_reserved":false,"is_disabled":false,"rental_uris":{"android":"levelo://app?vid=584605d3-be30-4090-92d5-abf6d6a75e1b","ios":"levelo://app?vid=584605d3-be30-4090-92d5-abf6d6a75e1b"},"vehicle_type_id":"4","last_reported":1728601719,"current_range_meters":35200,"station_id":"ce4bh492rcd13ifvqdvg","pricing_plan_id":"cebpf4jnsgd1na2vs0mg"},{"bike_id":"9f2312ba-53a7-4b8b-8ccb-83a8c26fb280","system_id":"levelo_inurba_marseille","lat":43.30882,"lon":5.39654,"is_reserved":false,"is_disabled":false,"rental_uris":{"android":"levelo://app?vid=9f2312ba-53a7-4b8b-8ccb-83a8c26fb280","ios":"levelo://app?vid=9f2312ba-53a7-4b8b-8ccb-83a8c26fb280"},"vehicle_type_id":"4","last_reported":1728601719,"current_range_meters":38000,"station_id":"ce4bh012rcd13ifvqcv0","pricing_plan_id":"cebpf4jnsgd1na2vs0mg"},{"bike_id":"4bb91961-9220-499a-8e25-b2ecef6e3160","system_id":"levelo_inurba_marseille","lat":43.28085,"lon":5.39655,"is_reserved":false,"is_disabled":false,"rental_uris":{"android":"levelo://app?vid=4bb91961-9220-499a-8e25-b2ecef6e3160","ios":"levelo://app?vid=4bb91961-9220-499a-8e25-b2ecef6e3160"},"vehicle_type_id":"4","last_reported":1728601719,"current_range_meters":38800,"station_id":"ce4bho12rcd13ifvqh2g","pricing_plan_id":"cebpf4jnsgd1na2vs0mg"},{"bike_id":"c1200512-69fa-4354-8ea8-f86c5ab3832b","system_id":"levelo_inurba_marseille","lat":43.24181,"lon":5.36405,"is_reserved":false,"is_disabled":false,"rental_uris":{"android":"levelo://app?vid=c1200512-69fa-4354-8ea8-f86c5ab3832b","ios":"levelo://app?vid=c1200512-69fa-4354-8ea8-f86c5ab3832b"},"vehicle_type_id":"4","last_reported":1728601719,"current_range_meters":27600,"station_id":"cpo36qri1sfpv3e86is0","pricing_plan_id":"cebpf4jnsgd1na2vs0mg"},{"bike_id":"50aa4af7-94b4-48c9-959d-eeec3eaec001","system_id":"levelo_inurba_marseille","lat":43.23198,"lon":5.35547,"is_reserved":false,"is_disabled":false,"rental_uris":{"android":"levelo://app?vid=50aa4af7-94b4-48c9-959d-eeec3eaec001","ios":"levelo://app?vid=50aa4af7-94b4-48c9-959d-eeec3eaec001"},"vehicle_type_id":"4","last_reported":1728601719,"current_range_meters":38800,"station_id":"ce4bhu92rcd13ifvqi70","pricing_plan_id":"cebpf4jnsgd1na2vs0mg"},{"bike_id":"dade3d2f-3f22-4b1e-92c9-4504fc72033e","system_id":"levelo_inurba_marseille","lat":43.26946,"lon":5.38634,"is_reserved":false,"is_disabled":false,"rental_uris":{"android":"levelo://app?vid=dade3d2f-3f22-4b1e-92c9-4504fc72033e","ios":"levelo://app?vid=dade3d2f-3f22-4b1e-92c9-4504fc72033e"},"vehicle_type_id":"4","last_reported":1728601719,"current_range_meters":29600,"station_id":"ce4bhh92rcd13ifvqfh0","pricing_plan_id":"cebpf4jnsgd1na2vs0mg"},{"bike_id":"38811800-990c-4b4f-93b0-519c6d818a43","system_id":"levelo_inurba_marseille","lat":43.33607,"lon":5.41037,"is_reserved":false,"is_disabled":false,"rental_uris":{"android":"levelo://app?vid=38811800-990c-4b4f-93b0-519c6d818a43","ios":"levelo://app?vid=38811800-990c-4b4f-93b0-519c6d818a43"},"vehicle_type_id":"4","last_reported":1728601719,"current_range_meters":38800,"station_id":"ce4bhqh2rcd13ifvqhmg","pricing_plan_id":"cebpf4jnsgd1na2vs0mg"},{"bike_id":"4b2b99db-3ae9-40c8-bc1f-d3654b0ac7c9","system_id":"levelo_inurba_marseille","lat":43.29039,"lon":5.35915,"is_reserved":false,"is_disabled":false,"rental_uris":{"android":"levelo://app?vid=4b2b99db-3ae9-40c8-bc1f-d3654b0ac7c9","ios":"levelo://app?vid=4b2b99db-3ae9-40c8-bc1f-d3654b0ac7c9"},"vehicle_type_id":"4","last_reported":1728601719,"current_range_meters":10000,"station_id":"ce4bha92rcd13ifvqeg0","pricing_plan_id":"cebpf4jnsgd1na2vs0mg"},{"bike_id":"8f58235a-d4da-4cab-bb8e-7e93577e7259","system_id":"levelo_inurba_marseille","lat":43.23187,"lon":5.39989,"is_reserved":false,"is_disabled":false,"rental_uris":{"android":"levelo://app?vid=8f58235a-d4da-4cab-bb8e-7e93577e7259","ios":"levelo://app?vid=8f58235a-d4da-4cab-bb8e-7e93577e7259"},"vehicle_type_id":"4","last_reported":1728601719,"current_range_meters":38000,"station_id":"ce4bhn12rcd13ifvqgqg","pricing_plan_id":"cebpf4jnsgd1na2vs0mg"},{"bike_id":"84c30ed3-60f2-43c6-a6ef-72b2abd8f6b1","system_id":"levelo_inurba_marseille","lat":43.26685,"lon":5.38273,"is_reserved":false,"is_disabled":false,"rental_uris":{"android":"levelo://app?vid=84c30ed3-60f2-43c6-a6ef-72b2abd8f6b1","ios":"levelo://app?vid=84c30ed3-60f2-43c6-a6ef-72b2abd8f6b1"},"vehicle_type_id":"4","last_reported":1728601719,"current_range_meters":36400,"station_id":"ce4bhg92rcd13ifvqf90","pricing_plan_id":"cebpf4jnsgd1na2vs0mg"},{"bike_id":"d2d707dd-e240-42f7-8bed-e24e7b516267","system_id":"levelo_inurba_marseille","lat":43.28462,"lon":5.35888,"is_reserved":false,"is_disabled":false,"rental_uris":{"android":"levelo://app?vid=d2d707dd-e240-42f7-8bed-e24e7b516267","ios":"levelo://app?vid=d2d707dd-e240-42f7-8bed-e24e7b516267"},"vehicle_type_id":"4","last_reported":1728601719,"current_range_meters":32000,"station_id":"ce4bhah2rcd13ifvqei0","pricing_plan_id":"cebpf4jnsgd1na2vs0mg"},{"bike_id":"b41b90b7-ac07-4747-9aee-0559da273445","system_id":"levelo_inurba_marseille","lat":43.28006,"lon":5.416645,"is_reserved":false,"is_disabled":false,"rental_uris":{"android":"levelo://app?vid=b41b90b7-ac07-4747-9aee-0559da273445","ios":"levelo://app?vid=b41b90b7-ac07-4747-9aee-0559da273445"},"vehicle_type_id":"4","last_reported":1728601719,"current_range_meters":26800,"station_id":"ce4bho12rcd13ifvqh1g","pricing_plan_id":"cebpf4jnsgd1na2vs0mg"},{"bike_id":"255093a8-c98a-4773-851f-60ca2d6fabdf","system_id":"levelo_inurba_marseille","lat":43.33569,"lon":5.36749,"is_reserved":false,"is_disabled":false,"rental_uris":{"android":"levelo://app?vid=255093a8-c98a-4773-851f-60ca2d6fabdf","ios":"levelo://app?vid=255093a8-c98a-4773-851f-60ca2d6fabdf"},"vehicle_type_id":"4","last_reported":1728601719,"current_range_meters":34000,"station_id":"","pricing_plan_id":"cebpf4jnsgd1na2vs0mg"},{"bike_id":"04cdfc0e-0712-459a-a56c-8097add52c1d","system_id":"levelo_inurba_marseille","lat":43.280842,"lon":5.396592,"is_reserved":false,"is_disabled":false,"rental_uris":{"android":"levelo://app?vid=04cdfc0e-0712-459a-a56c-8097add52c1d","ios":"levelo://app?vid=04cdfc0e-0712-459a-a56c-8097add52c1d"},"vehicle_type_id":"4","last_reported":1728601719,"current_range_meters":16800,"station_id":"ce4bho12rcd13ifvqh2g","pricing_plan_id":"cebpf4jnsgd1na2vs0mg"},{"bike_id":"83d2d85b-5aa3-42ba-9e0b-f1a9c5db540d","system_id":"levelo_inurba_marseille","lat":43.28726,"lon":5.36086,"is_reserved":false,"is_disabled":false,"rental_uris":{"android":"levelo://app?vid=83d2d85b-5aa3-42ba-9e0b-f1a9c5db540d","ios":"levelo://app?vid=83d2d85b-5aa3-42ba-9e0b-f1a9c5db540d"},"vehicle_type_id":"4","last_reported":1728601719,"current_range_meters":30800,"station_id":"cki0cbj6b192h4jlfktg","pricing_plan_id":"cebpf4jnsgd1na2vs0mg"},{"bike_id":"af42afca-1be7-476c-b467-865280f1ae1e","system_id":"levelo_inurba_marseille","lat":43.27976,"lon":5.38722,"is_reserved":false,"is_disabled":false,"rental_uris":{"android":"levelo://app?vid=af42afca-1be7-476c-b467-865280f1ae1e","ios":"levelo://app?vid=af42afca-1be7-476c-b467-865280f1ae1e"},"vehicle_type_id":"4","last_reported":1728601719,"current_range_meters":10000,"station_id":"ce4bhg12rcd13ifvqf80","pricing_plan_id":"cebpf4jnsgd1na2vs0mg"},{"bike_id":"b2ee5a58-45f4-408e-a69d-0d0671412c8d","system_id":"levelo_inurba_marseille","lat":43.29416,"lon":5.38623,"is_reserved":false,"is_disabled":false,"rental_uris":{"android":"levelo://app?vid=b2ee5a58-45f4-408e-a69d-0d0671412c8d","ios":"levelo://app?vid=b2ee5a58-45f4-408e-a69d-0d0671412c8d"},"vehicle_type_id":"4","last_reported":1728601719,"current_range_meters":17600,"station_id":"ce4bh2h2rcd13ifvqdh0","pricing_plan_id":"cebpf4jnsgd1na2vs0mg"},{"bike_id":"07f7c5af-386e-4a95-8588-9df5a407bf84","system_id":"levelo_inurba_marseille","lat":43.24187,"lon":5.39735,"is_reserved":false,"is_disabled":false,"rental_uris":{"android":"levelo://app?vid=07f7c5af-386e-4a95-8588-9df5a407bf84","ios":"levelo://app?vid=07f7c5af-386e-4a95-8588-9df5a407bf84"},"vehicle_type_id":"4","last_reported":1728601719,"current_range_meters":4800,"station_id":"ce4bhn12rcd13ifvqgpg","pricing_plan_id":"cebpf4jnsgd1na2vs0mg"},{"bike_id":"dc440954-2c81-4e2f-8b82-ca9f73157d26","system_id":"levelo_inurba_marseille","lat":43.287872,"lon":5.394124,"is_reserved":false,"is_disabled":false,"rental_uris":{"android":"levelo://app?vid=dc440954-2c81-4e2f-8b82-ca9f73157d26","ios":"levelo://app?vid=dc440954-2c81-4e2f-8b82-ca9f73157d26"},"vehicle_type_id":"4","last_reported":1728601719,"current_range_meters":24800,"station_id":"ce4bh2p2rcd13ifvqdi0","pricing_plan_id":"cebpf4jnsgd1na2vs0mg"},{"bike_id":"97cf73ea-7360-4151-8a90-62bb77c261ab","system_id":"levelo_inurba_marseille","lat":43.31497,"lon":5.37304,"is_reserved":false,"is_disabled":false,"rental_uris":{"android":"levelo://app?vid=97cf73ea-7360-4151-8a90-62bb77c261ab","ios":"levelo://app?vid=97cf73ea-7360-4151-8a90-62bb77c261ab"},"vehicle_type_id":"4","last_reported":1728601719,"current_range_meters":38800,"station_id":"ce4bgt12rcd13ifvqcd0","pricing_plan_id":"cebpf4jnsgd1na2vs0mg"},{"bike_id":"e845f1f4-2aaf-485b-b3cd-a8fe8e22f8f6","system_id":"levelo_inurba_marseille","lat":43.31374,"lon":5.3849,"is_reserved":false,"is_disabled":false,"rental_uris":{"android":"levelo://app?vid=e845f1f4-2aaf-485b-b3cd-a8fe8e22f8f6","ios":"levelo://app?vid=e845f1f4-2aaf-485b-b3cd-a8fe8e22f8f6"},"vehicle_type_id":"4","last_reported":1728601719,"current_range_meters":30800,"station_id":"ce4bgt92rcd13ifvqcf0","pricing_plan_id":"cebpf4jnsgd1na2vs0mg"},{"bike_id":"ff68b789-7173-415f-860f-fb58c1b9d01d","system_id":"levelo_inurba_marseille","lat":43.22937,"lon":5.35379,"is_reserved":false,"is_disabled":false,"rental_uris":{"android":"levelo://app?vid=ff68b789-7173-415f-860f-fb58c1b9d01d","ios":"levelo://app?vid=ff68b789-7173-415f-860f-fb58c1b9d01d"},"vehicle_type_id":"4","last_reported":1728601719,"current_range_meters":34000,"station_id":"cpo3532slgdg3j2ikp40","pricing_plan_id":"cebpf4jnsgd1na2vs0mg"},{"bike_id":"285e08f4-e441-45ca-a4aa-0ceac3a304a6","system_id":"levelo_inurba_marseille","lat":43.27905,"lon":5.38008,"is_reserved":false,"is_disabled":false,"rental_uris":{"android":"levelo://app?vid=285e08f4-e441-45ca-a4aa-0ceac3a304a6","ios":"levelo://app?vid=285e08f4-e441-45ca-a4aa-0ceac3a304a6"},"vehicle_type_id":"4","last_reported":1728601719,"current_range_meters":39200,"station_id":"ce4bhf92rcd13ifvqf50","pricing_plan_id":"cebpf4jnsgd1na2vs0mg"},{"bike_id":"85e37053-04dc-4338-817e-c058e7c146dd","system_id":"levelo_inurba_marseille","lat":43.29575,"lon":5.3998,"is_reserved":false,"is_disabled":false,"rental_uris":{"android":"levelo://app?vid=85e37053-04dc-4338-817e-c058e7c146dd","ios":"levelo://app?vid=85e37053-04dc-4338-817e-c058e7c146dd"},"vehicle_type_id":"4","last_reported":1728601719,"current_range_meters":20400,"station_id":"ce4bh312rcd13ifvqdj0","pricing_plan_id":"cebpf4jnsgd1na2vs0mg"},{"bike_id":"535f898a-3477-4583-978a-dc1a76e70ff9","system_id":"levelo_inurba_marseille","lat":43.27816,"lon":5.40712,"is_reserved":false,"is_disabled":false,"rental_uris":{"android":"levelo://app?vid=535f898a-3477-4583-978a-dc1a76e70ff9","ios":"levelo://app?vid=535f898a-3477-4583-978a-dc1a76e70ff9"},"vehicle_type_id":"4","last_reported":1728601719,"current_range_meters":38800,"station_id":"ce4bhnh2rcd13ifvqgtg","pricing_plan_id":"cebpf4jnsgd1na2vs0mg"},{"bike_id":"03a1b0e3-4fb5-46b3-9164-0c7f836b17f2","system_id":"levelo_inurba_marseille","lat":43.28941,"lon":5.39627,"is_reserved":false,"is_disabled":false,"rental_uris":{"android":"levelo://app?vid=03a1b0e3-4fb5-46b3-9164-0c7f836b17f2","ios":"levelo://app?vid=03a1b0e3-4fb5-46b3-9164-0c7f836b17f2"},"vehicle_type_id":"4","last_reported":1728601719,"current_range_meters":34000,"station_id":"ce4bh3h2rcd13ifvqdn0","pricing_plan_id":"cebpf4jnsgd1na2vs0mg"},{"bike_id":"6cb5b02c-2401-484a-8b7d-b4d2106d6b08","system_id":"levelo_inurba_marseille","lat":43.23192,"lon":5.35558,"is_reserved":false,"is_disabled":false,"rental_uris":{"android":"levelo://app?vid=6cb5b02c-2401-484a-8b7d-b4d2106d6b08","ios":"levelo://app?vid=6cb5b02c-2401-484a-8b7d-b4d2106d6b08"},"vehicle_type_id":"4","last_reported":1728601719,"current_range_meters":38000,"station_id":"ce4bhu92rcd13ifvqi70","pricing_plan_id":"cebpf4jnsgd1na2vs0mg"},{"bike_id":"f255bdbb-a497-4549-91a5-4dbe27c9af42","system_id":"levelo_inurba_marseille","lat":43.2467,"lon":5.3816,"is_reserved":false,"is_disabled":false,"rental_uris":{"android":"levelo://app?vid=f255bdbb-a497-4549-91a5-4dbe27c9af42","ios":"levelo://app?vid=f255bdbb-a497-4549-91a5-4dbe27c9af42"},"vehicle_type_id":"4","last_reported":1728601719,"current_range_meters":29600,"station_id":"ce4bhih2rcd13ifvqfr0","pricing_plan_id":"cebpf4jnsgd1na2vs0mg"},{"bike_id":"ec0b4a60-abc4-400a-9df1-ce6586f92f75","system_id":"levelo_inurba_marseille","lat":43.31169,"lon":5.38712,"is_reserved":false,"is_disabled":false,"rental_uris":{"android":"levelo://app?vid=ec0b4a60-abc4-400a-9df1-ce6586f92f75","ios":"levelo://app?vid=ec0b4a60-abc4-400a-9df1-ce6586f92f75"},"vehicle_type_id":"4","last_reported":1728601719,"current_range_meters":36400,"station_id":"ce4bgv12rcd13ifvqcp0","pricing_plan_id":"cebpf4jnsgd1na2vs0mg"},{"bike_id":"aad136a8-d860-46f5-9a88-326756167519","system_id":"levelo_inurba_marseille","lat":43.32001,"lon":5.38155,"is_reserved":false,"is_disabled":false,"rental_uris":{"android":"levelo://app?vid=aad136a8-d860-46f5-9a88-326756167519","ios":"levelo://app?vid=aad136a8-d860-46f5-9a88-326756167519"},"vehicle_type_id":"4","last_reported":1728601719,"current_range_meters":34800,"station_id":"ce4bhr12rcd13ifvqhpg","pricing_plan_id":"cebpf4jnsgd1na2vs0mg"},{"bike_id":"dfb65c45-a78a-49eb-9234-365cf5eb2f53","system_id":"levelo_inurba_marseille","lat":43.29446,"lon":5.39756,"is_reserved":false,"is_disabled":false,"rental_uris":{"android":"levelo://app?vid=dfb65c45-a78a-49eb-9234-365cf5eb2f53","ios":"levelo://app?vid=dfb65c45-a78a-49eb-9234-365cf5eb2f53"},"vehicle_type_id":"4","last_reported":1728601719,"current_range_meters":30400,"station_id":"ce4bh3h2rcd13ifvqdo0","pricing_plan_id":"cebpf4jnsgd1na2vs0mg"},{"bike_id":"70e8d9e5-8396-4d7d-be39-1fc17a440db7","system_id":"levelo_inurba_marseille","lat":43.33611,"lon":5.41022,"is_reserved":false,"is_disabled":false,"rental_uris":{"android":"levelo://app?vid=70e8d9e5-8396-4d7d-be39-1fc17a440db7","ios":"levelo://app?vid=70e8d9e5-8396-4d7d-be39-1fc17a440db7"},"vehicle_type_id":"4","last_reported":1728601719,"current_range_meters":39200,"station_id":"ce4bhqh2rcd13ifvqhmg","pricing_plan_id":"cebpf4jnsgd1na2vs0mg"},{"bike_id":"b43e010f-69ea-40f6-9796-119442586a51","system_id":"levelo_inurba_marseille","lat":43.31334,"lon":5.39702,"is_reserved":false,"is_disabled":false,"rental_uris":{"android":"levelo://app?vid=b43e010f-69ea-40f6-9796-119442586a51","ios":"levelo://app?vid=b43e010f-69ea-40f6-9796-119442586a51"},"vehicle_type_id":"4","last_reported":1728601719,"current_range_meters":8000,"station_id":"ce4bgvp2rcd13ifvqcu0","pricing_plan_id":"cebpf4jnsgd1na2vs0mg"},{"bike_id":"1027a48d-39de-4194-8126-8dfdf879107f","system_id":"levelo_inurba_marseille","lat":43.29192,"lon":5.39315,"is_reserved":false,"is_disabled":false,"rental_uris":{"android":"levelo://app?vid=1027a48d-39de-4194-8126-8dfdf879107f","ios":"levelo://app?vid=1027a48d-39de-4194-8126-8dfdf879107f"},"vehicle_type_id":"4","last_reported":1728601719,"current_range_meters":17600,"station_id":"ce4bh192rcd13ifvqdd0","pricing_plan_id":"cebpf4jnsgd1na2vs0mg"},{"bike_id":"1d5de6a2-1898-46de-a744-7c205c4121e3","system_id":"levelo_inurba_marseille","lat":43.25004,"lon":5.38929,"is_reserved":false,"is_disabled":false,"rental_uris":{"android":"levelo://app?vid=1d5de6a2-1898-46de-a744-7c205c4121e3","ios":"levelo://app?vid=1d5de6a2-1898-46de-a744-7c205c4121e3"},"vehicle_type_id":"4","last_reported":1728601719,"current_range_meters":26800,"station_id":"ce4bhgp2rcd13ifvqfd0","pricing_plan_id":"cebpf4jnsgd1na2vs0mg"},{"bike_id":"9bab9d3e-37a4-49a5-a75a-86966f750570","system_id":"levelo_inurba_marseille","lat":43.32118,"lon":5.3679,"is_reserved":false,"is_disabled":false,"rental_uris":{"android":"levelo://app?vid=9bab9d3e-37a4-49a5-a75a-86966f750570","ios":"levelo://app?vid=9bab9d3e-37a4-49a5-a75a-86966f750570"},"vehicle_type_id":"4","last_reported":1728601719,"current_range_meters":7200,"station_id":"ce4bhrh2rcd13ifvqhug","pricing_plan_id":"cebpf4jnsgd1na2vs0mg"},{"bike_id":"f20c6d04-2c1b-419d-a21b-c0f0c6b04d9b","system_id":"levelo_inurba_marseille","lat":43.28445,"lon":5.39194,"is_reserved":false,"is_disabled":false,"rental_uris":{"android":"levelo://app?vid=f20c6d04-2c1b-419d-a21b-c0f0c6b04d9b","ios":"levelo://app?vid=f20c6d04-2c1b-419d-a21b-c0f0c6b04d9b"},"vehicle_type_id":"4","last_reported":1728601719,"current_range_meters":11600,"station_id":"ce4bhoh2rcd13ifvqh5g","pricing_plan_id":"cebpf4jnsgd1na2vs0mg"},{"bike_id":"51b39b0c-bb7b-440f-9a2b-83211e365378","system_id":"levelo_inurba_marseille","lat":43.31484,"lon":5.37308,"is_reserved":false,"is_disabled":false,"rental_uris":{"android":"levelo://app?vid=51b39b0c-bb7b-440f-9a2b-83211e365378","ios":"levelo://app?vid=51b39b0c-bb7b-440f-9a2b-83211e365378"},"vehicle_type_id":"4","last_reported":1728601719,"current_range_meters":31200,"station_id":"ce4bgt12rcd13ifvqcd0","pricing_plan_id":"cebpf4jnsgd1na2vs0mg"},{"bike_id":"cbc310e6-435c-4359-8971-31c9bce35051","system_id":"levelo_inurba_marseille","lat":43.29191,"lon":5.3932,"is_reserved":false,"is_disabled":false,"rental_uris":{"android":"levelo://app?vid=cbc310e6-435c-4359-8971-31c9bce35051","ios":"levelo://app?vid=cbc310e6-435c-4359-8971-31c9bce35051"},"vehicle_type_id":"4","last_reported":1728601719,"current_range_meters":38800,"station_id":"ce4bh192rcd13ifvqdd0","pricing_plan_id":"cebpf4jnsgd1na2vs0mg"},{"bike_id":"adb90be4-49bd-45cc-90a5-0ebca320168d","system_id":"levelo_inurba_marseille","lat":43.31753,"lon":5.39018,"is_reserved":false,"is_disabled":false,"rental_uris":{"android":"levelo://app?vid=adb90be4-49bd-45cc-90a5-0ebca320168d","ios":"levelo://app?vid=adb90be4-49bd-45cc-90a5-0ebca320168d"},"vehicle_type_id":"4","last_reported":1728601719,"current_range_meters":28800,"station_id":"ce4bhqp2rcd13ifvqhng","pricing_plan_id":"cebpf4jnsgd1na2vs0mg"},{"bike_id":"9a3ef8f3-8740-4e39-9c24-cf98b0108ac8","system_id":"levelo_inurba_marseille","lat":43.28038,"lon":5.36943,"is_reserved":false,"is_disabled":false,"rental_uris":{"android":"levelo://app?vid=9a3ef8f3-8740-4e39-9c24-cf98b0108ac8","ios":"levelo://app?vid=9a3ef8f3-8740-4e39-9c24-cf98b0108ac8"},"vehicle_type_id":"4","last_reported":1728601719,"current_range_meters":18000,"station_id":"ce4bha12rcd13ifvqef0","pricing_plan_id":"cebpf4jnsgd1na2vs0mg"},{"bike_id":"b09dbff8-a830-491c-a572-644fce18b85a","system_id":"levelo_inurba_marseille","lat":43.24668,"lon":5.38157,"is_reserved":false,"is_disabled":false,"rental_uris":{"android":"levelo://app?vid=b09dbff8-a830-491c-a572-644fce18b85a","ios":"levelo://app?vid=b09dbff8-a830-491c-a572-644fce18b85a"},"vehicle_type_id":"4","last_reported":1728601719,"current_range_meters":30800,"station_id":"ce4bhih2rcd13ifvqfr0","pricing_plan_id":"cebpf4jnsgd1na2vs0mg"},{"bike_id":"b403c7ea-19b1-464d-a198-125a8524abb8","system_id":"levelo_inurba_marseille","lat":43.28464,"lon":5.35888,"is_reserved":false,"is_disabled":false,"rental_uris":{"android":"levelo://app?vid=b403c7ea-19b1-464d-a198-125a8524abb8","ios":"levelo://app?vid=b403c7ea-19b1-464d-a198-125a8524abb8"},"vehicle_type_id":"4","last_reported":1728601719,"current_range_meters":35600,"station_id":"ce4bhah2rcd13ifvqei0","pricing_plan_id":"cebpf4jnsgd1na2vs0mg"},{"bike_id":"9f7e2fbf-bdee-4a59-b66c-f4b85e9700f4","system_id":"levelo_inurba_marseille","lat":43.24182,"lon":5.39735,"is_reserved":false,"is_disabled":false,"rental_uris":{"android":"levelo://app?vid=9f7e2fbf-bdee-4a59-b66c-f4b85e9700f4","ios":"levelo://app?vid=9f7e2fbf-bdee-4a59-b66c-f4b85e9700f4"},"vehicle_type_id":"4","last_reported":1728601719,"current_range_meters":37600,"station_id":"ce4bhn12rcd13ifvqgpg","pricing_plan_id":"cebpf4jnsgd1na2vs0mg"},{"bike_id":"d04bc5e7-208e-4bd9-8570-54355c99f2a6","system_id":"levelo_inurba_marseille","lat":43.28467,"lon":5.35888,"is_reserved":false,"is_disabled":false,"rental_uris":{"android":"levelo://app?vid=d04bc5e7-208e-4bd9-8570-54355c99f2a6","ios":"levelo://app?vid=d04bc5e7-208e-4bd9-8570-54355c99f2a6"},"vehicle_type_id":"4","last_reported":1728601719,"current_range_meters":24800,"station_id":"ce4bhah2rcd13ifvqei0","pricing_plan_id":"cebpf4jnsgd1na2vs0mg"},{"bike_id":"c3e66d72-e448-4a47-9ee9-9331206eeb99","system_id":"levelo_inurba_marseille","lat":43.30294,"lon":5.39205,"is_reserved":false,"is_disabled":false,"rental_uris":{"android":"levelo://app?vid=c3e66d72-e448-4a47-9ee9-9331206eeb99","ios":"levelo://app?vid=c3e66d72-e448-4a47-9ee9-9331206eeb99"},"vehicle_type_id":"4","last_reported":1728601719,"current_range_meters":14400,"station_id":"ce4bgkh2rcd13ifvqbk0","pricing_plan_id":"cebpf4jnsgd1na2vs0mg"},{"bike_id":"f8f51f6f-4d47-4ead-a6b4-a8c0d4ea415c","system_id":"levelo_inurba_marseille","lat":43.30432,"lon":5.38893,"is_reserved":false,"is_disabled":false,"rental_uris":{"android":"levelo://app?vid=f8f51f6f-4d47-4ead-a6b4-a8c0d4ea415c","ios":"levelo://app?vid=f8f51f6f-4d47-4ead-a6b4-a8c0d4ea415c"},"vehicle_type_id":"4","last_reported":1728601719,"current_range_meters":22400,"station_id":"ce4bgk12rcd13ifvqbi0","pricing_plan_id":"cebpf4jnsgd1na2vs0mg"},{"bike_id":"b589848d-eca5-4528-9071-1a4061596d28","system_id":"levelo_inurba_marseille","lat":43.31333,"lon":5.39703,"is_reserved":false,"is_disabled":false,"rental_uris":{"android":"levelo://app?vid=b589848d-eca5-4528-9071-1a4061596d28","ios":"levelo://app?vid=b589848d-eca5-4528-9071-1a4061596d28"},"vehicle_type_id":"4","last_reported":1728601719,"current_range_meters":38800,"station_id":"ce4bgvp2rcd13ifvqcu0","pricing_plan_id":"cebpf4jnsgd1na2vs0mg"},{"bike_id":"4bae06e8-deae-424a-93d9-e99c9cc62419","system_id":"levelo_inurba_marseille","lat":43.28088,"lon":5.396479,"is_reserved":false,"is_disabled":false,"rental_uris":{"android":"levelo://app?vid=4bae06e8-deae-424a-93d9-e99c9cc62419","ios":"levelo://app?vid=4bae06e8-deae-424a-93d9-e99c9cc62419"},"vehicle_type_id":"4","last_reported":1728601719,"current_range_meters":24400,"station_id":"ce4bho12rcd13ifvqh2g","pricing_plan_id":"cebpf4jnsgd1na2vs0mg"},{"bike_id":"8656bec1-43d6-4b7d-9a96-62a9532afc77","system_id":"levelo_inurba_marseille","lat":43.30798,"lon":5.3815,"is_reserved":false,"is_disabled":false,"rental_uris":{"android":"levelo://app?vid=8656bec1-43d6-4b7d-9a96-62a9532afc77","ios":"levelo://app?vid=8656bec1-43d6-4b7d-9a96-62a9532afc77"},"vehicle_type_id":"4","last_reported":1728601719,"current_range_meters":21600,"station_id":"ce4bgt12rcd13ifvqce0","pricing_plan_id":"cebpf4jnsgd1na2vs0mg"},{"bike_id":"813a95b0-fe76-4a18-96f4-05e751c619cd","system_id":"levelo_inurba_marseille","lat":43.27993,"lon":5.41658,"is_reserved":false,"is_disabled":false,"rental_uris":{"android":"levelo://app?vid=813a95b0-fe76-4a18-96f4-05e751c619cd","ios":"levelo://app?vid=813a95b0-fe76-4a18-96f4-05e751c619cd"},"vehicle_type_id":"4","last_reported":1728601719,"current_range_meters":38000,"station_id":"ce4bho12rcd13ifvqh1g","pricing_plan_id":"cebpf4jnsgd1na2vs0mg"},{"bike_id":"6c8183dd-cf19-4d95-90a7-79a8efb9a1c0","system_id":"levelo_inurba_marseille","lat":43.311293,"lon":5.37764,"is_reserved":false,"is_disabled":false,"rental_uris":{"android":"levelo://app?vid=6c8183dd-cf19-4d95-90a7-79a8efb9a1c0","ios":"levelo://app?vid=6c8183dd-cf19-4d95-90a7-79a8efb9a1c0"},"vehicle_type_id":"4","last_reported":1728601719,"current_range_meters":34800,"station_id":"ce4bgt92rcd13ifvqcg0","pricing_plan_id":"cebpf4jnsgd1na2vs0mg"},{"bike_id":"e79e4b42-0be9-4be7-833e-7809b1552691","system_id":"levelo_inurba_marseille","lat":43.24661,"lon":5.38905,"is_reserved":false,"is_disabled":false,"rental_uris":{"android":"levelo://app?vid=e79e4b42-0be9-4be7-833e-7809b1552691","ios":"levelo://app?vid=e79e4b42-0be9-4be7-833e-7809b1552691"},"vehicle_type_id":"4","last_reported":1728601719,"current_range_meters":28000,"station_id":"ce4bhg12rcd13ifvqf60","pricing_plan_id":"cebpf4jnsgd1na2vs0mg"},{"bike_id":"1e5f652c-4a49-4e5e-93d6-ba2d4440a647","system_id":"levelo_inurba_marseille","lat":43.31344,"lon":5.38376,"is_reserved":false,"is_disabled":false,"rental_uris":{"android":"levelo://app?vid=1e5f652c-4a49-4e5e-93d6-ba2d4440a647","ios":"levelo://app?vid=1e5f652c-4a49-4e5e-93d6-ba2d4440a647"},"vehicle_type_id":"4","last_reported":1728601719,"current_range_meters":5600,"station_id":"","pricing_plan_id":"cebpf4jnsgd1na2vs0mg"},{"bike_id":"d97b9fd7-bc8e-4fff-bdc2-59b0a891700d","system_id":"levelo_inurba_marseille","lat":43.301231,"lon":5.387852,"is_reserved":false,"is_disabled":false,"rental_uris":{"android":"levelo://app?vid=d97b9fd7-bc8e-4fff-bdc2-59b0a891700d","ios":"levelo://app?vid=d97b9fd7-bc8e-4fff-bdc2-59b0a891700d"},"vehicle_type_id":"4","last_reported":1728601719,"current_range_meters":30400,"station_id":"ce4bghh2rcd13ifvqb60","pricing_plan_id":"cebpf4jnsgd1na2vs0mg"},{"bike_id":"cc2f9d69-500e-488e-b663-00c92ef177f5","system_id":"levelo_inurba_marseille","lat":43.30422,"lon":5.41284,"is_reserved":false,"is_disabled":false,"rental_uris":{"android":"levelo://app?vid=cc2f9d69-500e-488e-b663-00c92ef177f5","ios":"levelo://app?vid=cc2f9d69-500e-488e-b663-00c92ef177f5"},"vehicle_type_id":"4","last_reported":1728601719,"current_range_meters":32800,"station_id":"ce4bhop2rcd13ifvqh8g","pricing_plan_id":"cebpf4jnsgd1na2vs0mg"},{"bike_id":"d81974f8-f6cd-4e58-a360-756048d54e9d","system_id":"levelo_inurba_marseille","lat":43.2946,"lon":5.37626,"is_reserved":false,"is_disabled":false,"rental_uris":{"android":"levelo://app?vid=d81974f8-f6cd-4e58-a360-756048d54e9d","ios":"levelo://app?vid=d81974f8-f6cd-4e58-a360-756048d54e9d"},"vehicle_type_id":"4","last_reported":1728601719,"current_range_meters":9200,"station_id":"","pricing_plan_id":"cebpf4jnsgd1na2vs0mg"},{"bike_id":"c6b98d16-06d0-423b-8cb7-6d7eb1380972","system_id":"levelo_inurba_marseille","lat":43.293732,"lon":5.379194,"is_reserved":false,"is_disabled":false,"rental_uris":{"android":"levelo://app?vid=c6b98d16-06d0-423b-8cb7-6d7eb1380972","ios":"levelo://app?vid=c6b98d16-06d0-423b-8cb7-6d7eb1380972"},"vehicle_type_id":"4","last_reported":1728601719,"current_range_meters":16800,"station_id":"ce4bh3h2rcd13ifvqdn0","pricing_plan_id":"cebpf4jnsgd1na2vs0mg"},{"bike_id":"f4242d47-0a61-48b8-871d-ac8468e3bd41","system_id":"levelo_inurba_marseille","lat":43.28458,"lon":5.35885,"is_reserved":false,"is_disabled":false,"rental_uris":{"android":"levelo://app?vid=f4242d47-0a61-48b8-871d-ac8468e3bd41","ios":"levelo://app?vid=f4242d47-0a61-48b8-871d-ac8468e3bd41"},"vehicle_type_id":"4","last_reported":1728601719,"current_range_meters":28000,"station_id":"ce4bhah2rcd13ifvqei0","pricing_plan_id":"cebpf4jnsgd1na2vs0mg"},{"bike_id":"484a4c63-4ef1-4433-b27a-9a9ca5ad2f9a","system_id":"levelo_inurba_marseille","lat":43.22929,"lon":5.35377,"is_reserved":false,"is_disabled":false,"rental_uris":{"android":"levelo://app?vid=484a4c63-4ef1-4433-b27a-9a9ca5ad2f9a","ios":"levelo://app?vid=484a4c63-4ef1-4433-b27a-9a9ca5ad2f9a"},"vehicle_type_id":"4","last_reported":1728601719,"current_range_meters":19600,"station_id":"cpo3532slgdg3j2ikp40","pricing_plan_id":"cebpf4jnsgd1na2vs0mg"},{"bike_id":"1c1c2a36-a8d7-479d-b339-6ec9292c8ea3","system_id":"levelo_inurba_marseille","lat":43.31271,"lon":5.40165,"is_reserved":false,"is_disabled":false,"rental_uris":{"android":"levelo://app?vid=1c1c2a36-a8d7-479d-b339-6ec9292c8ea3","ios":"levelo://app?vid=1c1c2a36-a8d7-479d-b339-6ec9292c8ea3"},"vehicle_type_id":"4","last_reported":1728601719,"current_range_meters":32400,"station_id":"ce4bh092rcd13ifvqd30","pricing_plan_id":"cebpf4jnsgd1na2vs0mg"},{"bike_id":"36e67d94-fae0-428e-84b7-0c87f385fbbf","system_id":"levelo_inurba_marseille","lat":43.29965,"lon":5.38499,"is_reserved":false,"is_disabled":false,"rental_uris":{"android":"levelo://app?vid=36e67d94-fae0-428e-84b7-0c87f385fbbf","ios":"levelo://app?vid=36e67d94-fae0-428e-84b7-0c87f385fbbf"},"vehicle_type_id":"4","last_reported":1728601719,"current_range_meters":8400,"station_id":"ce4bgj92rcd13ifvqbd0","pricing_plan_id":"cebpf4jnsgd1na2vs0mg"},{"bike_id":"d6323417-549a-42b8-9f9f-42c89e424404","system_id":"levelo_inurba_marseille","lat":43.30549,"lon":5.36546,"is_reserved":false,"is_disabled":false,"rental_uris":{"android":"levelo://app?vid=d6323417-549a-42b8-9f9f-42c89e424404","ios":"levelo://app?vid=d6323417-549a-42b8-9f9f-42c89e424404"},"vehicle_type_id":"4","last_reported":1728601719,"current_range_meters":39200,"station_id":"ce4bgs12rcd13ifvqcag","pricing_plan_id":"cebpf4jnsgd1na2vs0mg"},{"bike_id":"2bacbdd4-2404-4717-b62d-31a55a103108","system_id":"levelo_inurba_marseille","lat":43.27948,"lon":5.41051,"is_reserved":false,"is_disabled":false,"rental_uris":{"android":"levelo://app?vid=2bacbdd4-2404-4717-b62d-31a55a103108","ios":"levelo://app?vid=2bacbdd4-2404-4717-b62d-31a55a103108"},"vehicle_type_id":"4","last_reported":1728601719,"current_range_meters":36400,"station_id":"ce4bhnp2rcd13ifvqh0g","pricing_plan_id":"cebpf4jnsgd1na2vs0mg"},{"bike_id":"cd66634a-a755-4837-bafe-bd5706ebd9ae","system_id":"levelo_inurba_marseille","lat":43.31726,"lon":5.42394,"is_reserved":false,"is_disabled":false,"rental_uris":{"android":"levelo://app?vid=cd66634a-a755-4837-bafe-bd5706ebd9ae","ios":"levelo://app?vid=cd66634a-a755-4837-bafe-bd5706ebd9ae"},"vehicle_type_id":"4","last_reported":1728601719,"current_range_meters":12800,"station_id":"ce4bhp92rcd13ifvqhbg","pricing_plan_id":"cebpf4jnsgd1na2vs0mg"},{"bike_id":"830a55b5-b356-49d6-b4bd-23022c4ba6b3","system_id":"levelo_inurba_marseille","lat":43.28473,"lon":5.35885,"is_reserved":false,"is_disabled":false,"rental_uris":{"android":"levelo://app?vid=830a55b5-b356-49d6-b4bd-23022c4ba6b3","ios":"levelo://app?vid=830a55b5-b356-49d6-b4bd-23022c4ba6b3"},"vehicle_type_id":"4","last_reported":1728601719,"current_range_meters":6800,"station_id":"ce4bhah2rcd13ifvqei0","pricing_plan_id":"cebpf4jnsgd1na2vs0mg"},{"bike_id":"fbee2a8e-163d-4917-870d-0f44b08e68e0","system_id":"levelo_inurba_marseille","lat":43.31715,"lon":5.43708,"is_reserved":false,"is_disabled":false,"rental_uris":{"android":"levelo://app?vid=fbee2a8e-163d-4917-870d-0f44b08e68e0","ios":"levelo://app?vid=fbee2a8e-163d-4917-870d-0f44b08e68e0"},"vehicle_type_id":"4","last_reported":1728601719,"current_range_meters":3200,"station_id":"ce4bhp92rcd13ifvqhcg","pricing_plan_id":"cebpf4jnsgd1na2vs0mg"},{"bike_id":"ab593a9a-7cfb-4667-8966-54e1e143e4e3","system_id":"levelo_inurba_marseille","lat":43.28925,"lon":5.38402,"is_reserved":false,"is_disabled":false,"rental_uris":{"android":"levelo://app?vid=ab593a9a-7cfb-4667-8966-54e1e143e4e3","ios":"levelo://app?vid=ab593a9a-7cfb-4667-8966-54e1e143e4e3"},"vehicle_type_id":"4","last_reported":1728601719,"current_range_meters":22800,"station_id":"ce4bh612rcd13ifvqe6g","pricing_plan_id":"cebpf4jnsgd1na2vs0mg"},{"bike_id":"2679da04-4fc7-44e6-87c2-fc29d2217a4e","system_id":"levelo_inurba_marseille","lat":43.28925,"lon":5.36391,"is_reserved":false,"is_disabled":false,"rental_uris":{"android":"levelo://app?vid=2679da04-4fc7-44e6-87c2-fc29d2217a4e","ios":"levelo://app?vid=2679da04-4fc7-44e6-87c2-fc29d2217a4e"},"vehicle_type_id":"4","last_reported":1728601719,"current_range_meters":24000,"station_id":"ce4bhc92rcd13ifvqetg","pricing_plan_id":"cebpf4jnsgd1na2vs0mg"},{"bike_id":"5b74e0bd-d17b-4f77-bed6-5422ecdb81e1","system_id":"levelo_inurba_marseille","lat":43.28481,"lon":5.38426,"is_reserved":false,"is_disabled":false,"rental_uris":{"android":"levelo://app?vid=5b74e0bd-d17b-4f77-bed6-5422ecdb81e1","ios":"levelo://app?vid=5b74e0bd-d17b-4f77-bed6-5422ecdb81e1"},"vehicle_type_id":"4","last_reported":1728601719,"current_range_meters":38800,"station_id":"ce4bh512rcd13ifvqe3g","pricing_plan_id":"cebpf4jnsgd1na2vs0mg"},{"bike_id":"3372ba1c-93af-4ac9-8ffa-34868b7baae2","system_id":"levelo_inurba_marseille","lat":43.31761,"lon":5.39025,"is_reserved":false,"is_disabled":false,"rental_uris":{"android":"levelo://app?vid=3372ba1c-93af-4ac9-8ffa-34868b7baae2","ios":"levelo://app?vid=3372ba1c-93af-4ac9-8ffa-34868b7baae2"},"vehicle_type_id":"4","last_reported":1728601719,"current_range_meters":15200,"station_id":"ce4bhqp2rcd13ifvqhng","pricing_plan_id":"cebpf4jnsgd1na2vs0mg"},{"bike_id":"c6e4be16-a3e8-4162-8d05-00b50129be60","system_id":"levelo_inurba_marseille","lat":43.29257,"lon":5.40905,"is_reserved":false,"is_disabled":false,"rental_uris":{"android":"levelo://app?vid=c6e4be16-a3e8-4162-8d05-00b50129be60","ios":"levelo://app?vid=c6e4be16-a3e8-4162-8d05-00b50129be60"},"vehicle_type_id":"4","last_reported":1728601719,"current_range_meters":33600,"station_id":"ce4bh192rcd13ifvqdc0","pricing_plan_id":"cebpf4jnsgd1na2vs0mg"},{"bike_id":"5a5649e8-a9bc-4d0f-be41-ed6fc56a9baf","system_id":"levelo_inurba_marseille","lat":43.22931,"lon":5.35377,"is_reserved":false,"is_disabled":false,"rental_uris":{"android":"levelo://app?vid=5a5649e8-a9bc-4d0f-be41-ed6fc56a9baf","ios":"levelo://app?vid=5a5649e8-a9bc-4d0f-be41-ed6fc56a9baf"},"vehicle_type_id":"4","last_reported":1728601719,"current_range_meters":38800,"station_id":"cpo3532slgdg3j2ikp40","pricing_plan_id":"cebpf4jnsgd1na2vs0mg"},{"bike_id":"dd0c1536-b42b-4b0b-80ca-a5f6dde263f2","system_id":"levelo_inurba_marseille","lat":43.27176,"lon":5.40995,"is_reserved":false,"is_disabled":false,"rental_uris":{"android":"levelo://app?vid=dd0c1536-b42b-4b0b-80ca-a5f6dde263f2","ios":"levelo://app?vid=dd0c1536-b42b-4b0b-80ca-a5f6dde263f2"},"vehicle_type_id":"4","last_reported":1728601719,"current_range_meters":38000,"station_id":"ce4bhl12rcd13ifvqgf0","pricing_plan_id":"cebpf4jnsgd1na2vs0mg"},{"bike_id":"d536ef4b-b253-4bee-9285-eb782f8f6cab","system_id":"levelo_inurba_marseille","lat":43.32591,"lon":5.40459,"is_reserved":false,"is_disabled":false,"rental_uris":{"android":"levelo://app?vid=d536ef4b-b253-4bee-9285-eb782f8f6cab","ios":"levelo://app?vid=d536ef4b-b253-4bee-9285-eb782f8f6cab"},"vehicle_type_id":"4","last_reported":1728601719,"current_range_meters":30800,"station_id":"","pricing_plan_id":"cebpf4jnsgd1na2vs0mg"},{"bike_id":"104dce3b-2862-44f7-bb64-f1cb1800c635","system_id":"levelo_inurba_marseille","lat":43.33608,"lon":5.41021,"is_reserved":false,"is_disabled":false,"rental_uris":{"android":"levelo://app?vid=104dce3b-2862-44f7-bb64-f1cb1800c635","ios":"levelo://app?vid=104dce3b-2862-44f7-bb64-f1cb1800c635"},"vehicle_type_id":"4","last_reported":1728601719,"current_range_meters":32000,"station_id":"ce4bhqh2rcd13ifvqhmg","pricing_plan_id":"cebpf4jnsgd1na2vs0mg"},{"bike_id":"90fbc6c8-74c8-4f7f-a927-f3891c5b89aa","system_id":"levelo_inurba_marseille","lat":43.27623,"lon":5.36115,"is_reserved":false,"is_disabled":false,"rental_uris":{"android":"levelo://app?vid=90fbc6c8-74c8-4f7f-a927-f3891c5b89aa","ios":"levelo://app?vid=90fbc6c8-74c8-4f7f-a927-f3891c5b89aa"},"vehicle_type_id":"4","last_reported":1728601719,"current_range_meters":38800,"station_id":"ce4bgj92rcd13ifvqbe0","pricing_plan_id":"cebpf4jnsgd1na2vs0mg"},{"bike_id":"52ba39b7-b52f-491a-ba65-25e180de383f","system_id":"levelo_inurba_marseille","lat":43.27818,"lon":5.40718,"is_reserved":false,"is_disabled":false,"rental_uris":{"android":"levelo://app?vid=52ba39b7-b52f-491a-ba65-25e180de383f","ios":"levelo://app?vid=52ba39b7-b52f-491a-ba65-25e180de383f"},"vehicle_type_id":"4","last_reported":1728601719,"current_range_meters":37600,"station_id":"ce4bhnh2rcd13ifvqgtg","pricing_plan_id":"cebpf4jnsgd1na2vs0mg"},{"bike_id":"1934428b-beb7-432a-84fb-15a05123ba36","system_id":"levelo_inurba_marseille","lat":43.27563,"lon":5.38425,"is_reserved":false,"is_disabled":false,"rental_uris":{"android":"levelo://app?vid=1934428b-beb7-432a-84fb-15a05123ba36","ios":"levelo://app?vid=1934428b-beb7-432a-84fb-15a05123ba36"},"vehicle_type_id":"4","last_reported":1728601719,"current_range_meters":37600,"station_id":"ce4bhh92rcd13ifvqfi0","pricing_plan_id":"cebpf4jnsgd1na2vs0mg"},{"bike_id":"fc40ffd7-f29e-47fe-b2de-5c23aa8958ee","system_id":"levelo_inurba_marseille","lat":43.26948,"lon":5.38641,"is_reserved":false,"is_disabled":false,"rental_uris":{"android":"levelo://app?vid=fc40ffd7-f29e-47fe-b2de-5c23aa8958ee","ios":"levelo://app?vid=fc40ffd7-f29e-47fe-b2de-5c23aa8958ee"},"vehicle_type_id":"4","last_reported":1728601719,"current_range_meters":38000,"station_id":"ce4bhh92rcd13ifvqfh0","pricing_plan_id":"cebpf4jnsgd1na2vs0mg"},{"bike_id":"5bbb0da7-9b8c-4beb-9662-09d71d1da93f","system_id":"levelo_inurba_marseille","lat":43.32367,"lon":5.38885,"is_reserved":false,"is_disabled":false,"rental_uris":{"android":"levelo://app?vid=5bbb0da7-9b8c-4beb-9662-09d71d1da93f","ios":"levelo://app?vid=5bbb0da7-9b8c-4beb-9662-09d71d1da93f"},"vehicle_type_id":"4","last_reported":1728601719,"current_range_meters":36400,"station_id":"ce4bhqp2rcd13ifvqhog","pricing_plan_id":"cebpf4jnsgd1na2vs0mg"},{"bike_id":"f02f7de8-46fc-456a-a316-ca30edbfa7e9","system_id":"levelo_inurba_marseille","lat":43.25585,"lon":5.38238,"is_reserved":false,"is_disabled":false,"rental_uris":{"android":"levelo://app?vid=f02f7de8-46fc-456a-a316-ca30edbfa7e9","ios":"levelo://app?vid=f02f7de8-46fc-456a-a316-ca30edbfa7e9"},"vehicle_type_id":"4","last_reported":1728601719,"current_range_meters":38800,"station_id":"ce4bhih2rcd13ifvqfs0","pricing_plan_id":"cebpf4jnsgd1na2vs0mg"},{"bike_id":"398993b1-56d1-4bd2-96f0-6078dceddf08","system_id":"levelo_inurba_marseille","lat":43.31535,"lon":5.38029,"is_reserved":false,"is_disabled":false,"rental_uris":{"android":"levelo://app?vid=398993b1-56d1-4bd2-96f0-6078dceddf08","ios":"levelo://app?vid=398993b1-56d1-4bd2-96f0-6078dceddf08"},"vehicle_type_id":"4","last_reported":1728601719,"current_range_meters":38800,"station_id":"ce4bhsp2rcd13ifvqi50","pricing_plan_id":"cebpf4jnsgd1na2vs0mg"},{"bike_id":"8fb2b431-bcb9-46ba-80fb-e26e84592fc5","system_id":"levelo_inurba_marseille","lat":43.231932,"lon":5.355515,"is_reserved":false,"is_disabled":false,"rental_uris":{"android":"levelo://app?vid=8fb2b431-bcb9-46ba-80fb-e26e84592fc5","ios":"levelo://app?vid=8fb2b431-bcb9-46ba-80fb-e26e84592fc5"},"vehicle_type_id":"4","last_reported":1728601719,"current_range_meters":38400,"station_id":"ce4bhu92rcd13ifvqi70","pricing_plan_id":"cebpf4jnsgd1na2vs0mg"},{"bike_id":"d076a3aa-8e43-42ef-9e17-f93bc5a7bc04","system_id":"levelo_inurba_marseille","lat":43.28415,"lon":5.37507,"is_reserved":false,"is_disabled":false,"rental_uris":{"android":"levelo://app?vid=d076a3aa-8e43-42ef-9e17-f93bc5a7bc04","ios":"levelo://app?vid=d076a3aa-8e43-42ef-9e17-f93bc5a7bc04"},"vehicle_type_id":"4","last_reported":1728601719,"current_range_meters":22000,"station_id":"ce4bh412rcd13ifvqds0","pricing_plan_id":"cebpf4jnsgd1na2vs0mg"},{"bike_id":"5cd8efdd-df7e-4ad5-a19f-dcb92828f82d","system_id":"levelo_inurba_marseille","lat":43.30133,"lon":5.39873,"is_reserved":false,"is_disabled":false,"rental_uris":{"android":"levelo://app?vid=5cd8efdd-df7e-4ad5-a19f-dcb92828f82d","ios":"levelo://app?vid=5cd8efdd-df7e-4ad5-a19f-dcb92828f82d"},"vehicle_type_id":"4","last_reported":1728601719,"current_range_meters":21600,"station_id":"ce4bh0h2rcd13ifvqd40","pricing_plan_id":"cebpf4jnsgd1na2vs0mg"},{"bike_id":"dbfdb842-85c2-453f-8d8d-f6a72063d2db","system_id":"levelo_inurba_marseille","lat":43.28465,"lon":5.35897,"is_reserved":false,"is_disabled":false,"rental_uris":{"android":"levelo://app?vid=dbfdb842-85c2-453f-8d8d-f6a72063d2db","ios":"levelo://app?vid=dbfdb842-85c2-453f-8d8d-f6a72063d2db"},"vehicle_type_id":"4","last_reported":1728601719,"current_range_meters":4800,"station_id":"ce4bhah2rcd13ifvqei0","pricing_plan_id":"cebpf4jnsgd1na2vs0mg"},{"bike_id":"70f12c6e-a1e8-4861-8a8e-698db6ad0543","system_id":"levelo_inurba_marseille","lat":43.27179,"lon":5.40995,"is_reserved":false,"is_disabled":false,"rental_uris":{"android":"levelo://app?vid=70f12c6e-a1e8-4861-8a8e-698db6ad0543","ios":"levelo://app?vid=70f12c6e-a1e8-4861-8a8e-698db6ad0543"},"vehicle_type_id":"4","last_reported":1728601719,"current_range_meters":18800,"station_id":"ce4bhl12rcd13ifvqgf0","pricing_plan_id":"cebpf4jnsgd1na2vs0mg"},{"bike_id":"4c1ba88a-a247-4412-81b1-d49422aec9db","system_id":"levelo_inurba_marseille","lat":43.31707,"lon":5.37755,"is_reserved":false,"is_disabled":false,"rental_uris":{"android":"levelo://app?vid=4c1ba88a-a247-4412-81b1-d49422aec9db","ios":"levelo://app?vid=4c1ba88a-a247-4412-81b1-d49422aec9db"},"vehicle_type_id":"4","last_reported":1728601719,"current_range_meters":38000,"station_id":"ce4bgth2rcd13ifvqch0","pricing_plan_id":"cebpf4jnsgd1na2vs0mg"},{"bike_id":"37781618-b1b5-47b4-b76b-e9bce24807a8","system_id":"levelo_inurba_marseille","lat":43.27906,"lon":5.39604,"is_reserved":false,"is_disabled":false,"rental_uris":{"android":"levelo://app?vid=37781618-b1b5-47b4-b76b-e9bce24807a8","ios":"levelo://app?vid=37781618-b1b5-47b4-b76b-e9bce24807a8"},"vehicle_type_id":"4","last_reported":1728601719,"current_range_meters":26000,"station_id":"ce4bhf92rcd13ifvqf40","pricing_plan_id":"cebpf4jnsgd1na2vs0mg"},{"bike_id":"47e58452-78e8-4b80-bd1b-533509c8cfcd","system_id":"levelo_inurba_marseille","lat":43.25936,"lon":5.40913,"is_reserved":false,"is_disabled":false,"rental_uris":{"android":"levelo://app?vid=47e58452-78e8-4b80-bd1b-533509c8cfcd","ios":"levelo://app?vid=47e58452-78e8-4b80-bd1b-533509c8cfcd"},"vehicle_type_id":"4","last_reported":1728601719,"current_range_meters":9600,"station_id":"ce4bhm92rcd13ifvqglg","pricing_plan_id":"cebpf4jnsgd1na2vs0mg"},{"bike_id":"fcc356e6-ca62-4682-89bd-bc19c5b5588d","system_id":"levelo_inurba_marseille","lat":43.3054,"lon":5.36703,"is_reserved":false,"is_disabled":false,"rental_uris":{"android":"levelo://app?vid=fcc356e6-ca62-4682-89bd-bc19c5b5588d","ios":"levelo://app?vid=fcc356e6-ca62-4682-89bd-bc19c5b5588d"},"vehicle_type_id":"4","last_reported":1728601719,"current_range_meters":38800,"station_id":"ce4bgrp2rcd13ifvqc9g","pricing_plan_id":"cebpf4jnsgd1na2vs0mg"},{"bike_id":"66c53e00-bc3c-47bf-96a7-e9512d8a40c8","system_id":"levelo_inurba_marseille","lat":43.28571,"lon":5.39502,"is_reserved":false,"is_disabled":false,"rental_uris":{"android":"levelo://app?vid=66c53e00-bc3c-47bf-96a7-e9512d8a40c8","ios":"levelo://app?vid=66c53e00-bc3c-47bf-96a7-e9512d8a40c8"},"vehicle_type_id":"4","last_reported":1728601719,"current_range_meters":38800,"station_id":"ce4bh292rcd13ifvqdg0","pricing_plan_id":"cebpf4jnsgd1na2vs0mg"},{"bike_id":"2e57e480-a324-489b-8946-f7d9d9edcf00","system_id":"levelo_inurba_marseille","lat":43.3361,"lon":5.41017,"is_reserved":false,"is_disabled":false,"rental_uris":{"android":"levelo://app?vid=2e57e480-a324-489b-8946-f7d9d9edcf00","ios":"levelo://app?vid=2e57e480-a324-489b-8946-f7d9d9edcf00"},"vehicle_type_id":"4","last_reported":1728601719,"current_range_meters":12400,"station_id":"ce4bhqh2rcd13ifvqhmg","pricing_plan_id":"cebpf4jnsgd1na2vs0mg"},{"bike_id":"963783a0-1ef8-4176-863a-f70f50101182","system_id":"levelo_inurba_marseille","lat":43.24183,"lon":5.39726,"is_reserved":false,"is_disabled":false,"rental_uris":{"android":"levelo://app?vid=963783a0-1ef8-4176-863a-f70f50101182","ios":"levelo://app?vid=963783a0-1ef8-4176-863a-f70f50101182"},"vehicle_type_id":"4","last_reported":1728601719,"current_range_meters":18000,"station_id":"ce4bhn12rcd13ifvqgpg","pricing_plan_id":"cebpf4jnsgd1na2vs0mg"},{"bike_id":"bda3fe94-6c86-4ae7-a299-1014f0b7764b","system_id":"levelo_inurba_marseille","lat":43.28027,"lon":5.36943,"is_reserved":false,"is_disabled":false,"rental_uris":{"android":"levelo://app?vid=bda3fe94-6c86-4ae7-a299-1014f0b7764b","ios":"levelo://app?vid=bda3fe94-6c86-4ae7-a299-1014f0b7764b"},"vehicle_type_id":"4","last_reported":1728601719,"current_range_meters":40000,"station_id":"ce4bha12rcd13ifvqef0","pricing_plan_id":"cebpf4jnsgd1na2vs0mg"},{"bike_id":"4e6a08ae-9e79-48c6-89f4-c318fef764a9","system_id":"levelo_inurba_marseille","lat":43.32,"lon":5.38154,"is_reserved":false,"is_disabled":false,"rental_uris":{"android":"levelo://app?vid=4e6a08ae-9e79-48c6-89f4-c318fef764a9","ios":"levelo://app?vid=4e6a08ae-9e79-48c6-89f4-c318fef764a9"},"vehicle_type_id":"4","last_reported":1728601719,"current_range_meters":38400,"station_id":"ce4bhr12rcd13ifvqhpg","pricing_plan_id":"cebpf4jnsgd1na2vs0mg"},{"bike_id":"bb693aec-e596-4cbe-9107-6a4434cbe1c6","system_id":"levelo_inurba_marseille","lat":43.28576,"lon":5.39498,"is_reserved":false,"is_disabled":false,"rental_uris":{"android":"levelo://app?vid=bb693aec-e596-4cbe-9107-6a4434cbe1c6","ios":"levelo://app?vid=bb693aec-e596-4cbe-9107-6a4434cbe1c6"},"vehicle_type_id":"4","last_reported":1728601719,"current_range_meters":38800,"station_id":"ce4bh292rcd13ifvqdg0","pricing_plan_id":"cebpf4jnsgd1na2vs0mg"},{"bike_id":"5ec24874-40d5-40f7-ba88-9ba229ae54d7","system_id":"levelo_inurba_marseille","lat":43.24653,"lon":5.38895,"is_reserved":false,"is_disabled":false,"rental_uris":{"android":"levelo://app?vid=5ec24874-40d5-40f7-ba88-9ba229ae54d7","ios":"levelo://app?vid=5ec24874-40d5-40f7-ba88-9ba229ae54d7"},"vehicle_type_id":"4","last_reported":1728601719,"current_range_meters":22800,"station_id":"ce4bhg12rcd13ifvqf60","pricing_plan_id":"cebpf4jnsgd1na2vs0mg"},{"bike_id":"951172a7-257a-4022-ac77-7dbdc3436e88","system_id":"levelo_inurba_marseille","lat":43.31081,"lon":5.3835,"is_reserved":false,"is_disabled":false,"rental_uris":{"android":"levelo://app?vid=951172a7-257a-4022-ac77-7dbdc3436e88","ios":"levelo://app?vid=951172a7-257a-4022-ac77-7dbdc3436e88"},"vehicle_type_id":"4","last_reported":1728601719,"current_range_meters":16000,"station_id":"ce4bgv92rcd13ifvqcr0","pricing_plan_id":"cebpf4jnsgd1na2vs0mg"},{"bike_id":"412929a4-dd66-4038-99ab-5ee5129f8e9e","system_id":"levelo_inurba_marseille","lat":43.28265,"lon":5.35073,"is_reserved":false,"is_disabled":false,"rental_uris":{"android":"levelo://app?vid=412929a4-dd66-4038-99ab-5ee5129f8e9e","ios":"levelo://app?vid=412929a4-dd66-4038-99ab-5ee5129f8e9e"},"vehicle_type_id":"4","last_reported":1728601719,"current_range_meters":25200,"station_id":"ce4bhbp2rcd13ifvqerg","pricing_plan_id":"cebpf4jnsgd1na2vs0mg"},{"bike_id":"a8f0bfa5-7bc9-40e4-a9a2-5a1a8ec5daab","system_id":"levelo_inurba_marseille","lat":43.27975,"lon":5.38729,"is_reserved":false,"is_disabled":false,"rental_uris":{"android":"levelo://app?vid=a8f0bfa5-7bc9-40e4-a9a2-5a1a8ec5daab","ios":"levelo://app?vid=a8f0bfa5-7bc9-40e4-a9a2-5a1a8ec5daab"},"vehicle_type_id":"4","last_reported":1728601719,"current_range_meters":36800,"station_id":"ce4bhg12rcd13ifvqf80","pricing_plan_id":"cebpf4jnsgd1na2vs0mg"},{"bike_id":"7705d525-2566-45bf-899e-abb57789422d","system_id":"levelo_inurba_marseille","lat":43.28581,"lon":5.39505,"is_reserved":false,"is_disabled":false,"rental_uris":{"android":"levelo://app?vid=7705d525-2566-45bf-899e-abb57789422d","ios":"levelo://app?vid=7705d525-2566-45bf-899e-abb57789422d"},"vehicle_type_id":"4","last_reported":1728601719,"current_range_meters":17600,"station_id":"ce4bh292rcd13ifvqdg0","pricing_plan_id":"cebpf4jnsgd1na2vs0mg"},{"bike_id":"ffcd1ce1-30d3-4500-af91-e8d84c79e9ff","system_id":"levelo_inurba_marseille","lat":43.30645,"lon":5.40073,"is_reserved":false,"is_disabled":false,"rental_uris":{"android":"levelo://app?vid=ffcd1ce1-30d3-4500-af91-e8d84c79e9ff","ios":"levelo://app?vid=ffcd1ce1-30d3-4500-af91-e8d84c79e9ff"},"vehicle_type_id":"4","last_reported":1728601719,"current_range_meters":28400,"station_id":"ce4bh112rcd13ifvqda0","pricing_plan_id":"cebpf4jnsgd1na2vs0mg"},{"bike_id":"0d95071d-e827-4f36-bd98-659b7990ebfa","system_id":"levelo_inurba_marseille","lat":43.31704,"lon":5.37754,"is_reserved":false,"is_disabled":false,"rental_uris":{"android":"levelo://app?vid=0d95071d-e827-4f36-bd98-659b7990ebfa","ios":"levelo://app?vid=0d95071d-e827-4f36-bd98-659b7990ebfa"},"vehicle_type_id":"4","last_reported":1728601719,"current_range_meters":38000,"station_id":"ce4bgth2rcd13ifvqch0","pricing_plan_id":"cebpf4jnsgd1na2vs0mg"},{"bike_id":"9f830b46-6305-4180-8424-2d6cdbb5a824","system_id":"levelo_inurba_marseille","lat":43.30415,"lon":5.41287,"is_reserved":false,"is_disabled":false,"rental_uris":{"android":"levelo://app?vid=9f830b46-6305-4180-8424-2d6cdbb5a824","ios":"levelo://app?vid=9f830b46-6305-4180-8424-2d6cdbb5a824"},"vehicle_type_id":"4","last_reported":1728601719,"current_range_meters":13600,"station_id":"ce4bhop2rcd13ifvqh8g","pricing_plan_id":"cebpf4jnsgd1na2vs0mg"},{"bike_id":"b98a370f-428e-472b-b851-097e318e7656","system_id":"levelo_inurba_marseille","lat":43.27669,"lon":5.38925,"is_reserved":false,"is_disabled":false,"rental_uris":{"android":"levelo://app?vid=b98a370f-428e-472b-b851-097e318e7656","ios":"levelo://app?vid=b98a370f-428e-472b-b851-097e318e7656"},"vehicle_type_id":"4","last_reported":1728601719,"current_range_meters":36800,"station_id":"ce4bhi12rcd13ifvqfo0","pricing_plan_id":"cebpf4jnsgd1na2vs0mg"},{"bike_id":"6ec78acb-9d92-4b9e-8c67-5c118419c0bd","system_id":"levelo_inurba_marseille","lat":43.31119,"lon":5.37775,"is_reserved":false,"is_disabled":false,"rental_uris":{"android":"levelo://app?vid=6ec78acb-9d92-4b9e-8c67-5c118419c0bd","ios":"levelo://app?vid=6ec78acb-9d92-4b9e-8c67-5c118419c0bd"},"vehicle_type_id":"4","last_reported":1728601719,"current_range_meters":30400,"station_id":"ce4bgt92rcd13ifvqcg0","pricing_plan_id":"cebpf4jnsgd1na2vs0mg"},{"bike_id":"44da063b-f55f-43e5-89e7-c03ebac99da9","system_id":"levelo_inurba_marseille","lat":43.31069,"lon":5.38341,"is_reserved":false,"is_disabled":false,"rental_uris":{"android":"levelo://app?vid=44da063b-f55f-43e5-89e7-c03ebac99da9","ios":"levelo://app?vid=44da063b-f55f-43e5-89e7-c03ebac99da9"},"vehicle_type_id":"4","last_reported":1728601719,"current_range_meters":32800,"station_id":"ce4bgv92rcd13ifvqcr0","pricing_plan_id":"cebpf4jnsgd1na2vs0mg"},{"bike_id":"0d665a2a-7be6-41c7-b2cd-59c0b7ad781d","system_id":"levelo_inurba_marseille","lat":43.28466,"lon":5.35888,"is_reserved":false,"is_disabled":false,"rental_uris":{"android":"levelo://app?vid=0d665a2a-7be6-41c7-b2cd-59c0b7ad781d","ios":"levelo://app?vid=0d665a2a-7be6-41c7-b2cd-59c0b7ad781d"},"vehicle_type_id":"4","last_reported":1728601719,"current_range_meters":6800,"station_id":"ce4bhah2rcd13ifvqei0","pricing_plan_id":"cebpf4jnsgd1na2vs0mg"},{"bike_id":"e67cbedd-a992-4441-b376-acc425e0d4c2","system_id":"levelo_inurba_marseille","lat":43.25865,"lon":5.399,"is_reserved":false,"is_disabled":false,"rental_uris":{"android":"levelo://app?vid=e67cbedd-a992-4441-b376-acc425e0d4c2","ios":"levelo://app?vid=e67cbedd-a992-4441-b376-acc425e0d4c2"},"vehicle_type_id":"4","last_reported":1728601719,"current_range_meters":22000,"station_id":"ce4bhl92rcd13ifvqghg","pricing_plan_id":"cebpf4jnsgd1na2vs0mg"},{"bike_id":"27482599-6ac1-4451-896d-9d27077a44e3","system_id":"levelo_inurba_marseille","lat":43.26032,"lon":5.37556,"is_reserved":false,"is_disabled":false,"rental_uris":{"android":"levelo://app?vid=27482599-6ac1-4451-896d-9d27077a44e3","ios":"levelo://app?vid=27482599-6ac1-4451-896d-9d27077a44e3"},"vehicle_type_id":"4","last_reported":1728601719,"current_range_meters":31200,"station_id":"ce4bhgh2rcd13ifvqfa0","pricing_plan_id":"cebpf4jnsgd1na2vs0mg"},{"bike_id":"aa75c41c-1391-4d5a-b0ad-fb29c317877d","system_id":"levelo_inurba_marseille","lat":43.23072,"lon":5.35497,"is_reserved":false,"is_disabled":false,"rental_uris":{"android":"levelo://app?vid=aa75c41c-1391-4d5a-b0ad-fb29c317877d","ios":"levelo://app?vid=aa75c41c-1391-4d5a-b0ad-fb29c317877d"},"vehicle_type_id":"4","last_reported":1728601719,"current_range_meters":9200,"station_id":"cpo3342slgdg3j2ifvpg","pricing_plan_id":"cebpf4jnsgd1na2vs0mg"},{"bike_id":"773b10cd-4140-4e1a-af4b-72bc0c858471","system_id":"levelo_inurba_marseille","lat":43.31362,"lon":5.36717,"is_reserved":false,"is_disabled":false,"rental_uris":{"android":"levelo://app?vid=773b10cd-4140-4e1a-af4b-72bc0c858471","ios":"levelo://app?vid=773b10cd-4140-4e1a-af4b-72bc0c858471"},"vehicle_type_id":"4","last_reported":1728601719,"current_range_meters":38400,"station_id":"ce4bgr92rcd13ifvqc6g","pricing_plan_id":"cebpf4jnsgd1na2vs0mg"},{"bike_id":"9bffe474-7f50-4076-86d6-41980efe519d","system_id":"levelo_inurba_marseille","lat":43.292834,"lon":5.401158,"is_reserved":false,"is_disabled":false,"rental_uris":{"android":"levelo://app?vid=9bffe474-7f50-4076-86d6-41980efe519d","ios":"levelo://app?vid=9bffe474-7f50-4076-86d6-41980efe519d"},"vehicle_type_id":"4","last_reported":1728601719,"current_range_meters":38800,"station_id":"ce4bh312rcd13ifvqdk0","pricing_plan_id":"cebpf4jnsgd1na2vs0mg"},{"bike_id":"8db117d4-2b61-4d71-8f89-5a2e951e71cb","system_id":"levelo_inurba_marseille","lat":43.26815,"lon":5.40268,"is_reserved":false,"is_disabled":false,"rental_uris":{"android":"levelo://app?vid=8db117d4-2b61-4d71-8f89-5a2e951e71cb","ios":"levelo://app?vid=8db117d4-2b61-4d71-8f89-5a2e951e71cb"},"vehicle_type_id":"4","last_reported":1728601719,"current_range_meters":6400,"station_id":"ce501612rcd8frsf0b60","pricing_plan_id":"cebpf4jnsgd1na2vs0mg"},{"bike_id":"7038b20e-eb7d-4386-9e9f-6324751d4789","system_id":"levelo_inurba_marseille","lat":43.2808,"lon":5.39263,"is_reserved":false,"is_disabled":false,"rental_uris":{"android":"levelo://app?vid=7038b20e-eb7d-4386-9e9f-6324751d4789","ios":"levelo://app?vid=7038b20e-eb7d-4386-9e9f-6324751d4789"},"vehicle_type_id":"4","last_reported":1728601719,"current_range_meters":14800,"station_id":"","pricing_plan_id":"cebpf4jnsgd1na2vs0mg"},{"bike_id":"75f1fd93-3fd8-468d-8eee-6eb32bebf085","system_id":"levelo_inurba_marseille","lat":43.2845,"lon":5.39188,"is_reserved":false,"is_disabled":false,"rental_uris":{"android":"levelo://app?vid=75f1fd93-3fd8-468d-8eee-6eb32bebf085","ios":"levelo://app?vid=75f1fd93-3fd8-468d-8eee-6eb32bebf085"},"vehicle_type_id":"4","last_reported":1728601719,"current_range_meters":37600,"station_id":"ce4bhoh2rcd13ifvqh5g","pricing_plan_id":"cebpf4jnsgd1na2vs0mg"},{"bike_id":"f724ee69-c9ae-4fb6-bfa9-7e350f159353","system_id":"levelo_inurba_marseille","lat":43.31185,"lon":5.38706,"is_reserved":false,"is_disabled":false,"rental_uris":{"android":"levelo://app?vid=f724ee69-c9ae-4fb6-bfa9-7e350f159353","ios":"levelo://app?vid=f724ee69-c9ae-4fb6-bfa9-7e350f159353"},"vehicle_type_id":"4","last_reported":1728601719,"current_range_meters":36800,"station_id":"ce4bgv12rcd13ifvqcp0","pricing_plan_id":"cebpf4jnsgd1na2vs0mg"},{"bike_id":"d9849edc-abaa-432a-a1f1-9573c2211b86","system_id":"levelo_inurba_marseille","lat":43.28844,"lon":5.35848,"is_reserved":false,"is_disabled":false,"rental_uris":{"android":"levelo://app?vid=d9849edc-abaa-432a-a1f1-9573c2211b86","ios":"levelo://app?vid=d9849edc-abaa-432a-a1f1-9573c2211b86"},"vehicle_type_id":"4","last_reported":1728601719,"current_range_meters":32000,"station_id":"ce4bhb12rcd13ifvqem0","pricing_plan_id":"cebpf4jnsgd1na2vs0mg"},{"bike_id":"d4e7c199-5b07-4cc4-b4e1-e0fc91d98728","system_id":"levelo_inurba_marseille","lat":43.25582,"lon":5.38236,"is_reserved":false,"is_disabled":false,"rental_uris":{"android":"levelo://app?vid=d4e7c199-5b07-4cc4-b4e1-e0fc91d98728","ios":"levelo://app?vid=d4e7c199-5b07-4cc4-b4e1-e0fc91d98728"},"vehicle_type_id":"4","last_reported":1728601719,"current_range_meters":38800,"station_id":"ce4bhih2rcd13ifvqfs0","pricing_plan_id":"cebpf4jnsgd1na2vs0mg"},{"bike_id":"b1009450-6152-462c-a724-90df51eeb6db","system_id":"levelo_inurba_marseille","lat":43.32382,"lon":5.38917,"is_reserved":false,"is_disabled":false,"rental_uris":{"android":"levelo://app?vid=b1009450-6152-462c-a724-90df51eeb6db","ios":"levelo://app?vid=b1009450-6152-462c-a724-90df51eeb6db"},"vehicle_type_id":"4","last_reported":1728601719,"current_range_meters":8400,"station_id":"ce4bhqp2rcd13ifvqhog","pricing_plan_id":"cebpf4jnsgd1na2vs0mg"},{"bike_id":"2e20d9de-f8bc-4878-a304-f91123c94a74","system_id":"levelo_inurba_marseille","lat":43.29275,"lon":5.40131,"is_reserved":false,"is_disabled":false,"rental_uris":{"android":"levelo://app?vid=2e20d9de-f8bc-4878-a304-f91123c94a74","ios":"levelo://app?vid=2e20d9de-f8bc-4878-a304-f91123c94a74"},"vehicle_type_id":"4","last_reported":1728601719,"current_range_meters":38800,"station_id":"ce4bh312rcd13ifvqdk0","pricing_plan_id":"cebpf4jnsgd1na2vs0mg"},{"bike_id":"35764583-4bcb-42c3-9ac1-a3b8e46dd00d","system_id":"levelo_inurba_marseille","lat":43.32489,"lon":5.36561,"is_reserved":false,"is_disabled":false,"rental_uris":{"android":"levelo://app?vid=35764583-4bcb-42c3-9ac1-a3b8e46dd00d","ios":"levelo://app?vid=35764583-4bcb-42c3-9ac1-a3b8e46dd00d"},"vehicle_type_id":"4","last_reported":1728601719,"current_range_meters":38400,"station_id":"ce4bhs12rcd13ifvqhvg","pricing_plan_id":"cebpf4jnsgd1na2vs0mg"},{"bike_id":"8b33127d-be11-4560-94f4-60a066465758","system_id":"levelo_inurba_marseille","lat":43.29233,"lon":5.36075,"is_reserved":false,"is_disabled":false,"rental_uris":{"android":"levelo://app?vid=8b33127d-be11-4560-94f4-60a066465758","ios":"levelo://app?vid=8b33127d-be11-4560-94f4-60a066465758"},"vehicle_type_id":"4","last_reported":1728601719,"current_range_meters":7200,"station_id":"ce4bhbh2rcd13ifvqeqg","pricing_plan_id":"cebpf4jnsgd1na2vs0mg"},{"bike_id":"d49254ea-353c-454e-8e6a-d7c994c807f1","system_id":"levelo_inurba_marseille","lat":43.308945,"lon":5.39661,"is_reserved":false,"is_disabled":false,"rental_uris":{"android":"levelo://app?vid=d49254ea-353c-454e-8e6a-d7c994c807f1","ios":"levelo://app?vid=d49254ea-353c-454e-8e6a-d7c994c807f1"},"vehicle_type_id":"4","last_reported":1728601719,"current_range_meters":20400,"station_id":"ce4bh012rcd13ifvqcv0","pricing_plan_id":"cebpf4jnsgd1na2vs0mg"},{"bike_id":"c4b93dc9-7c4f-495a-b230-86ef5f878385","system_id":"levelo_inurba_marseille","lat":43.31267,"lon":5.40167,"is_reserved":false,"is_disabled":false,"rental_uris":{"android":"levelo://app?vid=c4b93dc9-7c4f-495a-b230-86ef5f878385","ios":"levelo://app?vid=c4b93dc9-7c4f-495a-b230-86ef5f878385"},"vehicle_type_id":"4","last_reported":1728601719,"current_range_meters":29600,"station_id":"ce4bh092rcd13ifvqd30","pricing_plan_id":"cebpf4jnsgd1na2vs0mg"},{"bike_id":"552e6d41-358a-4502-944b-7d3a2dc8250a","system_id":"levelo_inurba_marseille","lat":43.29963,"lon":5.41322,"is_reserved":false,"is_disabled":false,"rental_uris":{"android":"levelo://app?vid=552e6d41-358a-4502-944b-7d3a2dc8250a","ios":"levelo://app?vid=552e6d41-358a-4502-944b-7d3a2dc8250a"},"vehicle_type_id":"4","last_reported":1728601719,"current_range_meters":39200,"station_id":"ce4bhp12rcd13ifvqh9g","pricing_plan_id":"cebpf4jnsgd1na2vs0mg"},{"bike_id":"16ccf459-9655-4854-99c8-44fccb1e721b","system_id":"levelo_inurba_marseille","lat":43.29807,"lon":5.40415,"is_reserved":false,"is_disabled":false,"rental_uris":{"android":"levelo://app?vid=16ccf459-9655-4854-99c8-44fccb1e721b","ios":"levelo://app?vid=16ccf459-9655-4854-99c8-44fccb1e721b"},"vehicle_type_id":"4","last_reported":1728601719,"current_range_meters":8800,"station_id":"ce4bh112rcd13ifvqd90","pricing_plan_id":"cebpf4jnsgd1na2vs0mg"},{"bike_id":"3a118c4b-fd62-476e-8485-ac2c33d4f61c","system_id":"levelo_inurba_marseille","lat":43.27508,"lon":5.42455,"is_reserved":false,"is_disabled":false,"rental_uris":{"android":"levelo://app?vid=3a118c4b-fd62-476e-8485-ac2c33d4f61c","ios":"levelo://app?vid=3a118c4b-fd62-476e-8485-ac2c33d4f61c"},"vehicle_type_id":"4","last_reported":1728601719,"current_range_meters":38800,"station_id":"ce4bhn92rcd13ifvqgrg","pricing_plan_id":"cebpf4jnsgd1na2vs0mg"},{"bike_id":"02265d8d-ac42-4ee2-b3ab-098413c7ef66","system_id":"levelo_inurba_marseille","lat":43.26034,"lon":5.37547,"is_reserved":false,"is_disabled":false,"rental_uris":{"android":"levelo://app?vid=02265d8d-ac42-4ee2-b3ab-098413c7ef66","ios":"levelo://app?vid=02265d8d-ac42-4ee2-b3ab-098413c7ef66"},"vehicle_type_id":"4","last_reported":1728601719,"current_range_meters":33600,"station_id":"ce4bhgh2rcd13ifvqfa0","pricing_plan_id":"cebpf4jnsgd1na2vs0mg"},{"bike_id":"99d456c5-aec6-4000-bda5-792b44ea839a","system_id":"levelo_inurba_marseille","lat":43.30426,"lon":5.39748,"is_reserved":false,"is_disabled":false,"rental_uris":{"android":"levelo://app?vid=99d456c5-aec6-4000-bda5-792b44ea839a","ios":"levelo://app?vid=99d456c5-aec6-4000-bda5-792b44ea839a"},"vehicle_type_id":"4","last_reported":1728601719,"current_range_meters":14800,"station_id":"ce4bh092rcd13ifvqd20","pricing_plan_id":"cebpf4jnsgd1na2vs0mg"},{"bike_id":"98d440d7-0192-4e28-8164-89b1fdbe2d4a","system_id":"levelo_inurba_marseille","lat":43.28466,"lon":5.35882,"is_reserved":false,"is_disabled":false,"rental_uris":{"android":"levelo://app?vid=98d440d7-0192-4e28-8164-89b1fdbe2d4a","ios":"levelo://app?vid=98d440d7-0192-4e28-8164-89b1fdbe2d4a"},"vehicle_type_id":"4","last_reported":1728601719,"current_range_meters":10000,"station_id":"ce4bhah2rcd13ifvqei0","pricing_plan_id":"cebpf4jnsgd1na2vs0mg"},{"bike_id":"a1f9acd4-c2e4-45fc-b38b-0e0aceb1d442","system_id":"levelo_inurba_marseille","lat":43.24664,"lon":5.38157,"is_reserved":false,"is_disabled":false,"rental_uris":{"android":"levelo://app?vid=a1f9acd4-c2e4-45fc-b38b-0e0aceb1d442","ios":"levelo://app?vid=a1f9acd4-c2e4-45fc-b38b-0e0aceb1d442"},"vehicle_type_id":"4","last_reported":1728601719,"current_range_meters":11200,"station_id":"ce4bhih2rcd13ifvqfr0","pricing_plan_id":"cebpf4jnsgd1na2vs0mg"},{"bike_id":"2d5379ba-3c67-4f88-b689-eaa3bbafac79","system_id":"levelo_inurba_marseille","lat":43.293134,"lon":5.404609,"is_reserved":false,"is_disabled":false,"rental_uris":{"android":"levelo://app?vid=2d5379ba-3c67-4f88-b689-eaa3bbafac79","ios":"levelo://app?vid=2d5379ba-3c67-4f88-b689-eaa3bbafac79"},"vehicle_type_id":"4","last_reported":1728601719,"current_range_meters":24800,"station_id":"ce4bh192rcd13ifvqdc0","pricing_plan_id":"cebpf4jnsgd1na2vs0mg"},{"bike_id":"e9d45d41-8d9b-4901-9d24-e60aa079146b","system_id":"levelo_inurba_marseille","lat":43.284836,"lon":5.385737,"is_reserved":false,"is_disabled":false,"rental_uris":{"android":"levelo://app?vid=e9d45d41-8d9b-4901-9d24-e60aa079146b","ios":"levelo://app?vid=e9d45d41-8d9b-4901-9d24-e60aa079146b"},"vehicle_type_id":"4","last_reported":1728601719,"current_range_meters":28400,"station_id":"ce4bh8p2rcd13ifvqeb0","pricing_plan_id":"cebpf4jnsgd1na2vs0mg"},{"bike_id":"f3f44d1a-43c5-4b0c-a09e-5e1f2235b774","system_id":"levelo_inurba_marseille","lat":43.32291,"lon":5.38267,"is_reserved":false,"is_disabled":false,"rental_uris":{"android":"levelo://app?vid=f3f44d1a-43c5-4b0c-a09e-5e1f2235b774","ios":"levelo://app?vid=f3f44d1a-43c5-4b0c-a09e-5e1f2235b774"},"vehicle_type_id":"4","last_reported":1728601719,"current_range_meters":24800,"station_id":"ce4bhr12rcd13ifvqhqg","pricing_plan_id":"cebpf4jnsgd1na2vs0mg"},{"bike_id":"f067f1c2-4c2c-45a8-873d-45919df56b88","system_id":"levelo_inurba_marseille","lat":43.25585,"lon":5.38236,"is_reserved":false,"is_disabled":false,"rental_uris":{"android":"levelo://app?vid=f067f1c2-4c2c-45a8-873d-45919df56b88","ios":"levelo://app?vid=f067f1c2-4c2c-45a8-873d-45919df56b88"},"vehicle_type_id":"4","last_reported":1728601719,"current_range_meters":38800,"station_id":"ce4bhih2rcd13ifvqfs0","pricing_plan_id":"cebpf4jnsgd1na2vs0mg"},{"bike_id":"e4d69715-31b8-43a3-9208-69b751e15fcd","system_id":"levelo_inurba_marseille","lat":43.32371,"lon":5.38888,"is_reserved":false,"is_disabled":false,"rental_uris":{"android":"levelo://app?vid=e4d69715-31b8-43a3-9208-69b751e15fcd","ios":"levelo://app?vid=e4d69715-31b8-43a3-9208-69b751e15fcd"},"vehicle_type_id":"4","last_reported":1728601719,"current_range_meters":30800,"station_id":"ce4bhqp2rcd13ifvqhog","pricing_plan_id":"cebpf4jnsgd1na2vs0mg"},{"bike_id":"58c50962-ccd8-411a-b07d-930dbb207d5d","system_id":"levelo_inurba_marseille","lat":43.31893,"lon":5.40731,"is_reserved":false,"is_disabled":false,"rental_uris":{"android":"levelo://app?vid=58c50962-ccd8-411a-b07d-930dbb207d5d","ios":"levelo://app?vid=58c50962-ccd8-411a-b07d-930dbb207d5d"},"vehicle_type_id":"4","last_reported":1728601719,"current_range_meters":38800,"station_id":"ce4bhq12rcd13ifvqhig","pricing_plan_id":"cebpf4jnsgd1na2vs0mg"},{"bike_id":"51926afc-e06a-4cb1-baa7-c8b9a65e4d5c","system_id":"levelo_inurba_marseille","lat":43.30935,"lon":5.40145,"is_reserved":false,"is_disabled":false,"rental_uris":{"android":"levelo://app?vid=51926afc-e06a-4cb1-baa7-c8b9a65e4d5c","ios":"levelo://app?vid=51926afc-e06a-4cb1-baa7-c8b9a65e4d5c"},"vehicle_type_id":"4","last_reported":1728601719,"current_range_meters":24800,"station_id":"ce4bgvp2rcd13ifvqct0","pricing_plan_id":"cebpf4jnsgd1na2vs0mg"},{"bike_id":"eabaafd4-ab60-47f8-89ce-ef0e72c20579","system_id":"levelo_inurba_marseille","lat":43.3372,"lon":5.39173,"is_reserved":false,"is_disabled":false,"rental_uris":{"android":"levelo://app?vid=eabaafd4-ab60-47f8-89ce-ef0e72c20579","ios":"levelo://app?vid=eabaafd4-ab60-47f8-89ce-ef0e72c20579"},"vehicle_type_id":"4","last_reported":1728601719,"current_range_meters":39200,"station_id":"ce4bhr92rcd13ifvqhsg","pricing_plan_id":"cebpf4jnsgd1na2vs0mg"},{"bike_id":"5211300e-8cc7-4ce3-90b9-f9f7a4a80867","system_id":"levelo_inurba_marseille","lat":43.23969,"lon":5.36617,"is_reserved":false,"is_disabled":false,"rental_uris":{"android":"levelo://app?vid=5211300e-8cc7-4ce3-90b9-f9f7a4a80867","ios":"levelo://app?vid=5211300e-8cc7-4ce3-90b9-f9f7a4a80867"},"vehicle_type_id":"4","last_reported":1728601719,"current_range_meters":17200,"station_id":"ce4bhi12rcd13ifvqfp0","pricing_plan_id":"cebpf4jnsgd1na2vs0mg"},{"bike_id":"ce04f614-a320-42df-8776-6146f8ec634d","system_id":"levelo_inurba_marseille","lat":43.25578,"lon":5.38239,"is_reserved":false,"is_disabled":false,"rental_uris":{"android":"levelo://app?vid=ce04f614-a320-42df-8776-6146f8ec634d","ios":"levelo://app?vid=ce04f614-a320-42df-8776-6146f8ec634d"},"vehicle_type_id":"4","last_reported":1728601719,"current_range_meters":38800,"station_id":"ce4bhih2rcd13ifvqfs0","pricing_plan_id":"cebpf4jnsgd1na2vs0mg"},{"bike_id":"74160863-6c65-40aa-a2c1-2eaf996bfeb1","system_id":"levelo_inurba_marseille","lat":43.28104,"lon":5.37838,"is_reserved":false,"is_disabled":false,"rental_uris":{"android":"levelo://app?vid=74160863-6c65-40aa-a2c1-2eaf996bfeb1","ios":"levelo://app?vid=74160863-6c65-40aa-a2c1-2eaf996bfeb1"},"vehicle_type_id":"4","last_reported":1728601719,"current_range_meters":38800,"station_id":"ce4bha12rcd13ifvqee0","pricing_plan_id":"cebpf4jnsgd1na2vs0mg"},{"bike_id":"c4b5e822-6b2a-4bed-ad43-1e3a2cfb57b6","system_id":"levelo_inurba_marseille","lat":43.30798,"lon":5.38156,"is_reserved":false,"is_disabled":false,"rental_uris":{"android":"levelo://app?vid=c4b5e822-6b2a-4bed-ad43-1e3a2cfb57b6","ios":"levelo://app?vid=c4b5e822-6b2a-4bed-ad43-1e3a2cfb57b6"},"vehicle_type_id":"4","last_reported":1728601719,"current_range_meters":29600,"station_id":"ce4bgt12rcd13ifvqce0","pricing_plan_id":"cebpf4jnsgd1na2vs0mg"},{"bike_id":"53dd2649-60a4-481a-a8ea-1f024b196446","system_id":"levelo_inurba_marseille","lat":43.24649,"lon":5.38898,"is_reserved":false,"is_disabled":false,"rental_uris":{"android":"levelo://app?vid=53dd2649-60a4-481a-a8ea-1f024b196446","ios":"levelo://app?vid=53dd2649-60a4-481a-a8ea-1f024b196446"},"vehicle_type_id":"4","last_reported":1728601719,"current_range_meters":36800,"station_id":"ce4bhg12rcd13ifvqf60","pricing_plan_id":"cebpf4jnsgd1na2vs0mg"},{"bike_id":"bc884902-5e2f-4b49-a18a-7812b4ee1657","system_id":"levelo_inurba_marseille","lat":43.28932,"lon":5.36377,"is_reserved":false,"is_disabled":false,"rental_uris":{"android":"levelo://app?vid=bc884902-5e2f-4b49-a18a-7812b4ee1657","ios":"levelo://app?vid=bc884902-5e2f-4b49-a18a-7812b4ee1657"},"vehicle_type_id":"4","last_reported":1728601719,"current_range_meters":11200,"station_id":"ce4bhc92rcd13ifvqetg","pricing_plan_id":"cebpf4jnsgd1na2vs0mg"},{"bike_id":"ba65d4d0-572a-4bfd-a29e-aebb999d2213","system_id":"levelo_inurba_marseille","lat":43.30645,"lon":5.40074,"is_reserved":false,"is_disabled":false,"rental_uris":{"android":"levelo://app?vid=ba65d4d0-572a-4bfd-a29e-aebb999d2213","ios":"levelo://app?vid=ba65d4d0-572a-4bfd-a29e-aebb999d2213"},"vehicle_type_id":"4","last_reported":1728601719,"current_range_meters":38400,"station_id":"ce4bh112rcd13ifvqda0","pricing_plan_id":"cebpf4jnsgd1na2vs0mg"},{"bike_id":"23cfd406-e208-402f-9475-9e4ba8d61749","system_id":"levelo_inurba_marseille","lat":43.33026,"lon":5.39041,"is_reserved":false,"is_disabled":false,"rental_uris":{"android":"levelo://app?vid=23cfd406-e208-402f-9475-9e4ba8d61749","ios":"levelo://app?vid=23cfd406-e208-402f-9475-9e4ba8d61749"},"vehicle_type_id":"4","last_reported":1728601719,"current_range_meters":38400,"station_id":"ce4bhr92rcd13ifvqhrg","pricing_plan_id":"cebpf4jnsgd1na2vs0mg"},{"bike_id":"fcfc6d63-8e7e-48bf-ab16-5fb59f961307","system_id":"levelo_inurba_marseille","lat":43.30893,"lon":5.37187,"is_reserved":false,"is_disabled":false,"rental_uris":{"android":"levelo://app?vid=fcfc6d63-8e7e-48bf-ab16-5fb59f961307","ios":"levelo://app?vid=fcfc6d63-8e7e-48bf-ab16-5fb59f961307"},"vehicle_type_id":"4","last_reported":1728601719,"current_range_meters":40000,"station_id":"ce4bguh2rcd13ifvqckg","pricing_plan_id":"cebpf4jnsgd1na2vs0mg"},{"bike_id":"e1aee667-c9cf-4ef1-995d-bba31346bf22","system_id":"levelo_inurba_marseille","lat":43.28156,"lon":5.42639,"is_reserved":false,"is_disabled":false,"rental_uris":{"android":"levelo://app?vid=e1aee667-c9cf-4ef1-995d-bba31346bf22","ios":"levelo://app?vid=e1aee667-c9cf-4ef1-995d-bba31346bf22"},