{"last_updated":1758128892,"ttl":60,"version":"2.2","data":{"bikes":[{"bike_id":"d765e876-dc94-417e-ad8c-0ac49bf5261a","system_id":"levelo_inurba_marseille","lat":43.3343,"lon":5.36382,"is_reserved":false,"is_disabled":false,"rental_uris":{"android":"levelo://app?vid=d765e876-dc94-417e-ad8c-0ac49bf5261a","ios":"levelo://app?vid=d765e876-dc94-417e-ad8c-0ac49bf5261a"},"vehicle_type_id":"4","last_reported":1758128892,"current_range_meters":2800,"station_id":"","pricing_plan_id":"cebpf4jnsgd1na2vs0mg"},{"bike_id":"7469aa5f-110f-4eb3-9be8-d9ac102970e7","system_id":"levelo_inurba_marseille","lat":43.30129,"lon":5.39861,"is_reserved":false,"is_disabled":false,"rental_uris":{"android":"levelo://app?vid=7469aa5f-110f-4eb3-9be8-d9ac102970e7","ios":"levelo://app?vid=7469aa5f-110f-4eb3-9be8-d9ac102970e7"},"vehicle_type_id":"4","last_reported":1758128892,"current_range_meters":2800,"station_id":"ce4bh0h2rcd13ifvqd40","pricing_plan_id":"cebpf4jnsgd1na2vs0mg"},{"bike_id":"60e75dee-742a-419e-bdc5-a3bb2cee5a7f","system_id":"levelo_inurba_marseille","lat":43.30134,"lon":5.38772,"is_reserved":false,"is_disabled":false,"rental_uris":{"android":"levelo://app?vid=60e75dee-742a-419e-bdc5-a3bb2cee5a7f","ios":"levelo://app?vid=60e75dee-742a-419e-bdc5-a3bb2cee5a7f"},"vehicle_type_id":"4","last_reported":1758128892,"current_range_meters":2000,"station_id":"ce4bghh2rcd13ifvqb60","pricing_plan_id":"cebpf4jnsgd1na2vs0mg"},{"bike_id":"64b1deee-ef02-45e9-a66a-3e5e20b8d612","system_id":"levelo_inurba_marseille","lat":43.337444,"lon":5.374475,"is_reserved":false,"is_disabled":false,"rental_uris":{"android":"levelo://app?vid=64b1deee-ef02-45e9-a66a-3e5e20b8d612","ios":"levelo://app?vid=64b1deee-ef02-45e9-a66a-3e5e20b8d612"},"vehicle_type_id":"4","last_reported":1758128892,"current_range_meters":2800,"station_id":"","pricing_plan_id":"cebpf4jnsgd1na2vs0mg"},{"bike_id":"a3bd2c9e-94f8-4901-b0e7-8396d78dd1d2","system_id":"levelo_inurba_marseille","lat":43.28718,"lon":5.37947,"is_reserved":false,"is_disabled":false,"rental_uris":{"android":"levelo://app?vid=a3bd2c9e-94f8-4901-b0e7-8396d78dd1d2","ios":"levelo://app?vid=a3bd2c9e-94f8-4901-b0e7-8396d78dd1d2"},"vehicle_type_id":"4","last_reported":1758128892,"current_range_meters":2800,"station_id":"ce4bh9p2rcd13ifvqec0","pricing_plan_id":"cebpf4jnsgd1na2vs0mg"},{"bike_id":"c0d0139e-f41c-4610-b39d-477ee152f2ab","system_id":"levelo_inurba_marseille","lat":43.284895,"lon":5.384123,"is_reserved":false,"is_disabled":false,"rental_uris":{"android":"levelo://app?vid=c0d0139e-f41c-4610-b39d-477ee152f2ab","ios":"levelo://app?vid=c0d0139e-f41c-4610-b39d-477ee152f2ab"},"vehicle_type_id":"4","last_reported":1758128892,"current_range_meters":2800,"station_id":"ce4bh512rcd13ifvqe3g","pricing_plan_id":"cebpf4jnsgd1na2vs0mg"},{"bike_id":"50dfbe12-d195-4389-bb20-891cdf6cd9cc","system_id":"levelo_inurba_marseille","lat":43.2815,"lon":5.42648,"is_reserved":false,"is_disabled":false,"rental_uris":{"android":"levelo://app?vid=50dfbe12-d195-4389-bb20-891cdf6cd9cc","ios":"levelo://app?vid=50dfbe12-d195-4389-bb20-891cdf6cd9cc"},"vehicle_type_id":"4","last_reported":1758128892,"current_range_meters":2800,"station_id":"ce4bhnh2rcd13ifvqgug","pricing_plan_id":"cebpf4jnsgd1na2vs0mg"},{"bike_id":"25a597d1-f455-4883-9994-31a9c6f4e56c","system_id":"levelo_inurba_marseille","lat":43.305402,"lon":5.365487,"is_reserved":false,"is_disabled":false,"rental_uris":{"android":"levelo://app?vid=25a597d1-f455-4883-9994-31a9c6f4e56c","ios":"levelo://app?vid=25a597d1-f455-4883-9994-31a9c6f4e56c"},"vehicle_type_id":"4","last_reported":1758128892,"current_range_meters":2800,"station_id":"ce4bgs12rcd13ifvqcag","pricing_plan_id":"cebpf4jnsgd1na2vs0mg"},{"bike_id":"67fc29e3-79fe-4e55-b92c-27b0d9fdd0de","system_id":"levelo_inurba_marseille","lat":43.286989,"lon":5.373802,"is_reserved":false,"is_disabled":false,"rental_uris":{"android":"levelo://app?vid=67fc29e3-79fe-4e55-b92c-27b0d9fdd0de","ios":"levelo://app?vid=67fc29e3-79fe-4e55-b92c-27b0d9fdd0de"},"vehicle_type_id":"4","last_reported":1758128892,"current_range_meters":2800,"station_id":"ce4bh3p2rcd13ifvqdq0","pricing_plan_id":"cebpf4jnsgd1na2vs0mg"},{"bike_id":"6919cbe2-78f2-4269-8e7f-6523c21c27d2","system_id":"levelo_inurba_marseille","lat":43.25407,"lon":5.40182,"is_reserved":false,"is_disabled":false,"rental_uris":{"android":"levelo://app?vid=6919cbe2-78f2-4269-8e7f-6523c21c27d2","ios":"levelo://app?vid=6919cbe2-78f2-4269-8e7f-6523c21c27d2"},"vehicle_type_id":"4","last_reported":1758128892,"current_range_meters":3200,"station_id":"","pricing_plan_id":"cebpf4jnsgd1na2vs0mg"},{"bike_id":"322c1f5a-85db-4ef6-bcd4-1b5c417c8ee0","system_id":"levelo_inurba_marseille","lat":43.3377,"lon":5.37488,"is_reserved":false,"is_disabled":false,"rental_uris":{"android":"levelo://app?vid=322c1f5a-85db-4ef6-bcd4-1b5c417c8ee0","ios":"levelo://app?vid=322c1f5a-85db-4ef6-bcd4-1b5c417c8ee0"},"vehicle_type_id":"4","last_reported":1758128892,"current_range_meters":3200,"station_id":"","pricing_plan_id":"cebpf4jnsgd1na2vs0mg"},{"bike_id":"a288ee11-20da-4354-b5b0-83a3653d6a00","system_id":"levelo_inurba_marseille","lat":43.22488,"lon":5.34802,"is_reserved":false,"is_disabled":false,"rental_uris":{"android":"levelo://app?vid=a288ee11-20da-4354-b5b0-83a3653d6a00","ios":"levelo://app?vid=a288ee11-20da-4354-b5b0-83a3653d6a00"},"vehicle_type_id":"4","last_reported":1758128892,"current_range_meters":3200,"station_id":"","pricing_plan_id":"cebpf4jnsgd1na2vs0mg"},{"bike_id":"bf1f0dd3-5093-434c-b641-1612bc54d8d4","system_id":"levelo_inurba_marseille","lat":43.24698,"lon":5.3997,"is_reserved":false,"is_disabled":false,"rental_uris":{"android":"levelo://app?vid=bf1f0dd3-5093-434c-b641-1612bc54d8d4","ios":"levelo://app?vid=bf1f0dd3-5093-434c-b641-1612bc54d8d4"},"vehicle_type_id":"4","last_reported":1758128892,"current_range_meters":3200,"station_id":"","pricing_plan_id":"cebpf4jnsgd1na2vs0mg"},{"bike_id":"44378e64-46d6-4354-a0d2-fa25aee2be78","system_id":"levelo_inurba_marseille","lat":43.30301,"lon":5.39208,"is_reserved":false,"is_disabled":false,"rental_uris":{"android":"levelo://app?vid=44378e64-46d6-4354-a0d2-fa25aee2be78","ios":"levelo://app?vid=44378e64-46d6-4354-a0d2-fa25aee2be78"},"vehicle_type_id":"4","last_reported":1758128892,"current_range_meters":3200,"station_id":"ce4bgkh2rcd13ifvqbk0","pricing_plan_id":"cebpf4jnsgd1na2vs0mg"},{"bike_id":"979ff122-7c9e-4b0a-b11f-87ce9ea6569b","system_id":"levelo_inurba_marseille","lat":43.31674,"lon":5.39926,"is_reserved":false,"is_disabled":false,"rental_uris":{"android":"levelo://app?vid=979ff122-7c9e-4b0a-b11f-87ce9ea6569b","ios":"levelo://app?vid=979ff122-7c9e-4b0a-b11f-87ce9ea6569b"},"vehicle_type_id":"4","last_reported":1758128892,"current_range_meters":3600,"station_id":"","pricing_plan_id":"cebpf4jnsgd1na2vs0mg"},{"bike_id":"87f87ccc-30dc-4255-be21-294e3b7d1874","system_id":"levelo_inurba_marseille","lat":43.23191,"lon":5.35556,"is_reserved":false,"is_disabled":false,"rental_uris":{"android":"levelo://app?vid=87f87ccc-30dc-4255-be21-294e3b7d1874","ios":"levelo://app?vid=87f87ccc-30dc-4255-be21-294e3b7d1874"},"vehicle_type_id":"4","last_reported":1758128892,"current_range_meters":3600,"station_id":"ce4bhu92rcd13ifvqi70","pricing_plan_id":"cebpf4jnsgd1na2vs0mg"},{"bike_id":"c3ad4594-4e4a-42f9-93e2-c25c45a735b2","system_id":"levelo_inurba_marseille","lat":43.28871,"lon":5.42528,"is_reserved":false,"is_disabled":false,"rental_uris":{"android":"levelo://app?vid=c3ad4594-4e4a-42f9-93e2-c25c45a735b2","ios":"levelo://app?vid=c3ad4594-4e4a-42f9-93e2-c25c45a735b2"},"vehicle_type_id":"4","last_reported":1758128892,"current_range_meters":4000,"station_id":"","pricing_plan_id":"cebpf4jnsgd1na2vs0mg"},{"bike_id":"75eced0d-a85a-4012-8820-69561a75d839","system_id":"levelo_inurba_marseille","lat":43.29589,"lon":5.38107,"is_reserved":false,"is_disabled":false,"rental_uris":{"android":"levelo://app?vid=75eced0d-a85a-4012-8820-69561a75d839","ios":"levelo://app?vid=75eced0d-a85a-4012-8820-69561a75d839"},"vehicle_type_id":"4","last_reported":1758128892,"current_range_meters":4000,"station_id":"ce4bgl12rcd13ifvqbo0","pricing_plan_id":"cebpf4jnsgd1na2vs0mg"},{"bike_id":"c07e7a2d-d8a6-4efd-8723-e965be4d1a74","system_id":"levelo_inurba_marseille","lat":43.22533,"lon":5.348367,"is_reserved":false,"is_disabled":false,"rental_uris":{"android":"levelo://app?vid=c07e7a2d-d8a6-4efd-8723-e965be4d1a74","ios":"levelo://app?vid=c07e7a2d-d8a6-4efd-8723-e965be4d1a74"},"vehicle_type_id":"4","last_reported":1758128892,"current_range_meters":4400,"station_id":"","pricing_plan_id":"cebpf4jnsgd1na2vs0mg"},{"bike_id":"dfe14273-e20a-403d-8767-9911a3d2a2ab","system_id":"levelo_inurba_marseille","lat":43.29591,"lon":5.38109,"is_reserved":false,"is_disabled":false,"rental_uris":{"android":"levelo://app?vid=dfe14273-e20a-403d-8767-9911a3d2a2ab","ios":"levelo://app?vid=dfe14273-e20a-403d-8767-9911a3d2a2ab"},"vehicle_type_id":"4","last_reported":1758128892,"current_range_meters":4800,"station_id":"ce4bgl12rcd13ifvqbo0","pricing_plan_id":"cebpf4jnsgd1na2vs0mg"},{"bike_id":"cd02c080-8936-4e2b-af4d-301cbe8eb8f1","system_id":"levelo_inurba_marseille","lat":43.30041,"lon":5.40392,"is_reserved":false,"is_disabled":false,"rental_uris":{"android":"levelo://app?vid=cd02c080-8936-4e2b-af4d-301cbe8eb8f1","ios":"levelo://app?vid=cd02c080-8936-4e2b-af4d-301cbe8eb8f1"},"vehicle_type_id":"4","last_reported":1758128892,"current_range_meters":5600,"station_id":"","pricing_plan_id":"cebpf4jnsgd1na2vs0mg"},{"bike_id":"cea0d46f-6f79-4509-9d0a-23184d8649c7","system_id":"levelo_inurba_marseille","lat":43.30785,"lon":5.37641,"is_reserved":false,"is_disabled":false,"rental_uris":{"android":"levelo://app?vid=cea0d46f-6f79-4509-9d0a-23184d8649c7","ios":"levelo://app?vid=cea0d46f-6f79-4509-9d0a-23184d8649c7"},"vehicle_type_id":"4","last_reported":1758128892,"current_range_meters":6000,"station_id":"ce4bgv92rcd13ifvqcq0","pricing_plan_id":"cebpf4jnsgd1na2vs0mg"},{"bike_id":"51f8d98a-b8fd-4173-bc33-ecafcf1364e7","system_id":"levelo_inurba_marseille","lat":43.30131,"lon":5.38789,"is_reserved":false,"is_disabled":false,"rental_uris":{"android":"levelo://app?vid=51f8d98a-b8fd-4173-bc33-ecafcf1364e7","ios":"levelo://app?vid=51f8d98a-b8fd-4173-bc33-ecafcf1364e7"},"vehicle_type_id":"4","last_reported":1758128892,"current_range_meters":6000,"station_id":"ce4bghh2rcd13ifvqb60","pricing_plan_id":"cebpf4jnsgd1na2vs0mg"},{"bike_id":"dd280a46-37dc-4f6f-ba8a-1dfabad8999c","system_id":"levelo_inurba_marseille","lat":43.269546,"lon":5.402718,"is_reserved":false,"is_disabled":false,"rental_uris":{"android":"levelo://app?vid=dd280a46-37dc-4f6f-ba8a-1dfabad8999c","ios":"levelo://app?vid=dd280a46-37dc-4f6f-ba8a-1dfabad8999c"},"vehicle_type_id":"4","last_reported":1758128892,"current_range_meters":6400,"station_id":"cjm6bp8fraef2m0cb0m0","pricing_plan_id":"cebpf4jnsgd1na2vs0mg"},{"bike_id":"283aa11e-80d6-4a05-9dbd-29b87f0e36ec","system_id":"levelo_inurba_marseille","lat":43.2978,"lon":5.37107,"is_reserved":false,"is_disabled":false,"rental_uris":{"android":"levelo://app?vid=283aa11e-80d6-4a05-9dbd-29b87f0e36ec","ios":"levelo://app?vid=283aa11e-80d6-4a05-9dbd-29b87f0e36ec"},"vehicle_type_id":"4","last_reported":1758128892,"current_range_meters":6400,"station_id":"ce4bgop2rcd13ifvqc1g","pricing_plan_id":"cebpf4jnsgd1na2vs0mg"},{"bike_id":"32ca9d94-8781-4edc-b80f-cdc9cf1fb9fc","system_id":"levelo_inurba_marseille","lat":43.21761,"lon":5.34609,"is_reserved":false,"is_disabled":true,"rental_uris":{"android":"levelo://app?vid=32ca9d94-8781-4edc-b80f-cdc9cf1fb9fc","ios":"levelo://app?vid=32ca9d94-8781-4edc-b80f-cdc9cf1fb9fc"},"vehicle_type_id":"4","last_reported":1758128892,"current_range_meters":6400,"station_id":"","pricing_plan_id":"cebpf4jnsgd1na2vs0mg"},{"bike_id":"ce7ad40d-636a-4193-a4e8-c45332bc9352","system_id":"levelo_inurba_marseille","lat":43.27369,"lon":5.36264,"is_reserved":false,"is_disabled":false,"rental_uris":{"android":"levelo://app?vid=ce7ad40d-636a-4193-a4e8-c45332bc9352","ios":"levelo://app?vid=ce7ad40d-636a-4193-a4e8-c45332bc9352"},"vehicle_type_id":"4","last_reported":1758128892,"current_range_meters":6800,"station_id":"ce4bhbh2rcd13ifvqeo0","pricing_plan_id":"cebpf4jnsgd1na2vs0mg"},{"bike_id":"349774f7-6829-41f5-8c5b-6075264534d5","system_id":"levelo_inurba_marseille","lat":43.25583,"lon":5.38234,"is_reserved":false,"is_disabled":false,"rental_uris":{"android":"levelo://app?vid=349774f7-6829-41f5-8c5b-6075264534d5","ios":"levelo://app?vid=349774f7-6829-41f5-8c5b-6075264534d5"},"vehicle_type_id":"4","last_reported":1758128892,"current_range_meters":6800,"station_id":"ce4bhih2rcd13ifvqfs0","pricing_plan_id":"cebpf4jnsgd1na2vs0mg"},{"bike_id":"4835b048-3691-4e2f-9327-5ef4cc07631c","system_id":"levelo_inurba_marseille","lat":43.299679,"lon":5.371972,"is_reserved":false,"is_disabled":false,"rental_uris":{"android":"levelo://app?vid=4835b048-3691-4e2f-9327-5ef4cc07631c","ios":"levelo://app?vid=4835b048-3691-4e2f-9327-5ef4cc07631c"},"vehicle_type_id":"4","last_reported":1758128892,"current_range_meters":7200,"station_id":"ce4bgr92rcd13ifvqc7g","pricing_plan_id":"cebpf4jnsgd1na2vs0mg"},{"bike_id":"a5b78340-360b-45dc-8bfc-f414f630d994","system_id":"levelo_inurba_marseille","lat":43.32324,"lon":5.40611,"is_reserved":false,"is_disabled":false,"rental_uris":{"android":"levelo://app?vid=a5b78340-360b-45dc-8bfc-f414f630d994","ios":"levelo://app?vid=a5b78340-360b-45dc-8bfc-f414f630d994"},"vehicle_type_id":"4","last_reported":1758128892,"current_range_meters":7200,"station_id":"ce4bhq92rcd13ifvqhjg","pricing_plan_id":"cebpf4jnsgd1na2vs0mg"},{"bike_id":"0a79133a-0a2d-4799-8b88-a7c7e677965b","system_id":"levelo_inurba_marseille","lat":43.23058,"lon":5.35491,"is_reserved":false,"is_disabled":false,"rental_uris":{"android":"levelo://app?vid=0a79133a-0a2d-4799-8b88-a7c7e677965b","ios":"levelo://app?vid=0a79133a-0a2d-4799-8b88-a7c7e677965b"},"vehicle_type_id":"4","last_reported":1758128892,"current_range_meters":6800,"station_id":"cpo3342slgdg3j2ifvpg","pricing_plan_id":"cebpf4jnsgd1na2vs0mg"},{"bike_id":"057f625a-e409-4612-8869-c322c8037c3b","system_id":"levelo_inurba_marseille","lat":43.2844,"lon":5.39202,"is_reserved":false,"is_disabled":false,"rental_uris":{"android":"levelo://app?vid=057f625a-e409-4612-8869-c322c8037c3b","ios":"levelo://app?vid=057f625a-e409-4612-8869-c322c8037c3b"},"vehicle_type_id":"4","last_reported":1758128892,"current_range_meters":7200,"station_id":"ce4bhoh2rcd13ifvqh5g","pricing_plan_id":"cebpf4jnsgd1na2vs0mg"},{"bike_id":"3abbbd48-1138-47cd-9e0e-15d27667dc99","system_id":"levelo_inurba_marseille","lat":43.2901,"lon":5.35524,"is_reserved":false,"is_disabled":false,"rental_uris":{"android":"levelo://app?vid=3abbbd48-1138-47cd-9e0e-15d27667dc99","ios":"levelo://app?vid=3abbbd48-1138-47cd-9e0e-15d27667dc99"},"vehicle_type_id":"4","last_reported":1758128892,"current_range_meters":7200,"station_id":"","pricing_plan_id":"cebpf4jnsgd1na2vs0mg"},{"bike_id":"13d4eea8-9844-42fe-8267-eaf155e127a2","system_id":"levelo_inurba_marseille","lat":43.29976,"lon":5.37186,"is_reserved":false,"is_disabled":true,"rental_uris":{"android":"levelo://app?vid=13d4eea8-9844-42fe-8267-eaf155e127a2","ios":"levelo://app?vid=13d4eea8-9844-42fe-8267-eaf155e127a2"},"vehicle_type_id":"4","last_reported":1758128892,"current_range_meters":7200,"station_id":"","pricing_plan_id":"cebpf4jnsgd1na2vs0mg"},{"bike_id":"3c8ef394-bb71-46e8-a718-9662dc1f3df8","system_id":"levelo_inurba_marseille","lat":43.287,"lon":5.39984,"is_reserved":false,"is_disabled":false,"rental_uris":{"android":"levelo://app?vid=3c8ef394-bb71-46e8-a718-9662dc1f3df8","ios":"levelo://app?vid=3c8ef394-bb71-46e8-a718-9662dc1f3df8"},"vehicle_type_id":"4","last_reported":1758128892,"current_range_meters":8000,"station_id":"ce4bho92rcd13ifvqh3g","pricing_plan_id":"cebpf4jnsgd1na2vs0mg"},{"bike_id":"76c66014-2102-4e91-b2e9-47eb4a0c7ede","system_id":"levelo_inurba_marseille","lat":43.29161,"lon":5.37162,"is_reserved":false,"is_disabled":false,"rental_uris":{"android":"levelo://app?vid=76c66014-2102-4e91-b2e9-47eb4a0c7ede","ios":"levelo://app?vid=76c66014-2102-4e91-b2e9-47eb4a0c7ede"},"vehicle_type_id":"4","last_reported":1758128892,"current_range_meters":8000,"station_id":"ce4bha92rcd13ifvqeh0","pricing_plan_id":"cebpf4jnsgd1na2vs0mg"},{"bike_id":"b5656981-4bc8-4abf-a8cf-34ced9047ead","system_id":"levelo_inurba_marseille","lat":43.284129,"lon":5.375043,"is_reserved":false,"is_disabled":false,"rental_uris":{"android":"levelo://app?vid=b5656981-4bc8-4abf-a8cf-34ced9047ead","ios":"levelo://app?vid=b5656981-4bc8-4abf-a8cf-34ced9047ead"},"vehicle_type_id":"4","last_reported":1758128892,"current_range_meters":8000,"station_id":"ce4bh412rcd13ifvqds0","pricing_plan_id":"cebpf4jnsgd1na2vs0mg"},{"bike_id":"21c994e6-90ef-4859-aa9e-7a75445ce832","system_id":"levelo_inurba_marseille","lat":43.2988,"lon":5.38911,"is_reserved":false,"is_disabled":false,"rental_uris":{"android":"levelo://app?vid=21c994e6-90ef-4859-aa9e-7a75445ce832","ios":"levelo://app?vid=21c994e6-90ef-4859-aa9e-7a75445ce832"},"vehicle_type_id":"4","last_reported":1758128892,"current_range_meters":8000,"station_id":"ce4bh392rcd13ifvqdl0","pricing_plan_id":"cebpf4jnsgd1na2vs0mg"},{"bike_id":"f895eb90-d970-4448-b096-5a166a903f92","system_id":"levelo_inurba_marseille","lat":43.26559,"lon":5.37295,"is_reserved":false,"is_disabled":true,"rental_uris":{"android":"levelo://app?vid=f895eb90-d970-4448-b096-5a166a903f92","ios":"levelo://app?vid=f895eb90-d970-4448-b096-5a166a903f92"},"vehicle_type_id":"4","last_reported":1758128892,"current_range_meters":8400,"station_id":"ce4bhg12rcd13ifvqf70","pricing_plan_id":"cebpf4jnsgd1na2vs0mg"},{"bike_id":"1b6a995d-34ac-45d5-9528-44d2f8bbd183","system_id":"levelo_inurba_marseille","lat":43.28518,"lon":5.35936,"is_reserved":false,"is_disabled":false,"rental_uris":{"android":"levelo://app?vid=1b6a995d-34ac-45d5-9528-44d2f8bbd183","ios":"levelo://app?vid=1b6a995d-34ac-45d5-9528-44d2f8bbd183"},"vehicle_type_id":"4","last_reported":1758128892,"current_range_meters":8400,"station_id":"","pricing_plan_id":"cebpf4jnsgd1na2vs0mg"},{"bike_id":"fedbb998-1c37-4c01-bd65-09ab65d40f0c","system_id":"levelo_inurba_marseille","lat":43.32328,"lon":5.40626,"is_reserved":false,"is_disabled":false,"rental_uris":{"android":"levelo://app?vid=fedbb998-1c37-4c01-bd65-09ab65d40f0c","ios":"levelo://app?vid=fedbb998-1c37-4c01-bd65-09ab65d40f0c"},"vehicle_type_id":"4","last_reported":1758128892,"current_range_meters":8400,"station_id":"ce4bhq92rcd13ifvqhjg","pricing_plan_id":"cebpf4jnsgd1na2vs0mg"},{"bike_id":"3b26aa0d-3679-4b4c-9b55-1096f6d08a9d","system_id":"levelo_inurba_marseille","lat":43.313,"lon":5.39398,"is_reserved":false,"is_disabled":false,"rental_uris":{"android":"levelo://app?vid=3b26aa0d-3679-4b4c-9b55-1096f6d08a9d","ios":"levelo://app?vid=3b26aa0d-3679-4b4c-9b55-1096f6d08a9d"},"vehicle_type_id":"4","last_reported":1758128892,"current_range_meters":8400,"station_id":"","pricing_plan_id":"cebpf4jnsgd1na2vs0mg"},{"bike_id":"9023d84f-8ef9-4749-9cb8-a2ef6b71e57a","system_id":"levelo_inurba_marseille","lat":43.27948,"lon":5.41052,"is_reserved":false,"is_disabled":true,"rental_uris":{"android":"levelo://app?vid=9023d84f-8ef9-4749-9cb8-a2ef6b71e57a","ios":"levelo://app?vid=9023d84f-8ef9-4749-9cb8-a2ef6b71e57a"},"vehicle_type_id":"4","last_reported":1758128892,"current_range_meters":8400,"station_id":"ce4bhnp2rcd13ifvqh0g","pricing_plan_id":"cebpf4jnsgd1na2vs0mg"},{"bike_id":"a1bccc3e-30ae-4af5-b7fb-fa51d9ba8e5f","system_id":"levelo_inurba_marseille","lat":43.22566,"lon":5.41619,"is_reserved":false,"is_disabled":false,"rental_uris":{"android":"levelo://app?vid=a1bccc3e-30ae-4af5-b7fb-fa51d9ba8e5f","ios":"levelo://app?vid=a1bccc3e-30ae-4af5-b7fb-fa51d9ba8e5f"},"vehicle_type_id":"4","last_reported":1758128892,"current_range_meters":8400,"station_id":"st_d2o4gvlbi1j2169b742g","pricing_plan_id":"cebpf4jnsgd1na2vs0mg"},{"bike_id":"d6fcff4e-dd75-4120-9968-c33a8245e563","system_id":"levelo_inurba_marseille","lat":43.22927,"lon":5.35376,"is_reserved":false,"is_disabled":false,"rental_uris":{"android":"levelo://app?vid=d6fcff4e-dd75-4120-9968-c33a8245e563","ios":"levelo://app?vid=d6fcff4e-dd75-4120-9968-c33a8245e563"},"vehicle_type_id":"4","last_reported":1758128892,"current_range_meters":8800,"station_id":"cpo3532slgdg3j2ikp40","pricing_plan_id":"cebpf4jnsgd1na2vs0mg"},{"bike_id":"cbaaa357-755b-4645-8b8f-7cbe609920d3","system_id":"levelo_inurba_marseille","lat":43.32652,"lon":5.40995,"is_reserved":false,"is_disabled":false,"rental_uris":{"android":"levelo://app?vid=cbaaa357-755b-4645-8b8f-7cbe609920d3","ios":"levelo://app?vid=cbaaa357-755b-4645-8b8f-7cbe609920d3"},"vehicle_type_id":"4","last_reported":1758128892,"current_range_meters":8800,"station_id":"ce4bhpp2rcd13ifvqhgg","pricing_plan_id":"cebpf4jnsgd1na2vs0mg"},{"bike_id":"336c74d9-d9c9-46d7-a94b-134b36ad023a","system_id":"levelo_inurba_marseille","lat":43.29863,"lon":5.37912,"is_reserved":false,"is_disabled":false,"rental_uris":{"android":"levelo://app?vid=336c74d9-d9c9-46d7-a94b-134b36ad023a","ios":"levelo://app?vid=336c74d9-d9c9-46d7-a94b-134b36ad023a"},"vehicle_type_id":"4","last_reported":1758128892,"current_range_meters":8800,"station_id":"","pricing_plan_id":"cebpf4jnsgd1na2vs0mg"},{"bike_id":"b878969e-0167-4bb0-b49f-f2c086c9b3d9","system_id":"levelo_inurba_marseille","lat":43.26868,"lon":5.40677,"is_reserved":false,"is_disabled":false,"rental_uris":{"android":"levelo://app?vid=b878969e-0167-4bb0-b49f-f2c086c9b3d9","ios":"levelo://app?vid=b878969e-0167-4bb0-b49f-f2c086c9b3d9"},"vehicle_type_id":"4","last_reported":1758128892,"current_range_meters":8800,"station_id":"","pricing_plan_id":"cebpf4jnsgd1na2vs0mg"},{"bike_id":"0ede21be-37d9-4495-b672-80274a6292be","system_id":"levelo_inurba_marseille","lat":43.35059,"lon":5.34109,"is_reserved":false,"is_disabled":false,"rental_uris":{"android":"levelo://app?vid=0ede21be-37d9-4495-b672-80274a6292be","ios":"levelo://app?vid=0ede21be-37d9-4495-b672-80274a6292be"},"vehicle_type_id":"4","last_reported":1758128892,"current_range_meters":8800,"station_id":"","pricing_plan_id":"cebpf4jnsgd1na2vs0mg"},{"bike_id":"09efe17c-7d25-4637-92f2-359dc1188bdd","system_id":"levelo_inurba_marseille","lat":43.31993,"lon":5.38166,"is_reserved":false,"is_disabled":false,"rental_uris":{"android":"levelo://app?vid=09efe17c-7d25-4637-92f2-359dc1188bdd","ios":"levelo://app?vid=09efe17c-7d25-4637-92f2-359dc1188bdd"},"vehicle_type_id":"4","last_reported":1758128892,"current_range_meters":9200,"station_id":"ce4bhr12rcd13ifvqhpg","pricing_plan_id":"cebpf4jnsgd1na2vs0mg"},{"bike_id":"94507e14-6c73-49f3-ad08-c206cea04185","system_id":"levelo_inurba_marseille","lat":43.3014,"lon":5.39854,"is_reserved":false,"is_disabled":false,"rental_uris":{"android":"levelo://app?vid=94507e14-6c73-49f3-ad08-c206cea04185","ios":"levelo://app?vid=94507e14-6c73-49f3-ad08-c206cea04185"},"vehicle_type_id":"4","last_reported":1758128892,"current_range_meters":8000,"station_id":"ce4bh0h2rcd13ifvqd40","pricing_plan_id":"cebpf4jnsgd1na2vs0mg"},{"bike_id":"a25d4ca1-9c8d-46b6-80ae-19fb3b0e56d9","system_id":"levelo_inurba_marseille","lat":43.303833,"lon":5.425009,"is_reserved":false,"is_disabled":false,"rental_uris":{"android":"levelo://app?vid=a25d4ca1-9c8d-46b6-80ae-19fb3b0e56d9","ios":"levelo://app?vid=a25d4ca1-9c8d-46b6-80ae-19fb3b0e56d9"},"vehicle_type_id":"4","last_reported":1758128892,"current_range_meters":9600,"station_id":"ce4bho12rcd13ifvqh1g","pricing_plan_id":"cebpf4jnsgd1na2vs0mg"},{"bike_id":"12be267d-cd79-45cd-8b61-ae31927c0c3c","system_id":"levelo_inurba_marseille","lat":43.29287,"lon":5.37179,"is_reserved":false,"is_disabled":false,"rental_uris":{"android":"levelo://app?vid=12be267d-cd79-45cd-8b61-ae31927c0c3c","ios":"levelo://app?vid=12be267d-cd79-45cd-8b61-ae31927c0c3c"},"vehicle_type_id":"4","last_reported":1758128892,"current_range_meters":9600,"station_id":"","pricing_plan_id":"cebpf4jnsgd1na2vs0mg"},{"bike_id":"775af279-8ac9-4585-9121-809be9b13265","system_id":"levelo_inurba_marseille","lat":43.3376,"lon":5.37439,"is_reserved":false,"is_disabled":false,"rental_uris":{"android":"levelo://app?vid=775af279-8ac9-4585-9121-809be9b13265","ios":"levelo://app?vid=775af279-8ac9-4585-9121-809be9b13265"},"vehicle_type_id":"4","last_reported":1758128892,"current_range_meters":9600,"station_id":"","pricing_plan_id":"cebpf4jnsgd1na2vs0mg"},{"bike_id":"10da9fe9-8458-4d7c-998b-24b5e0b3cbb7","system_id":"levelo_inurba_marseille","lat":43.27564,"lon":5.38417,"is_reserved":false,"is_disabled":false,"rental_uris":{"android":"levelo://app?vid=10da9fe9-8458-4d7c-998b-24b5e0b3cbb7","ios":"levelo://app?vid=10da9fe9-8458-4d7c-998b-24b5e0b3cbb7"},"vehicle_type_id":"4","last_reported":1758128892,"current_range_meters":9600,"station_id":"ce4bhh92rcd13ifvqfi0","pricing_plan_id":"cebpf4jnsgd1na2vs0mg"},{"bike_id":"003515e8-8117-44bb-979d-5f47e8d50fda","system_id":"levelo_inurba_marseille","lat":43.30625,"lon":5.37605,"is_reserved":false,"is_disabled":false,"rental_uris":{"android":"levelo://app?vid=003515e8-8117-44bb-979d-5f47e8d50fda","ios":"levelo://app?vid=003515e8-8117-44bb-979d-5f47e8d50fda"},"vehicle_type_id":"4","last_reported":1758128892,"current_range_meters":10000,"station_id":"","pricing_plan_id":"cebpf4jnsgd1na2vs0mg"},{"bike_id":"fa6613ca-a652-4551-bd0e-304bee1e53d4","system_id":"levelo_inurba_marseille","lat":43.23151,"lon":5.43711,"is_reserved":false,"is_disabled":false,"rental_uris":{"android":"levelo://app?vid=fa6613ca-a652-4551-bd0e-304bee1e53d4","ios":"levelo://app?vid=fa6613ca-a652-4551-bd0e-304bee1e53d4"},"vehicle_type_id":"4","last_reported":1758128892,"current_range_meters":9600,"station_id":"ce4bhmp2rcd13ifvqgog","pricing_plan_id":"cebpf4jnsgd1na2vs0mg"},{"bike_id":"a95abca9-6348-4894-a1f8-f16f2ae9dcf8","system_id":"levelo_inurba_marseille","lat":43.30429,"lon":5.38888,"is_reserved":false,"is_disabled":false,"rental_uris":{"android":"levelo://app?vid=a95abca9-6348-4894-a1f8-f16f2ae9dcf8","ios":"levelo://app?vid=a95abca9-6348-4894-a1f8-f16f2ae9dcf8"},"vehicle_type_id":"4","last_reported":1758128892,"current_range_meters":10000,"station_id":"ce4bgk12rcd13ifvqbi0","pricing_plan_id":"cebpf4jnsgd1na2vs0mg"},{"bike_id":"5b9553d2-d06f-4ff3-a060-ee806698d5f3","system_id":"levelo_inurba_marseille","lat":43.32308,"lon":5.40619,"is_reserved":false,"is_disabled":false,"rental_uris":{"android":"levelo://app?vid=5b9553d2-d06f-4ff3-a060-ee806698d5f3","ios":"levelo://app?vid=5b9553d2-d06f-4ff3-a060-ee806698d5f3"},"vehicle_type_id":"4","last_reported":1758128892,"current_range_meters":10000,"station_id":"ce4bhq92rcd13ifvqhjg","pricing_plan_id":"cebpf4jnsgd1na2vs0mg"},{"bike_id":"05eeda8d-199a-458b-89bc-f4007da7d881","system_id":"levelo_inurba_marseille","lat":43.29317,"lon":5.37168,"is_reserved":false,"is_disabled":false,"rental_uris":{"android":"levelo://app?vid=05eeda8d-199a-458b-89bc-f4007da7d881","ios":"levelo://app?vid=05eeda8d-199a-458b-89bc-f4007da7d881"},"vehicle_type_id":"4","last_reported":1758128892,"current_range_meters":10000,"station_id":"ce4bgh92rcd13ifvqb40","pricing_plan_id":"cebpf4jnsgd1na2vs0mg"},{"bike_id":"50df05c5-9e78-4a32-8c15-ea1e068d3278","system_id":"levelo_inurba_marseille","lat":43.26951,"lon":5.3864,"is_reserved":false,"is_disabled":true,"rental_uris":{"android":"levelo://app?vid=50df05c5-9e78-4a32-8c15-ea1e068d3278","ios":"levelo://app?vid=50df05c5-9e78-4a32-8c15-ea1e068d3278"},"vehicle_type_id":"4","last_reported":1758128892,"current_range_meters":10000,"station_id":"ce4bhh92rcd13ifvqfh0","pricing_plan_id":"cebpf4jnsgd1na2vs0mg"},{"bike_id":"b641d9f4-e2b6-42d2-a9a9-2f1bd4dd66e7","system_id":"levelo_inurba_marseille","lat":43.29599,"lon":5.3811,"is_reserved":false,"is_disabled":false,"rental_uris":{"android":"levelo://app?vid=b641d9f4-e2b6-42d2-a9a9-2f1bd4dd66e7","ios":"levelo://app?vid=b641d9f4-e2b6-42d2-a9a9-2f1bd4dd66e7"},"vehicle_type_id":"4","last_reported":1758128892,"current_range_meters":10000,"station_id":"ce4bgl12rcd13ifvqbo0","pricing_plan_id":"cebpf4jnsgd1na2vs0mg"},{"bike_id":"64e5ac40-7872-40b6-b3f7-e381eb3820c7","system_id":"levelo_inurba_marseille","lat":43.28854,"lon":5.35857,"is_reserved":false,"is_disabled":false,"rental_uris":{"android":"levelo://app?vid=64e5ac40-7872-40b6-b3f7-e381eb3820c7","ios":"levelo://app?vid=64e5ac40-7872-40b6-b3f7-e381eb3820c7"},"vehicle_type_id":"4","last_reported":1758128892,"current_range_meters":10000,"station_id":"ce4bhb12rcd13ifvqem0","pricing_plan_id":"cebpf4jnsgd1na2vs0mg"},{"bike_id":"8dd1e712-3a95-4922-814e-ff25df943b11","system_id":"levelo_inurba_marseille","lat":43.28933,"lon":5.3664,"is_reserved":false,"is_disabled":false,"rental_uris":{"android":"levelo://app?vid=8dd1e712-3a95-4922-814e-ff25df943b11","ios":"levelo://app?vid=8dd1e712-3a95-4922-814e-ff25df943b11"},"vehicle_type_id":"4","last_reported":1758128892,"current_range_meters":10000,"station_id":"ce4bhap2rcd13ifvqek0","pricing_plan_id":"cebpf4jnsgd1na2vs0mg"},{"bike_id":"be550be2-a2ed-43bf-b18c-646836d305c3","system_id":"levelo_inurba_marseille","lat":43.21185,"lon":5.35073,"is_reserved":false,"is_disabled":false,"rental_uris":{"android":"levelo://app?vid=be550be2-a2ed-43bf-b18c-646836d305c3","ios":"levelo://app?vid=be550be2-a2ed-43bf-b18c-646836d305c3"},"vehicle_type_id":"4","last_reported":1758128892,"current_range_meters":10800,"station_id":"st_cvj6sg6p6f1abm77japg","pricing_plan_id":"cebpf4jnsgd1na2vs0mg"},{"bike_id":"c29c76e0-3ad4-424d-a171-735b9c4690be","system_id":"levelo_inurba_marseille","lat":43.29976,"lon":5.38493,"is_reserved":false,"is_disabled":false,"rental_uris":{"android":"levelo://app?vid=c29c76e0-3ad4-424d-a171-735b9c4690be","ios":"levelo://app?vid=c29c76e0-3ad4-424d-a171-735b9c4690be"},"vehicle_type_id":"4","last_reported":1758128892,"current_range_meters":10800,"station_id":"ce4bgj92rcd13ifvqbd0","pricing_plan_id":"cebpf4jnsgd1na2vs0mg"},{"bike_id":"fcd56ccc-f0ab-49ef-a538-8c498b5ecd49","system_id":"levelo_inurba_marseille","lat":43.22559,"lon":5.41619,"is_reserved":false,"is_disabled":false,"rental_uris":{"android":"levelo://app?vid=fcd56ccc-f0ab-49ef-a538-8c498b5ecd49","ios":"levelo://app?vid=fcd56ccc-f0ab-49ef-a538-8c498b5ecd49"},"vehicle_type_id":"4","last_reported":1758128892,"current_range_meters":10800,"station_id":"st_d2o4gvlbi1j2169b742g","pricing_plan_id":"cebpf4jnsgd1na2vs0mg"},{"bike_id":"4370f716-82e7-4329-8826-e2e07610963f","system_id":"levelo_inurba_marseille","lat":43.26576,"lon":5.39023,"is_reserved":false,"is_disabled":false,"rental_uris":{"android":"levelo://app?vid=4370f716-82e7-4329-8826-e2e07610963f","ios":"levelo://app?vid=4370f716-82e7-4329-8826-e2e07610963f"},"vehicle_type_id":"4","last_reported":1758128892,"current_range_meters":10800,"station_id":"ce4bhe12rcd13ifvqf30","pricing_plan_id":"cebpf4jnsgd1na2vs0mg"},{"bike_id":"5cebaa99-7be9-4a3f-9cc0-5cdfdaef03f0","system_id":"levelo_inurba_marseille","lat":43.225319,"lon":5.348348,"is_reserved":false,"is_disabled":false,"rental_uris":{"android":"levelo://app?vid=5cebaa99-7be9-4a3f-9cc0-5cdfdaef03f0","ios":"levelo://app?vid=5cebaa99-7be9-4a3f-9cc0-5cdfdaef03f0"},"vehicle_type_id":"4","last_reported":1758128892,"current_range_meters":10800,"station_id":"","pricing_plan_id":"cebpf4jnsgd1na2vs0mg"},{"bike_id":"31cf9953-a8be-4d4b-99a4-6973d336a665","system_id":"levelo_inurba_marseille","lat":43.29129,"lon":5.382944,"is_reserved":false,"is_disabled":false,"rental_uris":{"android":"levelo://app?vid=31cf9953-a8be-4d4b-99a4-6973d336a665","ios":"levelo://app?vid=31cf9953-a8be-4d4b-99a4-6973d336a665"},"vehicle_type_id":"4","last_reported":1758128892,"current_range_meters":10800,"station_id":"","pricing_plan_id":"cebpf4jnsgd1na2vs0mg"},{"bike_id":"a4c5d1da-b728-4a0a-a897-920fb50df0e1","system_id":"levelo_inurba_marseille","lat":43.211936,"lon":5.350697,"is_reserved":false,"is_disabled":false,"rental_uris":{"android":"levelo://app?vid=a4c5d1da-b728-4a0a-a897-920fb50df0e1","ios":"levelo://app?vid=a4c5d1da-b728-4a0a-a897-920fb50df0e1"},"vehicle_type_id":"4","last_reported":1758128892,"current_range_meters":11200,"station_id":"st_cvj6sg6p6f1abm77japg","pricing_plan_id":"cebpf4jnsgd1na2vs0mg"},{"bike_id":"5701fe9c-3e98-4b9f-a910-5eb395d4e5d3","system_id":"levelo_inurba_marseille","lat":43.305389,"lon":5.384223,"is_reserved":false,"is_disabled":false,"rental_uris":{"android":"levelo://app?vid=5701fe9c-3e98-4b9f-a910-5eb395d4e5d3","ios":"levelo://app?vid=5701fe9c-3e98-4b9f-a910-5eb395d4e5d3"},"vehicle_type_id":"4","last_reported":1758128892,"current_range_meters":11200,"station_id":"","pricing_plan_id":"cebpf4jnsgd1na2vs0mg"},{"bike_id":"b473a320-20ac-4ab5-87a3-0ffab8c91ccd","system_id":"levelo_inurba_marseille","lat":43.29198,"lon":5.35806,"is_reserved":false,"is_disabled":false,"rental_uris":{"android":"levelo://app?vid=b473a320-20ac-4ab5-87a3-0ffab8c91ccd","ios":"levelo://app?vid=b473a320-20ac-4ab5-87a3-0ffab8c91ccd"},"vehicle_type_id":"4","last_reported":1758128892,"current_range_meters":11200,"station_id":"ce4bhb12rcd13ifvqel0","pricing_plan_id":"cebpf4jnsgd1na2vs0mg"},{"bike_id":"a5556ebb-e063-483d-bbdb-1db536537fe5","system_id":"levelo_inurba_marseille","lat":43.272074,"lon":5.39181,"is_reserved":false,"is_disabled":false,"rental_uris":{"android":"levelo://app?vid=a5556ebb-e063-483d-bbdb-1db536537fe5","ios":"levelo://app?vid=a5556ebb-e063-483d-bbdb-1db536537fe5"},"vehicle_type_id":"4","last_reported":1758128892,"current_range_meters":11200,"station_id":"ce4bhhp2rcd13ifvqfm0","pricing_plan_id":"cebpf4jnsgd1na2vs0mg"},{"bike_id":"ca5a1340-d41e-49f3-95f8-599734e0a36c","system_id":"levelo_inurba_marseille","lat":43.225336,"lon":5.348339,"is_reserved":false,"is_disabled":false,"rental_uris":{"android":"levelo://app?vid=ca5a1340-d41e-49f3-95f8-599734e0a36c","ios":"levelo://app?vid=ca5a1340-d41e-49f3-95f8-599734e0a36c"},"vehicle_type_id":"4","last_reported":1758128892,"current_range_meters":11600,"station_id":"","pricing_plan_id":"cebpf4jnsgd1na2vs0mg"},{"bike_id":"0a2e2756-8bf6-4279-a120-8478c237834b","system_id":"levelo_inurba_marseille","lat":43.26483,"lon":5.39562,"is_reserved":false,"is_disabled":true,"rental_uris":{"android":"levelo://app?vid=0a2e2756-8bf6-4279-a120-8478c237834b","ios":"levelo://app?vid=0a2e2756-8bf6-4279-a120-8478c237834b"},"vehicle_type_id":"4","last_reported":1758128892,"current_range_meters":11600,"station_id":"ce4bhi12rcd13ifvqfq0","pricing_plan_id":"cebpf4jnsgd1na2vs0mg"},{"bike_id":"d2d21405-7d84-46d6-9542-57aa659023fa","system_id":"levelo_inurba_marseille","lat":43.33086,"lon":5.37963,"is_reserved":false,"is_disabled":false,"rental_uris":{"android":"levelo://app?vid=d2d21405-7d84-46d6-9542-57aa659023fa","ios":"levelo://app?vid=d2d21405-7d84-46d6-9542-57aa659023fa"},"vehicle_type_id":"4","last_reported":1758128892,"current_range_meters":11600,"station_id":"","pricing_plan_id":"cebpf4jnsgd1na2vs0mg"},{"bike_id":"95afad83-7b70-45d9-bb66-090156db5e7a","system_id":"levelo_inurba_marseille","lat":43.2861,"lon":5.35109,"is_reserved":false,"is_disabled":false,"rental_uris":{"android":"levelo://app?vid=95afad83-7b70-45d9-bb66-090156db5e7a","ios":"levelo://app?vid=95afad83-7b70-45d9-bb66-090156db5e7a"},"vehicle_type_id":"4","last_reported":1758128892,"current_range_meters":11600,"station_id":"ce4bhch2rcd13ifvqeug","pricing_plan_id":"cebpf4jnsgd1na2vs0mg"},{"bike_id":"1f07aecc-ad32-4e66-9cb5-2c3b38743891","system_id":"levelo_inurba_marseille","lat":43.259521,"lon":5.393972,"is_reserved":false,"is_disabled":false,"rental_uris":{"android":"levelo://app?vid=1f07aecc-ad32-4e66-9cb5-2c3b38743891","ios":"levelo://app?vid=1f07aecc-ad32-4e66-9cb5-2c3b38743891"},"vehicle_type_id":"4","last_reported":1758128892,"current_range_meters":11600,"station_id":"ce4bhip2rcd13ifvqft0","pricing_plan_id":"cebpf4jnsgd1na2vs0mg"},{"bike_id":"0d5576a9-9d94-43cd-8d7e-4dee8e1e4b82","system_id":"levelo_inurba_marseille","lat":43.28936,"lon":5.36627,"is_reserved":false,"is_disabled":false,"rental_uris":{"android":"levelo://app?vid=0d5576a9-9d94-43cd-8d7e-4dee8e1e4b82","ios":"levelo://app?vid=0d5576a9-9d94-43cd-8d7e-4dee8e1e4b82"},"vehicle_type_id":"4","last_reported":1758128892,"current_range_meters":11600,"station_id":"ce4bhap2rcd13ifvqek0","pricing_plan_id":"cebpf4jnsgd1na2vs0mg"},{"bike_id":"97fac187-45a1-4e8f-be9b-a5c24559a733","system_id":"levelo_inurba_marseille","lat":43.21728,"lon":5.34614,"is_reserved":false,"is_disabled":false,"rental_uris":{"android":"levelo://app?vid=97fac187-45a1-4e8f-be9b-a5c24559a733","ios":"levelo://app?vid=97fac187-45a1-4e8f-be9b-a5c24559a733"},"vehicle_type_id":"4","last_reported":1758128892,"current_range_meters":12000,"station_id":"st_cvj6r9ubvosntc0bgbag","pricing_plan_id":"cebpf4jnsgd1na2vs0mg"},{"bike_id":"2a5e641a-ca90-4f3a-9350-63bb94d9cebf","system_id":"levelo_inurba_marseille","lat":43.25563,"lon":5.3918,"is_reserved":false,"is_disabled":false,"rental_uris":{"android":"levelo://app?vid=2a5e641a-ca90-4f3a-9350-63bb94d9cebf","ios":"levelo://app?vid=2a5e641a-ca90-4f3a-9350-63bb94d9cebf"},"vehicle_type_id":"4","last_reported":1758128892,"current_range_meters":12000,"station_id":"","pricing_plan_id":"cebpf4jnsgd1na2vs0mg"},{"bike_id":"cf8bce3e-9ede-4d20-89ed-0d3a5363b5d5","system_id":"levelo_inurba_marseille","lat":43.3171,"lon":5.37736,"is_reserved":false,"is_disabled":false,"rental_uris":{"android":"levelo://app?vid=cf8bce3e-9ede-4d20-89ed-0d3a5363b5d5","ios":"levelo://app?vid=cf8bce3e-9ede-4d20-89ed-0d3a5363b5d5"},"vehicle_type_id":"4","last_reported":1758128892,"current_range_meters":12000,"station_id":"ce4bgth2rcd13ifvqch0","pricing_plan_id":"cebpf4jnsgd1na2vs0mg"},{"bike_id":"e051852e-5267-4d2e-9d0d-9d70aefdcd5e","system_id":"levelo_inurba_marseille","lat":43.25723,"lon":5.41107,"is_reserved":false,"is_disabled":false,"rental_uris":{"android":"levelo://app?vid=e051852e-5267-4d2e-9d0d-9d70aefdcd5e","ios":"levelo://app?vid=e051852e-5267-4d2e-9d0d-9d70aefdcd5e"},"vehicle_type_id":"4","last_reported":1758128892,"current_range_meters":12400,"station_id":"ce4bhkp2rcd13ifvqgd0","pricing_plan_id":"cebpf4jnsgd1na2vs0mg"},{"bike_id":"55e545d5-7dc6-42ad-bab4-a5d84d3c7035","system_id":"levelo_inurba_marseille","lat":43.29862,"lon":5.39736,"is_reserved":false,"is_disabled":false,"rental_uris":{"android":"levelo://app?vid=55e545d5-7dc6-42ad-bab4-a5d84d3c7035","ios":"levelo://app?vid=55e545d5-7dc6-42ad-bab4-a5d84d3c7035"},"vehicle_type_id":"4","last_reported":1758128892,"current_range_meters":12000,"station_id":"ce4bh0h2rcd13ifvqd50","pricing_plan_id":"cebpf4jnsgd1na2vs0mg"},{"bike_id":"80238ccb-60b6-43a0-aff5-75e5f5de5cc6","system_id":"levelo_inurba_marseille","lat":43.26055,"lon":5.394,"is_reserved":false,"is_disabled":false,"rental_uris":{"android":"levelo://app?vid=80238ccb-60b6-43a0-aff5-75e5f5de5cc6","ios":"levelo://app?vid=80238ccb-60b6-43a0-aff5-75e5f5de5cc6"},"vehicle_type_id":"4","last_reported":1758128892,"current_range_meters":12400,"station_id":"ce4bhh92rcd13ifvqfj0","pricing_plan_id":"cebpf4jnsgd1na2vs0mg"},{"bike_id":"268dd8c0-55fb-4568-b75d-f8c0c4377499","system_id":"levelo_inurba_marseille","lat":43.31707,"lon":5.37744,"is_reserved":false,"is_disabled":false,"rental_uris":{"android":"levelo://app?vid=268dd8c0-55fb-4568-b75d-f8c0c4377499","ios":"levelo://app?vid=268dd8c0-55fb-4568-b75d-f8c0c4377499"},"vehicle_type_id":"4","last_reported":1758128892,"current_range_meters":12800,"station_id":"ce4bgth2rcd13ifvqch0","pricing_plan_id":"cebpf4jnsgd1na2vs0mg"},{"bike_id":"be7e6a52-5f32-4f5d-ab19-09bbc34d35a2","system_id":"levelo_inurba_marseille","lat":43.21163,"lon":5.35082,"is_reserved":false,"is_disabled":false,"rental_uris":{"android":"levelo://app?vid=be7e6a52-5f32-4f5d-ab19-09bbc34d35a2","ios":"levelo://app?vid=be7e6a52-5f32-4f5d-ab19-09bbc34d35a2"},"vehicle_type_id":"4","last_reported":1758128892,"current_range_meters":12800,"station_id":"st_cvj6sg6p6f1abm77japg","pricing_plan_id":"cebpf4jnsgd1na2vs0mg"},{"bike_id":"7c53e1e0-9efc-4c15-9c29-668d4dac4c59","system_id":"levelo_inurba_marseille","lat":43.22536,"lon":5.34822,"is_reserved":false,"is_disabled":false,"rental_uris":{"android":"levelo://app?vid=7c53e1e0-9efc-4c15-9c29-668d4dac4c59","ios":"levelo://app?vid=7c53e1e0-9efc-4c15-9c29-668d4dac4c59"},"vehicle_type_id":"4","last_reported":1758128892,"current_range_meters":12800,"station_id":"st_cvj5dfep6f1abm77gieg","pricing_plan_id":"cebpf4jnsgd1na2vs0mg"},{"bike_id":"84f64400-304c-42ad-9202-87fd369a6188","system_id":"levelo_inurba_marseille","lat":43.290434,"lon":5.359113,"is_reserved":false,"is_disabled":false,"rental_uris":{"android":"levelo://app?vid=84f64400-304c-42ad-9202-87fd369a6188","ios":"levelo://app?vid=84f64400-304c-42ad-9202-87fd369a6188"},"vehicle_type_id":"4","last_reported":1758128892,"current_range_meters":12800,"station_id":"ce4bha92rcd13ifvqeg0","pricing_plan_id":"cebpf4jnsgd1na2vs0mg"},{"bike_id":"c547d24e-15f5-4315-8642-38ae8488f2ba","system_id":"levelo_inurba_marseille","lat":43.25327,"lon":5.4217,"is_reserved":false,"is_disabled":false,"rental_uris":{"android":"levelo://app?vid=c547d24e-15f5-4315-8642-38ae8488f2ba","ios":"levelo://app?vid=c547d24e-15f5-4315-8642-38ae8488f2ba"},"vehicle_type_id":"4","last_reported":1758128892,"current_range_meters":12800,"station_id":"st_d2m65c5bi1j21697t3ng","pricing_plan_id":"cebpf4jnsgd1na2vs0mg"},{"bike_id":"97a85ae4-85ab-4e7e-a634-ebe071f3bc83","system_id":"levelo_inurba_marseille","lat":43.29605,"lon":5.36733,"is_reserved":false,"is_disabled":false,"rental_uris":{"android":"levelo://app?vid=97a85ae4-85ab-4e7e-a634-ebe071f3bc83","ios":"levelo://app?vid=97a85ae4-85ab-4e7e-a634-ebe071f3bc83"},"vehicle_type_id":"4","last_reported":1758128892,"current_range_meters":13600,"station_id":"ce4bgph2rcd13ifvqc2g","pricing_plan_id":"cebpf4jnsgd1na2vs0mg"},{"bike_id":"e76ef879-317f-45ff-b2d9-c6c8304d675f","system_id":"levelo_inurba_marseille","lat":43.22935,"lon":5.35405,"is_reserved":false,"is_disabled":false,"rental_uris":{"android":"levelo://app?vid=e76ef879-317f-45ff-b2d9-c6c8304d675f","ios":"levelo://app?vid=e76ef879-317f-45ff-b2d9-c6c8304d675f"},"vehicle_type_id":"4","last_reported":1758128892,"current_range_meters":13600,"station_id":"cpo3532slgdg3j2ikp40","pricing_plan_id":"cebpf4jnsgd1na2vs0mg"},{"bike_id":"85cd80c3-6f9a-489e-a560-af9072e78d89","system_id":"levelo_inurba_marseille","lat":43.2593,"lon":5.4091,"is_reserved":false,"is_disabled":false,"rental_uris":{"android":"levelo://app?vid=85cd80c3-6f9a-489e-a560-af9072e78d89","ios":"levelo://app?vid=85cd80c3-6f9a-489e-a560-af9072e78d89"},"vehicle_type_id":"4","last_reported":1758128892,"current_range_meters":13600,"station_id":"ce4bhm92rcd13ifvqglg","pricing_plan_id":"cebpf4jnsgd1na2vs0mg"},{"bike_id":"ba248c1c-0e09-489a-9cab-05bfc6c18e2d","system_id":"levelo_inurba_marseille","lat":43.28614,"lon":5.35101,"is_reserved":false,"is_disabled":false,"rental_uris":{"android":"levelo://app?vid=ba248c1c-0e09-489a-9cab-05bfc6c18e2d","ios":"levelo://app?vid=ba248c1c-0e09-489a-9cab-05bfc6c18e2d"},"vehicle_type_id":"4","last_reported":1758128892,"current_range_meters":14000,"station_id":"ce4bhch2rcd13ifvqeug","pricing_plan_id":"cebpf4jnsgd1na2vs0mg"},{"bike_id":"2b90630c-cd4c-4f34-a34a-7b5ec7a7b89c","system_id":"levelo_inurba_marseille","lat":43.293248,"lon":5.37375,"is_reserved":false,"is_disabled":false,"rental_uris":{"android":"levelo://app?vid=2b90630c-cd4c-4f34-a34a-7b5ec7a7b89c","ios":"levelo://app?vid=2b90630c-cd4c-4f34-a34a-7b5ec7a7b89c"},"vehicle_type_id":"4","last_reported":1758128892,"current_range_meters":14000,"station_id":"ce4bgl12rcd13ifvqbo0","pricing_plan_id":"cebpf4jnsgd1na2vs0mg"},{"bike_id":"7af657b5-2a99-406a-808c-92b95f5777a4","system_id":"levelo_inurba_marseille","lat":43.286646,"lon":5.363454,"is_reserved":false,"is_disabled":false,"rental_uris":{"android":"levelo://app?vid=7af657b5-2a99-406a-808c-92b95f5777a4","ios":"levelo://app?vid=7af657b5-2a99-406a-808c-92b95f5777a4"},"vehicle_type_id":"4","last_reported":1758128892,"current_range_meters":14400,"station_id":"ce4bhah2rcd13ifvqej0","pricing_plan_id":"cebpf4jnsgd1na2vs0mg"},{"bike_id":"65854fe7-484f-4538-8c9b-93eeb0063f0f","system_id":"levelo_inurba_marseille","lat":43.25333,"lon":5.42177,"is_reserved":false,"is_disabled":false,"rental_uris":{"android":"levelo://app?vid=65854fe7-484f-4538-8c9b-93eeb0063f0f","ios":"levelo://app?vid=65854fe7-484f-4538-8c9b-93eeb0063f0f"},"vehicle_type_id":"4","last_reported":1758128892,"current_range_meters":14400,"station_id":"st_d2m65c5bi1j21697t3ng","pricing_plan_id":"cebpf4jnsgd1na2vs0mg"},{"bike_id":"9d71dbb9-e9c3-4710-a181-bb525a0525bb","system_id":"levelo_inurba_marseille","lat":43.29,"lon":5.35611,"is_reserved":false,"is_disabled":false,"rental_uris":{"android":"levelo://app?vid=9d71dbb9-e9c3-4710-a181-bb525a0525bb","ios":"levelo://app?vid=9d71dbb9-e9c3-4710-a181-bb525a0525bb"},"vehicle_type_id":"4","last_reported":1758128892,"current_range_meters":14400,"station_id":"ce4bhb92rcd13ifvqen0","pricing_plan_id":"cebpf4jnsgd1na2vs0mg"},{"bike_id":"55dfb17a-dc13-4669-82ac-2c676d600c2d","system_id":"levelo_inurba_marseille","lat":43.31351,"lon":5.37936,"is_reserved":false,"is_disabled":false,"rental_uris":{"android":"levelo://app?vid=55dfb17a-dc13-4669-82ac-2c676d600c2d","ios":"levelo://app?vid=55dfb17a-dc13-4669-82ac-2c676d600c2d"},"vehicle_type_id":"4","last_reported":1758128892,"current_range_meters":14400,"station_id":"","pricing_plan_id":"cebpf4jnsgd1na2vs0mg"},{"bike_id":"c6365a45-ad26-488f-b373-5aa6e1cdb73f","system_id":"levelo_inurba_marseille","lat":43.23187,"lon":5.39975,"is_reserved":false,"is_disabled":false,"rental_uris":{"android":"levelo://app?vid=c6365a45-ad26-488f-b373-5aa6e1cdb73f","ios":"levelo://app?vid=c6365a45-ad26-488f-b373-5aa6e1cdb73f"},"vehicle_type_id":"4","last_reported":1758128892,"current_range_meters":14400,"station_id":"ce4bhn12rcd13ifvqgqg","pricing_plan_id":"cebpf4jnsgd1na2vs0mg"},{"bike_id":"c99b6713-7403-4fdf-8afe-2c146097a93c","system_id":"levelo_inurba_marseille","lat":43.29306,"lon":5.37169,"is_reserved":false,"is_disabled":false,"rental_uris":{"android":"levelo://app?vid=c99b6713-7403-4fdf-8afe-2c146097a93c","ios":"levelo://app?vid=c99b6713-7403-4fdf-8afe-2c146097a93c"},"vehicle_type_id":"4","last_reported":1758128892,"current_range_meters":14400,"station_id":"","pricing_plan_id":"cebpf4jnsgd1na2vs0mg"},{"bike_id":"48b556ca-6ef4-477d-a020-df257583ff0c","system_id":"levelo_inurba_marseille","lat":43.2978,"lon":5.37099,"is_reserved":false,"is_disabled":false,"rental_uris":{"android":"levelo://app?vid=48b556ca-6ef4-477d-a020-df257583ff0c","ios":"levelo://app?vid=48b556ca-6ef4-477d-a020-df257583ff0c"},"vehicle_type_id":"4","last_reported":1758128892,"current_range_meters":14400,"station_id":"ce4bgop2rcd13ifvqc1g","pricing_plan_id":"cebpf4jnsgd1na2vs0mg"},{"bike_id":"0c108793-3b24-4568-8c48-d7e8804c27b8","system_id":"levelo_inurba_marseille","lat":43.299162,"lon":5.374679,"is_reserved":false,"is_disabled":false,"rental_uris":{"android":"levelo://app?vid=0c108793-3b24-4568-8c48-d7e8804c27b8","ios":"levelo://app?vid=0c108793-3b24-4568-8c48-d7e8804c27b8"},"vehicle_type_id":"4","last_reported":1758128892,"current_range_meters":15200,"station_id":"ce4bgjh2rcd13ifvqbg0","pricing_plan_id":"cebpf4jnsgd1na2vs0mg"},{"bike_id":"f7254990-f51d-45fe-83e3-57aceffccbc4","system_id":"levelo_inurba_marseille","lat":43.22571,"lon":5.41634,"is_reserved":false,"is_disabled":false,"rental_uris":{"android":"levelo://app?vid=f7254990-f51d-45fe-83e3-57aceffccbc4","ios":"levelo://app?vid=f7254990-f51d-45fe-83e3-57aceffccbc4"},"vehicle_type_id":"4","last_reported":1758128892,"current_range_meters":15200,"station_id":"st_d2o4gvlbi1j2169b742g","pricing_plan_id":"cebpf4jnsgd1na2vs0mg"},{"bike_id":"742a397d-8129-47e8-84a5-11bb40528bef","system_id":"levelo_inurba_marseille","lat":43.28848,"lon":5.3584,"is_reserved":false,"is_disabled":false,"rental_uris":{"android":"levelo://app?vid=742a397d-8129-47e8-84a5-11bb40528bef","ios":"levelo://app?vid=742a397d-8129-47e8-84a5-11bb40528bef"},"vehicle_type_id":"4","last_reported":1758128892,"current_range_meters":15200,"station_id":"ce4bhb12rcd13ifvqem0","pricing_plan_id":"cebpf4jnsgd1na2vs0mg"},{"bike_id":"da0d18aa-7aa1-4605-ab2b-82b62b088322","system_id":"levelo_inurba_marseille","lat":43.273667,"lon":5.36257,"is_reserved":false,"is_disabled":false,"rental_uris":{"android":"levelo://app?vid=da0d18aa-7aa1-4605-ab2b-82b62b088322","ios":"levelo://app?vid=da0d18aa-7aa1-4605-ab2b-82b62b088322"},"vehicle_type_id":"4","last_reported":1758128892,"current_range_meters":15200,"station_id":"ce4bhbh2rcd13ifvqeo0","pricing_plan_id":"cebpf4jnsgd1na2vs0mg"},{"bike_id":"22f0687d-25d3-4094-9c4a-293a61e189a6","system_id":"levelo_inurba_marseille","lat":43.24711,"lon":5.3977,"is_reserved":false,"is_disabled":false,"rental_uris":{"android":"levelo://app?vid=22f0687d-25d3-4094-9c4a-293a61e189a6","ios":"levelo://app?vid=22f0687d-25d3-4094-9c4a-293a61e189a6"},"vehicle_type_id":"4","last_reported":1758128892,"current_range_meters":15200,"station_id":"","pricing_plan_id":"cebpf4jnsgd1na2vs0mg"},{"bike_id":"49230824-e0b0-4942-b254-aed72b06d282","system_id":"levelo_inurba_marseille","lat":43.26948,"lon":5.40547,"is_reserved":false,"is_disabled":false,"rental_uris":{"android":"levelo://app?vid=49230824-e0b0-4942-b254-aed72b06d282","ios":"levelo://app?vid=49230824-e0b0-4942-b254-aed72b06d282"},"vehicle_type_id":"4","last_reported":1758128892,"current_range_meters":16000,"station_id":"","pricing_plan_id":"cebpf4jnsgd1na2vs0mg"},{"bike_id":"0a714f01-7287-46f8-bbb6-81d9c8aaefe2","system_id":"levelo_inurba_marseille","lat":43.29694,"lon":5.39156,"is_reserved":false,"is_disabled":false,"rental_uris":{"android":"levelo://app?vid=0a714f01-7287-46f8-bbb6-81d9c8aaefe2","ios":"levelo://app?vid=0a714f01-7287-46f8-bbb6-81d9c8aaefe2"},"vehicle_type_id":"4","last_reported":1758128892,"current_range_meters":16000,"station_id":"","pricing_plan_id":"cebpf4jnsgd1na2vs0mg"},{"bike_id":"046ba709-b940-4fa3-9690-1d81db536e4b","system_id":"levelo_inurba_marseille","lat":43.22556,"lon":5.41623,"is_reserved":false,"is_disabled":false,"rental_uris":{"android":"levelo://app?vid=046ba709-b940-4fa3-9690-1d81db536e4b","ios":"levelo://app?vid=046ba709-b940-4fa3-9690-1d81db536e4b"},"vehicle_type_id":"4","last_reported":1758128892,"current_range_meters":16000,"station_id":"st_d2o4gvlbi1j2169b742g","pricing_plan_id":"cebpf4jnsgd1na2vs0mg"},{"bike_id":"df2c6ce1-3df7-4976-bcc8-22b068fb0f46","system_id":"levelo_inurba_marseille","lat":43.29298,"lon":5.3717,"is_reserved":false,"is_disabled":false,"rental_uris":{"android":"levelo://app?vid=df2c6ce1-3df7-4976-bcc8-22b068fb0f46","ios":"levelo://app?vid=df2c6ce1-3df7-4976-bcc8-22b068fb0f46"},"vehicle_type_id":"4","last_reported":1758128892,"current_range_meters":16000,"station_id":"","pricing_plan_id":"cebpf4jnsgd1na2vs0mg"},{"bike_id":"f686b32f-0a3c-4732-a2f2-3df8c0c22d86","system_id":"levelo_inurba_marseille","lat":43.24687,"lon":5.38158,"is_reserved":false,"is_disabled":false,"rental_uris":{"android":"levelo://app?vid=f686b32f-0a3c-4732-a2f2-3df8c0c22d86","ios":"levelo://app?vid=f686b32f-0a3c-4732-a2f2-3df8c0c22d86"},"vehicle_type_id":"4","last_reported":1758128892,"current_range_meters":16000,"station_id":"ce4bhih2rcd13ifvqfr0","pricing_plan_id":"cebpf4jnsgd1na2vs0mg"},{"bike_id":"4cfcc3c6-fa1d-413a-a656-63e6b1f566d4","system_id":"levelo_inurba_marseille","lat":43.29068,"lon":5.3715,"is_reserved":false,"is_disabled":false,"rental_uris":{"android":"levelo://app?vid=4cfcc3c6-fa1d-413a-a656-63e6b1f566d4","ios":"levelo://app?vid=4cfcc3c6-fa1d-413a-a656-63e6b1f566d4"},"vehicle_type_id":"4","last_reported":1758128892,"current_range_meters":16000,"station_id":"ce4bh5p2rcd13ifvqe4g","pricing_plan_id":"cebpf4jnsgd1na2vs0mg"},{"bike_id":"f152935d-f001-4f4a-bb2c-f9772cd279dd","system_id":"levelo_inurba_marseille","lat":43.28654,"lon":5.36355,"is_reserved":false,"is_disabled":false,"rental_uris":{"android":"levelo://app?vid=f152935d-f001-4f4a-bb2c-f9772cd279dd","ios":"levelo://app?vid=f152935d-f001-4f4a-bb2c-f9772cd279dd"},"vehicle_type_id":"4","last_reported":1758128892,"current_range_meters":16000,"station_id":"ce4bhah2rcd13ifvqej0","pricing_plan_id":"cebpf4jnsgd1na2vs0mg"},{"bike_id":"38f16850-97fc-4456-96e9-1adbf3fb6a25","system_id":"levelo_inurba_marseille","lat":43.22925,"lon":5.35385,"is_reserved":false,"is_disabled":false,"rental_uris":{"android":"levelo://app?vid=38f16850-97fc-4456-96e9-1adbf3fb6a25","ios":"levelo://app?vid=38f16850-97fc-4456-96e9-1adbf3fb6a25"},"vehicle_type_id":"4","last_reported":1758128892,"current_range_meters":16400,"station_id":"cpo3532slgdg3j2ikp40","pricing_plan_id":"cebpf4jnsgd1na2vs0mg"},{"bike_id":"03cbb016-3b2e-4728-9a21-257f9f7fe35c","system_id":"levelo_inurba_marseille","lat":43.25577,"lon":5.38251,"is_reserved":false,"is_disabled":false,"rental_uris":{"android":"levelo://app?vid=03cbb016-3b2e-4728-9a21-257f9f7fe35c","ios":"levelo://app?vid=03cbb016-3b2e-4728-9a21-257f9f7fe35c"},"vehicle_type_id":"4","last_reported":1758128892,"current_range_meters":16400,"station_id":"ce4bhih2rcd13ifvqfs0","pricing_plan_id":"cebpf4jnsgd1na2vs0mg"},{"bike_id":"cc0efac9-033f-49db-8300-a557764f479a","system_id":"levelo_inurba_marseille","lat":43.28607,"lon":5.35112,"is_reserved":false,"is_disabled":false,"rental_uris":{"android":"levelo://app?vid=cc0efac9-033f-49db-8300-a557764f479a","ios":"levelo://app?vid=cc0efac9-033f-49db-8300-a557764f479a"},"vehicle_type_id":"4","last_reported":1758128892,"current_range_meters":16400,"station_id":"ce4bhch2rcd13ifvqeug","pricing_plan_id":"cebpf4jnsgd1na2vs0mg"},{"bike_id":"3d158815-0ba1-449f-90dd-2b69cf190d13","system_id":"levelo_inurba_marseille","lat":43.32962,"lon":5.39265,"is_reserved":false,"is_disabled":false,"rental_uris":{"android":"levelo://app?vid=3d158815-0ba1-449f-90dd-2b69cf190d13","ios":"levelo://app?vid=3d158815-0ba1-449f-90dd-2b69cf190d13"},"vehicle_type_id":"4","last_reported":1758128892,"current_range_meters":16400,"station_id":"","pricing_plan_id":"cebpf4jnsgd1na2vs0mg"},{"bike_id":"9ac5c9a2-07a2-45dd-b91b-e1d06c89cb3e","system_id":"levelo_inurba_marseille","lat":43.30079,"lon":5.39084,"is_reserved":false,"is_disabled":false,"rental_uris":{"android":"levelo://app?vid=9ac5c9a2-07a2-45dd-b91b-e1d06c89cb3e","ios":"levelo://app?vid=9ac5c9a2-07a2-45dd-b91b-e1d06c89cb3e"},"vehicle_type_id":"4","last_reported":1758128892,"current_range_meters":16400,"station_id":"ce4bh192rcd13ifvqdb0","pricing_plan_id":"cebpf4jnsgd1na2vs0mg"},{"bike_id":"152b725d-6f61-44b0-bc66-f31437aa6fe9","system_id":"levelo_inurba_marseille","lat":43.22557,"lon":5.41624,"is_reserved":false,"is_disabled":false,"rental_uris":{"android":"levelo://app?vid=152b725d-6f61-44b0-bc66-f31437aa6fe9","ios":"levelo://app?vid=152b725d-6f61-44b0-bc66-f31437aa6fe9"},"vehicle_type_id":"4","last_reported":1758128892,"current_range_meters":16400,"station_id":"st_d2o4gvlbi1j2169b742g","pricing_plan_id":"cebpf4jnsgd1na2vs0mg"},{"bike_id":"9d181f5a-58ca-49a0-bbcc-8286d3ed3228","system_id":"levelo_inurba_marseille","lat":43.313691,"lon":5.383466,"is_reserved":false,"is_disabled":false,"rental_uris":{"android":"levelo://app?vid=9d181f5a-58ca-49a0-bbcc-8286d3ed3228","ios":"levelo://app?vid=9d181f5a-58ca-49a0-bbcc-8286d3ed3228"},"vehicle_type_id":"4","last_reported":1758128892,"current_range_meters":16400,"station_id":"","pricing_plan_id":"cebpf4jnsgd1na2vs0mg"},{"bike_id":"d1788760-0706-4b90-8999-db00a9e42210","system_id":"levelo_inurba_marseille","lat":43.32797,"lon":5.41011,"is_reserved":false,"is_disabled":false,"rental_uris":{"android":"levelo://app?vid=d1788760-0706-4b90-8999-db00a9e42210","ios":"levelo://app?vid=d1788760-0706-4b90-8999-db00a9e42210"},"vehicle_type_id":"4","last_reported":1758128892,"current_range_meters":16400,"station_id":"","pricing_plan_id":"cebpf4jnsgd1na2vs0mg"},{"bike_id":"436af588-4a80-4e4a-9706-ac3bde17c992","system_id":"levelo_inurba_marseille","lat":43.26484,"lon":5.39548,"is_reserved":false,"is_disabled":false,"rental_uris":{"android":"levelo://app?vid=436af588-4a80-4e4a-9706-ac3bde17c992","ios":"levelo://app?vid=436af588-4a80-4e4a-9706-ac3bde17c992"},"vehicle_type_id":"4","last_reported":1758128892,"current_range_meters":16400,"station_id":"ce4bhi12rcd13ifvqfq0","pricing_plan_id":"cebpf4jnsgd1na2vs0mg"},{"bike_id":"4e6f9d08-fb5c-42d2-a817-8c4ec2eafe7a","system_id":"levelo_inurba_marseille","lat":43.29299,"lon":5.37157,"is_reserved":false,"is_disabled":false,"rental_uris":{"android":"levelo://app?vid=4e6f9d08-fb5c-42d2-a817-8c4ec2eafe7a","ios":"levelo://app?vid=4e6f9d08-fb5c-42d2-a817-8c4ec2eafe7a"},"vehicle_type_id":"4","last_reported":1758128892,"current_range_meters":16400,"station_id":"","pricing_plan_id":"cebpf4jnsgd1na2vs0mg"},{"bike_id":"02d8a8d7-406d-4a55-ba4d-c36779d2ad4e","system_id":"levelo_inurba_marseille","lat":43.27072,"lon":5.42284,"is_reserved":false,"is_disabled":false,"rental_uris":{"android":"levelo://app?vid=02d8a8d7-406d-4a55-ba4d-c36779d2ad4e","ios":"levelo://app?vid=02d8a8d7-406d-4a55-ba4d-c36779d2ad4e"},"vehicle_type_id":"4","last_reported":1758128892,"current_range_meters":16800,"station_id":"ce4bhk92rcd13ifvqgb0","pricing_plan_id":"cebpf4jnsgd1na2vs0mg"},{"bike_id":"0b36f9e4-cc3c-4ffd-8e95-db0f265344c7","system_id":"levelo_inurba_marseille","lat":43.30781,"lon":5.37647,"is_reserved":false,"is_disabled":false,"rental_uris":{"android":"levelo://app?vid=0b36f9e4-cc3c-4ffd-8e95-db0f265344c7","ios":"levelo://app?vid=0b36f9e4-cc3c-4ffd-8e95-db0f265344c7"},"vehicle_type_id":"4","last_reported":1758128892,"current_range_meters":16400,"station_id":"ce4bgv92rcd13ifvqcq0","pricing_plan_id":"cebpf4jnsgd1na2vs0mg"},{"bike_id":"84909a53-7cee-4dda-aefc-0cfd0ab4f8b1","system_id":"levelo_inurba_marseille","lat":43.21178,"lon":5.35077,"is_reserved":false,"is_disabled":false,"rental_uris":{"android":"levelo://app?vid=84909a53-7cee-4dda-aefc-0cfd0ab4f8b1","ios":"levelo://app?vid=84909a53-7cee-4dda-aefc-0cfd0ab4f8b1"},"vehicle_type_id":"4","last_reported":1758128892,"current_range_meters":16800,"station_id":"st_cvj6sg6p6f1abm77japg","pricing_plan_id":"cebpf4jnsgd1na2vs0mg"},{"bike_id":"9026a71d-7719-46b4-8409-fcaf98f4294f","system_id":"levelo_inurba_marseille","lat":43.29275,"lon":5.3684,"is_reserved":false,"is_disabled":false,"rental_uris":{"android":"levelo://app?vid=9026a71d-7719-46b4-8409-fcaf98f4294f","ios":"levelo://app?vid=9026a71d-7719-46b4-8409-fcaf98f4294f"},"vehicle_type_id":"4","last_reported":1758128892,"current_range_meters":16800,"station_id":"ce4bhbp2rcd13ifvqesg","pricing_plan_id":"cebpf4jnsgd1na2vs0mg"},{"bike_id":"9038a40a-c064-4893-88c7-a74d2d8a4d4b","system_id":"levelo_inurba_marseille","lat":43.30584,"lon":5.39359,"is_reserved":false,"is_disabled":false,"rental_uris":{"android":"levelo://app?vid=9038a40a-c064-4893-88c7-a74d2d8a4d4b","ios":"levelo://app?vid=9038a40a-c064-4893-88c7-a74d2d8a4d4b"},"vehicle_type_id":"4","last_reported":1758128892,"current_range_meters":16800,"station_id":"ce4bh0p2rcd13ifvqd80","pricing_plan_id":"cebpf4jnsgd1na2vs0mg"},{"bike_id":"387c8295-5c1a-4e62-91c6-560b703e4279","system_id":"levelo_inurba_marseille","lat":43.32441,"lon":5.42688,"is_reserved":false,"is_disabled":false,"rental_uris":{"android":"levelo://app?vid=387c8295-5c1a-4e62-91c6-560b703e4279","ios":"levelo://app?vid=387c8295-5c1a-4e62-91c6-560b703e4279"},"vehicle_type_id":"4","last_reported":1758128892,"current_range_meters":16800,"station_id":"","pricing_plan_id":"cebpf4jnsgd1na2vs0mg"},{"bike_id":"87696298-b72a-4995-b992-c24e60630494","system_id":"levelo_inurba_marseille","lat":43.31882,"lon":5.4074,"is_reserved":false,"is_disabled":false,"rental_uris":{"android":"levelo://app?vid=87696298-b72a-4995-b992-c24e60630494","ios":"levelo://app?vid=87696298-b72a-4995-b992-c24e60630494"},"vehicle_type_id":"4","last_reported":1758128892,"current_range_meters":16800,"station_id":"ce4bhq12rcd13ifvqhig","pricing_plan_id":"cebpf4jnsgd1na2vs0mg"},{"bike_id":"05af31a1-17db-42ba-b48b-e91a0756a9a2","system_id":"levelo_inurba_marseille","lat":43.31343,"lon":5.36725,"is_reserved":false,"is_disabled":false,"rental_uris":{"android":"levelo://app?vid=05af31a1-17db-42ba-b48b-e91a0756a9a2","ios":"levelo://app?vid=05af31a1-17db-42ba-b48b-e91a0756a9a2"},"vehicle_type_id":"4","last_reported":1758128892,"current_range_meters":17200,"station_id":"ce4bgr92rcd13ifvqc6g","pricing_plan_id":"cebpf4jnsgd1na2vs0mg"},{"bike_id":"f427d83b-8f54-4f25-b005-8222cae1d109","system_id":"levelo_inurba_marseille","lat":43.26059,"lon":5.394,"is_reserved":false,"is_disabled":false,"rental_uris":{"android":"levelo://app?vid=f427d83b-8f54-4f25-b005-8222cae1d109","ios":"levelo://app?vid=f427d83b-8f54-4f25-b005-8222cae1d109"},"vehicle_type_id":"4","last_reported":1758128892,"current_range_meters":17200,"station_id":"ce4bhh92rcd13ifvqfj0","pricing_plan_id":"cebpf4jnsgd1na2vs0mg"},{"bike_id":"664b0ab4-8df2-424e-81c4-6ea00926ed91","system_id":"levelo_inurba_marseille","lat":43.26557,"lon":5.39012,"is_reserved":false,"is_disabled":false,"rental_uris":{"android":"levelo://app?vid=664b0ab4-8df2-424e-81c4-6ea00926ed91","ios":"levelo://app?vid=664b0ab4-8df2-424e-81c4-6ea00926ed91"},"vehicle_type_id":"4","last_reported":1758128892,"current_range_meters":17200,"station_id":"ce4bhe12rcd13ifvqf30","pricing_plan_id":"cebpf4jnsgd1na2vs0mg"},{"bike_id":"cf66592a-d8fa-4c6c-9927-5d7a9fef5026","system_id":"levelo_inurba_marseille","lat":43.26266,"lon":5.39828,"is_reserved":false,"is_disabled":false,"rental_uris":{"android":"levelo://app?vid=cf66592a-d8fa-4c6c-9927-5d7a9fef5026","ios":"levelo://app?vid=cf66592a-d8fa-4c6c-9927-5d7a9fef5026"},"vehicle_type_id":"4","last_reported":1758128892,"current_range_meters":17200,"station_id":"","pricing_plan_id":"cebpf4jnsgd1na2vs0mg"},{"bike_id":"64d7a212-b295-4b69-8ba1-05a039a2ce89","system_id":"levelo_inurba_marseille","lat":43.243065,"lon":5.375261,"is_reserved":false,"is_disabled":false,"rental_uris":{"android":"levelo://app?vid=64d7a212-b295-4b69-8ba1-05a039a2ce89","ios":"levelo://app?vid=64d7a212-b295-4b69-8ba1-05a039a2ce89"},"vehicle_type_id":"4","last_reported":1758128892,"current_range_meters":17200,"station_id":"","pricing_plan_id":"cebpf4jnsgd1na2vs0mg"},{"bike_id":"d5ef4400-d75e-4b6a-9ac5-d84bbc43a835","system_id":"levelo_inurba_marseille","lat":43.3188,"lon":5.40733,"is_reserved":false,"is_disabled":false,"rental_uris":{"android":"levelo://app?vid=d5ef4400-d75e-4b6a-9ac5-d84bbc43a835","ios":"levelo://app?vid=d5ef4400-d75e-4b6a-9ac5-d84bbc43a835"},"vehicle_type_id":"4","last_reported":1758128892,"current_range_meters":17200,"station_id":"ce4bhq12rcd13ifvqhig","pricing_plan_id":"cebpf4jnsgd1na2vs0mg"},{"bike_id":"0609b588-e68f-4395-bb7a-acadd140d875","system_id":"levelo_inurba_marseille","lat":43.21175,"lon":5.35082,"is_reserved":false,"is_disabled":false,"rental_uris":{"android":"levelo://app?vid=0609b588-e68f-4395-bb7a-acadd140d875","ios":"levelo://app?vid=0609b588-e68f-4395-bb7a-acadd140d875"},"vehicle_type_id":"4","last_reported":1758128892,"current_range_meters":17200,"station_id":"st_cvj6sg6p6f1abm77japg","pricing_plan_id":"cebpf4jnsgd1na2vs0mg"},{"bike_id":"3e05f3ed-8e5b-42af-9ba3-918515acc360","system_id":"levelo_inurba_marseille","lat":43.22935,"lon":5.35383,"is_reserved":false,"is_disabled":false,"rental_uris":{"android":"levelo://app?vid=3e05f3ed-8e5b-42af-9ba3-918515acc360","ios":"levelo://app?vid=3e05f3ed-8e5b-42af-9ba3-918515acc360"},"vehicle_type_id":"4","last_reported":1758128892,"current_range_meters":17600,"station_id":"cpo3532slgdg3j2ikp40","pricing_plan_id":"cebpf4jnsgd1na2vs0mg"},{"bike_id":"88f11f63-8f16-47c6-a875-8ee50a1d52c2","system_id":"levelo_inurba_marseille","lat":43.25498,"lon":5.37656,"is_reserved":false,"is_disabled":false,"rental_uris":{"android":"levelo://app?vid=88f11f63-8f16-47c6-a875-8ee50a1d52c2","ios":"levelo://app?vid=88f11f63-8f16-47c6-a875-8ee50a1d52c2"},"vehicle_type_id":"4","last_reported":1758128892,"current_range_meters":17600,"station_id":"ce4bhh12rcd13ifvqff0","pricing_plan_id":"cebpf4jnsgd1na2vs0mg"},{"bike_id":"162dbf71-41d9-4795-a794-84df6b34b338","system_id":"levelo_inurba_marseille","lat":43.30797,"lon":5.43523,"is_reserved":false,"is_disabled":false,"rental_uris":{"android":"levelo://app?vid=162dbf71-41d9-4795-a794-84df6b34b338","ios":"levelo://app?vid=162dbf71-41d9-4795-a794-84df6b34b338"},"vehicle_type_id":"4","last_reported":1758128892,"current_range_meters":17600,"station_id":"ce4bhph2rcd13ifvqheg","pricing_plan_id":"cebpf4jnsgd1na2vs0mg"},{"bike_id":"d85ecf7d-feeb-4baf-bca7-9de1a96cd71b","system_id":"levelo_inurba_marseille","lat":43.28662,"lon":5.36352,"is_reserved":false,"is_disabled":false,"rental_uris":{"android":"levelo://app?vid=d85ecf7d-feeb-4baf-bca7-9de1a96cd71b","ios":"levelo://app?vid=d85ecf7d-feeb-4baf-bca7-9de1a96cd71b"},"vehicle_type_id":"4","last_reported":1758128892,"current_range_meters":17600,"station_id":"ce4bhah2rcd13ifvqej0","pricing_plan_id":"cebpf4jnsgd1na2vs0mg"},{"bike_id":"e37bbf05-7111-446c-9a71-36af190b151e","system_id":"levelo_inurba_marseille","lat":43.2293,"lon":5.35386,"is_reserved":false,"is_disabled":false,"rental_uris":{"android":"levelo://app?vid=e37bbf05-7111-446c-9a71-36af190b151e","ios":"levelo://app?vid=e37bbf05-7111-446c-9a71-36af190b151e"},"vehicle_type_id":"4","last_reported":1758128892,"current_range_meters":18000,"station_id":"cpo3532slgdg3j2ikp40","pricing_plan_id":"cebpf4jnsgd1na2vs0mg"},{"bike_id":"80a9a218-f77f-42ce-8136-b0dceb9fc366","system_id":"levelo_inurba_marseille","lat":43.267867,"lon":5.394102,"is_reserved":false,"is_disabled":true,"rental_uris":{"android":"levelo://app?vid=80a9a218-f77f-42ce-8136-b0dceb9fc366","ios":"levelo://app?vid=80a9a218-f77f-42ce-8136-b0dceb9fc366"},"vehicle_type_id":"4","last_reported":1758128892,"current_range_meters":18000,"station_id":"ce4bhh12rcd13ifvqfg0","pricing_plan_id":"cebpf4jnsgd1na2vs0mg"},{"bike_id":"8f7d2e19-426b-407c-95b2-3faf4e62e366","system_id":"levelo_inurba_marseille","lat":43.27053,"lon":5.42293,"is_reserved":false,"is_disabled":false,"rental_uris":{"android":"levelo://app?vid=8f7d2e19-426b-407c-95b2-3faf4e62e366","ios":"levelo://app?vid=8f7d2e19-426b-407c-95b2-3faf4e62e366"},"vehicle_type_id":"4","last_reported":1758128892,"current_range_meters":18000,"station_id":"ce4bhk92rcd13ifvqgb0","pricing_plan_id":"cebpf4jnsgd1na2vs0mg"},{"bike_id":"0d5fabfd-53c1-4037-816b-fb24a4ea37c0","system_id":"levelo_inurba_marseille","lat":43.293,"lon":5.37185,"is_reserved":false,"is_disabled":false,"rental_uris":{"android":"levelo://app?vid=0d5fabfd-53c1-4037-816b-fb24a4ea37c0","ios":"levelo://app?vid=0d5fabfd-53c1-4037-816b-fb24a4ea37c0"},"vehicle_type_id":"4","last_reported":1758128892,"current_range_meters":18000,"station_id":"","pricing_plan_id":"cebpf4jnsgd1na2vs0mg"},{"bike_id":"8b911268-c055-48aa-a297-584fd3a9cf6e","system_id":"levelo_inurba_marseille","lat":43.28416,"lon":5.34985,"is_reserved":false,"is_disabled":true,"rental_uris":{"android":"levelo://app?vid=8b911268-c055-48aa-a297-584fd3a9cf6e","ios":"levelo://app?vid=8b911268-c055-48aa-a297-584fd3a9cf6e"},"vehicle_type_id":"4","last_reported":1758128892,"current_range_meters":18000,"station_id":"ce4bhbh2rcd13ifvqepg","pricing_plan_id":"cebpf4jnsgd1na2vs0mg"},{"bike_id":"20954a45-554e-4c40-87df-cc7814ee02b0","system_id":"levelo_inurba_marseille","lat":43.29956,"lon":5.38517,"is_reserved":false,"is_disabled":false,"rental_uris":{"android":"levelo://app?vid=20954a45-554e-4c40-87df-cc7814ee02b0","ios":"levelo://app?vid=20954a45-554e-4c40-87df-cc7814ee02b0"},"vehicle_type_id":"4","last_reported":1758128892,"current_range_meters":18000,"station_id":"","pricing_plan_id":"cebpf4jnsgd1na2vs0mg"},{"bike_id":"381dc4d2-967d-4952-9fdf-7073dded82a7","system_id":"levelo_inurba_marseille","lat":43.22937,"lon":5.35382,"is_reserved":false,"is_disabled":false,"rental_uris":{"android":"levelo://app?vid=381dc4d2-967d-4952-9fdf-7073dded82a7","ios":"levelo://app?vid=381dc4d2-967d-4952-9fdf-7073dded82a7"},"vehicle_type_id":"4","last_reported":1758128892,"current_range_meters":18000,"station_id":"cpo3532slgdg3j2ikp40","pricing_plan_id":"cebpf4jnsgd1na2vs0mg"},{"bike_id":"6bf10f5e-6466-4456-8a72-122be6d146d2","system_id":"levelo_inurba_marseille","lat":43.33022,"lon":5.39045,"is_reserved":false,"is_disabled":false,"rental_uris":{"android":"levelo://app?vid=6bf10f5e-6466-4456-8a72-122be6d146d2","ios":"levelo://app?vid=6bf10f5e-6466-4456-8a72-122be6d146d2"},"vehicle_type_id":"4","last_reported":1758128892,"current_range_meters":18000,"station_id":"ce4bhr92rcd13ifvqhrg","pricing_plan_id":"cebpf4jnsgd1na2vs0mg"},{"bike_id":"42323a1a-489c-43cb-90ae-c675b27444d5","system_id":"levelo_inurba_marseille","lat":43.21646,"lon":5.3437,"is_reserved":false,"is_disabled":false,"rental_uris":{"android":"levelo://app?vid=42323a1a-489c-43cb-90ae-c675b27444d5","ios":"levelo://app?vid=42323a1a-489c-43cb-90ae-c675b27444d5"},"vehicle_type_id":"4","last_reported":1758128892,"current_range_meters":18000,"station_id":"","pricing_plan_id":"cebpf4jnsgd1na2vs0mg"},{"bike_id":"40495e59-b743-486e-987c-cb0c3ab2f191","system_id":"levelo_inurba_marseille","lat":43.332,"lon":5.41075,"is_reserved":false,"is_disabled":false,"rental_uris":{"android":"levelo://app?vid=40495e59-b743-486e-987c-cb0c3ab2f191","ios":"levelo://app?vid=40495e59-b743-486e-987c-cb0c3ab2f191"},"vehicle_type_id":"4","last_reported":1758128892,"current_range_meters":18000,"station_id":"","pricing_plan_id":"cebpf4jnsgd1na2vs0mg"},{"bike_id":"be9ee84b-9ec1-497c-800c-5907ad1418ae","system_id":"levelo_inurba_marseille","lat":43.22567,"lon":5.41638,"is_reserved":false,"is_disabled":false,"rental_uris":{"android":"levelo://app?vid=be9ee84b-9ec1-497c-800c-5907ad1418ae","ios":"levelo://app?vid=be9ee84b-9ec1-497c-800c-5907ad1418ae"},"vehicle_type_id":"4","last_reported":1758128892,"current_range_meters":18000,"station_id":"st_d2o4gvlbi1j2169b742g","pricing_plan_id":"cebpf4jnsgd1na2vs0mg"},{"bike_id":"11242f84-33eb-4260-be8d-35f97ecc0053","system_id":"levelo_inurba_marseille","lat":43.23182,"lon":5.39986,"is_reserved":false,"is_disabled":false,"rental_uris":{"android":"levelo://app?vid=11242f84-33eb-4260-be8d-35f97ecc0053","ios":"levelo://app?vid=11242f84-33eb-4260-be8d-35f97ecc0053"},"vehicle_type_id":"4","last_reported":1758128892,"current_range_meters":17600,"station_id":"ce4bhn12rcd13ifvqgqg","pricing_plan_id":"cebpf4jnsgd1na2vs0mg"},{"bike_id":"c7b0d98e-c4d7-47b9-9c9e-64a79005411d","system_id":"levelo_inurba_marseille","lat":43.299689,"lon":5.371821,"is_reserved":false,"is_disabled":false,"rental_uris":{"android":"levelo://app?vid=c7b0d98e-c4d7-47b9-9c9e-64a79005411d","ios":"levelo://app?vid=c7b0d98e-c4d7-47b9-9c9e-64a79005411d"},"vehicle_type_id":"4","last_reported":1758128892,"current_range_meters":18000,"station_id":"ce4bgr92rcd13ifvqc7g","pricing_plan_id":"cebpf4jnsgd1na2vs0mg"},{"bike_id":"94e14bb1-38a9-49b9-a864-24073e63e762","system_id":"levelo_inurba_marseille","lat":43.28001,"lon":5.41668,"is_reserved":false,"is_disabled":false,"rental_uris":{"android":"levelo://app?vid=94e14bb1-38a9-49b9-a864-24073e63e762","ios":"levelo://app?vid=94e14bb1-38a9-49b9-a864-24073e63e762"},"vehicle_type_id":"4","last_reported":1758128892,"current_range_meters":18800,"station_id":"ce4bho12rcd13ifvqh1g","pricing_plan_id":"cebpf4jnsgd1na2vs0mg"},{"bike_id":"17e32bd2-1c59-42b3-819b-651708de8579","system_id":"levelo_inurba_marseille","lat":43.283496,"lon":5.381023,"is_reserved":false,"is_disabled":true,"rental_uris":{"android":"levelo://app?vid=17e32bd2-1c59-42b3-819b-651708de8579","ios":"levelo://app?vid=17e32bd2-1c59-42b3-819b-651708de8579"},"vehicle_type_id":"4","last_reported":1758128892,"current_range_meters":18800,"station_id":"","pricing_plan_id":"cebpf4jnsgd1na2vs0mg"},{"bike_id":"d93f6aec-282b-42a6-9be0-fe23bad38a2b","system_id":"levelo_inurba_marseille","lat":43.24691,"lon":5.43142,"is_reserved":false,"is_disabled":true,"rental_uris":{"android":"levelo://app?vid=d93f6aec-282b-42a6-9be0-fe23bad38a2b","ios":"levelo://app?vid=d93f6aec-282b-42a6-9be0-fe23bad38a2b"},"vehicle_type_id":"4","last_reported":1758128892,"current_range_meters":19200,"station_id":"st_d2m6c4gdas8pm72e190g","pricing_plan_id":"cebpf4jnsgd1na2vs0mg"},{"bike_id":"a4faa1fd-62ee-404a-aff8-b79ea6b6b5d2","system_id":"levelo_inurba_marseille","lat":43.32986,"lon":5.39245,"is_reserved":false,"is_disabled":false,"rental_uris":{"android":"levelo://app?vid=a4faa1fd-62ee-404a-aff8-b79ea6b6b5d2","ios":"levelo://app?vid=a4faa1fd-62ee-404a-aff8-b79ea6b6b5d2"},"vehicle_type_id":"4","last_reported":1758128892,"current_range_meters":18800,"station_id":"","pricing_plan_id":"cebpf4jnsgd1na2vs0mg"},{"bike_id":"6efe362c-e672-428f-bfab-6d0af2ee7fc5","system_id":"levelo_inurba_marseille","lat":43.293082,"lon":5.371772,"is_reserved":false,"is_disabled":false,"rental_uris":{"android":"levelo://app?vid=6efe362c-e672-428f-bfab-6d0af2ee7fc5","ios":"levelo://app?vid=6efe362c-e672-428f-bfab-6d0af2ee7fc5"},"vehicle_type_id":"4","last_reported":1758128892,"current_range_meters":18800,"station_id":"","pricing_plan_id":"cebpf4jnsgd1na2vs0mg"},{"bike_id":"d9f0ae84-d732-44f5-b420-064e325a0d60","system_id":"levelo_inurba_marseille","lat":43.320183,"lon":5.381343,"is_reserved":false,"is_disabled":false,"rental_uris":{"android":"levelo://app?vid=d9f0ae84-d732-44f5-b420-064e325a0d60","ios":"levelo://app?vid=d9f0ae84-d732-44f5-b420-064e325a0d60"},"vehicle_type_id":"4","last_reported":1758128892,"current_range_meters":18800,"station_id":"","pricing_plan_id":"cebpf4jnsgd1na2vs0mg"},{"bike_id":"fa0847a4-8d8b-47a2-9c0d-c16fe7a48c9b","system_id":"levelo_inurba_marseille","lat":43.330285,"lon":5.390556,"is_reserved":false,"is_disabled":false,"rental_uris":{"android":"levelo://app?vid=fa0847a4-8d8b-47a2-9c0d-c16fe7a48c9b","ios":"levelo://app?vid=fa0847a4-8d8b-47a2-9c0d-c16fe7a48c9b"},"vehicle_type_id":"4","last_reported":1758128892,"current_range_meters":18800,"station_id":"","pricing_plan_id":"cebpf4jnsgd1na2vs0mg"},{"bike_id":"320a3a0c-6e5c-4c9f-830c-554c6cb8e733","system_id":"levelo_inurba_marseille","lat":43.29516,"lon":5.39031,"is_reserved":false,"is_disabled":false,"rental_uris":{"android":"levelo://app?vid=320a3a0c-6e5c-4c9f-830c-554c6cb8e733","ios":"levelo://app?vid=320a3a0c-6e5c-4c9f-830c-554c6cb8e733"},"vehicle_type_id":"4","last_reported":1758128892,"current_range_meters":18800,"station_id":"ce4bh3p2rcd13ifvqdp0","pricing_plan_id":"cebpf4jnsgd1na2vs0mg"},{"bike_id":"6499745b-7b8b-4d81-afa4-ba9c05652a7b","system_id":"levelo_inurba_marseille","lat":43.28568,"lon":5.37774,"is_reserved":false,"is_disabled":false,"rental_uris":{"android":"levelo://app?vid=6499745b-7b8b-4d81-afa4-ba9c05652a7b","ios":"levelo://app?vid=6499745b-7b8b-4d81-afa4-ba9c05652a7b"},"vehicle_type_id":"4","last_reported":1758128892,"current_range_meters":18800,"station_id":"","pricing_plan_id":"cebpf4jnsgd1na2vs0mg"},{"bike_id":"e1f51025-1404-4cca-96b7-273119670d5f","system_id":"levelo_inurba_marseille","lat":43.25283,"lon":5.42789,"is_reserved":false,"is_disabled":false,"rental_uris":{"android":"levelo://app?vid=e1f51025-1404-4cca-96b7-273119670d5f","ios":"levelo://app?vid=e1f51025-1404-4cca-96b7-273119670d5f"},"vehicle_type_id":"4","last_reported":1758128892,"current_range_meters":18800,"station_id":"","pricing_plan_id":"cebpf4jnsgd1na2vs0mg"},{"bike_id":"adf19941-6925-49e3-b023-4f911ffc887f","system_id":"levelo_inurba_marseille","lat":43.32352,"lon":5.3675,"is_reserved":false,"is_disabled":true,"rental_uris":{"android":"levelo://app?vid=adf19941-6925-49e3-b023-4f911ffc887f","ios":"levelo://app?vid=adf19941-6925-49e3-b023-4f911ffc887f"},"vehicle_type_id":"4","last_reported":1758128892,"current_range_meters":18800,"station_id":"ce4bhsh2rcd13ifvqi2g","pricing_plan_id":"cebpf4jnsgd1na2vs0mg"},{"bike_id":"877a32bc-abc2-4a83-ab38-1772d0fbf732","system_id":"levelo_inurba_marseille","lat":43.28117,"lon":5.35013,"is_reserved":false,"is_disabled":false,"rental_uris":{"android":"levelo://app?vid=877a32bc-abc2-4a83-ab38-1772d0fbf732","ios":"levelo://app?vid=877a32bc-abc2-4a83-ab38-1772d0fbf732"},"vehicle_type_id":"4","last_reported":1758128892,"current_range_meters":18800,"station_id":"","pricing_plan_id":"cebpf4jnsgd1na2vs0mg"},{"bike_id":"0a68362e-f5d3-40c2-8eb6-58b476c1e495","system_id":"levelo_inurba_marseille","lat":43.27756,"lon":5.41014,"is_reserved":false,"is_disabled":false,"rental_uris":{"android":"levelo://app?vid=0a68362e-f5d3-40c2-8eb6-58b476c1e495","ios":"levelo://app?vid=0a68362e-f5d3-40c2-8eb6-58b476c1e495"},"vehicle_type_id":"4","last_reported":1758128892,"current_range_meters":19200,"station_id":"","pricing_plan_id":"cebpf4jnsgd1na2vs0mg"},{"bike_id":"e4881828-ed9f-47f4-8188-6bbadd393cd9","system_id":"levelo_inurba_marseille","lat":43.26787,"lon":5.39411,"is_reserved":false,"is_disabled":false,"rental_uris":{"android":"levelo://app?vid=e4881828-ed9f-47f4-8188-6bbadd393cd9","ios":"levelo://app?vid=e4881828-ed9f-47f4-8188-6bbadd393cd9"},"vehicle_type_id":"4","last_reported":1758128892,"current_range_meters":19200,"station_id":"ce4bhh12rcd13ifvqfg0","pricing_plan_id":"cebpf4jnsgd1na2vs0mg"},{"bike_id":"7a302ff7-7e5a-4aa3-98e7-f9d5c73bc115","system_id":"levelo_inurba_marseille","lat":43.27565,"lon":5.3843,"is_reserved":false,"is_disabled":false,"rental_uris":{"android":"levelo://app?vid=7a302ff7-7e5a-4aa3-98e7-f9d5c73bc115","ios":"levelo://app?vid=7a302ff7-7e5a-4aa3-98e7-f9d5c73bc115"},"vehicle_type_id":"4","last_reported":1758128892,"current_range_meters":19200,"station_id":"ce4bhh92rcd13ifvqfi0","pricing_plan_id":"cebpf4jnsgd1na2vs0mg"},{"bike_id":"acfec73f-5435-48eb-a869-eeb3dc5252c8","system_id":"levelo_inurba_marseille","lat":43.31297,"lon":5.37867,"is_reserved":false,"is_disabled":false,"rental_uris":{"android":"levelo://app?vid=acfec73f-5435-48eb-a869-eeb3dc5252c8","ios":"levelo://app?vid=acfec73f-5435-48eb-a869-eeb3dc5252c8"},"vehicle_type_id":"4","last_reported":1758128892,"current_range_meters":19200,"station_id":"","pricing_plan_id":"cebpf4jnsgd1na2vs0mg"},{"bike_id":"4ff73223-310e-4441-8c6c-f65e6ef0f0b0","system_id":"levelo_inurba_marseille","lat":43.29961,"lon":5.38497,"is_reserved":false,"is_disabled":false,"rental_uris":{"android":"levelo://app?vid=4ff73223-310e-4441-8c6c-f65e6ef0f0b0","ios":"levelo://app?vid=4ff73223-310e-4441-8c6c-f65e6ef0f0b0"},"vehicle_type_id":"4","last_reported":1758128892,"current_range_meters":19600,"station_id":"ce4bgj92rcd13ifvqbd0","pricing_plan_id":"cebpf4jnsgd1na2vs0mg"},{"bike_id":"2629186d-091d-4262-b45e-1bc42bdd62e9","system_id":"levelo_inurba_marseille","lat":43.29092,"lon":5.38163,"is_reserved":false,"is_disabled":true,"rental_uris":{"android":"levelo://app?vid=2629186d-091d-4262-b45e-1bc42bdd62e9","ios":"levelo://app?vid=2629186d-091d-4262-b45e-1bc42bdd62e9"},"vehicle_type_id":"4","last_reported":1758128892,"current_range_meters":19600,"station_id":"ce4bh512rcd13ifvqe2g","pricing_plan_id":"cebpf4jnsgd1na2vs0mg"},{"bike_id":"8c28d726-40ee-44cb-871f-c030e17382ee","system_id":"levelo_inurba_marseille","lat":43.29315,"lon":5.37148,"is_reserved":false,"is_disabled":false,"rental_uris":{"android":"levelo://app?vid=8c28d726-40ee-44cb-871f-c030e17382ee","ios":"levelo://app?vid=8c28d726-40ee-44cb-871f-c030e17382ee"},"vehicle_type_id":"4","last_reported":1758128892,"current_range_meters":19600,"station_id":"","pricing_plan_id":"cebpf4jnsgd1na2vs0mg"},{"bike_id":"248b4cc6-04fe-491c-b86e-65e8a97a5dfc","system_id":"levelo_inurba_marseille","lat":43.32335,"lon":5.4062,"is_reserved":false,"is_disabled":false,"rental_uris":{"android":"levelo://app?vid=248b4cc6-04fe-491c-b86e-65e8a97a5dfc","ios":"levelo://app?vid=248b4cc6-04fe-491c-b86e-65e8a97a5dfc"},"vehicle_type_id":"4","last_reported":1758128892,"current_range_meters":19600,"station_id":"ce4bhq92rcd13ifvqhjg","pricing_plan_id":"cebpf4jnsgd1na2vs0mg"},{"bike_id":"bd185fbb-729f-4221-8aa9-562ca885c1f5","system_id":"levelo_inurba_marseille","lat":43.22562,"lon":5.41628,"is_reserved":false,"is_disabled":false,"rental_uris":{"android":"levelo://app?vid=bd185fbb-729f-4221-8aa9-562ca885c1f5","ios":"levelo://app?vid=bd185fbb-729f-4221-8aa9-562ca885c1f5"},"vehicle_type_id":"4","last_reported":1758128892,"current_range_meters":19600,"station_id":"st_d2o4gvlbi1j2169b742g","pricing_plan_id":"cebpf4jnsgd1na2vs0mg"},{"bike_id":"3dd99c0e-0339-45f9-9258-b270a016d2b9","system_id":"levelo_inurba_marseille","lat":43.291893,"lon":5.357539,"is_reserved":false,"is_disabled":false,"rental_uris":{"android":"levelo://app?vid=3dd99c0e-0339-45f9-9258-b270a016d2b9","ios":"levelo://app?vid=3dd99c0e-0339-45f9-9258-b270a016d2b9"},"vehicle_type_id":"4","last_reported":1758128892,"current_range_meters":20000,"station_id":"ce4bhb12rcd13ifvqel0","pricing_plan_id":"cebpf4jnsgd1na2vs0mg"},{"bike_id":"45f6ceba-3123-4bb2-a6a1-083f1e953c55","system_id":"levelo_inurba_marseille","lat":43.30797,"lon":5.43525,"is_reserved":false,"is_disabled":false,"rental_uris":{"android":"levelo://app?vid=45f6ceba-3123-4bb2-a6a1-083f1e953c55","ios":"levelo://app?vid=45f6ceba-3123-4bb2-a6a1-083f1e953c55"},"vehicle_type_id":"4","last_reported":1758128892,"current_range_meters":20000,"station_id":"ce4bhph2rcd13ifvqheg","pricing_plan_id":"cebpf4jnsgd1na2vs0mg"},{"bike_id":"c07e42d2-80d8-45c4-b9a3-72a0fa64cc4c","system_id":"levelo_inurba_marseille","lat":43.2903,"lon":5.3756,"is_reserved":false,"is_disabled":false,"rental_uris":{"android":"levelo://app?vid=c07e42d2-80d8-45c4-b9a3-72a0fa64cc4c","ios":"levelo://app?vid=c07e42d2-80d8-45c4-b9a3-72a0fa64cc4c"},"vehicle_type_id":"4","last_reported":1758128892,"current_range_meters":20000,"station_id":"ce4bh692rcd13ifvqe90","pricing_plan_id":"cebpf4jnsgd1na2vs0mg"},{"bike_id":"d9313b81-50d0-4ff0-aa87-c001b9db185e","system_id":"levelo_inurba_marseille","lat":43.30121,"lon":5.39855,"is_reserved":false,"is_disabled":false,"rental_uris":{"android":"levelo://app?vid=d9313b81-50d0-4ff0-aa87-c001b9db185e","ios":"levelo://app?vid=d9313b81-50d0-4ff0-aa87-c001b9db185e"},"vehicle_type_id":"4","last_reported":1758128892,"current_range_meters":20000,"station_id":"ce4bh0h2rcd13ifvqd40","pricing_plan_id":"cebpf4jnsgd1na2vs0mg"},{"bike_id":"f9418cc9-c64d-43d9-9060-3aeedd69cdee","system_id":"levelo_inurba_marseille","lat":43.33069,"lon":5.37844,"is_reserved":false,"is_disabled":false,"rental_uris":{"android":"levelo://app?vid=f9418cc9-c64d-43d9-9060-3aeedd69cdee","ios":"levelo://app?vid=f9418cc9-c64d-43d9-9060-3aeedd69cdee"},"vehicle_type_id":"4","last_reported":1758128892,"current_range_meters":20000,"station_id":"","pricing_plan_id":"cebpf4jnsgd1na2vs0mg"},{"bike_id":"eef07bdc-2592-47ec-b693-e0c4be9c19ff","system_id":"levelo_inurba_marseille","lat":43.258198,"lon":5.39441,"is_reserved":false,"is_disabled":false,"rental_uris":{"android":"levelo://app?vid=eef07bdc-2592-47ec-b693-e0c4be9c19ff","ios":"levelo://app?vid=eef07bdc-2592-47ec-b693-e0c4be9c19ff"},"vehicle_type_id":"4","last_reported":1758128892,"current_range_meters":20400,"station_id":"","pricing_plan_id":"cebpf4jnsgd1na2vs0mg"},{"bike_id":"e942f984-8fe7-48d1-8f04-3806656b9996","system_id":"levelo_inurba_marseille","lat":43.33615,"lon":5.37921,"is_reserved":false,"is_disabled":false,"rental_uris":{"android":"levelo://app?vid=e942f984-8fe7-48d1-8f04-3806656b9996","ios":"levelo://app?vid=e942f984-8fe7-48d1-8f04-3806656b9996"},"vehicle_type_id":"4","last_reported":1758128892,"current_range_meters":20400,"station_id":"","pricing_plan_id":"cebpf4jnsgd1na2vs0mg"},{"bike_id":"6a5e3170-b6cf-440b-8da0-c66c2cb57014","system_id":"levelo_inurba_marseille","lat":43.3116,"lon":5.38734,"is_reserved":false,"is_disabled":false,"rental_uris":{"android":"levelo://app?vid=6a5e3170-b6cf-440b-8da0-c66c2cb57014","ios":"levelo://app?vid=6a5e3170-b6cf-440b-8da0-c66c2cb57014"},"vehicle_type_id":"4","last_reported":1758128892,"current_range_meters":20400,"station_id":"ce4bgv12rcd13ifvqcp0","pricing_plan_id":"cebpf4jnsgd1na2vs0mg"},{"bike_id":"2f6117ae-2841-4fb1-b12b-0127f35e6c63","system_id":"levelo_inurba_marseille","lat":43.33732,"lon":5.37467,"is_reserved":false,"is_disabled":false,"rental_uris":{"android":"levelo://app?vid=2f6117ae-2841-4fb1-b12b-0127f35e6c63","ios":"levelo://app?vid=2f6117ae-2841-4fb1-b12b-0127f35e6c63"},"vehicle_type_id":"4","last_reported":1758128892,"current_range_meters":20400,"station_id":"ce4bhg12rcd13ifvqf60","pricing_plan_id":"cebpf4jnsgd1na2vs0mg"},{"bike_id":"b69333fb-c85e-41fc-b0d7-837153896f4b","system_id":"levelo_inurba_marseille","lat":43.239612,"lon":5.366193,"is_reserved":false,"is_disabled":false,"rental_uris":{"android":"levelo://app?vid=b69333fb-c85e-41fc-b0d7-837153896f4b","ios":"levelo://app?vid=b69333fb-c85e-41fc-b0d7-837153896f4b"},"vehicle_type_id":"4","last_reported":1758128892,"current_range_meters":20400,"station_id":"ce4bhi12rcd13ifvqfp0","pricing_plan_id":"cebpf4jnsgd1na2vs0mg"},{"bike_id":"2e6dee22-1209-410c-8d07-22ab5dccb589","system_id":"levelo_inurba_marseille","lat":43.229323,"lon":5.35377,"is_reserved":false,"is_disabled":false,"rental_uris":{"android":"levelo://app?vid=2e6dee22-1209-410c-8d07-22ab5dccb589","ios":"levelo://app?vid=2e6dee22-1209-410c-8d07-22ab5dccb589"},"vehicle_type_id":"4","last_reported":1758128892,"current_range_meters":20400,"station_id":"cpo3532slgdg3j2ikp40","pricing_plan_id":"cebpf4jnsgd1na2vs0mg"},{"bike_id":"4dc90b56-c825-4ba9-af7f-576295158065","system_id":"levelo_inurba_marseille","lat":43.284114,"lon":5.37502,"is_reserved":false,"is_disabled":false,"rental_uris":{"android":"levelo://app?vid=4dc90b56-c825-4ba9-af7f-576295158065","ios":"levelo://app?vid=4dc90b56-c825-4ba9-af7f-576295158065"},"vehicle_type_id":"4","last_reported":1758128892,"current_range_meters":20800,"station_id":"ce4bh412rcd13ifvqds0","pricing_plan_id":"cebpf4jnsgd1na2vs0mg"},{"bike_id":"2c734c36-442f-468e-ab47-e34ad5183e32","system_id":"levelo_inurba_marseille","lat":43.27256,"lon":5.38008,"is_reserved":false,"is_disabled":false,"rental_uris":{"android":"levelo://app?vid=2c734c36-442f-468e-ab47-e34ad5183e32","ios":"levelo://app?vid=2c734c36-442f-468e-ab47-e34ad5183e32"},"vehicle_type_id":"4","last_reported":1758128892,"current_range_meters":20800,"station_id":"","pricing_plan_id":"cebpf4jnsgd1na2vs0mg"},{"bike_id":"773f289c-1068-45f5-884b-ee366bd45dfc","system_id":"levelo_inurba_marseille","lat":43.24079,"lon":5.37752,"is_reserved":false,"is_disabled":false,"rental_uris":{"android":"levelo://app?vid=773f289c-1068-45f5-884b-ee366bd45dfc","ios":"levelo://app?vid=773f289c-1068-45f5-884b-ee366bd45dfc"},"vehicle_type_id":"4","last_reported":1758128892,"current_range_meters":20800,"station_id":"ce4bhnp2rcd13ifvqgvg","pricing_plan_id":"cebpf4jnsgd1na2vs0mg"},{"bike_id":"57ffbce0-5dfb-4899-8f26-233712dc8920","system_id":"levelo_inurba_marseille","lat":43.290995,"lon":5.381435,"is_reserved":false,"is_disabled":false,"rental_uris":{"android":"levelo://app?vid=57ffbce0-5dfb-4899-8f26-233712dc8920","ios":"levelo://app?vid=57ffbce0-5dfb-4899-8f26-233712dc8920"},"vehicle_type_id":"4","last_reported":1758128892,"current_range_meters":20800,"station_id":"","pricing_plan_id":"cebpf4jnsgd1na2vs0mg"},{"bike_id":"a84bec1e-c360-4e60-9fab-2945d36d3179","system_id":"levelo_inurba_marseille","lat":43.24061,"lon":5.3775,"is_reserved":false,"is_disabled":false,"rental_uris":{"android":"levelo://app?vid=a84bec1e-c360-4e60-9fab-2945d36d3179","ios":"levelo://app?vid=a84bec1e-c360-4e60-9fab-2945d36d3179"},"vehicle_type_id":"4","last_reported":1758128892,"current_range_meters":20800,"station_id":"ce4bhnp2rcd13ifvqgvg","pricing_plan_id":"cebpf4jnsgd1na2vs0mg"},{"bike_id":"fe672f29-6472-4a6e-aca7-4cc9e24ab29f","system_id":"levelo_inurba_marseille","lat":43.25577,"lon":5.38237,"is_reserved":false,"is_disabled":false,"rental_uris":{"android":"levelo://app?vid=fe672f29-6472-4a6e-aca7-4cc9e24ab29f","ios":"levelo://app?vid=fe672f29-6472-4a6e-aca7-4cc9e24ab29f"},"vehicle_type_id":"4","last_reported":1758128892,"current_range_meters":20400,"station_id":"ce4bhih2rcd13ifvqfs0","pricing_plan_id":"cebpf4jnsgd1na2vs0mg"},{"bike_id":"94c04b7c-48c4-48d3-86ce-fa8618f22a4b","system_id":"levelo_inurba_marseille","lat":43.29778,"lon":5.37101,"is_reserved":false,"is_disabled":false,"rental_uris":{"android":"levelo://app?vid=94c04b7c-48c4-48d3-86ce-fa8618f22a4b","ios":"levelo://app?vid=94c04b7c-48c4-48d3-86ce-fa8618f22a4b"},"vehicle_type_id":"4","last_reported":1758128892,"current_range_meters":20800,"station_id":"ce4bgop2rcd13ifvqc1g","pricing_plan_id":"cebpf4jnsgd1na2vs0mg"},{"bike_id":"9c4841ee-415f-45e4-9067-b6eea64d4874","system_id":"levelo_inurba_marseille","lat":43.31081,"lon":5.42439,"is_reserved":false,"is_disabled":false,"rental_uris":{"android":"levelo://app?vid=9c4841ee-415f-45e4-9067-b6eea64d4874","ios":"levelo://app?vid=9c4841ee-415f-45e4-9067-b6eea64d4874"},"vehicle_type_id":"4","last_reported":1758128892,"current_range_meters":20800,"station_id":"ce4bhp92rcd13ifvqhag","pricing_plan_id":"cebpf4jnsgd1na2vs0mg"},{"bike_id":"ceca0526-518c-44e7-84af-9eb6d8da77dc","system_id":"levelo_inurba_marseille","lat":43.292324,"lon":5.360734,"is_reserved":false,"is_disabled":false,"rental_uris":{"android":"levelo://app?vid=ceca0526-518c-44e7-84af-9eb6d8da77dc","ios":"levelo://app?vid=ceca0526-518c-44e7-84af-9eb6d8da77dc"},"vehicle_type_id":"4","last_reported":1758128892,"current_range_meters":20800,"station_id":"ce4bhbh2rcd13ifvqeqg","pricing_plan_id":"cebpf4jnsgd1na2vs0mg"},{"bike_id":"ad08ae01-a524-47c0-ac26-5f06aa0b4618","system_id":"levelo_inurba_marseille","lat":43.31713,"lon":5.43704,"is_reserved":false,"is_disabled":false,"rental_uris":{"android":"levelo://app?vid=ad08ae01-a524-47c0-ac26-5f06aa0b4618","ios":"levelo://app?vid=ad08ae01-a524-47c0-ac26-5f06aa0b4618"},"vehicle_type_id":"4","last_reported":1758128892,"current_range_meters":21600,"station_id":"ce4bhp92rcd13ifvqhcg","pricing_plan_id":"cebpf4jnsgd1na2vs0mg"},{"bike_id":"2e5b9575-2c9d-406a-b654-7a063cbd9151","system_id":"levelo_inurba_marseille","lat":43.23186,"lon":5.39983,"is_reserved":false,"is_disabled":false,"rental_uris":{"android":"levelo://app?vid=2e5b9575-2c9d-406a-b654-7a063cbd9151","ios":"levelo://app?vid=2e5b9575-2c9d-406a-b654-7a063cbd9151"},"vehicle_type_id":"4","last_reported":1758128892,"current_range_meters":21600,"station_id":"ce4bhn12rcd13ifvqgqg","pricing_plan_id":"cebpf4jnsgd1na2vs0mg"},{"bike_id":"415f1da2-da0d-498a-9edc-1550913c98ee","system_id":"levelo_inurba_marseille","lat":43.28272,"lon":5.35067,"is_reserved":false,"is_disabled":true,"rental_uris":{"android":"levelo://app?vid=415f1da2-da0d-498a-9edc-1550913c98ee","ios":"levelo://app?vid=415f1da2-da0d-498a-9edc-1550913c98ee"},"vehicle_type_id":"4","last_reported":1758128892,"current_range_meters":21600,"station_id":"ce4bhbp2rcd13ifvqerg","pricing_plan_id":"cebpf4jnsgd1na2vs0mg"},{"bike_id":"673144ea-23fd-4794-937a-d87bf833eac2","system_id":"levelo_inurba_marseille","lat":43.29284,"lon":5.37185,"is_reserved":false,"is_disabled":false,"rental_uris":{"android":"levelo://app?vid=673144ea-23fd-4794-937a-d87bf833eac2","ios":"levelo://app?vid=673144ea-23fd-4794-937a-d87bf833eac2"},"vehicle_type_id":"4","last_reported":1758128892,"current_range_meters":21600,"station_id":"","pricing_plan_id":"cebpf4jnsgd1na2vs0mg"},{"bike_id":"bf6e6d27-c09e-4725-9fbc-20073fd5a515","system_id":"levelo_inurba_marseille","lat":43.289376,"lon":5.396214,"is_reserved":false,"is_disabled":false,"rental_uris":{"android":"levelo://app?vid=bf6e6d27-c09e-4725-9fbc-20073fd5a515","ios":"levelo://app?vid=bf6e6d27-c09e-4725-9fbc-20073fd5a515"},"vehicle_type_id":"4","last_reported":1758128892,"current_range_meters":21600,"station_id":"","pricing_plan_id":"cebpf4jnsgd1na2vs0mg"},{"bike_id":"0960e3dd-c358-4474-bd10-8223758e1f6b","system_id":"levelo_inurba_marseille","lat":43.296996,"lon":5.376855,"is_reserved":false,"is_disabled":false,"rental_uris":{"android":"levelo://app?vid=0960e3dd-c358-4474-bd10-8223758e1f6b","ios":"levelo://app?vid=0960e3dd-c358-4474-bd10-8223758e1f6b"},"vehicle_type_id":"4","last_reported":1758128892,"current_range_meters":21600,"station_id":"","pricing_plan_id":"cebpf4jnsgd1na2vs0mg"},{"bike_id":"6b9ae180-e8e3-4a21-b5c2-b90b610d048e","system_id":"levelo_inurba_marseille","lat":43.24058,"lon":5.37777,"is_reserved":false,"is_disabled":false,"rental_uris":{"android":"levelo://app?vid=6b9ae180-e8e3-4a21-b5c2-b90b610d048e","ios":"levelo://app?vid=6b9ae180-e8e3-4a21-b5c2-b90b610d048e"},"vehicle_type_id":"4","last_reported":1758128892,"current_range_meters":21600,"station_id":"ce4bhnp2rcd13ifvqgvg","pricing_plan_id":"cebpf4jnsgd1na2vs0mg"},{"bike_id":"553f8368-9fc7-4fab-ab6b-4ab64407d3bf","system_id":"levelo_inurba_marseille","lat":43.28842,"lon":5.42507,"is_reserved":false,"is_disabled":false,"rental_uris":{"android":"levelo://app?vid=553f8368-9fc7-4fab-ab6b-4ab64407d3bf","ios":"levelo://app?vid=553f8368-9fc7-4fab-ab6b-4ab64407d3bf"},"vehicle_type_id":"4","last_reported":1758128892,"current_range_meters":21600,"station_id":"ce4bhg12rcd13ifvqf80","pricing_plan_id":"cebpf4jnsgd1na2vs0mg"},{"bike_id":"232b5f9d-0d37-4f3b-971b-cf953d43404b","system_id":"levelo_inurba_marseille","lat":43.28715,"lon":5.37942,"is_reserved":false,"is_disabled":false,"rental_uris":{"android":"levelo://app?vid=232b5f9d-0d37-4f3b-971b-cf953d43404b","ios":"levelo://app?vid=232b5f9d-0d37-4f3b-971b-cf953d43404b"},"vehicle_type_id":"4","last_reported":1758128892,"current_range_meters":22000,"station_id":"ce4bh9p2rcd13ifvqec0","pricing_plan_id":"cebpf4jnsgd1na2vs0mg"},{"bike_id":"2ac9eac3-a405-41cf-9a47-27b2486a865c","system_id":"levelo_inurba_marseille","lat":43.31756,"lon":5.40366,"is_reserved":false,"is_disabled":false,"rental_uris":{"android":"levelo://app?vid=2ac9eac3-a405-41cf-9a47-27b2486a865c","ios":"levelo://app?vid=2ac9eac3-a405-41cf-9a47-27b2486a865c"},"vehicle_type_id":"4","last_reported":1758128892,"current_range_meters":22000,"station_id":"","pricing_plan_id":"cebpf4jnsgd1na2vs0mg"},{"bike_id":"4cb6774a-f732-4788-b580-425b07f14d7e","system_id":"levelo_inurba_marseille","lat":43.292335,"lon":5.360615,"is_reserved":false,"is_disabled":false,"rental_uris":{"android":"levelo://app?vid=4cb6774a-f732-4788-b580-425b07f14d7e","ios":"levelo://app?vid=4cb6774a-f732-4788-b580-425b07f14d7e"},"vehicle_type_id":"4","last_reported":1758128892,"current_range_meters":22000,"station_id":"","pricing_plan_id":"cebpf4jnsgd1na2vs0mg"},{"bike_id":"f0f401f7-d712-4e7f-8105-17540d04e382","system_id":"levelo_inurba_marseille","lat":43.275664,"lon":5.384185,"is_reserved":false,"is_disabled":false,"rental_uris":{"android":"levelo://app?vid=f0f401f7-d712-4e7f-8105-17540d04e382","ios":"levelo://app?vid=f0f401f7-d712-4e7f-8105-17540d04e382"},"vehicle_type_id":"4","last_reported":1758128892,"current_range_meters":22000,"station_id":"ce4bhh92rcd13ifvqfi0","pricing_plan_id":"cebpf4jnsgd1na2vs0mg"},{"bike_id":"5ae8198b-0701-40a4-9083-0a43c75d986b","system_id":"levelo_inurba_marseille","lat":43.292703,"lon":5.376239,"is_reserved":false,"is_disabled":true,"rental_uris":{"android":"levelo://app?vid=5ae8198b-0701-40a4-9083-0a43c75d986b","ios":"levelo://app?vid=5ae8198b-0701-40a4-9083-0a43c75d986b"},"vehicle_type_id":"4","last_reported":1758128892,"current_range_meters":22000,"station_id":"ce4bgi12rcd13ifvqb80","pricing_plan_id":"cebpf4jnsgd1na2vs0mg"},{"bike_id":"8f581eef-3237-41f4-9013-ff2d855ef2d1","system_id":"levelo_inurba_marseille","lat":43.29674,"lon":5.43356,"is_reserved":false,"is_disabled":false,"rental_uris":{"android":"levelo://app?vid=8f581eef-3237-41f4-9013-ff2d855ef2d1","ios":"levelo://app?vid=8f581eef-3237-41f4-9013-ff2d855ef2d1"},"vehicle_type_id":"4","last_reported":1758128892,"current_range_meters":22000,"station_id":"","pricing_plan_id":"cebpf4jnsgd1na2vs0mg"},{"bike_id":"b8af4056-fb36-4e39-a4f0-5cd179383459","system_id":"levelo_inurba_marseille","lat":43.32918,"lon":5.38949,"is_reserved":false,"is_disabled":false,"rental_uris":{"android":"levelo://app?vid=b8af4056-fb36-4e39-a4f0-5cd179383459","ios":"levelo://app?vid=b8af4056-fb36-4e39-a4f0-5cd179383459"},"vehicle_type_id":"4","last_reported":1758128892,"current_range_meters":22000,"station_id":"","pricing_plan_id":"cebpf4jnsgd1na2vs0mg"},{"bike_id":"52a3fc25-1773-435e-834d-900509615809","system_id":"levelo_inurba_marseille","lat":43.28939,"lon":5.36637,"is_reserved":false,"is_disabled":false,"rental_uris":{"android":"levelo://app?vid=52a3fc25-1773-435e-834d-900509615809","ios":"levelo://app?vid=52a3fc25-1773-435e-834d-900509615809"},"vehicle_type_id":"4","last_reported":1758128892,"current_range_meters":22400,"station_id":"ce4bhap2rcd13ifvqek0","pricing_plan_id":"cebpf4jnsgd1na2vs0mg"},{"bike_id":"d0d60b2a-f21a-4989-ac8b-da205849e759","system_id":"levelo_inurba_marseille","lat":43.29295,"lon":5.37186,"is_reserved":false,"is_disabled":false,"rental_uris":{"android":"levelo://app?vid=d0d60b2a-f21a-4989-ac8b-da205849e759","ios":"levelo://app?vid=d0d60b2a-f21a-4989-ac8b-da205849e759"},"vehicle_type_id":"4","last_reported":1758128892,"current_range_meters":22400,"station_id":"","pricing_plan_id":"cebpf4jnsgd1na2vs0mg"},{"bike_id":"0368aff1-1469-4241-a46e-5050fba696a7","system_id":"levelo_inurba_marseille","lat":43.269277,"lon":5.389186,"is_reserved":false,"is_disabled":false,"rental_uris":{"android":"levelo://app?vid=0368aff1-1469-4241-a46e-5050fba696a7","ios":"levelo://app?vid=0368aff1-1469-4241-a46e-5050fba696a7"},"vehicle_type_id":"4","last_reported":1758128892,"current_range_meters":22400,"station_id":"ce4bhhh2rcd13ifvqfl0","pricing_plan_id":"cebpf4jnsgd1na2vs0mg"},{"bike_id":"648d4889-3720-4b36-80ac-769c51e71d47","system_id":"levelo_inurba_marseille","lat":43.29242,"lon":5.4091,"is_reserved":false,"is_disabled":false,"rental_uris":{"android":"levelo://app?vid=648d4889-3720-4b36-80ac-769c51e71d47","ios":"levelo://app?vid=648d4889-3720-4b36-80ac-769c51e71d47"},"vehicle_type_id":"4","last_reported":1758128892,"current_range_meters":22400,"station_id":"ce4bh192rcd13ifvqdc0","pricing_plan_id":"cebpf4jnsgd1na2vs0mg"},{"bike_id":"a9ad7e2d-cb25-4d52-9ad2-79c6924298cf","system_id":"levelo_inurba_marseille","lat":43.32954,"lon":5.39081,"is_reserved":false,"is_disabled":false,"rental_uris":{"android":"levelo://app?vid=a9ad7e2d-cb25-4d52-9ad2-79c6924298cf","ios":"levelo://app?vid=a9ad7e2d-cb25-4d52-9ad2-79c6924298cf"},"vehicle_type_id":"4","last_reported":1758128892,"current_range_meters":22400,"station_id":"ce4bhr92rcd13ifvqhrg","pricing_plan_id":"cebpf4jnsgd1na2vs0mg"},{"bike_id":"6c041fd8-c79d-4610-ad95-c003c7c3f921","system_id":"levelo_inurba_marseille","lat":43.32956,"lon":5.3928,"is_reserved":false,"is_disabled":true,"rental_uris":{"android":"levelo://app?vid=6c041fd8-c79d-4610-ad95-c003c7c3f921","ios":"levelo://app?vid=6c041fd8-c79d-4610-ad95-c003c7c3f921"},"vehicle_type_id":"4","last_reported":1758128892,"current_range_meters":22400,"station_id":"","pricing_plan_id":"cebpf4jnsgd1na2vs0mg"},{"bike_id":"830b9b55-b582-49a9-8acf-457ace5fb670","system_id":"levelo_inurba_marseille","lat":43.22559,"lon":5.41629,"is_reserved":false,"is_disabled":false,"rental_uris":{"android":"levelo://app?vid=830b9b55-b582-49a9-8acf-457ace5fb670","ios":"levelo://app?vid=830b9b55-b582-49a9-8acf-457ace5fb670"},"vehicle_type_id":"4","last_reported":1758128892,"current_range_meters":22400,"station_id":"st_d2o4gvlbi1j2169b742g","pricing_plan_id":"cebpf4jnsgd1na2vs0mg"},{"bike_id":"414287f0-9d82-410d-9fff-378a9f6c12f9","system_id":"levelo_inurba_marseille","lat":43.30585,"lon":5.3934,"is_reserved":false,"is_disabled":false,"rental_uris":{"android":"levelo://app?vid=414287f0-9d82-410d-9fff-378a9f6c12f9","ios":"levelo://app?vid=414287f0-9d82-410d-9fff-378a9f6c12f9"},"vehicle_type_id":"4","last_reported":1758128892,"current_range_meters":22400,"station_id":"ce4bh0p2rcd13ifvqd80","pricing_plan_id":"cebpf4jnsgd1na2vs0mg"},{"bike_id":"435ff4e0-8d24-4c74-8dc1-b1d8f315f71c","system_id":"levelo_inurba_marseille","lat":43.2748,"lon":5.42462,"is_reserved":false,"is_disabled":true,"rental_uris":{"android":"levelo://app?vid=435ff4e0-8d24-4c74-8dc1-b1d8f315f71c","ios":"levelo://app?vid=435ff4e0-8d24-4c74-8dc1-b1d8f315f71c"},"vehicle_type_id":"4","last_reported":1758128892,"current_range_meters":22800,"station_id":"ce4bhn92rcd13ifvqgrg","pricing_plan_id":"cebpf4jnsgd1na2vs0mg"},{"bike_id":"6111d9bc-6c28-4c1b-bb7c-3c957c31c912","system_id":"levelo_inurba_marseille","lat":43.292878,"lon":5.374647,"is_reserved":false,"is_disabled":false,"rental_uris":{"android":"levelo://app?vid=6111d9bc-6c28-4c1b-bb7c-3c957c31c912","ios":"levelo://app?vid=6111d9bc-6c28-4c1b-bb7c-3c957c31c912"},