{"last_updated":1753546328,"ttl":60,"version":"2.2","data":{"bikes":[{"bike_id":"1594d297-b88b-4002-a702-91e8d9cee67a","system_id":"levelo_inurba_marseille","lat":43.305392,"lon":5.365683,"is_reserved":false,"is_disabled":true,"rental_uris":{"android":"levelo://app?vid=1594d297-b88b-4002-a702-91e8d9cee67a","ios":"levelo://app?vid=1594d297-b88b-4002-a702-91e8d9cee67a"},"vehicle_type_id":"4","last_reported":1753546328,"current_range_meters":2800,"station_id":"","pricing_plan_id":"cebpf4jnsgd1na2vs0mg"},{"bike_id":"e19cd9bd-8f1f-4909-a624-5af678243303","system_id":"levelo_inurba_marseille","lat":43.29081,"lon":5.39898,"is_reserved":false,"is_disabled":false,"rental_uris":{"android":"levelo://app?vid=e19cd9bd-8f1f-4909-a624-5af678243303","ios":"levelo://app?vid=e19cd9bd-8f1f-4909-a624-5af678243303"},"vehicle_type_id":"4","last_reported":1753546328,"current_range_meters":3200,"station_id":"","pricing_plan_id":"cebpf4jnsgd1na2vs0mg"},{"bike_id":"57005ee2-c548-40fd-ac5b-e68b28f6626a","system_id":"levelo_inurba_marseille","lat":43.29304,"lon":5.37462,"is_reserved":false,"is_disabled":false,"rental_uris":{"android":"levelo://app?vid=57005ee2-c548-40fd-ac5b-e68b28f6626a","ios":"levelo://app?vid=57005ee2-c548-40fd-ac5b-e68b28f6626a"},"vehicle_type_id":"4","last_reported":1753546328,"current_range_meters":3200,"station_id":"ce4bgi12rcd13ifvqb70","pricing_plan_id":"cebpf4jnsgd1na2vs0mg"},{"bike_id":"351b42a4-b864-4459-a5c7-0b8bb96148f3","system_id":"levelo_inurba_marseille","lat":43.28436,"lon":5.34976,"is_reserved":false,"is_disabled":false,"rental_uris":{"android":"levelo://app?vid=351b42a4-b864-4459-a5c7-0b8bb96148f3","ios":"levelo://app?vid=351b42a4-b864-4459-a5c7-0b8bb96148f3"},"vehicle_type_id":"4","last_reported":1753546328,"current_range_meters":3600,"station_id":"ce4bhbh2rcd13ifvqepg","pricing_plan_id":"cebpf4jnsgd1na2vs0mg"},{"bike_id":"37d328b6-2b28-4cb8-bad9-237f33703c50","system_id":"levelo_inurba_marseille","lat":43.282601,"lon":5.350524,"is_reserved":false,"is_disabled":false,"rental_uris":{"android":"levelo://app?vid=37d328b6-2b28-4cb8-bad9-237f33703c50","ios":"levelo://app?vid=37d328b6-2b28-4cb8-bad9-237f33703c50"},"vehicle_type_id":"4","last_reported":1753546328,"current_range_meters":4000,"station_id":"ce4bhbp2rcd13ifvqerg","pricing_plan_id":"cebpf4jnsgd1na2vs0mg"},{"bike_id":"def98a28-c06f-4fb2-bcc2-20148c1ad9ed","system_id":"levelo_inurba_marseille","lat":43.30147,"lon":5.39854,"is_reserved":false,"is_disabled":false,"rental_uris":{"android":"levelo://app?vid=def98a28-c06f-4fb2-bcc2-20148c1ad9ed","ios":"levelo://app?vid=def98a28-c06f-4fb2-bcc2-20148c1ad9ed"},"vehicle_type_id":"4","last_reported":1753546328,"current_range_meters":2000,"station_id":"ce4bh0h2rcd13ifvqd40","pricing_plan_id":"cebpf4jnsgd1na2vs0mg"},{"bike_id":"75ed58c4-34e3-4bf9-82e2-3f5b0cbd5db0","system_id":"levelo_inurba_marseille","lat":43.30654,"lon":5.401,"is_reserved":false,"is_disabled":false,"rental_uris":{"android":"levelo://app?vid=75ed58c4-34e3-4bf9-82e2-3f5b0cbd5db0","ios":"levelo://app?vid=75ed58c4-34e3-4bf9-82e2-3f5b0cbd5db0"},"vehicle_type_id":"4","last_reported":1753546328,"current_range_meters":4000,"station_id":"ce4bh112rcd13ifvqda0","pricing_plan_id":"cebpf4jnsgd1na2vs0mg"},{"bike_id":"f2fe850c-fbe3-4aee-bbfb-e31f8edc7a74","system_id":"levelo_inurba_marseille","lat":43.26024,"lon":5.37552,"is_reserved":false,"is_disabled":false,"rental_uris":{"android":"levelo://app?vid=f2fe850c-fbe3-4aee-bbfb-e31f8edc7a74","ios":"levelo://app?vid=f2fe850c-fbe3-4aee-bbfb-e31f8edc7a74"},"vehicle_type_id":"4","last_reported":1753546328,"current_range_meters":4400,"station_id":"ce4bhgh2rcd13ifvqfa0","pricing_plan_id":"cebpf4jnsgd1na2vs0mg"},{"bike_id":"7b56f4ab-521b-49cb-8264-24fed899f6eb","system_id":"levelo_inurba_marseille","lat":43.31247,"lon":5.36888,"is_reserved":false,"is_disabled":false,"rental_uris":{"android":"levelo://app?vid=7b56f4ab-521b-49cb-8264-24fed899f6eb","ios":"levelo://app?vid=7b56f4ab-521b-49cb-8264-24fed899f6eb"},"vehicle_type_id":"4","last_reported":1753546328,"current_range_meters":4400,"station_id":"ce4bgl92rcd13ifvqbq0","pricing_plan_id":"cebpf4jnsgd1na2vs0mg"},{"bike_id":"19b9be80-9b94-46d5-9efc-80362ac6cf22","system_id":"levelo_inurba_marseille","lat":43.28367,"lon":5.38627,"is_reserved":false,"is_disabled":false,"rental_uris":{"android":"levelo://app?vid=19b9be80-9b94-46d5-9efc-80362ac6cf22","ios":"levelo://app?vid=19b9be80-9b94-46d5-9efc-80362ac6cf22"},"vehicle_type_id":"4","last_reported":1753546328,"current_range_meters":4400,"station_id":"ce4bh492rcd13ifvqdvg","pricing_plan_id":"cebpf4jnsgd1na2vs0mg"},{"bike_id":"44e47e20-dacb-49a6-a963-72b71956ff28","system_id":"levelo_inurba_marseille","lat":43.29556,"lon":5.42294,"is_reserved":false,"is_disabled":false,"rental_uris":{"android":"levelo://app?vid=44e47e20-dacb-49a6-a963-72b71956ff28","ios":"levelo://app?vid=44e47e20-dacb-49a6-a963-72b71956ff28"},"vehicle_type_id":"4","last_reported":1753546328,"current_range_meters":4400,"station_id":"ce4bhph2rcd13ifvqhdg","pricing_plan_id":"cebpf4jnsgd1na2vs0mg"},{"bike_id":"8e5c2bb1-1ce1-486c-99f6-52b2956c62dc","system_id":"levelo_inurba_marseille","lat":43.25091,"lon":5.39519,"is_reserved":false,"is_disabled":false,"rental_uris":{"android":"levelo://app?vid=8e5c2bb1-1ce1-486c-99f6-52b2956c62dc","ios":"levelo://app?vid=8e5c2bb1-1ce1-486c-99f6-52b2956c62dc"},"vehicle_type_id":"4","last_reported":1753546328,"current_range_meters":4400,"station_id":"ce4bhm12rcd13ifvqgkg","pricing_plan_id":"cebpf4jnsgd1na2vs0mg"},{"bike_id":"f28d2bb9-4217-4196-a573-ba6f4c172497","system_id":"levelo_inurba_marseille","lat":43.2816,"lon":5.36096,"is_reserved":false,"is_disabled":false,"rental_uris":{"android":"levelo://app?vid=f28d2bb9-4217-4196-a573-ba6f4c172497","ios":"levelo://app?vid=f28d2bb9-4217-4196-a573-ba6f4c172497"},"vehicle_type_id":"4","last_reported":1753546328,"current_range_meters":4400,"station_id":"","pricing_plan_id":"cebpf4jnsgd1na2vs0mg"},{"bike_id":"8b070fd1-313a-465d-9ae5-d49f7a1dea42","system_id":"levelo_inurba_marseille","lat":43.29525,"lon":5.37504,"is_reserved":false,"is_disabled":false,"rental_uris":{"android":"levelo://app?vid=8b070fd1-313a-465d-9ae5-d49f7a1dea42","ios":"levelo://app?vid=8b070fd1-313a-465d-9ae5-d49f7a1dea42"},"vehicle_type_id":"4","last_reported":1753546328,"current_range_meters":4400,"station_id":"ce4bgkp2rcd13ifvqbmg","pricing_plan_id":"cebpf4jnsgd1na2vs0mg"},{"bike_id":"5f446a25-477e-401e-8ae5-96165dacac53","system_id":"levelo_inurba_marseille","lat":43.30434,"lon":5.38896,"is_reserved":false,"is_disabled":false,"rental_uris":{"android":"levelo://app?vid=5f446a25-477e-401e-8ae5-96165dacac53","ios":"levelo://app?vid=5f446a25-477e-401e-8ae5-96165dacac53"},"vehicle_type_id":"4","last_reported":1753546328,"current_range_meters":4800,"station_id":"ce4bgk12rcd13ifvqbi0","pricing_plan_id":"cebpf4jnsgd1na2vs0mg"},{"bike_id":"a6fb35af-c3fd-4a70-b346-25108a39c0e5","system_id":"levelo_inurba_marseille","lat":43.2816,"lon":5.42655,"is_reserved":false,"is_disabled":false,"rental_uris":{"android":"levelo://app?vid=a6fb35af-c3fd-4a70-b346-25108a39c0e5","ios":"levelo://app?vid=a6fb35af-c3fd-4a70-b346-25108a39c0e5"},"vehicle_type_id":"4","last_reported":1753546328,"current_range_meters":4800,"station_id":"ce4bhnh2rcd13ifvqgug","pricing_plan_id":"cebpf4jnsgd1na2vs0mg"},{"bike_id":"d4849ad2-709e-41f0-8d16-76bfcc6bbae7","system_id":"levelo_inurba_marseille","lat":43.30943,"lon":5.39026,"is_reserved":false,"is_disabled":false,"rental_uris":{"android":"levelo://app?vid=d4849ad2-709e-41f0-8d16-76bfcc6bbae7","ios":"levelo://app?vid=d4849ad2-709e-41f0-8d16-76bfcc6bbae7"},"vehicle_type_id":"4","last_reported":1753546328,"current_range_meters":4800,"station_id":"ce4bgup2rcd13ifvqco0","pricing_plan_id":"cebpf4jnsgd1na2vs0mg"},{"bike_id":"d2735527-4f30-4e8b-9406-8f8eda9c460c","system_id":"levelo_inurba_marseille","lat":43.31274,"lon":5.40176,"is_reserved":false,"is_disabled":false,"rental_uris":{"android":"levelo://app?vid=d2735527-4f30-4e8b-9406-8f8eda9c460c","ios":"levelo://app?vid=d2735527-4f30-4e8b-9406-8f8eda9c460c"},"vehicle_type_id":"4","last_reported":1753546328,"current_range_meters":5600,"station_id":"ce4bh092rcd13ifvqd30","pricing_plan_id":"cebpf4jnsgd1na2vs0mg"},{"bike_id":"c13d64e0-c1f3-450e-b1f7-55b258bf82e6","system_id":"levelo_inurba_marseille","lat":43.25087,"lon":5.3952,"is_reserved":false,"is_disabled":false,"rental_uris":{"android":"levelo://app?vid=c13d64e0-c1f3-450e-b1f7-55b258bf82e6","ios":"levelo://app?vid=c13d64e0-c1f3-450e-b1f7-55b258bf82e6"},"vehicle_type_id":"4","last_reported":1753546328,"current_range_meters":5600,"station_id":"ce4bhm12rcd13ifvqgkg","pricing_plan_id":"cebpf4jnsgd1na2vs0mg"},{"bike_id":"9b07fa24-8f56-4ce5-8575-dfa09f8f9b97","system_id":"levelo_inurba_marseille","lat":43.290339,"lon":5.386465,"is_reserved":false,"is_disabled":false,"rental_uris":{"android":"levelo://app?vid=9b07fa24-8f56-4ce5-8575-dfa09f8f9b97","ios":"levelo://app?vid=9b07fa24-8f56-4ce5-8575-dfa09f8f9b97"},"vehicle_type_id":"4","last_reported":1753546328,"current_range_meters":5600,"station_id":"","pricing_plan_id":"cebpf4jnsgd1na2vs0mg"},{"bike_id":"5e15d314-217b-49b2-9761-ea9c072e5a2a","system_id":"levelo_inurba_marseille","lat":43.28947,"lon":5.3664,"is_reserved":false,"is_disabled":false,"rental_uris":{"android":"levelo://app?vid=5e15d314-217b-49b2-9761-ea9c072e5a2a","ios":"levelo://app?vid=5e15d314-217b-49b2-9761-ea9c072e5a2a"},"vehicle_type_id":"4","last_reported":1753546328,"current_range_meters":6000,"station_id":"ce4bhap2rcd13ifvqek0","pricing_plan_id":"cebpf4jnsgd1na2vs0mg"},{"bike_id":"224f74d8-157e-4657-b0d5-3cef0efff175","system_id":"levelo_inurba_marseille","lat":43.2843,"lon":5.34993,"is_reserved":false,"is_disabled":false,"rental_uris":{"android":"levelo://app?vid=224f74d8-157e-4657-b0d5-3cef0efff175","ios":"levelo://app?vid=224f74d8-157e-4657-b0d5-3cef0efff175"},"vehicle_type_id":"4","last_reported":1753546328,"current_range_meters":6000,"station_id":"ce4bhbh2rcd13ifvqepg","pricing_plan_id":"cebpf4jnsgd1na2vs0mg"},{"bike_id":"516f0889-f637-481e-9be2-8b450476a4a2","system_id":"levelo_inurba_marseille","lat":43.32069,"lon":5.41536,"is_reserved":false,"is_disabled":false,"rental_uris":{"android":"levelo://app?vid=516f0889-f637-481e-9be2-8b450476a4a2","ios":"levelo://app?vid=516f0889-f637-481e-9be2-8b450476a4a2"},"vehicle_type_id":"4","last_reported":1753546328,"current_range_meters":6000,"station_id":"ce4bhq92rcd13ifvqhkg","pricing_plan_id":"cebpf4jnsgd1na2vs0mg"},{"bike_id":"74d86cff-5176-47b2-8f07-a6fb724dcfeb","system_id":"levelo_inurba_marseille","lat":43.29276,"lon":5.36825,"is_reserved":false,"is_disabled":false,"rental_uris":{"android":"levelo://app?vid=74d86cff-5176-47b2-8f07-a6fb724dcfeb","ios":"levelo://app?vid=74d86cff-5176-47b2-8f07-a6fb724dcfeb"},"vehicle_type_id":"4","last_reported":1753546328,"current_range_meters":6000,"station_id":"ce4bhbp2rcd13ifvqesg","pricing_plan_id":"cebpf4jnsgd1na2vs0mg"},{"bike_id":"58b6ad0b-5876-4173-a55d-934d7e4e604d","system_id":"levelo_inurba_marseille","lat":43.28857,"lon":5.35839,"is_reserved":false,"is_disabled":false,"rental_uris":{"android":"levelo://app?vid=58b6ad0b-5876-4173-a55d-934d7e4e604d","ios":"levelo://app?vid=58b6ad0b-5876-4173-a55d-934d7e4e604d"},"vehicle_type_id":"4","last_reported":1753546328,"current_range_meters":6400,"station_id":"ce4bhb12rcd13ifvqem0","pricing_plan_id":"cebpf4jnsgd1na2vs0mg"},{"bike_id":"6d93db5c-cc47-462a-b8a6-38cc242b575e","system_id":"levelo_inurba_marseille","lat":43.28709,"lon":5.37391,"is_reserved":false,"is_disabled":false,"rental_uris":{"android":"levelo://app?vid=6d93db5c-cc47-462a-b8a6-38cc242b575e","ios":"levelo://app?vid=6d93db5c-cc47-462a-b8a6-38cc242b575e"},"vehicle_type_id":"4","last_reported":1753546328,"current_range_meters":6400,"station_id":"ce4bh3p2rcd13ifvqdq0","pricing_plan_id":"cebpf4jnsgd1na2vs0mg"},{"bike_id":"4c3e23af-588b-4a2d-bec6-70ff2e8bbf86","system_id":"levelo_inurba_marseille","lat":43.31168,"lon":5.38718,"is_reserved":false,"is_disabled":false,"rental_uris":{"android":"levelo://app?vid=4c3e23af-588b-4a2d-bec6-70ff2e8bbf86","ios":"levelo://app?vid=4c3e23af-588b-4a2d-bec6-70ff2e8bbf86"},"vehicle_type_id":"4","last_reported":1753546328,"current_range_meters":6000,"station_id":"ce4bgv12rcd13ifvqcp0","pricing_plan_id":"cebpf4jnsgd1na2vs0mg"},{"bike_id":"1c31f24b-2b9e-48c3-b103-bffd32b92420","system_id":"levelo_inurba_marseille","lat":43.33524,"lon":5.40843,"is_reserved":false,"is_disabled":false,"rental_uris":{"android":"levelo://app?vid=1c31f24b-2b9e-48c3-b103-bffd32b92420","ios":"levelo://app?vid=1c31f24b-2b9e-48c3-b103-bffd32b92420"},"vehicle_type_id":"4","last_reported":1753546328,"current_range_meters":6400,"station_id":"","pricing_plan_id":"cebpf4jnsgd1na2vs0mg"},{"bike_id":"6af7a72a-189c-4dbc-9282-a956426542ba","system_id":"levelo_inurba_marseille","lat":43.22512,"lon":5.34779,"is_reserved":false,"is_disabled":false,"rental_uris":{"android":"levelo://app?vid=6af7a72a-189c-4dbc-9282-a956426542ba","ios":"levelo://app?vid=6af7a72a-189c-4dbc-9282-a956426542ba"},"vehicle_type_id":"4","last_reported":1753546328,"current_range_meters":6400,"station_id":"","pricing_plan_id":"cebpf4jnsgd1na2vs0mg"},{"bike_id":"ff30a5ee-0e9d-4bfa-a593-c7beaf9df463","system_id":"levelo_inurba_marseille","lat":43.33536,"lon":5.36211,"is_reserved":false,"is_disabled":false,"rental_uris":{"android":"levelo://app?vid=ff30a5ee-0e9d-4bfa-a593-c7beaf9df463","ios":"levelo://app?vid=ff30a5ee-0e9d-4bfa-a593-c7beaf9df463"},"vehicle_type_id":"4","last_reported":1753546328,"current_range_meters":6400,"station_id":"","pricing_plan_id":"cebpf4jnsgd1na2vs0mg"},{"bike_id":"89dcea3a-f7f7-44b2-9d2c-a3300861829d","system_id":"levelo_inurba_marseille","lat":43.278699,"lon":5.397094,"is_reserved":false,"is_disabled":false,"rental_uris":{"android":"levelo://app?vid=89dcea3a-f7f7-44b2-9d2c-a3300861829d","ios":"levelo://app?vid=89dcea3a-f7f7-44b2-9d2c-a3300861829d"},"vehicle_type_id":"4","last_reported":1753546328,"current_range_meters":6400,"station_id":"","pricing_plan_id":"cebpf4jnsgd1na2vs0mg"},{"bike_id":"6950a34e-0d97-4d7d-b50e-749154f2fcdb","system_id":"levelo_inurba_marseille","lat":43.29225,"lon":5.36065,"is_reserved":false,"is_disabled":false,"rental_uris":{"android":"levelo://app?vid=6950a34e-0d97-4d7d-b50e-749154f2fcdb","ios":"levelo://app?vid=6950a34e-0d97-4d7d-b50e-749154f2fcdb"},"vehicle_type_id":"4","last_reported":1753546328,"current_range_meters":6400,"station_id":"ce4bhbh2rcd13ifvqeqg","pricing_plan_id":"cebpf4jnsgd1na2vs0mg"},{"bike_id":"025ca904-811f-4320-8caa-151f2402a132","system_id":"levelo_inurba_marseille","lat":43.24804,"lon":5.37455,"is_reserved":false,"is_disabled":false,"rental_uris":{"android":"levelo://app?vid=025ca904-811f-4320-8caa-151f2402a132","ios":"levelo://app?vid=025ca904-811f-4320-8caa-151f2402a132"},"vehicle_type_id":"4","last_reported":1753546328,"current_range_meters":6800,"station_id":"ce4bhgh2rcd13ifvqfb0","pricing_plan_id":"cebpf4jnsgd1na2vs0mg"},{"bike_id":"6d31f4c4-06e1-4a40-a89e-817a0bd386a5","system_id":"levelo_inurba_marseille","lat":43.29687,"lon":5.37283,"is_reserved":false,"is_disabled":false,"rental_uris":{"android":"levelo://app?vid=6d31f4c4-06e1-4a40-a89e-817a0bd386a5","ios":"levelo://app?vid=6d31f4c4-06e1-4a40-a89e-817a0bd386a5"},"vehicle_type_id":"4","last_reported":1753546328,"current_range_meters":6800,"station_id":"ce4bgk12rcd13ifvqbj0","pricing_plan_id":"cebpf4jnsgd1na2vs0mg"},{"bike_id":"d28158e1-96a7-4fdb-b733-a7bc9d6d9814","system_id":"levelo_inurba_marseille","lat":43.24178,"lon":5.36391,"is_reserved":false,"is_disabled":false,"rental_uris":{"android":"levelo://app?vid=d28158e1-96a7-4fdb-b733-a7bc9d6d9814","ios":"levelo://app?vid=d28158e1-96a7-4fdb-b733-a7bc9d6d9814"},"vehicle_type_id":"4","last_reported":1753546328,"current_range_meters":6800,"station_id":"cpo36qri1sfpv3e86is0","pricing_plan_id":"cebpf4jnsgd1na2vs0mg"},{"bike_id":"c8bc50f2-029a-4c35-959d-9b2c27ffd527","system_id":"levelo_inurba_marseille","lat":43.28272,"lon":5.3507,"is_reserved":false,"is_disabled":false,"rental_uris":{"android":"levelo://app?vid=c8bc50f2-029a-4c35-959d-9b2c27ffd527","ios":"levelo://app?vid=c8bc50f2-029a-4c35-959d-9b2c27ffd527"},"vehicle_type_id":"4","last_reported":1753546328,"current_range_meters":6800,"station_id":"ce4bhbp2rcd13ifvqerg","pricing_plan_id":"cebpf4jnsgd1na2vs0mg"},{"bike_id":"e1b27c2f-3df5-481b-8f0d-1ab1422db836","system_id":"levelo_inurba_marseille","lat":43.29803,"lon":5.3809,"is_reserved":false,"is_disabled":false,"rental_uris":{"android":"levelo://app?vid=e1b27c2f-3df5-481b-8f0d-1ab1422db836","ios":"levelo://app?vid=e1b27c2f-3df5-481b-8f0d-1ab1422db836"},"vehicle_type_id":"4","last_reported":1753546328,"current_range_meters":6800,"station_id":"ce4bgip2rcd13ifvqbb0","pricing_plan_id":"cebpf4jnsgd1na2vs0mg"},{"bike_id":"522ad9e7-9050-4605-98b1-2f0d1d8266ee","system_id":"levelo_inurba_marseille","lat":43.30432,"lon":5.38889,"is_reserved":false,"is_disabled":false,"rental_uris":{"android":"levelo://app?vid=522ad9e7-9050-4605-98b1-2f0d1d8266ee","ios":"levelo://app?vid=522ad9e7-9050-4605-98b1-2f0d1d8266ee"},"vehicle_type_id":"4","last_reported":1753546328,"current_range_meters":6800,"station_id":"ce4bgk12rcd13ifvqbi0","pricing_plan_id":"cebpf4jnsgd1na2vs0mg"},{"bike_id":"12f539a9-9e91-4d41-8634-f90b45114c83","system_id":"levelo_inurba_marseille","lat":43.30299,"lon":5.3686,"is_reserved":false,"is_disabled":false,"rental_uris":{"android":"levelo://app?vid=12f539a9-9e91-4d41-8634-f90b45114c83","ios":"levelo://app?vid=12f539a9-9e91-4d41-8634-f90b45114c83"},"vehicle_type_id":"4","last_reported":1753546328,"current_range_meters":6800,"station_id":"ce4bgqh2rcd13ifvqc5g","pricing_plan_id":"cebpf4jnsgd1na2vs0mg"},{"bike_id":"ead5933d-c89a-4541-804c-940298ef306d","system_id":"levelo_inurba_marseille","lat":43.30307,"lon":5.39205,"is_reserved":false,"is_disabled":false,"rental_uris":{"android":"levelo://app?vid=ead5933d-c89a-4541-804c-940298ef306d","ios":"levelo://app?vid=ead5933d-c89a-4541-804c-940298ef306d"},"vehicle_type_id":"4","last_reported":1753546328,"current_range_meters":6800,"station_id":"ce4bgkh2rcd13ifvqbk0","pricing_plan_id":"cebpf4jnsgd1na2vs0mg"},{"bike_id":"55c2e9c6-42c6-44c2-9a99-25ea02c0a1ad","system_id":"levelo_inurba_marseille","lat":43.29265,"lon":5.38437,"is_reserved":false,"is_disabled":false,"rental_uris":{"android":"levelo://app?vid=55c2e9c6-42c6-44c2-9a99-25ea02c0a1ad","ios":"levelo://app?vid=55c2e9c6-42c6-44c2-9a99-25ea02c0a1ad"},"vehicle_type_id":"4","last_reported":1753546328,"current_range_meters":7200,"station_id":"ce4bh692rcd13ifvqea0","pricing_plan_id":"cebpf4jnsgd1na2vs0mg"},{"bike_id":"984ce815-1b47-4f40-9129-d8b2fdda770a","system_id":"levelo_inurba_marseille","lat":43.229341,"lon":5.353685,"is_reserved":false,"is_disabled":false,"rental_uris":{"android":"levelo://app?vid=984ce815-1b47-4f40-9129-d8b2fdda770a","ios":"levelo://app?vid=984ce815-1b47-4f40-9129-d8b2fdda770a"},"vehicle_type_id":"4","last_reported":1753546328,"current_range_meters":8000,"station_id":"cpo3532slgdg3j2ikp40","pricing_plan_id":"cebpf4jnsgd1na2vs0mg"},{"bike_id":"f4297774-6ce9-4397-bcda-9a3e5bb9cd76","system_id":"levelo_inurba_marseille","lat":43.225081,"lon":5.347847,"is_reserved":false,"is_disabled":false,"rental_uris":{"android":"levelo://app?vid=f4297774-6ce9-4397-bcda-9a3e5bb9cd76","ios":"levelo://app?vid=f4297774-6ce9-4397-bcda-9a3e5bb9cd76"},"vehicle_type_id":"4","last_reported":1753546328,"current_range_meters":8000,"station_id":"st_cvj5dfep6f1abm77gieg","pricing_plan_id":"cebpf4jnsgd1na2vs0mg"},{"bike_id":"03ec8845-16f6-49aa-9537-09e158576882","system_id":"levelo_inurba_marseille","lat":43.292211,"lon":5.360565,"is_reserved":false,"is_disabled":false,"rental_uris":{"android":"levelo://app?vid=03ec8845-16f6-49aa-9537-09e158576882","ios":"levelo://app?vid=03ec8845-16f6-49aa-9537-09e158576882"},"vehicle_type_id":"4","last_reported":1753546328,"current_range_meters":8000,"station_id":"ce4bhbh2rcd13ifvqeqg","pricing_plan_id":"cebpf4jnsgd1na2vs0mg"},{"bike_id":"e9d4b779-897d-4911-bb2d-717b3a63dca2","system_id":"levelo_inurba_marseille","lat":43.28707,"lon":5.37392,"is_reserved":false,"is_disabled":false,"rental_uris":{"android":"levelo://app?vid=e9d4b779-897d-4911-bb2d-717b3a63dca2","ios":"levelo://app?vid=e9d4b779-897d-4911-bb2d-717b3a63dca2"},"vehicle_type_id":"4","last_reported":1753546328,"current_range_meters":8000,"station_id":"ce4bh3p2rcd13ifvqdq0","pricing_plan_id":"cebpf4jnsgd1na2vs0mg"},{"bike_id":"59bf96aa-cf95-416b-91b3-8f5c19b6bdb9","system_id":"levelo_inurba_marseille","lat":43.28722,"lon":5.3793,"is_reserved":false,"is_disabled":false,"rental_uris":{"android":"levelo://app?vid=59bf96aa-cf95-416b-91b3-8f5c19b6bdb9","ios":"levelo://app?vid=59bf96aa-cf95-416b-91b3-8f5c19b6bdb9"},"vehicle_type_id":"4","last_reported":1753546328,"current_range_meters":8000,"station_id":"ce4bh9p2rcd13ifvqec0","pricing_plan_id":"cebpf4jnsgd1na2vs0mg"},{"bike_id":"21f9cdd0-4df8-4c4e-9f2d-c1aa7a098ce2","system_id":"levelo_inurba_marseille","lat":43.28415,"lon":5.34988,"is_reserved":false,"is_disabled":false,"rental_uris":{"android":"levelo://app?vid=21f9cdd0-4df8-4c4e-9f2d-c1aa7a098ce2","ios":"levelo://app?vid=21f9cdd0-4df8-4c4e-9f2d-c1aa7a098ce2"},"vehicle_type_id":"4","last_reported":1753546328,"current_range_meters":8000,"station_id":"ce4bhbh2rcd13ifvqepg","pricing_plan_id":"cebpf4jnsgd1na2vs0mg"},{"bike_id":"9bde888b-6941-4e1e-8563-6cb847f7e1ff","system_id":"levelo_inurba_marseille","lat":43.22507,"lon":5.347785,"is_reserved":false,"is_disabled":false,"rental_uris":{"android":"levelo://app?vid=9bde888b-6941-4e1e-8563-6cb847f7e1ff","ios":"levelo://app?vid=9bde888b-6941-4e1e-8563-6cb847f7e1ff"},"vehicle_type_id":"4","last_reported":1753546328,"current_range_meters":8000,"station_id":"","pricing_plan_id":"cebpf4jnsgd1na2vs0mg"},{"bike_id":"8c489214-cb2f-47dc-bc8f-98624053393f","system_id":"levelo_inurba_marseille","lat":43.284808,"lon":5.385654,"is_reserved":false,"is_disabled":false,"rental_uris":{"android":"levelo://app?vid=8c489214-cb2f-47dc-bc8f-98624053393f","ios":"levelo://app?vid=8c489214-cb2f-47dc-bc8f-98624053393f"},"vehicle_type_id":"4","last_reported":1753546328,"current_range_meters":8400,"station_id":"ce4bh8p2rcd13ifvqeb0","pricing_plan_id":"cebpf4jnsgd1na2vs0mg"},{"bike_id":"51c656d4-f0fe-40de-a76e-032aa8bfe5b8","system_id":"levelo_inurba_marseille","lat":43.29779,"lon":5.370905,"is_reserved":false,"is_disabled":false,"rental_uris":{"android":"levelo://app?vid=51c656d4-f0fe-40de-a76e-032aa8bfe5b8","ios":"levelo://app?vid=51c656d4-f0fe-40de-a76e-032aa8bfe5b8"},"vehicle_type_id":"4","last_reported":1753546328,"current_range_meters":8400,"station_id":"ce4bgop2rcd13ifvqc1g","pricing_plan_id":"cebpf4jnsgd1na2vs0mg"},{"bike_id":"896bdac4-ebc0-4861-a9af-387074e0dbf5","system_id":"levelo_inurba_marseille","lat":43.23061,"lon":5.35496,"is_reserved":false,"is_disabled":false,"rental_uris":{"android":"levelo://app?vid=896bdac4-ebc0-4861-a9af-387074e0dbf5","ios":"levelo://app?vid=896bdac4-ebc0-4861-a9af-387074e0dbf5"},"vehicle_type_id":"4","last_reported":1753546328,"current_range_meters":8400,"station_id":"cpo3342slgdg3j2ifvpg","pricing_plan_id":"cebpf4jnsgd1na2vs0mg"},{"bike_id":"078febbd-6d49-4abf-8b46-d33f87f8da46","system_id":"levelo_inurba_marseille","lat":43.25452,"lon":5.38007,"is_reserved":false,"is_disabled":false,"rental_uris":{"android":"levelo://app?vid=078febbd-6d49-4abf-8b46-d33f87f8da46","ios":"levelo://app?vid=078febbd-6d49-4abf-8b46-d33f87f8da46"},"vehicle_type_id":"4","last_reported":1753546328,"current_range_meters":8400,"station_id":"","pricing_plan_id":"cebpf4jnsgd1na2vs0mg"},{"bike_id":"4177c350-b39d-4243-a455-e13f00e80b0a","system_id":"levelo_inurba_marseille","lat":43.26206,"lon":5.37439,"is_reserved":false,"is_disabled":true,"rental_uris":{"android":"levelo://app?vid=4177c350-b39d-4243-a455-e13f00e80b0a","ios":"levelo://app?vid=4177c350-b39d-4243-a455-e13f00e80b0a"},"vehicle_type_id":"4","last_reported":1753546328,"current_range_meters":8400,"station_id":"ce4bhgp2rcd13ifvqfc0","pricing_plan_id":"cebpf4jnsgd1na2vs0mg"},{"bike_id":"ae041e1f-658d-4c32-a696-045323a4ef5f","system_id":"levelo_inurba_marseille","lat":43.28427,"lon":5.34983,"is_reserved":false,"is_disabled":false,"rental_uris":{"android":"levelo://app?vid=ae041e1f-658d-4c32-a696-045323a4ef5f","ios":"levelo://app?vid=ae041e1f-658d-4c32-a696-045323a4ef5f"},"vehicle_type_id":"4","last_reported":1753546328,"current_range_meters":8400,"station_id":"ce4bhbh2rcd13ifvqepg","pricing_plan_id":"cebpf4jnsgd1na2vs0mg"},{"bike_id":"c1dcf064-7633-4f3e-9c7d-cf25342fb85f","system_id":"levelo_inurba_marseille","lat":43.27212,"lon":5.39193,"is_reserved":false,"is_disabled":true,"rental_uris":{"android":"levelo://app?vid=c1dcf064-7633-4f3e-9c7d-cf25342fb85f","ios":"levelo://app?vid=c1dcf064-7633-4f3e-9c7d-cf25342fb85f"},"vehicle_type_id":"4","last_reported":1753546328,"current_range_meters":8400,"station_id":"ce4bhhp2rcd13ifvqfm0","pricing_plan_id":"cebpf4jnsgd1na2vs0mg"},{"bike_id":"cd5561c9-1cf8-4017-b7e0-c99a926bc380","system_id":"levelo_inurba_marseille","lat":43.32289,"lon":5.38273,"is_reserved":false,"is_disabled":false,"rental_uris":{"android":"levelo://app?vid=cd5561c9-1cf8-4017-b7e0-c99a926bc380","ios":"levelo://app?vid=cd5561c9-1cf8-4017-b7e0-c99a926bc380"},"vehicle_type_id":"4","last_reported":1753546328,"current_range_meters":8800,"station_id":"ce4bhr12rcd13ifvqhqg","pricing_plan_id":"cebpf4jnsgd1na2vs0mg"},{"bike_id":"334b0867-19a7-409f-838b-3cfe08b8009f","system_id":"levelo_inurba_marseille","lat":43.29968,"lon":5.38498,"is_reserved":false,"is_disabled":false,"rental_uris":{"android":"levelo://app?vid=334b0867-19a7-409f-838b-3cfe08b8009f","ios":"levelo://app?vid=334b0867-19a7-409f-838b-3cfe08b8009f"},"vehicle_type_id":"4","last_reported":1753546328,"current_range_meters":8800,"station_id":"ce4bgj92rcd13ifvqbd0","pricing_plan_id":"cebpf4jnsgd1na2vs0mg"},{"bike_id":"f0975fd6-9bec-4748-9ff6-4a7c96c46315","system_id":"levelo_inurba_marseille","lat":43.29522,"lon":5.37506,"is_reserved":false,"is_disabled":false,"rental_uris":{"android":"levelo://app?vid=f0975fd6-9bec-4748-9ff6-4a7c96c46315","ios":"levelo://app?vid=f0975fd6-9bec-4748-9ff6-4a7c96c46315"},"vehicle_type_id":"4","last_reported":1753546328,"current_range_meters":8800,"station_id":"ce4bgkp2rcd13ifvqbmg","pricing_plan_id":"cebpf4jnsgd1na2vs0mg"},{"bike_id":"dd47bc5d-10fd-4921-99e0-97f799f13ca9","system_id":"levelo_inurba_marseille","lat":43.2843,"lon":5.34971,"is_reserved":false,"is_disabled":false,"rental_uris":{"android":"levelo://app?vid=dd47bc5d-10fd-4921-99e0-97f799f13ca9","ios":"levelo://app?vid=dd47bc5d-10fd-4921-99e0-97f799f13ca9"},"vehicle_type_id":"4","last_reported":1753546328,"current_range_meters":8800,"station_id":"ce4bhbh2rcd13ifvqepg","pricing_plan_id":"cebpf4jnsgd1na2vs0mg"},{"bike_id":"ccca3042-9358-40fc-ac03-e327e01c225f","system_id":"levelo_inurba_marseille","lat":43.23305,"lon":5.36112,"is_reserved":false,"is_disabled":false,"rental_uris":{"android":"levelo://app?vid=ccca3042-9358-40fc-ac03-e327e01c225f","ios":"levelo://app?vid=ccca3042-9358-40fc-ac03-e327e01c225f"},"vehicle_type_id":"4","last_reported":1753546328,"current_range_meters":8800,"station_id":"","pricing_plan_id":"cebpf4jnsgd1na2vs0mg"},{"bike_id":"19b621d0-fd8f-4680-ab87-60b5026ad27d","system_id":"levelo_inurba_marseille","lat":43.2842,"lon":5.34987,"is_reserved":false,"is_disabled":false,"rental_uris":{"android":"levelo://app?vid=19b621d0-fd8f-4680-ab87-60b5026ad27d","ios":"levelo://app?vid=19b621d0-fd8f-4680-ab87-60b5026ad27d"},"vehicle_type_id":"4","last_reported":1753546328,"current_range_meters":8800,"station_id":"ce4bhbh2rcd13ifvqepg","pricing_plan_id":"cebpf4jnsgd1na2vs0mg"},{"bike_id":"9744b906-b5ae-4849-a945-4576d8130c30","system_id":"levelo_inurba_marseille","lat":43.21748,"lon":5.34603,"is_reserved":false,"is_disabled":false,"rental_uris":{"android":"levelo://app?vid=9744b906-b5ae-4849-a945-4576d8130c30","ios":"levelo://app?vid=9744b906-b5ae-4849-a945-4576d8130c30"},"vehicle_type_id":"4","last_reported":1753546328,"current_range_meters":8800,"station_id":"","pricing_plan_id":"cebpf4jnsgd1na2vs0mg"},{"bike_id":"8b3a0da4-a583-48f1-b6b0-53adf9eab627","system_id":"levelo_inurba_marseille","lat":43.27961,"lon":5.38754,"is_reserved":false,"is_disabled":false,"rental_uris":{"android":"levelo://app?vid=8b3a0da4-a583-48f1-b6b0-53adf9eab627","ios":"levelo://app?vid=8b3a0da4-a583-48f1-b6b0-53adf9eab627"},"vehicle_type_id":"4","last_reported":1753546328,"current_range_meters":8400,"station_id":"ce4bhg12rcd13ifvqf80","pricing_plan_id":"cebpf4jnsgd1na2vs0mg"},{"bike_id":"d6d0a274-12c8-452c-8008-7fc6204edf46","system_id":"levelo_inurba_marseille","lat":43.25496,"lon":5.37651,"is_reserved":false,"is_disabled":false,"rental_uris":{"android":"levelo://app?vid=d6d0a274-12c8-452c-8008-7fc6204edf46","ios":"levelo://app?vid=d6d0a274-12c8-452c-8008-7fc6204edf46"},"vehicle_type_id":"4","last_reported":1753546328,"current_range_meters":9200,"station_id":"ce4bhh12rcd13ifvqff0","pricing_plan_id":"cebpf4jnsgd1na2vs0mg"},{"bike_id":"aa5cd28e-6543-4929-beb4-50872fe4c99a","system_id":"levelo_inurba_marseille","lat":43.28492,"lon":5.3842,"is_reserved":false,"is_disabled":false,"rental_uris":{"android":"levelo://app?vid=aa5cd28e-6543-4929-beb4-50872fe4c99a","ios":"levelo://app?vid=aa5cd28e-6543-4929-beb4-50872fe4c99a"},"vehicle_type_id":"4","last_reported":1753546328,"current_range_meters":9200,"station_id":"ce4bh512rcd13ifvqe3g","pricing_plan_id":"cebpf4jnsgd1na2vs0mg"},{"bike_id":"ef6fb76d-5b58-4c5a-b629-ca142978bc1f","system_id":"levelo_inurba_marseille","lat":43.30143,"lon":5.37421,"is_reserved":false,"is_disabled":false,"rental_uris":{"android":"levelo://app?vid=ef6fb76d-5b58-4c5a-b629-ca142978bc1f","ios":"levelo://app?vid=ef6fb76d-5b58-4c5a-b629-ca142978bc1f"},"vehicle_type_id":"4","last_reported":1753546328,"current_range_meters":9200,"station_id":"ce4bgs92rcd13ifvqcc0","pricing_plan_id":"cebpf4jnsgd1na2vs0mg"},{"bike_id":"b7952ac5-d00c-4cfb-bc2a-d7fa80a56773","system_id":"levelo_inurba_marseille","lat":43.2828,"lon":5.3506,"is_reserved":false,"is_disabled":false,"rental_uris":{"android":"levelo://app?vid=b7952ac5-d00c-4cfb-bc2a-d7fa80a56773","ios":"levelo://app?vid=b7952ac5-d00c-4cfb-bc2a-d7fa80a56773"},"vehicle_type_id":"4","last_reported":1753546328,"current_range_meters":9200,"station_id":"ce4bhbp2rcd13ifvqerg","pricing_plan_id":"cebpf4jnsgd1na2vs0mg"},{"bike_id":"13c4991c-3e29-4005-9c0f-381d2d699abf","system_id":"levelo_inurba_marseille","lat":43.28918,"lon":5.36038,"is_reserved":false,"is_disabled":false,"rental_uris":{"android":"levelo://app?vid=13c4991c-3e29-4005-9c0f-381d2d699abf","ios":"levelo://app?vid=13c4991c-3e29-4005-9c0f-381d2d699abf"},"vehicle_type_id":"4","last_reported":1753546328,"current_range_meters":9200,"station_id":"","pricing_plan_id":"cebpf4jnsgd1na2vs0mg"},{"bike_id":"dc9e1c82-30cc-40d0-b96b-43aa21b80cfe","system_id":"levelo_inurba_marseille","lat":43.21212,"lon":5.35056,"is_reserved":false,"is_disabled":false,"rental_uris":{"android":"levelo://app?vid=dc9e1c82-30cc-40d0-b96b-43aa21b80cfe","ios":"levelo://app?vid=dc9e1c82-30cc-40d0-b96b-43aa21b80cfe"},"vehicle_type_id":"4","last_reported":1753546328,"current_range_meters":9200,"station_id":"st_cvj6sg6p6f1abm77japg","pricing_plan_id":"cebpf4jnsgd1na2vs0mg"},{"bike_id":"d79b409f-ca1b-43df-9348-1c6665f1fc25","system_id":"levelo_inurba_marseille","lat":43.22503,"lon":5.3477,"is_reserved":false,"is_disabled":false,"rental_uris":{"android":"levelo://app?vid=d79b409f-ca1b-43df-9348-1c6665f1fc25","ios":"levelo://app?vid=d79b409f-ca1b-43df-9348-1c6665f1fc25"},"vehicle_type_id":"4","last_reported":1753546328,"current_range_meters":9600,"station_id":"st_cvj5dfep6f1abm77gieg","pricing_plan_id":"cebpf4jnsgd1na2vs0mg"},{"bike_id":"46a2fad5-bb40-497e-9a4e-dcaa1f4315e0","system_id":"levelo_inurba_marseille","lat":43.3013,"lon":5.398551,"is_reserved":false,"is_disabled":false,"rental_uris":{"android":"levelo://app?vid=46a2fad5-bb40-497e-9a4e-dcaa1f4315e0","ios":"levelo://app?vid=46a2fad5-bb40-497e-9a4e-dcaa1f4315e0"},"vehicle_type_id":"4","last_reported":1753546328,"current_range_meters":9600,"station_id":"ce4bh0h2rcd13ifvqd40","pricing_plan_id":"cebpf4jnsgd1na2vs0mg"},{"bike_id":"43cf4049-15dd-4e8c-88a8-61cd8dc10bf5","system_id":"levelo_inurba_marseille","lat":43.33253,"lon":5.37897,"is_reserved":false,"is_disabled":false,"rental_uris":{"android":"levelo://app?vid=43cf4049-15dd-4e8c-88a8-61cd8dc10bf5","ios":"levelo://app?vid=43cf4049-15dd-4e8c-88a8-61cd8dc10bf5"},"vehicle_type_id":"4","last_reported":1753546328,"current_range_meters":9600,"station_id":"","pricing_plan_id":"cebpf4jnsgd1na2vs0mg"},{"bike_id":"28d2987a-af49-47c1-af2d-8871171acd7d","system_id":"levelo_inurba_marseille","lat":43.3038,"lon":5.42487,"is_reserved":false,"is_disabled":false,"rental_uris":{"android":"levelo://app?vid=28d2987a-af49-47c1-af2d-8871171acd7d","ios":"levelo://app?vid=28d2987a-af49-47c1-af2d-8871171acd7d"},"vehicle_type_id":"4","last_reported":1753546328,"current_range_meters":9600,"station_id":"ce4bhoh2rcd13ifvqh6g","pricing_plan_id":"cebpf4jnsgd1na2vs0mg"},{"bike_id":"f5d3a010-954b-41b4-aa5d-f2209a60afa7","system_id":"levelo_inurba_marseille","lat":43.29301,"lon":5.37454,"is_reserved":false,"is_disabled":false,"rental_uris":{"android":"levelo://app?vid=f5d3a010-954b-41b4-aa5d-f2209a60afa7","ios":"levelo://app?vid=f5d3a010-954b-41b4-aa5d-f2209a60afa7"},"vehicle_type_id":"4","last_reported":1753546328,"current_range_meters":9200,"station_id":"ce4bgi12rcd13ifvqb70","pricing_plan_id":"cebpf4jnsgd1na2vs0mg"},{"bike_id":"f687220c-20f0-41e4-9eb0-63bd3547cc82","system_id":"levelo_inurba_marseille","lat":43.29978,"lon":5.37175,"is_reserved":false,"is_disabled":false,"rental_uris":{"android":"levelo://app?vid=f687220c-20f0-41e4-9eb0-63bd3547cc82","ios":"levelo://app?vid=f687220c-20f0-41e4-9eb0-63bd3547cc82"},"vehicle_type_id":"4","last_reported":1753546328,"current_range_meters":9600,"station_id":"ce4bgr92rcd13ifvqc7g","pricing_plan_id":"cebpf4jnsgd1na2vs0mg"},{"bike_id":"a3fe9995-2e3e-423b-9540-429a92fa997e","system_id":"levelo_inurba_marseille","lat":43.301995,"lon":5.371708,"is_reserved":false,"is_disabled":false,"rental_uris":{"android":"levelo://app?vid=a3fe9995-2e3e-423b-9540-429a92fa997e","ios":"levelo://app?vid=a3fe9995-2e3e-423b-9540-429a92fa997e"},"vehicle_type_id":"4","last_reported":1753546328,"current_range_meters":9600,"station_id":"","pricing_plan_id":"cebpf4jnsgd1na2vs0mg"},{"bike_id":"310b2400-dd2e-4320-8ec4-6b74e028c0c7","system_id":"levelo_inurba_marseille","lat":43.225043,"lon":5.347773,"is_reserved":false,"is_disabled":false,"rental_uris":{"android":"levelo://app?vid=310b2400-dd2e-4320-8ec4-6b74e028c0c7","ios":"levelo://app?vid=310b2400-dd2e-4320-8ec4-6b74e028c0c7"},"vehicle_type_id":"4","last_reported":1753546328,"current_range_meters":9600,"station_id":"","pricing_plan_id":"cebpf4jnsgd1na2vs0mg"},{"bike_id":"9e45d4a7-845f-49ff-add4-deb743109a56","system_id":"levelo_inurba_marseille","lat":43.21778,"lon":5.34575,"is_reserved":false,"is_disabled":false,"rental_uris":{"android":"levelo://app?vid=9e45d4a7-845f-49ff-add4-deb743109a56","ios":"levelo://app?vid=9e45d4a7-845f-49ff-add4-deb743109a56"},"vehicle_type_id":"4","last_reported":1753546328,"current_range_meters":10000,"station_id":"st_cvj6r9ubvosntc0bgbag","pricing_plan_id":"cebpf4jnsgd1na2vs0mg"},{"bike_id":"99cd924e-4adb-4d60-b968-210c7664a393","system_id":"levelo_inurba_marseille","lat":43.28627,"lon":5.35096,"is_reserved":false,"is_disabled":false,"rental_uris":{"android":"levelo://app?vid=99cd924e-4adb-4d60-b968-210c7664a393","ios":"levelo://app?vid=99cd924e-4adb-4d60-b968-210c7664a393"},"vehicle_type_id":"4","last_reported":1753546328,"current_range_meters":10000,"station_id":"ce4bhch2rcd13ifvqeug","pricing_plan_id":"cebpf4jnsgd1na2vs0mg"},{"bike_id":"ab991371-506a-411d-b1d8-1efc5ac7cde6","system_id":"levelo_inurba_marseille","lat":43.22799,"lon":5.35181,"is_reserved":false,"is_disabled":false,"rental_uris":{"android":"levelo://app?vid=ab991371-506a-411d-b1d8-1efc5ac7cde6","ios":"levelo://app?vid=ab991371-506a-411d-b1d8-1efc5ac7cde6"},"vehicle_type_id":"4","last_reported":1753546328,"current_range_meters":10000,"station_id":"","pricing_plan_id":"cebpf4jnsgd1na2vs0mg"},{"bike_id":"c9894405-0536-45fd-b619-2221fc64eb09","system_id":"levelo_inurba_marseille","lat":43.26232,"lon":5.3743,"is_reserved":false,"is_disabled":false,"rental_uris":{"android":"levelo://app?vid=c9894405-0536-45fd-b619-2221fc64eb09","ios":"levelo://app?vid=c9894405-0536-45fd-b619-2221fc64eb09"},"vehicle_type_id":"4","last_reported":1753546328,"current_range_meters":10000,"station_id":"","pricing_plan_id":"cebpf4jnsgd1na2vs0mg"},{"bike_id":"75a52d90-a84e-49e8-9197-7fd3f8d0259a","system_id":"levelo_inurba_marseille","lat":43.26188,"lon":5.37491,"is_reserved":false,"is_disabled":true,"rental_uris":{"android":"levelo://app?vid=75a52d90-a84e-49e8-9197-7fd3f8d0259a","ios":"levelo://app?vid=75a52d90-a84e-49e8-9197-7fd3f8d0259a"},"vehicle_type_id":"4","last_reported":1753546328,"current_range_meters":10000,"station_id":"ce4bhgp2rcd13ifvqfc0","pricing_plan_id":"cebpf4jnsgd1na2vs0mg"},{"bike_id":"c414976d-1d5a-45da-a5cb-ef4ca082fcd8","system_id":"levelo_inurba_marseille","lat":43.28404,"lon":5.37518,"is_reserved":false,"is_disabled":false,"rental_uris":{"android":"levelo://app?vid=c414976d-1d5a-45da-a5cb-ef4ca082fcd8","ios":"levelo://app?vid=c414976d-1d5a-45da-a5cb-ef4ca082fcd8"},"vehicle_type_id":"4","last_reported":1753546328,"current_range_meters":10000,"station_id":"ce4bh412rcd13ifvqds0","pricing_plan_id":"cebpf4jnsgd1na2vs0mg"},{"bike_id":"c4826b64-2a16-46fd-ae31-8ed2e3af392a","system_id":"levelo_inurba_marseille","lat":43.308782,"lon":5.396342,"is_reserved":false,"is_disabled":false,"rental_uris":{"android":"levelo://app?vid=c4826b64-2a16-46fd-ae31-8ed2e3af392a","ios":"levelo://app?vid=c4826b64-2a16-46fd-ae31-8ed2e3af392a"},"vehicle_type_id":"4","last_reported":1753546328,"current_range_meters":10000,"station_id":"ce4bh012rcd13ifvqcv0","pricing_plan_id":"cebpf4jnsgd1na2vs0mg"},{"bike_id":"52ab5c39-672c-46f9-9a93-deba3d438e8e","system_id":"levelo_inurba_marseille","lat":43.284313,"lon":5.349931,"is_reserved":false,"is_disabled":false,"rental_uris":{"android":"levelo://app?vid=52ab5c39-672c-46f9-9a93-deba3d438e8e","ios":"levelo://app?vid=52ab5c39-672c-46f9-9a93-deba3d438e8e"},"vehicle_type_id":"4","last_reported":1753546328,"current_range_meters":10000,"station_id":"ce4bhbh2rcd13ifvqepg","pricing_plan_id":"cebpf4jnsgd1na2vs0mg"},{"bike_id":"22dca147-1260-44d8-822d-d9d1d50cce31","system_id":"levelo_inurba_marseille","lat":43.27469,"lon":5.395864,"is_reserved":false,"is_disabled":false,"rental_uris":{"android":"levelo://app?vid=22dca147-1260-44d8-822d-d9d1d50cce31","ios":"levelo://app?vid=22dca147-1260-44d8-822d-d9d1d50cce31"},"vehicle_type_id":"4","last_reported":1753546328,"current_range_meters":10800,"station_id":"","pricing_plan_id":"cebpf4jnsgd1na2vs0mg"},{"bike_id":"e278ff31-09a3-4ed8-bc1a-351e0bbc2a16","system_id":"levelo_inurba_marseille","lat":43.29528,"lon":5.37506,"is_reserved":false,"is_disabled":false,"rental_uris":{"android":"levelo://app?vid=e278ff31-09a3-4ed8-bc1a-351e0bbc2a16","ios":"levelo://app?vid=e278ff31-09a3-4ed8-bc1a-351e0bbc2a16"},"vehicle_type_id":"4","last_reported":1753546328,"current_range_meters":10800,"station_id":"ce4bgkp2rcd13ifvqbmg","pricing_plan_id":"cebpf4jnsgd1na2vs0mg"},{"bike_id":"d0bcc9f3-8953-4b76-b446-8caf485f0312","system_id":"levelo_inurba_marseille","lat":43.28857,"lon":5.35851,"is_reserved":false,"is_disabled":false,"rental_uris":{"android":"levelo://app?vid=d0bcc9f3-8953-4b76-b446-8caf485f0312","ios":"levelo://app?vid=d0bcc9f3-8953-4b76-b446-8caf485f0312"},"vehicle_type_id":"4","last_reported":1753546328,"current_range_meters":10800,"station_id":"ce4bhb12rcd13ifvqem0","pricing_plan_id":"cebpf4jnsgd1na2vs0mg"},{"bike_id":"6a35c9d4-aa1e-4c5a-8592-6d5162009aa7","system_id":"levelo_inurba_marseille","lat":43.231978,"lon":5.355477,"is_reserved":false,"is_disabled":false,"rental_uris":{"android":"levelo://app?vid=6a35c9d4-aa1e-4c5a-8592-6d5162009aa7","ios":"levelo://app?vid=6a35c9d4-aa1e-4c5a-8592-6d5162009aa7"},"vehicle_type_id":"4","last_reported":1753546328,"current_range_meters":10800,"station_id":"ce4bhu92rcd13ifvqi70","pricing_plan_id":"cebpf4jnsgd1na2vs0mg"},{"bike_id":"4bf3130e-fa2e-4204-821a-903bdea92ef3","system_id":"levelo_inurba_marseille","lat":43.28434,"lon":5.34977,"is_reserved":false,"is_disabled":false,"rental_uris":{"android":"levelo://app?vid=4bf3130e-fa2e-4204-821a-903bdea92ef3","ios":"levelo://app?vid=4bf3130e-fa2e-4204-821a-903bdea92ef3"},"vehicle_type_id":"4","last_reported":1753546328,"current_range_meters":10800,"station_id":"ce4bhbh2rcd13ifvqepg","pricing_plan_id":"cebpf4jnsgd1na2vs0mg"},{"bike_id":"4e55759b-8928-47c8-839b-db5b17a14d1b","system_id":"levelo_inurba_marseille","lat":43.28412,"lon":5.34987,"is_reserved":false,"is_disabled":false,"rental_uris":{"android":"levelo://app?vid=4e55759b-8928-47c8-839b-db5b17a14d1b","ios":"levelo://app?vid=4e55759b-8928-47c8-839b-db5b17a14d1b"},"vehicle_type_id":"4","last_reported":1753546328,"current_range_meters":10800,"station_id":"ce4bhbh2rcd13ifvqepg","pricing_plan_id":"cebpf4jnsgd1na2vs0mg"},{"bike_id":"7f3f69ba-79ce-4c79-91ca-b8b9716f757e","system_id":"levelo_inurba_marseille","lat":43.23201,"lon":5.35553,"is_reserved":false,"is_disabled":false,"rental_uris":{"android":"levelo://app?vid=7f3f69ba-79ce-4c79-91ca-b8b9716f757e","ios":"levelo://app?vid=7f3f69ba-79ce-4c79-91ca-b8b9716f757e"},"vehicle_type_id":"4","last_reported":1753546328,"current_range_meters":11200,"station_id":"ce4bhu92rcd13ifvqi70","pricing_plan_id":"cebpf4jnsgd1na2vs0mg"},{"bike_id":"f6526d6e-0afd-4e21-a167-adab76061cd7","system_id":"levelo_inurba_marseille","lat":43.29514,"lon":5.37505,"is_reserved":false,"is_disabled":false,"rental_uris":{"android":"levelo://app?vid=f6526d6e-0afd-4e21-a167-adab76061cd7","ios":"levelo://app?vid=f6526d6e-0afd-4e21-a167-adab76061cd7"},"vehicle_type_id":"4","last_reported":1753546328,"current_range_meters":10800,"station_id":"ce4bgkp2rcd13ifvqbmg","pricing_plan_id":"cebpf4jnsgd1na2vs0mg"},{"bike_id":"8aec49e9-2a7c-473f-936a-01f180d46c56","system_id":"levelo_inurba_marseille","lat":43.225044,"lon":5.347839,"is_reserved":false,"is_disabled":false,"rental_uris":{"android":"levelo://app?vid=8aec49e9-2a7c-473f-936a-01f180d46c56","ios":"levelo://app?vid=8aec49e9-2a7c-473f-936a-01f180d46c56"},"vehicle_type_id":"4","last_reported":1753546328,"current_range_meters":11200,"station_id":"st_cvj5dfep6f1abm77gieg","pricing_plan_id":"cebpf4jnsgd1na2vs0mg"},{"bike_id":"03f588c9-1c2a-4de8-b5a1-7899710fea62","system_id":"levelo_inurba_marseille","lat":43.29779,"lon":5.37102,"is_reserved":false,"is_disabled":false,"rental_uris":{"android":"levelo://app?vid=03f588c9-1c2a-4de8-b5a1-7899710fea62","ios":"levelo://app?vid=03f588c9-1c2a-4de8-b5a1-7899710fea62"},"vehicle_type_id":"4","last_reported":1753546328,"current_range_meters":10800,"station_id":"ce4bgop2rcd13ifvqc1g","pricing_plan_id":"cebpf4jnsgd1na2vs0mg"},{"bike_id":"0860f89c-15e9-4b87-8d3c-ac311ca72e93","system_id":"levelo_inurba_marseille","lat":43.29189,"lon":5.35806,"is_reserved":false,"is_disabled":false,"rental_uris":{"android":"levelo://app?vid=0860f89c-15e9-4b87-8d3c-ac311ca72e93","ios":"levelo://app?vid=0860f89c-15e9-4b87-8d3c-ac311ca72e93"},"vehicle_type_id":"4","last_reported":1753546328,"current_range_meters":11200,"station_id":"ce4bhb12rcd13ifvqel0","pricing_plan_id":"cebpf4jnsgd1na2vs0mg"},{"bike_id":"6ab0b13c-2ff1-417a-acfd-489d6800d4c9","system_id":"levelo_inurba_marseille","lat":43.27383,"lon":5.36227,"is_reserved":false,"is_disabled":true,"rental_uris":{"android":"levelo://app?vid=6ab0b13c-2ff1-417a-acfd-489d6800d4c9","ios":"levelo://app?vid=6ab0b13c-2ff1-417a-acfd-489d6800d4c9"},"vehicle_type_id":"4","last_reported":1753546328,"current_range_meters":11200,"station_id":"ce4bhbh2rcd13ifvqeo0","pricing_plan_id":"cebpf4jnsgd1na2vs0mg"},{"bike_id":"847b44c9-efab-4746-8937-dcebf1206fff","system_id":"levelo_inurba_marseille","lat":43.26256,"lon":5.37428,"is_reserved":false,"is_disabled":false,"rental_uris":{"android":"levelo://app?vid=847b44c9-efab-4746-8937-dcebf1206fff","ios":"levelo://app?vid=847b44c9-efab-4746-8937-dcebf1206fff"},"vehicle_type_id":"4","last_reported":1753546328,"current_range_meters":11600,"station_id":"ce4bhgp2rcd13ifvqfc0","pricing_plan_id":"cebpf4jnsgd1na2vs0mg"},{"bike_id":"de99b14c-9afd-4bdd-bc56-50354c110c3d","system_id":"levelo_inurba_marseille","lat":43.25467,"lon":5.37687,"is_reserved":false,"is_disabled":false,"rental_uris":{"android":"levelo://app?vid=de99b14c-9afd-4bdd-bc56-50354c110c3d","ios":"levelo://app?vid=de99b14c-9afd-4bdd-bc56-50354c110c3d"},"vehicle_type_id":"4","last_reported":1753546328,"current_range_meters":11600,"station_id":"","pricing_plan_id":"cebpf4jnsgd1na2vs0mg"},{"bike_id":"2551aeb9-d478-4559-97a6-036ce08c7df0","system_id":"levelo_inurba_marseille","lat":43.284188,"lon":5.349875,"is_reserved":false,"is_disabled":false,"rental_uris":{"android":"levelo://app?vid=2551aeb9-d478-4559-97a6-036ce08c7df0","ios":"levelo://app?vid=2551aeb9-d478-4559-97a6-036ce08c7df0"},"vehicle_type_id":"4","last_reported":1753546328,"current_range_meters":11600,"station_id":"ce4bhbh2rcd13ifvqepg","pricing_plan_id":"cebpf4jnsgd1na2vs0mg"},{"bike_id":"efe18421-ccd1-45f8-b722-8179409cdbad","system_id":"levelo_inurba_marseille","lat":43.28417,"lon":5.34976,"is_reserved":false,"is_disabled":false,"rental_uris":{"android":"levelo://app?vid=efe18421-ccd1-45f8-b722-8179409cdbad","ios":"levelo://app?vid=efe18421-ccd1-45f8-b722-8179409cdbad"},"vehicle_type_id":"4","last_reported":1753546328,"current_range_meters":11600,"station_id":"ce4bhbh2rcd13ifvqepg","pricing_plan_id":"cebpf4jnsgd1na2vs0mg"},{"bike_id":"54e08407-c063-4919-a683-35991220deaf","system_id":"levelo_inurba_marseille","lat":43.26581,"lon":5.37285,"is_reserved":false,"is_disabled":false,"rental_uris":{"android":"levelo://app?vid=54e08407-c063-4919-a683-35991220deaf","ios":"levelo://app?vid=54e08407-c063-4919-a683-35991220deaf"},"vehicle_type_id":"4","last_reported":1753546328,"current_range_meters":11600,"station_id":"ce4bhg12rcd13ifvqf70","pricing_plan_id":"cebpf4jnsgd1na2vs0mg"},{"bike_id":"4ecdd4bc-3a9a-4012-aff7-e957a58e7a6a","system_id":"levelo_inurba_marseille","lat":43.31998,"lon":5.38165,"is_reserved":false,"is_disabled":false,"rental_uris":{"android":"levelo://app?vid=4ecdd4bc-3a9a-4012-aff7-e957a58e7a6a","ios":"levelo://app?vid=4ecdd4bc-3a9a-4012-aff7-e957a58e7a6a"},"vehicle_type_id":"4","last_reported":1753546328,"current_range_meters":11200,"station_id":"ce4bhr12rcd13ifvqhpg","pricing_plan_id":"cebpf4jnsgd1na2vs0mg"},{"bike_id":"9bf50f85-8949-4801-9ad2-89784d6514ae","system_id":"levelo_inurba_marseille","lat":43.21765,"lon":5.3457,"is_reserved":false,"is_disabled":false,"rental_uris":{"android":"levelo://app?vid=9bf50f85-8949-4801-9ad2-89784d6514ae","ios":"levelo://app?vid=9bf50f85-8949-4801-9ad2-89784d6514ae"},"vehicle_type_id":"4","last_reported":1753546328,"current_range_meters":11600,"station_id":"st_cvj6r9ubvosntc0bgbag","pricing_plan_id":"cebpf4jnsgd1na2vs0mg"},{"bike_id":"6a5be0da-2bbd-443f-9885-a9d470c4f603","system_id":"levelo_inurba_marseille","lat":43.24186,"lon":5.36392,"is_reserved":false,"is_disabled":false,"rental_uris":{"android":"levelo://app?vid=6a5be0da-2bbd-443f-9885-a9d470c4f603","ios":"levelo://app?vid=6a5be0da-2bbd-443f-9885-a9d470c4f603"},"vehicle_type_id":"4","last_reported":1753546328,"current_range_meters":11600,"station_id":"cpo36qri1sfpv3e86is0","pricing_plan_id":"cebpf4jnsgd1na2vs0mg"},{"bike_id":"b7375410-01ab-45f9-a65f-6e214e4ed86d","system_id":"levelo_inurba_marseille","lat":43.28423,"lon":5.34978,"is_reserved":false,"is_disabled":false,"rental_uris":{"android":"levelo://app?vid=b7375410-01ab-45f9-a65f-6e214e4ed86d","ios":"levelo://app?vid=b7375410-01ab-45f9-a65f-6e214e4ed86d"},"vehicle_type_id":"4","last_reported":1753546328,"current_range_meters":11600,"station_id":"ce4bhbh2rcd13ifvqepg","pricing_plan_id":"cebpf4jnsgd1na2vs0mg"},{"bike_id":"d3e595a8-0972-4eaa-9a5c-6c7f1a1d7751","system_id":"levelo_inurba_marseille","lat":43.28434,"lon":5.35004,"is_reserved":false,"is_disabled":false,"rental_uris":{"android":"levelo://app?vid=d3e595a8-0972-4eaa-9a5c-6c7f1a1d7751","ios":"levelo://app?vid=d3e595a8-0972-4eaa-9a5c-6c7f1a1d7751"},"vehicle_type_id":"4","last_reported":1753546328,"current_range_meters":11600,"station_id":"ce4bhbh2rcd13ifvqepg","pricing_plan_id":"cebpf4jnsgd1na2vs0mg"},{"bike_id":"7937f471-dcc0-4727-896c-b6f4f4a0c96e","system_id":"levelo_inurba_marseille","lat":43.27542,"lon":5.38427,"is_reserved":false,"is_disabled":false,"rental_uris":{"android":"levelo://app?vid=7937f471-dcc0-4727-896c-b6f4f4a0c96e","ios":"levelo://app?vid=7937f471-dcc0-4727-896c-b6f4f4a0c96e"},"vehicle_type_id":"4","last_reported":1753546328,"current_range_meters":11600,"station_id":"ce4bhh92rcd13ifvqfi0","pricing_plan_id":"cebpf4jnsgd1na2vs0mg"},{"bike_id":"5d7b9ea8-2b7b-4d37-98b0-6b88378b8176","system_id":"levelo_inurba_marseille","lat":43.225065,"lon":5.347851,"is_reserved":false,"is_disabled":false,"rental_uris":{"android":"levelo://app?vid=5d7b9ea8-2b7b-4d37-98b0-6b88378b8176","ios":"levelo://app?vid=5d7b9ea8-2b7b-4d37-98b0-6b88378b8176"},"vehicle_type_id":"4","last_reported":1753546328,"current_range_meters":11600,"station_id":"st_cvj5dfep6f1abm77gieg","pricing_plan_id":"cebpf4jnsgd1na2vs0mg"},{"bike_id":"f2c0d178-a474-46a0-b002-379a7a30c411","system_id":"levelo_inurba_marseille","lat":43.29411,"lon":5.37608,"is_reserved":false,"is_disabled":false,"rental_uris":{"android":"levelo://app?vid=f2c0d178-a474-46a0-b002-379a7a30c411","ios":"levelo://app?vid=f2c0d178-a474-46a0-b002-379a7a30c411"},"vehicle_type_id":"4","last_reported":1753546328,"current_range_meters":12000,"station_id":"","pricing_plan_id":"cebpf4jnsgd1na2vs0mg"},{"bike_id":"d562a3fb-b389-4bdd-a5e2-1dc01fbdcff3","system_id":"levelo_inurba_marseille","lat":43.26953,"lon":5.38628,"is_reserved":false,"is_disabled":false,"rental_uris":{"android":"levelo://app?vid=d562a3fb-b389-4bdd-a5e2-1dc01fbdcff3","ios":"levelo://app?vid=d562a3fb-b389-4bdd-a5e2-1dc01fbdcff3"},"vehicle_type_id":"4","last_reported":1753546328,"current_range_meters":12000,"station_id":"ce4bhh92rcd13ifvqfh0","pricing_plan_id":"cebpf4jnsgd1na2vs0mg"},{"bike_id":"9bff4c30-7d52-4173-88ba-afd3702b54f6","system_id":"levelo_inurba_marseille","lat":43.27995,"lon":5.41678,"is_reserved":false,"is_disabled":false,"rental_uris":{"android":"levelo://app?vid=9bff4c30-7d52-4173-88ba-afd3702b54f6","ios":"levelo://app?vid=9bff4c30-7d52-4173-88ba-afd3702b54f6"},"vehicle_type_id":"4","last_reported":1753546328,"current_range_meters":12000,"station_id":"ce4bho12rcd13ifvqh1g","pricing_plan_id":"cebpf4jnsgd1na2vs0mg"},{"bike_id":"7eb9286a-db3d-4eae-af7c-fb0a0733f591","system_id":"levelo_inurba_marseille","lat":43.29514,"lon":5.37511,"is_reserved":false,"is_disabled":false,"rental_uris":{"android":"levelo://app?vid=7eb9286a-db3d-4eae-af7c-fb0a0733f591","ios":"levelo://app?vid=7eb9286a-db3d-4eae-af7c-fb0a0733f591"},"vehicle_type_id":"4","last_reported":1753546328,"current_range_meters":12000,"station_id":"ce4bgkp2rcd13ifvqbmg","pricing_plan_id":"cebpf4jnsgd1na2vs0mg"},{"bike_id":"38ab9f3b-fe76-4f47-bf05-e3ca256156a4","system_id":"levelo_inurba_marseille","lat":43.28417,"lon":5.34993,"is_reserved":false,"is_disabled":false,"rental_uris":{"android":"levelo://app?vid=38ab9f3b-fe76-4f47-bf05-e3ca256156a4","ios":"levelo://app?vid=38ab9f3b-fe76-4f47-bf05-e3ca256156a4"},"vehicle_type_id":"4","last_reported":1753546328,"current_range_meters":12000,"station_id":"ce4bhbh2rcd13ifvqepg","pricing_plan_id":"cebpf4jnsgd1na2vs0mg"},{"bike_id":"6070b287-ba72-4b04-8e31-29269d5dd36d","system_id":"levelo_inurba_marseille","lat":43.24075,"lon":5.37708,"is_reserved":false,"is_disabled":false,"rental_uris":{"android":"levelo://app?vid=6070b287-ba72-4b04-8e31-29269d5dd36d","ios":"levelo://app?vid=6070b287-ba72-4b04-8e31-29269d5dd36d"},"vehicle_type_id":"4","last_reported":1753546328,"current_range_meters":12000,"station_id":"ce4bhnp2rcd13ifvqgvg","pricing_plan_id":"cebpf4jnsgd1na2vs0mg"},{"bike_id":"4403d826-37a2-4653-b687-8ba2e58c1d89","system_id":"levelo_inurba_marseille","lat":43.26028,"lon":5.37549,"is_reserved":false,"is_disabled":false,"rental_uris":{"android":"levelo://app?vid=4403d826-37a2-4653-b687-8ba2e58c1d89","ios":"levelo://app?vid=4403d826-37a2-4653-b687-8ba2e58c1d89"},"vehicle_type_id":"4","last_reported":1753546328,"current_range_meters":12000,"station_id":"ce4bhgh2rcd13ifvqfa0","pricing_plan_id":"cebpf4jnsgd1na2vs0mg"},{"bike_id":"57755280-973c-4ff3-9c25-8f15e2c5b510","system_id":"levelo_inurba_marseille","lat":43.31872,"lon":5.37373,"is_reserved":false,"is_disabled":false,"rental_uris":{"android":"levelo://app?vid=57755280-973c-4ff3-9c25-8f15e2c5b510","ios":"levelo://app?vid=57755280-973c-4ff3-9c25-8f15e2c5b510"},"vehicle_type_id":"4","last_reported":1753546328,"current_range_meters":12000,"station_id":"","pricing_plan_id":"cebpf4jnsgd1na2vs0mg"},{"bike_id":"aa07c8a3-e832-4974-a32d-90dceff8ae0c","system_id":"levelo_inurba_marseille","lat":43.21755,"lon":5.34601,"is_reserved":false,"is_disabled":false,"rental_uris":{"android":"levelo://app?vid=aa07c8a3-e832-4974-a32d-90dceff8ae0c","ios":"levelo://app?vid=aa07c8a3-e832-4974-a32d-90dceff8ae0c"},"vehicle_type_id":"4","last_reported":1753546328,"current_range_meters":12400,"station_id":"","pricing_plan_id":"cebpf4jnsgd1na2vs0mg"},{"bike_id":"09b7f600-cb1e-4ea0-adc2-9c3dcb778794","system_id":"levelo_inurba_marseille","lat":43.225025,"lon":5.347913,"is_reserved":false,"is_disabled":false,"rental_uris":{"android":"levelo://app?vid=09b7f600-cb1e-4ea0-adc2-9c3dcb778794","ios":"levelo://app?vid=09b7f600-cb1e-4ea0-adc2-9c3dcb778794"},"vehicle_type_id":"4","last_reported":1753546328,"current_range_meters":12400,"station_id":"st_cvj5dfep6f1abm77gieg","pricing_plan_id":"cebpf4jnsgd1na2vs0mg"},{"bike_id":"7f7a4770-cb44-4cbe-afee-f7531a238fa9","system_id":"levelo_inurba_marseille","lat":43.225024,"lon":5.347911,"is_reserved":false,"is_disabled":false,"rental_uris":{"android":"levelo://app?vid=7f7a4770-cb44-4cbe-afee-f7531a238fa9","ios":"levelo://app?vid=7f7a4770-cb44-4cbe-afee-f7531a238fa9"},"vehicle_type_id":"4","last_reported":1753546328,"current_range_meters":12400,"station_id":"st_cvj5dfep6f1abm77gieg","pricing_plan_id":"cebpf4jnsgd1na2vs0mg"},{"bike_id":"b5aab1b5-818a-4dfd-b7ae-70df5639e329","system_id":"levelo_inurba_marseille","lat":43.27059,"lon":5.42286,"is_reserved":false,"is_disabled":false,"rental_uris":{"android":"levelo://app?vid=b5aab1b5-818a-4dfd-b7ae-70df5639e329","ios":"levelo://app?vid=b5aab1b5-818a-4dfd-b7ae-70df5639e329"},"vehicle_type_id":"4","last_reported":1753546328,"current_range_meters":12400,"station_id":"ce4bhk92rcd13ifvqgb0","pricing_plan_id":"cebpf4jnsgd1na2vs0mg"},{"bike_id":"de80e1f8-f338-4fdf-a46a-fb5d0e7700ed","system_id":"levelo_inurba_marseille","lat":43.23951,"lon":5.36646,"is_reserved":false,"is_disabled":false,"rental_uris":{"android":"levelo://app?vid=de80e1f8-f338-4fdf-a46a-fb5d0e7700ed","ios":"levelo://app?vid=de80e1f8-f338-4fdf-a46a-fb5d0e7700ed"},"vehicle_type_id":"4","last_reported":1753546328,"current_range_meters":12400,"station_id":"ce4bhi12rcd13ifvqfp0","pricing_plan_id":"cebpf4jnsgd1na2vs0mg"},{"bike_id":"09447d92-0522-480e-b6b5-24959949ccf9","system_id":"levelo_inurba_marseille","lat":43.32439,"lon":5.36794,"is_reserved":false,"is_disabled":false,"rental_uris":{"android":"levelo://app?vid=09447d92-0522-480e-b6b5-24959949ccf9","ios":"levelo://app?vid=09447d92-0522-480e-b6b5-24959949ccf9"},"vehicle_type_id":"4","last_reported":1753546328,"current_range_meters":12800,"station_id":"","pricing_plan_id":"cebpf4jnsgd1na2vs0mg"},{"bike_id":"3c2cdfbb-35ee-4f1f-9cf7-0618196f8c4d","system_id":"levelo_inurba_marseille","lat":43.31992,"lon":5.38161,"is_reserved":false,"is_disabled":false,"rental_uris":{"android":"levelo://app?vid=3c2cdfbb-35ee-4f1f-9cf7-0618196f8c4d","ios":"levelo://app?vid=3c2cdfbb-35ee-4f1f-9cf7-0618196f8c4d"},"vehicle_type_id":"4","last_reported":1753546328,"current_range_meters":12800,"station_id":"ce4bhr12rcd13ifvqhpg","pricing_plan_id":"cebpf4jnsgd1na2vs0mg"},{"bike_id":"190ee906-dca3-4765-99f1-20ef55b1eaa9","system_id":"levelo_inurba_marseille","lat":43.23946,"lon":5.36643,"is_reserved":false,"is_disabled":false,"rental_uris":{"android":"levelo://app?vid=190ee906-dca3-4765-99f1-20ef55b1eaa9","ios":"levelo://app?vid=190ee906-dca3-4765-99f1-20ef55b1eaa9"},"vehicle_type_id":"4","last_reported":1753546328,"current_range_meters":12800,"station_id":"ce4bhi12rcd13ifvqfp0","pricing_plan_id":"cebpf4jnsgd1na2vs0mg"},{"bike_id":"01919711-51c0-4b9e-863e-584f9a31b4ec","system_id":"levelo_inurba_marseille","lat":43.29958,"lon":5.39765,"is_reserved":false,"is_disabled":true,"rental_uris":{"android":"levelo://app?vid=01919711-51c0-4b9e-863e-584f9a31b4ec","ios":"levelo://app?vid=01919711-51c0-4b9e-863e-584f9a31b4ec"},"vehicle_type_id":"4","last_reported":1753546328,"current_range_meters":12800,"station_id":"ce4bh0h2rcd13ifvqd50","pricing_plan_id":"cebpf4jnsgd1na2vs0mg"},{"bike_id":"63b65e92-387b-484f-8648-cfb310be236a","system_id":"levelo_inurba_marseille","lat":43.27499,"lon":5.42448,"is_reserved":false,"is_disabled":false,"rental_uris":{"android":"levelo://app?vid=63b65e92-387b-484f-8648-cfb310be236a","ios":"levelo://app?vid=63b65e92-387b-484f-8648-cfb310be236a"},"vehicle_type_id":"4","last_reported":1753546328,"current_range_meters":12800,"station_id":"ce4bhn92rcd13ifvqgrg","pricing_plan_id":"cebpf4jnsgd1na2vs0mg"},{"bike_id":"d12d21fc-9d1e-42f1-8f7a-a1fc068f11c0","system_id":"levelo_inurba_marseille","lat":43.292036,"lon":5.358637,"is_reserved":false,"is_disabled":false,"rental_uris":{"android":"levelo://app?vid=d12d21fc-9d1e-42f1-8f7a-a1fc068f11c0","ios":"levelo://app?vid=d12d21fc-9d1e-42f1-8f7a-a1fc068f11c0"},"vehicle_type_id":"4","last_reported":1753546328,"current_range_meters":12800,"station_id":"ce4bhb12rcd13ifvqel0","pricing_plan_id":"cebpf4jnsgd1na2vs0mg"},{"bike_id":"75c7501f-0562-49d9-98ae-493ff15d39c3","system_id":"levelo_inurba_marseille","lat":43.29917,"lon":5.37489,"is_reserved":false,"is_disabled":false,"rental_uris":{"android":"levelo://app?vid=75c7501f-0562-49d9-98ae-493ff15d39c3","ios":"levelo://app?vid=75c7501f-0562-49d9-98ae-493ff15d39c3"},"vehicle_type_id":"4","last_reported":1753546328,"current_range_meters":12400,"station_id":"ce4bgjh2rcd13ifvqbg0","pricing_plan_id":"cebpf4jnsgd1na2vs0mg"},{"bike_id":"4ab1877f-02f1-45ee-b34e-c0e215d196ac","system_id":"levelo_inurba_marseille","lat":43.2481,"lon":5.3746,"is_reserved":false,"is_disabled":false,"rental_uris":{"android":"levelo://app?vid=4ab1877f-02f1-45ee-b34e-c0e215d196ac","ios":"levelo://app?vid=4ab1877f-02f1-45ee-b34e-c0e215d196ac"},"vehicle_type_id":"4","last_reported":1753546328,"current_range_meters":12800,"station_id":"ce4bhgh2rcd13ifvqfb0","pricing_plan_id":"cebpf4jnsgd1na2vs0mg"},{"bike_id":"228fda2e-a3be-45d0-a69a-d878929b7faf","system_id":"levelo_inurba_marseille","lat":43.29788,"lon":5.38107,"is_reserved":false,"is_disabled":false,"rental_uris":{"android":"levelo://app?vid=228fda2e-a3be-45d0-a69a-d878929b7faf","ios":"levelo://app?vid=228fda2e-a3be-45d0-a69a-d878929b7faf"},"vehicle_type_id":"4","last_reported":1753546328,"current_range_meters":12800,"station_id":"ce4bgip2rcd13ifvqbb0","pricing_plan_id":"cebpf4jnsgd1na2vs0mg"},{"bike_id":"98276d28-97b5-4407-b185-59c7cc84bac0","system_id":"levelo_inurba_marseille","lat":43.301401,"lon":5.398735,"is_reserved":false,"is_disabled":false,"rental_uris":{"android":"levelo://app?vid=98276d28-97b5-4407-b185-59c7cc84bac0","ios":"levelo://app?vid=98276d28-97b5-4407-b185-59c7cc84bac0"},"vehicle_type_id":"4","last_reported":1753546328,"current_range_meters":13600,"station_id":"ce4bh0h2rcd13ifvqd40","pricing_plan_id":"cebpf4jnsgd1na2vs0mg"},{"bike_id":"46d980cb-fc0a-46b1-9313-fb55ce198a89","system_id":"levelo_inurba_marseille","lat":43.28425,"lon":5.34982,"is_reserved":false,"is_disabled":false,"rental_uris":{"android":"levelo://app?vid=46d980cb-fc0a-46b1-9313-fb55ce198a89","ios":"levelo://app?vid=46d980cb-fc0a-46b1-9313-fb55ce198a89"},"vehicle_type_id":"4","last_reported":1753546328,"current_range_meters":13600,"station_id":"ce4bhbh2rcd13ifvqepg","pricing_plan_id":"cebpf4jnsgd1na2vs0mg"},{"bike_id":"bdfe22ad-d4f7-47f6-94a8-d389c8aa9dee","system_id":"levelo_inurba_marseille","lat":43.26682,"lon":5.3827,"is_reserved":false,"is_disabled":false,"rental_uris":{"android":"levelo://app?vid=bdfe22ad-d4f7-47f6-94a8-d389c8aa9dee","ios":"levelo://app?vid=bdfe22ad-d4f7-47f6-94a8-d389c8aa9dee"},"vehicle_type_id":"4","last_reported":1753546328,"current_range_meters":13600,"station_id":"ce4bhg92rcd13ifvqf90","pricing_plan_id":"cebpf4jnsgd1na2vs0mg"},{"bike_id":"9b797441-510d-4624-8404-f0b9b3b48620","system_id":"levelo_inurba_marseille","lat":43.28845,"lon":5.35859,"is_reserved":false,"is_disabled":false,"rental_uris":{"android":"levelo://app?vid=9b797441-510d-4624-8404-f0b9b3b48620","ios":"levelo://app?vid=9b797441-510d-4624-8404-f0b9b3b48620"},"vehicle_type_id":"4","last_reported":1753546328,"current_range_meters":13600,"station_id":"ce4bhb12rcd13ifvqem0","pricing_plan_id":"cebpf4jnsgd1na2vs0mg"},{"bike_id":"cef52480-0024-43f4-8ece-5c3ebbda6e71","system_id":"levelo_inurba_marseille","lat":43.30146,"lon":5.38071,"is_reserved":false,"is_disabled":false,"rental_uris":{"android":"levelo://app?vid=cef52480-0024-43f4-8ece-5c3ebbda6e71","ios":"levelo://app?vid=cef52480-0024-43f4-8ece-5c3ebbda6e71"},"vehicle_type_id":"4","last_reported":1753546328,"current_range_meters":12800,"station_id":"ce4bgjp2rcd13ifvqbh0","pricing_plan_id":"cebpf4jnsgd1na2vs0mg"},{"bike_id":"dcd0a9d6-e8b1-4f4e-a235-b00187ad8bbc","system_id":"levelo_inurba_marseille","lat":43.30615,"lon":5.37232,"is_reserved":false,"is_disabled":false,"rental_uris":{"android":"levelo://app?vid=dcd0a9d6-e8b1-4f4e-a235-b00187ad8bbc","ios":"levelo://app?vid=dcd0a9d6-e8b1-4f4e-a235-b00187ad8bbc"},"vehicle_type_id":"4","last_reported":1753546328,"current_range_meters":13600,"station_id":"ce4bgqh2rcd13ifvqc4g","pricing_plan_id":"cebpf4jnsgd1na2vs0mg"},{"bike_id":"d00b6abc-174d-48a1-8e37-47955a519e3f","system_id":"levelo_inurba_marseille","lat":43.22931,"lon":5.35372,"is_reserved":false,"is_disabled":false,"rental_uris":{"android":"levelo://app?vid=d00b6abc-174d-48a1-8e37-47955a519e3f","ios":"levelo://app?vid=d00b6abc-174d-48a1-8e37-47955a519e3f"},"vehicle_type_id":"4","last_reported":1753546328,"current_range_meters":14000,"station_id":"cpo3532slgdg3j2ikp40","pricing_plan_id":"cebpf4jnsgd1na2vs0mg"},{"bike_id":"ba93bb28-cf26-4afd-a786-6bc2f811c4cb","system_id":"levelo_inurba_marseille","lat":43.32413,"lon":5.40412,"is_reserved":false,"is_disabled":false,"rental_uris":{"android":"levelo://app?vid=ba93bb28-cf26-4afd-a786-6bc2f811c4cb","ios":"levelo://app?vid=ba93bb28-cf26-4afd-a786-6bc2f811c4cb"},"vehicle_type_id":"4","last_reported":1753546328,"current_range_meters":14000,"station_id":"","pricing_plan_id":"cebpf4jnsgd1na2vs0mg"},{"bike_id":"c3c2652b-f2d7-4ed4-89ec-9559feb01451","system_id":"levelo_inurba_marseille","lat":43.29226,"lon":5.360481,"is_reserved":false,"is_disabled":true,"rental_uris":{"android":"levelo://app?vid=c3c2652b-f2d7-4ed4-89ec-9559feb01451","ios":"levelo://app?vid=c3c2652b-f2d7-4ed4-89ec-9559feb01451"},"vehicle_type_id":"4","last_reported":1753546328,"current_range_meters":14000,"station_id":"ce4bhbh2rcd13ifvqeqg","pricing_plan_id":"cebpf4jnsgd1na2vs0mg"},{"bike_id":"499c0f59-707c-4ec9-8e92-3704bb214ae8","system_id":"levelo_inurba_marseille","lat":43.31169,"lon":5.38727,"is_reserved":false,"is_disabled":false,"rental_uris":{"android":"levelo://app?vid=499c0f59-707c-4ec9-8e92-3704bb214ae8","ios":"levelo://app?vid=499c0f59-707c-4ec9-8e92-3704bb214ae8"},"vehicle_type_id":"4","last_reported":1753546328,"current_range_meters":14000,"station_id":"ce4bgv12rcd13ifvqcp0","pricing_plan_id":"cebpf4jnsgd1na2vs0mg"},{"bike_id":"c544ebf8-3128-430b-9c0b-03c61401ac0e","system_id":"levelo_inurba_marseille","lat":43.28623,"lon":5.35101,"is_reserved":false,"is_disabled":false,"rental_uris":{"android":"levelo://app?vid=c544ebf8-3128-430b-9c0b-03c61401ac0e","ios":"levelo://app?vid=c544ebf8-3128-430b-9c0b-03c61401ac0e"},"vehicle_type_id":"4","last_reported":1753546328,"current_range_meters":14000,"station_id":"ce4bhch2rcd13ifvqeug","pricing_plan_id":"cebpf4jnsgd1na2vs0mg"},{"bike_id":"b477aabf-9b41-4831-928b-49026ee0b67f","system_id":"levelo_inurba_marseille","lat":43.30213,"lon":5.39461,"is_reserved":false,"is_disabled":false,"rental_uris":{"android":"levelo://app?vid=b477aabf-9b41-4831-928b-49026ee0b67f","ios":"levelo://app?vid=b477aabf-9b41-4831-928b-49026ee0b67f"},"vehicle_type_id":"4","last_reported":1753546328,"current_range_meters":14400,"station_id":"ce4bh0p2rcd13ifvqd70","pricing_plan_id":"cebpf4jnsgd1na2vs0mg"},{"bike_id":"7d222e0c-2249-4ecc-a29a-2718146ba132","system_id":"levelo_inurba_marseille","lat":43.27382,"lon":5.36255,"is_reserved":false,"is_disabled":false,"rental_uris":{"android":"levelo://app?vid=7d222e0c-2249-4ecc-a29a-2718146ba132","ios":"levelo://app?vid=7d222e0c-2249-4ecc-a29a-2718146ba132"},"vehicle_type_id":"4","last_reported":1753546328,"current_range_meters":14400,"station_id":"ce4bhbh2rcd13ifvqeo0","pricing_plan_id":"cebpf4jnsgd1na2vs0mg"},{"bike_id":"e8dde99c-6ecf-4e63-9ffc-47ebe879a97f","system_id":"levelo_inurba_marseille","lat":43.290311,"lon":5.399895,"is_reserved":false,"is_disabled":false,"rental_uris":{"android":"levelo://app?vid=e8dde99c-6ecf-4e63-9ffc-47ebe879a97f","ios":"levelo://app?vid=e8dde99c-6ecf-4e63-9ffc-47ebe879a97f"},"vehicle_type_id":"4","last_reported":1753546328,"current_range_meters":14400,"station_id":"ce4bh392rcd13ifvqdm0","pricing_plan_id":"cebpf4jnsgd1na2vs0mg"},{"bike_id":"3e2e7408-0fc0-4bf9-a131-2ba940ad1053","system_id":"levelo_inurba_marseille","lat":43.29786,"lon":5.38088,"is_reserved":false,"is_disabled":false,"rental_uris":{"android":"levelo://app?vid=3e2e7408-0fc0-4bf9-a131-2ba940ad1053","ios":"levelo://app?vid=3e2e7408-0fc0-4bf9-a131-2ba940ad1053"},"vehicle_type_id":"4","last_reported":1753546328,"current_range_meters":14400,"station_id":"ce4bgip2rcd13ifvqbb0","pricing_plan_id":"cebpf4jnsgd1na2vs0mg"},{"bike_id":"7254aad9-4b7a-44b4-89bb-4f6b7cb10520","system_id":"levelo_inurba_marseille","lat":43.26067,"lon":5.3938,"is_reserved":false,"is_disabled":false,"rental_uris":{"android":"levelo://app?vid=7254aad9-4b7a-44b4-89bb-4f6b7cb10520","ios":"levelo://app?vid=7254aad9-4b7a-44b4-89bb-4f6b7cb10520"},"vehicle_type_id":"4","last_reported":1753546328,"current_range_meters":14400,"station_id":"ce4bhh92rcd13ifvqfj0","pricing_plan_id":"cebpf4jnsgd1na2vs0mg"},{"bike_id":"b8d7cb55-fffe-4490-af93-c91a27ec5ec3","system_id":"levelo_inurba_marseille","lat":43.284459,"lon":5.392109,"is_reserved":false,"is_disabled":false,"rental_uris":{"android":"levelo://app?vid=b8d7cb55-fffe-4490-af93-c91a27ec5ec3","ios":"levelo://app?vid=b8d7cb55-fffe-4490-af93-c91a27ec5ec3"},"vehicle_type_id":"4","last_reported":1753546328,"current_range_meters":14400,"station_id":"ce4bhoh2rcd13ifvqh5g","pricing_plan_id":"cebpf4jnsgd1na2vs0mg"},{"bike_id":"31d6ce00-2f12-43e7-8a37-22c9989cf4ef","system_id":"levelo_inurba_marseille","lat":43.29274,"lon":5.36846,"is_reserved":false,"is_disabled":false,"rental_uris":{"android":"levelo://app?vid=31d6ce00-2f12-43e7-8a37-22c9989cf4ef","ios":"levelo://app?vid=31d6ce00-2f12-43e7-8a37-22c9989cf4ef"},"vehicle_type_id":"4","last_reported":1753546328,"current_range_meters":14400,"station_id":"ce4bhbp2rcd13ifvqesg","pricing_plan_id":"cebpf4jnsgd1na2vs0mg"},{"bike_id":"52b94f31-a262-45bb-a940-397fd6a75975","system_id":"levelo_inurba_marseille","lat":43.29591,"lon":5.39961,"is_reserved":false,"is_disabled":false,"rental_uris":{"android":"levelo://app?vid=52b94f31-a262-45bb-a940-397fd6a75975","ios":"levelo://app?vid=52b94f31-a262-45bb-a940-397fd6a75975"},"vehicle_type_id":"4","last_reported":1753546328,"current_range_meters":14800,"station_id":"ce4bh312rcd13ifvqdj0","pricing_plan_id":"cebpf4jnsgd1na2vs0mg"},{"bike_id":"fea00e7d-ed33-4232-917f-9fc47cbb5799","system_id":"levelo_inurba_marseille","lat":43.30142,"lon":5.38078,"is_reserved":false,"is_disabled":false,"rental_uris":{"android":"levelo://app?vid=fea00e7d-ed33-4232-917f-9fc47cbb5799","ios":"levelo://app?vid=fea00e7d-ed33-4232-917f-9fc47cbb5799"},"vehicle_type_id":"4","last_reported":1753546328,"current_range_meters":14800,"station_id":"ce4bgjp2rcd13ifvqbh0","pricing_plan_id":"cebpf4jnsgd1na2vs0mg"},{"bike_id":"8cb3cdfe-341c-4219-9fb7-adf0c31075d3","system_id":"levelo_inurba_marseille","lat":43.22502,"lon":5.34786,"is_reserved":false,"is_disabled":false,"rental_uris":{"android":"levelo://app?vid=8cb3cdfe-341c-4219-9fb7-adf0c31075d3","ios":"levelo://app?vid=8cb3cdfe-341c-4219-9fb7-adf0c31075d3"},"vehicle_type_id":"4","last_reported":1753546328,"current_range_meters":14800,"station_id":"st_cvj5dfep6f1abm77gieg","pricing_plan_id":"cebpf4jnsgd1na2vs0mg"},{"bike_id":"045d8851-b739-4e31-8239-b5ec9f1e0831","system_id":"levelo_inurba_marseille","lat":43.29529,"lon":5.37503,"is_reserved":false,"is_disabled":false,"rental_uris":{"android":"levelo://app?vid=045d8851-b739-4e31-8239-b5ec9f1e0831","ios":"levelo://app?vid=045d8851-b739-4e31-8239-b5ec9f1e0831"},"vehicle_type_id":"4","last_reported":1753546328,"current_range_meters":14800,"station_id":"ce4bgkp2rcd13ifvqbmg","pricing_plan_id":"cebpf4jnsgd1na2vs0mg"},{"bike_id":"4f069cb2-e85f-44ab-8659-b3444c19b657","system_id":"levelo_inurba_marseille","lat":43.23199,"lon":5.35542,"is_reserved":false,"is_disabled":false,"rental_uris":{"android":"levelo://app?vid=4f069cb2-e85f-44ab-8659-b3444c19b657","ios":"levelo://app?vid=4f069cb2-e85f-44ab-8659-b3444c19b657"},"vehicle_type_id":"4","last_reported":1753546328,"current_range_meters":14800,"station_id":"ce4bhu92rcd13ifvqi70","pricing_plan_id":"cebpf4jnsgd1na2vs0mg"},{"bike_id":"dd5b3db2-62f9-4716-992d-435138b6493d","system_id":"levelo_inurba_marseille","lat":43.30816,"lon":5.38148,"is_reserved":false,"is_disabled":true,"rental_uris":{"android":"levelo://app?vid=dd5b3db2-62f9-4716-992d-435138b6493d","ios":"levelo://app?vid=dd5b3db2-62f9-4716-992d-435138b6493d"},"vehicle_type_id":"4","last_reported":1753546328,"current_range_meters":14800,"station_id":"ce4bgt12rcd13ifvqce0","pricing_plan_id":"cebpf4jnsgd1na2vs0mg"},{"bike_id":"25e07804-327d-451e-af4e-6a6e09b5f052","system_id":"levelo_inurba_marseille","lat":43.26573,"lon":5.37269,"is_reserved":false,"is_disabled":false,"rental_uris":{"android":"levelo://app?vid=25e07804-327d-451e-af4e-6a6e09b5f052","ios":"levelo://app?vid=25e07804-327d-451e-af4e-6a6e09b5f052"},"vehicle_type_id":"4","last_reported":1753546328,"current_range_meters":14800,"station_id":"ce4bhg12rcd13ifvqf70","pricing_plan_id":"cebpf4jnsgd1na2vs0mg"},{"bike_id":"a1d5115b-997f-44a5-8b4b-21cb29757407","system_id":"levelo_inurba_marseille","lat":43.312149,"lon":5.373178,"is_reserved":false,"is_disabled":false,"rental_uris":{"android":"levelo://app?vid=a1d5115b-997f-44a5-8b4b-21cb29757407","ios":"levelo://app?vid=a1d5115b-997f-44a5-8b4b-21cb29757407"},"vehicle_type_id":"4","last_reported":1753546328,"current_range_meters":14800,"station_id":"","pricing_plan_id":"cebpf4jnsgd1na2vs0mg"},{"bike_id":"1f48da96-a91e-4c2d-a140-4df6e942d0c7","system_id":"levelo_inurba_marseille","lat":43.27371,"lon":5.36258,"is_reserved":false,"is_disabled":false,"rental_uris":{"android":"levelo://app?vid=1f48da96-a91e-4c2d-a140-4df6e942d0c7","ios":"levelo://app?vid=1f48da96-a91e-4c2d-a140-4df6e942d0c7"},"vehicle_type_id":"4","last_reported":1753546328,"current_range_meters":14800,"station_id":"ce4bhbh2rcd13ifvqeo0","pricing_plan_id":"cebpf4jnsgd1na2vs0mg"},{"bike_id":"dc09467a-c0d0-41d8-9696-a67f88a20020","system_id":"levelo_inurba_marseille","lat":43.23963,"lon":5.36628,"is_reserved":false,"is_disabled":false,"rental_uris":{"android":"levelo://app?vid=dc09467a-c0d0-41d8-9696-a67f88a20020","ios":"levelo://app?vid=dc09467a-c0d0-41d8-9696-a67f88a20020"},"vehicle_type_id":"4","last_reported":1753546328,"current_range_meters":14800,"station_id":"ce4bhi12rcd13ifvqfp0","pricing_plan_id":"cebpf4jnsgd1na2vs0mg"},{"bike_id":"a05343f6-5345-451e-92c9-8d14b4ec04eb","system_id":"levelo_inurba_marseille","lat":43.314919,"lon":5.373082,"is_reserved":false,"is_disabled":false,"rental_uris":{"android":"levelo://app?vid=a05343f6-5345-451e-92c9-8d14b4ec04eb","ios":"levelo://app?vid=a05343f6-5345-451e-92c9-8d14b4ec04eb"},"vehicle_type_id":"4","last_reported":1753546328,"current_range_meters":15200,"station_id":"","pricing_plan_id":"cebpf4jnsgd1na2vs0mg"},{"bike_id":"f3d9f4e3-18e1-46b0-943e-1414afeca2da","system_id":"levelo_inurba_marseille","lat":43.229319,"lon":5.353764,"is_reserved":false,"is_disabled":false,"rental_uris":{"android":"levelo://app?vid=f3d9f4e3-18e1-46b0-943e-1414afeca2da","ios":"levelo://app?vid=f3d9f4e3-18e1-46b0-943e-1414afeca2da"},"vehicle_type_id":"4","last_reported":1753546328,"current_range_meters":15200,"station_id":"cpo3532slgdg3j2ikp40","pricing_plan_id":"cebpf4jnsgd1na2vs0mg"},{"bike_id":"61cd7fe3-237f-4708-afc7-dd8a81b4454c","system_id":"levelo_inurba_marseille","lat":43.22934,"lon":5.35381,"is_reserved":false,"is_disabled":false,"rental_uris":{"android":"levelo://app?vid=61cd7fe3-237f-4708-afc7-dd8a81b4454c","ios":"levelo://app?vid=61cd7fe3-237f-4708-afc7-dd8a81b4454c"},"vehicle_type_id":"4","last_reported":1753546328,"current_range_meters":15200,"station_id":"cpo3532slgdg3j2ikp40","pricing_plan_id":"cebpf4jnsgd1na2vs0mg"},{"bike_id":"1e5c96a6-9d0f-4d5f-85ef-5a5f8ac0317a","system_id":"levelo_inurba_marseille","lat":43.33465,"lon":5.39129,"is_reserved":false,"is_disabled":false,"rental_uris":{"android":"levelo://app?vid=1e5c96a6-9d0f-4d5f-85ef-5a5f8ac0317a","ios":"levelo://app?vid=1e5c96a6-9d0f-4d5f-85ef-5a5f8ac0317a"},"vehicle_type_id":"4","last_reported":1753546328,"current_range_meters":15200,"station_id":"","pricing_plan_id":"cebpf4jnsgd1na2vs0mg"},{"bike_id":"adc99020-a046-4247-b3bb-abb9aabfb167","system_id":"levelo_inurba_marseille","lat":43.243995,"lon":5.370579,"is_reserved":false,"is_disabled":false,"rental_uris":{"android":"levelo://app?vid=adc99020-a046-4247-b3bb-abb9aabfb167","ios":"levelo://app?vid=adc99020-a046-4247-b3bb-abb9aabfb167"},"vehicle_type_id":"4","last_reported":1753546328,"current_range_meters":15200,"station_id":"ce4bhhh2rcd13ifvqfk0","pricing_plan_id":"cebpf4jnsgd1na2vs0mg"},{"bike_id":"c34587a8-a019-4b34-8b52-b2a04d65fdd5","system_id":"levelo_inurba_marseille","lat":43.26035,"lon":5.37553,"is_reserved":false,"is_disabled":false,"rental_uris":{"android":"levelo://app?vid=c34587a8-a019-4b34-8b52-b2a04d65fdd5","ios":"levelo://app?vid=c34587a8-a019-4b34-8b52-b2a04d65fdd5"},"vehicle_type_id":"4","last_reported":1753546328,"current_range_meters":15200,"station_id":"ce4bhgh2rcd13ifvqfa0","pricing_plan_id":"cebpf4jnsgd1na2vs0mg"},{"bike_id":"36e6bf97-6485-443c-94bf-9c9cb3f33000","system_id":"levelo_inurba_marseille","lat":43.2929,"lon":5.38429,"is_reserved":false,"is_disabled":true,"rental_uris":{"android":"levelo://app?vid=36e6bf97-6485-443c-94bf-9c9cb3f33000","ios":"levelo://app?vid=36e6bf97-6485-443c-94bf-9c9cb3f33000"},"vehicle_type_id":"4","last_reported":1753546328,"current_range_meters":15200,"station_id":"ce4bh692rcd13ifvqea0","pricing_plan_id":"cebpf4jnsgd1na2vs0mg"},{"bike_id":"c26fa6f3-2305-45cc-9cea-ad00f2d94bce","system_id":"levelo_inurba_marseille","lat":43.28423,"lon":5.3498,"is_reserved":false,"is_disabled":false,"rental_uris":{"android":"levelo://app?vid=c26fa6f3-2305-45cc-9cea-ad00f2d94bce","ios":"levelo://app?vid=c26fa6f3-2305-45cc-9cea-ad00f2d94bce"},"vehicle_type_id":"4","last_reported":1753546328,"current_range_meters":15200,"station_id":"ce4bhbh2rcd13ifvqepg","pricing_plan_id":"cebpf4jnsgd1na2vs0mg"},{"bike_id":"7e65c5ea-0429-45f5-a396-bd32e67f0744","system_id":"levelo_inurba_marseille","lat":43.33465,"lon":5.4003,"is_reserved":false,"is_disabled":false,"rental_uris":{"android":"levelo://app?vid=7e65c5ea-0429-45f5-a396-bd32e67f0744","ios":"levelo://app?vid=7e65c5ea-0429-45f5-a396-bd32e67f0744"},"vehicle_type_id":"4","last_reported":1753546328,"current_range_meters":15200,"station_id":"","pricing_plan_id":"cebpf4jnsgd1na2vs0mg"},{"bike_id":"a7d896f9-ed90-400f-b521-60f094bf2ab7","system_id":"levelo_inurba_marseille","lat":43.2119,"lon":5.35078,"is_reserved":false,"is_disabled":false,"rental_uris":{"android":"levelo://app?vid=a7d896f9-ed90-400f-b521-60f094bf2ab7","ios":"levelo://app?vid=a7d896f9-ed90-400f-b521-60f094bf2ab7"},"vehicle_type_id":"4","last_reported":1753546328,"current_range_meters":16000,"station_id":"st_cvj6sg6p6f1abm77japg","pricing_plan_id":"cebpf4jnsgd1na2vs0mg"},{"bike_id":"8f390e6a-b3a8-462b-a28b-148a5f4a129b","system_id":"levelo_inurba_marseille","lat":43.28277,"lon":5.3507,"is_reserved":false,"is_disabled":false,"rental_uris":{"android":"levelo://app?vid=8f390e6a-b3a8-462b-a28b-148a5f4a129b","ios":"levelo://app?vid=8f390e6a-b3a8-462b-a28b-148a5f4a129b"},"vehicle_type_id":"4","last_reported":1753546328,"current_range_meters":16000,"station_id":"ce4bhbp2rcd13ifvqerg","pricing_plan_id":"cebpf4jnsgd1na2vs0mg"},{"bike_id":"898d1f8e-e261-4f25-9386-a6825028d102","system_id":"levelo_inurba_marseille","lat":43.29048,"lon":5.47385,"is_reserved":false,"is_disabled":false,"rental_uris":{"android":"levelo://app?vid=898d1f8e-e261-4f25-9386-a6825028d102","ios":"levelo://app?vid=898d1f8e-e261-4f25-9386-a6825028d102"},"vehicle_type_id":"4","last_reported":1753546328,"current_range_meters":16000,"station_id":"","pricing_plan_id":"cebpf4jnsgd1na2vs0mg"},{"bike_id":"bdc8ef21-146d-46ff-9c91-249dba0037c7","system_id":"levelo_inurba_marseille","lat":43.22922,"lon":5.35367,"is_reserved":false,"is_disabled":false,"rental_uris":{"android":"levelo://app?vid=bdc8ef21-146d-46ff-9c91-249dba0037c7","ios":"levelo://app?vid=bdc8ef21-146d-46ff-9c91-249dba0037c7"},"vehicle_type_id":"4","last_reported":1753546328,"current_range_meters":16000,"station_id":"cpo3532slgdg3j2ikp40","pricing_plan_id":"cebpf4jnsgd1na2vs0mg"},{"bike_id":"1444dafd-5008-4b1a-9a9f-e08b1176637d","system_id":"levelo_inurba_marseille","lat":43.27336,"lon":5.39081,"is_reserved":false,"is_disabled":false,"rental_uris":{"android":"levelo://app?vid=1444dafd-5008-4b1a-9a9f-e08b1176637d","ios":"levelo://app?vid=1444dafd-5008-4b1a-9a9f-e08b1176637d"},"vehicle_type_id":"4","last_reported":1753546328,"current_range_meters":16000,"station_id":"ce4bhgp2rcd13ifvqfe0","pricing_plan_id":"cebpf4jnsgd1na2vs0mg"},{"bike_id":"17fc2f1f-5abe-4cd4-9a51-d45ca1258e83","system_id":"levelo_inurba_marseille","lat":43.28421,"lon":5.349863,"is_reserved":false,"is_disabled":false,"rental_uris":{"android":"levelo://app?vid=17fc2f1f-5abe-4cd4-9a51-d45ca1258e83","ios":"levelo://app?vid=17fc2f1f-5abe-4cd4-9a51-d45ca1258e83"},"vehicle_type_id":"4","last_reported":1753546328,"current_range_meters":16000,"station_id":"ce4bhbh2rcd13ifvqepg","pricing_plan_id":"cebpf4jnsgd1na2vs0mg"},{"bike_id":"04b7ba23-9d3e-49e9-b458-d4985e4e8b88","system_id":"levelo_inurba_marseille","lat":43.286072,"lon":5.351023,"is_reserved":false,"is_disabled":false,"rental_uris":{"android":"levelo://app?vid=04b7ba23-9d3e-49e9-b458-d4985e4e8b88","ios":"levelo://app?vid=04b7ba23-9d3e-49e9-b458-d4985e4e8b88"},"vehicle_type_id":"4","last_reported":1753546328,"current_range_meters":16000,"station_id":"","pricing_plan_id":"cebpf4jnsgd1na2vs0mg"},{"bike_id":"43dbc09e-d0e4-4ddb-bafe-4f55874d23a9","system_id":"levelo_inurba_marseille","lat":43.30232,"lon":5.38226,"is_reserved":false,"is_disabled":false,"rental_uris":{"android":"levelo://app?vid=43dbc09e-d0e4-4ddb-bafe-4f55874d23a9","ios":"levelo://app?vid=43dbc09e-d0e4-4ddb-bafe-4f55874d23a9"},"vehicle_type_id":"4","last_reported":1753546328,"current_range_meters":16000,"station_id":"","pricing_plan_id":"cebpf4jnsgd1na2vs0mg"},{"bike_id":"6d1410a6-e354-4d78-87f9-963aa8f9ac32","system_id":"levelo_inurba_marseille","lat":43.29514,"lon":5.37509,"is_reserved":false,"is_disabled":false,"rental_uris":{"android":"levelo://app?vid=6d1410a6-e354-4d78-87f9-963aa8f9ac32","ios":"levelo://app?vid=6d1410a6-e354-4d78-87f9-963aa8f9ac32"},"vehicle_type_id":"4","last_reported":1753546328,"current_range_meters":16000,"station_id":"ce4bgkp2rcd13ifvqbmg","pricing_plan_id":"cebpf4jnsgd1na2vs0mg"},{"bike_id":"c5794c7a-bb35-409f-9175-7d8933c8fd68","system_id":"levelo_inurba_marseille","lat":43.31119,"lon":5.39622,"is_reserved":false,"is_disabled":false,"rental_uris":{"android":"levelo://app?vid=c5794c7a-bb35-409f-9175-7d8933c8fd68","ios":"levelo://app?vid=c5794c7a-bb35-409f-9175-7d8933c8fd68"},"vehicle_type_id":"4","last_reported":1753546328,"current_range_meters":16000,"station_id":"","pricing_plan_id":"cebpf4jnsgd1na2vs0mg"},{"bike_id":"e3ea7b8c-ec2b-4e90-9fb8-78bd951aed6d","system_id":"levelo_inurba_marseille","lat":43.22922,"lon":5.35379,"is_reserved":false,"is_disabled":false,"rental_uris":{"android":"levelo://app?vid=e3ea7b8c-ec2b-4e90-9fb8-78bd951aed6d","ios":"levelo://app?vid=e3ea7b8c-ec2b-4e90-9fb8-78bd951aed6d"},"vehicle_type_id":"4","last_reported":1753546328,"current_range_meters":16000,"station_id":"cpo3532slgdg3j2ikp40","pricing_plan_id":"cebpf4jnsgd1na2vs0mg"},{"bike_id":"7a0bcd8d-647c-4b8b-b13c-ef81ae5ab2d7","system_id":"levelo_inurba_marseille","lat":43.28423,"lon":5.34981,"is_reserved":false,"is_disabled":false,"rental_uris":{"android":"levelo://app?vid=7a0bcd8d-647c-4b8b-b13c-ef81ae5ab2d7","ios":"levelo://app?vid=7a0bcd8d-647c-4b8b-b13c-ef81ae5ab2d7"},"vehicle_type_id":"4","last_reported":1753546328,"current_range_meters":16400,"station_id":"ce4bhbh2rcd13ifvqepg","pricing_plan_id":"cebpf4jnsgd1na2vs0mg"},{"bike_id":"d39eaa3b-d21d-4c2a-852d-caeac039b0d4","system_id":"levelo_inurba_marseille","lat":43.26034,"lon":5.37549,"is_reserved":false,"is_disabled":false,"rental_uris":{"android":"levelo://app?vid=d39eaa3b-d21d-4c2a-852d-caeac039b0d4","ios":"levelo://app?vid=d39eaa3b-d21d-4c2a-852d-caeac039b0d4"},"vehicle_type_id":"4","last_reported":1753546328,"current_range_meters":16400,"station_id":"ce4bhgh2rcd13ifvqfa0","pricing_plan_id":"cebpf4jnsgd1na2vs0mg"},{"bike_id":"c8e7dd53-3f4c-4513-9e04-5395372d9c71","system_id":"levelo_inurba_marseille","lat":43.30431,"lon":5.37905,"is_reserved":false,"is_disabled":false,"rental_uris":{"android":"levelo://app?vid=c8e7dd53-3f4c-4513-9e04-5395372d9c71","ios":"levelo://app?vid=c8e7dd53-3f4c-4513-9e04-5395372d9c71"},"vehicle_type_id":"4","last_reported":1753546328,"current_range_meters":16000,"station_id":"ce4bgup2rcd13ifvqcn0","pricing_plan_id":"cebpf4jnsgd1na2vs0mg"},{"bike_id":"0c11f6c1-8064-42f4-a9d5-3b25c443f052","system_id":"levelo_inurba_marseille","lat":43.229294,"lon":5.353751,"is_reserved":false,"is_disabled":false,"rental_uris":{"android":"levelo://app?vid=0c11f6c1-8064-42f4-a9d5-3b25c443f052","ios":"levelo://app?vid=0c11f6c1-8064-42f4-a9d5-3b25c443f052"},"vehicle_type_id":"4","last_reported":1753546328,"current_range_meters":16400,"station_id":"cpo3532slgdg3j2ikp40","pricing_plan_id":"cebpf4jnsgd1na2vs0mg"},{"bike_id":"9dfdeb8a-ee13-4931-94b4-ad2b5f23aa4b","system_id":"levelo_inurba_marseille","lat":43.231784,"lon":5.399965,"is_reserved":false,"is_disabled":true,"rental_uris":{"android":"levelo://app?vid=9dfdeb8a-ee13-4931-94b4-ad2b5f23aa4b","ios":"levelo://app?vid=9dfdeb8a-ee13-4931-94b4-ad2b5f23aa4b"},"vehicle_type_id":"4","last_reported":1753546328,"current_range_meters":16400,"station_id":"ce4bhn12rcd13ifvqgqg","pricing_plan_id":"cebpf4jnsgd1na2vs0mg"},{"bike_id":"8a43fd17-f37d-4efa-9c86-e96e90492052","system_id":"levelo_inurba_marseille","lat":43.24817,"lon":5.3744,"is_reserved":false,"is_disabled":false,"rental_uris":{"android":"levelo://app?vid=8a43fd17-f37d-4efa-9c86-e96e90492052","ios":"levelo://app?vid=8a43fd17-f37d-4efa-9c86-e96e90492052"},"vehicle_type_id":"4","last_reported":1753546328,"current_range_meters":16400,"station_id":"ce4bhgh2rcd13ifvqfb0","pricing_plan_id":"cebpf4jnsgd1na2vs0mg"},{"bike_id":"907a4ea0-afd0-4642-9e77-c73d16540e88","system_id":"levelo_inurba_marseille","lat":43.29528,"lon":5.37518,"is_reserved":false,"is_disabled":false,"rental_uris":{"android":"levelo://app?vid=907a4ea0-afd0-4642-9e77-c73d16540e88","ios":"levelo://app?vid=907a4ea0-afd0-4642-9e77-c73d16540e88"},"vehicle_type_id":"4","last_reported":1753546328,"current_range_meters":16400,"station_id":"ce4bgkp2rcd13ifvqbmg","pricing_plan_id":"cebpf4jnsgd1na2vs0mg"},{"bike_id":"4524bec9-1352-4b39-9701-17fcdfdcaa01","system_id":"levelo_inurba_marseille","lat":43.28414,"lon":5.34992,"is_reserved":false,"is_disabled":false,"rental_uris":{"android":"levelo://app?vid=4524bec9-1352-4b39-9701-17fcdfdcaa01","ios":"levelo://app?vid=4524bec9-1352-4b39-9701-17fcdfdcaa01"},"vehicle_type_id":"4","last_reported":1753546328,"current_range_meters":16400,"station_id":"ce4bhbh2rcd13ifvqepg","pricing_plan_id":"cebpf4jnsgd1na2vs0mg"},{"bike_id":"4aff5c72-9c97-427b-93a6-815ad462119d","system_id":"levelo_inurba_marseille","lat":43.305633,"lon":5.36573,"is_reserved":false,"is_disabled":false,"rental_uris":{"android":"levelo://app?vid=4aff5c72-9c97-427b-93a6-815ad462119d","ios":"levelo://app?vid=4aff5c72-9c97-427b-93a6-815ad462119d"},"vehicle_type_id":"4","last_reported":1753546328,"current_range_meters":16400,"station_id":"ce4bgs12rcd13ifvqcag","pricing_plan_id":"cebpf4jnsgd1na2vs0mg"},{"bike_id":"bb5a4688-a60f-42fb-889f-8e7d5f2ea34b","system_id":"levelo_inurba_marseille","lat":43.25733,"lon":5.41104,"is_reserved":false,"is_disabled":false,"rental_uris":{"android":"levelo://app?vid=bb5a4688-a60f-42fb-889f-8e7d5f2ea34b","ios":"levelo://app?vid=bb5a4688-a60f-42fb-889f-8e7d5f2ea34b"},"vehicle_type_id":"4","last_reported":1753546328,"current_range_meters":16000,"station_id":"ce4bhkp2rcd13ifvqgd0","pricing_plan_id":"cebpf4jnsgd1na2vs0mg"},{"bike_id":"d97d0798-e9b4-4827-90f7-a936c8ae1be1","system_id":"levelo_inurba_marseille","lat":43.298412,"lon":5.362754,"is_reserved":false,"is_disabled":false,"rental_uris":{"android":"levelo://app?vid=d97d0798-e9b4-4827-90f7-a936c8ae1be1","ios":"levelo://app?vid=d97d0798-e9b4-4827-90f7-a936c8ae1be1"},"vehicle_type_id":"4","last_reported":1753546328,"current_range_meters":16400,"station_id":"ce4bhr12rcd13ifvqhpg","pricing_plan_id":"cebpf4jnsgd1na2vs0mg"},{"bike_id":"4af0e3d2-3908-4ccb-92be-4239dac0aae4","system_id":"levelo_inurba_marseille","lat":43.28442,"lon":5.34978,"is_reserved":false,"is_disabled":false,"rental_uris":{"android":"levelo://app?vid=4af0e3d2-3908-4ccb-92be-4239dac0aae4","ios":"levelo://app?vid=4af0e3d2-3908-4ccb-92be-4239dac0aae4"},"vehicle_type_id":"4","last_reported":1753546328,"current_range_meters":16800,"station_id":"ce4bhbh2rcd13ifvqepg","pricing_plan_id":"cebpf4jnsgd1na2vs0mg"},{"bike_id":"7cfeff2f-ed6e-4fc9-bb13-d0033ccdaffa","system_id":"levelo_inurba_marseille","lat":43.30304,"lon":5.369,"is_reserved":false,"is_disabled":false,"rental_uris":{"android":"levelo://app?vid=7cfeff2f-ed6e-4fc9-bb13-d0033ccdaffa","ios":"levelo://app?vid=7cfeff2f-ed6e-4fc9-bb13-d0033ccdaffa"},"vehicle_type_id":"4","last_reported":1753546328,"current_range_meters":16800,"station_id":"ce4bgqh2rcd13ifvqc5g","pricing_plan_id":"cebpf4jnsgd1na2vs0mg"},{"bike_id":"fe363aba-bb82-459d-9992-f25ae7d08a42","system_id":"levelo_inurba_marseille","lat":43.289235,"lon":5.362574,"is_reserved":false,"is_disabled":false,"rental_uris":{"android":"levelo://app?vid=fe363aba-bb82-459d-9992-f25ae7d08a42","ios":"levelo://app?vid=fe363aba-bb82-459d-9992-f25ae7d08a42"},"vehicle_type_id":"4","last_reported":1753546328,"current_range_meters":16800,"station_id":"ce4bhbh2rcd13ifvqepg","pricing_plan_id":"cebpf4jnsgd1na2vs0mg"},{"bike_id":"4a07bed3-ad76-4ff3-9808-6f06bba33215","system_id":"levelo_inurba_marseille","lat":43.2971,"lon":5.36607,"is_reserved":false,"is_disabled":false,"rental_uris":{"android":"levelo://app?vid=4a07bed3-ad76-4ff3-9808-6f06bba33215","ios":"levelo://app?vid=4a07bed3-ad76-4ff3-9808-6f06bba33215"},"vehicle_type_id":"4","last_reported":1753546328,"current_range_meters":16800,"station_id":"ce4bgn12rcd13ifvqbt0","pricing_plan_id":"cebpf4jnsgd1na2vs0mg"},{"bike_id":"02cab979-ccb2-40ce-bd89-cd624415fc04","system_id":"levelo_inurba_marseille","lat":43.27787,"lon":5.3994,"is_reserved":false,"is_disabled":false,"rental_uris":{"android":"levelo://app?vid=02cab979-ccb2-40ce-bd89-cd624415fc04","ios":"levelo://app?vid=02cab979-ccb2-40ce-bd89-cd624415fc04"},"vehicle_type_id":"4","last_reported":1753546328,"current_range_meters":16800,"station_id":"","pricing_plan_id":"cebpf4jnsgd1na2vs0mg"},{"bike_id":"25f3e258-0c7a-499b-b187-4c4dddf45bcd","system_id":"levelo_inurba_marseille","lat":43.29259,"lon":5.36844,"is_reserved":false,"is_disabled":true,"rental_uris":{"android":"levelo://app?vid=25f3e258-0c7a-499b-b187-4c4dddf45bcd","ios":"levelo://app?vid=25f3e258-0c7a-499b-b187-4c4dddf45bcd"},"vehicle_type_id":"4","last_reported":1753546328,"current_range_meters":16800,"station_id":"ce4bhbp2rcd13ifvqesg","pricing_plan_id":"cebpf4jnsgd1na2vs0mg"},{"bike_id":"7faae7fb-ed71-4e62-b772-e5a2ad505280","system_id":"levelo_inurba_marseille","lat":43.28616,"lon":5.35104,"is_reserved":false,"is_disabled":false,"rental_uris":{"android":"levelo://app?vid=7faae7fb-ed71-4e62-b772-e5a2ad505280","ios":"levelo://app?vid=7faae7fb-ed71-4e62-b772-e5a2ad505280"},"vehicle_type_id":"4","last_reported":1753546328,"current_range_meters":16800,"station_id":"ce4bhch2rcd13ifvqeug","pricing_plan_id":"cebpf4jnsgd1na2vs0mg"},{"bike_id":"eb0424dc-758e-48cc-acc3-7bebbb3f235b","system_id":"levelo_inurba_marseille","lat":43.28619,"lon":5.35105,"is_reserved":false,"is_disabled":false,"rental_uris":{"android":"levelo://app?vid=eb0424dc-758e-48cc-acc3-7bebbb3f235b","ios":"levelo://app?vid=eb0424dc-758e-48cc-acc3-7bebbb3f235b"},"vehicle_type_id":"4","last_reported":1753546328,"current_range_meters":17200,"station_id":"ce4bhch2rcd13ifvqeug","pricing_plan_id":"cebpf4jnsgd1na2vs0mg"},{"bike_id":"54405b04-0f04-4c64-af8f-9ccbb34ae9ba","system_id":"levelo_inurba_marseille","lat":43.28039,"lon":5.36939,"is_reserved":false,"is_disabled":false,"rental_uris":{"android":"levelo://app?vid=54405b04-0f04-4c64-af8f-9ccbb34ae9ba","ios":"levelo://app?vid=54405b04-0f04-4c64-af8f-9ccbb34ae9ba"},"vehicle_type_id":"4","last_reported":1753546328,"current_range_meters":17200,"station_id":"ce4bha12rcd13ifvqef0","pricing_plan_id":"cebpf4jnsgd1na2vs0mg"},{"bike_id":"d8ede7a6-2370-4585-9b4e-834634539090","system_id":"levelo_inurba_marseille","lat":43.22515,"lon":5.34769,"is_reserved":false,"is_disabled":false,"rental_uris":{"android":"levelo://app?vid=d8ede7a6-2370-4585-9b4e-834634539090","ios":"levelo://app?vid=d8ede7a6-2370-4585-9b4e-834634539090"},"vehicle_type_id":"4","last_reported":1753546328,"current_range_meters":17200,"station_id":"st_cvj5dfep6f1abm77gieg","pricing_plan_id":"cebpf4jnsgd1na2vs0mg"},{"bike_id":"04579f34-748d-4774-acd8-061f61361a17","system_id":"levelo_inurba_marseille","lat":43.28431,"lon":5.3498,"is_reserved":false,"is_disabled":false,"rental_uris":{"android":"levelo://app?vid=04579f34-748d-4774-acd8-061f61361a17","ios":"levelo://app?vid=04579f34-748d-4774-acd8-061f61361a17"},"vehicle_type_id":"4","last_reported":1753546328,"current_range_meters":17200,"station_id":"ce4bhbh2rcd13ifvqepg","pricing_plan_id":"cebpf4jnsgd1na2vs0mg"},{"bike_id":"e666153e-0d94-49fc-a285-a6a2347ef6ad","system_id":"levelo_inurba_marseille","lat":43.26961,"lon":5.38607,"is_reserved":false,"is_disabled":true,"rental_uris":{"android":"levelo://app?vid=e666153e-0d94-49fc-a285-a6a2347ef6ad","ios":"levelo://app?vid=e666153e-0d94-49fc-a285-a6a2347ef6ad"},"vehicle_type_id":"4","last_reported":1753546328,"current_range_meters":17200,"station_id":"ce4bhh92rcd13ifvqfh0","pricing_plan_id":"cebpf4jnsgd1na2vs0mg"},{"bike_id":"4fc563e5-5af3-4e66-b309-4f545577a0a4","system_id":"levelo_inurba_marseille","lat":43.217445,"lon":5.346039,"is_reserved":false,"is_disabled":false,"rental_uris":{"android":"levelo://app?vid=4fc563e5-5af3-4e66-b309-4f545577a0a4","ios":"levelo://app?vid=4fc563e5-5af3-4e66-b309-4f545577a0a4"},"vehicle_type_id":"4","last_reported":1753546328,"current_range_meters":17200,"station_id":"","pricing_plan_id":"cebpf4jnsgd1na2vs0mg"},{"bike_id":"69eb2053-6469-4f9b-869a-7285bd1bf1c0","system_id":"levelo_inurba_marseille","lat":43.22511,"lon":5.34807,"is_reserved":false,"is_disabled":false,"rental_uris":{"android":"levelo://app?vid=69eb2053-6469-4f9b-869a-7285bd1bf1c0","ios":"levelo://app?vid=69eb2053-6469-4f9b-869a-7285bd1bf1c0"},"vehicle_type_id":"4","last_reported":1753546328,"current_range_meters":17200,"station_id":"st_cvj5dfep6f1abm77gieg","pricing_plan_id":"cebpf4jnsgd1na2vs0mg"},{"bike_id":"07b2480c-00fd-472b-b8c4-94dc326d23e6","system_id":"levelo_inurba_marseille","lat":43.29192,"lon":5.35803,"is_reserved":false,"is_disabled":false,"rental_uris":{"android":"levelo://app?vid=07b2480c-00fd-472b-b8c4-94dc326d23e6","ios":"levelo://app?vid=07b2480c-00fd-472b-b8c4-94dc326d23e6"},"vehicle_type_id":"4","last_reported":1753546328,"current_range_meters":17200,"station_id":"ce4bhb12rcd13ifvqel0","pricing_plan_id":"cebpf4jnsgd1na2vs0mg"},{"bike_id":"03d4250b-69f9-4399-a884-7539b2b7ba8d","system_id":"levelo_inurba_marseille","lat":43.286249,"lon":5.350952,"is_reserved":false,"is_disabled":false,"rental_uris":{"android":"levelo://app?vid=03d4250b-69f9-4399-a884-7539b2b7ba8d","ios":"levelo://app?vid=03d4250b-69f9-4399-a884-7539b2b7ba8d"},"vehicle_type_id":"4","last_reported":1753546328,"current_range_meters":17200,"station_id":"ce4bhch2rcd13ifvqeug","pricing_plan_id":"cebpf4jnsgd1na2vs0mg"},{"bike_id":"37562319-1ab7-4052-84cd-19474c696578","system_id":"levelo_inurba_marseille","lat":43.27618,"lon":5.36117,"is_reserved":false,"is_disabled":false,"rental_uris":{"android":"levelo://app?vid=37562319-1ab7-4052-84cd-19474c696578","ios":"levelo://app?vid=37562319-1ab7-4052-84cd-19474c696578"},"vehicle_type_id":"4","last_reported":1753546328,"current_range_meters":17600,"station_id":"ce4bgj92rcd13ifvqbe0","pricing_plan_id":"cebpf4jnsgd1na2vs0mg"},{"bike_id":"593830fa-89d9-46ac-a5f4-c53401aed28b","system_id":"levelo_inurba_marseille","lat":43.24172,"lon":5.36388,"is_reserved":false,"is_disabled":false,"rental_uris":{"android":"levelo://app?vid=593830fa-89d9-46ac-a5f4-c53401aed28b","ios":"levelo://app?vid=593830fa-89d9-46ac-a5f4-c53401aed28b"},"vehicle_type_id":"4","last_reported":1753546328,"current_range_meters":17600,"station_id":"cpo36qri1sfpv3e86is0","pricing_plan_id":"cebpf4jnsgd1na2vs0mg"},{"bike_id":"0de737b0-747d-4f83-9e74-4a1d79017dbe","system_id":"levelo_inurba_marseille","lat":43.28276,"lon":5.35067,"is_reserved":false,"is_disabled":false,"rental_uris":{"android":"levelo://app?vid=0de737b0-747d-4f83-9e74-4a1d79017dbe","ios":"levelo://app?vid=0de737b0-747d-4f83-9e74-4a1d79017dbe"},"vehicle_type_id":"4","last_reported":1753546328,"current_range_meters":17600,"station_id":"ce4bhbp2rcd13ifvqerg","pricing_plan_id":"cebpf4jnsgd1na2vs0mg"},{"bike_id":"adbc006e-c51d-4434-863c-610344ea30cd","system_id":"levelo_inurba_marseille","lat":43.21743,"lon":5.34606,"is_reserved":false,"is_disabled":true,"rental_uris":{"android":"levelo://app?vid=adbc006e-c51d-4434-863c-610344ea30cd","ios":"levelo://app?vid=adbc006e-c51d-4434-863c-610344ea30cd"},"vehicle_type_id":"4","last_reported":1753546328,"current_range_meters":17600,"station_id":"st_cvj6r9ubvosntc0bgbag","pricing_plan_id":"cebpf4jnsgd1na2vs0mg"},{"bike_id":"484ce80f-12be-41fa-9586-784b84db2ffe","system_id":"levelo_inurba_marseille","lat":43.24809,"lon":5.37455,"is_reserved":false,"is_disabled":false,"rental_uris":{"android":"levelo://app?vid=484ce80f-12be-41fa-9586-784b84db2ffe","ios":"levelo://app?vid=484ce80f-12be-41fa-9586-784b84db2ffe"},"vehicle_type_id":"4","last_reported":1753546328,"current_range_meters":18000,"station_id":"ce4bhgh2rcd13ifvqfb0","pricing_plan_id":"cebpf4jnsgd1na2vs0mg"},{"bike_id":"507eb3d1-170b-4085-b94b-d2444c054ce2","system_id":"levelo_inurba_marseille","lat":43.2439,"lon":5.37061,"is_reserved":false,"is_disabled":false,"rental_uris":{"android":"levelo://app?vid=507eb3d1-170b-4085-b94b-d2444c054ce2","ios":"levelo://app?vid=507eb3d1-170b-4085-b94b-d2444c054ce2"},"vehicle_type_id":"4","last_reported":1753546328,"current_range_meters":18000,"station_id":"ce4bhhh2rcd13ifvqfk0","pricing_plan_id":"cebpf4jnsgd1na2vs0mg"},{"bike_id":"35012576-1e93-4e33-b516-27a77d4d431e","system_id":"levelo_inurba_marseille","lat":43.278185,"lon":5.40704,"is_reserved":false,"is_disabled":false,"rental_uris":{"android":"levelo://app?vid=35012576-1e93-4e33-b516-27a77d4d431e","ios":"levelo://app?vid=35012576-1e93-4e33-b516-27a77d4d431e"},"vehicle_type_id":"4","last_reported":1753546328,"current_range_meters":18000,"station_id":"ce4bhnh2rcd13ifvqgtg","pricing_plan_id":"cebpf4jnsgd1na2vs0mg"},{"bike_id":"d8b57caa-f735-4bc3-972c-7aab03210479","system_id":"levelo_inurba_marseille","lat":43.26229,"lon":5.40449,"is_reserved":false,"is_disabled":false,"rental_uris":{"android":"levelo://app?vid=d8b57caa-f735-4bc3-972c-7aab03210479","ios":"levelo://app?vid=d8b57caa-f735-4bc3-972c-7aab03210479"},"vehicle_type_id":"4","last_reported":1753546328,"current_range_meters":18000,"station_id":"ce4bhmh2rcd13ifvqgmg","pricing_plan_id":"cebpf4jnsgd1na2vs0mg"},{"bike_id":"f5d35bb9-022f-4b33-ab96-4c8a7845427f","system_id":"levelo_inurba_marseille","lat":43.30354,"lon":5.41882,"is_reserved":false,"is_disabled":false,"rental_uris":{"android":"levelo://app?vid=f5d35bb9-022f-4b33-ab96-4c8a7845427f","ios":"levelo://app?vid=f5d35bb9-022f-4b33-ab96-4c8a7845427f"},"vehicle_type_id":"4","last_reported":1753546328,"current_range_meters":18000,"station_id":"ce4bhop2rcd13ifvqh7g","pricing_plan_id":"cebpf4jnsgd1na2vs0mg"},{"bike_id":"0f6c88cf-6594-4b06-95cb-269fbb1a72c3","system_id":"levelo_inurba_marseille","lat":43.29515,"lon":5.37511,"is_reserved":false,"is_disabled":false,"rental_uris":{"android":"levelo://app?vid=0f6c88cf-6594-4b06-95cb-269fbb1a72c3","ios":"levelo://app?vid=0f6c88cf-6594-4b06-95cb-269fbb1a72c3"},"vehicle_type_id":"4","last_reported":1753546328,"current_range_meters":18000,"station_id":"ce4bgkp2rcd13ifvqbmg","pricing_plan_id":"cebpf4jnsgd1na2vs0mg"},{"bike_id":"bc667fa7-88be-4d9b-9317-6163182d7112","system_id":"levelo_inurba_marseille","lat":43.29614,"lon":5.37716,"is_reserved":false,"is_disabled":false,"rental_uris":{"android":"levelo://app?vid=bc667fa7-88be-4d9b-9317-6163182d7112","ios":"levelo://app?vid=bc667fa7-88be-4d9b-9317-6163182d7112"},"vehicle_type_id":"4","last_reported":1753546328,"current_range_meters":18000,"station_id":"","pricing_plan_id":"cebpf4jnsgd1na2vs0mg"},{"bike_id":"5710c9b8-854c-4011-929a-277b05b7d4f8","system_id":"levelo_inurba_marseille","lat":43.29704,"lon":5.37684,"is_reserved":false,"is_disabled":false,"rental_uris":{"android":"levelo://app?vid=5710c9b8-854c-4011-929a-277b05b7d4f8","ios":"levelo://app?vid=5710c9b8-854c-4011-929a-277b05b7d4f8"},"vehicle_type_id":"4","last_reported":1753546328,"current_range_meters":18000,"station_id":"ce4bgkh2rcd13ifvqbl0","pricing_plan_id":"cebpf4jnsgd1na2vs0mg"},{"bike_id":"a85d0d7b-3731-4b06-b13e-849916f6749f","system_id":"levelo_inurba_marseille","lat":43.28273,"lon":5.35069,"is_reserved":false,"is_disabled":false,"rental_uris":{"android":"levelo://app?vid=a85d0d7b-3731-4b06-b13e-849916f6749f","ios":"levelo://app?vid=a85d0d7b-3731-4b06-b13e-849916f6749f"},"vehicle_type_id":"4","last_reported":1753546328,"current_range_meters":18000,"station_id":"ce4bhbp2rcd13ifvqerg","pricing_plan_id":"cebpf4jnsgd1na2vs0mg"},{"bike_id":"0631c5d4-4f8d-47dc-a114-37a870db949a","system_id":"levelo_inurba_marseille","lat":43.30127,"lon":5.3986,"is_reserved":false,"is_disabled":false,"rental_uris":{"android":"levelo://app?vid=0631c5d4-4f8d-47dc-a114-37a870db949a","ios":"levelo://app?vid=0631c5d4-4f8d-47dc-a114-37a870db949a"},"vehicle_type_id":"4","last_reported":1753546328,"current_range_meters":18800,"station_id":"ce4bh0h2rcd13ifvqd40","pricing_plan_id":"cebpf4jnsgd1na2vs0mg"},