{"last_updated":1783284318,"ttl":60,"version":"2.2","data":{"bikes":[{"bike_id":"ba0c28b1-8732-48e2-8079-f25b2b3fbc3c","system_id":"levelo_inurba_marseille","lat":43.337444,"lon":5.374475,"is_reserved":false,"is_disabled":false,"rental_uris":{"android":"levelo://app?vid=ba0c28b1-8732-48e2-8079-f25b2b3fbc3c","ios":"levelo://app?vid=ba0c28b1-8732-48e2-8079-f25b2b3fbc3c"},"vehicle_type_id":"4","last_reported":1783284319,"current_range_meters":0,"station_id":"","pricing_plan_id":"cebpf4jnsgd1na2vs0mg"},{"bike_id":"92e63590-d42c-41ed-9197-022317634a3d","system_id":"levelo_inurba_marseille","lat":43.30528,"lon":5.39901,"is_reserved":false,"is_disabled":false,"rental_uris":{"android":"levelo://app?vid=92e63590-d42c-41ed-9197-022317634a3d","ios":"levelo://app?vid=92e63590-d42c-41ed-9197-022317634a3d"},"vehicle_type_id":"4","last_reported":1783284319,"current_range_meters":800,"station_id":"","pricing_plan_id":"cebpf4jnsgd1na2vs0mg"},{"bike_id":"b7c7c1e8-84e9-49fb-a54d-fbe5086cd61a","system_id":"levelo_inurba_marseille","lat":43.27804,"lon":5.40706,"is_reserved":false,"is_disabled":true,"rental_uris":{"android":"levelo://app?vid=b7c7c1e8-84e9-49fb-a54d-fbe5086cd61a","ios":"levelo://app?vid=b7c7c1e8-84e9-49fb-a54d-fbe5086cd61a"},"vehicle_type_id":"4","last_reported":1783284319,"current_range_meters":2800,"station_id":"ce4bhnh2rcd13ifvqgtg","pricing_plan_id":"cebpf4jnsgd1na2vs0mg"},{"bike_id":"3edad406-7310-4441-b103-43aa843ff572","system_id":"levelo_inurba_marseille","lat":43.27921,"lon":5.37215,"is_reserved":false,"is_disabled":false,"rental_uris":{"android":"levelo://app?vid=3edad406-7310-4441-b103-43aa843ff572","ios":"levelo://app?vid=3edad406-7310-4441-b103-43aa843ff572"},"vehicle_type_id":"4","last_reported":1783284319,"current_range_meters":2800,"station_id":"","pricing_plan_id":"cebpf4jnsgd1na2vs0mg"},{"bike_id":"693afbfa-e70f-40d9-9271-5aba390db9b6","system_id":"levelo_inurba_marseille","lat":43.24102,"lon":5.3628,"is_reserved":false,"is_disabled":false,"rental_uris":{"android":"levelo://app?vid=693afbfa-e70f-40d9-9271-5aba390db9b6","ios":"levelo://app?vid=693afbfa-e70f-40d9-9271-5aba390db9b6"},"vehicle_type_id":"4","last_reported":1783284319,"current_range_meters":2800,"station_id":"","pricing_plan_id":"cebpf4jnsgd1na2vs0mg"},{"bike_id":"c8d97693-2556-4dc1-b909-604d41165a1e","system_id":"levelo_inurba_marseille","lat":43.29447,"lon":5.39737,"is_reserved":false,"is_disabled":false,"rental_uris":{"android":"levelo://app?vid=c8d97693-2556-4dc1-b909-604d41165a1e","ios":"levelo://app?vid=c8d97693-2556-4dc1-b909-604d41165a1e"},"vehicle_type_id":"4","last_reported":1783284319,"current_range_meters":2800,"station_id":"ce4bh3h2rcd13ifvqdo0","pricing_plan_id":"cebpf4jnsgd1na2vs0mg"},{"bike_id":"b062a637-2d11-447f-94d0-45150f1d63f6","system_id":"levelo_inurba_marseille","lat":43.34406,"lon":5.42022,"is_reserved":false,"is_disabled":false,"rental_uris":{"android":"levelo://app?vid=b062a637-2d11-447f-94d0-45150f1d63f6","ios":"levelo://app?vid=b062a637-2d11-447f-94d0-45150f1d63f6"},"vehicle_type_id":"4","last_reported":1783284319,"current_range_meters":2800,"station_id":"","pricing_plan_id":"cebpf4jnsgd1na2vs0mg"},{"bike_id":"09894afb-20fa-44ff-a5e2-69a60405798e","system_id":"levelo_inurba_marseille","lat":43.21189,"lon":5.35072,"is_reserved":false,"is_disabled":false,"rental_uris":{"android":"levelo://app?vid=09894afb-20fa-44ff-a5e2-69a60405798e","ios":"levelo://app?vid=09894afb-20fa-44ff-a5e2-69a60405798e"},"vehicle_type_id":"4","last_reported":1783284319,"current_range_meters":2800,"station_id":"st_cvj6sg6p6f1abm77japg","pricing_plan_id":"cebpf4jnsgd1na2vs0mg"},{"bike_id":"f8904c74-6830-40fe-b3c8-4f67e33c09e0","system_id":"levelo_inurba_marseille","lat":43.29807,"lon":5.37166,"is_reserved":false,"is_disabled":false,"rental_uris":{"android":"levelo://app?vid=f8904c74-6830-40fe-b3c8-4f67e33c09e0","ios":"levelo://app?vid=f8904c74-6830-40fe-b3c8-4f67e33c09e0"},"vehicle_type_id":"4","last_reported":1783284319,"current_range_meters":2800,"station_id":"","pricing_plan_id":"cebpf4jnsgd1na2vs0mg"},{"bike_id":"74063475-0b58-43bd-92ae-0e7c5f88358e","system_id":"levelo_inurba_marseille","lat":43.30642,"lon":5.40097,"is_reserved":false,"is_disabled":false,"rental_uris":{"android":"levelo://app?vid=74063475-0b58-43bd-92ae-0e7c5f88358e","ios":"levelo://app?vid=74063475-0b58-43bd-92ae-0e7c5f88358e"},"vehicle_type_id":"4","last_reported":1783284319,"current_range_meters":2800,"station_id":"ce4bh112rcd13ifvqda0","pricing_plan_id":"cebpf4jnsgd1na2vs0mg"},{"bike_id":"8dcddb15-1995-4285-88ab-07df9e5d62fc","system_id":"levelo_inurba_marseille","lat":43.298819,"lon":5.389074,"is_reserved":false,"is_disabled":false,"rental_uris":{"android":"levelo://app?vid=8dcddb15-1995-4285-88ab-07df9e5d62fc","ios":"levelo://app?vid=8dcddb15-1995-4285-88ab-07df9e5d62fc"},"vehicle_type_id":"4","last_reported":1783284319,"current_range_meters":2800,"station_id":"ce4bh392rcd13ifvqdl0","pricing_plan_id":"cebpf4jnsgd1na2vs0mg"},{"bike_id":"61cd84df-f76f-41ad-9da2-1b4df883e51c","system_id":"levelo_inurba_marseille","lat":43.26246,"lon":5.38971,"is_reserved":false,"is_disabled":false,"rental_uris":{"android":"levelo://app?vid=61cd84df-f76f-41ad-9da2-1b4df883e51c","ios":"levelo://app?vid=61cd84df-f76f-41ad-9da2-1b4df883e51c"},"vehicle_type_id":"4","last_reported":1783284319,"current_range_meters":2800,"station_id":"","pricing_plan_id":"cebpf4jnsgd1na2vs0mg"},{"bike_id":"3bc6d12d-59c0-4162-9cda-07f3d37dc2e0","system_id":"levelo_inurba_marseille","lat":43.2442,"lon":5.40303,"is_reserved":false,"is_disabled":false,"rental_uris":{"android":"levelo://app?vid=3bc6d12d-59c0-4162-9cda-07f3d37dc2e0","ios":"levelo://app?vid=3bc6d12d-59c0-4162-9cda-07f3d37dc2e0"},"vehicle_type_id":"4","last_reported":1783284319,"current_range_meters":3200,"station_id":"","pricing_plan_id":"cebpf4jnsgd1na2vs0mg"},{"bike_id":"0df3073c-4d91-4aad-99ca-3266164a2dbe","system_id":"levelo_inurba_marseille","lat":43.28428,"lon":5.37525,"is_reserved":false,"is_disabled":true,"rental_uris":{"android":"levelo://app?vid=0df3073c-4d91-4aad-99ca-3266164a2dbe","ios":"levelo://app?vid=0df3073c-4d91-4aad-99ca-3266164a2dbe"},"vehicle_type_id":"4","last_reported":1783284319,"current_range_meters":3200,"station_id":"ce4bh412rcd13ifvqds0","pricing_plan_id":"cebpf4jnsgd1na2vs0mg"},{"bike_id":"c4e67a02-d904-4f02-86bf-6b3800bdc3aa","system_id":"levelo_inurba_marseille","lat":43.23303,"lon":5.41198,"is_reserved":false,"is_disabled":false,"rental_uris":{"android":"levelo://app?vid=c4e67a02-d904-4f02-86bf-6b3800bdc3aa","ios":"levelo://app?vid=c4e67a02-d904-4f02-86bf-6b3800bdc3aa"},"vehicle_type_id":"4","last_reported":1783284319,"current_range_meters":3200,"station_id":"st_d75pvndhf9lc73cqq3eg","pricing_plan_id":"cebpf4jnsgd1na2vs0mg"},{"bike_id":"f5a68b71-3761-443f-a16c-225019d233b9","system_id":"levelo_inurba_marseille","lat":43.25378,"lon":5.37527,"is_reserved":false,"is_disabled":false,"rental_uris":{"android":"levelo://app?vid=f5a68b71-3761-443f-a16c-225019d233b9","ios":"levelo://app?vid=f5a68b71-3761-443f-a16c-225019d233b9"},"vehicle_type_id":"4","last_reported":1783284319,"current_range_meters":3200,"station_id":"","pricing_plan_id":"cebpf4jnsgd1na2vs0mg"},{"bike_id":"f4c490b5-dc48-483a-b891-cbc3d779a738","system_id":"levelo_inurba_marseille","lat":43.31586,"lon":5.38796,"is_reserved":false,"is_disabled":false,"rental_uris":{"android":"levelo://app?vid=f4c490b5-dc48-483a-b891-cbc3d779a738","ios":"levelo://app?vid=f4c490b5-dc48-483a-b891-cbc3d779a738"},"vehicle_type_id":"4","last_reported":1783284319,"current_range_meters":3200,"station_id":"","pricing_plan_id":"cebpf4jnsgd1na2vs0mg"},{"bike_id":"b2efba2d-fb46-4dbc-98ef-fb4eb7102cb6","system_id":"levelo_inurba_marseille","lat":43.31056,"lon":5.37186,"is_reserved":false,"is_disabled":false,"rental_uris":{"android":"levelo://app?vid=b2efba2d-fb46-4dbc-98ef-fb4eb7102cb6","ios":"levelo://app?vid=b2efba2d-fb46-4dbc-98ef-fb4eb7102cb6"},"vehicle_type_id":"4","last_reported":1783284319,"current_range_meters":3200,"station_id":"st_d4kl2rp97mjs73e7tdfg","pricing_plan_id":"cebpf4jnsgd1na2vs0mg"},{"bike_id":"0a9ebcff-1b56-45db-9b33-1cda38943cf9","system_id":"levelo_inurba_marseille","lat":43.24484,"lon":5.40807,"is_reserved":false,"is_disabled":false,"rental_uris":{"android":"levelo://app?vid=0a9ebcff-1b56-45db-9b33-1cda38943cf9","ios":"levelo://app?vid=0a9ebcff-1b56-45db-9b33-1cda38943cf9"},"vehicle_type_id":"4","last_reported":1783284319,"current_range_meters":3200,"station_id":"","pricing_plan_id":"cebpf4jnsgd1na2vs0mg"},{"bike_id":"873ed4e8-9113-46e2-b7ec-9af591681d53","system_id":"levelo_inurba_marseille","lat":43.29064,"lon":5.37141,"is_reserved":false,"is_disabled":false,"rental_uris":{"android":"levelo://app?vid=873ed4e8-9113-46e2-b7ec-9af591681d53","ios":"levelo://app?vid=873ed4e8-9113-46e2-b7ec-9af591681d53"},"vehicle_type_id":"4","last_reported":1783284319,"current_range_meters":3200,"station_id":"ce4bh5p2rcd13ifvqe4g","pricing_plan_id":"cebpf4jnsgd1na2vs0mg"},{"bike_id":"adf781d1-b3dc-4123-b375-519d6858951a","system_id":"levelo_inurba_marseille","lat":43.26189,"lon":5.37923,"is_reserved":false,"is_disabled":false,"rental_uris":{"android":"levelo://app?vid=adf781d1-b3dc-4123-b375-519d6858951a","ios":"levelo://app?vid=adf781d1-b3dc-4123-b375-519d6858951a"},"vehicle_type_id":"4","last_reported":1783284319,"current_range_meters":3200,"station_id":"ce4bhjp2rcd13ifvqg90","pricing_plan_id":"cebpf4jnsgd1na2vs0mg"},{"bike_id":"5658cfe3-ed59-45e9-8a44-0561163fcd3f","system_id":"levelo_inurba_marseille","lat":43.30845,"lon":5.40498,"is_reserved":false,"is_disabled":false,"rental_uris":{"android":"levelo://app?vid=5658cfe3-ed59-45e9-8a44-0561163fcd3f","ios":"levelo://app?vid=5658cfe3-ed59-45e9-8a44-0561163fcd3f"},"vehicle_type_id":"4","last_reported":1783284319,"current_range_meters":3200,"station_id":"","pricing_plan_id":"cebpf4jnsgd1na2vs0mg"},{"bike_id":"4d729641-364f-46d4-977d-580f6c33f1cd","system_id":"levelo_inurba_marseille","lat":43.29857,"lon":5.39729,"is_reserved":false,"is_disabled":false,"rental_uris":{"android":"levelo://app?vid=4d729641-364f-46d4-977d-580f6c33f1cd","ios":"levelo://app?vid=4d729641-364f-46d4-977d-580f6c33f1cd"},"vehicle_type_id":"4","last_reported":1783284319,"current_range_meters":3200,"station_id":"ce4bh0h2rcd13ifvqd50","pricing_plan_id":"cebpf4jnsgd1na2vs0mg"},{"bike_id":"052e085d-2d10-43d1-8dc4-f86100cdd804","system_id":"levelo_inurba_marseille","lat":43.28107,"lon":5.3784,"is_reserved":false,"is_disabled":false,"rental_uris":{"android":"levelo://app?vid=052e085d-2d10-43d1-8dc4-f86100cdd804","ios":"levelo://app?vid=052e085d-2d10-43d1-8dc4-f86100cdd804"},"vehicle_type_id":"4","last_reported":1783284319,"current_range_meters":3200,"station_id":"ce4bha12rcd13ifvqee0","pricing_plan_id":"cebpf4jnsgd1na2vs0mg"},{"bike_id":"94fb7598-a25f-4a60-b73d-63dddeecfc92","system_id":"levelo_inurba_marseille","lat":43.25255,"lon":5.40036,"is_reserved":false,"is_disabled":false,"rental_uris":{"android":"levelo://app?vid=94fb7598-a25f-4a60-b73d-63dddeecfc92","ios":"levelo://app?vid=94fb7598-a25f-4a60-b73d-63dddeecfc92"},"vehicle_type_id":"4","last_reported":1783284319,"current_range_meters":3200,"station_id":"","pricing_plan_id":"cebpf4jnsgd1na2vs0mg"},{"bike_id":"cdb96f67-4069-4baa-a896-228f7764dacd","system_id":"levelo_inurba_marseille","lat":43.29562,"lon":5.3786,"is_reserved":false,"is_disabled":false,"rental_uris":{"android":"levelo://app?vid=cdb96f67-4069-4baa-a896-228f7764dacd","ios":"levelo://app?vid=cdb96f67-4069-4baa-a896-228f7764dacd"},"vehicle_type_id":"4","last_reported":1783284319,"current_range_meters":3600,"station_id":"","pricing_plan_id":"cebpf4jnsgd1na2vs0mg"},{"bike_id":"efa50882-5f84-4528-b03e-e2a38ee3d722","system_id":"levelo_inurba_marseille","lat":43.27071,"lon":5.42283,"is_reserved":false,"is_disabled":false,"rental_uris":{"android":"levelo://app?vid=efa50882-5f84-4528-b03e-e2a38ee3d722","ios":"levelo://app?vid=efa50882-5f84-4528-b03e-e2a38ee3d722"},"vehicle_type_id":"4","last_reported":1783284319,"current_range_meters":3600,"station_id":"ce4bhk92rcd13ifvqgb0","pricing_plan_id":"cebpf4jnsgd1na2vs0mg"},{"bike_id":"9decf04b-6546-49a6-b3f8-1f0d147fc0cb","system_id":"levelo_inurba_marseille","lat":43.31679,"lon":5.40471,"is_reserved":false,"is_disabled":false,"rental_uris":{"android":"levelo://app?vid=9decf04b-6546-49a6-b3f8-1f0d147fc0cb","ios":"levelo://app?vid=9decf04b-6546-49a6-b3f8-1f0d147fc0cb"},"vehicle_type_id":"4","last_reported":1783284319,"current_range_meters":3600,"station_id":"ce4bh012rcd13ifvqd00","pricing_plan_id":"cebpf4jnsgd1na2vs0mg"},{"bike_id":"16508a52-6fa3-4cc6-9ddf-cee72efccb5a","system_id":"levelo_inurba_marseille","lat":43.29568,"lon":5.39979,"is_reserved":false,"is_disabled":false,"rental_uris":{"android":"levelo://app?vid=16508a52-6fa3-4cc6-9ddf-cee72efccb5a","ios":"levelo://app?vid=16508a52-6fa3-4cc6-9ddf-cee72efccb5a"},"vehicle_type_id":"4","last_reported":1783284319,"current_range_meters":3600,"station_id":"ce4bh312rcd13ifvqdj0","pricing_plan_id":"cebpf4jnsgd1na2vs0mg"},{"bike_id":"00131f26-80c1-4a82-a7ff-f0e17c8392ad","system_id":"levelo_inurba_marseille","lat":43.31489,"lon":5.37299,"is_reserved":false,"is_disabled":false,"rental_uris":{"android":"levelo://app?vid=00131f26-80c1-4a82-a7ff-f0e17c8392ad","ios":"levelo://app?vid=00131f26-80c1-4a82-a7ff-f0e17c8392ad"},"vehicle_type_id":"4","last_reported":1783284319,"current_range_meters":3600,"station_id":"ce4bgt12rcd13ifvqcd0","pricing_plan_id":"cebpf4jnsgd1na2vs0mg"},{"bike_id":"827b7a8c-7d4a-47c3-aa86-889d2054d5de","system_id":"levelo_inurba_marseille","lat":43.26935,"lon":5.38616,"is_reserved":false,"is_disabled":false,"rental_uris":{"android":"levelo://app?vid=827b7a8c-7d4a-47c3-aa86-889d2054d5de","ios":"levelo://app?vid=827b7a8c-7d4a-47c3-aa86-889d2054d5de"},"vehicle_type_id":"4","last_reported":1783284319,"current_range_meters":3600,"station_id":"ce4bhh92rcd13ifvqfh0","pricing_plan_id":"cebpf4jnsgd1na2vs0mg"},{"bike_id":"7f220556-b0a6-468b-9882-f75938e7d4c9","system_id":"levelo_inurba_marseille","lat":43.27315,"lon":5.39096,"is_reserved":false,"is_disabled":true,"rental_uris":{"android":"levelo://app?vid=7f220556-b0a6-468b-9882-f75938e7d4c9","ios":"levelo://app?vid=7f220556-b0a6-468b-9882-f75938e7d4c9"},"vehicle_type_id":"4","last_reported":1783284319,"current_range_meters":3600,"station_id":"ce4bhgp2rcd13ifvqfe0","pricing_plan_id":"cebpf4jnsgd1na2vs0mg"},{"bike_id":"bde4fe8f-be40-4b5e-85e0-e4fdf22fb694","system_id":"levelo_inurba_marseille","lat":43.29271,"lon":5.36851,"is_reserved":false,"is_disabled":true,"rental_uris":{"android":"levelo://app?vid=bde4fe8f-be40-4b5e-85e0-e4fdf22fb694","ios":"levelo://app?vid=bde4fe8f-be40-4b5e-85e0-e4fdf22fb694"},"vehicle_type_id":"4","last_reported":1783284319,"current_range_meters":3600,"station_id":"ce4bhbp2rcd13ifvqesg","pricing_plan_id":"cebpf4jnsgd1na2vs0mg"},{"bike_id":"ae12aa1e-8197-4063-9622-0114ae85b08d","system_id":"levelo_inurba_marseille","lat":43.32475,"lon":5.36562,"is_reserved":false,"is_disabled":false,"rental_uris":{"android":"levelo://app?vid=ae12aa1e-8197-4063-9622-0114ae85b08d","ios":"levelo://app?vid=ae12aa1e-8197-4063-9622-0114ae85b08d"},"vehicle_type_id":"4","last_reported":1783284319,"current_range_meters":3600,"station_id":"ce4bhs12rcd13ifvqhvg","pricing_plan_id":"cebpf4jnsgd1na2vs0mg"},{"bike_id":"7a71c416-c3b5-4289-ad0e-531bcb18f06d","system_id":"levelo_inurba_marseille","lat":43.33228,"lon":5.38126,"is_reserved":false,"is_disabled":false,"rental_uris":{"android":"levelo://app?vid=7a71c416-c3b5-4289-ad0e-531bcb18f06d","ios":"levelo://app?vid=7a71c416-c3b5-4289-ad0e-531bcb18f06d"},"vehicle_type_id":"4","last_reported":1783284319,"current_range_meters":3600,"station_id":"","pricing_plan_id":"cebpf4jnsgd1na2vs0mg"},{"bike_id":"8c51c550-068e-4ee8-9e6b-2b6156bd353f","system_id":"levelo_inurba_marseille","lat":43.301895,"lon":5.366199,"is_reserved":false,"is_disabled":true,"rental_uris":{"android":"levelo://app?vid=8c51c550-068e-4ee8-9e6b-2b6156bd353f","ios":"levelo://app?vid=8c51c550-068e-4ee8-9e6b-2b6156bd353f"},"vehicle_type_id":"4","last_reported":1783284319,"current_range_meters":3600,"station_id":"ce4bgrh2rcd13ifvqc8g","pricing_plan_id":"cebpf4jnsgd1na2vs0mg"},{"bike_id":"910a0e56-3842-458a-b929-4deeebc2ab76","system_id":"levelo_inurba_marseille","lat":43.21192,"lon":5.35069,"is_reserved":false,"is_disabled":false,"rental_uris":{"android":"levelo://app?vid=910a0e56-3842-458a-b929-4deeebc2ab76","ios":"levelo://app?vid=910a0e56-3842-458a-b929-4deeebc2ab76"},"vehicle_type_id":"4","last_reported":1783284319,"current_range_meters":3600,"station_id":"st_cvj6sg6p6f1abm77japg","pricing_plan_id":"cebpf4jnsgd1na2vs0mg"},{"bike_id":"d9145d8c-3d04-4a6b-8f31-e467ebe4ffdd","system_id":"levelo_inurba_marseille","lat":43.309012,"lon":5.372059,"is_reserved":false,"is_disabled":false,"rental_uris":{"android":"levelo://app?vid=d9145d8c-3d04-4a6b-8f31-e467ebe4ffdd","ios":"levelo://app?vid=d9145d8c-3d04-4a6b-8f31-e467ebe4ffdd"},"vehicle_type_id":"4","last_reported":1783284319,"current_range_meters":3600,"station_id":"ce4bguh2rcd13ifvqckg","pricing_plan_id":"cebpf4jnsgd1na2vs0mg"},{"bike_id":"63a7dd5c-376f-4474-8bde-e47efc056c86","system_id":"levelo_inurba_marseille","lat":43.28106,"lon":5.37806,"is_reserved":false,"is_disabled":false,"rental_uris":{"android":"levelo://app?vid=63a7dd5c-376f-4474-8bde-e47efc056c86","ios":"levelo://app?vid=63a7dd5c-376f-4474-8bde-e47efc056c86"},"vehicle_type_id":"4","last_reported":1783284319,"current_range_meters":3600,"station_id":"ce4bha12rcd13ifvqee0","pricing_plan_id":"cebpf4jnsgd1na2vs0mg"},{"bike_id":"3af208fb-ed62-4f29-bcd1-b301d13a9628","system_id":"levelo_inurba_marseille","lat":43.28399,"lon":5.36415,"is_reserved":false,"is_disabled":false,"rental_uris":{"android":"levelo://app?vid=3af208fb-ed62-4f29-bcd1-b301d13a9628","ios":"levelo://app?vid=3af208fb-ed62-4f29-bcd1-b301d13a9628"},"vehicle_type_id":"4","last_reported":1783284319,"current_range_meters":3600,"station_id":"","pricing_plan_id":"cebpf4jnsgd1na2vs0mg"},{"bike_id":"e2990098-0386-45ff-8390-99b84bd08406","system_id":"levelo_inurba_marseille","lat":43.30235,"lon":5.3905,"is_reserved":false,"is_disabled":false,"rental_uris":{"android":"levelo://app?vid=e2990098-0386-45ff-8390-99b84bd08406","ios":"levelo://app?vid=e2990098-0386-45ff-8390-99b84bd08406"},"vehicle_type_id":"4","last_reported":1783284319,"current_range_meters":3600,"station_id":"","pricing_plan_id":"cebpf4jnsgd1na2vs0mg"},{"bike_id":"c4295a1d-9a1e-4603-83fc-ea3537557f52","system_id":"levelo_inurba_marseille","lat":43.2783,"lon":5.39213,"is_reserved":false,"is_disabled":false,"rental_uris":{"android":"levelo://app?vid=c4295a1d-9a1e-4603-83fc-ea3537557f52","ios":"levelo://app?vid=c4295a1d-9a1e-4603-83fc-ea3537557f52"},"vehicle_type_id":"4","last_reported":1783284319,"current_range_meters":3600,"station_id":"ce4bhjp2rcd13ifvqga0","pricing_plan_id":"cebpf4jnsgd1na2vs0mg"},{"bike_id":"17b95680-44ce-4b9f-9cd8-2f91ec25628c","system_id":"levelo_inurba_marseille","lat":43.21746,"lon":5.346011,"is_reserved":false,"is_disabled":false,"rental_uris":{"android":"levelo://app?vid=17b95680-44ce-4b9f-9cd8-2f91ec25628c","ios":"levelo://app?vid=17b95680-44ce-4b9f-9cd8-2f91ec25628c"},"vehicle_type_id":"4","last_reported":1783284319,"current_range_meters":3600,"station_id":"st_cvj6r9ubvosntc0bgbag","pricing_plan_id":"cebpf4jnsgd1na2vs0mg"},{"bike_id":"1afd20d6-d483-4adf-95ab-4266ebd462f5","system_id":"levelo_inurba_marseille","lat":43.28707,"lon":5.36396,"is_reserved":false,"is_disabled":false,"rental_uris":{"android":"levelo://app?vid=1afd20d6-d483-4adf-95ab-4266ebd462f5","ios":"levelo://app?vid=1afd20d6-d483-4adf-95ab-4266ebd462f5"},"vehicle_type_id":"4","last_reported":1783284319,"current_range_meters":4000,"station_id":"","pricing_plan_id":"cebpf4jnsgd1na2vs0mg"},{"bike_id":"2f1e7c27-cdbb-4552-bcb6-438088afd41d","system_id":"levelo_inurba_marseille","lat":43.297995,"lon":5.381091,"is_reserved":false,"is_disabled":false,"rental_uris":{"android":"levelo://app?vid=2f1e7c27-cdbb-4552-bcb6-438088afd41d","ios":"levelo://app?vid=2f1e7c27-cdbb-4552-bcb6-438088afd41d"},"vehicle_type_id":"4","last_reported":1783284319,"current_range_meters":4000,"station_id":"ce4bgl12rcd13ifvqbo0","pricing_plan_id":"cebpf4jnsgd1na2vs0mg"},{"bike_id":"25801e0a-e313-4f6c-8662-d1791b0082b9","system_id":"levelo_inurba_marseille","lat":43.25108,"lon":5.4033,"is_reserved":false,"is_disabled":false,"rental_uris":{"android":"levelo://app?vid=25801e0a-e313-4f6c-8662-d1791b0082b9","ios":"levelo://app?vid=25801e0a-e313-4f6c-8662-d1791b0082b9"},"vehicle_type_id":"4","last_reported":1783284319,"current_range_meters":4000,"station_id":"ce4bhlh2rcd13ifvqgig","pricing_plan_id":"cebpf4jnsgd1na2vs0mg"},{"bike_id":"58f63a51-7a4c-423f-9670-9620352d96a8","system_id":"levelo_inurba_marseille","lat":43.23965,"lon":5.36637,"is_reserved":false,"is_disabled":false,"rental_uris":{"android":"levelo://app?vid=58f63a51-7a4c-423f-9670-9620352d96a8","ios":"levelo://app?vid=58f63a51-7a4c-423f-9670-9620352d96a8"},"vehicle_type_id":"4","last_reported":1783284319,"current_range_meters":4000,"station_id":"ce4bhi12rcd13ifvqfp0","pricing_plan_id":"cebpf4jnsgd1na2vs0mg"},{"bike_id":"de6914c1-a127-4bad-9192-c1a2795bb81d","system_id":"levelo_inurba_marseille","lat":43.21183,"lon":5.35067,"is_reserved":false,"is_disabled":false,"rental_uris":{"android":"levelo://app?vid=de6914c1-a127-4bad-9192-c1a2795bb81d","ios":"levelo://app?vid=de6914c1-a127-4bad-9192-c1a2795bb81d"},"vehicle_type_id":"4","last_reported":1783284319,"current_range_meters":4000,"station_id":"st_cvj6sg6p6f1abm77japg","pricing_plan_id":"cebpf4jnsgd1na2vs0mg"},{"bike_id":"40c60d26-7793-4225-aaf2-3a67b9faf4fc","system_id":"levelo_inurba_marseille","lat":43.23455,"lon":5.38098,"is_reserved":false,"is_disabled":false,"rental_uris":{"android":"levelo://app?vid=40c60d26-7793-4225-aaf2-3a67b9faf4fc","ios":"levelo://app?vid=40c60d26-7793-4225-aaf2-3a67b9faf4fc"},"vehicle_type_id":"4","last_reported":1783284319,"current_range_meters":4000,"station_id":"","pricing_plan_id":"cebpf4jnsgd1na2vs0mg"},{"bike_id":"640e9eab-79f7-4cdb-9553-46f3d8fc9a9e","system_id":"levelo_inurba_marseille","lat":43.2116,"lon":5.35102,"is_reserved":false,"is_disabled":false,"rental_uris":{"android":"levelo://app?vid=640e9eab-79f7-4cdb-9553-46f3d8fc9a9e","ios":"levelo://app?vid=640e9eab-79f7-4cdb-9553-46f3d8fc9a9e"},"vehicle_type_id":"4","last_reported":1783284319,"current_range_meters":4000,"station_id":"st_cvj6sg6p6f1abm77japg","pricing_plan_id":"cebpf4jnsgd1na2vs0mg"},{"bike_id":"f0d53bf8-e822-4358-b936-2eea988549c3","system_id":"levelo_inurba_marseille","lat":43.24465,"lon":5.42537,"is_reserved":false,"is_disabled":false,"rental_uris":{"android":"levelo://app?vid=f0d53bf8-e822-4358-b936-2eea988549c3","ios":"levelo://app?vid=f0d53bf8-e822-4358-b936-2eea988549c3"},"vehicle_type_id":"4","last_reported":1783284319,"current_range_meters":4000,"station_id":"st_d4a3vfp97mjs738cd8kg","pricing_plan_id":"cebpf4jnsgd1na2vs0mg"},{"bike_id":"7dda3cbf-d0e3-4ec4-8678-685de790b01e","system_id":"levelo_inurba_marseille","lat":43.26499,"lon":5.39551,"is_reserved":false,"is_disabled":false,"rental_uris":{"android":"levelo://app?vid=7dda3cbf-d0e3-4ec4-8678-685de790b01e","ios":"levelo://app?vid=7dda3cbf-d0e3-4ec4-8678-685de790b01e"},"vehicle_type_id":"4","last_reported":1783284319,"current_range_meters":4000,"station_id":"ce4bhi12rcd13ifvqfq0","pricing_plan_id":"cebpf4jnsgd1na2vs0mg"},{"bike_id":"e2770b29-2b53-4a1b-b237-7b8799569b06","system_id":"levelo_inurba_marseille","lat":43.29513,"lon":5.39362,"is_reserved":false,"is_disabled":true,"rental_uris":{"android":"levelo://app?vid=e2770b29-2b53-4a1b-b237-7b8799569b06","ios":"levelo://app?vid=e2770b29-2b53-4a1b-b237-7b8799569b06"},"vehicle_type_id":"4","last_reported":1783284319,"current_range_meters":4000,"station_id":"ce4bh292rcd13ifvqdf0","pricing_plan_id":"cebpf4jnsgd1na2vs0mg"},{"bike_id":"6cc9f99c-fc8e-44a0-b10a-d0f26f11a833","system_id":"levelo_inurba_marseille","lat":43.28222,"lon":5.38584,"is_reserved":false,"is_disabled":false,"rental_uris":{"android":"levelo://app?vid=6cc9f99c-fc8e-44a0-b10a-d0f26f11a833","ios":"levelo://app?vid=6cc9f99c-fc8e-44a0-b10a-d0f26f11a833"},"vehicle_type_id":"4","last_reported":1783284319,"current_range_meters":4000,"station_id":"","pricing_plan_id":"cebpf4jnsgd1na2vs0mg"},{"bike_id":"9249ee1a-143f-4c71-b1ba-2814542e46c9","system_id":"levelo_inurba_marseille","lat":43.24532,"lon":5.39538,"is_reserved":false,"is_disabled":false,"rental_uris":{"android":"levelo://app?vid=9249ee1a-143f-4c71-b1ba-2814542e46c9","ios":"levelo://app?vid=9249ee1a-143f-4c71-b1ba-2814542e46c9"},"vehicle_type_id":"4","last_reported":1783284319,"current_range_meters":4000,"station_id":"ce4bhlp2rcd13ifvqgjg","pricing_plan_id":"cebpf4jnsgd1na2vs0mg"},{"bike_id":"87598ed7-b27b-4140-aaea-c015765247bb","system_id":"levelo_inurba_marseille","lat":43.21179,"lon":5.3508,"is_reserved":false,"is_disabled":false,"rental_uris":{"android":"levelo://app?vid=87598ed7-b27b-4140-aaea-c015765247bb","ios":"levelo://app?vid=87598ed7-b27b-4140-aaea-c015765247bb"},"vehicle_type_id":"4","last_reported":1783284319,"current_range_meters":4000,"station_id":"st_cvj6sg6p6f1abm77japg","pricing_plan_id":"cebpf4jnsgd1na2vs0mg"},{"bike_id":"1c3439c1-3a9d-4e3c-87d1-7bf85587f455","system_id":"levelo_inurba_marseille","lat":43.28129,"lon":5.38264,"is_reserved":false,"is_disabled":false,"rental_uris":{"android":"levelo://app?vid=1c3439c1-3a9d-4e3c-87d1-7bf85587f455","ios":"levelo://app?vid=1c3439c1-3a9d-4e3c-87d1-7bf85587f455"},"vehicle_type_id":"4","last_reported":1783284319,"current_range_meters":4000,"station_id":"","pricing_plan_id":"cebpf4jnsgd1na2vs0mg"},{"bike_id":"0a571000-396e-4991-ba64-2d76b4c246ae","system_id":"levelo_inurba_marseille","lat":43.31354,"lon":5.40021,"is_reserved":false,"is_disabled":false,"rental_uris":{"android":"levelo://app?vid=0a571000-396e-4991-ba64-2d76b4c246ae","ios":"levelo://app?vid=0a571000-396e-4991-ba64-2d76b4c246ae"},"vehicle_type_id":"4","last_reported":1783284319,"current_range_meters":4000,"station_id":"","pricing_plan_id":"cebpf4jnsgd1na2vs0mg"},{"bike_id":"684bad58-3513-4923-be35-f647eabd7c5b","system_id":"levelo_inurba_marseille","lat":43.26209,"lon":5.37444,"is_reserved":false,"is_disabled":false,"rental_uris":{"android":"levelo://app?vid=684bad58-3513-4923-be35-f647eabd7c5b","ios":"levelo://app?vid=684bad58-3513-4923-be35-f647eabd7c5b"},"vehicle_type_id":"4","last_reported":1783284319,"current_range_meters":4000,"station_id":"ce4bhgp2rcd13ifvqfc0","pricing_plan_id":"cebpf4jnsgd1na2vs0mg"},{"bike_id":"c51c6e60-cadb-4597-83b6-5915c0bbbaa6","system_id":"levelo_inurba_marseille","lat":43.25617,"lon":5.40395,"is_reserved":false,"is_disabled":false,"rental_uris":{"android":"levelo://app?vid=c51c6e60-cadb-4597-83b6-5915c0bbbaa6","ios":"levelo://app?vid=c51c6e60-cadb-4597-83b6-5915c0bbbaa6"},"vehicle_type_id":"4","last_reported":1783284319,"current_range_meters":4000,"station_id":"","pricing_plan_id":"cebpf4jnsgd1na2vs0mg"},{"bike_id":"53d00e35-337c-47e0-8a42-436e6dd8c110","system_id":"levelo_inurba_marseille","lat":43.25374,"lon":5.38165,"is_reserved":false,"is_disabled":false,"rental_uris":{"android":"levelo://app?vid=53d00e35-337c-47e0-8a42-436e6dd8c110","ios":"levelo://app?vid=53d00e35-337c-47e0-8a42-436e6dd8c110"},"vehicle_type_id":"4","last_reported":1783284319,"current_range_meters":4000,"station_id":"","pricing_plan_id":"cebpf4jnsgd1na2vs0mg"},{"bike_id":"04909e4d-fd9a-4db5-acd1-6dd906aa9d85","system_id":"levelo_inurba_marseille","lat":43.29052,"lon":5.35901,"is_reserved":false,"is_disabled":true,"rental_uris":{"android":"levelo://app?vid=04909e4d-fd9a-4db5-acd1-6dd906aa9d85","ios":"levelo://app?vid=04909e4d-fd9a-4db5-acd1-6dd906aa9d85"},"vehicle_type_id":"4","last_reported":1783284319,"current_range_meters":4000,"station_id":"ce4bha92rcd13ifvqeg0","pricing_plan_id":"cebpf4jnsgd1na2vs0mg"},{"bike_id":"637ca6f2-621c-4ae1-adb4-7b5112bde475","system_id":"levelo_inurba_marseille","lat":43.28671,"lon":5.36368,"is_reserved":false,"is_disabled":true,"rental_uris":{"android":"levelo://app?vid=637ca6f2-621c-4ae1-adb4-7b5112bde475","ios":"levelo://app?vid=637ca6f2-621c-4ae1-adb4-7b5112bde475"},"vehicle_type_id":"4","last_reported":1783284319,"current_range_meters":4000,"station_id":"ce4bhah2rcd13ifvqej0","pricing_plan_id":"cebpf4jnsgd1na2vs0mg"},{"bike_id":"7fcca41e-2146-47b2-bf38-372ba8763a88","system_id":"levelo_inurba_marseille","lat":43.27999,"lon":5.41674,"is_reserved":false,"is_disabled":false,"rental_uris":{"android":"levelo://app?vid=7fcca41e-2146-47b2-bf38-372ba8763a88","ios":"levelo://app?vid=7fcca41e-2146-47b2-bf38-372ba8763a88"},"vehicle_type_id":"4","last_reported":1783284319,"current_range_meters":4000,"station_id":"ce4bho12rcd13ifvqh1g","pricing_plan_id":"cebpf4jnsgd1na2vs0mg"},{"bike_id":"2ddb35af-49dc-475a-a17f-ff979225c400","system_id":"levelo_inurba_marseille","lat":43.28669,"lon":5.38656,"is_reserved":false,"is_disabled":false,"rental_uris":{"android":"levelo://app?vid=2ddb35af-49dc-475a-a17f-ff979225c400","ios":"levelo://app?vid=2ddb35af-49dc-475a-a17f-ff979225c400"},"vehicle_type_id":"4","last_reported":1783284319,"current_range_meters":4000,"station_id":"ce4bh492rcd13ifvqdug","pricing_plan_id":"cebpf4jnsgd1na2vs0mg"},{"bike_id":"77ba167a-7190-45fa-a650-f9267544f7cb","system_id":"levelo_inurba_marseille","lat":43.25409,"lon":5.37975,"is_reserved":false,"is_disabled":false,"rental_uris":{"android":"levelo://app?vid=77ba167a-7190-45fa-a650-f9267544f7cb","ios":"levelo://app?vid=77ba167a-7190-45fa-a650-f9267544f7cb"},"vehicle_type_id":"4","last_reported":1783284319,"current_range_meters":4000,"station_id":"","pricing_plan_id":"cebpf4jnsgd1na2vs0mg"},{"bike_id":"9efeb665-6ac9-4e70-ba70-20bf3b204b4c","system_id":"levelo_inurba_marseille","lat":43.299059,"lon":5.381578,"is_reserved":false,"is_disabled":false,"rental_uris":{"android":"levelo://app?vid=9efeb665-6ac9-4e70-ba70-20bf3b204b4c","ios":"levelo://app?vid=9efeb665-6ac9-4e70-ba70-20bf3b204b4c"},"vehicle_type_id":"4","last_reported":1783284319,"current_range_meters":4000,"station_id":"ce4bgip2rcd13ifvqbb0","pricing_plan_id":"cebpf4jnsgd1na2vs0mg"},{"bike_id":"e4ee63c7-9eff-4911-8f46-91d4a1859e49","system_id":"levelo_inurba_marseille","lat":43.21189,"lon":5.3508,"is_reserved":false,"is_disabled":false,"rental_uris":{"android":"levelo://app?vid=e4ee63c7-9eff-4911-8f46-91d4a1859e49","ios":"levelo://app?vid=e4ee63c7-9eff-4911-8f46-91d4a1859e49"},"vehicle_type_id":"4","last_reported":1783284319,"current_range_meters":4000,"station_id":"st_cvj6sg6p6f1abm77japg","pricing_plan_id":"cebpf4jnsgd1na2vs0mg"},{"bike_id":"d200f515-50b6-4f4f-b519-76aaad08078a","system_id":"levelo_inurba_marseille","lat":43.31686,"lon":5.40476,"is_reserved":false,"is_disabled":false,"rental_uris":{"android":"levelo://app?vid=d200f515-50b6-4f4f-b519-76aaad08078a","ios":"levelo://app?vid=d200f515-50b6-4f4f-b519-76aaad08078a"},"vehicle_type_id":"4","last_reported":1783284319,"current_range_meters":4400,"station_id":"ce4bh012rcd13ifvqd00","pricing_plan_id":"cebpf4jnsgd1na2vs0mg"},{"bike_id":"5eb76434-6fe7-4cbd-83b2-b8bc4f162794","system_id":"levelo_inurba_marseille","lat":43.29262,"lon":5.38441,"is_reserved":false,"is_disabled":false,"rental_uris":{"android":"levelo://app?vid=5eb76434-6fe7-4cbd-83b2-b8bc4f162794","ios":"levelo://app?vid=5eb76434-6fe7-4cbd-83b2-b8bc4f162794"},"vehicle_type_id":"4","last_reported":1783284319,"current_range_meters":4400,"station_id":"ce4bh692rcd13ifvqea0","pricing_plan_id":"cebpf4jnsgd1na2vs0mg"},{"bike_id":"e6c53653-ae43-4c8a-ad74-360939e7fcaa","system_id":"levelo_inurba_marseille","lat":43.3073,"lon":5.42442,"is_reserved":false,"is_disabled":false,"rental_uris":{"android":"levelo://app?vid=e6c53653-ae43-4c8a-ad74-360939e7fcaa","ios":"levelo://app?vid=e6c53653-ae43-4c8a-ad74-360939e7fcaa"},"vehicle_type_id":"4","last_reported":1783284319,"current_range_meters":4400,"station_id":"st_cvj6ca6bvosntc0bfgr0","pricing_plan_id":"cebpf4jnsgd1na2vs0mg"},{"bike_id":"ac90cd3a-59eb-4559-8e9b-aabd998c1b53","system_id":"levelo_inurba_marseille","lat":43.29569,"lon":5.39969,"is_reserved":false,"is_disabled":false,"rental_uris":{"android":"levelo://app?vid=ac90cd3a-59eb-4559-8e9b-aabd998c1b53","ios":"levelo://app?vid=ac90cd3a-59eb-4559-8e9b-aabd998c1b53"},"vehicle_type_id":"4","last_reported":1783284319,"current_range_meters":4400,"station_id":"ce4bh312rcd13ifvqdj0","pricing_plan_id":"cebpf4jnsgd1na2vs0mg"},{"bike_id":"0280cae0-08d7-4f06-a94a-abe8e009ab51","system_id":"levelo_inurba_marseille","lat":43.24873,"lon":5.39409,"is_reserved":false,"is_disabled":false,"rental_uris":{"android":"levelo://app?vid=0280cae0-08d7-4f06-a94a-abe8e009ab51","ios":"levelo://app?vid=0280cae0-08d7-4f06-a94a-abe8e009ab51"},"vehicle_type_id":"4","last_reported":1783284319,"current_range_meters":4400,"station_id":"","pricing_plan_id":"cebpf4jnsgd1na2vs0mg"},{"bike_id":"dd227e21-4b22-4f2e-acd4-7eb10f8e0eb9","system_id":"levelo_inurba_marseille","lat":43.30949,"lon":5.39047,"is_reserved":false,"is_disabled":false,"rental_uris":{"android":"levelo://app?vid=dd227e21-4b22-4f2e-acd4-7eb10f8e0eb9","ios":"levelo://app?vid=dd227e21-4b22-4f2e-acd4-7eb10f8e0eb9"},"vehicle_type_id":"4","last_reported":1783284319,"current_range_meters":4400,"station_id":"ce4bgup2rcd13ifvqco0","pricing_plan_id":"cebpf4jnsgd1na2vs0mg"},{"bike_id":"a8a3d26b-f9a3-4e70-83ec-3900177cd4f4","system_id":"levelo_inurba_marseille","lat":43.28384,"lon":5.37472,"is_reserved":false,"is_disabled":false,"rental_uris":{"android":"levelo://app?vid=a8a3d26b-f9a3-4e70-83ec-3900177cd4f4","ios":"levelo://app?vid=a8a3d26b-f9a3-4e70-83ec-3900177cd4f4"},"vehicle_type_id":"4","last_reported":1783284319,"current_range_meters":4400,"station_id":"ce4bh412rcd13ifvqds0","pricing_plan_id":"cebpf4jnsgd1na2vs0mg"},{"bike_id":"d455396b-25c8-4bf4-aa48-4df15ad83f7e","system_id":"levelo_inurba_marseille","lat":43.33879,"lon":5.34818,"is_reserved":false,"is_disabled":false,"rental_uris":{"android":"levelo://app?vid=d455396b-25c8-4bf4-aa48-4df15ad83f7e","ios":"levelo://app?vid=d455396b-25c8-4bf4-aa48-4df15ad83f7e"},"vehicle_type_id":"4","last_reported":1783284319,"current_range_meters":4400,"station_id":"","pricing_plan_id":"cebpf4jnsgd1na2vs0mg"},{"bike_id":"90956858-67b4-4bbd-82de-736588e9511e","system_id":"levelo_inurba_marseille","lat":43.22547,"lon":5.41628,"is_reserved":false,"is_disabled":false,"rental_uris":{"android":"levelo://app?vid=90956858-67b4-4bbd-82de-736588e9511e","ios":"levelo://app?vid=90956858-67b4-4bbd-82de-736588e9511e"},"vehicle_type_id":"4","last_reported":1783284319,"current_range_meters":4800,"station_id":"st_d2o4gvlbi1j2169b742g","pricing_plan_id":"cebpf4jnsgd1na2vs0mg"},{"bike_id":"8bd1e012-8f8b-41a4-9b52-8d92f02be20b","system_id":"levelo_inurba_marseille","lat":43.29029,"lon":5.37573,"is_reserved":false,"is_disabled":false,"rental_uris":{"android":"levelo://app?vid=8bd1e012-8f8b-41a4-9b52-8d92f02be20b","ios":"levelo://app?vid=8bd1e012-8f8b-41a4-9b52-8d92f02be20b"},"vehicle_type_id":"4","last_reported":1783284319,"current_range_meters":4800,"station_id":"ce4bh692rcd13ifvqe90","pricing_plan_id":"cebpf4jnsgd1na2vs0mg"},{"bike_id":"2757eadf-9743-4d8d-9aab-ea5ea28d1008","system_id":"levelo_inurba_marseille","lat":43.29298,"lon":5.37448,"is_reserved":false,"is_disabled":false,"rental_uris":{"android":"levelo://app?vid=2757eadf-9743-4d8d-9aab-ea5ea28d1008","ios":"levelo://app?vid=2757eadf-9743-4d8d-9aab-ea5ea28d1008"},"vehicle_type_id":"4","last_reported":1783284319,"current_range_meters":4800,"station_id":"ce4bgi12rcd13ifvqb70","pricing_plan_id":"cebpf4jnsgd1na2vs0mg"},{"bike_id":"d832a3d0-79c6-4ba7-ac9f-b53b8986b84b","system_id":"levelo_inurba_marseille","lat":43.293733,"lon":5.378506,"is_reserved":false,"is_disabled":false,"rental_uris":{"android":"levelo://app?vid=d832a3d0-79c6-4ba7-ac9f-b53b8986b84b","ios":"levelo://app?vid=d832a3d0-79c6-4ba7-ac9f-b53b8986b84b"},"vehicle_type_id":"4","last_reported":1783284319,"current_range_meters":4800,"station_id":"ce4bhch2rcd13ifvqeug","pricing_plan_id":"cebpf4jnsgd1na2vs0mg"},{"bike_id":"617b8d27-faac-4a7b-b31f-c8d5d7522f8c","system_id":"levelo_inurba_marseille","lat":43.28144,"lon":5.42654,"is_reserved":false,"is_disabled":false,"rental_uris":{"android":"levelo://app?vid=617b8d27-faac-4a7b-b31f-c8d5d7522f8c","ios":"levelo://app?vid=617b8d27-faac-4a7b-b31f-c8d5d7522f8c"},"vehicle_type_id":"4","last_reported":1783284319,"current_range_meters":4800,"station_id":"ce4bhnh2rcd13ifvqgug","pricing_plan_id":"cebpf4jnsgd1na2vs0mg"},{"bike_id":"1d153fd0-0980-45c1-b5ab-ceecbda2c5d3","system_id":"levelo_inurba_marseille","lat":43.29293,"lon":5.37471,"is_reserved":false,"is_disabled":false,"rental_uris":{"android":"levelo://app?vid=1d153fd0-0980-45c1-b5ab-ceecbda2c5d3","ios":"levelo://app?vid=1d153fd0-0980-45c1-b5ab-ceecbda2c5d3"},"vehicle_type_id":"4","last_reported":1783284319,"current_range_meters":4800,"station_id":"ce4bgi12rcd13ifvqb70","pricing_plan_id":"cebpf4jnsgd1na2vs0mg"},{"bike_id":"d402330b-f653-41af-92e0-aa1e6b7a3fca","system_id":"levelo_inurba_marseille","lat":43.24659,"lon":5.38167,"is_reserved":false,"is_disabled":false,"rental_uris":{"android":"levelo://app?vid=d402330b-f653-41af-92e0-aa1e6b7a3fca","ios":"levelo://app?vid=d402330b-f653-41af-92e0-aa1e6b7a3fca"},"vehicle_type_id":"4","last_reported":1783284319,"current_range_meters":4800,"station_id":"ce4bhih2rcd13ifvqfr0","pricing_plan_id":"cebpf4jnsgd1na2vs0mg"},{"bike_id":"9972642f-35aa-4c20-918a-dcbc07e9e004","system_id":"levelo_inurba_marseille","lat":43.29584,"lon":5.36752,"is_reserved":false,"is_disabled":true,"rental_uris":{"android":"levelo://app?vid=9972642f-35aa-4c20-918a-dcbc07e9e004","ios":"levelo://app?vid=9972642f-35aa-4c20-918a-dcbc07e9e004"},"vehicle_type_id":"4","last_reported":1783284319,"current_range_meters":4800,"station_id":"ce4bgph2rcd13ifvqc2g","pricing_plan_id":"cebpf4jnsgd1na2vs0mg"},{"bike_id":"549298f2-4191-4dcc-9b69-379596376fb4","system_id":"levelo_inurba_marseille","lat":43.30458,"lon":5.38891,"is_reserved":false,"is_disabled":false,"rental_uris":{"android":"levelo://app?vid=549298f2-4191-4dcc-9b69-379596376fb4","ios":"levelo://app?vid=549298f2-4191-4dcc-9b69-379596376fb4"},"vehicle_type_id":"4","last_reported":1783284319,"current_range_meters":4800,"station_id":"ce4bgk12rcd13ifvqbi0","pricing_plan_id":"cebpf4jnsgd1na2vs0mg"},{"bike_id":"b7f4c282-071d-4d10-b1c7-958890299727","system_id":"levelo_inurba_marseille","lat":43.2867,"lon":5.38679,"is_reserved":false,"is_disabled":false,"rental_uris":{"android":"levelo://app?vid=b7f4c282-071d-4d10-b1c7-958890299727","ios":"levelo://app?vid=b7f4c282-071d-4d10-b1c7-958890299727"},"vehicle_type_id":"4","last_reported":1783284319,"current_range_meters":4800,"station_id":"ce4bh492rcd13ifvqdug","pricing_plan_id":"cebpf4jnsgd1na2vs0mg"},{"bike_id":"3ed5d0af-c230-47ed-8422-1990c770b74f","system_id":"levelo_inurba_marseille","lat":43.28467,"lon":5.3842,"is_reserved":false,"is_disabled":false,"rental_uris":{"android":"levelo://app?vid=3ed5d0af-c230-47ed-8422-1990c770b74f","ios":"levelo://app?vid=3ed5d0af-c230-47ed-8422-1990c770b74f"},"vehicle_type_id":"4","last_reported":1783284319,"current_range_meters":4800,"station_id":"ce4bh512rcd13ifvqe3g","pricing_plan_id":"cebpf4jnsgd1na2vs0mg"},{"bike_id":"d81e281b-3a1c-468d-9ea9-706788ac1d3b","system_id":"levelo_inurba_marseille","lat":43.307541,"lon":5.381984,"is_reserved":false,"is_disabled":false,"rental_uris":{"android":"levelo://app?vid=d81e281b-3a1c-468d-9ea9-706788ac1d3b","ios":"levelo://app?vid=d81e281b-3a1c-468d-9ea9-706788ac1d3b"},"vehicle_type_id":"4","last_reported":1783284319,"current_range_meters":4800,"station_id":"ce4bgt92rcd13ifvqcf0","pricing_plan_id":"cebpf4jnsgd1na2vs0mg"},{"bike_id":"b05435d7-239a-4483-a6ee-c9652e2b1846","system_id":"levelo_inurba_marseille","lat":43.29533,"lon":5.38546,"is_reserved":false,"is_disabled":false,"rental_uris":{"android":"levelo://app?vid=b05435d7-239a-4483-a6ee-c9652e2b1846","ios":"levelo://app?vid=b05435d7-239a-4483-a6ee-c9652e2b1846"},"vehicle_type_id":"4","last_reported":1783284319,"current_range_meters":4800,"station_id":"ce4bgih2rcd13ifvqba0","pricing_plan_id":"cebpf4jnsgd1na2vs0mg"},{"bike_id":"128c98b0-5c8a-4043-be90-d5616b94b24d","system_id":"levelo_inurba_marseille","lat":43.26691,"lon":5.38279,"is_reserved":false,"is_disabled":false,"rental_uris":{"android":"levelo://app?vid=128c98b0-5c8a-4043-be90-d5616b94b24d","ios":"levelo://app?vid=128c98b0-5c8a-4043-be90-d5616b94b24d"},"vehicle_type_id":"4","last_reported":1783284319,"current_range_meters":4800,"station_id":"ce4bhg92rcd13ifvqf90","pricing_plan_id":"cebpf4jnsgd1na2vs0mg"},{"bike_id":"d4902f7b-dfb4-4a85-9f69-8cb9ccdacb28","system_id":"levelo_inurba_marseille","lat":43.30956,"lon":5.3903,"is_reserved":false,"is_disabled":false,"rental_uris":{"android":"levelo://app?vid=d4902f7b-dfb4-4a85-9f69-8cb9ccdacb28","ios":"levelo://app?vid=d4902f7b-dfb4-4a85-9f69-8cb9ccdacb28"},"vehicle_type_id":"4","last_reported":1783284319,"current_range_meters":4800,"station_id":"ce4bgup2rcd13ifvqco0","pricing_plan_id":"cebpf4jnsgd1na2vs0mg"},{"bike_id":"d7114047-9c99-4531-8436-c41770c509c2","system_id":"levelo_inurba_marseille","lat":43.2742,"lon":5.42441,"is_reserved":false,"is_disabled":false,"rental_uris":{"android":"levelo://app?vid=d7114047-9c99-4531-8436-c41770c509c2","ios":"levelo://app?vid=d7114047-9c99-4531-8436-c41770c509c2"},"vehicle_type_id":"4","last_reported":1783284319,"current_range_meters":4800,"station_id":"","pricing_plan_id":"cebpf4jnsgd1na2vs0mg"},{"bike_id":"8e3a9a75-747f-49f0-90ea-8a5e53c2a7ca","system_id":"levelo_inurba_marseille","lat":43.29581,"lon":5.39982,"is_reserved":false,"is_disabled":false,"rental_uris":{"android":"levelo://app?vid=8e3a9a75-747f-49f0-90ea-8a5e53c2a7ca","ios":"levelo://app?vid=8e3a9a75-747f-49f0-90ea-8a5e53c2a7ca"},"vehicle_type_id":"4","last_reported":1783284319,"current_range_meters":4800,"station_id":"ce4bh312rcd13ifvqdj0","pricing_plan_id":"cebpf4jnsgd1na2vs0mg"},{"bike_id":"874cdbf5-f73a-4bf6-9706-9772d5804d11","system_id":"levelo_inurba_marseille","lat":43.33547,"lon":5.37476,"is_reserved":false,"is_disabled":false,"rental_uris":{"android":"levelo://app?vid=874cdbf5-f73a-4bf6-9706-9772d5804d11","ios":"levelo://app?vid=874cdbf5-f73a-4bf6-9706-9772d5804d11"},"vehicle_type_id":"4","last_reported":1783284319,"current_range_meters":5600,"station_id":"st_d46tts09ee8s73dlu43g","pricing_plan_id":"cebpf4jnsgd1na2vs0mg"},{"bike_id":"097703ec-cc97-424c-9bee-1ad2d40222d4","system_id":"levelo_inurba_marseille","lat":43.24808,"lon":5.37454,"is_reserved":false,"is_disabled":false,"rental_uris":{"android":"levelo://app?vid=097703ec-cc97-424c-9bee-1ad2d40222d4","ios":"levelo://app?vid=097703ec-cc97-424c-9bee-1ad2d40222d4"},"vehicle_type_id":"4","last_reported":1783284319,"current_range_meters":5600,"station_id":"ce4bhgh2rcd13ifvqfb0","pricing_plan_id":"cebpf4jnsgd1na2vs0mg"},{"bike_id":"98d9ab63-952f-49d0-8775-50ac81ca5fd7","system_id":"levelo_inurba_marseille","lat":43.30924,"lon":5.37497,"is_reserved":false,"is_disabled":false,"rental_uris":{"android":"levelo://app?vid=98d9ab63-952f-49d0-8775-50ac81ca5fd7","ios":"levelo://app?vid=98d9ab63-952f-49d0-8775-50ac81ca5fd7"},"vehicle_type_id":"4","last_reported":1783284319,"current_range_meters":5600,"station_id":"","pricing_plan_id":"cebpf4jnsgd1na2vs0mg"},{"bike_id":"6b4bd43f-9d60-40f8-96cc-0292b478f552","system_id":"levelo_inurba_marseille","lat":43.28779,"lon":5.4662,"is_reserved":false,"is_disabled":false,"rental_uris":{"android":"levelo://app?vid=6b4bd43f-9d60-40f8-96cc-0292b478f552","ios":"levelo://app?vid=6b4bd43f-9d60-40f8-96cc-0292b478f552"},"vehicle_type_id":"4","last_reported":1783284319,"current_range_meters":5600,"station_id":"","pricing_plan_id":"cebpf4jnsgd1na2vs0mg"},{"bike_id":"e8c36f44-e967-42dc-83fc-1418600e4dea","system_id":"levelo_inurba_marseille","lat":43.302907,"lon":5.377195,"is_reserved":false,"is_disabled":false,"rental_uris":{"android":"levelo://app?vid=e8c36f44-e967-42dc-83fc-1418600e4dea","ios":"levelo://app?vid=e8c36f44-e967-42dc-83fc-1418600e4dea"},"vehicle_type_id":"4","last_reported":1783284319,"current_range_meters":5600,"station_id":"ce4bgqh2rcd13ifvqc5g","pricing_plan_id":"cebpf4jnsgd1na2vs0mg"},{"bike_id":"154ea9c7-a22d-408d-9f47-f19863086613","system_id":"levelo_inurba_marseille","lat":43.24809,"lon":5.37458,"is_reserved":false,"is_disabled":false,"rental_uris":{"android":"levelo://app?vid=154ea9c7-a22d-408d-9f47-f19863086613","ios":"levelo://app?vid=154ea9c7-a22d-408d-9f47-f19863086613"},"vehicle_type_id":"4","last_reported":1783284319,"current_range_meters":5600,"station_id":"ce4bhgh2rcd13ifvqfb0","pricing_plan_id":"cebpf4jnsgd1na2vs0mg"},{"bike_id":"1bc69c0e-0bef-4dd0-9c32-f25cac91de35","system_id":"levelo_inurba_marseille","lat":43.2687,"lon":5.36968,"is_reserved":false,"is_disabled":false,"rental_uris":{"android":"levelo://app?vid=1bc69c0e-0bef-4dd0-9c32-f25cac91de35","ios":"levelo://app?vid=1bc69c0e-0bef-4dd0-9c32-f25cac91de35"},"vehicle_type_id":"4","last_reported":1783284319,"current_range_meters":5600,"station_id":"","pricing_plan_id":"cebpf4jnsgd1na2vs0mg"},{"bike_id":"1663c6f3-0914-46b7-9315-98c697c13984","system_id":"levelo_inurba_marseille","lat":43.2707,"lon":5.4228,"is_reserved":false,"is_disabled":false,"rental_uris":{"android":"levelo://app?vid=1663c6f3-0914-46b7-9315-98c697c13984","ios":"levelo://app?vid=1663c6f3-0914-46b7-9315-98c697c13984"},"vehicle_type_id":"4","last_reported":1783284319,"current_range_meters":5600,"station_id":"ce4bhk92rcd13ifvqgb0","pricing_plan_id":"cebpf4jnsgd1na2vs0mg"},{"bike_id":"fd573118-9546-41ec-91ff-7a76c335b44e","system_id":"levelo_inurba_marseille","lat":43.278128,"lon":5.407081,"is_reserved":false,"is_disabled":false,"rental_uris":{"android":"levelo://app?vid=fd573118-9546-41ec-91ff-7a76c335b44e","ios":"levelo://app?vid=fd573118-9546-41ec-91ff-7a76c335b44e"},"vehicle_type_id":"4","last_reported":1783284319,"current_range_meters":5600,"station_id":"ce4bhnh2rcd13ifvqgtg","pricing_plan_id":"cebpf4jnsgd1na2vs0mg"},{"bike_id":"defe664f-116a-400b-aa68-5aba6647b941","system_id":"levelo_inurba_marseille","lat":43.29289,"lon":5.44557,"is_reserved":false,"is_disabled":false,"rental_uris":{"android":"levelo://app?vid=defe664f-116a-400b-aa68-5aba6647b941","ios":"levelo://app?vid=defe664f-116a-400b-aa68-5aba6647b941"},"vehicle_type_id":"4","last_reported":1783284319,"current_range_meters":5600,"station_id":"","pricing_plan_id":"cebpf4jnsgd1na2vs0mg"},{"bike_id":"2a8f592d-3ebd-4853-bf23-1a2cca68a093","system_id":"levelo_inurba_marseille","lat":43.27061,"lon":5.38518,"is_reserved":false,"is_disabled":false,"rental_uris":{"android":"levelo://app?vid=2a8f592d-3ebd-4853-bf23-1a2cca68a093","ios":"levelo://app?vid=2a8f592d-3ebd-4853-bf23-1a2cca68a093"},"vehicle_type_id":"4","last_reported":1783284319,"current_range_meters":5600,"station_id":"","pricing_plan_id":"cebpf4jnsgd1na2vs0mg"},{"bike_id":"74c027a4-4b67-40ff-a2fc-35f79d498796","system_id":"levelo_inurba_marseille","lat":43.29193,"lon":5.36035,"is_reserved":false,"is_disabled":true,"rental_uris":{"android":"levelo://app?vid=74c027a4-4b67-40ff-a2fc-35f79d498796","ios":"levelo://app?vid=74c027a4-4b67-40ff-a2fc-35f79d498796"},"vehicle_type_id":"4","last_reported":1783284319,"current_range_meters":5600,"station_id":"","pricing_plan_id":"cebpf4jnsgd1na2vs0mg"},{"bike_id":"a12a4f83-c050-4064-a9cd-bf7775a31f2f","system_id":"levelo_inurba_marseille","lat":43.24644,"lon":5.38197,"is_reserved":false,"is_disabled":true,"rental_uris":{"android":"levelo://app?vid=a12a4f83-c050-4064-a9cd-bf7775a31f2f","ios":"levelo://app?vid=a12a4f83-c050-4064-a9cd-bf7775a31f2f"},"vehicle_type_id":"4","last_reported":1783284319,"current_range_meters":5600,"station_id":"ce4bhih2rcd13ifvqfr0","pricing_plan_id":"cebpf4jnsgd1na2vs0mg"},{"bike_id":"5ee57ff4-da1e-4bad-a8bb-6d734b2e21b5","system_id":"levelo_inurba_marseille","lat":43.29789,"lon":5.39365,"is_reserved":false,"is_disabled":false,"rental_uris":{"android":"levelo://app?vid=5ee57ff4-da1e-4bad-a8bb-6d734b2e21b5","ios":"levelo://app?vid=5ee57ff4-da1e-4bad-a8bb-6d734b2e21b5"},"vehicle_type_id":"4","last_reported":1783284319,"current_range_meters":5600,"station_id":"chh1huq6cuj3fo74tm60","pricing_plan_id":"cebpf4jnsgd1na2vs0mg"},{"bike_id":"e0925c07-5a63-428e-9783-0ea879734af2","system_id":"levelo_inurba_marseille","lat":43.29573,"lon":5.39973,"is_reserved":false,"is_disabled":false,"rental_uris":{"android":"levelo://app?vid=e0925c07-5a63-428e-9783-0ea879734af2","ios":"levelo://app?vid=e0925c07-5a63-428e-9783-0ea879734af2"},"vehicle_type_id":"4","last_reported":1783284319,"current_range_meters":5600,"station_id":"ce4bh312rcd13ifvqdj0","pricing_plan_id":"cebpf4jnsgd1na2vs0mg"},{"bike_id":"d230c7da-04b9-477c-ac31-d2650e0427fd","system_id":"levelo_inurba_marseille","lat":43.31121,"lon":5.37796,"is_reserved":false,"is_disabled":true,"rental_uris":{"android":"levelo://app?vid=d230c7da-04b9-477c-ac31-d2650e0427fd","ios":"levelo://app?vid=d230c7da-04b9-477c-ac31-d2650e0427fd"},"vehicle_type_id":"4","last_reported":1783284319,"current_range_meters":5600,"station_id":"ce4bgt92rcd13ifvqcg0","pricing_plan_id":"cebpf4jnsgd1na2vs0mg"},{"bike_id":"ace6a5a2-f206-49e9-afea-4095458b9853","system_id":"levelo_inurba_marseille","lat":43.24999,"lon":5.38923,"is_reserved":false,"is_disabled":false,"rental_uris":{"android":"levelo://app?vid=ace6a5a2-f206-49e9-afea-4095458b9853","ios":"levelo://app?vid=ace6a5a2-f206-49e9-afea-4095458b9853"},"vehicle_type_id":"4","last_reported":1783284319,"current_range_meters":5600,"station_id":"ce4bhgp2rcd13ifvqfd0","pricing_plan_id":"cebpf4jnsgd1na2vs0mg"},{"bike_id":"1ef77d10-3808-4032-a625-bdc5532d78f3","system_id":"levelo_inurba_marseille","lat":43.28988,"lon":5.37848,"is_reserved":false,"is_disabled":true,"rental_uris":{"android":"levelo://app?vid=1ef77d10-3808-4032-a625-bdc5532d78f3","ios":"levelo://app?vid=1ef77d10-3808-4032-a625-bdc5532d78f3"},"vehicle_type_id":"4","last_reported":1783284319,"current_range_meters":5600,"station_id":"ce4bh9p2rcd13ifvqed0","pricing_plan_id":"cebpf4jnsgd1na2vs0mg"},{"bike_id":"be97f77b-683a-44ce-8240-f5ff6433cfe3","system_id":"levelo_inurba_marseille","lat":43.23201,"lon":5.35556,"is_reserved":false,"is_disabled":true,"rental_uris":{"android":"levelo://app?vid=be97f77b-683a-44ce-8240-f5ff6433cfe3","ios":"levelo://app?vid=be97f77b-683a-44ce-8240-f5ff6433cfe3"},"vehicle_type_id":"4","last_reported":1783284319,"current_range_meters":5600,"station_id":"ce4bhu92rcd13ifvqi70","pricing_plan_id":"cebpf4jnsgd1na2vs0mg"},{"bike_id":"eb5a7b30-7c02-4a0c-afaf-afd9ceadd3c7","system_id":"levelo_inurba_marseille","lat":43.26569,"lon":5.3901,"is_reserved":false,"is_disabled":false,"rental_uris":{"android":"levelo://app?vid=eb5a7b30-7c02-4a0c-afaf-afd9ceadd3c7","ios":"levelo://app?vid=eb5a7b30-7c02-4a0c-afaf-afd9ceadd3c7"},"vehicle_type_id":"4","last_reported":1783284319,"current_range_meters":5600,"station_id":"ce4bhe12rcd13ifvqf30","pricing_plan_id":"cebpf4jnsgd1na2vs0mg"},{"bike_id":"7f12e5a2-955f-42a0-87a4-54480f18e191","system_id":"levelo_inurba_marseille","lat":43.289465,"lon":5.363946,"is_reserved":false,"is_disabled":false,"rental_uris":{"android":"levelo://app?vid=7f12e5a2-955f-42a0-87a4-54480f18e191","ios":"levelo://app?vid=7f12e5a2-955f-42a0-87a4-54480f18e191"},"vehicle_type_id":"4","last_reported":1783284319,"current_range_meters":5600,"station_id":"","pricing_plan_id":"cebpf4jnsgd1na2vs0mg"},{"bike_id":"71efeedb-07df-4f64-89a8-1025cc5c90b9","system_id":"levelo_inurba_marseille","lat":43.29528,"lon":5.39051,"is_reserved":false,"is_disabled":false,"rental_uris":{"android":"levelo://app?vid=71efeedb-07df-4f64-89a8-1025cc5c90b9","ios":"levelo://app?vid=71efeedb-07df-4f64-89a8-1025cc5c90b9"},"vehicle_type_id":"4","last_reported":1783284319,"current_range_meters":6000,"station_id":"ce4bh3p2rcd13ifvqdp0","pricing_plan_id":"cebpf4jnsgd1na2vs0mg"},{"bike_id":"2fa22b1d-12bf-4888-8ff4-67a11349c948","system_id":"levelo_inurba_marseille","lat":43.21196,"lon":5.35061,"is_reserved":false,"is_disabled":false,"rental_uris":{"android":"levelo://app?vid=2fa22b1d-12bf-4888-8ff4-67a11349c948","ios":"levelo://app?vid=2fa22b1d-12bf-4888-8ff4-67a11349c948"},"vehicle_type_id":"4","last_reported":1783284319,"current_range_meters":6000,"station_id":"st_cvj6sg6p6f1abm77japg","pricing_plan_id":"cebpf4jnsgd1na2vs0mg"},{"bike_id":"5cf8ff3f-002e-4490-b36d-5909b772d854","system_id":"levelo_inurba_marseille","lat":43.22532,"lon":5.34838,"is_reserved":false,"is_disabled":true,"rental_uris":{"android":"levelo://app?vid=5cf8ff3f-002e-4490-b36d-5909b772d854","ios":"levelo://app?vid=5cf8ff3f-002e-4490-b36d-5909b772d854"},"vehicle_type_id":"4","last_reported":1783284319,"current_range_meters":6000,"station_id":"st_cvj5dfep6f1abm77gieg","pricing_plan_id":"cebpf4jnsgd1na2vs0mg"},{"bike_id":"c80877b7-ed0d-486a-bea1-fc157eb3d954","system_id":"levelo_inurba_marseille","lat":43.30932,"lon":5.3908,"is_reserved":false,"is_disabled":false,"rental_uris":{"android":"levelo://app?vid=c80877b7-ed0d-486a-bea1-fc157eb3d954","ios":"levelo://app?vid=c80877b7-ed0d-486a-bea1-fc157eb3d954"},"vehicle_type_id":"4","last_reported":1783284319,"current_range_meters":6000,"station_id":"","pricing_plan_id":"cebpf4jnsgd1na2vs0mg"},{"bike_id":"c7e898ff-a419-4a29-a96b-4781f4ad848d","system_id":"levelo_inurba_marseille","lat":43.26548,"lon":5.40318,"is_reserved":false,"is_disabled":false,"rental_uris":{"android":"levelo://app?vid=c7e898ff-a419-4a29-a96b-4781f4ad848d","ios":"levelo://app?vid=c7e898ff-a419-4a29-a96b-4781f4ad848d"},"vehicle_type_id":"4","last_reported":1783284319,"current_range_meters":6000,"station_id":"ce4bhmp2rcd13ifvqgng","pricing_plan_id":"cebpf4jnsgd1na2vs0mg"},{"bike_id":"6988656b-b9bf-42fd-86c6-85441f215ca5","system_id":"levelo_inurba_marseille","lat":43.21188,"lon":5.35068,"is_reserved":false,"is_disabled":false,"rental_uris":{"android":"levelo://app?vid=6988656b-b9bf-42fd-86c6-85441f215ca5","ios":"levelo://app?vid=6988656b-b9bf-42fd-86c6-85441f215ca5"},"vehicle_type_id":"4","last_reported":1783284319,"current_range_meters":6000,"station_id":"st_cvj6sg6p6f1abm77japg","pricing_plan_id":"cebpf4jnsgd1na2vs0mg"},{"bike_id":"73c8701a-5534-4d6e-b634-9acc1e8fe67a","system_id":"levelo_inurba_marseille","lat":43.27483,"lon":5.42445,"is_reserved":false,"is_disabled":false,"rental_uris":{"android":"levelo://app?vid=73c8701a-5534-4d6e-b634-9acc1e8fe67a","ios":"levelo://app?vid=73c8701a-5534-4d6e-b634-9acc1e8fe67a"},"vehicle_type_id":"4","last_reported":1783284319,"current_range_meters":6000,"station_id":"ce4bhn92rcd13ifvqgrg","pricing_plan_id":"cebpf4jnsgd1na2vs0mg"},{"bike_id":"8fec6c78-b460-42d7-b78b-be9ed7c2fffd","system_id":"levelo_inurba_marseille","lat":43.28155,"lon":5.42642,"is_reserved":false,"is_disabled":false,"rental_uris":{"android":"levelo://app?vid=8fec6c78-b460-42d7-b78b-be9ed7c2fffd","ios":"levelo://app?vid=8fec6c78-b460-42d7-b78b-be9ed7c2fffd"},"vehicle_type_id":"4","last_reported":1783284319,"current_range_meters":6000,"station_id":"ce4bhnh2rcd13ifvqgug","pricing_plan_id":"cebpf4jnsgd1na2vs0mg"},{"bike_id":"ced74b9f-b178-40c4-b05a-f65c4f2b3f5d","system_id":"levelo_inurba_marseille","lat":43.27949,"lon":5.41052,"is_reserved":false,"is_disabled":true,"rental_uris":{"android":"levelo://app?vid=ced74b9f-b178-40c4-b05a-f65c4f2b3f5d","ios":"levelo://app?vid=ced74b9f-b178-40c4-b05a-f65c4f2b3f5d"},"vehicle_type_id":"4","last_reported":1783284319,"current_range_meters":6000,"station_id":"ce4bhnp2rcd13ifvqh0g","pricing_plan_id":"cebpf4jnsgd1na2vs0mg"},{"bike_id":"340ba085-7f04-4d51-8eda-6216a0914d5e","system_id":"levelo_inurba_marseille","lat":43.29635,"lon":5.38697,"is_reserved":false,"is_disabled":false,"rental_uris":{"android":"levelo://app?vid=340ba085-7f04-4d51-8eda-6216a0914d5e","ios":"levelo://app?vid=340ba085-7f04-4d51-8eda-6216a0914d5e"},"vehicle_type_id":"4","last_reported":1783284319,"current_range_meters":6000,"station_id":"","pricing_plan_id":"cebpf4jnsgd1na2vs0mg"},{"bike_id":"8220ecc2-6bf9-4e7d-8a35-6858c0daf5f4","system_id":"levelo_inurba_marseille","lat":43.21188,"lon":5.35075,"is_reserved":false,"is_disabled":false,"rental_uris":{"android":"levelo://app?vid=8220ecc2-6bf9-4e7d-8a35-6858c0daf5f4","ios":"levelo://app?vid=8220ecc2-6bf9-4e7d-8a35-6858c0daf5f4"},"vehicle_type_id":"4","last_reported":1783284319,"current_range_meters":6000,"station_id":"st_cvj6sg6p6f1abm77japg","pricing_plan_id":"cebpf4jnsgd1na2vs0mg"},{"bike_id":"b99fa2fa-6caa-4e97-a941-8427d6ff2309","system_id":"levelo_inurba_marseille","lat":43.26238,"lon":5.38772,"is_reserved":false,"is_disabled":true,"rental_uris":{"android":"levelo://app?vid=b99fa2fa-6caa-4e97-a941-8427d6ff2309","ios":"levelo://app?vid=b99fa2fa-6caa-4e97-a941-8427d6ff2309"},"vehicle_type_id":"4","last_reported":1783284319,"current_range_meters":6000,"station_id":"st_d8gjfg747rts73coq3b0","pricing_plan_id":"cebpf4jnsgd1na2vs0mg"},{"bike_id":"3892050e-cb6a-457e-90e6-5def440715fd","system_id":"levelo_inurba_marseille","lat":43.28688,"lon":5.4668,"is_reserved":false,"is_disabled":false,"rental_uris":{"android":"levelo://app?vid=3892050e-cb6a-457e-90e6-5def440715fd","ios":"levelo://app?vid=3892050e-cb6a-457e-90e6-5def440715fd"},"vehicle_type_id":"4","last_reported":1783284319,"current_range_meters":6000,"station_id":"st_d6tc3vkotcvc738tfjhg","pricing_plan_id":"cebpf4jnsgd1na2vs0mg"},{"bike_id":"ce96bab4-bfc4-4150-8d40-74272b92e348","system_id":"levelo_inurba_marseille","lat":43.2319,"lon":5.35555,"is_reserved":false,"is_disabled":false,"rental_uris":{"android":"levelo://app?vid=ce96bab4-bfc4-4150-8d40-74272b92e348","ios":"levelo://app?vid=ce96bab4-bfc4-4150-8d40-74272b92e348"},"vehicle_type_id":"4","last_reported":1783284319,"current_range_meters":6000,"station_id":"ce4bhu92rcd13ifvqi70","pricing_plan_id":"cebpf4jnsgd1na2vs0mg"},{"bike_id":"66f64495-157d-434d-a3ef-5a17f45e04e3","system_id":"levelo_inurba_marseille","lat":43.24113,"lon":5.40965,"is_reserved":false,"is_disabled":false,"rental_uris":{"android":"levelo://app?vid=66f64495-157d-434d-a3ef-5a17f45e04e3","ios":"levelo://app?vid=66f64495-157d-434d-a3ef-5a17f45e04e3"},"vehicle_type_id":"4","last_reported":1783284319,"current_range_meters":6000,"station_id":"","pricing_plan_id":"cebpf4jnsgd1na2vs0mg"},{"bike_id":"6af110b8-e200-4b06-a3ba-927ca5acec22","system_id":"levelo_inurba_marseille","lat":43.25492,"lon":5.37702,"is_reserved":false,"is_disabled":false,"rental_uris":{"android":"levelo://app?vid=6af110b8-e200-4b06-a3ba-927ca5acec22","ios":"levelo://app?vid=6af110b8-e200-4b06-a3ba-927ca5acec22"},"vehicle_type_id":"4","last_reported":1783284319,"current_range_meters":6000,"station_id":"ce4bhh12rcd13ifvqff0","pricing_plan_id":"cebpf4jnsgd1na2vs0mg"},{"bike_id":"95e2c5d3-ee09-417b-93c0-7f04fa895ada","system_id":"levelo_inurba_marseille","lat":43.31957,"lon":5.37363,"is_reserved":false,"is_disabled":false,"rental_uris":{"android":"levelo://app?vid=95e2c5d3-ee09-417b-93c0-7f04fa895ada","ios":"levelo://app?vid=95e2c5d3-ee09-417b-93c0-7f04fa895ada"},"vehicle_type_id":"4","last_reported":1783284319,"current_range_meters":6000,"station_id":"","pricing_plan_id":"cebpf4jnsgd1na2vs0mg"},{"bike_id":"62490691-72dc-4b31-bea8-a5214b22d76b","system_id":"levelo_inurba_marseille","lat":43.29509,"lon":5.39043,"is_reserved":false,"is_disabled":false,"rental_uris":{"android":"levelo://app?vid=62490691-72dc-4b31-bea8-a5214b22d76b","ios":"levelo://app?vid=62490691-72dc-4b31-bea8-a5214b22d76b"},"vehicle_type_id":"4","last_reported":1783284319,"current_range_meters":6000,"station_id":"ce4bh3p2rcd13ifvqdp0","pricing_plan_id":"cebpf4jnsgd1na2vs0mg"},{"bike_id":"6c5fe4f7-262b-4001-9eb8-7e80f3afa3a3","system_id":"levelo_inurba_marseille","lat":43.26019,"lon":5.37553,"is_reserved":false,"is_disabled":false,"rental_uris":{"android":"levelo://app?vid=6c5fe4f7-262b-4001-9eb8-7e80f3afa3a3","ios":"levelo://app?vid=6c5fe4f7-262b-4001-9eb8-7e80f3afa3a3"},"vehicle_type_id":"4","last_reported":1783284319,"current_range_meters":6000,"station_id":"ce4bhgh2rcd13ifvqfa0","pricing_plan_id":"cebpf4jnsgd1na2vs0mg"},{"bike_id":"9aad7fb2-4b68-4ff1-a63e-5832ca4f6501","system_id":"levelo_inurba_marseille","lat":43.26933,"lon":5.38511,"is_reserved":false,"is_disabled":false,"rental_uris":{"android":"levelo://app?vid=9aad7fb2-4b68-4ff1-a63e-5832ca4f6501","ios":"levelo://app?vid=9aad7fb2-4b68-4ff1-a63e-5832ca4f6501"},"vehicle_type_id":"4","last_reported":1783284319,"current_range_meters":6000,"station_id":"","pricing_plan_id":"cebpf4jnsgd1na2vs0mg"},{"bike_id":"f6854374-9165-4fcd-b72d-72dd1e9bbd42","system_id":"levelo_inurba_marseille","lat":43.28435,"lon":5.39182,"is_reserved":false,"is_disabled":false,"rental_uris":{"android":"levelo://app?vid=f6854374-9165-4fcd-b72d-72dd1e9bbd42","ios":"levelo://app?vid=f6854374-9165-4fcd-b72d-72dd1e9bbd42"},"vehicle_type_id":"4","last_reported":1783284319,"current_range_meters":6000,"station_id":"ce4bhoh2rcd13ifvqh5g","pricing_plan_id":"cebpf4jnsgd1na2vs0mg"},{"bike_id":"d8e1f5f2-ea43-4d36-a5f3-3d29849b954b","system_id":"levelo_inurba_marseille","lat":43.27985,"lon":5.41655,"is_reserved":false,"is_disabled":false,"rental_uris":{"android":"levelo://app?vid=d8e1f5f2-ea43-4d36-a5f3-3d29849b954b","ios":"levelo://app?vid=d8e1f5f2-ea43-4d36-a5f3-3d29849b954b"},"vehicle_type_id":"4","last_reported":1783284319,"current_range_meters":6000,"station_id":"ce4bho12rcd13ifvqh1g","pricing_plan_id":"cebpf4jnsgd1na2vs0mg"},{"bike_id":"b8fa53e4-4a88-452c-a0de-baba56a038e6","system_id":"levelo_inurba_marseille","lat":43.31895,"lon":5.40733,"is_reserved":false,"is_disabled":false,"rental_uris":{"android":"levelo://app?vid=b8fa53e4-4a88-452c-a0de-baba56a038e6","ios":"levelo://app?vid=b8fa53e4-4a88-452c-a0de-baba56a038e6"},"vehicle_type_id":"4","last_reported":1783284319,"current_range_meters":6000,"station_id":"ce4bhq12rcd13ifvqhig","pricing_plan_id":"cebpf4jnsgd1na2vs0mg"},{"bike_id":"d4603f03-0f32-4e45-a219-aad2b18a7093","system_id":"levelo_inurba_marseille","lat":43.30945,"lon":5.39029,"is_reserved":false,"is_disabled":false,"rental_uris":{"android":"levelo://app?vid=d4603f03-0f32-4e45-a219-aad2b18a7093","ios":"levelo://app?vid=d4603f03-0f32-4e45-a219-aad2b18a7093"},"vehicle_type_id":"4","last_reported":1783284319,"current_range_meters":6000,"station_id":"ce4bgup2rcd13ifvqco0","pricing_plan_id":"cebpf4jnsgd1na2vs0mg"},{"bike_id":"7c427d21-5ba3-47e9-b621-2ca7d29df3d2","system_id":"levelo_inurba_marseille","lat":43.28464,"lon":5.43735,"is_reserved":false,"is_disabled":false,"rental_uris":{"android":"levelo://app?vid=7c427d21-5ba3-47e9-b621-2ca7d29df3d2","ios":"levelo://app?vid=7c427d21-5ba3-47e9-b621-2ca7d29df3d2"},"vehicle_type_id":"4","last_reported":1783284319,"current_range_meters":6000,"station_id":"","pricing_plan_id":"cebpf4jnsgd1na2vs0mg"},{"bike_id":"6c83a1d2-0261-4cb8-9609-a9d6494b40a6","system_id":"levelo_inurba_marseille","lat":43.29381,"lon":5.37604,"is_reserved":false,"is_disabled":false,"rental_uris":{"android":"levelo://app?vid=6c83a1d2-0261-4cb8-9609-a9d6494b40a6","ios":"levelo://app?vid=6c83a1d2-0261-4cb8-9609-a9d6494b40a6"},"vehicle_type_id":"4","last_reported":1783284319,"current_range_meters":6000,"station_id":"","pricing_plan_id":"cebpf4jnsgd1na2vs0mg"},{"bike_id":"d3cd9571-4983-47b4-bcd2-4b7d6f46304f","system_id":"levelo_inurba_marseille","lat":43.23773,"lon":5.36636,"is_reserved":false,"is_disabled":false,"rental_uris":{"android":"levelo://app?vid=d3cd9571-4983-47b4-bcd2-4b7d6f46304f","ios":"levelo://app?vid=d3cd9571-4983-47b4-bcd2-4b7d6f46304f"},"vehicle_type_id":"4","last_reported":1783284319,"current_range_meters":6400,"station_id":"st_d3nk18o9ro0c73en2l3g","pricing_plan_id":"cebpf4jnsgd1na2vs0mg"},{"bike_id":"8b8b4fd0-1876-4f85-9b05-214703451ff4","system_id":"levelo_inurba_marseille","lat":43.29872,"lon":5.3974,"is_reserved":false,"is_disabled":false,"rental_uris":{"android":"levelo://app?vid=8b8b4fd0-1876-4f85-9b05-214703451ff4","ios":"levelo://app?vid=8b8b4fd0-1876-4f85-9b05-214703451ff4"},"vehicle_type_id":"4","last_reported":1783284319,"current_range_meters":6400,"station_id":"ce4bh0h2rcd13ifvqd50","pricing_plan_id":"cebpf4jnsgd1na2vs0mg"},{"bike_id":"8add3d14-7583-4bbe-a39a-8070d5f4d47a","system_id":"levelo_inurba_marseille","lat":43.32496,"lon":5.38295,"is_reserved":false,"is_disabled":false,"rental_uris":{"android":"levelo://app?vid=8add3d14-7583-4bbe-a39a-8070d5f4d47a","ios":"levelo://app?vid=8add3d14-7583-4bbe-a39a-8070d5f4d47a"},"vehicle_type_id":"4","last_reported":1783284319,"current_range_meters":6400,"station_id":"st_d4asgbiv49dc73anf9m0","pricing_plan_id":"cebpf4jnsgd1na2vs0mg"},{"bike_id":"d1f95cf9-3c50-44e1-afec-1a16e5b009af","system_id":"levelo_inurba_marseille","lat":43.266713,"lon":5.372395,"is_reserved":false,"is_disabled":false,"rental_uris":{"android":"levelo://app?vid=d1f95cf9-3c50-44e1-afec-1a16e5b009af","ios":"levelo://app?vid=d1f95cf9-3c50-44e1-afec-1a16e5b009af"},"vehicle_type_id":"4","last_reported":1783284319,"current_range_meters":6400,"station_id":"","pricing_plan_id":"cebpf4jnsgd1na2vs0mg"},{"bike_id":"e212048e-36e5-4dea-a4dc-4f4603b01b54","system_id":"levelo_inurba_marseille","lat":43.30175,"lon":5.38105,"is_reserved":false,"is_disabled":true,"rental_uris":{"android":"levelo://app?vid=e212048e-36e5-4dea-a4dc-4f4603b01b54","ios":"levelo://app?vid=e212048e-36e5-4dea-a4dc-4f4603b01b54"},"vehicle_type_id":"4","last_reported":1783284319,"current_range_meters":6400,"station_id":"ce4bgjp2rcd13ifvqbh0","pricing_plan_id":"cebpf4jnsgd1na2vs0mg"},{"bike_id":"2d3dd4f4-c2be-4315-be3d-f35763bc2c71","system_id":"levelo_inurba_marseille","lat":43.26703,"lon":5.40193,"is_reserved":false,"is_disabled":false,"rental_uris":{"android":"levelo://app?vid=2d3dd4f4-c2be-4315-be3d-f35763bc2c71","ios":"levelo://app?vid=2d3dd4f4-c2be-4315-be3d-f35763bc2c71"},"vehicle_type_id":"4","last_reported":1783284319,"current_range_meters":6400,"station_id":"","pricing_plan_id":"cebpf4jnsgd1na2vs0mg"},{"bike_id":"8573ae4c-c9fc-4ff8-a5e9-0df2486e1c40","system_id":"levelo_inurba_marseille","lat":43.2603,"lon":5.37544,"is_reserved":false,"is_disabled":true,"rental_uris":{"android":"levelo://app?vid=8573ae4c-c9fc-4ff8-a5e9-0df2486e1c40","ios":"levelo://app?vid=8573ae4c-c9fc-4ff8-a5e9-0df2486e1c40"},"vehicle_type_id":"4","last_reported":1783284319,"current_range_meters":6400,"station_id":"ce4bhgh2rcd13ifvqfa0","pricing_plan_id":"cebpf4jnsgd1na2vs0mg"},{"bike_id":"efc4fd70-36c1-4817-9ebf-e298320e60d9","system_id":"levelo_inurba_marseille","lat":43.29947,"lon":5.38542,"is_reserved":false,"is_disabled":false,"rental_uris":{"android":"levelo://app?vid=efc4fd70-36c1-4817-9ebf-e298320e60d9","ios":"levelo://app?vid=efc4fd70-36c1-4817-9ebf-e298320e60d9"},"vehicle_type_id":"4","last_reported":1783284319,"current_range_meters":6400,"station_id":"","pricing_plan_id":"cebpf4jnsgd1na2vs0mg"},{"bike_id":"13b80e07-18cd-4ee7-a62f-96d1a8e5a848","system_id":"levelo_inurba_marseille","lat":43.2977,"lon":5.37098,"is_reserved":false,"is_disabled":true,"rental_uris":{"android":"levelo://app?vid=13b80e07-18cd-4ee7-a62f-96d1a8e5a848","ios":"levelo://app?vid=13b80e07-18cd-4ee7-a62f-96d1a8e5a848"},"vehicle_type_id":"4","last_reported":1783284319,"current_range_meters":6400,"station_id":"ce4bgop2rcd13ifvqc1g","pricing_plan_id":"cebpf4jnsgd1na2vs0mg"},{"bike_id":"8798bfff-f202-4cce-8e3f-a549047f9598","system_id":"levelo_inurba_marseille","lat":43.29986,"lon":5.38498,"is_reserved":false,"is_disabled":false,"rental_uris":{"android":"levelo://app?vid=8798bfff-f202-4cce-8e3f-a549047f9598","ios":"levelo://app?vid=8798bfff-f202-4cce-8e3f-a549047f9598"},"vehicle_type_id":"4","last_reported":1783284319,"current_range_meters":6400,"station_id":"ce4bgj92rcd13ifvqbd0","pricing_plan_id":"cebpf4jnsgd1na2vs0mg"},{"bike_id":"d542e80b-c621-4744-a175-6c723a1aa866","system_id":"levelo_inurba_marseille","lat":43.29321,"lon":5.44566,"is_reserved":false,"is_disabled":false,"rental_uris":{"android":"levelo://app?vid=d542e80b-c621-4744-a175-6c723a1aa866","ios":"levelo://app?vid=d542e80b-c621-4744-a175-6c723a1aa866"},"vehicle_type_id":"4","last_reported":1783284319,"current_range_meters":6400,"station_id":"","pricing_plan_id":"cebpf4jnsgd1na2vs0mg"},{"bike_id":"75efaf6c-211b-4195-9354-372029404c1d","system_id":"levelo_inurba_marseille","lat":43.25089,"lon":5.39525,"is_reserved":false,"is_disabled":false,"rental_uris":{"android":"levelo://app?vid=75efaf6c-211b-4195-9354-372029404c1d","ios":"levelo://app?vid=75efaf6c-211b-4195-9354-372029404c1d"},"vehicle_type_id":"4","last_reported":1783284319,"current_range_meters":6400,"station_id":"ce4bhm12rcd13ifvqgkg","pricing_plan_id":"cebpf4jnsgd1na2vs0mg"},{"bike_id":"537ca998-8fd3-4dae-915c-356daecbb82f","system_id":"levelo_inurba_marseille","lat":43.29001,"lon":5.38642,"is_reserved":false,"is_disabled":true,"rental_uris":{"android":"levelo://app?vid=537ca998-8fd3-4dae-915c-356daecbb82f","ios":"levelo://app?vid=537ca998-8fd3-4dae-915c-356daecbb82f"},"vehicle_type_id":"4","last_reported":1783284319,"current_range_meters":6400,"station_id":"ce4bh4p2rcd13ifvqe0g","pricing_plan_id":"cebpf4jnsgd1na2vs0mg"},{"bike_id":"ea939014-79a9-4d64-9cd2-c29e9ee2cb8b","system_id":"levelo_inurba_marseille","lat":43.28098,"lon":5.37839,"is_reserved":false,"is_disabled":false,"rental_uris":{"android":"levelo://app?vid=ea939014-79a9-4d64-9cd2-c29e9ee2cb8b","ios":"levelo://app?vid=ea939014-79a9-4d64-9cd2-c29e9ee2cb8b"},"vehicle_type_id":"4","last_reported":1783284319,"current_range_meters":6400,"station_id":"ce4bha12rcd13ifvqee0","pricing_plan_id":"cebpf4jnsgd1na2vs0mg"},{"bike_id":"4ea05420-4688-4f88-ab4d-87e93bd11b74","system_id":"levelo_inurba_marseille","lat":43.29245,"lon":5.40901,"is_reserved":false,"is_disabled":false,"rental_uris":{"android":"levelo://app?vid=4ea05420-4688-4f88-ab4d-87e93bd11b74","ios":"levelo://app?vid=4ea05420-4688-4f88-ab4d-87e93bd11b74"},"vehicle_type_id":"4","last_reported":1783284319,"current_range_meters":6400,"station_id":"ce4bh192rcd13ifvqdc0","pricing_plan_id":"cebpf4jnsgd1na2vs0mg"},{"bike_id":"d7243867-d830-4852-bcaf-39fdde4db026","system_id":"levelo_inurba_marseille","lat":43.25575,"lon":5.38241,"is_reserved":false,"is_disabled":false,"rental_uris":{"android":"levelo://app?vid=d7243867-d830-4852-bcaf-39fdde4db026","ios":"levelo://app?vid=d7243867-d830-4852-bcaf-39fdde4db026"},"vehicle_type_id":"4","last_reported":1783284319,"current_range_meters":6400,"station_id":"ce4bhih2rcd13ifvqfs0","pricing_plan_id":"cebpf4jnsgd1na2vs0mg"},{"bike_id":"b6aa2529-47a5-48dc-8a53-0cb13d718c83","system_id":"levelo_inurba_marseille","lat":43.23292,"lon":5.4078,"is_reserved":false,"is_disabled":false,"rental_uris":{"android":"levelo://app?vid=b6aa2529-47a5-48dc-8a53-0cb13d718c83","ios":"levelo://app?vid=b6aa2529-47a5-48dc-8a53-0cb13d718c83"},"vehicle_type_id":"4","last_reported":1783284319,"current_range_meters":6400,"station_id":"","pricing_plan_id":"cebpf4jnsgd1na2vs0mg"},{"bike_id":"fc5d7b22-bed1-4640-a4b2-9379b1406486","system_id":"levelo_inurba_marseille","lat":43.29422,"lon":5.38443,"is_reserved":false,"is_disabled":true,"rental_uris":{"android":"levelo://app?vid=fc5d7b22-bed1-4640-a4b2-9379b1406486","ios":"levelo://app?vid=fc5d7b22-bed1-4640-a4b2-9379b1406486"},"vehicle_type_id":"4","last_reported":1783284319,"current_range_meters":6400,"station_id":"","pricing_plan_id":"cebpf4jnsgd1na2vs0mg"},{"bike_id":"e00d0afb-ac80-42d8-8e53-c3dd7e3d351c","system_id":"levelo_inurba_marseille","lat":43.26179,"lon":5.37495,"is_reserved":false,"is_disabled":false,"rental_uris":{"android":"levelo://app?vid=e00d0afb-ac80-42d8-8e53-c3dd7e3d351c","ios":"levelo://app?vid=e00d0afb-ac80-42d8-8e53-c3dd7e3d351c"},"vehicle_type_id":"4","last_reported":1783284319,"current_range_meters":6400,"station_id":"ce4bhgp2rcd13ifvqfc0","pricing_plan_id":"cebpf4jnsgd1na2vs0mg"},{"bike_id":"f7826c83-beb8-416f-bc97-d9c1cfbddb0b","system_id":"levelo_inurba_marseille","lat":43.25163,"lon":5.40468,"is_reserved":false,"is_disabled":false,"rental_uris":{"android":"levelo://app?vid=f7826c83-beb8-416f-bc97-d9c1cfbddb0b","ios":"levelo://app?vid=f7826c83-beb8-416f-bc97-d9c1cfbddb0b"},"vehicle_type_id":"4","last_reported":1783284319,"current_range_meters":6400,"station_id":"","pricing_plan_id":"cebpf4jnsgd1na2vs0mg"},{"bike_id":"696dc738-3c86-46fd-93b8-7bc1359ff003","system_id":"levelo_inurba_marseille","lat":43.25725,"lon":5.41112,"is_reserved":false,"is_disabled":false,"rental_uris":{"android":"levelo://app?vid=696dc738-3c86-46fd-93b8-7bc1359ff003","ios":"levelo://app?vid=696dc738-3c86-46fd-93b8-7bc1359ff003"},"vehicle_type_id":"4","last_reported":1783284319,"current_range_meters":6400,"station_id":"ce4bhkp2rcd13ifvqgd0","pricing_plan_id":"cebpf4jnsgd1na2vs0mg"},{"bike_id":"042aa53d-4ec3-477c-b412-9e56cf0ac38d","system_id":"levelo_inurba_marseille","lat":43.31896,"lon":5.36822,"is_reserved":false,"is_disabled":false,"rental_uris":{"android":"levelo://app?vid=042aa53d-4ec3-477c-b412-9e56cf0ac38d","ios":"levelo://app?vid=042aa53d-4ec3-477c-b412-9e56cf0ac38d"},"vehicle_type_id":"4","last_reported":1783284319,"current_range_meters":6800,"station_id":"st_d6o2h0d0559c73evc1b0","pricing_plan_id":"cebpf4jnsgd1na2vs0mg"},{"bike_id":"6e28c7de-4432-46c6-8824-5a05812aca65","system_id":"levelo_inurba_marseille","lat":43.22534,"lon":5.3483,"is_reserved":false,"is_disabled":false,"rental_uris":{"android":"levelo://app?vid=6e28c7de-4432-46c6-8824-5a05812aca65","ios":"levelo://app?vid=6e28c7de-4432-46c6-8824-5a05812aca65"},"vehicle_type_id":"4","last_reported":1783284319,"current_range_meters":6800,"station_id":"st_cvj5dfep6f1abm77gieg","pricing_plan_id":"cebpf4jnsgd1na2vs0mg"},{"bike_id":"bfde289c-3b13-4b9d-91ab-ba43686f88ea","system_id":"levelo_inurba_marseille","lat":43.29875,"lon":5.39737,"is_reserved":false,"is_disabled":false,"rental_uris":{"android":"levelo://app?vid=bfde289c-3b13-4b9d-91ab-ba43686f88ea","ios":"levelo://app?vid=bfde289c-3b13-4b9d-91ab-ba43686f88ea"},"vehicle_type_id":"4","last_reported":1783284319,"current_range_meters":6800,"station_id":"ce4bh0h2rcd13ifvqd50","pricing_plan_id":"cebpf4jnsgd1na2vs0mg"},{"bike_id":"160a3ab7-fc88-45da-bdb4-57b9d77812b7","system_id":"levelo_inurba_marseille","lat":43.29529,"lon":5.38547,"is_reserved":false,"is_disabled":false,"rental_uris":{"android":"levelo://app?vid=160a3ab7-fc88-45da-bdb4-57b9d77812b7","ios":"levelo://app?vid=160a3ab7-fc88-45da-bdb4-57b9d77812b7"},"vehicle_type_id":"4","last_reported":1783284319,"current_range_meters":6800,"station_id":"ce4bgih2rcd13ifvqba0","pricing_plan_id":"cebpf4jnsgd1na2vs0mg"},{"bike_id":"3fcf6205-f23c-4cee-8363-04389955351d","system_id":"levelo_inurba_marseille","lat":43.22562,"lon":5.41626,"is_reserved":false,"is_disabled":false,"rental_uris":{"android":"levelo://app?vid=3fcf6205-f23c-4cee-8363-04389955351d","ios":"levelo://app?vid=3fcf6205-f23c-4cee-8363-04389955351d"},"vehicle_type_id":"4","last_reported":1783284319,"current_range_meters":6800,"station_id":"st_d2o4gvlbi1j2169b742g","pricing_plan_id":"cebpf4jnsgd1na2vs0mg"},{"bike_id":"60cffc11-d5c5-43ec-a97e-94377379e1ab","system_id":"levelo_inurba_marseille","lat":43.28336,"lon":5.38111,"is_reserved":false,"is_disabled":false,"rental_uris":{"android":"levelo://app?vid=60cffc11-d5c5-43ec-a97e-94377379e1ab","ios":"levelo://app?vid=60cffc11-d5c5-43ec-a97e-94377379e1ab"},"vehicle_type_id":"4","last_reported":1783284319,"current_range_meters":6800,"station_id":"ce4bh412rcd13ifvqdr0","pricing_plan_id":"cebpf4jnsgd1na2vs0mg"},{"bike_id":"f1fa67ea-70e8-494e-90f1-3cd8a54e2aac","system_id":"levelo_inurba_marseille","lat":43.282676,"lon":5.350556,"is_reserved":false,"is_disabled":true,"rental_uris":{"android":"levelo://app?vid=f1fa67ea-70e8-494e-90f1-3cd8a54e2aac","ios":"levelo://app?vid=f1fa67ea-70e8-494e-90f1-3cd8a54e2aac"},"vehicle_type_id":"4","last_reported":1783284319,"current_range_meters":6800,"station_id":"ce4bhbp2rcd13ifvqerg","pricing_plan_id":"cebpf4jnsgd1na2vs0mg"},{"bike_id":"40e722f2-64dd-416f-9e57-d96111c77e32","system_id":"levelo_inurba_marseille","lat":43.28678,"lon":5.46672,"is_reserved":false,"is_disabled":false,"rental_uris":{"android":"levelo://app?vid=40e722f2-64dd-416f-9e57-d96111c77e32","ios":"levelo://app?vid=40e722f2-64dd-416f-9e57-d96111c77e32"},"vehicle_type_id":"4","last_reported":1783284319,"current_range_meters":6800,"station_id":"st_d6tc3vkotcvc738tfjhg","pricing_plan_id":"cebpf4jnsgd1na2vs0mg"},{"bike_id":"09f2475e-1332-47eb-8774-625523b490d1","system_id":"levelo_inurba_marseille","lat":43.26072,"lon":5.3939,"is_reserved":false,"is_disabled":false,"rental_uris":{"android":"levelo://app?vid=09f2475e-1332-47eb-8774-625523b490d1","ios":"levelo://app?vid=09f2475e-1332-47eb-8774-625523b490d1"},"vehicle_type_id":"4","last_reported":1783284319,"current_range_meters":6800,"station_id":"ce4bhh92rcd13ifvqfj0","pricing_plan_id":"cebpf4jnsgd1na2vs0mg"},{"bike_id":"6b703ae7-b021-4d07-a990-ef927f27bcc0","system_id":"levelo_inurba_marseille","lat":43.25434,"lon":5.37596,"is_reserved":false,"is_disabled":false,"rental_uris":{"android":"levelo://app?vid=6b703ae7-b021-4d07-a990-ef927f27bcc0","ios":"levelo://app?vid=6b703ae7-b021-4d07-a990-ef927f27bcc0"},"vehicle_type_id":"4","last_reported":1783284319,"current_range_meters":6800,"station_id":"","pricing_plan_id":"cebpf4jnsgd1na2vs0mg"},{"bike_id":"6d27a73f-e3f1-4629-9cc5-db4f42f075b4","system_id":"levelo_inurba_marseille","lat":43.30601,"lon":5.37231,"is_reserved":false,"is_disabled":false,"rental_uris":{"android":"levelo://app?vid=6d27a73f-e3f1-4629-9cc5-db4f42f075b4","ios":"levelo://app?vid=6d27a73f-e3f1-4629-9cc5-db4f42f075b4"},"vehicle_type_id":"4","last_reported":1783284319,"current_range_meters":6800,"station_id":"ce4bgqh2rcd13ifvqc4g","pricing_plan_id":"cebpf4jnsgd1na2vs0mg"},{"bike_id":"ebb69cdb-f57c-486a-9d37-3814132e26e5","system_id":"levelo_inurba_marseille","lat":43.28035,"lon":5.36938,"is_reserved":false,"is_disabled":true,"rental_uris":{"android":"levelo://app?vid=ebb69cdb-f57c-486a-9d37-3814132e26e5","ios":"levelo://app?vid=ebb69cdb-f57c-486a-9d37-3814132e26e5"},"vehicle_type_id":"4","last_reported":1783284319,"current_range_meters":6800,"station_id":"ce4bha12rcd13ifvqef0","pricing_plan_id":"cebpf4jnsgd1na2vs0mg"},{"bike_id":"a4f9ee3b-b427-4829-b639-bd7508b29e83","system_id":"levelo_inurba_marseille","lat":43.282797,"lon":5.35073,"is_reserved":false,"is_disabled":true,"rental_uris":{"android":"levelo://app?vid=a4f9ee3b-b427-4829-b639-bd7508b29e83","ios":"levelo://app?vid=a4f9ee3b-b427-4829-b639-bd7508b29e83"},"vehicle_type_id":"4","last_reported":1783284319,"current_range_meters":6800,"station_id":"ce4bhbp2rcd13ifvqerg","pricing_plan_id":"cebpf4jnsgd1na2vs0mg"},{"bike_id":"8bc199c6-fa2d-4c70-9249-7d435dcab9a6","system_id":"levelo_inurba_marseille","lat":43.2927,"lon":5.36857,"is_reserved":false,"is_disabled":true,"rental_uris":{"android":"levelo://app?vid=8bc199c6-fa2d-4c70-9249-7d435dcab9a6","ios":"levelo://app?vid=8bc199c6-fa2d-4c70-9249-7d435dcab9a6"},"vehicle_type_id":"4","last_reported":1783284319,"current_range_meters":6800,"station_id":"ce4bhbp2rcd13ifvqesg","pricing_plan_id":"cebpf4jnsgd1na2vs0mg"},{"bike_id":"f56c5a55-490f-470f-bccd-8a878283165b","system_id":"levelo_inurba_marseille","lat":43.31795,"lon":5.36846,"is_reserved":false,"is_disabled":false,"rental_uris":{"android":"levelo://app?vid=f56c5a55-490f-470f-bccd-8a878283165b","ios":"levelo://app?vid=f56c5a55-490f-470f-bccd-8a878283165b"},"vehicle_type_id":"4","last_reported":1783284319,"current_range_meters":6800,"station_id":"","pricing_plan_id":"cebpf4jnsgd1na2vs0mg"},{"bike_id":"d431316b-6f11-4fcf-9289-e091c76429a8","system_id":"levelo_inurba_marseille","lat":43.30952,"lon":5.39038,"is_reserved":false,"is_disabled":false,"rental_uris":{"android":"levelo://app?vid=d431316b-6f11-4fcf-9289-e091c76429a8","ios":"levelo://app?vid=d431316b-6f11-4fcf-9289-e091c76429a8"},"vehicle_type_id":"4","last_reported":1783284319,"current_range_meters":6800,"station_id":"ce4bgup2rcd13ifvqco0","pricing_plan_id":"cebpf4jnsgd1na2vs0mg"},{"bike_id":"9d8b10ca-07d2-40b5-9167-319e392d3049","system_id":"levelo_inurba_marseille","lat":43.294542,"lon":5.397458,"is_reserved":false,"is_disabled":false,"rental_uris":{"android":"levelo://app?vid=9d8b10ca-07d2-40b5-9167-319e392d3049","ios":"levelo://app?vid=9d8b10ca-07d2-40b5-9167-319e392d3049"},"vehicle_type_id":"4","last_reported":1783284319,"current_range_meters":6800,"station_id":"ce4bh3h2rcd13ifvqdo0","pricing_plan_id":"cebpf4jnsgd1na2vs0mg"},{"bike_id":"66c6e5ad-12fd-409e-a59d-315fc11950b1","system_id":"levelo_inurba_marseille","lat":43.27561,"lon":5.38422,"is_reserved":false,"is_disabled":true,"rental_uris":{"android":"levelo://app?vid=66c6e5ad-12fd-409e-a59d-315fc11950b1","ios":"levelo://app?vid=66c6e5ad-12fd-409e-a59d-315fc11950b1"},"vehicle_type_id":"4","last_reported":1783284319,"current_range_meters":6800,"station_id":"ce4bhh92rcd13ifvqfi0","pricing_plan_id":"cebpf4jnsgd1na2vs0mg"},{"bike_id":"2bd79137-03b5-4309-b0d7-20c725d16088","system_id":"levelo_inurba_marseille","lat":43.30897,"lon":5.36815,"is_reserved":false,"is_disabled":false,"rental_uris":{"android":"levelo://app?vid=2bd79137-03b5-4309-b0d7-20c725d16088","ios":"levelo://app?vid=2bd79137-03b5-4309-b0d7-20c725d16088"},"vehicle_type_id":"4","last_reported":1783284319,"current_range_meters":6800,"station_id":"ce4bgn92rcd13ifvqbvg","pricing_plan_id":"cebpf4jnsgd1na2vs0mg"},{"bike_id":"d63380a9-f89f-43fe-856e-43a5c2b958b4","system_id":"levelo_inurba_marseille","lat":43.30437,"lon":5.38878,"is_reserved":false,"is_disabled":false,"rental_uris":{"android":"levelo://app?vid=d63380a9-f89f-43fe-856e-43a5c2b958b4","ios":"levelo://app?vid=d63380a9-f89f-43fe-856e-43a5c2b958b4"},"vehicle_type_id":"4","last_reported":1783284319,"current_range_meters":6800,"station_id":"ce4bgk12rcd13ifvqbi0","pricing_plan_id":"cebpf4jnsgd1na2vs0mg"},{"bike_id":"fa2eaeb2-1497-47b5-8729-98f2ce89faf4","system_id":"levelo_inurba_marseille","lat":43.29525,"lon":5.3854,"is_reserved":false,"is_disabled":false,"rental_uris":{"android":"levelo://app?vid=fa2eaeb2-1497-47b5-8729-98f2ce89faf4","ios":"levelo://app?vid=fa2eaeb2-1497-47b5-8729-98f2ce89faf4"},"vehicle_type_id":"4","last_reported":1783284319,"current_range_meters":6800,"station_id":"ce4bgih2rcd13ifvqba0","pricing_plan_id":"cebpf4jnsgd1na2vs0mg"},{"bike_id":"c9445652-b236-402b-8ec1-fb5567a22b0f","system_id":"levelo_inurba_marseille","lat":43.24427,"lon":5.40949,"is_reserved":false,"is_disabled":false,"rental_uris":{"android":"levelo://app?vid=c9445652-b236-402b-8ec1-fb5567a22b0f","ios":"levelo://app?vid=c9445652-b236-402b-8ec1-fb5567a22b0f"},"vehicle_type_id":"4","last_reported":1783284319,"current_range_meters":6800,"station_id":"","pricing_plan_id":"cebpf4jnsgd1na2vs0mg"},{"bike_id":"acb6b183-d4d6-4d8e-974e-924b61f91a80","system_id":"levelo_inurba_marseille","lat":43.34405,"lon":5.42045,"is_reserved":false,"is_disabled":false,"rental_uris":{"android":"levelo://app?vid=acb6b183-d4d6-4d8e-974e-924b61f91a80","ios":"levelo://app?vid=acb6b183-d4d6-4d8e-974e-924b61f91a80"},"vehicle_type_id":"4","last_reported":1783284319,"current_range_meters":6800,"station_id":"","pricing_plan_id":"cebpf4jnsgd1na2vs0mg"},{"bike_id":"acc3dec8-cb98-4460-a4fa-377e0f7cb2c7","system_id":"levelo_inurba_marseille","lat":43.28469,"lon":5.3843,"is_reserved":false,"is_disabled":false,"rental_uris":{"android":"levelo://app?vid=acc3dec8-cb98-4460-a4fa-377e0f7cb2c7","ios":"levelo://app?vid=acc3dec8-cb98-4460-a4fa-377e0f7cb2c7"},"vehicle_type_id":"4","last_reported":1783284319,"current_range_meters":6800,"station_id":"ce4bh512rcd13ifvqe3g","pricing_plan_id":"cebpf4jnsgd1na2vs0mg"},{"bike_id":"74dd1e57-6e1d-4fa0-8546-e65a259c2fac","system_id":"levelo_inurba_marseille","lat":43.29526,"lon":5.38532,"is_reserved":false,"is_disabled":false,"rental_uris":{"android":"levelo://app?vid=74dd1e57-6e1d-4fa0-8546-e65a259c2fac","ios":"levelo://app?vid=74dd1e57-6e1d-4fa0-8546-e65a259c2fac"},"vehicle_type_id":"4","last_reported":1783284319,"current_range_meters":6800,"station_id":"ce4bgih2rcd13ifvqba0","pricing_plan_id":"cebpf4jnsgd1na2vs0mg"},{"bike_id":"faf38aa3-10c1-4e75-a2ca-a1af2b12c85d","system_id":"levelo_inurba_marseille","lat":43.24656,"lon":5.38159,"is_reserved":false,"is_disabled":false,"rental_uris":{"android":"levelo://app?vid=faf38aa3-10c1-4e75-a2ca-a1af2b12c85d","ios":"levelo://app?vid=faf38aa3-10c1-4e75-a2ca-a1af2b12c85d"},"vehicle_type_id":"4","last_reported":1783284319,"current_range_meters":6800,"station_id":"ce4bhih2rcd13ifvqfr0","pricing_plan_id":"cebpf4jnsgd1na2vs0mg"},{"bike_id":"a762cc1f-46ed-4c68-b212-fadaabb54415","system_id":"levelo_inurba_marseille","lat":43.24807,"lon":5.37464,"is_reserved":false,"is_disabled":false,"rental_uris":{"android":"levelo://app?vid=a762cc1f-46ed-4c68-b212-fadaabb54415","ios":"levelo://app?vid=a762cc1f-46ed-4c68-b212-fadaabb54415"},"vehicle_type_id":"4","last_reported":1783284319,"current_range_meters":6800,"station_id":"ce4bhgh2rcd13ifvqfb0","pricing_plan_id":"cebpf4jnsgd1na2vs0mg"},{"bike_id":"c1c88b11-92f5-437b-85af-b745aa920b32","system_id":"levelo_inurba_marseille","lat":43.26693,"lon":5.38731,"is_reserved":false,"is_disabled":false,"rental_uris":{"android":"levelo://app?vid=c1c88b11-92f5-437b-85af-b745aa920b32","ios":"levelo://app?vid=c1c88b11-92f5-437b-85af-b745aa920b32"},"vehicle_type_id":"4","last_reported":1783284319,"current_range_meters":6800,"station_id":"","pricing_plan_id":"cebpf4jnsgd1na2vs0mg"},{"bike_id":"303e418e-571a-4f66-b9a3-471dfced264a","system_id":"levelo_inurba_marseille","lat":43.29503,"lon":5.38537,"is_reserved":false,"is_disabled":false,"rental_uris":{"android":"levelo://app?vid=303e418e-571a-4f66-b9a3-471dfced264a","ios":"levelo://app?vid=303e418e-571a-4f66-b9a3-471dfced264a"},"vehicle_type_id":"4","last_reported":1783284319,"current_range_meters":6800,"station_id":"ce4bgih2rcd13ifvqba0","pricing_plan_id":"cebpf4jnsgd1na2vs0mg"},{"bike_id":"b039a727-71b1-4709-945e-51f5aeb9fa7f","system_id":"levelo_inurba_marseille","lat":43.22516,"lon":5.34838,"is_reserved":false,"is_disabled":false,"rental_uris":{"android":"levelo://app?vid=b039a727-71b1-4709-945e-51f5aeb9fa7f","ios":"levelo://app?vid=b039a727-71b1-4709-945e-51f5aeb9fa7f"},"vehicle_type_id":"4","last_reported":1783284319,"current_range_meters":6800,"station_id":"st_cvj5dfep6f1abm77gieg","pricing_plan_id":"cebpf4jnsgd1na2vs0mg"},{"bike_id":"c143c9b4-d9c1-40cc-9bef-28773a3a5efa","system_id":"levelo_inurba_marseille","lat":43.29591,"lon":5.38121,"is_reserved":false,"is_disabled":false,"rental_uris":{"android":"levelo://app?vid=c143c9b4-d9c1-40cc-9bef-28773a3a5efa","ios":"levelo://app?vid=c143c9b4-d9c1-40cc-9bef-28773a3a5efa"},"vehicle_type_id":"4","last_reported":1783284319,"current_range_meters":6800,"station_id":"ce4bgl12rcd13ifvqbo0","pricing_plan_id":"cebpf4jnsgd1na2vs0mg"},{"bike_id":"bde82103-cbaa-4b3c-8470-6f82117dfebb","system_id":"levelo_inurba_marseille","lat":43.26223,"lon":5.3877,"is_reserved":false,"is_disabled":false,"rental_uris":{"android":"levelo://app?vid=bde82103-cbaa-4b3c-8470-6f82117dfebb","ios":"levelo://app?vid=bde82103-cbaa-4b3c-8470-6f82117dfebb"},"vehicle_type_id":"4","last_reported":1783284319,"current_range_meters":7200,"station_id":"st_d8gjfg747rts73coq3b0","pricing_plan_id":"cebpf4jnsgd1na2vs0mg"},{"bike_id":"19f14676-25d7-4c70-b5ee-6de2eed9cd83","system_id":"levelo_inurba_marseille","lat":43.25115,"lon":5.40353,"is_reserved":false,"is_disabled":false,"rental_uris":{"android":"levelo://app?vid=19f14676-25d7-4c70-b5ee-6de2eed9cd83","ios":"levelo://app?vid=19f14676-25d7-4c70-b5ee-6de2eed9cd83"},"vehicle_type_id":"4","last_reported":1783284319,"current_range_meters":7200,"station_id":"ce4bhlh2rcd13ifvqgig","pricing_plan_id":"cebpf4jnsgd1na2vs0mg"},{"bike_id":"be316681-336a-460f-95fa-f94c71d7aa48","system_id":"levelo_inurba_marseille","lat":43.237593,"lon":5.387278,"is_reserved":false,"is_disabled":false,"rental_uris":{"android":"levelo://app?vid=be316681-336a-460f-95fa-f94c71d7aa48","ios":"levelo://app?vid=be316681-336a-460f-95fa-f94c71d7aa48"},"vehicle_type_id":"4","last_reported":1783284319,"current_range_meters":7200,"station_id":"","pricing_plan_id":"cebpf4jnsgd1na2vs0mg"},{"bike_id":"4d52a61b-5c30-41df-a6ac-71b42f016aed","system_id":"levelo_inurba_marseille","lat":43.25837,"lon":5.39902,"is_reserved":false,"is_disabled":true,"rental_uris":{"android":"levelo://app?vid=4d52a61b-5c30-41df-a6ac-71b42f016aed","ios":"levelo://app?vid=4d52a61b-5c30-41df-a6ac-71b42f016aed"},"vehicle_type_id":"4","last_reported":1783284319,"current_range_meters":7200,"station_id":"ce4bhl92rcd13ifvqghg","pricing_plan_id":"cebpf4jnsgd1na2vs0mg"},{"bike_id":"8a6315b0-6f8f-4ece-af5c-c45b772acec5","system_id":"levelo_inurba_marseille","lat":43.3095,"lon":5.39048,"is_reserved":false,"is_disabled":false,"rental_uris":{"android":"levelo://app?vid=8a6315b0-6f8f-4ece-af5c-c45b772acec5","ios":"levelo://app?vid=8a6315b0-6f8f-4ece-af5c-c45b772acec5"},"vehicle_type_id":"4","last_reported":1783284319,"current_range_meters":7200,"station_id":"ce4bgup2rcd13ifvqco0","pricing_plan_id":"cebpf4jnsgd1na2vs0mg"},{"bike_id":"e0b63890-8d6c-4d5c-b911-4e3cfdf0494d","system_id":"levelo_inurba_marseille","lat":43.30351,"lon":5.41884,"is_reserved":false,"is_disabled":false,"rental_uris":{"android":"levelo://app?vid=e0b63890-8d6c-4d5c-b911-4e3cfdf0494d","ios":"levelo://app?vid=e0b63890-8d6c-4d5c-b911-4e3cfdf0494d"},"vehicle_type_id":"4","last_reported":1783284319,"current_range_meters":7200,"station_id":"ce4bhop2rcd13ifvqh7g","pricing_plan_id":"cebpf4jnsgd1na2vs0mg"},{"bike_id":"ae9653ca-a981-4fa4-848f-da55e76d424c","system_id":"levelo_inurba_marseille","lat":43.27202,"lon":5.40995,"is_reserved":false,"is_disabled":false,"rental_uris":{"android":"levelo://app?vid=ae9653ca-a981-4fa4-848f-da55e76d424c","ios":"levelo://app?vid=ae9653ca-a981-4fa4-848f-da55e76d424c"},"vehicle_type_id":"4","last_reported":1783284319,"current_range_meters":7200,"station_id":"ce4bhl12rcd13ifvqgf0","pricing_plan_id":"cebpf4jnsgd1na2vs0mg"},{"bike_id":"929fcbff-946e-4ced-8019-6b7c70745b0c","system_id":"levelo_inurba_marseille","lat":43.27404,"lon":5.393894,"is_reserved":false,"is_disabled":false,"rental_uris":{"android":"levelo://app?vid=929fcbff-946e-4ced-8019-6b7c70745b0c","ios":"levelo://app?vid=929fcbff-946e-4ced-8019-6b7c70745b0c"},"vehicle_type_id":"4","last_reported":1783284319,"current_range_meters":7200,"station_id":"","pricing_plan_id":"cebpf4jnsgd1na2vs0mg"},{"bike_id":"8953a3d5-e640-40cf-b58a-2ea2106e9f7d","system_id":"levelo_inurba_marseille","lat":43.2953,"lon":5.38543,"is_reserved":false,"is_disabled":false,"rental_uris":{"android":"levelo://app?vid=8953a3d5-e640-40cf-b58a-2ea2106e9f7d","ios":"levelo://app?vid=8953a3d5-e640-40cf-b58a-2ea2106e9f7d"},"vehicle_type_id":"4","last_reported":1783284319,"current_range_meters":7200,"station_id":"ce4bgih2rcd13ifvqba0","pricing_plan_id":"cebpf4jnsgd1na2vs0mg"},{"bike_id":"d3445804-aa86-4322-9d7c-8853ed1e9664","system_id":"levelo_inurba_marseille","lat":43.2955,"lon":5.42263,"is_reserved":false,"is_disabled":false,"rental_uris":{"android":"levelo://app?vid=d3445804-aa86-4322-9d7c-8853ed1e9664","ios":"levelo://app?vid=d3445804-aa86-4322-9d7c-8853ed1e9664"},"vehicle_type_id":"4","last_reported":1783284319,"current_range_meters":7200,"station_id":"ce4bhph2rcd13ifvqhdg","pricing_plan_id":"cebpf4jnsgd1na2vs0mg"},{"bike_id":"64bf0160-8d27-43dd-b37b-f0902d5032ce","system_id":"levelo_inurba_marseille","lat":43.29452,"lon":5.43294,"is_reserved":false,"is_disabled":false,"rental_uris":{"android":"levelo://app?vid=64bf0160-8d27-43dd-b37b-f0902d5032ce","ios":"levelo://app?vid=64bf0160-8d27-43dd-b37b-f0902d5032ce"},"vehicle_type_id":"4","last_reported":1783284319,"current_range_meters":7200,"station_id":"","pricing_plan_id":"cebpf4jnsgd1na2vs0mg"},{"bike_id":"87e329d1-07c9-4943-b786-73308ca86c51","system_id":"levelo_inurba_marseille","lat":43.29032,"lon":5.38672,"is_reserved":false,"is_disabled":false,"rental_uris":{"android":"levelo://app?vid=87e329d1-07c9-4943-b786-73308ca86c51","ios":"levelo://app?vid=87e329d1-07c9-4943-b786-73308ca86c51"},"vehicle_type_id":"4","last_reported":1783284319,"current_range_meters":7200,"station_id":"ce4bh4p2rcd13ifvqe0g","pricing_plan_id":"cebpf4jnsgd1na2vs0mg"},{"bike_id":"6f7a01a8-ee4c-4eed-b676-8bb956e41341","system_id":"levelo_inurba_marseille","lat":43.28975,"lon":5.42493,"is_reserved":false,"is_disabled":false,"rental_uris":{"android":"levelo://app?vid=6f7a01a8-ee4c-4eed-b676-8bb956e41341","ios":"levelo://app?vid=6f7a01a8-ee4c-4eed-b676-8bb956e41341"},"vehicle_type_id":"4","last_reported":1783284319,"current_range_meters":7200,"station_id":"","pricing_plan_id":"cebpf4jnsgd1na2vs0mg"},{"bike_id":"ccd664e5-57b3-4866-b348-4456c0473833","system_id":"levelo_inurba_marseille","lat":43.3095,"lon":5.39031,"is_reserved":false,"is_disabled":false,"rental_uris":{"android":"levelo://app?vid=ccd664e5-57b3-4866-b348-4456c0473833","ios":"levelo://app?vid=ccd664e5-57b3-4866-b348-4456c0473833"},"vehicle_type_id":"4","last_reported":1783284319,"current_range_meters":7200,"station_id":"ce4bgup2rcd13ifvqco0","pricing_plan_id":"cebpf4jnsgd1na2vs0mg"},{"bike_id":"ac45b691-a3e7-4279-bea7-5da2c5afb3c2","system_id":"levelo_inurba_marseille","lat":43.29032,"lon":5.37554,"is_reserved":false,"is_disabled":true,"rental_uris":{"android":"levelo://app?vid=ac45b691-a3e7-4279-bea7-5da2c5afb3c2","ios":"levelo://app?vid=ac45b691-a3e7-4279-bea7-5da2c5afb3c2"},"vehicle_type_id":"4","last_reported":1783284319,"current_range_meters":7200,"station_id":"ce4bh692rcd13ifvqe90","pricing_plan_id":"cebpf4jnsgd1na2vs0mg"},{"bike_id":"a67a14fb-4c58-4032-bbc6-f58d8881628f","system_id":"levelo_inurba_marseille","lat":43.24499,"lon":5.3971,"is_reserved":false,"is_disabled":false,"rental_uris":{"android":"levelo://app?vid=a67a14fb-4c58-4032-bbc6-f58d8881628f","ios":"levelo://app?vid=a67a14fb-4c58-4032-bbc6-f58d8881628f"},"vehicle_type_id":"4","last_reported":1783284319,"current_range_meters":7200,"station_id":"","pricing_plan_id":"cebpf4jnsgd1na2vs0mg"},{"bike_id":"d7bdf02b-f3fd-45f2-81d9-58303be36804","system_id":"levelo_inurba_marseille","lat":43.29907,"lon":5.38142,"is_reserved":false,"is_disabled":false,"rental_uris":{"android":"levelo://app?vid=d7bdf02b-f3fd-45f2-81d9-58303be36804","ios":"levelo://app?vid=d7bdf02b-f3fd-45f2-81d9-58303be36804"},"vehicle_type_id":"4","last_reported":1783284319,"current_range_meters":7200,"station_id":"ce4bgj12rcd13ifvqbc0","pricing_plan_id":"cebpf4jnsgd1na2vs0mg"},{"bike_id":"8b7d5a52-2efb-40d1-a243-f01d6c3720d8","system_id":"levelo_inurba_marseille","lat":43.30799,"lon":5.37642,"is_reserved":false,"is_disabled":false,"rental_uris":{"android":"levelo://app?vid=8b7d5a52-2efb-40d1-a243-f01d6c3720d8","ios":"levelo://app?vid=8b7d5a52-2efb-40d1-a243-f01d6c3720d8"},"vehicle_type_id":"4","last_reported":1783284319,"current_range_meters":7200,"station_id":"ce4bgv92rcd13ifvqcq0","pricing_plan_id":"cebpf4jnsgd1na2vs0mg"},{"bike_id":"b6f7cc04-ef49-4b64-941d-f75a9fd509e8","system_id":"levelo_inurba_marseille","lat":43.302169,"lon":5.394722,"is_reserved":false,"is_disabled":false,"rental_uris":{"android":"levelo://app?vid=b6f7cc04-ef49-4b64-941d-f75a9fd509e8","ios":"levelo://app?vid=b6f7cc04-ef49-4b64-941d-f75a9fd509e8"},"vehicle_type_id":"4","last_reported":1783284319,"current_range_meters":7200,"station_id":"ce4bh0p2rcd13ifvqd70","pricing_plan_id":"cebpf4jnsgd1na2vs0mg"},{"bike_id":"9e456402-c486-41b9-a74c-8f403e2a35f7","system_id":"levelo_inurba_marseille","lat":43.26228,"lon":5.38774,"is_reserved":false,"is_disabled":false,"rental_uris":{"android":"levelo://app?vid=9e456402-c486-41b9-a74c-8f403e2a35f7","ios":"levelo://app?vid=9e456402-c486-41b9-a74c-8f403e2a35f7"},"vehicle_type_id":"4","last_reported":1783284319,"current_range_meters":7200,"station_id":"st_d8gjfg747rts73coq3b0","pricing_plan_id":"cebpf4jnsgd1na2vs0mg"},{"bike_id":"dccc9b6f-3c58-452f-924c-ab219bd04cee","system_id":"levelo_inurba_marseille","lat":43.28943,"lon":5.36652,"is_reserved":false,"is_disabled":true,"rental_uris":{"android":"levelo://app?vid=dccc9b6f-3c58-452f-924c-ab219bd04cee","ios":"levelo://app?vid=dccc9b6f-3c58-452f-924c-ab219bd04cee"},"vehicle_type_id":"4","last_reported":1783284319,"current_range_meters":8000,"station_id":"ce4bhap2rcd13ifvqek0","pricing_plan_id":"cebpf4jnsgd1na2vs0mg"},{"bike_id":"85706f81-4982-4276-b755-d4181aa895f9","system_id":"levelo_inurba_marseille","lat":43.28403,"lon":5.3844,"is_reserved":false,"is_disabled":false,"rental_uris":{"android":"levelo://app?vid=85706f81-4982-4276-b755-d4181aa895f9","ios":"levelo://app?vid=85706f81-4982-4276-b755-d4181aa895f9"},"vehicle_type_id":"4","last_reported":1783284319,"current_range_meters":8000,"station_id":"","pricing_plan_id":"cebpf4jnsgd1na2vs0mg"},{"bike_id":"620ecdae-2a2a-4d24-bbf4-c953fc744dbb","system_id":"levelo_inurba_marseille","lat":43.29765,"lon":5.37825,"is_reserved":false,"is_disabled":false,"rental_uris":{"android":"levelo://app?vid=620ecdae-2a2a-4d24-bbf4-c953fc744dbb","ios":"levelo://app?vid=620ecdae-2a2a-4d24-bbf4-c953fc744dbb"},"vehicle_type_id":"4","last_reported":1783284319,"current_range_meters":8000,"station_id":"","pricing_plan_id":"cebpf4jnsgd1na2vs0mg"},{"bike_id":"19914a48-7974-4b8e-b8a2-de423df83549","system_id":"levelo_inurba_marseille","lat":43.28699,"lon":5.46676,"is_reserved":false,"is_disabled":false,"rental_uris":{"android":"levelo://app?vid=19914a48-7974-4b8e-b8a2-de423df83549","ios":"levelo://app?vid=19914a48-7974-4b8e-b8a2-de423df83549"},"vehicle_type_id":"4","last_reported":1783284319,"current_range_meters":8000,"station_id":"st_d6tc3vkotcvc738tfjhg","pricing_plan_id":"cebpf4jnsgd1na2vs0mg"},{"bike_id":"5a1574b6-cafc-424f-8346-d332b4a59231","system_id":"levelo_inurba_marseille","lat":43.31142,"lon":5.38294,"is_reserved":false,"is_disabled":false,"rental_uris":{"android":"levelo://app?vid=5a1574b6-cafc-424f-8346-d332b4a59231","ios":"levelo://app?vid=5a1574b6-cafc-424f-8346-d332b4a59231"},"vehicle_type_id":"4","last_reported":1783284319,"current_range_meters":8000,"station_id":"","pricing_plan_id":"cebpf4jnsgd1na2vs0mg"},{"bike_id":"138e49e7-8d22-4832-895c-d97d918d2d72","system_id":"levelo_inurba_marseille","lat":43.27818,"lon":5.36447,"is_reserved":false,"is_disabled":false,"rental_uris":{"android":"levelo://app?vid=138e49e7-8d22-4832-895c-d97d918d2d72","ios":"levelo://app?vid=138e49e7-8d22-4832-895c-d97d918d2d72"},"vehicle_type_id":"4","last_reported":1783284319,"current_range_meters":8000,"station_id":"","pricing_plan_id":"cebpf4jnsgd1na2vs0mg"},{"bike_id":"cb323477-6ef8-40b8-86c4-727ab066d2c6","system_id":"levelo_inurba_marseille","lat":43.27063,"lon":5.42285,"is_reserved":false,"is_disabled":false,"rental_uris":{"android":"levelo://app?vid=cb323477-6ef8-40b8-86c4-727ab066d2c6","ios":"levelo://app?vid=cb323477-6ef8-40b8-86c4-727ab066d2c6"},"vehicle_type_id":"4","last_reported":1783284319,"current_range_meters":8000,"station_id":"ce4bhk92rcd13ifvqgb0","pricing_plan_id":"cebpf4jnsgd1na2vs0mg"},{"bike_id":"72e05744-d105-4c58-8a4c-50dda3220f03","system_id":"levelo_inurba_marseille","lat":43.296724,"lon":5.372941,"is_reserved":false,"is_disabled":false,"rental_uris":{"android":"levelo://app?vid=72e05744-d105-4c58-8a4c-50dda3220f03","ios":"levelo://app?vid=72e05744-d105-4c58-8a4c-50dda3220f03"},"vehicle_type_id":"4","last_reported":1783284319,"current_range_meters":8000,"station_id":"ce4bgk12rcd13ifvqbj0","pricing_plan_id":"cebpf4jnsgd1na2vs0mg"},{"bike_id":"f48fb307-4f01-41ec-a47c-f725f70398cd","system_id":"levelo_inurba_marseille","lat":43.29535,"lon":5.38544,"is_reserved":false,"is_disabled":false,"rental_uris":{"android":"levelo://app?vid=f48fb307-4f01-41ec-a47c-f725f70398cd","ios":"levelo://app?vid=f48fb307-4f01-41ec-a47c-f725f70398cd"},"vehicle_type_id":"4","last_reported":1783284319,"current_range_meters":8000,"station_id":"ce4bgih2rcd13ifvqba0","pricing_plan_id":"cebpf4jnsgd1na2vs0mg"},{"bike_id":"d62a5f06-a4d3-43f1-8950-c438f1f04a18","system_id":"levelo_inurba_marseille","lat":43.27483,"lon":5.40522,"is_reserved":false,"is_disabled":false,"rental_uris":{"android":"levelo://app?vid=d62a5f06-a4d3-43f1-8950-c438f1f04a18","ios":"levelo://app?vid=d62a5f06-a4d3-43f1-8950-c438f1f04a18"},