{"last_updated":1777536165,"ttl":60,"version":"2.2","data":{"bikes":[{"bike_id":"b1d3ba5a-87c6-4c44-87e3-b66a5b2dce09","system_id":"levelo_inurba_marseille","lat":43.29612,"lon":5.37742,"is_reserved":false,"is_disabled":false,"rental_uris":{"android":"levelo://app?vid=b1d3ba5a-87c6-4c44-87e3-b66a5b2dce09","ios":"levelo://app?vid=b1d3ba5a-87c6-4c44-87e3-b66a5b2dce09"},"vehicle_type_id":"4","last_reported":1777536165,"current_range_meters":2800,"station_id":"ce4bgi92rcd13ifvqb90","pricing_plan_id":"cebpf4jnsgd1na2vs0mg"},{"bike_id":"21fa33d0-28a0-4e0a-9999-8d9d767ac49c","system_id":"levelo_inurba_marseille","lat":43.27033,"lon":5.38641,"is_reserved":false,"is_disabled":false,"rental_uris":{"android":"levelo://app?vid=21fa33d0-28a0-4e0a-9999-8d9d767ac49c","ios":"levelo://app?vid=21fa33d0-28a0-4e0a-9999-8d9d767ac49c"},"vehicle_type_id":"4","last_reported":1777536165,"current_range_meters":2800,"station_id":"","pricing_plan_id":"cebpf4jnsgd1na2vs0mg"},{"bike_id":"341d1e8b-eda7-4fb8-829d-1be9d91cd487","system_id":"levelo_inurba_marseille","lat":43.23144,"lon":5.43724,"is_reserved":false,"is_disabled":false,"rental_uris":{"android":"levelo://app?vid=341d1e8b-eda7-4fb8-829d-1be9d91cd487","ios":"levelo://app?vid=341d1e8b-eda7-4fb8-829d-1be9d91cd487"},"vehicle_type_id":"4","last_reported":1777536165,"current_range_meters":2800,"station_id":"ce4bhmp2rcd13ifvqgog","pricing_plan_id":"cebpf4jnsgd1na2vs0mg"},{"bike_id":"36a88428-e754-4363-93d1-89cd7a8e2550","system_id":"levelo_inurba_marseille","lat":43.29193,"lon":5.38582,"is_reserved":false,"is_disabled":false,"rental_uris":{"android":"levelo://app?vid=36a88428-e754-4363-93d1-89cd7a8e2550","ios":"levelo://app?vid=36a88428-e754-4363-93d1-89cd7a8e2550"},"vehicle_type_id":"4","last_reported":1777536165,"current_range_meters":2800,"station_id":"","pricing_plan_id":"cebpf4jnsgd1na2vs0mg"},{"bike_id":"b6b9dc95-b24c-47f9-a3be-6d9f83dd84a1","system_id":"levelo_inurba_marseille","lat":43.29511,"lon":5.37502,"is_reserved":false,"is_disabled":true,"rental_uris":{"android":"levelo://app?vid=b6b9dc95-b24c-47f9-a3be-6d9f83dd84a1","ios":"levelo://app?vid=b6b9dc95-b24c-47f9-a3be-6d9f83dd84a1"},"vehicle_type_id":"4","last_reported":1777536165,"current_range_meters":2800,"station_id":"ce4bgkp2rcd13ifvqbmg","pricing_plan_id":"cebpf4jnsgd1na2vs0mg"},{"bike_id":"92f3985c-2c50-4589-a4e5-b365bc0828db","system_id":"levelo_inurba_marseille","lat":43.27172,"lon":5.40997,"is_reserved":false,"is_disabled":false,"rental_uris":{"android":"levelo://app?vid=92f3985c-2c50-4589-a4e5-b365bc0828db","ios":"levelo://app?vid=92f3985c-2c50-4589-a4e5-b365bc0828db"},"vehicle_type_id":"4","last_reported":1777536165,"current_range_meters":2800,"station_id":"ce4bhl12rcd13ifvqgf0","pricing_plan_id":"cebpf4jnsgd1na2vs0mg"},{"bike_id":"a1ad7b96-2833-4570-89ea-48ab00060f27","system_id":"levelo_inurba_marseille","lat":43.26555,"lon":5.39012,"is_reserved":false,"is_disabled":false,"rental_uris":{"android":"levelo://app?vid=a1ad7b96-2833-4570-89ea-48ab00060f27","ios":"levelo://app?vid=a1ad7b96-2833-4570-89ea-48ab00060f27"},"vehicle_type_id":"4","last_reported":1777536165,"current_range_meters":2800,"station_id":"ce4bhe12rcd13ifvqf30","pricing_plan_id":"cebpf4jnsgd1na2vs0mg"},{"bike_id":"648ca2f9-7f16-4411-8d8f-f09f5f32e518","system_id":"levelo_inurba_marseille","lat":43.28623,"lon":5.35101,"is_reserved":false,"is_disabled":false,"rental_uris":{"android":"levelo://app?vid=648ca2f9-7f16-4411-8d8f-f09f5f32e518","ios":"levelo://app?vid=648ca2f9-7f16-4411-8d8f-f09f5f32e518"},"vehicle_type_id":"4","last_reported":1777536165,"current_range_meters":2800,"station_id":"ce4bhch2rcd13ifvqeug","pricing_plan_id":"cebpf4jnsgd1na2vs0mg"},{"bike_id":"bc5cae0d-bb27-4121-bfa7-16771be3b2b8","system_id":"levelo_inurba_marseille","lat":43.2816,"lon":5.42629,"is_reserved":false,"is_disabled":false,"rental_uris":{"android":"levelo://app?vid=bc5cae0d-bb27-4121-bfa7-16771be3b2b8","ios":"levelo://app?vid=bc5cae0d-bb27-4121-bfa7-16771be3b2b8"},"vehicle_type_id":"4","last_reported":1777536165,"current_range_meters":2800,"station_id":"ce4bhnh2rcd13ifvqgug","pricing_plan_id":"cebpf4jnsgd1na2vs0mg"},{"bike_id":"ea26fbb8-1fe9-45fd-86a8-020ce9ce5f0e","system_id":"levelo_inurba_marseille","lat":43.27097,"lon":5.39022,"is_reserved":false,"is_disabled":false,"rental_uris":{"android":"levelo://app?vid=ea26fbb8-1fe9-45fd-86a8-020ce9ce5f0e","ios":"levelo://app?vid=ea26fbb8-1fe9-45fd-86a8-020ce9ce5f0e"},"vehicle_type_id":"4","last_reported":1777536165,"current_range_meters":2800,"station_id":"","pricing_plan_id":"cebpf4jnsgd1na2vs0mg"},{"bike_id":"1132fbdf-d3e2-4de2-bcb2-c2fe9eae3094","system_id":"levelo_inurba_marseille","lat":43.28076,"lon":5.39672,"is_reserved":false,"is_disabled":false,"rental_uris":{"android":"levelo://app?vid=1132fbdf-d3e2-4de2-bcb2-c2fe9eae3094","ios":"levelo://app?vid=1132fbdf-d3e2-4de2-bcb2-c2fe9eae3094"},"vehicle_type_id":"4","last_reported":1777536165,"current_range_meters":2800,"station_id":"ce4bho12rcd13ifvqh2g","pricing_plan_id":"cebpf4jnsgd1na2vs0mg"},{"bike_id":"102ae60f-89a9-4657-95b6-c473b933912b","system_id":"levelo_inurba_marseille","lat":43.29776,"lon":5.39339,"is_reserved":false,"is_disabled":false,"rental_uris":{"android":"levelo://app?vid=102ae60f-89a9-4657-95b6-c473b933912b","ios":"levelo://app?vid=102ae60f-89a9-4657-95b6-c473b933912b"},"vehicle_type_id":"4","last_reported":1777536165,"current_range_meters":2800,"station_id":"chh1huq6cuj3fo74tm60","pricing_plan_id":"cebpf4jnsgd1na2vs0mg"},{"bike_id":"ea36c9e8-58b8-4f79-a3ce-b396281d3b24","system_id":"levelo_inurba_marseille","lat":43.305074,"lon":5.380769,"is_reserved":false,"is_disabled":false,"rental_uris":{"android":"levelo://app?vid=ea36c9e8-58b8-4f79-a3ce-b396281d3b24","ios":"levelo://app?vid=ea36c9e8-58b8-4f79-a3ce-b396281d3b24"},"vehicle_type_id":"4","last_reported":1777536165,"current_range_meters":2800,"station_id":"","pricing_plan_id":"cebpf4jnsgd1na2vs0mg"},{"bike_id":"e17f4dbb-0b90-4c74-8721-1add9b2830ea","system_id":"levelo_inurba_marseille","lat":43.31219,"lon":5.3686,"is_reserved":false,"is_disabled":false,"rental_uris":{"android":"levelo://app?vid=e17f4dbb-0b90-4c74-8721-1add9b2830ea","ios":"levelo://app?vid=e17f4dbb-0b90-4c74-8721-1add9b2830ea"},"vehicle_type_id":"4","last_reported":1777536165,"current_range_meters":2800,"station_id":"ce4bgl92rcd13ifvqbq0","pricing_plan_id":"cebpf4jnsgd1na2vs0mg"},{"bike_id":"9a79157d-af64-4144-8bc0-b06101fcd174","system_id":"levelo_inurba_marseille","lat":43.2593,"lon":5.40903,"is_reserved":false,"is_disabled":false,"rental_uris":{"android":"levelo://app?vid=9a79157d-af64-4144-8bc0-b06101fcd174","ios":"levelo://app?vid=9a79157d-af64-4144-8bc0-b06101fcd174"},"vehicle_type_id":"4","last_reported":1777536165,"current_range_meters":2800,"station_id":"ce4bhm92rcd13ifvqglg","pricing_plan_id":"cebpf4jnsgd1na2vs0mg"},{"bike_id":"4d9c6e75-1c50-4e1f-ab8b-c27b2170820f","system_id":"levelo_inurba_marseille","lat":43.2835,"lon":5.38106,"is_reserved":false,"is_disabled":false,"rental_uris":{"android":"levelo://app?vid=4d9c6e75-1c50-4e1f-ab8b-c27b2170820f","ios":"levelo://app?vid=4d9c6e75-1c50-4e1f-ab8b-c27b2170820f"},"vehicle_type_id":"4","last_reported":1777536165,"current_range_meters":3200,"station_id":"ce4bh412rcd13ifvqdr0","pricing_plan_id":"cebpf4jnsgd1na2vs0mg"},{"bike_id":"b4a497ea-222e-419c-a826-4feb72e6ade8","system_id":"levelo_inurba_marseille","lat":43.28706,"lon":5.46674,"is_reserved":false,"is_disabled":false,"rental_uris":{"android":"levelo://app?vid=b4a497ea-222e-419c-a826-4feb72e6ade8","ios":"levelo://app?vid=b4a497ea-222e-419c-a826-4feb72e6ade8"},"vehicle_type_id":"4","last_reported":1777536165,"current_range_meters":3200,"station_id":"st_d6tc3vkotcvc738tfjhg","pricing_plan_id":"cebpf4jnsgd1na2vs0mg"},{"bike_id":"d4d191c1-1e42-44ce-acaa-f4fdd3a7ce8e","system_id":"levelo_inurba_marseille","lat":43.28536,"lon":5.38501,"is_reserved":false,"is_disabled":false,"rental_uris":{"android":"levelo://app?vid=d4d191c1-1e42-44ce-acaa-f4fdd3a7ce8e","ios":"levelo://app?vid=d4d191c1-1e42-44ce-acaa-f4fdd3a7ce8e"},"vehicle_type_id":"4","last_reported":1777536165,"current_range_meters":3200,"station_id":"","pricing_plan_id":"cebpf4jnsgd1na2vs0mg"},{"bike_id":"6e5b6dae-47c2-4560-a34e-9c7316bfef54","system_id":"levelo_inurba_marseille","lat":43.28411,"lon":5.39199,"is_reserved":false,"is_disabled":false,"rental_uris":{"android":"levelo://app?vid=6e5b6dae-47c2-4560-a34e-9c7316bfef54","ios":"levelo://app?vid=6e5b6dae-47c2-4560-a34e-9c7316bfef54"},"vehicle_type_id":"4","last_reported":1777536165,"current_range_meters":3200,"station_id":"ce4bhoh2rcd13ifvqh5g","pricing_plan_id":"cebpf4jnsgd1na2vs0mg"},{"bike_id":"94f11d13-a2b0-4f18-a58b-01e14d3c2001","system_id":"levelo_inurba_marseille","lat":43.24096,"lon":5.37754,"is_reserved":false,"is_disabled":true,"rental_uris":{"android":"levelo://app?vid=94f11d13-a2b0-4f18-a58b-01e14d3c2001","ios":"levelo://app?vid=94f11d13-a2b0-4f18-a58b-01e14d3c2001"},"vehicle_type_id":"4","last_reported":1777536165,"current_range_meters":3200,"station_id":"ce4bhnp2rcd13ifvqgvg","pricing_plan_id":"cebpf4jnsgd1na2vs0mg"},{"bike_id":"f6dce53f-7018-47f9-bfd2-251ba4be96ae","system_id":"levelo_inurba_marseille","lat":43.26359,"lon":5.41088,"is_reserved":false,"is_disabled":false,"rental_uris":{"android":"levelo://app?vid=f6dce53f-7018-47f9-bfd2-251ba4be96ae","ios":"levelo://app?vid=f6dce53f-7018-47f9-bfd2-251ba4be96ae"},"vehicle_type_id":"4","last_reported":1777536165,"current_range_meters":3200,"station_id":"st_d4e5ca6na9uc73bfl5fg","pricing_plan_id":"cebpf4jnsgd1na2vs0mg"},{"bike_id":"7bd770c4-4531-4c57-a651-ffa6ac060caa","system_id":"levelo_inurba_marseille","lat":43.27578,"lon":5.38405,"is_reserved":false,"is_disabled":false,"rental_uris":{"android":"levelo://app?vid=7bd770c4-4531-4c57-a651-ffa6ac060caa","ios":"levelo://app?vid=7bd770c4-4531-4c57-a651-ffa6ac060caa"},"vehicle_type_id":"4","last_reported":1777536165,"current_range_meters":3200,"station_id":"ce4bhh92rcd13ifvqfi0","pricing_plan_id":"cebpf4jnsgd1na2vs0mg"},{"bike_id":"e841d6e3-fc80-4953-affe-f2a728a44380","system_id":"levelo_inurba_marseille","lat":43.27747,"lon":5.35619,"is_reserved":false,"is_disabled":false,"rental_uris":{"android":"levelo://app?vid=e841d6e3-fc80-4953-affe-f2a728a44380","ios":"levelo://app?vid=e841d6e3-fc80-4953-affe-f2a728a44380"},"vehicle_type_id":"4","last_reported":1777536165,"current_range_meters":3200,"station_id":"","pricing_plan_id":"cebpf4jnsgd1na2vs0mg"},{"bike_id":"f11e3633-986d-40f4-8b5f-6b5e41220dfc","system_id":"levelo_inurba_marseille","lat":43.31897,"lon":5.36798,"is_reserved":false,"is_disabled":false,"rental_uris":{"android":"levelo://app?vid=f11e3633-986d-40f4-8b5f-6b5e41220dfc","ios":"levelo://app?vid=f11e3633-986d-40f4-8b5f-6b5e41220dfc"},"vehicle_type_id":"4","last_reported":1777536165,"current_range_meters":3200,"station_id":"st_d6o2h0d0559c73evc1b0","pricing_plan_id":"cebpf4jnsgd1na2vs0mg"},{"bike_id":"29d16a6f-90c9-4baf-bf24-091d9a18ebcc","system_id":"levelo_inurba_marseille","lat":43.316971,"lon":5.371762,"is_reserved":false,"is_disabled":true,"rental_uris":{"android":"levelo://app?vid=29d16a6f-90c9-4baf-bf24-091d9a18ebcc","ios":"levelo://app?vid=29d16a6f-90c9-4baf-bf24-091d9a18ebcc"},"vehicle_type_id":"4","last_reported":1777536165,"current_range_meters":3200,"station_id":"ce4bhh12rcd13ifvqff0","pricing_plan_id":"cebpf4jnsgd1na2vs0mg"},{"bike_id":"490d543e-6b30-4b0c-b6b3-5dfd9086fe8a","system_id":"levelo_inurba_marseille","lat":43.28534,"lon":5.38372,"is_reserved":false,"is_disabled":true,"rental_uris":{"android":"levelo://app?vid=490d543e-6b30-4b0c-b6b3-5dfd9086fe8a","ios":"levelo://app?vid=490d543e-6b30-4b0c-b6b3-5dfd9086fe8a"},"vehicle_type_id":"4","last_reported":1777536165,"current_range_meters":3200,"station_id":"ce4bh512rcd13ifvqe3g","pricing_plan_id":"cebpf4jnsgd1na2vs0mg"},{"bike_id":"39c090b7-9a74-4e0c-add2-1000b75cfa22","system_id":"levelo_inurba_marseille","lat":43.25852,"lon":5.39437,"is_reserved":false,"is_disabled":false,"rental_uris":{"android":"levelo://app?vid=39c090b7-9a74-4e0c-add2-1000b75cfa22","ios":"levelo://app?vid=39c090b7-9a74-4e0c-add2-1000b75cfa22"},"vehicle_type_id":"4","last_reported":1777536165,"current_range_meters":3200,"station_id":"ce4bhip2rcd13ifvqft0","pricing_plan_id":"cebpf4jnsgd1na2vs0mg"},{"bike_id":"f6369793-c644-42fb-92f5-89f0960847b0","system_id":"levelo_inurba_marseille","lat":43.288597,"lon":5.358386,"is_reserved":false,"is_disabled":false,"rental_uris":{"android":"levelo://app?vid=f6369793-c644-42fb-92f5-89f0960847b0","ios":"levelo://app?vid=f6369793-c644-42fb-92f5-89f0960847b0"},"vehicle_type_id":"4","last_reported":1777536165,"current_range_meters":3600,"station_id":"ce4bhb12rcd13ifvqem0","pricing_plan_id":"cebpf4jnsgd1na2vs0mg"},{"bike_id":"b3dd87fc-47f3-44b7-b1f2-1f3f2c80d205","system_id":"levelo_inurba_marseille","lat":43.27818,"lon":5.40712,"is_reserved":false,"is_disabled":false,"rental_uris":{"android":"levelo://app?vid=b3dd87fc-47f3-44b7-b1f2-1f3f2c80d205","ios":"levelo://app?vid=b3dd87fc-47f3-44b7-b1f2-1f3f2c80d205"},"vehicle_type_id":"4","last_reported":1777536165,"current_range_meters":3600,"station_id":"ce4bhnh2rcd13ifvqgtg","pricing_plan_id":"cebpf4jnsgd1na2vs0mg"},{"bike_id":"50c3544a-a068-4ff7-9d4a-a869a4cf45f2","system_id":"levelo_inurba_marseille","lat":43.29111,"lon":5.38107,"is_reserved":false,"is_disabled":false,"rental_uris":{"android":"levelo://app?vid=50c3544a-a068-4ff7-9d4a-a869a4cf45f2","ios":"levelo://app?vid=50c3544a-a068-4ff7-9d4a-a869a4cf45f2"},"vehicle_type_id":"4","last_reported":1777536165,"current_range_meters":3600,"station_id":"ce4bh512rcd13ifvqe2g","pricing_plan_id":"cebpf4jnsgd1na2vs0mg"},{"bike_id":"e1d26622-7491-4fdf-a6f0-77cbc7cac2ef","system_id":"levelo_inurba_marseille","lat":43.24165,"lon":5.36403,"is_reserved":false,"is_disabled":false,"rental_uris":{"android":"levelo://app?vid=e1d26622-7491-4fdf-a6f0-77cbc7cac2ef","ios":"levelo://app?vid=e1d26622-7491-4fdf-a6f0-77cbc7cac2ef"},"vehicle_type_id":"4","last_reported":1777536165,"current_range_meters":3600,"station_id":"cpo36qri1sfpv3e86is0","pricing_plan_id":"cebpf4jnsgd1na2vs0mg"},{"bike_id":"c532e564-dd7d-4c6b-8525-42a2291097f6","system_id":"levelo_inurba_marseille","lat":43.300803,"lon":5.390701,"is_reserved":false,"is_disabled":false,"rental_uris":{"android":"levelo://app?vid=c532e564-dd7d-4c6b-8525-42a2291097f6","ios":"levelo://app?vid=c532e564-dd7d-4c6b-8525-42a2291097f6"},"vehicle_type_id":"4","last_reported":1777536165,"current_range_meters":3600,"station_id":"ce4bh192rcd13ifvqdb0","pricing_plan_id":"cebpf4jnsgd1na2vs0mg"},{"bike_id":"cdecdba8-0440-4e27-8f88-2f26c7919ff8","system_id":"levelo_inurba_marseille","lat":43.28549,"lon":5.37221,"is_reserved":false,"is_disabled":false,"rental_uris":{"android":"levelo://app?vid=cdecdba8-0440-4e27-8f88-2f26c7919ff8","ios":"levelo://app?vid=cdecdba8-0440-4e27-8f88-2f26c7919ff8"},"vehicle_type_id":"4","last_reported":1777536165,"current_range_meters":3600,"station_id":"","pricing_plan_id":"cebpf4jnsgd1na2vs0mg"},{"bike_id":"e28ee9fd-4d27-4343-815f-4fe16ddfc2c7","system_id":"levelo_inurba_marseille","lat":43.27064,"lon":5.38327,"is_reserved":false,"is_disabled":false,"rental_uris":{"android":"levelo://app?vid=e28ee9fd-4d27-4343-815f-4fe16ddfc2c7","ios":"levelo://app?vid=e28ee9fd-4d27-4343-815f-4fe16ddfc2c7"},"vehicle_type_id":"4","last_reported":1777536165,"current_range_meters":3600,"station_id":"st_d3n2fo6cfp8s73cte1j0","pricing_plan_id":"cebpf4jnsgd1na2vs0mg"},{"bike_id":"5e4372d3-fba2-470f-9034-af3ba5bb5e2e","system_id":"levelo_inurba_marseille","lat":43.27305,"lon":5.39046,"is_reserved":false,"is_disabled":true,"rental_uris":{"android":"levelo://app?vid=5e4372d3-fba2-470f-9034-af3ba5bb5e2e","ios":"levelo://app?vid=5e4372d3-fba2-470f-9034-af3ba5bb5e2e"},"vehicle_type_id":"4","last_reported":1777536165,"current_range_meters":3600,"station_id":"ce4bhgp2rcd13ifvqfe0","pricing_plan_id":"cebpf4jnsgd1na2vs0mg"},{"bike_id":"ce816298-ecea-420f-b6f0-f35a3748c3d4","system_id":"levelo_inurba_marseille","lat":43.27336,"lon":5.39089,"is_reserved":false,"is_disabled":false,"rental_uris":{"android":"levelo://app?vid=ce816298-ecea-420f-b6f0-f35a3748c3d4","ios":"levelo://app?vid=ce816298-ecea-420f-b6f0-f35a3748c3d4"},"vehicle_type_id":"4","last_reported":1777536165,"current_range_meters":3600,"station_id":"ce4bhgp2rcd13ifvqfe0","pricing_plan_id":"cebpf4jnsgd1na2vs0mg"},{"bike_id":"d37bdc7b-5aa2-4f3c-a5f3-583a0654fe30","system_id":"levelo_inurba_marseille","lat":43.24391,"lon":5.37084,"is_reserved":false,"is_disabled":false,"rental_uris":{"android":"levelo://app?vid=d37bdc7b-5aa2-4f3c-a5f3-583a0654fe30","ios":"levelo://app?vid=d37bdc7b-5aa2-4f3c-a5f3-583a0654fe30"},"vehicle_type_id":"4","last_reported":1777536165,"current_range_meters":3600,"station_id":"ce4bhhh2rcd13ifvqfk0","pricing_plan_id":"cebpf4jnsgd1na2vs0mg"},{"bike_id":"f93fb46f-580d-4a20-9471-d8d0458346ec","system_id":"levelo_inurba_marseille","lat":43.26227,"lon":5.38761,"is_reserved":false,"is_disabled":false,"rental_uris":{"android":"levelo://app?vid=f93fb46f-580d-4a20-9471-d8d0458346ec","ios":"levelo://app?vid=f93fb46f-580d-4a20-9471-d8d0458346ec"},"vehicle_type_id":"4","last_reported":1777536165,"current_range_meters":3600,"station_id":"","pricing_plan_id":"cebpf4jnsgd1na2vs0mg"},{"bike_id":"775c7593-b564-472a-8ae0-d60f16f8d110","system_id":"levelo_inurba_marseille","lat":43.24803,"lon":5.37468,"is_reserved":false,"is_disabled":false,"rental_uris":{"android":"levelo://app?vid=775c7593-b564-472a-8ae0-d60f16f8d110","ios":"levelo://app?vid=775c7593-b564-472a-8ae0-d60f16f8d110"},"vehicle_type_id":"4","last_reported":1777536165,"current_range_meters":3600,"station_id":"ce4bhgh2rcd13ifvqfb0","pricing_plan_id":"cebpf4jnsgd1na2vs0mg"},{"bike_id":"0b375e78-3e7a-4e59-bd55-c88bed718f68","system_id":"levelo_inurba_marseille","lat":43.27961,"lon":5.3875,"is_reserved":false,"is_disabled":false,"rental_uris":{"android":"levelo://app?vid=0b375e78-3e7a-4e59-bd55-c88bed718f68","ios":"levelo://app?vid=0b375e78-3e7a-4e59-bd55-c88bed718f68"},"vehicle_type_id":"4","last_reported":1777536165,"current_range_meters":3600,"station_id":"ce4bhg12rcd13ifvqf80","pricing_plan_id":"cebpf4jnsgd1na2vs0mg"},{"bike_id":"bd9b5853-dddb-4bf4-bb6d-0a3ab5cff721","system_id":"levelo_inurba_marseille","lat":43.27839,"lon":5.39204,"is_reserved":false,"is_disabled":false,"rental_uris":{"android":"levelo://app?vid=bd9b5853-dddb-4bf4-bb6d-0a3ab5cff721","ios":"levelo://app?vid=bd9b5853-dddb-4bf4-bb6d-0a3ab5cff721"},"vehicle_type_id":"4","last_reported":1777536165,"current_range_meters":3600,"station_id":"ce4bhjp2rcd13ifvqga0","pricing_plan_id":"cebpf4jnsgd1na2vs0mg"},{"bike_id":"7f18f9eb-522e-4d52-813c-a6308be1e63e","system_id":"levelo_inurba_marseille","lat":43.272053,"lon":5.391811,"is_reserved":false,"is_disabled":false,"rental_uris":{"android":"levelo://app?vid=7f18f9eb-522e-4d52-813c-a6308be1e63e","ios":"levelo://app?vid=7f18f9eb-522e-4d52-813c-a6308be1e63e"},"vehicle_type_id":"4","last_reported":1777536165,"current_range_meters":4000,"station_id":"ce4bhhp2rcd13ifvqfm0","pricing_plan_id":"cebpf4jnsgd1na2vs0mg"},{"bike_id":"95ca8cc5-afd5-46a2-b335-22ee4def044e","system_id":"levelo_inurba_marseille","lat":43.24629,"lon":5.43164,"is_reserved":false,"is_disabled":false,"rental_uris":{"android":"levelo://app?vid=95ca8cc5-afd5-46a2-b335-22ee4def044e","ios":"levelo://app?vid=95ca8cc5-afd5-46a2-b335-22ee4def044e"},"vehicle_type_id":"4","last_reported":1777536165,"current_range_meters":4000,"station_id":"st_d2m6c4gdas8pm72e190g","pricing_plan_id":"cebpf4jnsgd1na2vs0mg"},{"bike_id":"d2bffbeb-b1c3-4c62-834a-33d6be2c2f87","system_id":"levelo_inurba_marseille","lat":43.27207,"lon":5.3918,"is_reserved":false,"is_disabled":true,"rental_uris":{"android":"levelo://app?vid=d2bffbeb-b1c3-4c62-834a-33d6be2c2f87","ios":"levelo://app?vid=d2bffbeb-b1c3-4c62-834a-33d6be2c2f87"},"vehicle_type_id":"4","last_reported":1777536165,"current_range_meters":4000,"station_id":"ce4bhhp2rcd13ifvqfm0","pricing_plan_id":"cebpf4jnsgd1na2vs0mg"},{"bike_id":"484fb1ff-9b60-474a-9a2b-f9c0ac219c4e","system_id":"levelo_inurba_marseille","lat":43.31171,"lon":5.38707,"is_reserved":false,"is_disabled":false,"rental_uris":{"android":"levelo://app?vid=484fb1ff-9b60-474a-9a2b-f9c0ac219c4e","ios":"levelo://app?vid=484fb1ff-9b60-474a-9a2b-f9c0ac219c4e"},"vehicle_type_id":"4","last_reported":1777536165,"current_range_meters":4000,"station_id":"ce4bgv12rcd13ifvqcp0","pricing_plan_id":"cebpf4jnsgd1na2vs0mg"},{"bike_id":"c3d9bb19-1822-4a55-91b4-fa3867240b4b","system_id":"levelo_inurba_marseille","lat":43.26782,"lon":5.39419,"is_reserved":false,"is_disabled":false,"rental_uris":{"android":"levelo://app?vid=c3d9bb19-1822-4a55-91b4-fa3867240b4b","ios":"levelo://app?vid=c3d9bb19-1822-4a55-91b4-fa3867240b4b"},"vehicle_type_id":"4","last_reported":1777536165,"current_range_meters":4000,"station_id":"ce4bhh12rcd13ifvqfg0","pricing_plan_id":"cebpf4jnsgd1na2vs0mg"},{"bike_id":"31042abc-fdb4-45c6-af1d-f214e842ea8b","system_id":"levelo_inurba_marseille","lat":43.30961,"lon":5.42164,"is_reserved":false,"is_disabled":false,"rental_uris":{"android":"levelo://app?vid=31042abc-fdb4-45c6-af1d-f214e842ea8b","ios":"levelo://app?vid=31042abc-fdb4-45c6-af1d-f214e842ea8b"},"vehicle_type_id":"4","last_reported":1777536165,"current_range_meters":4000,"station_id":"","pricing_plan_id":"cebpf4jnsgd1na2vs0mg"},{"bike_id":"61a71374-9c03-48ec-882f-286a5f1c0d29","system_id":"levelo_inurba_marseille","lat":43.26046,"lon":5.37533,"is_reserved":false,"is_disabled":false,"rental_uris":{"android":"levelo://app?vid=61a71374-9c03-48ec-882f-286a5f1c0d29","ios":"levelo://app?vid=61a71374-9c03-48ec-882f-286a5f1c0d29"},"vehicle_type_id":"4","last_reported":1777536165,"current_range_meters":4000,"station_id":"ce4bhgh2rcd13ifvqfa0","pricing_plan_id":"cebpf4jnsgd1na2vs0mg"},{"bike_id":"a9b1eaef-09fa-4abc-936a-dfcebceec77f","system_id":"levelo_inurba_marseille","lat":43.25918,"lon":5.40914,"is_reserved":false,"is_disabled":false,"rental_uris":{"android":"levelo://app?vid=a9b1eaef-09fa-4abc-936a-dfcebceec77f","ios":"levelo://app?vid=a9b1eaef-09fa-4abc-936a-dfcebceec77f"},"vehicle_type_id":"4","last_reported":1777536165,"current_range_meters":4000,"station_id":"ce4bhm92rcd13ifvqglg","pricing_plan_id":"cebpf4jnsgd1na2vs0mg"},{"bike_id":"3a9f2f8a-9312-46be-bb1d-5ed2abd8301d","system_id":"levelo_inurba_marseille","lat":43.293044,"lon":5.374593,"is_reserved":false,"is_disabled":false,"rental_uris":{"android":"levelo://app?vid=3a9f2f8a-9312-46be-bb1d-5ed2abd8301d","ios":"levelo://app?vid=3a9f2f8a-9312-46be-bb1d-5ed2abd8301d"},"vehicle_type_id":"4","last_reported":1777536165,"current_range_meters":4000,"station_id":"ce4bgi12rcd13ifvqb70","pricing_plan_id":"cebpf4jnsgd1na2vs0mg"},{"bike_id":"69595459-6822-4c10-a583-8232a3b8a49a","system_id":"levelo_inurba_marseille","lat":43.24175,"lon":5.39727,"is_reserved":false,"is_disabled":false,"rental_uris":{"android":"levelo://app?vid=69595459-6822-4c10-a583-8232a3b8a49a","ios":"levelo://app?vid=69595459-6822-4c10-a583-8232a3b8a49a"},"vehicle_type_id":"4","last_reported":1777536165,"current_range_meters":4000,"station_id":"ce4bhn12rcd13ifvqgpg","pricing_plan_id":"cebpf4jnsgd1na2vs0mg"},{"bike_id":"45ccb66d-a2ed-412d-b2e5-5ada1dcf0e8b","system_id":"levelo_inurba_marseille","lat":43.26933,"lon":5.38916,"is_reserved":false,"is_disabled":false,"rental_uris":{"android":"levelo://app?vid=45ccb66d-a2ed-412d-b2e5-5ada1dcf0e8b","ios":"levelo://app?vid=45ccb66d-a2ed-412d-b2e5-5ada1dcf0e8b"},"vehicle_type_id":"4","last_reported":1777536165,"current_range_meters":4400,"station_id":"ce4bhhh2rcd13ifvqfl0","pricing_plan_id":"cebpf4jnsgd1na2vs0mg"},{"bike_id":"9f771297-ef12-4313-8d3c-7c0cd93a2786","system_id":"levelo_inurba_marseille","lat":43.31986,"lon":5.38156,"is_reserved":false,"is_disabled":false,"rental_uris":{"android":"levelo://app?vid=9f771297-ef12-4313-8d3c-7c0cd93a2786","ios":"levelo://app?vid=9f771297-ef12-4313-8d3c-7c0cd93a2786"},"vehicle_type_id":"4","last_reported":1777536165,"current_range_meters":4400,"station_id":"ce4bhr12rcd13ifvqhpg","pricing_plan_id":"cebpf4jnsgd1na2vs0mg"},{"bike_id":"2c514eca-0c7c-4c54-8544-da1a555049b6","system_id":"levelo_inurba_marseille","lat":43.26519,"lon":5.36948,"is_reserved":false,"is_disabled":false,"rental_uris":{"android":"levelo://app?vid=2c514eca-0c7c-4c54-8544-da1a555049b6","ios":"levelo://app?vid=2c514eca-0c7c-4c54-8544-da1a555049b6"},"vehicle_type_id":"4","last_reported":1777536165,"current_range_meters":4400,"station_id":"","pricing_plan_id":"cebpf4jnsgd1na2vs0mg"},{"bike_id":"34f79ee3-0315-4628-b92d-415ca46576e9","system_id":"levelo_inurba_marseille","lat":43.24672,"lon":5.38157,"is_reserved":false,"is_disabled":false,"rental_uris":{"android":"levelo://app?vid=34f79ee3-0315-4628-b92d-415ca46576e9","ios":"levelo://app?vid=34f79ee3-0315-4628-b92d-415ca46576e9"},"vehicle_type_id":"4","last_reported":1777536165,"current_range_meters":4400,"station_id":"ce4bhih2rcd13ifvqfr0","pricing_plan_id":"cebpf4jnsgd1na2vs0mg"},{"bike_id":"cd735691-a8cf-469c-b880-28ec2dcf0dc2","system_id":"levelo_inurba_marseille","lat":43.33531,"lon":5.37456,"is_reserved":false,"is_disabled":false,"rental_uris":{"android":"levelo://app?vid=cd735691-a8cf-469c-b880-28ec2dcf0dc2","ios":"levelo://app?vid=cd735691-a8cf-469c-b880-28ec2dcf0dc2"},"vehicle_type_id":"4","last_reported":1777536165,"current_range_meters":4400,"station_id":"st_d46tts09ee8s73dlu43g","pricing_plan_id":"cebpf4jnsgd1na2vs0mg"},{"bike_id":"b3149952-9e99-4b3c-b0a8-d50630ccc5c1","system_id":"levelo_inurba_marseille","lat":43.337183,"lon":5.391871,"is_reserved":false,"is_disabled":false,"rental_uris":{"android":"levelo://app?vid=b3149952-9e99-4b3c-b0a8-d50630ccc5c1","ios":"levelo://app?vid=b3149952-9e99-4b3c-b0a8-d50630ccc5c1"},"vehicle_type_id":"4","last_reported":1777536165,"current_range_meters":4400,"station_id":"ce4bhr92rcd13ifvqhsg","pricing_plan_id":"cebpf4jnsgd1na2vs0mg"},{"bike_id":"7d8513b9-70a2-438a-9a5e-ac788166b7a6","system_id":"levelo_inurba_marseille","lat":43.29624,"lon":5.3771,"is_reserved":false,"is_disabled":false,"rental_uris":{"android":"levelo://app?vid=7d8513b9-70a2-438a-9a5e-ac788166b7a6","ios":"levelo://app?vid=7d8513b9-70a2-438a-9a5e-ac788166b7a6"},"vehicle_type_id":"4","last_reported":1777536165,"current_range_meters":4400,"station_id":"ce4bgi92rcd13ifvqb90","pricing_plan_id":"cebpf4jnsgd1na2vs0mg"},{"bike_id":"bfd2ae6a-354f-4dd8-80d9-d348051db1f0","system_id":"levelo_inurba_marseille","lat":43.31339,"lon":5.36696,"is_reserved":false,"is_disabled":false,"rental_uris":{"android":"levelo://app?vid=bfd2ae6a-354f-4dd8-80d9-d348051db1f0","ios":"levelo://app?vid=bfd2ae6a-354f-4dd8-80d9-d348051db1f0"},"vehicle_type_id":"4","last_reported":1777536165,"current_range_meters":4400,"station_id":"ce4bgr92rcd13ifvqc6g","pricing_plan_id":"cebpf4jnsgd1na2vs0mg"},{"bike_id":"029fafc2-9b7c-4d4a-9df5-d19f79140f6a","system_id":"levelo_inurba_marseille","lat":43.29529,"lon":5.37505,"is_reserved":false,"is_disabled":false,"rental_uris":{"android":"levelo://app?vid=029fafc2-9b7c-4d4a-9df5-d19f79140f6a","ios":"levelo://app?vid=029fafc2-9b7c-4d4a-9df5-d19f79140f6a"},"vehicle_type_id":"4","last_reported":1777536165,"current_range_meters":4400,"station_id":"ce4bgkp2rcd13ifvqbmg","pricing_plan_id":"cebpf4jnsgd1na2vs0mg"},{"bike_id":"5563704b-f889-41a1-a394-6e3417437bea","system_id":"levelo_inurba_marseille","lat":43.30302,"lon":5.39209,"is_reserved":false,"is_disabled":true,"rental_uris":{"android":"levelo://app?vid=5563704b-f889-41a1-a394-6e3417437bea","ios":"levelo://app?vid=5563704b-f889-41a1-a394-6e3417437bea"},"vehicle_type_id":"4","last_reported":1777536165,"current_range_meters":4400,"station_id":"ce4bgkh2rcd13ifvqbk0","pricing_plan_id":"cebpf4jnsgd1na2vs0mg"},{"bike_id":"f610a277-9474-4987-a2fd-504a400084ee","system_id":"levelo_inurba_marseille","lat":43.248,"lon":5.37462,"is_reserved":false,"is_disabled":false,"rental_uris":{"android":"levelo://app?vid=f610a277-9474-4987-a2fd-504a400084ee","ios":"levelo://app?vid=f610a277-9474-4987-a2fd-504a400084ee"},"vehicle_type_id":"4","last_reported":1777536165,"current_range_meters":4400,"station_id":"ce4bhgh2rcd13ifvqfb0","pricing_plan_id":"cebpf4jnsgd1na2vs0mg"},{"bike_id":"21528401-9eb2-45f2-876b-7cc1262785a9","system_id":"levelo_inurba_marseille","lat":43.29256,"lon":5.37625,"is_reserved":false,"is_disabled":false,"rental_uris":{"android":"levelo://app?vid=21528401-9eb2-45f2-876b-7cc1262785a9","ios":"levelo://app?vid=21528401-9eb2-45f2-876b-7cc1262785a9"},"vehicle_type_id":"4","last_reported":1777536165,"current_range_meters":4800,"station_id":"ce4bgi12rcd13ifvqb80","pricing_plan_id":"cebpf4jnsgd1na2vs0mg"},{"bike_id":"20c418db-2f1d-4a9c-9013-660ef304788e","system_id":"levelo_inurba_marseille","lat":43.32341,"lon":5.36733,"is_reserved":false,"is_disabled":false,"rental_uris":{"android":"levelo://app?vid=20c418db-2f1d-4a9c-9013-660ef304788e","ios":"levelo://app?vid=20c418db-2f1d-4a9c-9013-660ef304788e"},"vehicle_type_id":"4","last_reported":1777536165,"current_range_meters":4800,"station_id":"ce4bhsh2rcd13ifvqi2g","pricing_plan_id":"cebpf4jnsgd1na2vs0mg"},{"bike_id":"b664614e-0298-48de-96bc-27654df9d7fb","system_id":"levelo_inurba_marseille","lat":43.25714,"lon":5.39979,"is_reserved":false,"is_disabled":false,"rental_uris":{"android":"levelo://app?vid=b664614e-0298-48de-96bc-27654df9d7fb","ios":"levelo://app?vid=b664614e-0298-48de-96bc-27654df9d7fb"},"vehicle_type_id":"4","last_reported":1777536165,"current_range_meters":4800,"station_id":"","pricing_plan_id":"cebpf4jnsgd1na2vs0mg"},{"bike_id":"cca5c475-3539-4e48-a8c6-9ad9827aa04f","system_id":"levelo_inurba_marseille","lat":43.29279,"lon":5.36852,"is_reserved":false,"is_disabled":false,"rental_uris":{"android":"levelo://app?vid=cca5c475-3539-4e48-a8c6-9ad9827aa04f","ios":"levelo://app?vid=cca5c475-3539-4e48-a8c6-9ad9827aa04f"},"vehicle_type_id":"4","last_reported":1777536165,"current_range_meters":4800,"station_id":"ce4bhbp2rcd13ifvqesg","pricing_plan_id":"cebpf4jnsgd1na2vs0mg"},{"bike_id":"645e35ca-c3eb-470a-bb28-3be6a1175de0","system_id":"levelo_inurba_marseille","lat":43.28988,"lon":5.37813,"is_reserved":false,"is_disabled":false,"rental_uris":{"android":"levelo://app?vid=645e35ca-c3eb-470a-bb28-3be6a1175de0","ios":"levelo://app?vid=645e35ca-c3eb-470a-bb28-3be6a1175de0"},"vehicle_type_id":"4","last_reported":1777536165,"current_range_meters":4800,"station_id":"ce4bh9p2rcd13ifvqed0","pricing_plan_id":"cebpf4jnsgd1na2vs0mg"},{"bike_id":"a496669f-42ea-4ec8-b909-b71bb128370f","system_id":"levelo_inurba_marseille","lat":43.33537,"lon":5.37466,"is_reserved":false,"is_disabled":false,"rental_uris":{"android":"levelo://app?vid=a496669f-42ea-4ec8-b909-b71bb128370f","ios":"levelo://app?vid=a496669f-42ea-4ec8-b909-b71bb128370f"},"vehicle_type_id":"4","last_reported":1777536165,"current_range_meters":4800,"station_id":"st_d46tts09ee8s73dlu43g","pricing_plan_id":"cebpf4jnsgd1na2vs0mg"},{"bike_id":"a8e64c75-ee17-47ad-a166-b17fe4c36531","system_id":"levelo_inurba_marseille","lat":43.24812,"lon":5.37459,"is_reserved":false,"is_disabled":false,"rental_uris":{"android":"levelo://app?vid=a8e64c75-ee17-47ad-a166-b17fe4c36531","ios":"levelo://app?vid=a8e64c75-ee17-47ad-a166-b17fe4c36531"},"vehicle_type_id":"4","last_reported":1777536165,"current_range_meters":4800,"station_id":"ce4bhgh2rcd13ifvqfb0","pricing_plan_id":"cebpf4jnsgd1na2vs0mg"},{"bike_id":"07919e2d-9a9f-4079-9fd2-ae993e85b930","system_id":"levelo_inurba_marseille","lat":43.21217,"lon":5.35068,"is_reserved":false,"is_disabled":false,"rental_uris":{"android":"levelo://app?vid=07919e2d-9a9f-4079-9fd2-ae993e85b930","ios":"levelo://app?vid=07919e2d-9a9f-4079-9fd2-ae993e85b930"},"vehicle_type_id":"4","last_reported":1777536165,"current_range_meters":4800,"station_id":"st_cvj6sg6p6f1abm77japg","pricing_plan_id":"cebpf4jnsgd1na2vs0mg"},{"bike_id":"b91f4f99-7987-40ea-afbb-1e1af65ec675","system_id":"levelo_inurba_marseille","lat":43.29423,"lon":5.40932,"is_reserved":false,"is_disabled":false,"rental_uris":{"android":"levelo://app?vid=b91f4f99-7987-40ea-afbb-1e1af65ec675","ios":"levelo://app?vid=b91f4f99-7987-40ea-afbb-1e1af65ec675"},"vehicle_type_id":"4","last_reported":1777536165,"current_range_meters":4800,"station_id":"","pricing_plan_id":"cebpf4jnsgd1na2vs0mg"},{"bike_id":"b8bf87d6-4c98-4f23-b3e1-ac4983e0a44c","system_id":"levelo_inurba_marseille","lat":43.26679,"lon":5.38268,"is_reserved":false,"is_disabled":false,"rental_uris":{"android":"levelo://app?vid=b8bf87d6-4c98-4f23-b3e1-ac4983e0a44c","ios":"levelo://app?vid=b8bf87d6-4c98-4f23-b3e1-ac4983e0a44c"},"vehicle_type_id":"4","last_reported":1777536165,"current_range_meters":4800,"station_id":"ce4bhg92rcd13ifvqf90","pricing_plan_id":"cebpf4jnsgd1na2vs0mg"},{"bike_id":"898944a9-7654-45a2-a2ab-c958d55ca218","system_id":"levelo_inurba_marseille","lat":43.31712,"lon":5.37734,"is_reserved":false,"is_disabled":false,"rental_uris":{"android":"levelo://app?vid=898944a9-7654-45a2-a2ab-c958d55ca218","ios":"levelo://app?vid=898944a9-7654-45a2-a2ab-c958d55ca218"},"vehicle_type_id":"4","last_reported":1777536165,"current_range_meters":4800,"station_id":"ce4bgth2rcd13ifvqch0","pricing_plan_id":"cebpf4jnsgd1na2vs0mg"},{"bike_id":"b5592bc3-7c5d-4ba9-b1ae-b173928aef8c","system_id":"levelo_inurba_marseille","lat":43.28494,"lon":5.48392,"is_reserved":false,"is_disabled":false,"rental_uris":{"android":"levelo://app?vid=b5592bc3-7c5d-4ba9-b1ae-b173928aef8c","ios":"levelo://app?vid=b5592bc3-7c5d-4ba9-b1ae-b173928aef8c"},"vehicle_type_id":"4","last_reported":1777536165,"current_range_meters":5600,"station_id":"","pricing_plan_id":"cebpf4jnsgd1na2vs0mg"},{"bike_id":"d8de0a64-e3bb-4f89-8f07-313cae5af722","system_id":"levelo_inurba_marseille","lat":43.22557,"lon":5.41631,"is_reserved":false,"is_disabled":false,"rental_uris":{"android":"levelo://app?vid=d8de0a64-e3bb-4f89-8f07-313cae5af722","ios":"levelo://app?vid=d8de0a64-e3bb-4f89-8f07-313cae5af722"},"vehicle_type_id":"4","last_reported":1777536165,"current_range_meters":5600,"station_id":"st_d2o4gvlbi1j2169b742g","pricing_plan_id":"cebpf4jnsgd1na2vs0mg"},{"bike_id":"0438d68d-b4c6-4b23-a7e1-82657231ebe9","system_id":"levelo_inurba_marseille","lat":43.28492,"lon":5.48373,"is_reserved":false,"is_disabled":false,"rental_uris":{"android":"levelo://app?vid=0438d68d-b4c6-4b23-a7e1-82657231ebe9","ios":"levelo://app?vid=0438d68d-b4c6-4b23-a7e1-82657231ebe9"},"vehicle_type_id":"4","last_reported":1777536165,"current_range_meters":5600,"station_id":"","pricing_plan_id":"cebpf4jnsgd1na2vs0mg"},{"bike_id":"82a8043e-804e-4dc9-b426-b4d299449f67","system_id":"levelo_inurba_marseille","lat":43.31047,"lon":5.37191,"is_reserved":false,"is_disabled":false,"rental_uris":{"android":"levelo://app?vid=82a8043e-804e-4dc9-b426-b4d299449f67","ios":"levelo://app?vid=82a8043e-804e-4dc9-b426-b4d299449f67"},"vehicle_type_id":"4","last_reported":1777536165,"current_range_meters":5600,"station_id":"st_d4kl2rp97mjs73e7tdfg","pricing_plan_id":"cebpf4jnsgd1na2vs0mg"},{"bike_id":"9d364f38-9209-43ca-93e4-cdc645941243","system_id":"levelo_inurba_marseille","lat":43.2315,"lon":5.43701,"is_reserved":false,"is_disabled":false,"rental_uris":{"android":"levelo://app?vid=9d364f38-9209-43ca-93e4-cdc645941243","ios":"levelo://app?vid=9d364f38-9209-43ca-93e4-cdc645941243"},"vehicle_type_id":"4","last_reported":1777536165,"current_range_meters":5600,"station_id":"ce4bhmp2rcd13ifvqgog","pricing_plan_id":"cebpf4jnsgd1na2vs0mg"},{"bike_id":"d1b0cfb9-74d2-4ee1-ab25-6099cdfdd0f2","system_id":"levelo_inurba_marseille","lat":43.28378,"lon":5.4011,"is_reserved":false,"is_disabled":false,"rental_uris":{"android":"levelo://app?vid=d1b0cfb9-74d2-4ee1-ab25-6099cdfdd0f2","ios":"levelo://app?vid=d1b0cfb9-74d2-4ee1-ab25-6099cdfdd0f2"},"vehicle_type_id":"4","last_reported":1777536165,"current_range_meters":5600,"station_id":"","pricing_plan_id":"cebpf4jnsgd1na2vs0mg"},{"bike_id":"29726be3-77d4-46de-baf0-4279f98a2c19","system_id":"levelo_inurba_marseille","lat":43.29749,"lon":5.37659,"is_reserved":false,"is_disabled":false,"rental_uris":{"android":"levelo://app?vid=29726be3-77d4-46de-baf0-4279f98a2c19","ios":"levelo://app?vid=29726be3-77d4-46de-baf0-4279f98a2c19"},"vehicle_type_id":"4","last_reported":1777536165,"current_range_meters":5600,"station_id":"","pricing_plan_id":"cebpf4jnsgd1na2vs0mg"},{"bike_id":"104464ec-d0b4-4d6d-bfdd-3fa4d99fd7d5","system_id":"levelo_inurba_marseille","lat":43.30948,"lon":5.39038,"is_reserved":false,"is_disabled":false,"rental_uris":{"android":"levelo://app?vid=104464ec-d0b4-4d6d-bfdd-3fa4d99fd7d5","ios":"levelo://app?vid=104464ec-d0b4-4d6d-bfdd-3fa4d99fd7d5"},"vehicle_type_id":"4","last_reported":1777536165,"current_range_meters":5600,"station_id":"ce4bgup2rcd13ifvqco0","pricing_plan_id":"cebpf4jnsgd1na2vs0mg"},{"bike_id":"c49761ac-9f33-4552-bf2f-10763f93fa50","system_id":"levelo_inurba_marseille","lat":43.31898,"lon":5.36814,"is_reserved":false,"is_disabled":false,"rental_uris":{"android":"levelo://app?vid=c49761ac-9f33-4552-bf2f-10763f93fa50","ios":"levelo://app?vid=c49761ac-9f33-4552-bf2f-10763f93fa50"},"vehicle_type_id":"4","last_reported":1777536165,"current_range_meters":5600,"station_id":"st_d6o2h0d0559c73evc1b0","pricing_plan_id":"cebpf4jnsgd1na2vs0mg"},{"bike_id":"a495d427-fd97-445b-b0d9-2022095a30d1","system_id":"levelo_inurba_marseille","lat":43.31219,"lon":5.36878,"is_reserved":false,"is_disabled":false,"rental_uris":{"android":"levelo://app?vid=a495d427-fd97-445b-b0d9-2022095a30d1","ios":"levelo://app?vid=a495d427-fd97-445b-b0d9-2022095a30d1"},"vehicle_type_id":"4","last_reported":1777536165,"current_range_meters":5600,"station_id":"ce4bgl92rcd13ifvqbq0","pricing_plan_id":"cebpf4jnsgd1na2vs0mg"},{"bike_id":"85fc8e24-91c4-48dd-b52d-57aebea5a51b","system_id":"levelo_inurba_marseille","lat":43.24046,"lon":5.37718,"is_reserved":false,"is_disabled":false,"rental_uris":{"android":"levelo://app?vid=85fc8e24-91c4-48dd-b52d-57aebea5a51b","ios":"levelo://app?vid=85fc8e24-91c4-48dd-b52d-57aebea5a51b"},"vehicle_type_id":"4","last_reported":1777536165,"current_range_meters":5600,"station_id":"ce4bhnp2rcd13ifvqgvg","pricing_plan_id":"cebpf4jnsgd1na2vs0mg"},{"bike_id":"5ef4a8a0-22d7-4436-83cb-694ff573e887","system_id":"levelo_inurba_marseille","lat":43.30147,"lon":5.37417,"is_reserved":false,"is_disabled":false,"rental_uris":{"android":"levelo://app?vid=5ef4a8a0-22d7-4436-83cb-694ff573e887","ios":"levelo://app?vid=5ef4a8a0-22d7-4436-83cb-694ff573e887"},"vehicle_type_id":"4","last_reported":1777536165,"current_range_meters":6000,"station_id":"ce4bgs92rcd13ifvqcc0","pricing_plan_id":"cebpf4jnsgd1na2vs0mg"},{"bike_id":"8829f460-aa5f-4233-9846-cd6731fc4acd","system_id":"levelo_inurba_marseille","lat":43.26983,"lon":5.40434,"is_reserved":false,"is_disabled":false,"rental_uris":{"android":"levelo://app?vid=8829f460-aa5f-4233-9846-cd6731fc4acd","ios":"levelo://app?vid=8829f460-aa5f-4233-9846-cd6731fc4acd"},"vehicle_type_id":"4","last_reported":1777536165,"current_range_meters":6000,"station_id":"","pricing_plan_id":"cebpf4jnsgd1na2vs0mg"},{"bike_id":"96ba5a0f-537d-4ad5-80d1-4b30ca04ea89","system_id":"levelo_inurba_marseille","lat":43.31491,"lon":5.37299,"is_reserved":false,"is_disabled":false,"rental_uris":{"android":"levelo://app?vid=96ba5a0f-537d-4ad5-80d1-4b30ca04ea89","ios":"levelo://app?vid=96ba5a0f-537d-4ad5-80d1-4b30ca04ea89"},"vehicle_type_id":"4","last_reported":1777536165,"current_range_meters":6000,"station_id":"ce4bgt12rcd13ifvqcd0","pricing_plan_id":"cebpf4jnsgd1na2vs0mg"},{"bike_id":"dde9cb7a-d2cd-49d4-9390-db18f4c0f172","system_id":"levelo_inurba_marseille","lat":43.337444,"lon":5.374475,"is_reserved":false,"is_disabled":false,"rental_uris":{"android":"levelo://app?vid=dde9cb7a-d2cd-49d4-9390-db18f4c0f172","ios":"levelo://app?vid=dde9cb7a-d2cd-49d4-9390-db18f4c0f172"},"vehicle_type_id":"4","last_reported":1777536165,"current_range_meters":6000,"station_id":"ce4bgj12rcd13ifvqbc0","pricing_plan_id":"cebpf4jnsgd1na2vs0mg"},{"bike_id":"48357342-923a-40af-805e-c9f6abe5dd99","system_id":"levelo_inurba_marseille","lat":43.29519,"lon":5.37498,"is_reserved":false,"is_disabled":false,"rental_uris":{"android":"levelo://app?vid=48357342-923a-40af-805e-c9f6abe5dd99","ios":"levelo://app?vid=48357342-923a-40af-805e-c9f6abe5dd99"},"vehicle_type_id":"4","last_reported":1777536165,"current_range_meters":6000,"station_id":"ce4bgkp2rcd13ifvqbmg","pricing_plan_id":"cebpf4jnsgd1na2vs0mg"},{"bike_id":"e8c45a74-740f-4fc5-b008-5dd3be21b931","system_id":"levelo_inurba_marseille","lat":43.31137,"lon":5.38056,"is_reserved":false,"is_disabled":false,"rental_uris":{"android":"levelo://app?vid=e8c45a74-740f-4fc5-b008-5dd3be21b931","ios":"levelo://app?vid=e8c45a74-740f-4fc5-b008-5dd3be21b931"},"vehicle_type_id":"4","last_reported":1777536165,"current_range_meters":6000,"station_id":"","pricing_plan_id":"cebpf4jnsgd1na2vs0mg"},{"bike_id":"acc57406-75de-43a2-a6ec-d941193f0be0","system_id":"levelo_inurba_marseille","lat":43.32371,"lon":5.36802,"is_reserved":false,"is_disabled":false,"rental_uris":{"android":"levelo://app?vid=acc57406-75de-43a2-a6ec-d941193f0be0","ios":"levelo://app?vid=acc57406-75de-43a2-a6ec-d941193f0be0"},"vehicle_type_id":"4","last_reported":1777536165,"current_range_meters":6000,"station_id":"ce4bhsh2rcd13ifvqi2g","pricing_plan_id":"cebpf4jnsgd1na2vs0mg"},{"bike_id":"b0fc715f-4a35-4272-9e2a-b10f7b105dc9","system_id":"levelo_inurba_marseille","lat":43.29336,"lon":5.44546,"is_reserved":false,"is_disabled":false,"rental_uris":{"android":"levelo://app?vid=b0fc715f-4a35-4272-9e2a-b10f7b105dc9","ios":"levelo://app?vid=b0fc715f-4a35-4272-9e2a-b10f7b105dc9"},"vehicle_type_id":"4","last_reported":1777536165,"current_range_meters":6000,"station_id":"","pricing_plan_id":"cebpf4jnsgd1na2vs0mg"},{"bike_id":"4973a181-d17c-430e-bbdc-8fc4d0df0c6f","system_id":"levelo_inurba_marseille","lat":43.23149,"lon":5.43707,"is_reserved":false,"is_disabled":false,"rental_uris":{"android":"levelo://app?vid=4973a181-d17c-430e-bbdc-8fc4d0df0c6f","ios":"levelo://app?vid=4973a181-d17c-430e-bbdc-8fc4d0df0c6f"},"vehicle_type_id":"4","last_reported":1777536165,"current_range_meters":6000,"station_id":"ce4bhmp2rcd13ifvqgog","pricing_plan_id":"cebpf4jnsgd1na2vs0mg"},{"bike_id":"945b3f65-3522-4839-bb4a-92155b98bfd3","system_id":"levelo_inurba_marseille","lat":43.28412,"lon":5.34986,"is_reserved":false,"is_disabled":true,"rental_uris":{"android":"levelo://app?vid=945b3f65-3522-4839-bb4a-92155b98bfd3","ios":"levelo://app?vid=945b3f65-3522-4839-bb4a-92155b98bfd3"},"vehicle_type_id":"4","last_reported":1777536165,"current_range_meters":6000,"station_id":"ce4bhbh2rcd13ifvqepg","pricing_plan_id":"cebpf4jnsgd1na2vs0mg"},{"bike_id":"cbafc6dc-1097-45a5-b079-6fb4eb4f1d2b","system_id":"levelo_inurba_marseille","lat":43.30437,"lon":5.38872,"is_reserved":false,"is_disabled":false,"rental_uris":{"android":"levelo://app?vid=cbafc6dc-1097-45a5-b079-6fb4eb4f1d2b","ios":"levelo://app?vid=cbafc6dc-1097-45a5-b079-6fb4eb4f1d2b"},"vehicle_type_id":"4","last_reported":1777536165,"current_range_meters":6000,"station_id":"ce4bgk12rcd13ifvqbi0","pricing_plan_id":"cebpf4jnsgd1na2vs0mg"},{"bike_id":"4d3b0fb9-4fcc-46d7-8f90-81b232f0c7b3","system_id":"levelo_inurba_marseille","lat":43.30126,"lon":5.43125,"is_reserved":false,"is_disabled":false,"rental_uris":{"android":"levelo://app?vid=4d3b0fb9-4fcc-46d7-8f90-81b232f0c7b3","ios":"levelo://app?vid=4d3b0fb9-4fcc-46d7-8f90-81b232f0c7b3"},"vehicle_type_id":"4","last_reported":1777536165,"current_range_meters":6000,"station_id":"st_d3js3co5814s73ftftug","pricing_plan_id":"cebpf4jnsgd1na2vs0mg"},{"bike_id":"54a20a3a-a794-42a9-949e-ca6bb49cfc3f","system_id":"levelo_inurba_marseille","lat":43.30151,"lon":5.38063,"is_reserved":false,"is_disabled":false,"rental_uris":{"android":"levelo://app?vid=54a20a3a-a794-42a9-949e-ca6bb49cfc3f","ios":"levelo://app?vid=54a20a3a-a794-42a9-949e-ca6bb49cfc3f"},"vehicle_type_id":"4","last_reported":1777536165,"current_range_meters":6000,"station_id":"","pricing_plan_id":"cebpf4jnsgd1na2vs0mg"},{"bike_id":"a8483a05-e652-437c-864d-0a9d370b8bff","system_id":"levelo_inurba_marseille","lat":43.24804,"lon":5.37458,"is_reserved":false,"is_disabled":false,"rental_uris":{"android":"levelo://app?vid=a8483a05-e652-437c-864d-0a9d370b8bff","ios":"levelo://app?vid=a8483a05-e652-437c-864d-0a9d370b8bff"},"vehicle_type_id":"4","last_reported":1777536165,"current_range_meters":6000,"station_id":"ce4bhgh2rcd13ifvqfb0","pricing_plan_id":"cebpf4jnsgd1na2vs0mg"},{"bike_id":"10ee5b03-7c4d-4483-aa0c-578e209dda87","system_id":"levelo_inurba_marseille","lat":43.29253,"lon":5.40923,"is_reserved":false,"is_disabled":false,"rental_uris":{"android":"levelo://app?vid=10ee5b03-7c4d-4483-aa0c-578e209dda87","ios":"levelo://app?vid=10ee5b03-7c4d-4483-aa0c-578e209dda87"},"vehicle_type_id":"4","last_reported":1777536165,"current_range_meters":6400,"station_id":"ce4bh192rcd13ifvqdc0","pricing_plan_id":"cebpf4jnsgd1na2vs0mg"},{"bike_id":"9ef9cc44-171e-48e0-999f-e99441524653","system_id":"levelo_inurba_marseille","lat":43.30303,"lon":5.36891,"is_reserved":false,"is_disabled":false,"rental_uris":{"android":"levelo://app?vid=9ef9cc44-171e-48e0-999f-e99441524653","ios":"levelo://app?vid=9ef9cc44-171e-48e0-999f-e99441524653"},"vehicle_type_id":"4","last_reported":1777536165,"current_range_meters":6400,"station_id":"ce4bgqh2rcd13ifvqc5g","pricing_plan_id":"cebpf4jnsgd1na2vs0mg"},{"bike_id":"c6567a1f-9195-4865-9421-b4695ac1649b","system_id":"levelo_inurba_marseille","lat":43.31381,"lon":5.36693,"is_reserved":false,"is_disabled":false,"rental_uris":{"android":"levelo://app?vid=c6567a1f-9195-4865-9421-b4695ac1649b","ios":"levelo://app?vid=c6567a1f-9195-4865-9421-b4695ac1649b"},"vehicle_type_id":"4","last_reported":1777536165,"current_range_meters":6400,"station_id":"ce4bgr92rcd13ifvqc6g","pricing_plan_id":"cebpf4jnsgd1na2vs0mg"},{"bike_id":"ecbe6b06-01d5-4b11-9d29-ea494773508c","system_id":"levelo_inurba_marseille","lat":43.26059,"lon":5.394,"is_reserved":false,"is_disabled":false,"rental_uris":{"android":"levelo://app?vid=ecbe6b06-01d5-4b11-9d29-ea494773508c","ios":"levelo://app?vid=ecbe6b06-01d5-4b11-9d29-ea494773508c"},"vehicle_type_id":"4","last_reported":1777536165,"current_range_meters":6400,"station_id":"ce4bhh92rcd13ifvqfj0","pricing_plan_id":"cebpf4jnsgd1na2vs0mg"},{"bike_id":"4092fda1-ef91-4a7b-a325-2635d393cc53","system_id":"levelo_inurba_marseille","lat":43.31489,"lon":5.37315,"is_reserved":false,"is_disabled":false,"rental_uris":{"android":"levelo://app?vid=4092fda1-ef91-4a7b-a325-2635d393cc53","ios":"levelo://app?vid=4092fda1-ef91-4a7b-a325-2635d393cc53"},"vehicle_type_id":"4","last_reported":1777536165,"current_range_meters":6400,"station_id":"ce4bgt12rcd13ifvqcd0","pricing_plan_id":"cebpf4jnsgd1na2vs0mg"},{"bike_id":"4c4fd5bf-edd1-4e64-bbba-8e4e3d30b47b","system_id":"levelo_inurba_marseille","lat":43.28882,"lon":5.43057,"is_reserved":false,"is_disabled":false,"rental_uris":{"android":"levelo://app?vid=4c4fd5bf-edd1-4e64-bbba-8e4e3d30b47b","ios":"levelo://app?vid=4c4fd5bf-edd1-4e64-bbba-8e4e3d30b47b"},"vehicle_type_id":"4","last_reported":1777536165,"current_range_meters":6400,"station_id":"","pricing_plan_id":"cebpf4jnsgd1na2vs0mg"},{"bike_id":"e31c19dc-05d1-46d2-b317-5945fc309463","system_id":"levelo_inurba_marseille","lat":43.2558,"lon":5.38245,"is_reserved":false,"is_disabled":false,"rental_uris":{"android":"levelo://app?vid=e31c19dc-05d1-46d2-b317-5945fc309463","ios":"levelo://app?vid=e31c19dc-05d1-46d2-b317-5945fc309463"},"vehicle_type_id":"4","last_reported":1777536165,"current_range_meters":6400,"station_id":"ce4bhih2rcd13ifvqfs0","pricing_plan_id":"cebpf4jnsgd1na2vs0mg"},{"bike_id":"60d77da4-6419-429b-9e7a-b2cf161a2f69","system_id":"levelo_inurba_marseille","lat":43.32642,"lon":5.39497,"is_reserved":false,"is_disabled":false,"rental_uris":{"android":"levelo://app?vid=60d77da4-6419-429b-9e7a-b2cf161a2f69","ios":"levelo://app?vid=60d77da4-6419-429b-9e7a-b2cf161a2f69"},"vehicle_type_id":"4","last_reported":1777536165,"current_range_meters":6400,"station_id":"","pricing_plan_id":"cebpf4jnsgd1na2vs0mg"},{"bike_id":"d5388f7a-4e0a-4376-b76b-701e4b281dc2","system_id":"levelo_inurba_marseille","lat":43.27054,"lon":5.40259,"is_reserved":false,"is_disabled":true,"rental_uris":{"android":"levelo://app?vid=d5388f7a-4e0a-4376-b76b-701e4b281dc2","ios":"levelo://app?vid=d5388f7a-4e0a-4376-b76b-701e4b281dc2"},"vehicle_type_id":"4","last_reported":1777536165,"current_range_meters":6400,"station_id":"ce4bhk92rcd13ifvqgc0","pricing_plan_id":"cebpf4jnsgd1na2vs0mg"},{"bike_id":"6dc94503-0f06-4160-8789-42be3132f598","system_id":"levelo_inurba_marseille","lat":43.25509,"lon":5.37662,"is_reserved":false,"is_disabled":false,"rental_uris":{"android":"levelo://app?vid=6dc94503-0f06-4160-8789-42be3132f598","ios":"levelo://app?vid=6dc94503-0f06-4160-8789-42be3132f598"},"vehicle_type_id":"4","last_reported":1777536165,"current_range_meters":6400,"station_id":"ce4bhh12rcd13ifvqff0","pricing_plan_id":"cebpf4jnsgd1na2vs0mg"},{"bike_id":"84356f98-17e8-487a-a7e2-6e234f9d57a4","system_id":"levelo_inurba_marseille","lat":43.27386,"lon":5.39403,"is_reserved":false,"is_disabled":false,"rental_uris":{"android":"levelo://app?vid=84356f98-17e8-487a-a7e2-6e234f9d57a4","ios":"levelo://app?vid=84356f98-17e8-487a-a7e2-6e234f9d57a4"},"vehicle_type_id":"4","last_reported":1777536165,"current_range_meters":6800,"station_id":"ce4bhdp2rcd13ifvqf20","pricing_plan_id":"cebpf4jnsgd1na2vs0mg"},{"bike_id":"345bc929-f498-4128-a39a-b953913f5208","system_id":"levelo_inurba_marseille","lat":43.25576,"lon":5.38236,"is_reserved":false,"is_disabled":false,"rental_uris":{"android":"levelo://app?vid=345bc929-f498-4128-a39a-b953913f5208","ios":"levelo://app?vid=345bc929-f498-4128-a39a-b953913f5208"},"vehicle_type_id":"4","last_reported":1777536165,"current_range_meters":6800,"station_id":"ce4bhih2rcd13ifvqfs0","pricing_plan_id":"cebpf4jnsgd1na2vs0mg"},{"bike_id":"7a4f9c5b-0770-4973-b065-ff441b4f0ec4","system_id":"levelo_inurba_marseille","lat":43.28868,"lon":5.42517,"is_reserved":false,"is_disabled":false,"rental_uris":{"android":"levelo://app?vid=7a4f9c5b-0770-4973-b065-ff441b4f0ec4","ios":"levelo://app?vid=7a4f9c5b-0770-4973-b065-ff441b4f0ec4"},"vehicle_type_id":"4","last_reported":1777536165,"current_range_meters":6800,"station_id":"st_d3b462108ojc7389ooeg","pricing_plan_id":"cebpf4jnsgd1na2vs0mg"},{"bike_id":"262fc285-b6eb-4eda-9ac1-639b6caaacc5","system_id":"levelo_inurba_marseille","lat":43.32344,"lon":5.36748,"is_reserved":false,"is_disabled":false,"rental_uris":{"android":"levelo://app?vid=262fc285-b6eb-4eda-9ac1-639b6caaacc5","ios":"levelo://app?vid=262fc285-b6eb-4eda-9ac1-639b6caaacc5"},"vehicle_type_id":"4","last_reported":1777536165,"current_range_meters":6800,"station_id":"ce4bhsh2rcd13ifvqi2g","pricing_plan_id":"cebpf4jnsgd1na2vs0mg"},{"bike_id":"d97ed6ed-9254-4b2c-9752-a3aaf3378900","system_id":"levelo_inurba_marseille","lat":43.33564,"lon":5.37459,"is_reserved":false,"is_disabled":false,"rental_uris":{"android":"levelo://app?vid=d97ed6ed-9254-4b2c-9752-a3aaf3378900","ios":"levelo://app?vid=d97ed6ed-9254-4b2c-9752-a3aaf3378900"},"vehicle_type_id":"4","last_reported":1777536165,"current_range_meters":6800,"station_id":"st_d46tts09ee8s73dlu43g","pricing_plan_id":"cebpf4jnsgd1na2vs0mg"},{"bike_id":"a564af96-c51f-435b-bcf0-f8bfc990473c","system_id":"levelo_inurba_marseille","lat":43.29874,"lon":5.38906,"is_reserved":false,"is_disabled":false,"rental_uris":{"android":"levelo://app?vid=a564af96-c51f-435b-bcf0-f8bfc990473c","ios":"levelo://app?vid=a564af96-c51f-435b-bcf0-f8bfc990473c"},"vehicle_type_id":"4","last_reported":1777536165,"current_range_meters":6800,"station_id":"ce4bh392rcd13ifvqdl0","pricing_plan_id":"cebpf4jnsgd1na2vs0mg"},{"bike_id":"95bd2c22-4419-4ef5-9e8e-9f96573884fa","system_id":"levelo_inurba_marseille","lat":43.28456,"lon":5.35882,"is_reserved":false,"is_disabled":false,"rental_uris":{"android":"levelo://app?vid=95bd2c22-4419-4ef5-9e8e-9f96573884fa","ios":"levelo://app?vid=95bd2c22-4419-4ef5-9e8e-9f96573884fa"},"vehicle_type_id":"4","last_reported":1777536165,"current_range_meters":6800,"station_id":"ce4bhah2rcd13ifvqei0","pricing_plan_id":"cebpf4jnsgd1na2vs0mg"},{"bike_id":"e94a608d-f9ea-423e-9a86-dbff56573429","system_id":"levelo_inurba_marseille","lat":43.33602,"lon":5.41034,"is_reserved":false,"is_disabled":false,"rental_uris":{"android":"levelo://app?vid=e94a608d-f9ea-423e-9a86-dbff56573429","ios":"levelo://app?vid=e94a608d-f9ea-423e-9a86-dbff56573429"},"vehicle_type_id":"4","last_reported":1777536165,"current_range_meters":6800,"station_id":"ce4bhqh2rcd13ifvqhmg","pricing_plan_id":"cebpf4jnsgd1na2vs0mg"},{"bike_id":"dfa879e1-a648-4914-9fb1-704bf37e5f28","system_id":"levelo_inurba_marseille","lat":43.26362,"lon":5.41087,"is_reserved":false,"is_disabled":false,"rental_uris":{"android":"levelo://app?vid=dfa879e1-a648-4914-9fb1-704bf37e5f28","ios":"levelo://app?vid=dfa879e1-a648-4914-9fb1-704bf37e5f28"},"vehicle_type_id":"4","last_reported":1777536165,"current_range_meters":6800,"station_id":"st_d4e5ca6na9uc73bfl5fg","pricing_plan_id":"cebpf4jnsgd1na2vs0mg"},{"bike_id":"f56960c5-c66e-419d-b4ff-d2808e1f57bf","system_id":"levelo_inurba_marseille","lat":43.31039,"lon":5.37183,"is_reserved":false,"is_disabled":false,"rental_uris":{"android":"levelo://app?vid=f56960c5-c66e-419d-b4ff-d2808e1f57bf","ios":"levelo://app?vid=f56960c5-c66e-419d-b4ff-d2808e1f57bf"},"vehicle_type_id":"4","last_reported":1777536165,"current_range_meters":6800,"station_id":"st_d4kl2rp97mjs73e7tdfg","pricing_plan_id":"cebpf4jnsgd1na2vs0mg"},{"bike_id":"26335112-9b2a-4a27-9ec1-b93b9cc755ad","system_id":"levelo_inurba_marseille","lat":43.30861,"lon":5.41893,"is_reserved":false,"is_disabled":false,"rental_uris":{"android":"levelo://app?vid=26335112-9b2a-4a27-9ec1-b93b9cc755ad","ios":"levelo://app?vid=26335112-9b2a-4a27-9ec1-b93b9cc755ad"},"vehicle_type_id":"4","last_reported":1777536165,"current_range_meters":6800,"station_id":"","pricing_plan_id":"cebpf4jnsgd1na2vs0mg"},{"bike_id":"d7baed8e-b611-4a5b-8f44-15da38145cf2","system_id":"levelo_inurba_marseille","lat":43.31492,"lon":5.37296,"is_reserved":false,"is_disabled":false,"rental_uris":{"android":"levelo://app?vid=d7baed8e-b611-4a5b-8f44-15da38145cf2","ios":"levelo://app?vid=d7baed8e-b611-4a5b-8f44-15da38145cf2"},"vehicle_type_id":"4","last_reported":1777536165,"current_range_meters":6800,"station_id":"ce4bgt12rcd13ifvqcd0","pricing_plan_id":"cebpf4jnsgd1na2vs0mg"},{"bike_id":"32cf4dba-bd3d-47ff-85e6-ad6acc34857d","system_id":"levelo_inurba_marseille","lat":43.29293,"lon":5.37457,"is_reserved":false,"is_disabled":false,"rental_uris":{"android":"levelo://app?vid=32cf4dba-bd3d-47ff-85e6-ad6acc34857d","ios":"levelo://app?vid=32cf4dba-bd3d-47ff-85e6-ad6acc34857d"},"vehicle_type_id":"4","last_reported":1777536165,"current_range_meters":6800,"station_id":"ce4bgi12rcd13ifvqb70","pricing_plan_id":"cebpf4jnsgd1na2vs0mg"},{"bike_id":"3be4a7db-61a4-4555-aa09-c404800b0f79","system_id":"levelo_inurba_marseille","lat":43.33153,"lon":5.37677,"is_reserved":false,"is_disabled":false,"rental_uris":{"android":"levelo://app?vid=3be4a7db-61a4-4555-aa09-c404800b0f79","ios":"levelo://app?vid=3be4a7db-61a4-4555-aa09-c404800b0f79"},"vehicle_type_id":"4","last_reported":1777536165,"current_range_meters":6800,"station_id":"st_d46cu089ee8s73dldbu0","pricing_plan_id":"cebpf4jnsgd1na2vs0mg"},{"bike_id":"486754d9-e4fe-4ce6-be2d-73e031393d75","system_id":"levelo_inurba_marseille","lat":43.26556,"lon":5.373,"is_reserved":false,"is_disabled":false,"rental_uris":{"android":"levelo://app?vid=486754d9-e4fe-4ce6-be2d-73e031393d75","ios":"levelo://app?vid=486754d9-e4fe-4ce6-be2d-73e031393d75"},"vehicle_type_id":"4","last_reported":1777536165,"current_range_meters":6800,"station_id":"ce4bhg12rcd13ifvqf70","pricing_plan_id":"cebpf4jnsgd1na2vs0mg"},{"bike_id":"c836b09f-a666-4145-8191-473bc44c6a36","system_id":"levelo_inurba_marseille","lat":43.255772,"lon":5.382272,"is_reserved":false,"is_disabled":false,"rental_uris":{"android":"levelo://app?vid=c836b09f-a666-4145-8191-473bc44c6a36","ios":"levelo://app?vid=c836b09f-a666-4145-8191-473bc44c6a36"},"vehicle_type_id":"4","last_reported":1777536165,"current_range_meters":6800,"station_id":"ce4bhih2rcd13ifvqfs0","pricing_plan_id":"cebpf4jnsgd1na2vs0mg"},{"bike_id":"d44d67d6-bed9-4e4c-ad0a-837f46df2e5e","system_id":"levelo_inurba_marseille","lat":43.31361,"lon":5.36707,"is_reserved":false,"is_disabled":false,"rental_uris":{"android":"levelo://app?vid=d44d67d6-bed9-4e4c-ad0a-837f46df2e5e","ios":"levelo://app?vid=d44d67d6-bed9-4e4c-ad0a-837f46df2e5e"},"vehicle_type_id":"4","last_reported":1777536165,"current_range_meters":6800,"station_id":"ce4bgr92rcd13ifvqc6g","pricing_plan_id":"cebpf4jnsgd1na2vs0mg"},{"bike_id":"74b97888-2010-4f62-9143-1297c2114922","system_id":"levelo_inurba_marseille","lat":43.27837,"lon":5.39211,"is_reserved":false,"is_disabled":false,"rental_uris":{"android":"levelo://app?vid=74b97888-2010-4f62-9143-1297c2114922","ios":"levelo://app?vid=74b97888-2010-4f62-9143-1297c2114922"},"vehicle_type_id":"4","last_reported":1777536165,"current_range_meters":7200,"station_id":"ce4bhjp2rcd13ifvqga0","pricing_plan_id":"cebpf4jnsgd1na2vs0mg"},{"bike_id":"46523cb2-6b8e-455f-9277-3808cf80d4d2","system_id":"levelo_inurba_marseille","lat":43.337444,"lon":5.374475,"is_reserved":false,"is_disabled":true,"rental_uris":{"android":"levelo://app?vid=46523cb2-6b8e-455f-9277-3808cf80d4d2","ios":"levelo://app?vid=46523cb2-6b8e-455f-9277-3808cf80d4d2"},"vehicle_type_id":"4","last_reported":1777536165,"current_range_meters":7200,"station_id":"","pricing_plan_id":"cebpf4jnsgd1na2vs0mg"},{"bike_id":"9ac79960-6ea7-499d-96a2-8173e74749ce","system_id":"levelo_inurba_marseille","lat":43.32491,"lon":5.36543,"is_reserved":false,"is_disabled":false,"rental_uris":{"android":"levelo://app?vid=9ac79960-6ea7-499d-96a2-8173e74749ce","ios":"levelo://app?vid=9ac79960-6ea7-499d-96a2-8173e74749ce"},"vehicle_type_id":"4","last_reported":1777536165,"current_range_meters":7200,"station_id":"ce4bhs12rcd13ifvqhvg","pricing_plan_id":"cebpf4jnsgd1na2vs0mg"},{"bike_id":"360d3a96-7ccc-444e-a986-f2804506cf56","system_id":"levelo_inurba_marseille","lat":43.28482,"lon":5.38547,"is_reserved":false,"is_disabled":false,"rental_uris":{"android":"levelo://app?vid=360d3a96-7ccc-444e-a986-f2804506cf56","ios":"levelo://app?vid=360d3a96-7ccc-444e-a986-f2804506cf56"},"vehicle_type_id":"4","last_reported":1777536165,"current_range_meters":7200,"station_id":"ce4bh8p2rcd13ifvqeb0","pricing_plan_id":"cebpf4jnsgd1na2vs0mg"},{"bike_id":"8ecd22d6-ea16-4947-a7cb-5d0643282d24","system_id":"levelo_inurba_marseille","lat":43.28107,"lon":5.37849,"is_reserved":false,"is_disabled":false,"rental_uris":{"android":"levelo://app?vid=8ecd22d6-ea16-4947-a7cb-5d0643282d24","ios":"levelo://app?vid=8ecd22d6-ea16-4947-a7cb-5d0643282d24"},"vehicle_type_id":"4","last_reported":1777536165,"current_range_meters":7200,"station_id":"ce4bha12rcd13ifvqee0","pricing_plan_id":"cebpf4jnsgd1na2vs0mg"},{"bike_id":"14ffd392-a207-41da-942f-3d5d62a42696","system_id":"levelo_inurba_marseille","lat":43.31879,"lon":5.36824,"is_reserved":false,"is_disabled":false,"rental_uris":{"android":"levelo://app?vid=14ffd392-a207-41da-942f-3d5d62a42696","ios":"levelo://app?vid=14ffd392-a207-41da-942f-3d5d62a42696"},"vehicle_type_id":"4","last_reported":1777536165,"current_range_meters":7200,"station_id":"st_d6o2h0d0559c73evc1b0","pricing_plan_id":"cebpf4jnsgd1na2vs0mg"},{"bike_id":"00ff0799-7689-45c9-8cd0-76bddacfdb63","system_id":"levelo_inurba_marseille","lat":43.28148,"lon":5.42651,"is_reserved":false,"is_disabled":false,"rental_uris":{"android":"levelo://app?vid=00ff0799-7689-45c9-8cd0-76bddacfdb63","ios":"levelo://app?vid=00ff0799-7689-45c9-8cd0-76bddacfdb63"},"vehicle_type_id":"4","last_reported":1777536165,"current_range_meters":7200,"station_id":"ce4bhnh2rcd13ifvqgug","pricing_plan_id":"cebpf4jnsgd1na2vs0mg"},{"bike_id":"0d95a825-22c5-4777-a55a-06ae499807ca","system_id":"levelo_inurba_marseille","lat":43.31895,"lon":5.36803,"is_reserved":false,"is_disabled":false,"rental_uris":{"android":"levelo://app?vid=0d95a825-22c5-4777-a55a-06ae499807ca","ios":"levelo://app?vid=0d95a825-22c5-4777-a55a-06ae499807ca"},"vehicle_type_id":"4","last_reported":1777536165,"current_range_meters":7200,"station_id":"st_d6o2h0d0559c73evc1b0","pricing_plan_id":"cebpf4jnsgd1na2vs0mg"},{"bike_id":"945807ea-e56e-4376-aaeb-41e1199104f2","system_id":"levelo_inurba_marseille","lat":43.28689,"lon":5.46698,"is_reserved":false,"is_disabled":false,"rental_uris":{"android":"levelo://app?vid=945807ea-e56e-4376-aaeb-41e1199104f2","ios":"levelo://app?vid=945807ea-e56e-4376-aaeb-41e1199104f2"},"vehicle_type_id":"4","last_reported":1777536165,"current_range_meters":7200,"station_id":"st_d6tc3vkotcvc738tfjhg","pricing_plan_id":"cebpf4jnsgd1na2vs0mg"},{"bike_id":"d70eb2cf-5357-4c88-b428-dda12190fac2","system_id":"levelo_inurba_marseille","lat":43.25577,"lon":5.38234,"is_reserved":false,"is_disabled":false,"rental_uris":{"android":"levelo://app?vid=d70eb2cf-5357-4c88-b428-dda12190fac2","ios":"levelo://app?vid=d70eb2cf-5357-4c88-b428-dda12190fac2"},"vehicle_type_id":"4","last_reported":1777536165,"current_range_meters":7200,"station_id":"ce4bhih2rcd13ifvqfs0","pricing_plan_id":"cebpf4jnsgd1na2vs0mg"},{"bike_id":"7f5d1c22-f034-4114-866a-5ab27f4fa9fd","system_id":"levelo_inurba_marseille","lat":43.30295,"lon":5.38529,"is_reserved":false,"is_disabled":false,"rental_uris":{"android":"levelo://app?vid=7f5d1c22-f034-4114-866a-5ab27f4fa9fd","ios":"levelo://app?vid=7f5d1c22-f034-4114-866a-5ab27f4fa9fd"},"vehicle_type_id":"4","last_reported":1777536165,"current_range_meters":7200,"station_id":"","pricing_plan_id":"cebpf4jnsgd1na2vs0mg"},{"bike_id":"8dd331a7-fb5f-49f0-98bd-5e07152fbb85","system_id":"levelo_inurba_marseille","lat":43.2593,"lon":5.40899,"is_reserved":false,"is_disabled":false,"rental_uris":{"android":"levelo://app?vid=8dd331a7-fb5f-49f0-98bd-5e07152fbb85","ios":"levelo://app?vid=8dd331a7-fb5f-49f0-98bd-5e07152fbb85"},"vehicle_type_id":"4","last_reported":1777536165,"current_range_meters":7200,"station_id":"ce4bhm92rcd13ifvqglg","pricing_plan_id":"cebpf4jnsgd1na2vs0mg"},{"bike_id":"4da23bbf-8aab-4991-bb00-1a569a4581cc","system_id":"levelo_inurba_marseille","lat":43.27067,"lon":5.42281,"is_reserved":false,"is_disabled":false,"rental_uris":{"android":"levelo://app?vid=4da23bbf-8aab-4991-bb00-1a569a4581cc","ios":"levelo://app?vid=4da23bbf-8aab-4991-bb00-1a569a4581cc"},"vehicle_type_id":"4","last_reported":1777536165,"current_range_meters":7200,"station_id":"ce4bhk92rcd13ifvqgb0","pricing_plan_id":"cebpf4jnsgd1na2vs0mg"},{"bike_id":"983c419f-b2e5-41c0-a6de-4665722d0571","system_id":"levelo_inurba_marseille","lat":43.30803,"lon":5.38124,"is_reserved":false,"is_disabled":false,"rental_uris":{"android":"levelo://app?vid=983c419f-b2e5-41c0-a6de-4665722d0571","ios":"levelo://app?vid=983c419f-b2e5-41c0-a6de-4665722d0571"},"vehicle_type_id":"4","last_reported":1777536165,"current_range_meters":7200,"station_id":"ce4bgt12rcd13ifvqce0","pricing_plan_id":"cebpf4jnsgd1na2vs0mg"},{"bike_id":"80fb7e56-e04f-4e29-bbac-af0e4969fc7a","system_id":"levelo_inurba_marseille","lat":43.30935,"lon":5.39069,"is_reserved":false,"is_disabled":false,"rental_uris":{"android":"levelo://app?vid=80fb7e56-e04f-4e29-bbac-af0e4969fc7a","ios":"levelo://app?vid=80fb7e56-e04f-4e29-bbac-af0e4969fc7a"},"vehicle_type_id":"4","last_reported":1777536165,"current_range_meters":7200,"station_id":"ce4bgup2rcd13ifvqco0","pricing_plan_id":"cebpf4jnsgd1na2vs0mg"},{"bike_id":"3a530688-3fe7-4e09-9385-01003a337a95","system_id":"levelo_inurba_marseille","lat":43.30916,"lon":5.40153,"is_reserved":false,"is_disabled":false,"rental_uris":{"android":"levelo://app?vid=3a530688-3fe7-4e09-9385-01003a337a95","ios":"levelo://app?vid=3a530688-3fe7-4e09-9385-01003a337a95"},"vehicle_type_id":"4","last_reported":1777536165,"current_range_meters":7200,"station_id":"ce4bgvp2rcd13ifvqct0","pricing_plan_id":"cebpf4jnsgd1na2vs0mg"},{"bike_id":"a7cdfbfa-8b95-4109-9ab4-7eb42d37ca97","system_id":"levelo_inurba_marseille","lat":43.30474,"lon":5.37908,"is_reserved":false,"is_disabled":false,"rental_uris":{"android":"levelo://app?vid=a7cdfbfa-8b95-4109-9ab4-7eb42d37ca97","ios":"levelo://app?vid=a7cdfbfa-8b95-4109-9ab4-7eb42d37ca97"},"vehicle_type_id":"4","last_reported":1777536165,"current_range_meters":7200,"station_id":"ce4bgup2rcd13ifvqcn0","pricing_plan_id":"cebpf4jnsgd1na2vs0mg"},{"bike_id":"dd649e74-ed5e-4ce6-b6fc-191746436a7b","system_id":"levelo_inurba_marseille","lat":43.25071,"lon":5.42549,"is_reserved":false,"is_disabled":false,"rental_uris":{"android":"levelo://app?vid=dd649e74-ed5e-4ce6-b6fc-191746436a7b","ios":"levelo://app?vid=dd649e74-ed5e-4ce6-b6fc-191746436a7b"},"vehicle_type_id":"4","last_reported":1777536165,"current_range_meters":7200,"station_id":"","pricing_plan_id":"cebpf4jnsgd1na2vs0mg"},{"bike_id":"c85449a5-6daf-482c-9c90-e02e218191aa","system_id":"levelo_inurba_marseille","lat":43.278331,"lon":5.392103,"is_reserved":false,"is_disabled":false,"rental_uris":{"android":"levelo://app?vid=c85449a5-6daf-482c-9c90-e02e218191aa","ios":"levelo://app?vid=c85449a5-6daf-482c-9c90-e02e218191aa"},"vehicle_type_id":"4","last_reported":1777536165,"current_range_meters":8000,"station_id":"ce4bhjp2rcd13ifvqga0","pricing_plan_id":"cebpf4jnsgd1na2vs0mg"},{"bike_id":"aa1066a2-52ee-4b5e-9ea8-f5bfb38bf0a4","system_id":"levelo_inurba_marseille","lat":43.32346,"lon":5.3674,"is_reserved":false,"is_disabled":false,"rental_uris":{"android":"levelo://app?vid=aa1066a2-52ee-4b5e-9ea8-f5bfb38bf0a4","ios":"levelo://app?vid=aa1066a2-52ee-4b5e-9ea8-f5bfb38bf0a4"},"vehicle_type_id":"4","last_reported":1777536165,"current_range_meters":8000,"station_id":"ce4bhsh2rcd13ifvqi2g","pricing_plan_id":"cebpf4jnsgd1na2vs0mg"},{"bike_id":"73ddb866-5c7b-49bc-a174-3923f7263bab","system_id":"levelo_inurba_marseille","lat":43.2963,"lon":5.3603,"is_reserved":false,"is_disabled":false,"rental_uris":{"android":"levelo://app?vid=73ddb866-5c7b-49bc-a174-3923f7263bab","ios":"levelo://app?vid=73ddb866-5c7b-49bc-a174-3923f7263bab"},"vehicle_type_id":"4","last_reported":1777536165,"current_range_meters":8000,"station_id":"","pricing_plan_id":"cebpf4jnsgd1na2vs0mg"},{"bike_id":"67770120-bd85-4b15-af1e-f85ca14859f3","system_id":"levelo_inurba_marseille","lat":43.28856,"lon":5.42521,"is_reserved":false,"is_disabled":false,"rental_uris":{"android":"levelo://app?vid=67770120-bd85-4b15-af1e-f85ca14859f3","ios":"levelo://app?vid=67770120-bd85-4b15-af1e-f85ca14859f3"},"vehicle_type_id":"4","last_reported":1777536165,"current_range_meters":8000,"station_id":"st_d3b462108ojc7389ooeg","pricing_plan_id":"cebpf4jnsgd1na2vs0mg"},{"bike_id":"496d272c-75fc-4f0a-b357-88f9d2ee6a41","system_id":"levelo_inurba_marseille","lat":43.33741,"lon":5.3747,"is_reserved":false,"is_disabled":true,"rental_uris":{"android":"levelo://app?vid=496d272c-75fc-4f0a-b357-88f9d2ee6a41","ios":"levelo://app?vid=496d272c-75fc-4f0a-b357-88f9d2ee6a41"},"vehicle_type_id":"4","last_reported":1777536165,"current_range_meters":8000,"station_id":"","pricing_plan_id":"cebpf4jnsgd1na2vs0mg"},{"bike_id":"bef842b3-12ba-42ec-b3e9-6af5a5ad0fec","system_id":"levelo_inurba_marseille","lat":43.30528,"lon":5.38418,"is_reserved":false,"is_disabled":false,"rental_uris":{"android":"levelo://app?vid=bef842b3-12ba-42ec-b3e9-6af5a5ad0fec","ios":"levelo://app?vid=bef842b3-12ba-42ec-b3e9-6af5a5ad0fec"},"vehicle_type_id":"4","last_reported":1777536165,"current_range_meters":8000,"station_id":"ce4bgg92rcd13ifvqb30","pricing_plan_id":"cebpf4jnsgd1na2vs0mg"},{"bike_id":"5cc847c3-c7ab-4803-a64a-cfb2e18548c3","system_id":"levelo_inurba_marseille","lat":43.2964,"lon":5.36987,"is_reserved":false,"is_disabled":false,"rental_uris":{"android":"levelo://app?vid=5cc847c3-c7ab-4803-a64a-cfb2e18548c3","ios":"levelo://app?vid=5cc847c3-c7ab-4803-a64a-cfb2e18548c3"},"vehicle_type_id":"4","last_reported":1777536165,"current_range_meters":8000,"station_id":"","pricing_plan_id":"cebpf4jnsgd1na2vs0mg"},{"bike_id":"185f6a63-df7b-4ce1-a4a0-11b9c82d2a52","system_id":"levelo_inurba_marseille","lat":43.30562,"lon":5.36545,"is_reserved":false,"is_disabled":false,"rental_uris":{"android":"levelo://app?vid=185f6a63-df7b-4ce1-a4a0-11b9c82d2a52","ios":"levelo://app?vid=185f6a63-df7b-4ce1-a4a0-11b9c82d2a52"},"vehicle_type_id":"4","last_reported":1777536165,"current_range_meters":8000,"station_id":"ce4bgs12rcd13ifvqcag","pricing_plan_id":"cebpf4jnsgd1na2vs0mg"},{"bike_id":"922264b1-c73c-4fd0-af54-9ef74e08be9a","system_id":"levelo_inurba_marseille","lat":43.2731,"lon":5.39103,"is_reserved":false,"is_disabled":false,"rental_uris":{"android":"levelo://app?vid=922264b1-c73c-4fd0-af54-9ef74e08be9a","ios":"levelo://app?vid=922264b1-c73c-4fd0-af54-9ef74e08be9a"},"vehicle_type_id":"4","last_reported":1777536165,"current_range_meters":8000,"station_id":"ce4bhgp2rcd13ifvqfe0","pricing_plan_id":"cebpf4jnsgd1na2vs0mg"},{"bike_id":"a2a694ab-bd57-45a8-a651-048e4cefae01","system_id":"levelo_inurba_marseille","lat":43.28695,"lon":5.46675,"is_reserved":false,"is_disabled":false,"rental_uris":{"android":"levelo://app?vid=a2a694ab-bd57-45a8-a651-048e4cefae01","ios":"levelo://app?vid=a2a694ab-bd57-45a8-a651-048e4cefae01"},"vehicle_type_id":"4","last_reported":1777536165,"current_range_meters":8000,"station_id":"st_d6tc3vkotcvc738tfjhg","pricing_plan_id":"cebpf4jnsgd1na2vs0mg"},{"bike_id":"b6b19092-1d16-47fb-b5df-265994d940cc","system_id":"levelo_inurba_marseille","lat":43.29255,"lon":5.40918,"is_reserved":false,"is_disabled":true,"rental_uris":{"android":"levelo://app?vid=b6b19092-1d16-47fb-b5df-265994d940cc","ios":"levelo://app?vid=b6b19092-1d16-47fb-b5df-265994d940cc"},"vehicle_type_id":"4","last_reported":1777536165,"current_range_meters":8000,"station_id":"ce4bh192rcd13ifvqdc0","pricing_plan_id":"cebpf4jnsgd1na2vs0mg"},{"bike_id":"290b5a2b-62c9-4a20-957f-8f1c3289cd94","system_id":"levelo_inurba_marseille","lat":43.30126,"lon":5.3743,"is_reserved":false,"is_disabled":false,"rental_uris":{"android":"levelo://app?vid=290b5a2b-62c9-4a20-957f-8f1c3289cd94","ios":"levelo://app?vid=290b5a2b-62c9-4a20-957f-8f1c3289cd94"},"vehicle_type_id":"4","last_reported":1777536165,"current_range_meters":8000,"station_id":"ce4bgs92rcd13ifvqcc0","pricing_plan_id":"cebpf4jnsgd1na2vs0mg"},{"bike_id":"3bcecd58-64c0-4e2d-8d18-75964e1abbf6","system_id":"levelo_inurba_marseille","lat":43.27179,"lon":5.40988,"is_reserved":false,"is_disabled":false,"rental_uris":{"android":"levelo://app?vid=3bcecd58-64c0-4e2d-8d18-75964e1abbf6","ios":"levelo://app?vid=3bcecd58-64c0-4e2d-8d18-75964e1abbf6"},"vehicle_type_id":"4","last_reported":1777536165,"current_range_meters":8000,"station_id":"ce4bhl12rcd13ifvqgf0","pricing_plan_id":"cebpf4jnsgd1na2vs0mg"},{"bike_id":"fa7e045d-8c9f-4859-94b9-0ac50a9adab0","system_id":"levelo_inurba_marseille","lat":43.31119,"lon":5.3777,"is_reserved":false,"is_disabled":false,"rental_uris":{"android":"levelo://app?vid=fa7e045d-8c9f-4859-94b9-0ac50a9adab0","ios":"levelo://app?vid=fa7e045d-8c9f-4859-94b9-0ac50a9adab0"},"vehicle_type_id":"4","last_reported":1777536165,"current_range_meters":8000,"station_id":"ce4bgt92rcd13ifvqcg0","pricing_plan_id":"cebpf4jnsgd1na2vs0mg"},{"bike_id":"8d527c63-f6ae-43f0-9a0d-88a8554b147c","system_id":"levelo_inurba_marseille","lat":43.24391,"lon":5.37072,"is_reserved":false,"is_disabled":false,"rental_uris":{"android":"levelo://app?vid=8d527c63-f6ae-43f0-9a0d-88a8554b147c","ios":"levelo://app?vid=8d527c63-f6ae-43f0-9a0d-88a8554b147c"},"vehicle_type_id":"4","last_reported":1777536165,"current_range_meters":8000,"station_id":"ce4bhhh2rcd13ifvqfk0","pricing_plan_id":"cebpf4jnsgd1na2vs0mg"},{"bike_id":"76b76a5a-e9c0-44f3-94af-8de1a567c89d","system_id":"levelo_inurba_marseille","lat":43.22535,"lon":5.34839,"is_reserved":false,"is_disabled":false,"rental_uris":{"android":"levelo://app?vid=76b76a5a-e9c0-44f3-94af-8de1a567c89d","ios":"levelo://app?vid=76b76a5a-e9c0-44f3-94af-8de1a567c89d"},"vehicle_type_id":"4","last_reported":1777536165,"current_range_meters":8000,"station_id":"st_cvj5dfep6f1abm77gieg","pricing_plan_id":"cebpf4jnsgd1na2vs0mg"},{"bike_id":"7d8032ad-eae4-4521-a48e-9f44ab16d56b","system_id":"levelo_inurba_marseille","lat":43.297066,"lon":5.366014,"is_reserved":false,"is_disabled":false,"rental_uris":{"android":"levelo://app?vid=7d8032ad-eae4-4521-a48e-9f44ab16d56b","ios":"levelo://app?vid=7d8032ad-eae4-4521-a48e-9f44ab16d56b"},"vehicle_type_id":"4","last_reported":1777536165,"current_range_meters":8400,"station_id":"ce4bgn12rcd13ifvqbt0","pricing_plan_id":"cebpf4jnsgd1na2vs0mg"},{"bike_id":"9c85ea94-e0db-4d3e-baca-fa152ee440d3","system_id":"levelo_inurba_marseille","lat":43.25572,"lon":5.38243,"is_reserved":false,"is_disabled":false,"rental_uris":{"android":"levelo://app?vid=9c85ea94-e0db-4d3e-baca-fa152ee440d3","ios":"levelo://app?vid=9c85ea94-e0db-4d3e-baca-fa152ee440d3"},"vehicle_type_id":"4","last_reported":1777536165,"current_range_meters":8400,"station_id":"ce4bhih2rcd13ifvqfs0","pricing_plan_id":"cebpf4jnsgd1na2vs0mg"},{"bike_id":"3995b84f-572e-40b4-bef0-aa0d3ccae836","system_id":"levelo_inurba_marseille","lat":43.2959,"lon":5.36666,"is_reserved":false,"is_disabled":true,"rental_uris":{"android":"levelo://app?vid=3995b84f-572e-40b4-bef0-aa0d3ccae836","ios":"levelo://app?vid=3995b84f-572e-40b4-bef0-aa0d3ccae836"},"vehicle_type_id":"4","last_reported":1777536165,"current_range_meters":8400,"station_id":"ce4bgph2rcd13ifvqc2g","pricing_plan_id":"cebpf4jnsgd1na2vs0mg"},{"bike_id":"95f47514-1d7f-4013-95fe-a0916f7cc45a","system_id":"levelo_inurba_marseille","lat":43.33549,"lon":5.3746,"is_reserved":false,"is_disabled":false,"rental_uris":{"android":"levelo://app?vid=95f47514-1d7f-4013-95fe-a0916f7cc45a","ios":"levelo://app?vid=95f47514-1d7f-4013-95fe-a0916f7cc45a"},"vehicle_type_id":"4","last_reported":1777536165,"current_range_meters":8400,"station_id":"st_d46tts09ee8s73dlu43g","pricing_plan_id":"cebpf4jnsgd1na2vs0mg"},{"bike_id":"7144eda6-3569-443f-8fe5-a912be1ad143","system_id":"levelo_inurba_marseille","lat":43.27829,"lon":5.39212,"is_reserved":false,"is_disabled":false,"rental_uris":{"android":"levelo://app?vid=7144eda6-3569-443f-8fe5-a912be1ad143","ios":"levelo://app?vid=7144eda6-3569-443f-8fe5-a912be1ad143"},"vehicle_type_id":"4","last_reported":1777536165,"current_range_meters":8400,"station_id":"ce4bhjp2rcd13ifvqga0","pricing_plan_id":"cebpf4jnsgd1na2vs0mg"},{"bike_id":"cadcdc4c-2148-4dec-a8c2-bb77e59fbd52","system_id":"levelo_inurba_marseille","lat":43.28109,"lon":5.37823,"is_reserved":false,"is_disabled":false,"rental_uris":{"android":"levelo://app?vid=cadcdc4c-2148-4dec-a8c2-bb77e59fbd52","ios":"levelo://app?vid=cadcdc4c-2148-4dec-a8c2-bb77e59fbd52"},"vehicle_type_id":"4","last_reported":1777536165,"current_range_meters":8400,"station_id":"ce4bha12rcd13ifvqee0","pricing_plan_id":"cebpf4jnsgd1na2vs0mg"},{"bike_id":"21d1f734-a18c-4f60-9e31-937253d0af36","system_id":"levelo_inurba_marseille","lat":43.26547,"lon":5.37283,"is_reserved":false,"is_disabled":false,"rental_uris":{"android":"levelo://app?vid=21d1f734-a18c-4f60-9e31-937253d0af36","ios":"levelo://app?vid=21d1f734-a18c-4f60-9e31-937253d0af36"},"vehicle_type_id":"4","last_reported":1777536165,"current_range_meters":8400,"station_id":"ce4bhg12rcd13ifvqf70","pricing_plan_id":"cebpf4jnsgd1na2vs0mg"},{"bike_id":"4a053626-5747-4701-b22b-d4ff49e0a9a4","system_id":"levelo_inurba_marseille","lat":43.28665,"lon":5.36351,"is_reserved":false,"is_disabled":false,"rental_uris":{"android":"levelo://app?vid=4a053626-5747-4701-b22b-d4ff49e0a9a4","ios":"levelo://app?vid=4a053626-5747-4701-b22b-d4ff49e0a9a4"},"vehicle_type_id":"4","last_reported":1777536165,"current_range_meters":8400,"station_id":"ce4bhah2rcd13ifvqej0","pricing_plan_id":"cebpf4jnsgd1na2vs0mg"},{"bike_id":"160e418f-f550-431c-8292-fbceee2d8472","system_id":"levelo_inurba_marseille","lat":43.30125,"lon":5.43118,"is_reserved":false,"is_disabled":false,"rental_uris":{"android":"levelo://app?vid=160e418f-f550-431c-8292-fbceee2d8472","ios":"levelo://app?vid=160e418f-f550-431c-8292-fbceee2d8472"},"vehicle_type_id":"4","last_reported":1777536165,"current_range_meters":8400,"station_id":"st_d3js3co5814s73ftftug","pricing_plan_id":"cebpf4jnsgd1na2vs0mg"},{"bike_id":"c7456257-172f-470f-9192-9b6a24a800ce","system_id":"levelo_inurba_marseille","lat":43.29632,"lon":5.37703,"is_reserved":false,"is_disabled":false,"rental_uris":{"android":"levelo://app?vid=c7456257-172f-470f-9192-9b6a24a800ce","ios":"levelo://app?vid=c7456257-172f-470f-9192-9b6a24a800ce"},"vehicle_type_id":"4","last_reported":1777536165,"current_range_meters":8400,"station_id":"ce4bgi92rcd13ifvqb90","pricing_plan_id":"cebpf4jnsgd1na2vs0mg"},{"bike_id":"b95935e1-f9eb-43c7-ad9c-aa899fe013d4","system_id":"levelo_inurba_marseille","lat":43.249981,"lon":5.389273,"is_reserved":false,"is_disabled":false,"rental_uris":{"android":"levelo://app?vid=b95935e1-f9eb-43c7-ad9c-aa899fe013d4","ios":"levelo://app?vid=b95935e1-f9eb-43c7-ad9c-aa899fe013d4"},"vehicle_type_id":"4","last_reported":1777536165,"current_range_meters":8400,"station_id":"ce4bhgp2rcd13ifvqfd0","pricing_plan_id":"cebpf4jnsgd1na2vs0mg"},{"bike_id":"d2d2e7f5-75cd-42b3-8b6f-6203421c9e06","system_id":"levelo_inurba_marseille","lat":43.292235,"lon":5.360584,"is_reserved":false,"is_disabled":false,"rental_uris":{"android":"levelo://app?vid=d2d2e7f5-75cd-42b3-8b6f-6203421c9e06","ios":"levelo://app?vid=d2d2e7f5-75cd-42b3-8b6f-6203421c9e06"},"vehicle_type_id":"4","last_reported":1777536165,"current_range_meters":8400,"station_id":"ce4bhbh2rcd13ifvqeqg","pricing_plan_id":"cebpf4jnsgd1na2vs0mg"},{"bike_id":"96c1677c-ba34-44c4-b8f0-676f4f85c27f","system_id":"levelo_inurba_marseille","lat":43.29448,"lon":5.38812,"is_reserved":false,"is_disabled":true,"rental_uris":{"android":"levelo://app?vid=96c1677c-ba34-44c4-b8f0-676f4f85c27f","ios":"levelo://app?vid=96c1677c-ba34-44c4-b8f0-676f4f85c27f"},"vehicle_type_id":"4","last_reported":1777536165,"current_range_meters":8400,"station_id":"","pricing_plan_id":"cebpf4jnsgd1na2vs0mg"},{"bike_id":"d5cda9f5-de5e-48fd-b8fa-56c4fdce3a61","system_id":"levelo_inurba_marseille","lat":43.30455,"lon":5.3653,"is_reserved":false,"is_disabled":false,"rental_uris":{"android":"levelo://app?vid=d5cda9f5-de5e-48fd-b8fa-56c4fdce3a61","ios":"levelo://app?vid=d5cda9f5-de5e-48fd-b8fa-56c4fdce3a61"},"vehicle_type_id":"4","last_reported":1777536165,"current_range_meters":8400,"station_id":"","pricing_plan_id":"cebpf4jnsgd1na2vs0mg"},{"bike_id":"dd84f071-9a19-40d3-9584-4f24fb91a8d1","system_id":"levelo_inurba_marseille","lat":43.30549,"lon":5.36509,"is_reserved":false,"is_disabled":false,"rental_uris":{"android":"levelo://app?vid=dd84f071-9a19-40d3-9584-4f24fb91a8d1","ios":"levelo://app?vid=dd84f071-9a19-40d3-9584-4f24fb91a8d1"},"vehicle_type_id":"4","last_reported":1777536165,"current_range_meters":8400,"station_id":"ce4bgs12rcd13ifvqcag","pricing_plan_id":"cebpf4jnsgd1na2vs0mg"},{"bike_id":"a6255f28-9b3a-4c7a-bed1-e0e25eeb164b","system_id":"levelo_inurba_marseille","lat":43.29298,"lon":5.37467,"is_reserved":false,"is_disabled":false,"rental_uris":{"android":"levelo://app?vid=a6255f28-9b3a-4c7a-bed1-e0e25eeb164b","ios":"levelo://app?vid=a6255f28-9b3a-4c7a-bed1-e0e25eeb164b"},"vehicle_type_id":"4","last_reported":1777536165,"current_range_meters":8800,"station_id":"ce4bgi12rcd13ifvqb70","pricing_plan_id":"cebpf4jnsgd1na2vs0mg"},{"bike_id":"7d58de23-44be-4dd4-a60b-ef501bc2cc74","system_id":"levelo_inurba_marseille","lat":43.29637,"lon":5.37034,"is_reserved":false,"is_disabled":false,"rental_uris":{"android":"levelo://app?vid=7d58de23-44be-4dd4-a60b-ef501bc2cc74","ios":"levelo://app?vid=7d58de23-44be-4dd4-a60b-ef501bc2cc74"},"vehicle_type_id":"4","last_reported":1777536165,"current_range_meters":8800,"station_id":"","pricing_plan_id":"cebpf4jnsgd1na2vs0mg"},{"bike_id":"2db651d7-7b81-464a-bb48-581bf1e0c30d","system_id":"levelo_inurba_marseille","lat":43.24059,"lon":5.37791,"is_reserved":false,"is_disabled":false,"rental_uris":{"android":"levelo://app?vid=2db651d7-7b81-464a-bb48-581bf1e0c30d","ios":"levelo://app?vid=2db651d7-7b81-464a-bb48-581bf1e0c30d"},"vehicle_type_id":"4","last_reported":1777536165,"current_range_meters":8800,"station_id":"ce4bhnp2rcd13ifvqgvg","pricing_plan_id":"cebpf4jnsgd1na2vs0mg"},{"bike_id":"bff094dc-c807-4b48-9d18-36bdd881fbbd","system_id":"levelo_inurba_marseille","lat":43.2916,"lon":5.37162,"is_reserved":false,"is_disabled":false,"rental_uris":{"android":"levelo://app?vid=bff094dc-c807-4b48-9d18-36bdd881fbbd","ios":"levelo://app?vid=bff094dc-c807-4b48-9d18-36bdd881fbbd"},"vehicle_type_id":"4","last_reported":1777536165,"current_range_meters":8800,"station_id":"ce4bha92rcd13ifvqeh0","pricing_plan_id":"cebpf4jnsgd1na2vs0mg"},{"bike_id":"39d2c9b5-2f32-4bf6-af1c-92d8571f5706","system_id":"levelo_inurba_marseille","lat":43.29097,"lon":5.38131,"is_reserved":false,"is_disabled":false,"rental_uris":{"android":"levelo://app?vid=39d2c9b5-2f32-4bf6-af1c-92d8571f5706","ios":"levelo://app?vid=39d2c9b5-2f32-4bf6-af1c-92d8571f5706"},"vehicle_type_id":"4","last_reported":1777536165,"current_range_meters":8800,"station_id":"ce4bh512rcd13ifvqe2g","pricing_plan_id":"cebpf4jnsgd1na2vs0mg"},{"bike_id":"335fc8dc-ad2f-4253-b0e2-b10d3d2d0173","system_id":"levelo_inurba_marseille","lat":43.28479,"lon":5.38553,"is_reserved":false,"is_disabled":true,"rental_uris":{"android":"levelo://app?vid=335fc8dc-ad2f-4253-b0e2-b10d3d2d0173","ios":"levelo://app?vid=335fc8dc-ad2f-4253-b0e2-b10d3d2d0173"},"vehicle_type_id":"4","last_reported":1777536165,"current_range_meters":8800,"station_id":"ce4bh8p2rcd13ifvqeb0","pricing_plan_id":"cebpf4jnsgd1na2vs0mg"},{"bike_id":"76258a54-cf92-4cd4-97ad-85750dfd9b63","system_id":"levelo_inurba_marseille","lat":43.31893,"lon":5.4073,"is_reserved":false,"is_disabled":false,"rental_uris":{"android":"levelo://app?vid=76258a54-cf92-4cd4-97ad-85750dfd9b63","ios":"levelo://app?vid=76258a54-cf92-4cd4-97ad-85750dfd9b63"},"vehicle_type_id":"4","last_reported":1777536165,"current_range_meters":8800,"station_id":"ce4bhq12rcd13ifvqhig","pricing_plan_id":"cebpf4jnsgd1na2vs0mg"},{"bike_id":"b343647a-8af9-49ae-98e6-438f68dffe33","system_id":"levelo_inurba_marseille","lat":43.29215,"lon":5.36058,"is_reserved":false,"is_disabled":true,"rental_uris":{"android":"levelo://app?vid=b343647a-8af9-49ae-98e6-438f68dffe33","ios":"levelo://app?vid=b343647a-8af9-49ae-98e6-438f68dffe33"},"vehicle_type_id":"4","last_reported":1777536165,"current_range_meters":8800,"station_id":"ce4bhbh2rcd13ifvqeqg","pricing_plan_id":"cebpf4jnsgd1na2vs0mg"},{"bike_id":"3a4ab97e-f59c-440e-a1c5-fc235ca93bc2","system_id":"levelo_inurba_marseille","lat":43.24656,"lon":5.38154,"is_reserved":false,"is_disabled":false,"rental_uris":{"android":"levelo://app?vid=3a4ab97e-f59c-440e-a1c5-fc235ca93bc2","ios":"levelo://app?vid=3a4ab97e-f59c-440e-a1c5-fc235ca93bc2"},"vehicle_type_id":"4","last_reported":1777536165,"current_range_meters":8800,"station_id":"ce4bhih2rcd13ifvqfr0","pricing_plan_id":"cebpf4jnsgd1na2vs0mg"},{"bike_id":"275f0e36-65c4-489f-bd62-ec5e03923f09","system_id":"levelo_inurba_marseille","lat":43.22538,"lon":5.41641,"is_reserved":false,"is_disabled":false,"rental_uris":{"android":"levelo://app?vid=275f0e36-65c4-489f-bd62-ec5e03923f09","ios":"levelo://app?vid=275f0e36-65c4-489f-bd62-ec5e03923f09"},"vehicle_type_id":"4","last_reported":1777536165,"current_range_meters":8800,"station_id":"st_d2o4gvlbi1j2169b742g","pricing_plan_id":"cebpf4jnsgd1na2vs0mg"},{"bike_id":"bd381285-9688-4b86-bb58-500e4f0f2544","system_id":"levelo_inurba_marseille","lat":43.23316,"lon":5.39952,"is_reserved":false,"is_disabled":false,"rental_uris":{"android":"levelo://app?vid=bd381285-9688-4b86-bb58-500e4f0f2544","ios":"levelo://app?vid=bd381285-9688-4b86-bb58-500e4f0f2544"},"vehicle_type_id":"4","last_reported":1777536165,"current_range_meters":8800,"station_id":"","pricing_plan_id":"cebpf4jnsgd1na2vs0mg"},{"bike_id":"65dcd980-6fe9-4c7d-822c-075ad32b715a","system_id":"levelo_inurba_marseille","lat":43.23806,"lon":5.36623,"is_reserved":false,"is_disabled":false,"rental_uris":{"android":"levelo://app?vid=65dcd980-6fe9-4c7d-822c-075ad32b715a","ios":"levelo://app?vid=65dcd980-6fe9-4c7d-822c-075ad32b715a"},"vehicle_type_id":"4","last_reported":1777536165,"current_range_meters":8800,"station_id":"st_d3nk18o9ro0c73en2l3g","pricing_plan_id":"cebpf4jnsgd1na2vs0mg"},{"bike_id":"5aa91473-46a9-4460-8305-ba7ccda38b0a","system_id":"levelo_inurba_marseille","lat":43.31209,"lon":5.36887,"is_reserved":false,"is_disabled":false,"rental_uris":{"android":"levelo://app?vid=5aa91473-46a9-4460-8305-ba7ccda38b0a","ios":"levelo://app?vid=5aa91473-46a9-4460-8305-ba7ccda38b0a"},"vehicle_type_id":"4","last_reported":1777536165,"current_range_meters":8800,"station_id":"ce4bgl92rcd13ifvqbq0","pricing_plan_id":"cebpf4jnsgd1na2vs0mg"},{"bike_id":"d29f2fb5-d84d-40be-9978-ba1e4121948f","system_id":"levelo_inurba_marseille","lat":43.2784,"lon":5.39222,"is_reserved":false,"is_disabled":false,"rental_uris":{"android":"levelo://app?vid=d29f2fb5-d84d-40be-9978-ba1e4121948f","ios":"levelo://app?vid=d29f2fb5-d84d-40be-9978-ba1e4121948f"},"vehicle_type_id":"4","last_reported":1777536165,"current_range_meters":8800,"station_id":"ce4bhjp2rcd13ifvqga0","pricing_plan_id":"cebpf4jnsgd1na2vs0mg"},{"bike_id":"d83c4125-89bd-4225-bf8d-00f04d0c6ab4","system_id":"levelo_inurba_marseille","lat":43.27319,"lon":5.3911,"is_reserved":false,"is_disabled":false,"rental_uris":{"android":"levelo://app?vid=d83c4125-89bd-4225-bf8d-00f04d0c6ab4","ios":"levelo://app?vid=d83c4125-89bd-4225-bf8d-00f04d0c6ab4"},"vehicle_type_id":"4","last_reported":1777536165,"current_range_meters":8800,"station_id":"ce4bhgp2rcd13ifvqfe0","pricing_plan_id":"cebpf4jnsgd1na2vs0mg"},{"bike_id":"43c6bc05-7383-45f6-857c-a5eecd32c6b9","system_id":"levelo_inurba_marseille","lat":43.25581,"lon":5.3822,"is_reserved":false,"is_disabled":false,"rental_uris":{"android":"levelo://app?vid=43c6bc05-7383-45f6-857c-a5eecd32c6b9","ios":"levelo://app?vid=43c6bc05-7383-45f6-857c-a5eecd32c6b9"},"vehicle_type_id":"4","last_reported":1777536165,"current_range_meters":8800,"station_id":"ce4bhih2rcd13ifvqfs0","pricing_plan_id":"cebpf4jnsgd1na2vs0mg"},{"bike_id":"a8213cf2-f7ce-41e5-9adf-9f80e0b9c902","system_id":"levelo_inurba_marseille","lat":43.269558,"lon":5.386343,"is_reserved":false,"is_disabled":false,"rental_uris":{"android":"levelo://app?vid=a8213cf2-f7ce-41e5-9adf-9f80e0b9c902","ios":"levelo://app?vid=a8213cf2-f7ce-41e5-9adf-9f80e0b9c902"},"vehicle_type_id":"4","last_reported":1777536165,"current_range_meters":8800,"station_id":"ce4bhh92rcd13ifvqfh0","pricing_plan_id":"cebpf4jnsgd1na2vs0mg"},{"bike_id":"bfef80cf-c868-4235-818e-87c802bfd61c","system_id":"levelo_inurba_marseille","lat":43.30803,"lon":5.38165,"is_reserved":false,"is_disabled":false,"rental_uris":{"android":"levelo://app?vid=bfef80cf-c868-4235-818e-87c802bfd61c","ios":"levelo://app?vid=bfef80cf-c868-4235-818e-87c802bfd61c"},"vehicle_type_id":"4","last_reported":1777536165,"current_range_meters":8800,"station_id":"ce4bgt12rcd13ifvqce0","pricing_plan_id":"cebpf4jnsgd1na2vs0mg"},{"bike_id":"7f01a6f4-e8ac-45fb-9f0a-ab2199c04104","system_id":"levelo_inurba_marseille","lat":43.28861,"lon":5.4253,"is_reserved":false,"is_disabled":false,"rental_uris":{"android":"levelo://app?vid=7f01a6f4-e8ac-45fb-9f0a-ab2199c04104","ios":"levelo://app?vid=7f01a6f4-e8ac-45fb-9f0a-ab2199c04104"},"vehicle_type_id":"4","last_reported":1777536165,"current_range_meters":8800,"station_id":"st_d3b462108ojc7389ooeg","pricing_plan_id":"cebpf4jnsgd1na2vs0mg"},{"bike_id":"249cf371-4800-45c3-8c27-7d234a60bdde","system_id":"levelo_inurba_marseille","lat":43.27498,"lon":5.42461,"is_reserved":false,"is_disabled":false,"rental_uris":{"android":"levelo://app?vid=249cf371-4800-45c3-8c27-7d234a60bdde","ios":"levelo://app?vid=249cf371-4800-45c3-8c27-7d234a60bdde"},"vehicle_type_id":"4","last_reported":1777536165,"current_range_meters":9200,"station_id":"ce4bhn92rcd13ifvqgrg","pricing_plan_id":"cebpf4jnsgd1na2vs0mg"},{"bike_id":"7e597ee9-163a-4945-8211-c8673fc7ccdd","system_id":"levelo_inurba_marseille","lat":43.30582,"lon":5.36661,"is_reserved":false,"is_disabled":false,"rental_uris":{"android":"levelo://app?vid=7e597ee9-163a-4945-8211-c8673fc7ccdd","ios":"levelo://app?vid=7e597ee9-163a-4945-8211-c8673fc7ccdd"},"vehicle_type_id":"4","last_reported":1777536165,"current_range_meters":9200,"station_id":"","pricing_plan_id":"cebpf4jnsgd1na2vs0mg"},{"bike_id":"255a97a6-929a-4419-b191-e31552ab7128","system_id":"levelo_inurba_marseille","lat":43.30952,"lon":5.3905,"is_reserved":false,"is_disabled":false,"rental_uris":{"android":"levelo://app?vid=255a97a6-929a-4419-b191-e31552ab7128","ios":"levelo://app?vid=255a97a6-929a-4419-b191-e31552ab7128"},"vehicle_type_id":"4","last_reported":1777536165,"current_range_meters":9200,"station_id":"ce4bgup2rcd13ifvqco0","pricing_plan_id":"cebpf4jnsgd1na2vs0mg"},{"bike_id":"0195b3a7-f19f-4649-864a-4c54bdc7ef80","system_id":"levelo_inurba_marseille","lat":43.337444,"lon":5.374475,"is_reserved":false,"is_disabled":false,"rental_uris":{"android":"levelo://app?vid=0195b3a7-f19f-4649-864a-4c54bdc7ef80","ios":"levelo://app?vid=0195b3a7-f19f-4649-864a-4c54bdc7ef80"},"vehicle_type_id":"4","last_reported":1777536165,"current_range_meters":9200,"station_id":"","pricing_plan_id":"cebpf4jnsgd1na2vs0mg"},{"bike_id":"f9b07ae7-052b-479f-a4c0-e5ded06fd396","system_id":"levelo_inurba_marseille","lat":43.24162,"lon":5.39727,"is_reserved":false,"is_disabled":false,"rental_uris":{"android":"levelo://app?vid=f9b07ae7-052b-479f-a4c0-e5ded06fd396","ios":"levelo://app?vid=f9b07ae7-052b-479f-a4c0-e5ded06fd396"},"vehicle_type_id":"4","last_reported":1777536165,"current_range_meters":9200,"station_id":"ce4bhn12rcd13ifvqgpg","pricing_plan_id":"cebpf4jnsgd1na2vs0mg"},{"bike_id":"32ebe2a3-bd83-4a40-a529-b5be08ea651d","system_id":"levelo_inurba_marseille","lat":43.3093,"lon":5.40146,"is_reserved":false,"is_disabled":false,"rental_uris":{"android":"levelo://app?vid=32ebe2a3-bd83-4a40-a529-b5be08ea651d","ios":"levelo://app?vid=32ebe2a3-bd83-4a40-a529-b5be08ea651d"},"vehicle_type_id":"4","last_reported":1777536165,"current_range_meters":9200,"station_id":"ce4bgvp2rcd13ifvqct0","pricing_plan_id":"cebpf4jnsgd1na2vs0mg"},{"bike_id":"b2b5924c-ae57-4d04-8872-ff1b2babdda2","system_id":"levelo_inurba_marseille","lat":43.29778,"lon":5.38133,"is_reserved":false,"is_disabled":false,"rental_uris":{"android":"levelo://app?vid=b2b5924c-ae57-4d04-8872-ff1b2babdda2","ios":"levelo://app?vid=b2b5924c-ae57-4d04-8872-ff1b2babdda2"},"vehicle_type_id":"4","last_reported":1777536165,"current_range_meters":9200,"station_id":"ce4bgip2rcd13ifvqbb0","pricing_plan_id":"cebpf4jnsgd1na2vs0mg"},{"bike_id":"36cd46da-da24-47b3-83c3-7c306213cceb","system_id":"levelo_inurba_marseille","lat":43.29845,"lon":5.36276,"is_reserved":false,"is_disabled":false,"rental_uris":{"android":"levelo://app?vid=36cd46da-da24-47b3-83c3-7c306213cceb","ios":"levelo://app?vid=36cd46da-da24-47b3-83c3-7c306213cceb"},"vehicle_type_id":"4","last_reported":1777536165,"current_range_meters":9200,"station_id":"ce4bgpp2rcd13ifvqc3g","pricing_plan_id":"cebpf4jnsgd1na2vs0mg"},{"bike_id":"50cc6683-a4a6-490d-87fd-8c2be5eaa529","system_id":"levelo_inurba_marseille","lat":43.27063,"lon":5.42271,"is_reserved":false,"is_disabled":false,"rental_uris":{"android":"levelo://app?vid=50cc6683-a4a6-490d-87fd-8c2be5eaa529","ios":"levelo://app?vid=50cc6683-a4a6-490d-87fd-8c2be5eaa529"},"vehicle_type_id":"4","last_reported":1777536165,"current_range_meters":9200,"station_id":"ce4bhk92rcd13ifvqgb0","pricing_plan_id":"cebpf4jnsgd1na2vs0mg"},{"bike_id":"f9bab47a-31ff-4911-9227-223193c377d7","system_id":"levelo_inurba_marseille","lat":43.26679,"lon":5.3824,"is_reserved":false,"is_disabled":false,"rental_uris":{"android":"levelo://app?vid=f9bab47a-31ff-4911-9227-223193c377d7","ios":"levelo://app?vid=f9bab47a-31ff-4911-9227-223193c377d7"},"vehicle_type_id":"4","last_reported":1777536165,"current_range_meters":9200,"station_id":"ce4bhg92rcd13ifvqf90","pricing_plan_id":"cebpf4jnsgd1na2vs0mg"},{"bike_id":"b90c1d01-6a44-4d47-adc9-f51f5ae2109b","system_id":"levelo_inurba_marseille","lat":43.22557,"lon":5.41628,"is_reserved":false,"is_disabled":false,"rental_uris":{"android":"levelo://app?vid=b90c1d01-6a44-4d47-adc9-f51f5ae2109b","ios":"levelo://app?vid=b90c1d01-6a44-4d47-adc9-f51f5ae2109b"},"vehicle_type_id":"4","last_reported":1777536165,"current_range_meters":9200,"station_id":"st_d2o4gvlbi1j2169b742g","pricing_plan_id":"cebpf4jnsgd1na2vs0mg"},{"bike_id":"8ac097e5-ca74-4480-907d-6926048605b1","system_id":"levelo_inurba_marseille","lat":43.28862,"lon":5.42516,"is_reserved":false,"is_disabled":false,"rental_uris":{"android":"levelo://app?vid=8ac097e5-ca74-4480-907d-6926048605b1","ios":"levelo://app?vid=8ac097e5-ca74-4480-907d-6926048605b1"},"vehicle_type_id":"4","last_reported":1777536165,"current_range_meters":9200,"station_id":"st_d3b462108ojc7389ooeg","pricing_plan_id":"cebpf4jnsgd1na2vs0mg"},{"bike_id":"d29eb708-8881-444e-9044-09968ccad5bd","system_id":"levelo_inurba_marseille","lat":43.31491,"lon":5.37312,"is_reserved":false,"is_disabled":false,"rental_uris":{"android":"levelo://app?vid=d29eb708-8881-444e-9044-09968ccad5bd","ios":"levelo://app?vid=d29eb708-8881-444e-9044-09968ccad5bd"},"vehicle_type_id":"4","last_reported":1777536165,"current_range_meters":9600,"station_id":"ce4bgt12rcd13ifvqcd0","pricing_plan_id":"cebpf4jnsgd1na2vs0mg"},{"bike_id":"3ae19c8d-7993-4bce-8a56-bc8493cb10a6","system_id":"levelo_inurba_marseille","lat":43.22549,"lon":5.41613,"is_reserved":false,"is_disabled":false,"rental_uris":{"android":"levelo://app?vid=3ae19c8d-7993-4bce-8a56-bc8493cb10a6","ios":"levelo://app?vid=3ae19c8d-7993-4bce-8a56-bc8493cb10a6"},"vehicle_type_id":"4","last_reported":1777536165,"current_range_meters":9600,"station_id":"st_d2o4gvlbi1j2169b742g","pricing_plan_id":"cebpf4jnsgd1na2vs0mg"},{"bike_id":"45af47f6-e069-4cb4-81e9-622e1316b31e","system_id":"levelo_inurba_marseille","lat":43.29853,"lon":5.36277,"is_reserved":false,"is_disabled":false,"rental_uris":{"android":"levelo://app?vid=45af47f6-e069-4cb4-81e9-622e1316b31e","ios":"levelo://app?vid=45af47f6-e069-4cb4-81e9-622e1316b31e"},"vehicle_type_id":"4","last_reported":1777536165,"current_range_meters":9600,"station_id":"ce4bgpp2rcd13ifvqc3g","pricing_plan_id":"cebpf4jnsgd1na2vs0mg"},{"bike_id":"0c0a02b7-6d3a-42ee-92a9-4cdba4f67f7a","system_id":"levelo_inurba_marseille","lat":43.2318,"lon":5.39986,"is_reserved":false,"is_disabled":false,"rental_uris":{"android":"levelo://app?vid=0c0a02b7-6d3a-42ee-92a9-4cdba4f67f7a","ios":"levelo://app?vid=0c0a02b7-6d3a-42ee-92a9-4cdba4f67f7a"},"vehicle_type_id":"4","last_reported":1777536165,"current_range_meters":9600,"station_id":"ce4bhn12rcd13ifvqgqg","pricing_plan_id":"cebpf4jnsgd1na2vs0mg"},{"bike_id":"e3cf3c26-2348-427c-84a7-abcce8998a21","system_id":"levelo_inurba_marseille","lat":43.29036,"lon":5.39956,"is_reserved":false,"is_disabled":false,"rental_uris":{"android":"levelo://app?vid=e3cf3c26-2348-427c-84a7-abcce8998a21","ios":"levelo://app?vid=e3cf3c26-2348-427c-84a7-abcce8998a21"},"vehicle_type_id":"4","last_reported":1777536165,"current_range_meters":9600,"station_id":"ce4bh392rcd13ifvqdm0","pricing_plan_id":"cebpf4jnsgd1na2vs0mg"},{"bike_id":"a5e387fa-49b5-4a17-a925-09d5f690af8f","system_id":"levelo_inurba_marseille","lat":43.32117,"lon":5.3676,"is_reserved":false,"is_disabled":false,"rental_uris":{"android":"levelo://app?vid=a5e387fa-49b5-4a17-a925-09d5f690af8f","ios":"levelo://app?vid=a5e387fa-49b5-4a17-a925-09d5f690af8f"},"vehicle_type_id":"4","last_reported":1777536165,"current_range_meters":9600,"station_id":"ce4bhrh2rcd13ifvqhug","pricing_plan_id":"cebpf4jnsgd1na2vs0mg"},{"bike_id":"29b655c1-f8a9-4440-b763-1463facd38b4","system_id":"levelo_inurba_marseille","lat":43.30157,"lon":5.38079,"is_reserved":false,"is_disabled":false,"rental_uris":{"android":"levelo://app?vid=29b655c1-f8a9-4440-b763-1463facd38b4","ios":"levelo://app?vid=29b655c1-f8a9-4440-b763-1463facd38b4"},"vehicle_type_id":"4","last_reported":1777536165,"current_range_meters":9600,"station_id":"ce4bgjp2rcd13ifvqbh0","pricing_plan_id":"cebpf4jnsgd1na2vs0mg"},{"bike_id":"46611baa-2233-47d3-a307-4123f065b079","system_id":"levelo_inurba_marseille","lat":43.28474,"lon":5.48395,"is_reserved":false,"is_disabled":false,"rental_uris":{"android":"levelo://app?vid=46611baa-2233-47d3-a307-4123f065b079","ios":"levelo://app?vid=46611baa-2233-47d3-a307-4123f065b079"},"vehicle_type_id":"4","last_reported":1777536165,"current_range_meters":9600,"station_id":"","pricing_plan_id":"cebpf4jnsgd1na2vs0mg"},{"bike_id":"bfa6ca53-b192-434b-8730-25ab0ccacf73","system_id":"levelo_inurba_marseille","lat":43.28145,"lon":5.42646,"is_reserved":false,"is_disabled":false,"rental_uris":{"android":"levelo://app?vid=bfa6ca53-b192-434b-8730-25ab0ccacf73","ios":"levelo://app?vid=bfa6ca53-b192-434b-8730-25ab0ccacf73"},"vehicle_type_id":"4","last_reported":1777536165,"current_range_meters":9600,"station_id":"ce4bhnh2rcd13ifvqgug","pricing_plan_id":"cebpf4jnsgd1na2vs0mg"},{"bike_id":"378e0972-a96f-45be-a280-af7eeaef1ae1","system_id":"levelo_inurba_marseille","lat":43.3032,"lon":5.36917,"is_reserved":false,"is_disabled":true,"rental_uris":{"android":"levelo://app?vid=378e0972-a96f-45be-a280-af7eeaef1ae1","ios":"levelo://app?vid=378e0972-a96f-45be-a280-af7eeaef1ae1"},"vehicle_type_id":"4","last_reported":1777536165,"current_range_meters":9600,"station_id":"ce4bgqh2rcd13ifvqc5g","pricing_plan_id":"cebpf4jnsgd1na2vs0mg"},{"bike_id":"e018f895-5771-4f44-b64f-db1b733c0c56","system_id":"levelo_inurba_marseille","lat":43.23751,"lon":5.43071,"is_reserved":false,"is_disabled":false,"rental_uris":{"android":"levelo://app?vid=e018f895-5771-4f44-b64f-db1b733c0c56","ios":"levelo://app?vid=e018f895-5771-4f44-b64f-db1b733c0c56"},"vehicle_type_id":"4","last_reported":1777536165,"current_range_meters":9600,"station_id":"","pricing_plan_id":"cebpf4jnsgd1na2vs0mg"},{"bike_id":"d193cfeb-a038-436f-91b9-4221c91e3d89","system_id":"levelo_inurba_marseille","lat":43.27455,"lon":5.41641,"is_reserved":false,"is_disabled":true,"rental_uris":{"android":"levelo://app?vid=d193cfeb-a038-436f-91b9-4221c91e3d89","ios":"levelo://app?vid=d193cfeb-a038-436f-91b9-4221c91e3d89"},"vehicle_type_id":"4","last_reported":1777536165,"current_range_meters":9600,"station_id":"","pricing_plan_id":"cebpf4jnsgd1na2vs0mg"},{"bike_id":"cfbf3059-fd7e-4626-bbb7-f76607be3dd8","system_id":"levelo_inurba_marseille","lat":43.30534,"lon":5.36696,"is_reserved":false,"is_disabled":true,"rental_uris":{"android":"levelo://app?vid=cfbf3059-fd7e-4626-bbb7-f76607be3dd8","ios":"levelo://app?vid=cfbf3059-fd7e-4626-bbb7-f76607be3dd8"},"vehicle_type_id":"4","last_reported":1777536165,"current_range_meters":9600,"station_id":"ce4bgrp2rcd13ifvqc9g","pricing_plan_id":"cebpf4jnsgd1na2vs0mg"},{"bike_id":"4f17915c-c3cf-4b49-8182-ea8a59f07c39","system_id":"levelo_inurba_marseille","lat":43.31125,"lon":5.37762,"is_reserved":false,"is_disabled":false,"rental_uris":{"android":"levelo://app?vid=4f17915c-c3cf-4b49-8182-ea8a59f07c39","ios":"levelo://app?vid=4f17915c-c3cf-4b49-8182-ea8a59f07c39"},"vehicle_type_id":"4","last_reported":1777536165,"current_range_meters":9600,"station_id":"ce4bgt92rcd13ifvqcg0","pricing_plan_id":"cebpf4jnsgd1na2vs0mg"},{"bike_id":"9af80983-7303-4488-a030-6e14bff4a386","system_id":"levelo_inurba_marseille","lat":43.27551,"lon":5.3842,"is_reserved":false,"is_disabled":false,"rental_uris":{"android":"levelo://app?vid=9af80983-7303-4488-a030-6e14bff4a386","ios":"levelo://app?vid=9af80983-7303-4488-a030-6e14bff4a386"},"vehicle_type_id":"4","last_reported":1777536165,"current_range_meters":9600,"station_id":"ce4bhh92rcd13ifvqfi0","pricing_plan_id":"cebpf4jnsgd1na2vs0mg"},{"bike_id":"2e28ca22-c6d7-4a6b-ab1d-819078c885b6","system_id":"levelo_inurba_marseille","lat":43.29797,"lon":5.4041,"is_reserved":false,"is_disabled":true,"rental_uris":{"android":"levelo://app?vid=2e28ca22-c6d7-4a6b-ab1d-819078c885b6","ios":"levelo://app?vid=2e28ca22-c6d7-4a6b-ab1d-819078c885b6"},