{"last_updated":1727374284,"ttl":60,"version":"2.2","data":{"bikes":[{"bike_id":"1949bde6-d10c-40a9-8005-655941700167","system_id":"levelo_inurba_marseille","lat":43.30792,"lon":5.43526,"is_reserved":false,"is_disabled":false,"rental_uris":{"android":"levelo://app?vid=1949bde6-d10c-40a9-8005-655941700167","ios":"levelo://app?vid=1949bde6-d10c-40a9-8005-655941700167"},"vehicle_type_id":"4","last_reported":1727374284,"current_range_meters":10000,"station_id":"ce4bhph2rcd13ifvqheg","pricing_plan_id":"cebpf4jnsgd1na2vs0mg"},{"bike_id":"e676c40b-1cee-41d1-923f-706cf3f8ccb5","system_id":"levelo_inurba_marseille","lat":43.31989,"lon":5.38167,"is_reserved":false,"is_disabled":false,"rental_uris":{"android":"levelo://app?vid=e676c40b-1cee-41d1-923f-706cf3f8ccb5","ios":"levelo://app?vid=e676c40b-1cee-41d1-923f-706cf3f8ccb5"},"vehicle_type_id":"4","last_reported":1727374284,"current_range_meters":2000,"station_id":"ce4bhr12rcd13ifvqhpg","pricing_plan_id":"cebpf4jnsgd1na2vs0mg"},{"bike_id":"905d68bb-deeb-412f-a420-54978bccd139","system_id":"levelo_inurba_marseille","lat":43.28848,"lon":5.35857,"is_reserved":false,"is_disabled":false,"rental_uris":{"android":"levelo://app?vid=905d68bb-deeb-412f-a420-54978bccd139","ios":"levelo://app?vid=905d68bb-deeb-412f-a420-54978bccd139"},"vehicle_type_id":"4","last_reported":1727374284,"current_range_meters":38800,"station_id":"ce4bhb12rcd13ifvqem0","pricing_plan_id":"cebpf4jnsgd1na2vs0mg"},{"bike_id":"9a593db0-19bc-4883-bc8e-f35d82d51490","system_id":"levelo_inurba_marseille","lat":43.310822,"lon":5.424289,"is_reserved":false,"is_disabled":false,"rental_uris":{"android":"levelo://app?vid=9a593db0-19bc-4883-bc8e-f35d82d51490","ios":"levelo://app?vid=9a593db0-19bc-4883-bc8e-f35d82d51490"},"vehicle_type_id":"4","last_reported":1727374284,"current_range_meters":2800,"station_id":"ce4bhp92rcd13ifvqhag","pricing_plan_id":"cebpf4jnsgd1na2vs0mg"},{"bike_id":"1ff9f931-ea5a-445c-b291-014f5e650edb","system_id":"levelo_inurba_marseille","lat":43.27688,"lon":5.3894,"is_reserved":false,"is_disabled":false,"rental_uris":{"android":"levelo://app?vid=1ff9f931-ea5a-445c-b291-014f5e650edb","ios":"levelo://app?vid=1ff9f931-ea5a-445c-b291-014f5e650edb"},"vehicle_type_id":"4","last_reported":1727374284,"current_range_meters":38800,"station_id":"ce4bhi12rcd13ifvqfo0","pricing_plan_id":"cebpf4jnsgd1na2vs0mg"},{"bike_id":"a9669d3a-c989-4bbf-988b-b787f6909497","system_id":"levelo_inurba_marseille","lat":43.32662,"lon":5.4099,"is_reserved":false,"is_disabled":false,"rental_uris":{"android":"levelo://app?vid=a9669d3a-c989-4bbf-988b-b787f6909497","ios":"levelo://app?vid=a9669d3a-c989-4bbf-988b-b787f6909497"},"vehicle_type_id":"4","last_reported":1727374284,"current_range_meters":38400,"station_id":"ce4bhpp2rcd13ifvqhgg","pricing_plan_id":"cebpf4jnsgd1na2vs0mg"},{"bike_id":"fec729f3-f4fc-4b3b-b7a3-4a0380081042","system_id":"levelo_inurba_marseille","lat":43.275802,"lon":5.384248,"is_reserved":false,"is_disabled":false,"rental_uris":{"android":"levelo://app?vid=fec729f3-f4fc-4b3b-b7a3-4a0380081042","ios":"levelo://app?vid=fec729f3-f4fc-4b3b-b7a3-4a0380081042"},"vehicle_type_id":"4","last_reported":1727374284,"current_range_meters":6400,"station_id":"ce4bhh92rcd13ifvqfi0","pricing_plan_id":"cebpf4jnsgd1na2vs0mg"},{"bike_id":"a17cc833-34e0-49cd-aed6-aafc54d2e30a","system_id":"levelo_inurba_marseille","lat":43.28933,"lon":5.36409,"is_reserved":false,"is_disabled":false,"rental_uris":{"android":"levelo://app?vid=a17cc833-34e0-49cd-aed6-aafc54d2e30a","ios":"levelo://app?vid=a17cc833-34e0-49cd-aed6-aafc54d2e30a"},"vehicle_type_id":"4","last_reported":1727374284,"current_range_meters":14400,"station_id":"ce4bhc92rcd13ifvqetg","pricing_plan_id":"cebpf4jnsgd1na2vs0mg"},{"bike_id":"55f4f50b-d6dd-4e12-86b3-1486da4af7d9","system_id":"levelo_inurba_marseille","lat":43.22933,"lon":5.35372,"is_reserved":false,"is_disabled":false,"rental_uris":{"android":"levelo://app?vid=55f4f50b-d6dd-4e12-86b3-1486da4af7d9","ios":"levelo://app?vid=55f4f50b-d6dd-4e12-86b3-1486da4af7d9"},"vehicle_type_id":"4","last_reported":1727374284,"current_range_meters":38800,"station_id":"cpo3532slgdg3j2ikp40","pricing_plan_id":"cebpf4jnsgd1na2vs0mg"},{"bike_id":"a8d525c2-4312-4c82-9cf6-9f5a1f6a8bbd","system_id":"levelo_inurba_marseille","lat":43.29501,"lon":5.39039,"is_reserved":false,"is_disabled":false,"rental_uris":{"android":"levelo://app?vid=a8d525c2-4312-4c82-9cf6-9f5a1f6a8bbd","ios":"levelo://app?vid=a8d525c2-4312-4c82-9cf6-9f5a1f6a8bbd"},"vehicle_type_id":"4","last_reported":1727374284,"current_range_meters":38800,"station_id":"ce4bh3p2rcd13ifvqdp0","pricing_plan_id":"cebpf4jnsgd1na2vs0mg"},{"bike_id":"46518533-a3f0-468c-a3d9-f7b8392f6bb8","system_id":"levelo_inurba_marseille","lat":43.2866,"lon":5.36365,"is_reserved":false,"is_disabled":false,"rental_uris":{"android":"levelo://app?vid=46518533-a3f0-468c-a3d9-f7b8392f6bb8","ios":"levelo://app?vid=46518533-a3f0-468c-a3d9-f7b8392f6bb8"},"vehicle_type_id":"4","last_reported":1727374284,"current_range_meters":38800,"station_id":"ce4bhah2rcd13ifvqej0","pricing_plan_id":"cebpf4jnsgd1na2vs0mg"},{"bike_id":"f6345aab-32aa-4696-aef5-f293b7c8f809","system_id":"levelo_inurba_marseille","lat":43.24796,"lon":5.37465,"is_reserved":false,"is_disabled":false,"rental_uris":{"android":"levelo://app?vid=f6345aab-32aa-4696-aef5-f293b7c8f809","ios":"levelo://app?vid=f6345aab-32aa-4696-aef5-f293b7c8f809"},"vehicle_type_id":"4","last_reported":1727374284,"current_range_meters":26000,"station_id":"ce4bhgh2rcd13ifvqfb0","pricing_plan_id":"cebpf4jnsgd1na2vs0mg"},{"bike_id":"2d6609a8-c7dd-4fce-b192-e5f8ef0b8cd7","system_id":"levelo_inurba_marseille","lat":43.29444,"lon":5.39749,"is_reserved":false,"is_disabled":false,"rental_uris":{"android":"levelo://app?vid=2d6609a8-c7dd-4fce-b192-e5f8ef0b8cd7","ios":"levelo://app?vid=2d6609a8-c7dd-4fce-b192-e5f8ef0b8cd7"},"vehicle_type_id":"4","last_reported":1727374284,"current_range_meters":27600,"station_id":"ce4bh3h2rcd13ifvqdo0","pricing_plan_id":"cebpf4jnsgd1na2vs0mg"},{"bike_id":"bc07fb0b-e251-4034-8797-f56eff4e989e","system_id":"levelo_inurba_marseille","lat":43.28703,"lon":5.39986,"is_reserved":false,"is_disabled":false,"rental_uris":{"android":"levelo://app?vid=bc07fb0b-e251-4034-8797-f56eff4e989e","ios":"levelo://app?vid=bc07fb0b-e251-4034-8797-f56eff4e989e"},"vehicle_type_id":"4","last_reported":1727374284,"current_range_meters":35600,"station_id":"ce4bho92rcd13ifvqh3g","pricing_plan_id":"cebpf4jnsgd1na2vs0mg"},{"bike_id":"2307bcfe-5897-4814-8199-be9f3d33c5fd","system_id":"levelo_inurba_marseille","lat":43.25577,"lon":5.38237,"is_reserved":false,"is_disabled":false,"rental_uris":{"android":"levelo://app?vid=2307bcfe-5897-4814-8199-be9f3d33c5fd","ios":"levelo://app?vid=2307bcfe-5897-4814-8199-be9f3d33c5fd"},"vehicle_type_id":"4","last_reported":1727374284,"current_range_meters":20400,"station_id":"ce4bhih2rcd13ifvqfs0","pricing_plan_id":"cebpf4jnsgd1na2vs0mg"},{"bike_id":"161f50c7-3de2-4116-a91e-3d856209631f","system_id":"levelo_inurba_marseille","lat":43.2846,"lon":5.35889,"is_reserved":false,"is_disabled":false,"rental_uris":{"android":"levelo://app?vid=161f50c7-3de2-4116-a91e-3d856209631f","ios":"levelo://app?vid=161f50c7-3de2-4116-a91e-3d856209631f"},"vehicle_type_id":"4","last_reported":1727374284,"current_range_meters":39200,"station_id":"ce4bhah2rcd13ifvqei0","pricing_plan_id":"cebpf4jnsgd1na2vs0mg"},{"bike_id":"c0768ab6-1b9e-4d83-b6a3-4e5c37f12967","system_id":"levelo_inurba_marseille","lat":43.28096,"lon":5.37835,"is_reserved":false,"is_disabled":false,"rental_uris":{"android":"levelo://app?vid=c0768ab6-1b9e-4d83-b6a3-4e5c37f12967","ios":"levelo://app?vid=c0768ab6-1b9e-4d83-b6a3-4e5c37f12967"},"vehicle_type_id":"4","last_reported":1727374284,"current_range_meters":5600,"station_id":"ce4bha12rcd13ifvqee0","pricing_plan_id":"cebpf4jnsgd1na2vs0mg"},{"bike_id":"7737b815-6daf-41f0-8354-4b28ba75917f","system_id":"levelo_inurba_marseille","lat":43.3019,"lon":5.39841,"is_reserved":false,"is_disabled":false,"rental_uris":{"android":"levelo://app?vid=7737b815-6daf-41f0-8354-4b28ba75917f","ios":"levelo://app?vid=7737b815-6daf-41f0-8354-4b28ba75917f"},"vehicle_type_id":"4","last_reported":1727374284,"current_range_meters":10000,"station_id":"ce4bgvp2rcd13ifvqct0","pricing_plan_id":"cebpf4jnsgd1na2vs0mg"},{"bike_id":"2a21b487-a618-4cfb-bbff-1bdaf581da0b","system_id":"levelo_inurba_marseille","lat":43.28268,"lon":5.35061,"is_reserved":false,"is_disabled":false,"rental_uris":{"android":"levelo://app?vid=2a21b487-a618-4cfb-bbff-1bdaf581da0b","ios":"levelo://app?vid=2a21b487-a618-4cfb-bbff-1bdaf581da0b"},"vehicle_type_id":"4","last_reported":1727374284,"current_range_meters":34800,"station_id":"ce4bhbp2rcd13ifvqerg","pricing_plan_id":"cebpf4jnsgd1na2vs0mg"},{"bike_id":"88d037fc-0915-471f-96c9-f90498a9e1f6","system_id":"levelo_inurba_marseille","lat":43.303011,"lon":5.392274,"is_reserved":false,"is_disabled":false,"rental_uris":{"android":"levelo://app?vid=88d037fc-0915-471f-96c9-f90498a9e1f6","ios":"levelo://app?vid=88d037fc-0915-471f-96c9-f90498a9e1f6"},"vehicle_type_id":"4","last_reported":1727374284,"current_range_meters":6800,"station_id":"ce4bgkh2rcd13ifvqbk0","pricing_plan_id":"cebpf4jnsgd1na2vs0mg"},{"bike_id":"5a04d140-0123-4f77-97af-31a7f1de95e7","system_id":"levelo_inurba_marseille","lat":43.24658,"lon":5.38165,"is_reserved":false,"is_disabled":false,"rental_uris":{"android":"levelo://app?vid=5a04d140-0123-4f77-97af-31a7f1de95e7","ios":"levelo://app?vid=5a04d140-0123-4f77-97af-31a7f1de95e7"},"vehicle_type_id":"4","last_reported":1727374284,"current_range_meters":36000,"station_id":"ce4bhih2rcd13ifvqfr0","pricing_plan_id":"cebpf4jnsgd1na2vs0mg"},{"bike_id":"b6daf4df-7c90-4c5e-b397-06a87d15013f","system_id":"levelo_inurba_marseille","lat":43.33752,"lon":5.37361,"is_reserved":false,"is_disabled":false,"rental_uris":{"android":"levelo://app?vid=b6daf4df-7c90-4c5e-b397-06a87d15013f","ios":"levelo://app?vid=b6daf4df-7c90-4c5e-b397-06a87d15013f"},"vehicle_type_id":"4","last_reported":1727374284,"current_range_meters":30400,"station_id":"","pricing_plan_id":"cebpf4jnsgd1na2vs0mg"},{"bike_id":"77247b4e-c963-4fc9-8e34-5c475c153b49","system_id":"levelo_inurba_marseille","lat":43.27994,"lon":5.40024,"is_reserved":false,"is_disabled":false,"rental_uris":{"android":"levelo://app?vid=77247b4e-c963-4fc9-8e34-5c475c153b49","ios":"levelo://app?vid=77247b4e-c963-4fc9-8e34-5c475c153b49"},"vehicle_type_id":"4","last_reported":1727374284,"current_range_meters":38800,"station_id":"ce4bho92rcd13ifvqh4g","pricing_plan_id":"cebpf4jnsgd1na2vs0mg"},{"bike_id":"5fa95aa1-5c15-4904-8fe3-a4b8ed3fe7dc","system_id":"levelo_inurba_marseille","lat":43.310822,"lon":5.424291,"is_reserved":false,"is_disabled":false,"rental_uris":{"android":"levelo://app?vid=5fa95aa1-5c15-4904-8fe3-a4b8ed3fe7dc","ios":"levelo://app?vid=5fa95aa1-5c15-4904-8fe3-a4b8ed3fe7dc"},"vehicle_type_id":"4","last_reported":1727374284,"current_range_meters":16000,"station_id":"ce4bhp92rcd13ifvqhbg","pricing_plan_id":"cebpf4jnsgd1na2vs0mg"},{"bike_id":"a1bf64cf-3651-471d-aca4-7939b3fceaf8","system_id":"levelo_inurba_marseille","lat":43.29267,"lon":5.40135,"is_reserved":false,"is_disabled":false,"rental_uris":{"android":"levelo://app?vid=a1bf64cf-3651-471d-aca4-7939b3fceaf8","ios":"levelo://app?vid=a1bf64cf-3651-471d-aca4-7939b3fceaf8"},"vehicle_type_id":"4","last_reported":1727374284,"current_range_meters":28400,"station_id":"ce4bh312rcd13ifvqdk0","pricing_plan_id":"cebpf4jnsgd1na2vs0mg"},{"bike_id":"e3c5fbbf-73cf-4f2d-b2d6-f67ffdb80c53","system_id":"levelo_inurba_marseille","lat":43.3303,"lon":5.39036,"is_reserved":false,"is_disabled":false,"rental_uris":{"android":"levelo://app?vid=e3c5fbbf-73cf-4f2d-b2d6-f67ffdb80c53","ios":"levelo://app?vid=e3c5fbbf-73cf-4f2d-b2d6-f67ffdb80c53"},"vehicle_type_id":"4","last_reported":1727374284,"current_range_meters":28000,"station_id":"ce4bhr92rcd13ifvqhrg","pricing_plan_id":"cebpf4jnsgd1na2vs0mg"},{"bike_id":"57bc1e84-e83e-4198-85b5-3e7f9c3f0b0b","system_id":"levelo_inurba_marseille","lat":43.24167,"lon":5.36392,"is_reserved":false,"is_disabled":false,"rental_uris":{"android":"levelo://app?vid=57bc1e84-e83e-4198-85b5-3e7f9c3f0b0b","ios":"levelo://app?vid=57bc1e84-e83e-4198-85b5-3e7f9c3f0b0b"},"vehicle_type_id":"4","last_reported":1727374284,"current_range_meters":26800,"station_id":"cpo36qri1sfpv3e86is0","pricing_plan_id":"cebpf4jnsgd1na2vs0mg"},{"bike_id":"7a8458d5-44ac-4f2e-abef-3f01eb31f7ca","system_id":"levelo_inurba_marseille","lat":43.337444,"lon":5.374475,"is_reserved":false,"is_disabled":false,"rental_uris":{"android":"levelo://app?vid=7a8458d5-44ac-4f2e-abef-3f01eb31f7ca","ios":"levelo://app?vid=7a8458d5-44ac-4f2e-abef-3f01eb31f7ca"},"vehicle_type_id":"4","last_reported":1727374284,"current_range_meters":20000,"station_id":"","pricing_plan_id":"cebpf4jnsgd1na2vs0mg"},{"bike_id":"6eeee8e0-5585-428d-aa78-8b1f110cd2ea","system_id":"levelo_inurba_marseille","lat":43.28155,"lon":5.42642,"is_reserved":false,"is_disabled":false,"rental_uris":{"android":"levelo://app?vid=6eeee8e0-5585-428d-aa78-8b1f110cd2ea","ios":"levelo://app?vid=6eeee8e0-5585-428d-aa78-8b1f110cd2ea"},"vehicle_type_id":"4","last_reported":1727374284,"current_range_meters":19600,"station_id":"ce4bhnh2rcd13ifvqgug","pricing_plan_id":"cebpf4jnsgd1na2vs0mg"},{"bike_id":"245322ad-98ce-4a03-920e-f8861ea4255a","system_id":"levelo_inurba_marseille","lat":43.2306,"lon":5.35498,"is_reserved":false,"is_disabled":false,"rental_uris":{"android":"levelo://app?vid=245322ad-98ce-4a03-920e-f8861ea4255a","ios":"levelo://app?vid=245322ad-98ce-4a03-920e-f8861ea4255a"},"vehicle_type_id":"4","last_reported":1727374284,"current_range_meters":38800,"station_id":"cpo3342slgdg3j2ifvpg","pricing_plan_id":"cebpf4jnsgd1na2vs0mg"},{"bike_id":"d59b21f0-7bec-4115-9189-e54b54589187","system_id":"levelo_inurba_marseille","lat":43.31691,"lon":5.3774,"is_reserved":false,"is_disabled":false,"rental_uris":{"android":"levelo://app?vid=d59b21f0-7bec-4115-9189-e54b54589187","ios":"levelo://app?vid=d59b21f0-7bec-4115-9189-e54b54589187"},"vehicle_type_id":"4","last_reported":1727374284,"current_range_meters":8400,"station_id":"ce4bgth2rcd13ifvqch0","pricing_plan_id":"cebpf4jnsgd1na2vs0mg"},{"bike_id":"6d454f9d-eb01-4b43-bd4c-02f944dcd91a","system_id":"levelo_inurba_marseille","lat":43.28416,"lon":5.3499,"is_reserved":false,"is_disabled":false,"rental_uris":{"android":"levelo://app?vid=6d454f9d-eb01-4b43-bd4c-02f944dcd91a","ios":"levelo://app?vid=6d454f9d-eb01-4b43-bd4c-02f944dcd91a"},"vehicle_type_id":"4","last_reported":1727374284,"current_range_meters":38800,"station_id":"ce4bhbh2rcd13ifvqepg","pricing_plan_id":"cebpf4jnsgd1na2vs0mg"},{"bike_id":"8f76b2ae-50a3-4cef-b079-641e370b64d9","system_id":"levelo_inurba_marseille","lat":43.25573,"lon":5.3824,"is_reserved":false,"is_disabled":false,"rental_uris":{"android":"levelo://app?vid=8f76b2ae-50a3-4cef-b079-641e370b64d9","ios":"levelo://app?vid=8f76b2ae-50a3-4cef-b079-641e370b64d9"},"vehicle_type_id":"4","last_reported":1727374284,"current_range_meters":7200,"station_id":"ce4bhih2rcd13ifvqfs0","pricing_plan_id":"cebpf4jnsgd1na2vs0mg"},{"bike_id":"dfcecf59-0ff2-4ae4-a646-4b133ae29c1f","system_id":"levelo_inurba_marseille","lat":43.24545,"lon":5.3953,"is_reserved":false,"is_disabled":false,"rental_uris":{"android":"levelo://app?vid=dfcecf59-0ff2-4ae4-a646-4b133ae29c1f","ios":"levelo://app?vid=dfcecf59-0ff2-4ae4-a646-4b133ae29c1f"},"vehicle_type_id":"4","last_reported":1727374284,"current_range_meters":28000,"station_id":"ce4bhlp2rcd13ifvqgjg","pricing_plan_id":"cebpf4jnsgd1na2vs0mg"},{"bike_id":"50d4ec58-a42a-4450-844b-4e946465e51d","system_id":"levelo_inurba_marseille","lat":43.30801,"lon":5.43528,"is_reserved":false,"is_disabled":false,"rental_uris":{"android":"levelo://app?vid=50d4ec58-a42a-4450-844b-4e946465e51d","ios":"levelo://app?vid=50d4ec58-a42a-4450-844b-4e946465e51d"},"vehicle_type_id":"4","last_reported":1727374284,"current_range_meters":22400,"station_id":"ce4bhph2rcd13ifvqheg","pricing_plan_id":"cebpf4jnsgd1na2vs0mg"},{"bike_id":"580ff4b2-84e5-4995-b909-2398d5540bdb","system_id":"levelo_inurba_marseille","lat":43.29018,"lon":5.37567,"is_reserved":false,"is_disabled":false,"rental_uris":{"android":"levelo://app?vid=580ff4b2-84e5-4995-b909-2398d5540bdb","ios":"levelo://app?vid=580ff4b2-84e5-4995-b909-2398d5540bdb"},"vehicle_type_id":"4","last_reported":1727374284,"current_range_meters":4800,"station_id":"ce4bh692rcd13ifvqe90","pricing_plan_id":"cebpf4jnsgd1na2vs0mg"},{"bike_id":"8d17f10b-cb18-4a62-9a7c-043318106e2d","system_id":"levelo_inurba_marseille","lat":43.30248,"lon":5.36648,"is_reserved":false,"is_disabled":false,"rental_uris":{"android":"levelo://app?vid=8d17f10b-cb18-4a62-9a7c-043318106e2d","ios":"levelo://app?vid=8d17f10b-cb18-4a62-9a7c-043318106e2d"},"vehicle_type_id":"4","last_reported":1727374284,"current_range_meters":6800,"station_id":"","pricing_plan_id":"cebpf4jnsgd1na2vs0mg"},{"bike_id":"a47da85a-12e0-4255-aa91-ea479cd578d3","system_id":"levelo_inurba_marseille","lat":43.28843,"lon":5.35855,"is_reserved":false,"is_disabled":false,"rental_uris":{"android":"levelo://app?vid=a47da85a-12e0-4255-aa91-ea479cd578d3","ios":"levelo://app?vid=a47da85a-12e0-4255-aa91-ea479cd578d3"},"vehicle_type_id":"4","last_reported":1727374284,"current_range_meters":12000,"station_id":"ce4bhb12rcd13ifvqem0","pricing_plan_id":"cebpf4jnsgd1na2vs0mg"},{"bike_id":"d348f73f-a285-424d-92a6-5b7db17fa1ac","system_id":"levelo_inurba_marseille","lat":43.30419,"lon":5.41288,"is_reserved":false,"is_disabled":false,"rental_uris":{"android":"levelo://app?vid=d348f73f-a285-424d-92a6-5b7db17fa1ac","ios":"levelo://app?vid=d348f73f-a285-424d-92a6-5b7db17fa1ac"},"vehicle_type_id":"4","last_reported":1727374284,"current_range_meters":28800,"station_id":"ce4bhop2rcd13ifvqh8g","pricing_plan_id":"cebpf4jnsgd1na2vs0mg"},{"bike_id":"dcad9e12-302d-492b-b59b-6b4bbade42f0","system_id":"levelo_inurba_marseille","lat":43.33025,"lon":5.39047,"is_reserved":false,"is_disabled":false,"rental_uris":{"android":"levelo://app?vid=dcad9e12-302d-492b-b59b-6b4bbade42f0","ios":"levelo://app?vid=dcad9e12-302d-492b-b59b-6b4bbade42f0"},"vehicle_type_id":"4","last_reported":1727374284,"current_range_meters":17200,"station_id":"ce4bhs12rcd13ifvqhvg","pricing_plan_id":"cebpf4jnsgd1na2vs0mg"},{"bike_id":"a3f2f618-65cd-40f0-a3bf-5601fc479862","system_id":"levelo_inurba_marseille","lat":43.27565,"lon":5.38423,"is_reserved":false,"is_disabled":false,"rental_uris":{"android":"levelo://app?vid=a3f2f618-65cd-40f0-a3bf-5601fc479862","ios":"levelo://app?vid=a3f2f618-65cd-40f0-a3bf-5601fc479862"},"vehicle_type_id":"4","last_reported":1727374284,"current_range_meters":35600,"station_id":"ce4bhh92rcd13ifvqfi0","pricing_plan_id":"cebpf4jnsgd1na2vs0mg"},{"bike_id":"3c6afdf7-67ea-4d82-aceb-813b791a20f5","system_id":"levelo_inurba_marseille","lat":43.29192,"lon":5.35807,"is_reserved":false,"is_disabled":false,"rental_uris":{"android":"levelo://app?vid=3c6afdf7-67ea-4d82-aceb-813b791a20f5","ios":"levelo://app?vid=3c6afdf7-67ea-4d82-aceb-813b791a20f5"},"vehicle_type_id":"4","last_reported":1727374284,"current_range_meters":34800,"station_id":"ce4bhb12rcd13ifvqel0","pricing_plan_id":"cebpf4jnsgd1na2vs0mg"},{"bike_id":"c1a27fa4-6d98-4e7f-8150-10b19d384b45","system_id":"levelo_inurba_marseille","lat":43.29037,"lon":5.37565,"is_reserved":false,"is_disabled":false,"rental_uris":{"android":"levelo://app?vid=c1a27fa4-6d98-4e7f-8150-10b19d384b45","ios":"levelo://app?vid=c1a27fa4-6d98-4e7f-8150-10b19d384b45"},"vehicle_type_id":"4","last_reported":1727374284,"current_range_meters":35200,"station_id":"ce4bh692rcd13ifvqe90","pricing_plan_id":"cebpf4jnsgd1na2vs0mg"},{"bike_id":"d5bbef54-0e76-4d64-bc8a-a1819238d1a7","system_id":"levelo_inurba_marseille","lat":43.23954,"lon":5.3663,"is_reserved":false,"is_disabled":false,"rental_uris":{"android":"levelo://app?vid=d5bbef54-0e76-4d64-bc8a-a1819238d1a7","ios":"levelo://app?vid=d5bbef54-0e76-4d64-bc8a-a1819238d1a7"},"vehicle_type_id":"4","last_reported":1727374284,"current_range_meters":38800,"station_id":"ce4bhi12rcd13ifvqfp0","pricing_plan_id":"cebpf4jnsgd1na2vs0mg"},{"bike_id":"79a05bb1-ccec-47f0-8ebd-1f95854549f8","system_id":"levelo_inurba_marseille","lat":43.31282,"lon":5.380327,"is_reserved":false,"is_disabled":false,"rental_uris":{"android":"levelo://app?vid=79a05bb1-ccec-47f0-8ebd-1f95854549f8","ios":"levelo://app?vid=79a05bb1-ccec-47f0-8ebd-1f95854549f8"},"vehicle_type_id":"4","last_reported":1727374284,"current_range_meters":6400,"station_id":"","pricing_plan_id":"cebpf4jnsgd1na2vs0mg"},{"bike_id":"861ba51c-6a6b-46a6-947c-51f003818291","system_id":"levelo_inurba_marseille","lat":43.3233,"lon":5.38523,"is_reserved":false,"is_disabled":false,"rental_uris":{"android":"levelo://app?vid=861ba51c-6a6b-46a6-947c-51f003818291","ios":"levelo://app?vid=861ba51c-6a6b-46a6-947c-51f003818291"},"vehicle_type_id":"4","last_reported":1727374284,"current_range_meters":10800,"station_id":"","pricing_plan_id":"cebpf4jnsgd1na2vs0mg"},{"bike_id":"761aa52a-9138-4b97-85bc-1796df08ee07","system_id":"levelo_inurba_marseille","lat":43.31754,"lon":5.39009,"is_reserved":false,"is_disabled":false,"rental_uris":{"android":"levelo://app?vid=761aa52a-9138-4b97-85bc-1796df08ee07","ios":"levelo://app?vid=761aa52a-9138-4b97-85bc-1796df08ee07"},"vehicle_type_id":"4","last_reported":1727374284,"current_range_meters":6400,"station_id":"ce4bhqp2rcd13ifvqhng","pricing_plan_id":"cebpf4jnsgd1na2vs0mg"},{"bike_id":"fcf70341-bf10-4301-b0d9-989fdf0a1a4d","system_id":"levelo_inurba_marseille","lat":43.25572,"lon":5.38239,"is_reserved":false,"is_disabled":false,"rental_uris":{"android":"levelo://app?vid=fcf70341-bf10-4301-b0d9-989fdf0a1a4d","ios":"levelo://app?vid=fcf70341-bf10-4301-b0d9-989fdf0a1a4d"},"vehicle_type_id":"4","last_reported":1727374284,"current_range_meters":7200,"station_id":"ce4bhih2rcd13ifvqfs0","pricing_plan_id":"cebpf4jnsgd1na2vs0mg"},{"bike_id":"8b8bc4ef-69bf-4b84-aa37-5bbfca53e4ac","system_id":"levelo_inurba_marseille","lat":43.323166,"lon":5.40636,"is_reserved":false,"is_disabled":false,"rental_uris":{"android":"levelo://app?vid=8b8bc4ef-69bf-4b84-aa37-5bbfca53e4ac","ios":"levelo://app?vid=8b8bc4ef-69bf-4b84-aa37-5bbfca53e4ac"},"vehicle_type_id":"4","last_reported":1727374284,"current_range_meters":38800,"station_id":"ce4bhq92rcd13ifvqhjg","pricing_plan_id":"cebpf4jnsgd1na2vs0mg"},{"bike_id":"be45838e-593d-4278-810c-673262f1e8ad","system_id":"levelo_inurba_marseille","lat":43.27864,"lon":5.3813,"is_reserved":false,"is_disabled":false,"rental_uris":{"android":"levelo://app?vid=be45838e-593d-4278-810c-673262f1e8ad","ios":"levelo://app?vid=be45838e-593d-4278-810c-673262f1e8ad"},"vehicle_type_id":"4","last_reported":1727374284,"current_range_meters":14800,"station_id":"ce4bha12rcd13ifvqee0","pricing_plan_id":"cebpf4jnsgd1na2vs0mg"},{"bike_id":"0ce8d335-aa1f-4314-a653-9365afe773fc","system_id":"levelo_inurba_marseille","lat":43.29027,"lon":5.38648,"is_reserved":false,"is_disabled":false,"rental_uris":{"android":"levelo://app?vid=0ce8d335-aa1f-4314-a653-9365afe773fc","ios":"levelo://app?vid=0ce8d335-aa1f-4314-a653-9365afe773fc"},"vehicle_type_id":"4","last_reported":1727374284,"current_range_meters":28000,"station_id":"ce4bh4p2rcd13ifvqe0g","pricing_plan_id":"cebpf4jnsgd1na2vs0mg"},{"bike_id":"f3b2c14c-4e2c-44a5-97c4-cdafe08940b3","system_id":"levelo_inurba_marseille","lat":43.26053,"lon":5.39394,"is_reserved":false,"is_disabled":false,"rental_uris":{"android":"levelo://app?vid=f3b2c14c-4e2c-44a5-97c4-cdafe08940b3","ios":"levelo://app?vid=f3b2c14c-4e2c-44a5-97c4-cdafe08940b3"},"vehicle_type_id":"4","last_reported":1727374284,"current_range_meters":3200,"station_id":"ce4bhh92rcd13ifvqfj0","pricing_plan_id":"cebpf4jnsgd1na2vs0mg"},{"bike_id":"d2a9af82-5192-44f6-9fef-d0455eb6c42f","system_id":"levelo_inurba_marseille","lat":43.30353,"lon":5.41875,"is_reserved":false,"is_disabled":false,"rental_uris":{"android":"levelo://app?vid=d2a9af82-5192-44f6-9fef-d0455eb6c42f","ios":"levelo://app?vid=d2a9af82-5192-44f6-9fef-d0455eb6c42f"},"vehicle_type_id":"4","last_reported":1727374284,"current_range_meters":30800,"station_id":"ce4bhop2rcd13ifvqh7g","pricing_plan_id":"cebpf4jnsgd1na2vs0mg"},{"bike_id":"6c51c253-5200-4a47-a5ef-065ca30566a8","system_id":"levelo_inurba_marseille","lat":43.29517,"lon":5.39403,"is_reserved":false,"is_disabled":false,"rental_uris":{"android":"levelo://app?vid=6c51c253-5200-4a47-a5ef-065ca30566a8","ios":"levelo://app?vid=6c51c253-5200-4a47-a5ef-065ca30566a8"},"vehicle_type_id":"4","last_reported":1727374284,"current_range_meters":38000,"station_id":"ce4bh292rcd13ifvqdf0","pricing_plan_id":"cebpf4jnsgd1na2vs0mg"},{"bike_id":"8ea19e1d-542e-4c36-8ef4-1214facb9816","system_id":"levelo_inurba_marseille","lat":43.23952,"lon":5.36641,"is_reserved":false,"is_disabled":false,"rental_uris":{"android":"levelo://app?vid=8ea19e1d-542e-4c36-8ef4-1214facb9816","ios":"levelo://app?vid=8ea19e1d-542e-4c36-8ef4-1214facb9816"},"vehicle_type_id":"4","last_reported":1727374284,"current_range_meters":38800,"station_id":"ce4bhi12rcd13ifvqfp0","pricing_plan_id":"cebpf4jnsgd1na2vs0mg"},{"bike_id":"50fb4ac5-fdc5-4a71-a07f-4963f323d976","system_id":"levelo_inurba_marseille","lat":43.31324,"lon":5.39691,"is_reserved":false,"is_disabled":false,"rental_uris":{"android":"levelo://app?vid=50fb4ac5-fdc5-4a71-a07f-4963f323d976","ios":"levelo://app?vid=50fb4ac5-fdc5-4a71-a07f-4963f323d976"},"vehicle_type_id":"4","last_reported":1727374284,"current_range_meters":26000,"station_id":"ce4bgvp2rcd13ifvqcu0","pricing_plan_id":"cebpf4jnsgd1na2vs0mg"},{"bike_id":"f3bf7448-e739-4978-bd33-4a56cc415f41","system_id":"levelo_inurba_marseille","lat":43.37234,"lon":5.36788,"is_reserved":false,"is_disabled":false,"rental_uris":{"android":"levelo://app?vid=f3bf7448-e739-4978-bd33-4a56cc415f41","ios":"levelo://app?vid=f3bf7448-e739-4978-bd33-4a56cc415f41"},"vehicle_type_id":"4","last_reported":1727374284,"current_range_meters":24000,"station_id":"","pricing_plan_id":"cebpf4jnsgd1na2vs0mg"},{"bike_id":"afcce393-4271-4ec6-b7bd-9d5dce20ac5a","system_id":"levelo_inurba_marseille","lat":43.28996,"lon":5.35618,"is_reserved":false,"is_disabled":false,"rental_uris":{"android":"levelo://app?vid=afcce393-4271-4ec6-b7bd-9d5dce20ac5a","ios":"levelo://app?vid=afcce393-4271-4ec6-b7bd-9d5dce20ac5a"},"vehicle_type_id":"4","last_reported":1727374284,"current_range_meters":22800,"station_id":"ce4bhb92rcd13ifvqen0","pricing_plan_id":"cebpf4jnsgd1na2vs0mg"},{"bike_id":"a0b4e1dc-b2d5-4e1d-a6e2-2b1fa04ed91c","system_id":"levelo_inurba_marseille","lat":43.28033,"lon":5.36947,"is_reserved":false,"is_disabled":false,"rental_uris":{"android":"levelo://app?vid=a0b4e1dc-b2d5-4e1d-a6e2-2b1fa04ed91c","ios":"levelo://app?vid=a0b4e1dc-b2d5-4e1d-a6e2-2b1fa04ed91c"},"vehicle_type_id":"4","last_reported":1727374284,"current_range_meters":36400,"station_id":"ce4bha12rcd13ifvqef0","pricing_plan_id":"cebpf4jnsgd1na2vs0mg"},{"bike_id":"b18af000-8869-4b0c-b026-e32bf818d32f","system_id":"levelo_inurba_marseille","lat":43.25823,"lon":5.39438,"is_reserved":false,"is_disabled":false,"rental_uris":{"android":"levelo://app?vid=b18af000-8869-4b0c-b026-e32bf818d32f","ios":"levelo://app?vid=b18af000-8869-4b0c-b026-e32bf818d32f"},"vehicle_type_id":"4","last_reported":1727374284,"current_range_meters":32400,"station_id":"ce4bhip2rcd13ifvqft0","pricing_plan_id":"cebpf4jnsgd1na2vs0mg"},{"bike_id":"49d333ae-18b7-434f-a99d-4a3f637da9f5","system_id":"levelo_inurba_marseille","lat":43.28032,"lon":5.36947,"is_reserved":false,"is_disabled":false,"rental_uris":{"android":"levelo://app?vid=49d333ae-18b7-434f-a99d-4a3f637da9f5","ios":"levelo://app?vid=49d333ae-18b7-434f-a99d-4a3f637da9f5"},"vehicle_type_id":"4","last_reported":1727374284,"current_range_meters":6400,"station_id":"ce4bha12rcd13ifvqef0","pricing_plan_id":"cebpf4jnsgd1na2vs0mg"},{"bike_id":"749f4fc4-5729-46b1-b5b4-05914bdf4171","system_id":"levelo_inurba_marseille","lat":43.31113,"lon":5.37773,"is_reserved":false,"is_disabled":false,"rental_uris":{"android":"levelo://app?vid=749f4fc4-5729-46b1-b5b4-05914bdf4171","ios":"levelo://app?vid=749f4fc4-5729-46b1-b5b4-05914bdf4171"},"vehicle_type_id":"4","last_reported":1727374284,"current_range_meters":12400,"station_id":"ce4bgt92rcd13ifvqcg0","pricing_plan_id":"cebpf4jnsgd1na2vs0mg"},{"bike_id":"7384055d-85fd-4751-bf08-f79d162986ed","system_id":"levelo_inurba_marseille","lat":43.28611,"lon":5.35107,"is_reserved":false,"is_disabled":false,"rental_uris":{"android":"levelo://app?vid=7384055d-85fd-4751-bf08-f79d162986ed","ios":"levelo://app?vid=7384055d-85fd-4751-bf08-f79d162986ed"},"vehicle_type_id":"4","last_reported":1727374284,"current_range_meters":24000,"station_id":"ce4bhch2rcd13ifvqeug","pricing_plan_id":"cebpf4jnsgd1na2vs0mg"},{"bike_id":"8e787a81-a4c9-43bc-bfcc-a0939b33a0de","system_id":"levelo_inurba_marseille","lat":43.323335,"lon":5.406218,"is_reserved":false,"is_disabled":false,"rental_uris":{"android":"levelo://app?vid=8e787a81-a4c9-43bc-bfcc-a0939b33a0de","ios":"levelo://app?vid=8e787a81-a4c9-43bc-bfcc-a0939b33a0de"},"vehicle_type_id":"4","last_reported":1727374284,"current_range_meters":38800,"station_id":"ce4bhq92rcd13ifvqhjg","pricing_plan_id":"cebpf4jnsgd1na2vs0mg"},{"bike_id":"b59f21eb-eec1-4035-b55e-7017d2289d0f","system_id":"levelo_inurba_marseille","lat":43.32334,"lon":5.4062,"is_reserved":false,"is_disabled":false,"rental_uris":{"android":"levelo://app?vid=b59f21eb-eec1-4035-b55e-7017d2289d0f","ios":"levelo://app?vid=b59f21eb-eec1-4035-b55e-7017d2289d0f"},"vehicle_type_id":"4","last_reported":1727374284,"current_range_meters":22800,"station_id":"ce4bhq92rcd13ifvqhjg","pricing_plan_id":"cebpf4jnsgd1na2vs0mg"},{"bike_id":"4815afab-f1b4-4152-90e3-b9fc5c00bd49","system_id":"levelo_inurba_marseille","lat":43.25002,"lon":5.38914,"is_reserved":false,"is_disabled":false,"rental_uris":{"android":"levelo://app?vid=4815afab-f1b4-4152-90e3-b9fc5c00bd49","ios":"levelo://app?vid=4815afab-f1b4-4152-90e3-b9fc5c00bd49"},"vehicle_type_id":"4","last_reported":1727374284,"current_range_meters":38800,"station_id":"ce4bhgp2rcd13ifvqfd0","pricing_plan_id":"cebpf4jnsgd1na2vs0mg"},{"bike_id":"7019cc62-e926-4458-9d07-ded9133cb481","system_id":"levelo_inurba_marseille","lat":43.23178,"lon":5.39992,"is_reserved":false,"is_disabled":false,"rental_uris":{"android":"levelo://app?vid=7019cc62-e926-4458-9d07-ded9133cb481","ios":"levelo://app?vid=7019cc62-e926-4458-9d07-ded9133cb481"},"vehicle_type_id":"4","last_reported":1727374284,"current_range_meters":38000,"station_id":"ce4bhn12rcd13ifvqgqg","pricing_plan_id":"cebpf4jnsgd1na2vs0mg"},{"bike_id":"f9bf8330-be25-40ad-a431-d6b398050e6d","system_id":"levelo_inurba_marseille","lat":43.29786,"lon":5.40419,"is_reserved":false,"is_disabled":false,"rental_uris":{"android":"levelo://app?vid=f9bf8330-be25-40ad-a431-d6b398050e6d","ios":"levelo://app?vid=f9bf8330-be25-40ad-a431-d6b398050e6d"},"vehicle_type_id":"4","last_reported":1727374284,"current_range_meters":17200,"station_id":"ce4bh112rcd13ifvqd90","pricing_plan_id":"cebpf4jnsgd1na2vs0mg"},{"bike_id":"7eb231f1-ad29-47ce-819a-a37b17cba0e2","system_id":"levelo_inurba_marseille","lat":43.28609,"lon":5.35106,"is_reserved":false,"is_disabled":false,"rental_uris":{"android":"levelo://app?vid=7eb231f1-ad29-47ce-819a-a37b17cba0e2","ios":"levelo://app?vid=7eb231f1-ad29-47ce-819a-a37b17cba0e2"},"vehicle_type_id":"4","last_reported":1727374284,"current_range_meters":15200,"station_id":"ce4bhch2rcd13ifvqeug","pricing_plan_id":"cebpf4jnsgd1na2vs0mg"},{"bike_id":"d3adb14a-c98c-416b-9bb9-b0bb2efa1b16","system_id":"levelo_inurba_marseille","lat":43.24516,"lon":5.39542,"is_reserved":false,"is_disabled":false,"rental_uris":{"android":"levelo://app?vid=d3adb14a-c98c-416b-9bb9-b0bb2efa1b16","ios":"levelo://app?vid=d3adb14a-c98c-416b-9bb9-b0bb2efa1b16"},"vehicle_type_id":"4","last_reported":1727374284,"current_range_meters":21600,"station_id":"","pricing_plan_id":"cebpf4jnsgd1na2vs0mg"},{"bike_id":"12bb2fa0-def4-44f9-9009-061dd94ed221","system_id":"levelo_inurba_marseille","lat":43.24169,"lon":5.3639,"is_reserved":false,"is_disabled":false,"rental_uris":{"android":"levelo://app?vid=12bb2fa0-def4-44f9-9009-061dd94ed221","ios":"levelo://app?vid=12bb2fa0-def4-44f9-9009-061dd94ed221"},"vehicle_type_id":"4","last_reported":1727374284,"current_range_meters":7200,"station_id":"cpo36qri1sfpv3e86is0","pricing_plan_id":"cebpf4jnsgd1na2vs0mg"},{"bike_id":"a451d907-c1a3-4aae-a1e2-7d6cb385dd50","system_id":"levelo_inurba_marseille","lat":43.29259,"lon":5.40901,"is_reserved":false,"is_disabled":false,"rental_uris":{"android":"levelo://app?vid=a451d907-c1a3-4aae-a1e2-7d6cb385dd50","ios":"levelo://app?vid=a451d907-c1a3-4aae-a1e2-7d6cb385dd50"},"vehicle_type_id":"4","last_reported":1727374284,"current_range_meters":38000,"station_id":"ce4bh192rcd13ifvqdc0","pricing_plan_id":"cebpf4jnsgd1na2vs0mg"},{"bike_id":"c3361ebe-a725-47df-a28d-77e015746b5f","system_id":"levelo_inurba_marseille","lat":43.28995,"lon":5.35615,"is_reserved":false,"is_disabled":false,"rental_uris":{"android":"levelo://app?vid=c3361ebe-a725-47df-a28d-77e015746b5f","ios":"levelo://app?vid=c3361ebe-a725-47df-a28d-77e015746b5f"},"vehicle_type_id":"4","last_reported":1727374284,"current_range_meters":29600,"station_id":"ce4bhb92rcd13ifvqen0","pricing_plan_id":"cebpf4jnsgd1na2vs0mg"},{"bike_id":"6638bfbc-e341-409c-94ed-cb6318eaee99","system_id":"levelo_inurba_marseille","lat":43.27184,"lon":5.40996,"is_reserved":false,"is_disabled":false,"rental_uris":{"android":"levelo://app?vid=6638bfbc-e341-409c-94ed-cb6318eaee99","ios":"levelo://app?vid=6638bfbc-e341-409c-94ed-cb6318eaee99"},"vehicle_type_id":"4","last_reported":1727374284,"current_range_meters":9200,"station_id":"ce4bhl12rcd13ifvqgf0","pricing_plan_id":"cebpf4jnsgd1na2vs0mg"},{"bike_id":"637beff3-55bd-4f15-99c0-4cb53d5dddb9","system_id":"levelo_inurba_marseille","lat":43.30654,"lon":5.39535,"is_reserved":false,"is_disabled":false,"rental_uris":{"android":"levelo://app?vid=637beff3-55bd-4f15-99c0-4cb53d5dddb9","ios":"levelo://app?vid=637beff3-55bd-4f15-99c0-4cb53d5dddb9"},"vehicle_type_id":"4","last_reported":1727374284,"current_range_meters":36400,"station_id":"","pricing_plan_id":"cebpf4jnsgd1na2vs0mg"},{"bike_id":"e42dc48d-198d-4efc-b3f2-04853a783dca","system_id":"levelo_inurba_marseille","lat":43.30328,"lon":5.40427,"is_reserved":false,"is_disabled":false,"rental_uris":{"android":"levelo://app?vid=e42dc48d-198d-4efc-b3f2-04853a783dca","ios":"levelo://app?vid=e42dc48d-198d-4efc-b3f2-04853a783dca"},"vehicle_type_id":"4","last_reported":1727374284,"current_range_meters":2000,"station_id":"ce4bh012rcd13ifvqd10","pricing_plan_id":"cebpf4jnsgd1na2vs0mg"},{"bike_id":"9d7da2a2-ff05-4985-bfe0-f6c0e087b497","system_id":"levelo_inurba_marseille","lat":43.28933,"lon":5.3663,"is_reserved":false,"is_disabled":false,"rental_uris":{"android":"levelo://app?vid=9d7da2a2-ff05-4985-bfe0-f6c0e087b497","ios":"levelo://app?vid=9d7da2a2-ff05-4985-bfe0-f6c0e087b497"},"vehicle_type_id":"4","last_reported":1727374284,"current_range_meters":3600,"station_id":"ce4bhap2rcd13ifvqek0","pricing_plan_id":"cebpf4jnsgd1na2vs0mg"},{"bike_id":"17b6bcc0-ef23-4ffb-a78d-0be2da7ed1c6","system_id":"levelo_inurba_marseille","lat":43.29261,"lon":5.40911,"is_reserved":false,"is_disabled":false,"rental_uris":{"android":"levelo://app?vid=17b6bcc0-ef23-4ffb-a78d-0be2da7ed1c6","ios":"levelo://app?vid=17b6bcc0-ef23-4ffb-a78d-0be2da7ed1c6"},"vehicle_type_id":"4","last_reported":1727374284,"current_range_meters":2000,"station_id":"ce4bh192rcd13ifvqdc0","pricing_plan_id":"cebpf4jnsgd1na2vs0mg"},{"bike_id":"373aba28-49f7-4b31-86a8-e1321c14d114","system_id":"levelo_inurba_marseille","lat":43.287384,"lon":5.359655,"is_reserved":false,"is_disabled":false,"rental_uris":{"android":"levelo://app?vid=373aba28-49f7-4b31-86a8-e1321c14d114","ios":"levelo://app?vid=373aba28-49f7-4b31-86a8-e1321c14d114"},"vehicle_type_id":"4","last_reported":1727374284,"current_range_meters":4400,"station_id":"cki0cbj6b192h4jlfktg","pricing_plan_id":"cebpf4jnsgd1na2vs0mg"},{"bike_id":"6e340ae7-93ad-49cd-9c74-dccb8386d23c","system_id":"levelo_inurba_marseille","lat":43.30798,"lon":5.4353,"is_reserved":false,"is_disabled":false,"rental_uris":{"android":"levelo://app?vid=6e340ae7-93ad-49cd-9c74-dccb8386d23c","ios":"levelo://app?vid=6e340ae7-93ad-49cd-9c74-dccb8386d23c"},"vehicle_type_id":"4","last_reported":1727374284,"current_range_meters":1600,"station_id":"ce4bhph2rcd13ifvqheg","pricing_plan_id":"cebpf4jnsgd1na2vs0mg"},{"bike_id":"6f959d33-95c5-4898-a6d3-403a32f4505c","system_id":"levelo_inurba_marseille","lat":43.27671,"lon":5.38874,"is_reserved":false,"is_disabled":false,"rental_uris":{"android":"levelo://app?vid=6f959d33-95c5-4898-a6d3-403a32f4505c","ios":"levelo://app?vid=6f959d33-95c5-4898-a6d3-403a32f4505c"},"vehicle_type_id":"4","last_reported":1727374284,"current_range_meters":30400,"station_id":"ce4bhi12rcd13ifvqfo0","pricing_plan_id":"cebpf4jnsgd1na2vs0mg"},{"bike_id":"cc44d59f-3050-4b59-aa04-b59de0d2be76","system_id":"levelo_inurba_marseille","lat":43.29525,"lon":5.39396,"is_reserved":false,"is_disabled":false,"rental_uris":{"android":"levelo://app?vid=cc44d59f-3050-4b59-aa04-b59de0d2be76","ios":"levelo://app?vid=cc44d59f-3050-4b59-aa04-b59de0d2be76"},"vehicle_type_id":"4","last_reported":1727374284,"current_range_meters":16400,"station_id":"ce4bh292rcd13ifvqdf0","pricing_plan_id":"cebpf4jnsgd1na2vs0mg"},{"bike_id":"a622c907-46c5-434d-8fd0-7edd60f6603a","system_id":"levelo_inurba_marseille","lat":43.24393,"lon":5.37052,"is_reserved":false,"is_disabled":false,"rental_uris":{"android":"levelo://app?vid=a622c907-46c5-434d-8fd0-7edd60f6603a","ios":"levelo://app?vid=a622c907-46c5-434d-8fd0-7edd60f6603a"},"vehicle_type_id":"4","last_reported":1727374284,"current_range_meters":10800,"station_id":"ce4bhhh2rcd13ifvqfk0","pricing_plan_id":"cebpf4jnsgd1na2vs0mg"},{"bike_id":"594692ca-a4e4-4b59-a792-e9034c8f2cc4","system_id":"levelo_inurba_marseille","lat":43.30684,"lon":5.39979,"is_reserved":false,"is_disabled":false,"rental_uris":{"android":"levelo://app?vid=594692ca-a4e4-4b59-a792-e9034c8f2cc4","ios":"levelo://app?vid=594692ca-a4e4-4b59-a792-e9034c8f2cc4"},"vehicle_type_id":"4","last_reported":1727374284,"current_range_meters":7200,"station_id":"","pricing_plan_id":"cebpf4jnsgd1na2vs0mg"},{"bike_id":"f21a1cda-c148-49af-bcb4-45c7c2d6c9f1","system_id":"levelo_inurba_marseille","lat":43.30352,"lon":5.41884,"is_reserved":false,"is_disabled":false,"rental_uris":{"android":"levelo://app?vid=f21a1cda-c148-49af-bcb4-45c7c2d6c9f1","ios":"levelo://app?vid=f21a1cda-c148-49af-bcb4-45c7c2d6c9f1"},"vehicle_type_id":"4","last_reported":1727374284,"current_range_meters":24000,"station_id":"ce4bhop2rcd13ifvqh7g","pricing_plan_id":"cebpf4jnsgd1na2vs0mg"},{"bike_id":"f7d6971e-d383-41af-bea8-afa23ad23204","system_id":"levelo_inurba_marseille","lat":43.30928,"lon":5.40149,"is_reserved":false,"is_disabled":false,"rental_uris":{"android":"levelo://app?vid=f7d6971e-d383-41af-bea8-afa23ad23204","ios":"levelo://app?vid=f7d6971e-d383-41af-bea8-afa23ad23204"},"vehicle_type_id":"4","last_reported":1727374284,"current_range_meters":6000,"station_id":"ce4bgvp2rcd13ifvqct0","pricing_plan_id":"cebpf4jnsgd1na2vs0mg"},{"bike_id":"848e6b05-559c-4c5e-9319-f03bacf246b2","system_id":"levelo_inurba_marseille","lat":43.297852,"lon":5.365862,"is_reserved":false,"is_disabled":false,"rental_uris":{"android":"levelo://app?vid=848e6b05-559c-4c5e-9319-f03bacf246b2","ios":"levelo://app?vid=848e6b05-559c-4c5e-9319-f03bacf246b2"},"vehicle_type_id":"4","last_reported":1727374284,"current_range_meters":18000,"station_id":"ce4bgn12rcd13ifvqbt0","pricing_plan_id":"cebpf4jnsgd1na2vs0mg"},{"bike_id":"ed3c1bc6-8b01-4bc2-af65-a4b871c0d1c2","system_id":"levelo_inurba_marseille","lat":43.25579,"lon":5.38229,"is_reserved":false,"is_disabled":false,"rental_uris":{"android":"levelo://app?vid=ed3c1bc6-8b01-4bc2-af65-a4b871c0d1c2","ios":"levelo://app?vid=ed3c1bc6-8b01-4bc2-af65-a4b871c0d1c2"},"vehicle_type_id":"4","last_reported":1727374284,"current_range_meters":25600,"station_id":"ce4bhih2rcd13ifvqfs0","pricing_plan_id":"cebpf4jnsgd1na2vs0mg"},{"bike_id":"c419f4e8-fc0c-4376-be4e-721093a43fae","system_id":"levelo_inurba_marseille","lat":43.28684,"lon":5.37414,"is_reserved":false,"is_disabled":false,"rental_uris":{"android":"levelo://app?vid=c419f4e8-fc0c-4376-be4e-721093a43fae","ios":"levelo://app?vid=c419f4e8-fc0c-4376-be4e-721093a43fae"},"vehicle_type_id":"4","last_reported":1727374284,"current_range_meters":11600,"station_id":"ce4bh3p2rcd13ifvqdq0","pricing_plan_id":"cebpf4jnsgd1na2vs0mg"},{"bike_id":"054d5ceb-1c6f-4a5c-9870-ddcd86e86f23","system_id":"levelo_inurba_marseille","lat":43.28702,"lon":5.3999,"is_reserved":false,"is_disabled":false,"rental_uris":{"android":"levelo://app?vid=054d5ceb-1c6f-4a5c-9870-ddcd86e86f23","ios":"levelo://app?vid=054d5ceb-1c6f-4a5c-9870-ddcd86e86f23"},"vehicle_type_id":"4","last_reported":1727374284,"current_range_meters":31200,"station_id":"ce4bho92rcd13ifvqh3g","pricing_plan_id":"cebpf4jnsgd1na2vs0mg"},{"bike_id":"20087b7a-c06f-4dae-8104-113c2069ad0a","system_id":"levelo_inurba_marseille","lat":43.29068,"lon":5.37158,"is_reserved":false,"is_disabled":false,"rental_uris":{"android":"levelo://app?vid=20087b7a-c06f-4dae-8104-113c2069ad0a","ios":"levelo://app?vid=20087b7a-c06f-4dae-8104-113c2069ad0a"},"vehicle_type_id":"4","last_reported":1727374284,"current_range_meters":34000,"station_id":"ce4bh5p2rcd13ifvqe4g","pricing_plan_id":"cebpf4jnsgd1na2vs0mg"},{"bike_id":"fb746d6e-8a39-4860-9803-a51c2870bc7f","system_id":"levelo_inurba_marseille","lat":43.2902,"lon":5.38643,"is_reserved":false,"is_disabled":false,"rental_uris":{"android":"levelo://app?vid=fb746d6e-8a39-4860-9803-a51c2870bc7f","ios":"levelo://app?vid=fb746d6e-8a39-4860-9803-a51c2870bc7f"},"vehicle_type_id":"4","last_reported":1727374284,"current_range_meters":38800,"station_id":"ce4bh4p2rcd13ifvqe0g","pricing_plan_id":"cebpf4jnsgd1na2vs0mg"},{"bike_id":"7743a9ef-cc2f-4c3e-8dc2-a0f7e959e0a8","system_id":"levelo_inurba_marseille","lat":43.27806,"lon":5.40717,"is_reserved":false,"is_disabled":false,"rental_uris":{"android":"levelo://app?vid=7743a9ef-cc2f-4c3e-8dc2-a0f7e959e0a8","ios":"levelo://app?vid=7743a9ef-cc2f-4c3e-8dc2-a0f7e959e0a8"},"vehicle_type_id":"4","last_reported":1727374284,"current_range_meters":4800,"station_id":"ce4bhnh2rcd13ifvqgtg","pricing_plan_id":"cebpf4jnsgd1na2vs0mg"},{"bike_id":"974af02f-9210-425a-a6be-a93ec093f87a","system_id":"levelo_inurba_marseille","lat":43.28698,"lon":5.39988,"is_reserved":false,"is_disabled":false,"rental_uris":{"android":"levelo://app?vid=974af02f-9210-425a-a6be-a93ec093f87a","ios":"levelo://app?vid=974af02f-9210-425a-a6be-a93ec093f87a"},"vehicle_type_id":"4","last_reported":1727374284,"current_range_meters":38800,"station_id":"ce4bho92rcd13ifvqh3g","pricing_plan_id":"cebpf4jnsgd1na2vs0mg"},{"bike_id":"e55b3cf7-bcce-4d7e-bbec-75840cb01bc1","system_id":"levelo_inurba_marseille","lat":43.27571,"lon":5.38423,"is_reserved":false,"is_disabled":false,"rental_uris":{"android":"levelo://app?vid=e55b3cf7-bcce-4d7e-bbec-75840cb01bc1","ios":"levelo://app?vid=e55b3cf7-bcce-4d7e-bbec-75840cb01bc1"},"vehicle_type_id":"4","last_reported":1727374284,"current_range_meters":6400,"station_id":"ce4bhh92rcd13ifvqfi0","pricing_plan_id":"cebpf4jnsgd1na2vs0mg"},{"bike_id":"49b449c2-2471-41fe-a6cd-f594d39b6d00","system_id":"levelo_inurba_marseille","lat":43.32035,"lon":5.41551,"is_reserved":false,"is_disabled":false,"rental_uris":{"android":"levelo://app?vid=49b449c2-2471-41fe-a6cd-f594d39b6d00","ios":"levelo://app?vid=49b449c2-2471-41fe-a6cd-f594d39b6d00"},"vehicle_type_id":"4","last_reported":1727374284,"current_range_meters":26000,"station_id":"ce4bhq92rcd13ifvqhkg","pricing_plan_id":"cebpf4jnsgd1na2vs0mg"},{"bike_id":"32dc551c-7e09-49a8-b5eb-165fa9d7141b","system_id":"levelo_inurba_marseille","lat":43.28149,"lon":5.42649,"is_reserved":false,"is_disabled":false,"rental_uris":{"android":"levelo://app?vid=32dc551c-7e09-49a8-b5eb-165fa9d7141b","ios":"levelo://app?vid=32dc551c-7e09-49a8-b5eb-165fa9d7141b"},"vehicle_type_id":"4","last_reported":1727374284,"current_range_meters":8400,"station_id":"ce4bhnh2rcd13ifvqgug","pricing_plan_id":"cebpf4jnsgd1na2vs0mg"},{"bike_id":"a5f770da-fde2-4749-83d9-4bcaf7eae276","system_id":"levelo_inurba_marseille","lat":43.28848,"lon":5.35848,"is_reserved":false,"is_disabled":false,"rental_uris":{"android":"levelo://app?vid=a5f770da-fde2-4749-83d9-4bcaf7eae276","ios":"levelo://app?vid=a5f770da-fde2-4749-83d9-4bcaf7eae276"},"vehicle_type_id":"4","last_reported":1727374284,"current_range_meters":38800,"station_id":"ce4bhb12rcd13ifvqem0","pricing_plan_id":"cebpf4jnsgd1na2vs0mg"},{"bike_id":"88520022-dcb9-470a-815c-397d3bbf4936","system_id":"levelo_inurba_marseille","lat":43.28099,"lon":5.378373,"is_reserved":false,"is_disabled":false,"rental_uris":{"android":"levelo://app?vid=88520022-dcb9-470a-815c-397d3bbf4936","ios":"levelo://app?vid=88520022-dcb9-470a-815c-397d3bbf4936"},"vehicle_type_id":"4","last_reported":1727374284,"current_range_meters":4800,"station_id":"ce4bha12rcd13ifvqee0","pricing_plan_id":"cebpf4jnsgd1na2vs0mg"},{"bike_id":"da1eb4c8-eb55-4de4-b827-3bf3d60b89d8","system_id":"levelo_inurba_marseille","lat":43.28154,"lon":5.42647,"is_reserved":false,"is_disabled":false,"rental_uris":{"android":"levelo://app?vid=da1eb4c8-eb55-4de4-b827-3bf3d60b89d8","ios":"levelo://app?vid=da1eb4c8-eb55-4de4-b827-3bf3d60b89d8"},"vehicle_type_id":"4","last_reported":1727374284,"current_range_meters":27600,"station_id":"ce4bhnh2rcd13ifvqgug","pricing_plan_id":"cebpf4jnsgd1na2vs0mg"},{"bike_id":"b111aa96-5a7c-4781-b07e-6efc8d93f60a","system_id":"levelo_inurba_marseille","lat":43.30788,"lon":5.37641,"is_reserved":false,"is_disabled":false,"rental_uris":{"android":"levelo://app?vid=b111aa96-5a7c-4781-b07e-6efc8d93f60a","ios":"levelo://app?vid=b111aa96-5a7c-4781-b07e-6efc8d93f60a"},"vehicle_type_id":"4","last_reported":1727374284,"current_range_meters":12400,"station_id":"ce4bgv92rcd13ifvqcq0","pricing_plan_id":"cebpf4jnsgd1na2vs0mg"},{"bike_id":"9c764c91-7432-485e-b73e-85df285a50b6","system_id":"levelo_inurba_marseille","lat":43.29414,"lon":5.38635,"is_reserved":false,"is_disabled":false,"rental_uris":{"android":"levelo://app?vid=9c764c91-7432-485e-b73e-85df285a50b6","ios":"levelo://app?vid=9c764c91-7432-485e-b73e-85df285a50b6"},"vehicle_type_id":"4","last_reported":1727374284,"current_range_meters":38800,"station_id":"ce4bh2h2rcd13ifvqdh0","pricing_plan_id":"cebpf4jnsgd1na2vs0mg"},{"bike_id":"2d397476-7b8a-4c89-aae1-ee71b1dec884","system_id":"levelo_inurba_marseille","lat":43.29263,"lon":5.38428,"is_reserved":false,"is_disabled":false,"rental_uris":{"android":"levelo://app?vid=2d397476-7b8a-4c89-aae1-ee71b1dec884","ios":"levelo://app?vid=2d397476-7b8a-4c89-aae1-ee71b1dec884"},"vehicle_type_id":"4","last_reported":1727374284,"current_range_meters":34800,"station_id":"ce4bh692rcd13ifvqea0","pricing_plan_id":"cebpf4jnsgd1na2vs0mg"},{"bike_id":"460d3f00-92b2-4bef-a5f5-60083aa77ed9","system_id":"levelo_inurba_marseille","lat":43.28929,"lon":5.36653,"is_reserved":false,"is_disabled":false,"rental_uris":{"android":"levelo://app?vid=460d3f00-92b2-4bef-a5f5-60083aa77ed9","ios":"levelo://app?vid=460d3f00-92b2-4bef-a5f5-60083aa77ed9"},"vehicle_type_id":"4","last_reported":1727374284,"current_range_meters":17200,"station_id":"ce4bhap2rcd13ifvqek0","pricing_plan_id":"cebpf4jnsgd1na2vs0mg"},{"bike_id":"549a884d-b7ef-45ae-82ca-a5e8d1708ec9","system_id":"levelo_inurba_marseille","lat":43.3122,"lon":5.36867,"is_reserved":false,"is_disabled":false,"rental_uris":{"android":"levelo://app?vid=549a884d-b7ef-45ae-82ca-a5e8d1708ec9","ios":"levelo://app?vid=549a884d-b7ef-45ae-82ca-a5e8d1708ec9"},"vehicle_type_id":"4","last_reported":1727374284,"current_range_meters":4000,"station_id":"ce4bgl92rcd13ifvqbq0","pricing_plan_id":"cebpf4jnsgd1na2vs0mg"},{"bike_id":"c77c91f6-96f8-482d-b20f-c36ca3fc312b","system_id":"levelo_inurba_marseille","lat":43.31994,"lon":5.38155,"is_reserved":false,"is_disabled":false,"rental_uris":{"android":"levelo://app?vid=c77c91f6-96f8-482d-b20f-c36ca3fc312b","ios":"levelo://app?vid=c77c91f6-96f8-482d-b20f-c36ca3fc312b"},"vehicle_type_id":"4","last_reported":1727374284,"current_range_meters":8400,"station_id":"ce4bhr12rcd13ifvqhpg","pricing_plan_id":"cebpf4jnsgd1na2vs0mg"},{"bike_id":"35ea8c68-3337-46ca-b3e6-aa61667870c7","system_id":"levelo_inurba_marseille","lat":43.28075,"lon":5.39663,"is_reserved":false,"is_disabled":false,"rental_uris":{"android":"levelo://app?vid=35ea8c68-3337-46ca-b3e6-aa61667870c7","ios":"levelo://app?vid=35ea8c68-3337-46ca-b3e6-aa61667870c7"},"vehicle_type_id":"4","last_reported":1727374284,"current_range_meters":36800,"station_id":"ce4bho12rcd13ifvqh2g","pricing_plan_id":"cebpf4jnsgd1na2vs0mg"},{"bike_id":"2ee18878-7eb5-452d-ad2f-597e161e641b","system_id":"levelo_inurba_marseille","lat":43.32473,"lon":5.36577,"is_reserved":false,"is_disabled":false,"rental_uris":{"android":"levelo://app?vid=2ee18878-7eb5-452d-ad2f-597e161e641b","ios":"levelo://app?vid=2ee18878-7eb5-452d-ad2f-597e161e641b"},"vehicle_type_id":"4","last_reported":1727374284,"current_range_meters":35200,"station_id":"ce4bhs12rcd13ifvqhvg","pricing_plan_id":"cebpf4jnsgd1na2vs0mg"},{"bike_id":"c2e5a81e-6912-4cb0-98ad-5f3df477fa43","system_id":"levelo_inurba_marseille","lat":43.28992,"lon":5.37593,"is_reserved":false,"is_disabled":false,"rental_uris":{"android":"levelo://app?vid=c2e5a81e-6912-4cb0-98ad-5f3df477fa43","ios":"levelo://app?vid=c2e5a81e-6912-4cb0-98ad-5f3df477fa43"},"vehicle_type_id":"4","last_reported":1727374284,"current_range_meters":36800,"station_id":"ce4bh692rcd13ifvqe90","pricing_plan_id":"cebpf4jnsgd1na2vs0mg"},{"bike_id":"95730e8f-fe43-49de-b3b5-c6a697db2698","system_id":"levelo_inurba_marseille","lat":43.27173,"lon":5.41005,"is_reserved":false,"is_disabled":false,"rental_uris":{"android":"levelo://app?vid=95730e8f-fe43-49de-b3b5-c6a697db2698","ios":"levelo://app?vid=95730e8f-fe43-49de-b3b5-c6a697db2698"},"vehicle_type_id":"4","last_reported":1727374284,"current_range_meters":20400,"station_id":"ce4bhl12rcd13ifvqgf0","pricing_plan_id":"cebpf4jnsgd1na2vs0mg"},{"bike_id":"08ab446d-5c90-4e4a-b314-d92f971d3702","system_id":"levelo_inurba_marseille","lat":43.27302,"lon":5.39093,"is_reserved":false,"is_disabled":false,"rental_uris":{"android":"levelo://app?vid=08ab446d-5c90-4e4a-b314-d92f971d3702","ios":"levelo://app?vid=08ab446d-5c90-4e4a-b314-d92f971d3702"},"vehicle_type_id":"4","last_reported":1727374284,"current_range_meters":8000,"station_id":"ce4bhgp2rcd13ifvqfe0","pricing_plan_id":"cebpf4jnsgd1na2vs0mg"},{"bike_id":"eeb6dc1e-7585-4a4b-bc85-3f5b3525fe3b","system_id":"levelo_inurba_marseille","lat":43.24075,"lon":5.37759,"is_reserved":false,"is_disabled":false,"rental_uris":{"android":"levelo://app?vid=eeb6dc1e-7585-4a4b-bc85-3f5b3525fe3b","ios":"levelo://app?vid=eeb6dc1e-7585-4a4b-bc85-3f5b3525fe3b"},"vehicle_type_id":"4","last_reported":1727374284,"current_range_meters":25200,"station_id":"ce4bhnp2rcd13ifvqgvg","pricing_plan_id":"cebpf4jnsgd1na2vs0mg"},{"bike_id":"beb2b48a-7c60-4faf-a8ab-ab0546d0ef67","system_id":"levelo_inurba_marseille","lat":43.31753,"lon":5.390145,"is_reserved":false,"is_disabled":false,"rental_uris":{"android":"levelo://app?vid=beb2b48a-7c60-4faf-a8ab-ab0546d0ef67","ios":"levelo://app?vid=beb2b48a-7c60-4faf-a8ab-ab0546d0ef67"},"vehicle_type_id":"4","last_reported":1727374284,"current_range_meters":38800,"station_id":"ce4bhqp2rcd13ifvqhng","pricing_plan_id":"cebpf4jnsgd1na2vs0mg"},{"bike_id":"a859ed76-c638-4c0e-9eaf-5a5a0e10a023","system_id":"levelo_inurba_marseille","lat":43.2815,"lon":5.42647,"is_reserved":false,"is_disabled":false,"rental_uris":{"android":"levelo://app?vid=a859ed76-c638-4c0e-9eaf-5a5a0e10a023","ios":"levelo://app?vid=a859ed76-c638-4c0e-9eaf-5a5a0e10a023"},"vehicle_type_id":"4","last_reported":1727374284,"current_range_meters":24400,"station_id":"ce4bhnh2rcd13ifvqgug","pricing_plan_id":"cebpf4jnsgd1na2vs0mg"},{"bike_id":"d89a6b44-b264-4a99-8b3c-f07b95bc3cb9","system_id":"levelo_inurba_marseille","lat":43.32288,"lon":5.38283,"is_reserved":false,"is_disabled":false,"rental_uris":{"android":"levelo://app?vid=d89a6b44-b264-4a99-8b3c-f07b95bc3cb9","ios":"levelo://app?vid=d89a6b44-b264-4a99-8b3c-f07b95bc3cb9"},"vehicle_type_id":"4","last_reported":1727374284,"current_range_meters":28800,"station_id":"ce4bhr12rcd13ifvqhqg","pricing_plan_id":"cebpf4jnsgd1na2vs0mg"},{"bike_id":"c7018fe4-7f2d-484f-9b31-0c958130e0a8","system_id":"levelo_inurba_marseille","lat":43.28154,"lon":5.42643,"is_reserved":false,"is_disabled":false,"rental_uris":{"android":"levelo://app?vid=c7018fe4-7f2d-484f-9b31-0c958130e0a8","ios":"levelo://app?vid=c7018fe4-7f2d-484f-9b31-0c958130e0a8"},"vehicle_type_id":"4","last_reported":1727374284,"current_range_meters":8400,"station_id":"ce4bhnh2rcd13ifvqgug","pricing_plan_id":"cebpf4jnsgd1na2vs0mg"},{"bike_id":"a7bca3df-0344-4204-86d7-b742d4769839","system_id":"levelo_inurba_marseille","lat":43.30863,"lon":5.3685,"is_reserved":false,"is_disabled":false,"rental_uris":{"android":"levelo://app?vid=a7bca3df-0344-4204-86d7-b742d4769839","ios":"levelo://app?vid=a7bca3df-0344-4204-86d7-b742d4769839"},"vehicle_type_id":"4","last_reported":1727374284,"current_range_meters":21600,"station_id":"ce4bgn92rcd13ifvqbvg","pricing_plan_id":"cebpf4jnsgd1na2vs0mg"},{"bike_id":"189a8e17-dc06-4f85-bbde-5afa18abad81","system_id":"levelo_inurba_marseille","lat":43.31758,"lon":5.39027,"is_reserved":false,"is_disabled":false,"rental_uris":{"android":"levelo://app?vid=189a8e17-dc06-4f85-bbde-5afa18abad81","ios":"levelo://app?vid=189a8e17-dc06-4f85-bbde-5afa18abad81"},"vehicle_type_id":"4","last_reported":1727374284,"current_range_meters":8400,"station_id":"ce4bhqp2rcd13ifvqhng","pricing_plan_id":"cebpf4jnsgd1na2vs0mg"},{"bike_id":"3c25da4a-8679-4bb1-9dab-62cae1920da8","system_id":"levelo_inurba_marseille","lat":43.33022,"lon":5.39038,"is_reserved":false,"is_disabled":false,"rental_uris":{"android":"levelo://app?vid=3c25da4a-8679-4bb1-9dab-62cae1920da8","ios":"levelo://app?vid=3c25da4a-8679-4bb1-9dab-62cae1920da8"},"vehicle_type_id":"4","last_reported":1727374284,"current_range_meters":16400,"station_id":"ce4bhr92rcd13ifvqhrg","pricing_plan_id":"cebpf4jnsgd1na2vs0mg"},{"bike_id":"fc725d6f-782f-4ce3-a557-e2575d53d79d","system_id":"levelo_inurba_marseille","lat":43.26059,"lon":5.39395,"is_reserved":false,"is_disabled":false,"rental_uris":{"android":"levelo://app?vid=fc725d6f-782f-4ce3-a557-e2575d53d79d","ios":"levelo://app?vid=fc725d6f-782f-4ce3-a557-e2575d53d79d"},"vehicle_type_id":"4","last_reported":1727374284,"current_range_meters":13600,"station_id":"ce4bhh92rcd13ifvqfj0","pricing_plan_id":"cebpf4jnsgd1na2vs0mg"},{"bike_id":"959c3be0-7ab3-4265-8d91-9fbd5721b1bf","system_id":"levelo_inurba_marseille","lat":43.28416,"lon":5.34986,"is_reserved":false,"is_disabled":false,"rental_uris":{"android":"levelo://app?vid=959c3be0-7ab3-4265-8d91-9fbd5721b1bf","ios":"levelo://app?vid=959c3be0-7ab3-4265-8d91-9fbd5721b1bf"},"vehicle_type_id":"4","last_reported":1727374284,"current_range_meters":4000,"station_id":"ce4bhbh2rcd13ifvqepg","pricing_plan_id":"cebpf4jnsgd1na2vs0mg"},{"bike_id":"4593dbaa-99e4-4e88-bef4-f2f1f10021b1","system_id":"levelo_inurba_marseille","lat":43.24659,"lon":5.38161,"is_reserved":false,"is_disabled":false,"rental_uris":{"android":"levelo://app?vid=4593dbaa-99e4-4e88-bef4-f2f1f10021b1","ios":"levelo://app?vid=4593dbaa-99e4-4e88-bef4-f2f1f10021b1"},"vehicle_type_id":"4","last_reported":1727374284,"current_range_meters":6000,"station_id":"ce4bhih2rcd13ifvqfr0","pricing_plan_id":"cebpf4jnsgd1na2vs0mg"},{"bike_id":"9badfc1d-b58e-4644-be32-5fbba263bf1a","system_id":"levelo_inurba_marseille","lat":43.279102,"lon":5.395663,"is_reserved":false,"is_disabled":false,"rental_uris":{"android":"levelo://app?vid=9badfc1d-b58e-4644-be32-5fbba263bf1a","ios":"levelo://app?vid=9badfc1d-b58e-4644-be32-5fbba263bf1a"},"vehicle_type_id":"4","last_reported":1727374284,"current_range_meters":6800,"station_id":"ce4bhnh2rcd13ifvqgtg","pricing_plan_id":"cebpf4jnsgd1na2vs0mg"},{"bike_id":"6cd34609-398a-4c8b-b81f-488bd90c0eca","system_id":"levelo_inurba_marseille","lat":43.24387,"lon":5.37064,"is_reserved":false,"is_disabled":false,"rental_uris":{"android":"levelo://app?vid=6cd34609-398a-4c8b-b81f-488bd90c0eca","ios":"levelo://app?vid=6cd34609-398a-4c8b-b81f-488bd90c0eca"},"vehicle_type_id":"4","last_reported":1727374284,"current_range_meters":19600,"station_id":"ce4bhhh2rcd13ifvqfk0","pricing_plan_id":"cebpf4jnsgd1na2vs0mg"},{"bike_id":"5681877b-4769-4d04-8a31-0928ee9d56a2","system_id":"levelo_inurba_marseille","lat":43.31137,"lon":5.37762,"is_reserved":false,"is_disabled":false,"rental_uris":{"android":"levelo://app?vid=5681877b-4769-4d04-8a31-0928ee9d56a2","ios":"levelo://app?vid=5681877b-4769-4d04-8a31-0928ee9d56a2"},"vehicle_type_id":"4","last_reported":1727374284,"current_range_meters":35600,"station_id":"ce4bhq92rcd13ifvqhkg","pricing_plan_id":"cebpf4jnsgd1na2vs0mg"},{"bike_id":"2b1d5b93-d1a0-4279-a38d-759b6403405c","system_id":"levelo_inurba_marseille","lat":43.28421,"lon":5.34993,"is_reserved":false,"is_disabled":false,"rental_uris":{"android":"levelo://app?vid=2b1d5b93-d1a0-4279-a38d-759b6403405c","ios":"levelo://app?vid=2b1d5b93-d1a0-4279-a38d-759b6403405c"},"vehicle_type_id":"4","last_reported":1727374284,"current_range_meters":27200,"station_id":"ce4bhbh2rcd13ifvqepg","pricing_plan_id":"cebpf4jnsgd1na2vs0mg"},{"bike_id":"4a4bfd88-bdfc-4802-b3a8-e798e4274727","system_id":"levelo_inurba_marseille","lat":43.32287,"lon":5.38274,"is_reserved":false,"is_disabled":false,"rental_uris":{"android":"levelo://app?vid=4a4bfd88-bdfc-4802-b3a8-e798e4274727","ios":"levelo://app?vid=4a4bfd88-bdfc-4802-b3a8-e798e4274727"},"vehicle_type_id":"4","last_reported":1727374284,"current_range_meters":23200,"station_id":"ce4bhr12rcd13ifvqhqg","pricing_plan_id":"cebpf4jnsgd1na2vs0mg"},{"bike_id":"303e8f5e-8abb-4ccd-bc87-13da2c5a39f6","system_id":"levelo_inurba_marseille","lat":43.29271,"lon":5.36842,"is_reserved":false,"is_disabled":false,"rental_uris":{"android":"levelo://app?vid=303e8f5e-8abb-4ccd-bc87-13da2c5a39f6","ios":"levelo://app?vid=303e8f5e-8abb-4ccd-bc87-13da2c5a39f6"},"vehicle_type_id":"4","last_reported":1727374284,"current_range_meters":20400,"station_id":"ce4bhbp2rcd13ifvqesg","pricing_plan_id":"cebpf4jnsgd1na2vs0mg"},{"bike_id":"2ba09575-244f-487f-8743-7cdef664b4d1","system_id":"levelo_inurba_marseille","lat":43.29897,"lon":5.43672,"is_reserved":false,"is_disabled":false,"rental_uris":{"android":"levelo://app?vid=2ba09575-244f-487f-8743-7cdef664b4d1","ios":"levelo://app?vid=2ba09575-244f-487f-8743-7cdef664b4d1"},"vehicle_type_id":"4","last_reported":1727374284,"current_range_meters":16800,"station_id":"ce4bhpp2rcd13ifvqhfg","pricing_plan_id":"cebpf4jnsgd1na2vs0mg"},{"bike_id":"7671c8ae-dafb-4664-9d35-2ce0aae79750","system_id":"levelo_inurba_marseille","lat":43.25585,"lon":5.38232,"is_reserved":false,"is_disabled":false,"rental_uris":{"android":"levelo://app?vid=7671c8ae-dafb-4664-9d35-2ce0aae79750","ios":"levelo://app?vid=7671c8ae-dafb-4664-9d35-2ce0aae79750"},"vehicle_type_id":"4","last_reported":1727374284,"current_range_meters":9200,"station_id":"ce4bhih2rcd13ifvqfs0","pricing_plan_id":"cebpf4jnsgd1na2vs0mg"},{"bike_id":"b8d4cfe5-fa00-4798-bb3b-a5cd96b0fee5","system_id":"levelo_inurba_marseille","lat":43.24216,"lon":5.38438,"is_reserved":false,"is_disabled":false,"rental_uris":{"android":"levelo://app?vid=b8d4cfe5-fa00-4798-bb3b-a5cd96b0fee5","ios":"levelo://app?vid=b8d4cfe5-fa00-4798-bb3b-a5cd96b0fee5"},"vehicle_type_id":"4","last_reported":1727374284,"current_range_meters":7200,"station_id":"","pricing_plan_id":"cebpf4jnsgd1na2vs0mg"},{"bike_id":"928b988c-e80e-44c5-92ef-ea948012e9fe","system_id":"levelo_inurba_marseille","lat":43.29167,"lon":5.37153,"is_reserved":false,"is_disabled":false,"rental_uris":{"android":"levelo://app?vid=928b988c-e80e-44c5-92ef-ea948012e9fe","ios":"levelo://app?vid=928b988c-e80e-44c5-92ef-ea948012e9fe"},"vehicle_type_id":"4","last_reported":1727374284,"current_range_meters":32000,"station_id":"ce4bha92rcd13ifvqeh0","pricing_plan_id":"cebpf4jnsgd1na2vs0mg"},{"bike_id":"19f852cb-7fa0-477a-91ec-9c88d066b56c","system_id":"levelo_inurba_marseille","lat":43.28154,"lon":5.42639,"is_reserved":false,"is_disabled":false,"rental_uris":{"android":"levelo://app?vid=19f852cb-7fa0-477a-91ec-9c88d066b56c","ios":"levelo://app?vid=19f852cb-7fa0-477a-91ec-9c88d066b56c"},"vehicle_type_id":"4","last_reported":1727374284,"current_range_meters":20800,"station_id":"ce4bhnh2rcd13ifvqgug","pricing_plan_id":"cebpf4jnsgd1na2vs0mg"},{"bike_id":"bf001fef-f9f9-4f8a-87af-76d9a338fbcf","system_id":"levelo_inurba_marseille","lat":43.29223,"lon":5.36068,"is_reserved":false,"is_disabled":false,"rental_uris":{"android":"levelo://app?vid=bf001fef-f9f9-4f8a-87af-76d9a338fbcf","ios":"levelo://app?vid=bf001fef-f9f9-4f8a-87af-76d9a338fbcf"},"vehicle_type_id":"4","last_reported":1727374284,"current_range_meters":5600,"station_id":"ce4bhbh2rcd13ifvqeqg","pricing_plan_id":"cebpf4jnsgd1na2vs0mg"},{"bike_id":"7be7c110-613e-418c-9775-8a467e455553","system_id":"levelo_inurba_marseille","lat":43.2846,"lon":5.358947,"is_reserved":false,"is_disabled":false,"rental_uris":{"android":"levelo://app?vid=7be7c110-613e-418c-9775-8a467e455553","ios":"levelo://app?vid=7be7c110-613e-418c-9775-8a467e455553"},"vehicle_type_id":"4","last_reported":1727374284,"current_range_meters":37600,"station_id":"ce4bhah2rcd13ifvqei0","pricing_plan_id":"cebpf4jnsgd1na2vs0mg"},{"bike_id":"8e2f9f91-044d-4a2a-9a53-6e1eafa94751","system_id":"levelo_inurba_marseille","lat":43.31719,"lon":5.42399,"is_reserved":false,"is_disabled":false,"rental_uris":{"android":"levelo://app?vid=8e2f9f91-044d-4a2a-9a53-6e1eafa94751","ios":"levelo://app?vid=8e2f9f91-044d-4a2a-9a53-6e1eafa94751"},"vehicle_type_id":"4","last_reported":1727374284,"current_range_meters":10000,"station_id":"ce4bhp92rcd13ifvqhbg","pricing_plan_id":"cebpf4jnsgd1na2vs0mg"},{"bike_id":"c97f933f-fe5c-4359-a3c5-f48408577f2f","system_id":"levelo_inurba_marseille","lat":43.32035,"lon":5.41551,"is_reserved":false,"is_disabled":false,"rental_uris":{"android":"levelo://app?vid=c97f933f-fe5c-4359-a3c5-f48408577f2f","ios":"levelo://app?vid=c97f933f-fe5c-4359-a3c5-f48408577f2f"},"vehicle_type_id":"4","last_reported":1727374284,"current_range_meters":6400,"station_id":"ce4bhq92rcd13ifvqhkg","pricing_plan_id":"cebpf4jnsgd1na2vs0mg"},{"bike_id":"f853f880-54da-4f96-ac56-24bc61ad1215","system_id":"levelo_inurba_marseille","lat":43.296051,"lon":5.376466,"is_reserved":false,"is_disabled":false,"rental_uris":{"android":"levelo://app?vid=f853f880-54da-4f96-ac56-24bc61ad1215","ios":"levelo://app?vid=f853f880-54da-4f96-ac56-24bc61ad1215"},"vehicle_type_id":"4","last_reported":1727374284,"current_range_meters":4400,"station_id":"ce4bgl12rcd13ifvqbo0","pricing_plan_id":"cebpf4jnsgd1na2vs0mg"},{"bike_id":"67325fbb-f8a0-4e53-8f23-16b999bc93b7","system_id":"levelo_inurba_marseille","lat":43.28937,"lon":5.36632,"is_reserved":false,"is_disabled":false,"rental_uris":{"android":"levelo://app?vid=67325fbb-f8a0-4e53-8f23-16b999bc93b7","ios":"levelo://app?vid=67325fbb-f8a0-4e53-8f23-16b999bc93b7"},"vehicle_type_id":"4","last_reported":1727374284,"current_range_meters":2800,"station_id":"ce4bhap2rcd13ifvqek0","pricing_plan_id":"cebpf4jnsgd1na2vs0mg"},{"bike_id":"f14e0b4d-1a11-40be-b408-a657c168464f","system_id":"levelo_inurba_marseille","lat":43.30303,"lon":5.36891,"is_reserved":false,"is_disabled":false,"rental_uris":{"android":"levelo://app?vid=f14e0b4d-1a11-40be-b408-a657c168464f","ios":"levelo://app?vid=f14e0b4d-1a11-40be-b408-a657c168464f"},"vehicle_type_id":"4","last_reported":1727374284,"current_range_meters":8800,"station_id":"ce4bgqh2rcd13ifvqc5g","pricing_plan_id":"cebpf4jnsgd1na2vs0mg"},{"bike_id":"30ff597b-4112-446a-aa7a-1252b9fc2d70","system_id":"levelo_inurba_marseille","lat":43.25085,"lon":5.39519,"is_reserved":false,"is_disabled":false,"rental_uris":{"android":"levelo://app?vid=30ff597b-4112-446a-aa7a-1252b9fc2d70","ios":"levelo://app?vid=30ff597b-4112-446a-aa7a-1252b9fc2d70"},"vehicle_type_id":"4","last_reported":1727374284,"current_range_meters":21600,"station_id":"ce4bhm12rcd13ifvqgkg","pricing_plan_id":"cebpf4jnsgd1na2vs0mg"},{"bike_id":"6f0fe997-61fd-4d0a-8609-bc486c81e935","system_id":"levelo_inurba_marseille","lat":43.29431,"lon":5.39765,"is_reserved":false,"is_disabled":false,"rental_uris":{"android":"levelo://app?vid=6f0fe997-61fd-4d0a-8609-bc486c81e935","ios":"levelo://app?vid=6f0fe997-61fd-4d0a-8609-bc486c81e935"},"vehicle_type_id":"4","last_reported":1727374284,"current_range_meters":14400,"station_id":"ce4bh3h2rcd13ifvqdo0","pricing_plan_id":"cebpf4jnsgd1na2vs0mg"},{"bike_id":"4bb5b5ed-19be-491e-a373-c9e9bdd60811","system_id":"levelo_inurba_marseille","lat":43.2919,"lon":5.35802,"is_reserved":false,"is_disabled":false,"rental_uris":{"android":"levelo://app?vid=4bb5b5ed-19be-491e-a373-c9e9bdd60811","ios":"levelo://app?vid=4bb5b5ed-19be-491e-a373-c9e9bdd60811"},"vehicle_type_id":"4","last_reported":1727374284,"current_range_meters":9600,"station_id":"ce4bhb12rcd13ifvqel0","pricing_plan_id":"cebpf4jnsgd1na2vs0mg"},{"bike_id":"698cc1c4-c92c-4235-a277-2a256b0f360b","system_id":"levelo_inurba_marseille","lat":43.296387,"lon":5.377119,"is_reserved":false,"is_disabled":false,"rental_uris":{"android":"levelo://app?vid=698cc1c4-c92c-4235-a277-2a256b0f360b","ios":"levelo://app?vid=698cc1c4-c92c-4235-a277-2a256b0f360b"},"vehicle_type_id":"4","last_reported":1727374284,"current_range_meters":36800,"station_id":"ce4bgi92rcd13ifvqb90","pricing_plan_id":"cebpf4jnsgd1na2vs0mg"},{"bike_id":"eee6d266-d969-459e-9def-2c03bdad6f10","system_id":"levelo_inurba_marseille","lat":43.31748,"lon":5.39029,"is_reserved":false,"is_disabled":false,"rental_uris":{"android":"levelo://app?vid=eee6d266-d969-459e-9def-2c03bdad6f10","ios":"levelo://app?vid=eee6d266-d969-459e-9def-2c03bdad6f10"},"vehicle_type_id":"4","last_reported":1727374284,"current_range_meters":17200,"station_id":"ce4bhqp2rcd13ifvqhng","pricing_plan_id":"cebpf4jnsgd1na2vs0mg"},{"bike_id":"68c4de68-7e73-40f6-a24b-060132b45d60","system_id":"levelo_inurba_marseille","lat":43.29412,"lon":5.38594,"is_reserved":false,"is_disabled":false,"rental_uris":{"android":"levelo://app?vid=68c4de68-7e73-40f6-a24b-060132b45d60","ios":"levelo://app?vid=68c4de68-7e73-40f6-a24b-060132b45d60"},"vehicle_type_id":"4","last_reported":1727374284,"current_range_meters":1600,"station_id":"ce4bh0p2rcd13ifvqd70","pricing_plan_id":"cebpf4jnsgd1na2vs0mg"},{"bike_id":"e973be63-fa9c-4c91-8e1b-ab17345f0d9f","system_id":"levelo_inurba_marseille","lat":43.25578,"lon":5.3823,"is_reserved":false,"is_disabled":false,"rental_uris":{"android":"levelo://app?vid=e973be63-fa9c-4c91-8e1b-ab17345f0d9f","ios":"levelo://app?vid=e973be63-fa9c-4c91-8e1b-ab17345f0d9f"},"vehicle_type_id":"4","last_reported":1727374284,"current_range_meters":8800,"station_id":"ce4bhih2rcd13ifvqfs0","pricing_plan_id":"cebpf4jnsgd1na2vs0mg"},{"bike_id":"68402a0f-a2f6-4003-bce7-ef770c8dc95b","system_id":"levelo_inurba_marseille","lat":43.2799,"lon":5.41661,"is_reserved":false,"is_disabled":false,"rental_uris":{"android":"levelo://app?vid=68402a0f-a2f6-4003-bce7-ef770c8dc95b","ios":"levelo://app?vid=68402a0f-a2f6-4003-bce7-ef770c8dc95b"},"vehicle_type_id":"4","last_reported":1727374284,"current_range_meters":36800,"station_id":"ce4bho12rcd13ifvqh1g","pricing_plan_id":"cebpf4jnsgd1na2vs0mg"},{"bike_id":"6c1fda78-a27a-41ea-9d99-03a440f5f874","system_id":"levelo_inurba_marseille","lat":43.23064,"lon":5.35495,"is_reserved":false,"is_disabled":false,"rental_uris":{"android":"levelo://app?vid=6c1fda78-a27a-41ea-9d99-03a440f5f874","ios":"levelo://app?vid=6c1fda78-a27a-41ea-9d99-03a440f5f874"},"vehicle_type_id":"4","last_reported":1727374284,"current_range_meters":38800,"station_id":"cpo3342slgdg3j2ifvpg","pricing_plan_id":"cebpf4jnsgd1na2vs0mg"},{"bike_id":"9560daa0-c4e3-4ff9-8735-b7bf5fec25a2","system_id":"levelo_inurba_marseille","lat":43.3377,"lon":5.37479,"is_reserved":false,"is_disabled":false,"rental_uris":{"android":"levelo://app?vid=9560daa0-c4e3-4ff9-8735-b7bf5fec25a2","ios":"levelo://app?vid=9560daa0-c4e3-4ff9-8735-b7bf5fec25a2"},"vehicle_type_id":"4","last_reported":1727374284,"current_range_meters":7200,"station_id":"ce4bhg12rcd13ifvqf80","pricing_plan_id":"cebpf4jnsgd1na2vs0mg"},{"bike_id":"3095cf06-d7c0-403d-ac3c-ebe96a19d37c","system_id":"levelo_inurba_marseille","lat":43.32647,"lon":5.40988,"is_reserved":false,"is_disabled":false,"rental_uris":{"android":"levelo://app?vid=3095cf06-d7c0-403d-ac3c-ebe96a19d37c","ios":"levelo://app?vid=3095cf06-d7c0-403d-ac3c-ebe96a19d37c"},"vehicle_type_id":"4","last_reported":1727374284,"current_range_meters":2800,"station_id":"ce4bhqp2rcd13ifvqhng","pricing_plan_id":"cebpf4jnsgd1na2vs0mg"},{"bike_id":"b32291ea-1a2c-464c-b824-7211d0050892","system_id":"levelo_inurba_marseille","lat":43.28669,"lon":5.38661,"is_reserved":false,"is_disabled":false,"rental_uris":{"android":"levelo://app?vid=b32291ea-1a2c-464c-b824-7211d0050892","ios":"levelo://app?vid=b32291ea-1a2c-464c-b824-7211d0050892"},"vehicle_type_id":"4","last_reported":1727374284,"current_range_meters":38800,"station_id":"ce4bh492rcd13ifvqdug","pricing_plan_id":"cebpf4jnsgd1na2vs0mg"},{"bike_id":"3c29436d-dbf1-4fb3-a853-f9606e433a82","system_id":"levelo_inurba_marseille","lat":43.317519,"lon":5.390113,"is_reserved":false,"is_disabled":false,"rental_uris":{"android":"levelo://app?vid=3c29436d-dbf1-4fb3-a853-f9606e433a82","ios":"levelo://app?vid=3c29436d-dbf1-4fb3-a853-f9606e433a82"},"vehicle_type_id":"4","last_reported":1727374284,"current_range_meters":14800,"station_id":"ce4bhqp2rcd13ifvqhng","pricing_plan_id":"cebpf4jnsgd1na2vs0mg"},{"bike_id":"eeeb5776-d5d8-47a2-b08d-58dcf016671f","system_id":"levelo_inurba_marseille","lat":43.30888,"lon":5.37204,"is_reserved":false,"is_disabled":false,"rental_uris":{"android":"levelo://app?vid=eeeb5776-d5d8-47a2-b08d-58dcf016671f","ios":"levelo://app?vid=eeeb5776-d5d8-47a2-b08d-58dcf016671f"},"vehicle_type_id":"4","last_reported":1727374284,"current_range_meters":36800,"station_id":"ce4bguh2rcd13ifvqckg","pricing_plan_id":"cebpf4jnsgd1na2vs0mg"},{"bike_id":"7636de0d-24ac-43ef-b05f-eceb64c8b199","system_id":"levelo_inurba_marseille","lat":43.29193,"lon":5.35812,"is_reserved":false,"is_disabled":false,"rental_uris":{"android":"levelo://app?vid=7636de0d-24ac-43ef-b05f-eceb64c8b199","ios":"levelo://app?vid=7636de0d-24ac-43ef-b05f-eceb64c8b199"},"vehicle_type_id":"4","last_reported":1727374284,"current_range_meters":39200,"station_id":"ce4bhb12rcd13ifvqel0","pricing_plan_id":"cebpf4jnsgd1na2vs0mg"},{"bike_id":"264f5e1a-910c-402c-8387-641549ff797c","system_id":"levelo_inurba_marseille","lat":43.28455,"lon":5.35886,"is_reserved":false,"is_disabled":false,"rental_uris":{"android":"levelo://app?vid=264f5e1a-910c-402c-8387-641549ff797c","ios":"levelo://app?vid=264f5e1a-910c-402c-8387-641549ff797c"},"vehicle_type_id":"4","last_reported":1727374284,"current_range_meters":38800,"station_id":"ce4bhah2rcd13ifvqei0","pricing_plan_id":"cebpf4jnsgd1na2vs0mg"},{"bike_id":"571c23f9-84b8-4dea-b2bc-06f7588d01ff","system_id":"levelo_inurba_marseille","lat":43.268,"lon":5.4027,"is_reserved":false,"is_disabled":false,"rental_uris":{"android":"levelo://app?vid=571c23f9-84b8-4dea-b2bc-06f7588d01ff","ios":"levelo://app?vid=571c23f9-84b8-4dea-b2bc-06f7588d01ff"},"vehicle_type_id":"4","last_reported":1727374284,"current_range_meters":18800,"station_id":"ce501612rcd8frsf0b60","pricing_plan_id":"cebpf4jnsgd1na2vs0mg"},{"bike_id":"9ba33055-1cec-4527-a03c-8597cd62cb59","system_id":"levelo_inurba_marseille","lat":43.2557,"lon":5.38246,"is_reserved":false,"is_disabled":false,"rental_uris":{"android":"levelo://app?vid=9ba33055-1cec-4527-a03c-8597cd62cb59","ios":"levelo://app?vid=9ba33055-1cec-4527-a03c-8597cd62cb59"},"vehicle_type_id":"4","last_reported":1727374284,"current_range_meters":10800,"station_id":"ce4bhih2rcd13ifvqfs0","pricing_plan_id":"cebpf4jnsgd1na2vs0mg"},{"bike_id":"90ff4fa3-60c6-4b8b-a8b4-ab9a012932c1","system_id":"levelo_inurba_marseille","lat":43.29226,"lon":5.36066,"is_reserved":false,"is_disabled":false,"rental_uris":{"android":"levelo://app?vid=90ff4fa3-60c6-4b8b-a8b4-ab9a012932c1","ios":"levelo://app?vid=90ff4fa3-60c6-4b8b-a8b4-ab9a012932c1"},"vehicle_type_id":"4","last_reported":1727374284,"current_range_meters":16800,"station_id":"ce4bhbh2rcd13ifvqeqg","pricing_plan_id":"cebpf4jnsgd1na2vs0mg"},{"bike_id":"d6e0c4a3-9804-46b9-a295-0df9259f4e20","system_id":"levelo_inurba_marseille","lat":43.30792,"lon":5.37332,"is_reserved":false,"is_disabled":false,"rental_uris":{"android":"levelo://app?vid=d6e0c4a3-9804-46b9-a295-0df9259f4e20","ios":"levelo://app?vid=d6e0c4a3-9804-46b9-a295-0df9259f4e20"},"vehicle_type_id":"4","last_reported":1727374284,"current_range_meters":30800,"station_id":"","pricing_plan_id":"cebpf4jnsgd1na2vs0mg"},{"bike_id":"6f0fd928-ae09-45de-b050-22e5b982a7f2","system_id":"levelo_inurba_marseille","lat":43.25724,"lon":5.41111,"is_reserved":false,"is_disabled":false,"rental_uris":{"android":"levelo://app?vid=6f0fd928-ae09-45de-b050-22e5b982a7f2","ios":"levelo://app?vid=6f0fd928-ae09-45de-b050-22e5b982a7f2"},"vehicle_type_id":"4","last_reported":1727374284,"current_range_meters":4000,"station_id":"ce4bhkp2rcd13ifvqgd0","pricing_plan_id":"cebpf4jnsgd1na2vs0mg"},{"bike_id":"91be5db2-aa00-40b1-9e07-1886ba1523e2","system_id":"levelo_inurba_marseille","lat":43.32656,"lon":5.40997,"is_reserved":false,"is_disabled":false,"rental_uris":{"android":"levelo://app?vid=91be5db2-aa00-40b1-9e07-1886ba1523e2","ios":"levelo://app?vid=91be5db2-aa00-40b1-9e07-1886ba1523e2"},"vehicle_type_id":"4","last_reported":1727374284,"current_range_meters":37600,"station_id":"ce4bhpp2rcd13ifvqhgg","pricing_plan_id":"cebpf4jnsgd1na2vs0mg"},{"bike_id":"c9101bdf-a342-4ac7-90b7-5b50b7e1f525","system_id":"levelo_inurba_marseille","lat":43.29101,"lon":5.38165,"is_reserved":false,"is_disabled":false,"rental_uris":{"android":"levelo://app?vid=c9101bdf-a342-4ac7-90b7-5b50b7e1f525","ios":"levelo://app?vid=c9101bdf-a342-4ac7-90b7-5b50b7e1f525"},"vehicle_type_id":"4","last_reported":1727374284,"current_range_meters":21600,"station_id":"ce4bh512rcd13ifvqe2g","pricing_plan_id":"cebpf4jnsgd1na2vs0mg"},{"bike_id":"ee782f47-20d5-477a-88f7-f9eebcaf671f","system_id":"levelo_inurba_marseille","lat":43.24547,"lon":5.39524,"is_reserved":false,"is_disabled":false,"rental_uris":{"android":"levelo://app?vid=ee782f47-20d5-477a-88f7-f9eebcaf671f","ios":"levelo://app?vid=ee782f47-20d5-477a-88f7-f9eebcaf671f"},"vehicle_type_id":"4","last_reported":1727374284,"current_range_meters":30800,"station_id":"ce4bhlp2rcd13ifvqgjg","pricing_plan_id":"cebpf4jnsgd1na2vs0mg"},{"bike_id":"74ba3156-a1be-4ef0-ac11-455f821f99a0","system_id":"levelo_inurba_marseille","lat":43.29971,"lon":5.38495,"is_reserved":false,"is_disabled":false,"rental_uris":{"android":"levelo://app?vid=74ba3156-a1be-4ef0-ac11-455f821f99a0","ios":"levelo://app?vid=74ba3156-a1be-4ef0-ac11-455f821f99a0"},"vehicle_type_id":"4","last_reported":1727374284,"current_range_meters":38000,"station_id":"ce4bgj92rcd13ifvqbd0","pricing_plan_id":"cebpf4jnsgd1na2vs0mg"},{"bike_id":"f4b349d5-16fe-4d4b-bc08-17b27f2ec00b","system_id":"levelo_inurba_marseille","lat":43.28614,"lon":5.35109,"is_reserved":false,"is_disabled":false,"rental_uris":{"android":"levelo://app?vid=f4b349d5-16fe-4d4b-bc08-17b27f2ec00b","ios":"levelo://app?vid=f4b349d5-16fe-4d4b-bc08-17b27f2ec00b"},"vehicle_type_id":"4","last_reported":1727374284,"current_range_meters":26800,"station_id":"ce4bhch2rcd13ifvqeug","pricing_plan_id":"cebpf4jnsgd1na2vs0mg"},{"bike_id":"c548acb0-876f-4c98-8bb3-760120a68714","system_id":"levelo_inurba_marseille","lat":43.32479,"lon":5.36568,"is_reserved":false,"is_disabled":false,"rental_uris":{"android":"levelo://app?vid=c548acb0-876f-4c98-8bb3-760120a68714","ios":"levelo://app?vid=c548acb0-876f-4c98-8bb3-760120a68714"},"vehicle_type_id":"4","last_reported":1727374284,"current_range_meters":14000,"station_id":"ce4bhs12rcd13ifvqhvg","pricing_plan_id":"cebpf4jnsgd1na2vs0mg"},{"bike_id":"4cd9df7e-b687-49fa-89a9-baaa6e82f806","system_id":"levelo_inurba_marseille","lat":43.31321,"lon":5.39691,"is_reserved":false,"is_disabled":false,"rental_uris":{"android":"levelo://app?vid=4cd9df7e-b687-49fa-89a9-baaa6e82f806","ios":"levelo://app?vid=4cd9df7e-b687-49fa-89a9-baaa6e82f806"},"vehicle_type_id":"4","last_reported":1727374284,"current_range_meters":8000,"station_id":"ce4bgvp2rcd13ifvqcu0","pricing_plan_id":"cebpf4jnsgd1na2vs0mg"},{"bike_id":"07030c9f-b220-4d67-b434-1d818d1c7394","system_id":"levelo_inurba_marseille","lat":43.29899,"lon":5.43667,"is_reserved":false,"is_disabled":false,"rental_uris":{"android":"levelo://app?vid=07030c9f-b220-4d67-b434-1d818d1c7394","ios":"levelo://app?vid=07030c9f-b220-4d67-b434-1d818d1c7394"},"vehicle_type_id":"4","last_reported":1727374284,"current_range_meters":36400,"station_id":"ce4bhpp2rcd13ifvqhfg","pricing_plan_id":"cebpf4jnsgd1na2vs0mg"},{"bike_id":"3a38d4f6-3878-448e-abb0-6a2412c3ecea","system_id":"levelo_inurba_marseille","lat":43.29266,"lon":5.36848,"is_reserved":false,"is_disabled":false,"rental_uris":{"android":"levelo://app?vid=3a38d4f6-3878-448e-abb0-6a2412c3ecea","ios":"levelo://app?vid=3a38d4f6-3878-448e-abb0-6a2412c3ecea"},"vehicle_type_id":"4","last_reported":1727374284,"current_range_meters":4000,"station_id":"ce4bhbp2rcd13ifvqesg","pricing_plan_id":"cebpf4jnsgd1na2vs0mg"},{"bike_id":"f17dbafc-151f-485c-a428-c0c83c10c6c9","system_id":"levelo_inurba_marseille","lat":43.29148,"lon":5.43989,"is_reserved":false,"is_disabled":false,"rental_uris":{"android":"levelo://app?vid=f17dbafc-151f-485c-a428-c0c83c10c6c9","ios":"levelo://app?vid=f17dbafc-151f-485c-a428-c0c83c10c6c9"},"vehicle_type_id":"4","last_reported":1727374284,"current_range_meters":20400,"station_id":"","pricing_plan_id":"cebpf4jnsgd1na2vs0mg"},{"bike_id":"55caec12-1fa8-4c1e-bf85-ede42b91b473","system_id":"levelo_inurba_marseille","lat":43.31754,"lon":5.39023,"is_reserved":false,"is_disabled":false,"rental_uris":{"android":"levelo://app?vid=55caec12-1fa8-4c1e-bf85-ede42b91b473","ios":"levelo://app?vid=55caec12-1fa8-4c1e-bf85-ede42b91b473"},"vehicle_type_id":"4","last_reported":1727374284,"current_range_meters":14400,"station_id":"ce4bhqp2rcd13ifvqhng","pricing_plan_id":"cebpf4jnsgd1na2vs0mg"},{"bike_id":"3c8e0ba9-2aa2-4c81-afa5-2f0c6b8a5be4","system_id":"levelo_inurba_marseille","lat":43.23189,"lon":5.39985,"is_reserved":false,"is_disabled":false,"rental_uris":{"android":"levelo://app?vid=3c8e0ba9-2aa2-4c81-afa5-2f0c6b8a5be4","ios":"levelo://app?vid=3c8e0ba9-2aa2-4c81-afa5-2f0c6b8a5be4"},"vehicle_type_id":"4","last_reported":1727374284,"current_range_meters":38800,"station_id":"ce4bhn12rcd13ifvqgqg","pricing_plan_id":"cebpf4jnsgd1na2vs0mg"},{"bike_id":"a16c70a6-125d-45e4-96e6-1d74d7a93289","system_id":"levelo_inurba_marseille","lat":43.2809,"lon":5.3966,"is_reserved":false,"is_disabled":false,"rental_uris":{"android":"levelo://app?vid=a16c70a6-125d-45e4-96e6-1d74d7a93289","ios":"levelo://app?vid=a16c70a6-125d-45e4-96e6-1d74d7a93289"},"vehicle_type_id":"4","last_reported":1727374284,"current_range_meters":15200,"station_id":"ce4bho12rcd13ifvqh2g","pricing_plan_id":"cebpf4jnsgd1na2vs0mg"},{"bike_id":"3ece237e-d73e-496e-846a-36dd1048998d","system_id":"levelo_inurba_marseille","lat":43.28567,"lon":5.39503,"is_reserved":false,"is_disabled":false,"rental_uris":{"android":"levelo://app?vid=3ece237e-d73e-496e-846a-36dd1048998d","ios":"levelo://app?vid=3ece237e-d73e-496e-846a-36dd1048998d"},"vehicle_type_id":"4","last_reported":1727374284,"current_range_meters":8400,"station_id":"ce4bh292rcd13ifvqdg0","pricing_plan_id":"cebpf4jnsgd1na2vs0mg"},{"bike_id":"55be2d7a-dfba-45a3-be5e-ab6f5646f504","system_id":"levelo_inurba_marseille","lat":43.30305,"lon":5.36864,"is_reserved":false,"is_disabled":false,"rental_uris":{"android":"levelo://app?vid=55be2d7a-dfba-45a3-be5e-ab6f5646f504","ios":"levelo://app?vid=55be2d7a-dfba-45a3-be5e-ab6f5646f504"},"vehicle_type_id":"4","last_reported":1727374284,"current_range_meters":30400,"station_id":"ce4bgqh2rcd13ifvqc5g","pricing_plan_id":"cebpf4jnsgd1na2vs0mg"},{"bike_id":"df7cdba6-ef6e-4e33-b6e5-3ae1fcc23c5a","system_id":"levelo_inurba_marseille","lat":43.24543,"lon":5.39524,"is_reserved":false,"is_disabled":false,"rental_uris":{"android":"levelo://app?vid=df7cdba6-ef6e-4e33-b6e5-3ae1fcc23c5a","ios":"levelo://app?vid=df7cdba6-ef6e-4e33-b6e5-3ae1fcc23c5a"},"vehicle_type_id":"4","last_reported":1727374284,"current_range_meters":30400,"station_id":"ce4bhlp2rcd13ifvqgjg","pricing_plan_id":"cebpf4jnsgd1na2vs0mg"},{"bike_id":"877d44bc-6a0d-4f23-82ce-d93508acdcb2","system_id":"levelo_inurba_marseille","lat":43.3204,"lon":5.41554,"is_reserved":false,"is_disabled":false,"rental_uris":{"android":"levelo://app?vid=877d44bc-6a0d-4f23-82ce-d93508acdcb2","ios":"levelo://app?vid=877d44bc-6a0d-4f23-82ce-d93508acdcb2"},"vehicle_type_id":"4","last_reported":1727374284,"current_range_meters":9600,"station_id":"ce4bhq92rcd13ifvqhkg","pricing_plan_id":"cebpf4jnsgd1na2vs0mg"},{"bike_id":"d228d65b-732e-496b-9488-2d5d172698e2","system_id":"levelo_inurba_marseille","lat":43.24066,"lon":5.37761,"is_reserved":false,"is_disabled":false,"rental_uris":{"android":"levelo://app?vid=d228d65b-732e-496b-9488-2d5d172698e2","ios":"levelo://app?vid=d228d65b-732e-496b-9488-2d5d172698e2"},"vehicle_type_id":"4","last_reported":1727374284,"current_range_meters":2800,"station_id":"ce4bhnp2rcd13ifvqgvg","pricing_plan_id":"cebpf4jnsgd1na2vs0mg"},{"bike_id":"2248654b-43ce-4396-a208-b6c9d67840d2","system_id":"levelo_inurba_marseille","lat":43.295685,"lon":5.375256,"is_reserved":false,"is_disabled":false,"rental_uris":{"android":"levelo://app?vid=2248654b-43ce-4396-a208-b6c9d67840d2","ios":"levelo://app?vid=2248654b-43ce-4396-a208-b6c9d67840d2"},"vehicle_type_id":"4","last_reported":1727374284,"current_range_meters":38800,"station_id":"ce4bgh92rcd13ifvqb50","pricing_plan_id":"cebpf4jnsgd1na2vs0mg"},{"bike_id":"e784ebfb-31ef-48cd-b612-9d8d42600c0e","system_id":"levelo_inurba_marseille","lat":43.2408,"lon":5.37752,"is_reserved":false,"is_disabled":false,"rental_uris":{"android":"levelo://app?vid=e784ebfb-31ef-48cd-b612-9d8d42600c0e","ios":"levelo://app?vid=e784ebfb-31ef-48cd-b612-9d8d42600c0e"},"vehicle_type_id":"4","last_reported":1727374284,"current_range_meters":24000,"station_id":"ce4bhnp2rcd13ifvqgvg","pricing_plan_id":"cebpf4jnsgd1na2vs0mg"},{"bike_id":"d916c5ad-d195-47ef-9707-ce1732cbfb72","system_id":"levelo_inurba_marseille","lat":43.28149,"lon":5.42652,"is_reserved":false,"is_disabled":false,"rental_uris":{"android":"levelo://app?vid=d916c5ad-d195-47ef-9707-ce1732cbfb72","ios":"levelo://app?vid=d916c5ad-d195-47ef-9707-ce1732cbfb72"},"vehicle_type_id":"4","last_reported":1727374284,"current_range_meters":32800,"station_id":"ce4bhnh2rcd13ifvqgug","pricing_plan_id":"cebpf4jnsgd1na2vs0mg"},{"bike_id":"6220129b-c110-4ac9-b478-ceec70426bff","system_id":"levelo_inurba_marseille","lat":43.28839,"lon":5.37249,"is_reserved":false,"is_disabled":false,"rental_uris":{"android":"levelo://app?vid=6220129b-c110-4ac9-b478-ceec70426bff","ios":"levelo://app?vid=6220129b-c110-4ac9-b478-ceec70426bff"},"vehicle_type_id":"4","last_reported":1727374284,"current_range_meters":36400,"station_id":"","pricing_plan_id":"cebpf4jnsgd1na2vs0mg"},{"bike_id":"501788da-5be7-4ba6-b46e-93a94e3bd09e","system_id":"levelo_inurba_marseille","lat":43.28999,"lon":5.35613,"is_reserved":false,"is_disabled":false,"rental_uris":{"android":"levelo://app?vid=501788da-5be7-4ba6-b46e-93a94e3bd09e","ios":"levelo://app?vid=501788da-5be7-4ba6-b46e-93a94e3bd09e"},"vehicle_type_id":"4","last_reported":1727374284,"current_range_meters":20000,"station_id":"ce4bhb92rcd13ifvqen0","pricing_plan_id":"cebpf4jnsgd1na2vs0mg"},{"bike_id":"313d2141-ad6c-4cd8-88ed-58ea40fce885","system_id":"levelo_inurba_marseille","lat":43.269267,"lon":5.389256,"is_reserved":false,"is_disabled":false,"rental_uris":{"android":"levelo://app?vid=313d2141-ad6c-4cd8-88ed-58ea40fce885","ios":"levelo://app?vid=313d2141-ad6c-4cd8-88ed-58ea40fce885"},"vehicle_type_id":"4","last_reported":1727374284,"current_range_meters":16800,"station_id":"ce4bha12rcd13ifvqee0","pricing_plan_id":"cebpf4jnsgd1na2vs0mg"},{"bike_id":"f42c4d15-39e4-470e-8301-1eedf26ef495","system_id":"levelo_inurba_marseille","lat":43.28802,"lon":5.38855,"is_reserved":false,"is_disabled":false,"rental_uris":{"android":"levelo://app?vid=f42c4d15-39e4-470e-8301-1eedf26ef495","ios":"levelo://app?vid=f42c4d15-39e4-470e-8301-1eedf26ef495"},"vehicle_type_id":"4","last_reported":1727374284,"current_range_meters":8400,"station_id":"ce4bha12rcd13ifvqee0","pricing_plan_id":"cebpf4jnsgd1na2vs0mg"},{"bike_id":"9ac76b5c-eb50-457c-95de-63bd83438267","system_id":"levelo_inurba_marseille","lat":43.28081,"lon":5.3966,"is_reserved":false,"is_disabled":false,"rental_uris":{"android":"levelo://app?vid=9ac76b5c-eb50-457c-95de-63bd83438267","ios":"levelo://app?vid=9ac76b5c-eb50-457c-95de-63bd83438267"},"vehicle_type_id":"4","last_reported":1727374284,"current_range_meters":6000,"station_id":"ce4bho12rcd13ifvqh2g","pricing_plan_id":"cebpf4jnsgd1na2vs0mg"},{"bike_id":"29716824-ba0d-485f-864f-8383dffad0b1","system_id":"levelo_inurba_marseille","lat":43.286162,"lon":5.351024,"is_reserved":false,"is_disabled":false,"rental_uris":{"android":"levelo://app?vid=29716824-ba0d-485f-864f-8383dffad0b1","ios":"levelo://app?vid=29716824-ba0d-485f-864f-8383dffad0b1"},"vehicle_type_id":"4","last_reported":1727374284,"current_range_meters":4800,"station_id":"ce4bhah2rcd13ifvqej0","pricing_plan_id":"cebpf4jnsgd1na2vs0mg"},{"bike_id":"d18fe948-5ab7-4bb5-b58b-13719326bb3e","system_id":"levelo_inurba_marseille","lat":43.30247,"lon":5.40079,"is_reserved":false,"is_disabled":false,"rental_uris":{"android":"levelo://app?vid=d18fe948-5ab7-4bb5-b58b-13719326bb3e","ios":"levelo://app?vid=d18fe948-5ab7-4bb5-b58b-13719326bb3e"},"vehicle_type_id":"4","last_reported":1727374284,"current_range_meters":27600,"station_id":"ce4bgvh2rcd13ifvqcs0","pricing_plan_id":"cebpf4jnsgd1na2vs0mg"},{"bike_id":"7c5eb6b6-3c15-40c0-bb4f-d2b8f8a18877","system_id":"levelo_inurba_marseille","lat":43.301838,"lon":5.366128,"is_reserved":false,"is_disabled":false,"rental_uris":{"android":"levelo://app?vid=7c5eb6b6-3c15-40c0-bb4f-d2b8f8a18877","ios":"levelo://app?vid=7c5eb6b6-3c15-40c0-bb4f-d2b8f8a18877"},"vehicle_type_id":"4","last_reported":1727374284,"current_range_meters":3200,"station_id":"ce4bgr92rcd13ifvqc7g","pricing_plan_id":"cebpf4jnsgd1na2vs0mg"},{"bike_id":"2c5a2822-7b98-4005-84d1-fdcee9da259f","system_id":"levelo_inurba_marseille","lat":43.26784,"lon":5.39423,"is_reserved":false,"is_disabled":false,"rental_uris":{"android":"levelo://app?vid=2c5a2822-7b98-4005-84d1-fdcee9da259f","ios":"levelo://app?vid=2c5a2822-7b98-4005-84d1-fdcee9da259f"},"vehicle_type_id":"4","last_reported":1727374284,"current_range_meters":3200,"station_id":"ce4bhh12rcd13ifvqfg0","pricing_plan_id":"cebpf4jnsgd1na2vs0mg"},{"bike_id":"c8accb22-b05a-41e8-986d-14589c2611a2","system_id":"levelo_inurba_marseille","lat":43.28455,"lon":5.35883,"is_reserved":false,"is_disabled":false,"rental_uris":{"android":"levelo://app?vid=c8accb22-b05a-41e8-986d-14589c2611a2","ios":"levelo://app?vid=c8accb22-b05a-41e8-986d-14589c2611a2"},"vehicle_type_id":"4","last_reported":1727374284,"current_range_meters":14400,"station_id":"ce4bhah2rcd13ifvqei0","pricing_plan_id":"cebpf4jnsgd1na2vs0mg"},{"bike_id":"f7228a19-bbe7-4c74-acc1-6d1c69e62dd7","system_id":"levelo_inurba_marseille","lat":43.3028,"lon":5.36808,"is_reserved":false,"is_disabled":false,"rental_uris":{"android":"levelo://app?vid=f7228a19-bbe7-4c74-acc1-6d1c69e62dd7","ios":"levelo://app?vid=f7228a19-bbe7-4c74-acc1-6d1c69e62dd7"},"vehicle_type_id":"4","last_reported":1727374284,"current_range_meters":9200,"station_id":"","pricing_plan_id":"cebpf4jnsgd1na2vs0mg"},{"bike_id":"f3826a23-6032-4358-b35b-212532665aef","system_id":"levelo_inurba_marseille","lat":43.28152,"lon":5.42644,"is_reserved":false,"is_disabled":false,"rental_uris":{"android":"levelo://app?vid=f3826a23-6032-4358-b35b-212532665aef","ios":"levelo://app?vid=f3826a23-6032-4358-b35b-212532665aef"},"vehicle_type_id":"4","last_reported":1727374284,"current_range_meters":14000,"station_id":"ce4bhnh2rcd13ifvqgug","pricing_plan_id":"cebpf4jnsgd1na2vs0mg"},{"bike_id":"f6aa722b-2c44-4cbc-9e1f-d21adb2d12e5","system_id":"levelo_inurba_marseille","lat":43.28469,"lon":5.38418,"is_reserved":false,"is_disabled":false,"rental_uris":{"android":"levelo://app?vid=f6aa722b-2c44-4cbc-9e1f-d21adb2d12e5","ios":"levelo://app?vid=f6aa722b-2c44-4cbc-9e1f-d21adb2d12e5"},"vehicle_type_id":"4","last_reported":1727374284,"current_range_meters":35200,"station_id":"ce4bh512rcd13ifvqe3g","pricing_plan_id":"cebpf4jnsgd1na2vs0mg"},{"bike_id":"31a8783e-3903-46e8-8dd9-751abb5faad5","system_id":"levelo_inurba_marseille","lat":43.27915,"lon":5.39584,"is_reserved":false,"is_disabled":false,"rental_uris":{"android":"levelo://app?vid=31a8783e-3903-46e8-8dd9-751abb5faad5","ios":"levelo://app?vid=31a8783e-3903-46e8-8dd9-751abb5faad5"},"vehicle_type_id":"4","last_reported":1727374284,"current_range_meters":36800,"station_id":"ce4bhf92rcd13ifvqf40","pricing_plan_id":"cebpf4jnsgd1na2vs0mg"},{"bike_id":"0290ac9b-25a0-407a-9c50-69a71fb2a9c6","system_id":"levelo_inurba_marseille","lat":43.3171,"lon":5.43707,"is_reserved":false,"is_disabled":false,"rental_uris":{"android":"levelo://app?vid=0290ac9b-25a0-407a-9c50-69a71fb2a9c6","ios":"levelo://app?vid=0290ac9b-25a0-407a-9c50-69a71fb2a9c6"},"vehicle_type_id":"4","last_reported":1727374284,"current_range_meters":38800,"station_id":"ce4bhp92rcd13ifvqhcg","pricing_plan_id":"cebpf4jnsgd1na2vs0mg"},{"bike_id":"82b208b1-f43c-4285-90b4-ea701e6f9cf2","system_id":"levelo_inurba_marseille","lat":43.29183,"lon":5.35799,"is_reserved":false,"is_disabled":false,"rental_uris":{"android":"levelo://app?vid=82b208b1-f43c-4285-90b4-ea701e6f9cf2","ios":"levelo://app?vid=82b208b1-f43c-4285-90b4-ea701e6f9cf2"},"vehicle_type_id":"4","last_reported":1727374284,"current_range_meters":24800,"station_id":"ce4bhb12rcd13ifvqel0","pricing_plan_id":"cebpf4jnsgd1na2vs0mg"},{"bike_id":"67495f20-abfe-4984-b1f8-7dab4561f834","system_id":"levelo_inurba_marseille","lat":43.2465,"lon":5.38894,"is_reserved":false,"is_disabled":false,"rental_uris":{"android":"levelo://app?vid=67495f20-abfe-4984-b1f8-7dab4561f834","ios":"levelo://app?vid=67495f20-abfe-4984-b1f8-7dab4561f834"},"vehicle_type_id":"4","last_reported":1727374284,"current_range_meters":26000,"station_id":"ce4bhg12rcd13ifvqf60","pricing_plan_id":"cebpf4jnsgd1na2vs0mg"},{"bike_id":"470dea8d-304e-440c-9684-59ef9d1b9705","system_id":"levelo_inurba_marseille","lat":43.24661,"lon":5.38166,"is_reserved":false,"is_disabled":false,"rental_uris":{"android":"levelo://app?vid=470dea8d-304e-440c-9684-59ef9d1b9705","ios":"levelo://app?vid=470dea8d-304e-440c-9684-59ef9d1b9705"},"vehicle_type_id":"4","last_reported":1727374284,"current_range_meters":38000,"station_id":"ce4bhih2rcd13ifvqfr0","pricing_plan_id":"cebpf4jnsgd1na2vs0mg"},{"bike_id":"7597b9d4-29d3-4dd6-a679-121befe188de","system_id":"levelo_inurba_marseille","lat":43.31711,"lon":5.43703,"is_reserved":false,"is_disabled":false,"rental_uris":{"android":"levelo://app?vid=7597b9d4-29d3-4dd6-a679-121befe188de","ios":"levelo://app?vid=7597b9d4-29d3-4dd6-a679-121befe188de"},"vehicle_type_id":"4","last_reported":1727374284,"current_range_meters":12000,"station_id":"ce4bhp92rcd13ifvqhcg","pricing_plan_id":"cebpf4jnsgd1na2vs0mg"},{"bike_id":"a69f4154-711f-4357-8355-b471fdcccc37","system_id":"levelo_inurba_marseille","lat":43.29874,"lon":5.39734,"is_reserved":false,"is_disabled":false,"rental_uris":{"android":"levelo://app?vid=a69f4154-711f-4357-8355-b471fdcccc37","ios":"levelo://app?vid=a69f4154-711f-4357-8355-b471fdcccc37"},"vehicle_type_id":"4","last_reported":1727374284,"current_range_meters":9200,"station_id":"ce4bh0h2rcd13ifvqd50","pricing_plan_id":"cebpf4jnsgd1na2vs0mg"},{"bike_id":"0c2bdf71-8f1d-4308-97f8-1eb49b43697e","system_id":"levelo_inurba_marseille","lat":43.28861,"lon":5.37144,"is_reserved":false,"is_disabled":false,"rental_uris":{"android":"levelo://app?vid=0c2bdf71-8f1d-4308-97f8-1eb49b43697e","ios":"levelo://app?vid=0c2bdf71-8f1d-4308-97f8-1eb49b43697e"},"vehicle_type_id":"4","last_reported":1727374284,"current_range_meters":8000,"station_id":"","pricing_plan_id":"cebpf4jnsgd1na2vs0mg"},{"bike_id":"fb6c2cf3-759b-4710-b739-4cc0a0eeaca9","system_id":"levelo_inurba_marseille","lat":43.31885,"lon":5.40731,"is_reserved":false,"is_disabled":false,"rental_uris":{"android":"levelo://app?vid=fb6c2cf3-759b-4710-b739-4cc0a0eeaca9","ios":"levelo://app?vid=fb6c2cf3-759b-4710-b739-4cc0a0eeaca9"},"vehicle_type_id":"4","last_reported":1727374284,"current_range_meters":17600,"station_id":"ce4bhq12rcd13ifvqhig","pricing_plan_id":"cebpf4jnsgd1na2vs0mg"},{"bike_id":"bdc2387b-0914-4d66-9456-9f1a4b8e5804","system_id":"levelo_inurba_marseille","lat":43.27811,"lon":5.40723,"is_reserved":false,"is_disabled":false,"rental_uris":{"android":"levelo://app?vid=bdc2387b-0914-4d66-9456-9f1a4b8e5804","ios":"levelo://app?vid=bdc2387b-0914-4d66-9456-9f1a4b8e5804"},"vehicle_type_id":"4","last_reported":1727374284,"current_range_meters":17200,"station_id":"ce4bhnh2rcd13ifvqgtg","pricing_plan_id":"cebpf4jnsgd1na2vs0mg"},{"bike_id":"ac10fa43-4c7c-408e-87e0-91e1307b62f3","system_id":"levelo_inurba_marseille","lat":43.28349,"lon":5.38114,"is_reserved":false,"is_disabled":false,"rental_uris":{"android":"levelo://app?vid=ac10fa43-4c7c-408e-87e0-91e1307b62f3","ios":"levelo://app?vid=ac10fa43-4c7c-408e-87e0-91e1307b62f3"},"vehicle_type_id":"4","last_reported":1727374284,"current_range_meters":30000,"station_id":"ce4bh412rcd13ifvqdr0","pricing_plan_id":"cebpf4jnsgd1na2vs0mg"},{"bike_id":"bd29a5fa-6a49-4e87-ac5c-1dc47a54dd00","system_id":"levelo_inurba_marseille","lat":43.24177,"lon":5.3974,"is_reserved":false,"is_disabled":false,"rental_uris":{"android":"levelo://app?vid=bd29a5fa-6a49-4e87-ac5c-1dc47a54dd00","ios":"levelo://app?vid=bd29a5fa-6a49-4e87-ac5c-1dc47a54dd00"},"vehicle_type_id":"4","last_reported":1727374284,"current_range_meters":39200,"station_id":"ce4bhn12rcd13ifvqgpg","pricing_plan_id":"cebpf4jnsgd1na2vs0mg"},{"bike_id":"3715017a-8cc3-41d3-99df-7d79b85fda2d","system_id":"levelo_inurba_marseille","lat":43.31181,"lon":5.38755,"is_reserved":false,"is_disabled":false,"rental_uris":{"android":"levelo://app?vid=3715017a-8cc3-41d3-99df-7d79b85fda2d","ios":"levelo://app?vid=3715017a-8cc3-41d3-99df-7d79b85fda2d"},"vehicle_type_id":"4","last_reported":1727374284,"current_range_meters":24800,"station_id":"ce4bgv12rcd13ifvqcp0","pricing_plan_id":"cebpf4jnsgd1na2vs0mg"},{"bike_id":"92c98da1-945f-4486-a904-7e90378957cf","system_id":"levelo_inurba_marseille","lat":43.28693,"lon":5.37383,"is_reserved":false,"is_disabled":false,"rental_uris":{"android":"levelo://app?vid=92c98da1-945f-4486-a904-7e90378957cf","ios":"levelo://app?vid=92c98da1-945f-4486-a904-7e90378957cf"},"vehicle_type_id":"4","last_reported":1727374284,"current_range_meters":2800,"station_id":"ce4bh3p2rcd13ifvqdq0","pricing_plan_id":"cebpf4jnsgd1na2vs0mg"},{"bike_id":"fd955c41-0c09-41eb-8b91-cd6da7bb671a","system_id":"levelo_inurba_marseille","lat":43.28155,"lon":5.42646,"is_reserved":false,"is_disabled":false,"rental_uris":{"android":"levelo://app?vid=fd955c41-0c09-41eb-8b91-cd6da7bb671a","ios":"levelo://app?vid=fd955c41-0c09-41eb-8b91-cd6da7bb671a"},"vehicle_type_id":"4","last_reported":1727374284,"current_range_meters":26000,"station_id":"ce4bhnh2rcd13ifvqgug","pricing_plan_id":"cebpf4jnsgd1na2vs0mg"},{"bike_id":"8656eb52-6e49-4b69-9d7e-577bcb4301c6","system_id":"levelo_inurba_marseille","lat":43.32113,"lon":5.36777,"is_reserved":false,"is_disabled":false,"rental_uris":{"android":"levelo://app?vid=8656eb52-6e49-4b69-9d7e-577bcb4301c6","ios":"levelo://app?vid=8656eb52-6e49-4b69-9d7e-577bcb4301c6"},"vehicle_type_id":"4","last_reported":1727374284,"current_range_meters":33600,"station_id":"ce4bhrh2rcd13ifvqhug","pricing_plan_id":"cebpf4jnsgd1na2vs0mg"},{"bike_id":"12f845b3-1a48-4178-8f40-4cecbff9dc40","system_id":"levelo_inurba_marseille","lat":43.24659,"lon":5.38165,"is_reserved":false,"is_disabled":false,"rental_uris":{"android":"levelo://app?vid=12f845b3-1a48-4178-8f40-4cecbff9dc40","ios":"levelo://app?vid=12f845b3-1a48-4178-8f40-4cecbff9dc40"},"vehicle_type_id":"4","last_reported":1727374284,"current_range_meters":21600,"station_id":"ce4bhih2rcd13ifvqfr0","pricing_plan_id":"cebpf4jnsgd1na2vs0mg"},{"bike_id":"7a5e5dba-7aea-47d6-a672-99315d39d77b","system_id":"levelo_inurba_marseille","lat":43.31989,"lon":5.38148,"is_reserved":false,"is_disabled":false,"rental_uris":{"android":"levelo://app?vid=7a5e5dba-7aea-47d6-a672-99315d39d77b","ios":"levelo://app?vid=7a5e5dba-7aea-47d6-a672-99315d39d77b"},"vehicle_type_id":"4","last_reported":1727374284,"current_range_meters":30000,"station_id":"ce4bhr12rcd13ifvqhpg","pricing_plan_id":"cebpf4jnsgd1na2vs0mg"},{"bike_id":"ae7496aa-2fd9-4228-93eb-59179f4ca647","system_id":"levelo_inurba_marseille","lat":43.299,"lon":5.43675,"is_reserved":false,"is_disabled":false,"rental_uris":{"android":"levelo://app?vid=ae7496aa-2fd9-4228-93eb-59179f4ca647","ios":"levelo://app?vid=ae7496aa-2fd9-4228-93eb-59179f4ca647"},"vehicle_type_id":"4","last_reported":1727374284,"current_range_meters":28400,"station_id":"ce4bhpp2rcd13ifvqhfg","pricing_plan_id":"cebpf4jnsgd1na2vs0mg"},{"bike_id":"43020f2a-3936-43a8-9220-1e0ce24c025f","system_id":"levelo_inurba_marseille","lat":43.27957,"lon":5.38754,"is_reserved":false,"is_disabled":false,"rental_uris":{"android":"levelo://app?vid=43020f2a-3936-43a8-9220-1e0ce24c025f","ios":"levelo://app?vid=43020f2a-3936-43a8-9220-1e0ce24c025f"},"vehicle_type_id":"4","last_reported":1727374284,"current_range_meters":20800,"station_id":"ce4bhg12rcd13ifvqf80","pricing_plan_id":"cebpf4jnsgd1na2vs0mg"},{"bike_id":"87667b05-754e-4577-975d-ca5814ab80e9","system_id":"levelo_inurba_marseille","lat":43.29535,"lon":5.38535,"is_reserved":false,"is_disabled":false,"rental_uris":{"android":"levelo://app?vid=87667b05-754e-4577-975d-ca5814ab80e9","ios":"levelo://app?vid=87667b05-754e-4577-975d-ca5814ab80e9"},"vehicle_type_id":"4","last_reported":1727374284,"current_range_meters":18800,"station_id":"ce4bgih2rcd13ifvqba0","pricing_plan_id":"cebpf4jnsgd1na2vs0mg"},{"bike_id":"bfef6900-53b9-4dd1-bd3c-e722e8c58c60","system_id":"levelo_inurba_marseille","lat":43.29256,"lon":5.40911,"is_reserved":false,"is_disabled":false,"rental_uris":{"android":"levelo://app?vid=bfef6900-53b9-4dd1-bd3c-e722e8c58c60","ios":"levelo://app?vid=bfef6900-53b9-4dd1-bd3c-e722e8c58c60"},"vehicle_type_id":"4","last_reported":1727374284,"current_range_meters":20000,"station_id":"ce4bh192rcd13ifvqdc0","pricing_plan_id":"cebpf4jnsgd1na2vs0mg"},{"bike_id":"d5dd87d7-31d6-4b6a-ab1f-386189b5c106","system_id":"levelo_inurba_marseille","lat":43.28941,"lon":5.36631,"is_reserved":false,"is_disabled":false,"rental_uris":{"android":"levelo://app?vid=d5dd87d7-31d6-4b6a-ab1f-386189b5c106","ios":"levelo://app?vid=d5dd87d7-31d6-4b6a-ab1f-386189b5c106"},"vehicle_type_id":"4","last_reported":1727374284,"current_range_meters":24800,"station_id":"ce4bhap2rcd13ifvqek0","pricing_plan_id":"cebpf4jnsgd1na2vs0mg"},{"bike_id":"13863333-35bb-45d5-8033-d187d5d25fe1","system_id":"levelo_inurba_marseille","lat":43.29958,"lon":5.41324,"is_reserved":false,"is_disabled":false,"rental_uris":{"android":"levelo://app?vid=13863333-35bb-45d5-8033-d187d5d25fe1","ios":"levelo://app?vid=13863333-35bb-45d5-8033-d187d5d25fe1"},"vehicle_type_id":"4","last_reported":1727374284,"current_range_meters":14400,"station_id":"ce4bhp12rcd13ifvqh9g","pricing_plan_id":"cebpf4jnsgd1na2vs0mg"},