{"last_updated":1730970557,"ttl":60,"version":"2.2","data":{"bikes":[{"bike_id":"5e89496f-7131-4633-ad8c-10a7e2afc839","system_id":"levelo_inurba_marseille","lat":43.24077,"lon":5.37742,"is_reserved":false,"is_disabled":false,"rental_uris":{"android":"levelo://app?vid=5e89496f-7131-4633-ad8c-10a7e2afc839","ios":"levelo://app?vid=5e89496f-7131-4633-ad8c-10a7e2afc839"},"vehicle_type_id":"4","last_reported":1730970557,"current_range_meters":24400,"station_id":"ce4bhnp2rcd13ifvqgvg","pricing_plan_id":"cebpf4jnsgd1na2vs0mg"},{"bike_id":"ec81448a-c27d-47b7-ad8b-9e51db34f579","system_id":"levelo_inurba_marseille","lat":43.31191,"lon":5.37369,"is_reserved":false,"is_disabled":false,"rental_uris":{"android":"levelo://app?vid=ec81448a-c27d-47b7-ad8b-9e51db34f579","ios":"levelo://app?vid=ec81448a-c27d-47b7-ad8b-9e51db34f579"},"vehicle_type_id":"4","last_reported":1730970557,"current_range_meters":20800,"station_id":"","pricing_plan_id":"cebpf4jnsgd1na2vs0mg"},{"bike_id":"36da81ad-0e02-4ae5-aa74-842712164d86","system_id":"levelo_inurba_marseille","lat":43.23154,"lon":5.43707,"is_reserved":false,"is_disabled":false,"rental_uris":{"android":"levelo://app?vid=36da81ad-0e02-4ae5-aa74-842712164d86","ios":"levelo://app?vid=36da81ad-0e02-4ae5-aa74-842712164d86"},"vehicle_type_id":"4","last_reported":1730970557,"current_range_meters":25200,"station_id":"ce4bhmp2rcd13ifvqgog","pricing_plan_id":"cebpf4jnsgd1na2vs0mg"},{"bike_id":"e8bcca23-42a0-4423-8a65-a75ab12e9cb1","system_id":"levelo_inurba_marseille","lat":43.29587,"lon":5.36739,"is_reserved":false,"is_disabled":false,"rental_uris":{"android":"levelo://app?vid=e8bcca23-42a0-4423-8a65-a75ab12e9cb1","ios":"levelo://app?vid=e8bcca23-42a0-4423-8a65-a75ab12e9cb1"},"vehicle_type_id":"4","last_reported":1730970557,"current_range_meters":36000,"station_id":"ce4bgph2rcd13ifvqc2g","pricing_plan_id":"cebpf4jnsgd1na2vs0mg"},{"bike_id":"a57490d6-1b5f-4a0d-b4b7-f79ba049a52c","system_id":"levelo_inurba_marseille","lat":43.33603,"lon":5.41024,"is_reserved":false,"is_disabled":false,"rental_uris":{"android":"levelo://app?vid=a57490d6-1b5f-4a0d-b4b7-f79ba049a52c","ios":"levelo://app?vid=a57490d6-1b5f-4a0d-b4b7-f79ba049a52c"},"vehicle_type_id":"4","last_reported":1730970557,"current_range_meters":7200,"station_id":"ce4bhqh2rcd13ifvqhmg","pricing_plan_id":"cebpf4jnsgd1na2vs0mg"},{"bike_id":"8ab72d15-f781-45f0-a66c-fd9f1ddaae0c","system_id":"levelo_inurba_marseille","lat":43.27318,"lon":5.39085,"is_reserved":false,"is_disabled":false,"rental_uris":{"android":"levelo://app?vid=8ab72d15-f781-45f0-a66c-fd9f1ddaae0c","ios":"levelo://app?vid=8ab72d15-f781-45f0-a66c-fd9f1ddaae0c"},"vehicle_type_id":"4","last_reported":1730970557,"current_range_meters":38800,"station_id":"ce4bhgp2rcd13ifvqfe0","pricing_plan_id":"cebpf4jnsgd1na2vs0mg"},{"bike_id":"9936c4b5-e664-4ce8-bd71-98b6c16a721b","system_id":"levelo_inurba_marseille","lat":43.24178,"lon":5.39728,"is_reserved":false,"is_disabled":false,"rental_uris":{"android":"levelo://app?vid=9936c4b5-e664-4ce8-bd71-98b6c16a721b","ios":"levelo://app?vid=9936c4b5-e664-4ce8-bd71-98b6c16a721b"},"vehicle_type_id":"4","last_reported":1730970557,"current_range_meters":24800,"station_id":"ce4bhn12rcd13ifvqgpg","pricing_plan_id":"cebpf4jnsgd1na2vs0mg"},{"bike_id":"14b1e13b-b00b-49e3-ada0-f9a9a5ca4439","system_id":"levelo_inurba_marseille","lat":43.30947,"lon":5.390342,"is_reserved":false,"is_disabled":false,"rental_uris":{"android":"levelo://app?vid=14b1e13b-b00b-49e3-ada0-f9a9a5ca4439","ios":"levelo://app?vid=14b1e13b-b00b-49e3-ada0-f9a9a5ca4439"},"vehicle_type_id":"4","last_reported":1730970557,"current_range_meters":24800,"station_id":"ce4bgup2rcd13ifvqco0","pricing_plan_id":"cebpf4jnsgd1na2vs0mg"},{"bike_id":"52c6c0a9-2cd5-43a6-b522-a933d2b99414","system_id":"levelo_inurba_marseille","lat":43.30145,"lon":5.37422,"is_reserved":false,"is_disabled":false,"rental_uris":{"android":"levelo://app?vid=52c6c0a9-2cd5-43a6-b522-a933d2b99414","ios":"levelo://app?vid=52c6c0a9-2cd5-43a6-b522-a933d2b99414"},"vehicle_type_id":"4","last_reported":1730970557,"current_range_meters":19600,"station_id":"ce4bgs92rcd13ifvqcc0","pricing_plan_id":"cebpf4jnsgd1na2vs0mg"},{"bike_id":"797b978a-f324-47e3-84c4-76070de1eba9","system_id":"levelo_inurba_marseille","lat":43.26683,"lon":5.38279,"is_reserved":false,"is_disabled":false,"rental_uris":{"android":"levelo://app?vid=797b978a-f324-47e3-84c4-76070de1eba9","ios":"levelo://app?vid=797b978a-f324-47e3-84c4-76070de1eba9"},"vehicle_type_id":"4","last_reported":1730970557,"current_range_meters":39200,"station_id":"ce4bhg92rcd13ifvqf90","pricing_plan_id":"cebpf4jnsgd1na2vs0mg"},{"bike_id":"8bca2117-1aea-4328-8a4d-1629c720b5fc","system_id":"levelo_inurba_marseille","lat":43.29626,"lon":5.37722,"is_reserved":false,"is_disabled":false,"rental_uris":{"android":"levelo://app?vid=8bca2117-1aea-4328-8a4d-1629c720b5fc","ios":"levelo://app?vid=8bca2117-1aea-4328-8a4d-1629c720b5fc"},"vehicle_type_id":"4","last_reported":1730970557,"current_range_meters":29600,"station_id":"ce4bgi92rcd13ifvqb90","pricing_plan_id":"cebpf4jnsgd1na2vs0mg"},{"bike_id":"171c996e-af3a-4f37-a956-55d56c1c1adb","system_id":"levelo_inurba_marseille","lat":43.29025,"lon":5.39978,"is_reserved":false,"is_disabled":false,"rental_uris":{"android":"levelo://app?vid=171c996e-af3a-4f37-a956-55d56c1c1adb","ios":"levelo://app?vid=171c996e-af3a-4f37-a956-55d56c1c1adb"},"vehicle_type_id":"4","last_reported":1730970557,"current_range_meters":39200,"station_id":"ce4bh392rcd13ifvqdm0","pricing_plan_id":"cebpf4jnsgd1na2vs0mg"},{"bike_id":"30758d5d-54e2-4e4f-8129-b6d871655d0b","system_id":"levelo_inurba_marseille","lat":43.3054,"lon":5.36537,"is_reserved":false,"is_disabled":false,"rental_uris":{"android":"levelo://app?vid=30758d5d-54e2-4e4f-8129-b6d871655d0b","ios":"levelo://app?vid=30758d5d-54e2-4e4f-8129-b6d871655d0b"},"vehicle_type_id":"4","last_reported":1730970557,"current_range_meters":14800,"station_id":"ce4bgs12rcd13ifvqcag","pricing_plan_id":"cebpf4jnsgd1na2vs0mg"},{"bike_id":"b2116663-67b9-426e-a75d-ed0e97e6dcbc","system_id":"levelo_inurba_marseille","lat":43.296228,"lon":5.371643,"is_reserved":false,"is_disabled":false,"rental_uris":{"android":"levelo://app?vid=b2116663-67b9-426e-a75d-ed0e97e6dcbc","ios":"levelo://app?vid=b2116663-67b9-426e-a75d-ed0e97e6dcbc"},"vehicle_type_id":"4","last_reported":1730970557,"current_range_meters":38000,"station_id":"ce4bgnh2rcd13ifvqc0g","pricing_plan_id":"cebpf4jnsgd1na2vs0mg"},{"bike_id":"f76ca3d1-7479-4f54-a458-de8a62d3c3f9","system_id":"levelo_inurba_marseille","lat":43.26952,"lon":5.38627,"is_reserved":false,"is_disabled":false,"rental_uris":{"android":"levelo://app?vid=f76ca3d1-7479-4f54-a458-de8a62d3c3f9","ios":"levelo://app?vid=f76ca3d1-7479-4f54-a458-de8a62d3c3f9"},"vehicle_type_id":"4","last_reported":1730970557,"current_range_meters":39200,"station_id":"ce4bhh92rcd13ifvqfh0","pricing_plan_id":"cebpf4jnsgd1na2vs0mg"},{"bike_id":"dcdcd233-1550-47e4-ac19-d70e58775fcf","system_id":"levelo_inurba_marseille","lat":43.29572,"lon":5.37513,"is_reserved":false,"is_disabled":false,"rental_uris":{"android":"levelo://app?vid=dcdcd233-1550-47e4-ac19-d70e58775fcf","ios":"levelo://app?vid=dcdcd233-1550-47e4-ac19-d70e58775fcf"},"vehicle_type_id":"4","last_reported":1730970557,"current_range_meters":36400,"station_id":"ce4bgh92rcd13ifvqb50","pricing_plan_id":"cebpf4jnsgd1na2vs0mg"},{"bike_id":"434fe81b-9da2-49ed-aaee-dc29ee107415","system_id":"levelo_inurba_marseille","lat":43.23962,"lon":5.36635,"is_reserved":false,"is_disabled":false,"rental_uris":{"android":"levelo://app?vid=434fe81b-9da2-49ed-aaee-dc29ee107415","ios":"levelo://app?vid=434fe81b-9da2-49ed-aaee-dc29ee107415"},"vehicle_type_id":"4","last_reported":1730970557,"current_range_meters":19600,"station_id":"ce4bhi12rcd13ifvqfp0","pricing_plan_id":"cebpf4jnsgd1na2vs0mg"},{"bike_id":"44135612-fabe-4db6-b769-98ffa02d00e4","system_id":"levelo_inurba_marseille","lat":43.32283,"lon":5.38268,"is_reserved":false,"is_disabled":false,"rental_uris":{"android":"levelo://app?vid=44135612-fabe-4db6-b769-98ffa02d00e4","ios":"levelo://app?vid=44135612-fabe-4db6-b769-98ffa02d00e4"},"vehicle_type_id":"4","last_reported":1730970557,"current_range_meters":39200,"station_id":"ce4bhr12rcd13ifvqhqg","pricing_plan_id":"cebpf4jnsgd1na2vs0mg"},{"bike_id":"5022586d-8bd5-4aa1-8a15-d41923bb3f71","system_id":"levelo_inurba_marseille","lat":43.28151,"lon":5.42644,"is_reserved":false,"is_disabled":false,"rental_uris":{"android":"levelo://app?vid=5022586d-8bd5-4aa1-8a15-d41923bb3f71","ios":"levelo://app?vid=5022586d-8bd5-4aa1-8a15-d41923bb3f71"},"vehicle_type_id":"4","last_reported":1730970557,"current_range_meters":24000,"station_id":"ce4bhnh2rcd13ifvqgug","pricing_plan_id":"cebpf4jnsgd1na2vs0mg"},{"bike_id":"0a1eae94-2c9c-4778-9f99-0c2cefa5d1a4","system_id":"levelo_inurba_marseille","lat":43.30952,"lon":5.39023,"is_reserved":false,"is_disabled":false,"rental_uris":{"android":"levelo://app?vid=0a1eae94-2c9c-4778-9f99-0c2cefa5d1a4","ios":"levelo://app?vid=0a1eae94-2c9c-4778-9f99-0c2cefa5d1a4"},"vehicle_type_id":"4","last_reported":1730970557,"current_range_meters":4400,"station_id":"ce4bgup2rcd13ifvqco0","pricing_plan_id":"cebpf4jnsgd1na2vs0mg"},{"bike_id":"e7aa1fe0-88da-43de-8371-7fba01ddb019","system_id":"levelo_inurba_marseille","lat":43.30532,"lon":5.38426,"is_reserved":false,"is_disabled":false,"rental_uris":{"android":"levelo://app?vid=e7aa1fe0-88da-43de-8371-7fba01ddb019","ios":"levelo://app?vid=e7aa1fe0-88da-43de-8371-7fba01ddb019"},"vehicle_type_id":"4","last_reported":1730970557,"current_range_meters":16800,"station_id":"ce4bgg92rcd13ifvqb30","pricing_plan_id":"cebpf4jnsgd1na2vs0mg"},{"bike_id":"81a73e1e-df8e-4923-a10d-61f139a542d3","system_id":"levelo_inurba_marseille","lat":43.28029,"lon":5.36954,"is_reserved":false,"is_disabled":false,"rental_uris":{"android":"levelo://app?vid=81a73e1e-df8e-4923-a10d-61f139a542d3","ios":"levelo://app?vid=81a73e1e-df8e-4923-a10d-61f139a542d3"},"vehicle_type_id":"4","last_reported":1730970557,"current_range_meters":14000,"station_id":"ce4bha12rcd13ifvqef0","pricing_plan_id":"cebpf4jnsgd1na2vs0mg"},{"bike_id":"b28caf33-3a19-4ad0-a838-784dcbb9ea26","system_id":"levelo_inurba_marseille","lat":43.27494,"lon":5.42448,"is_reserved":false,"is_disabled":false,"rental_uris":{"android":"levelo://app?vid=b28caf33-3a19-4ad0-a838-784dcbb9ea26","ios":"levelo://app?vid=b28caf33-3a19-4ad0-a838-784dcbb9ea26"},"vehicle_type_id":"4","last_reported":1730970557,"current_range_meters":24000,"station_id":"ce4bhn92rcd13ifvqgrg","pricing_plan_id":"cebpf4jnsgd1na2vs0mg"},{"bike_id":"35c658cd-6772-420c-87ce-ba3ed9431cb0","system_id":"levelo_inurba_marseille","lat":43.30536,"lon":5.36545,"is_reserved":false,"is_disabled":false,"rental_uris":{"android":"levelo://app?vid=35c658cd-6772-420c-87ce-ba3ed9431cb0","ios":"levelo://app?vid=35c658cd-6772-420c-87ce-ba3ed9431cb0"},"vehicle_type_id":"4","last_reported":1730970557,"current_range_meters":29600,"station_id":"ce4bgs12rcd13ifvqcag","pricing_plan_id":"cebpf4jnsgd1na2vs0mg"},{"bike_id":"e09faba5-1f84-4cad-b9da-00906b4635a5","system_id":"levelo_inurba_marseille","lat":43.27718,"lon":5.38372,"is_reserved":false,"is_disabled":false,"rental_uris":{"android":"levelo://app?vid=e09faba5-1f84-4cad-b9da-00906b4635a5","ios":"levelo://app?vid=e09faba5-1f84-4cad-b9da-00906b4635a5"},"vehicle_type_id":"4","last_reported":1730970557,"current_range_meters":31200,"station_id":"ce4bhh92rcd13ifvqfh0","pricing_plan_id":"cebpf4jnsgd1na2vs0mg"},{"bike_id":"8c894b72-68ed-4925-b417-f67a0bb96441","system_id":"levelo_inurba_marseille","lat":43.33609,"lon":5.41024,"is_reserved":false,"is_disabled":false,"rental_uris":{"android":"levelo://app?vid=8c894b72-68ed-4925-b417-f67a0bb96441","ios":"levelo://app?vid=8c894b72-68ed-4925-b417-f67a0bb96441"},"vehicle_type_id":"4","last_reported":1730970557,"current_range_meters":20400,"station_id":"ce4bhqh2rcd13ifvqhmg","pricing_plan_id":"cebpf4jnsgd1na2vs0mg"},{"bike_id":"4df27c33-5d2b-4c1c-a7b3-9c8543269d96","system_id":"levelo_inurba_marseille","lat":43.30472,"lon":5.37905,"is_reserved":false,"is_disabled":false,"rental_uris":{"android":"levelo://app?vid=4df27c33-5d2b-4c1c-a7b3-9c8543269d96","ios":"levelo://app?vid=4df27c33-5d2b-4c1c-a7b3-9c8543269d96"},"vehicle_type_id":"4","last_reported":1730970557,"current_range_meters":30000,"station_id":"ce4bgup2rcd13ifvqcn0","pricing_plan_id":"cebpf4jnsgd1na2vs0mg"},{"bike_id":"b3a780aa-eced-42c7-aa0f-ab93e922353e","system_id":"levelo_inurba_marseille","lat":43.25574,"lon":5.38228,"is_reserved":false,"is_disabled":false,"rental_uris":{"android":"levelo://app?vid=b3a780aa-eced-42c7-aa0f-ab93e922353e","ios":"levelo://app?vid=b3a780aa-eced-42c7-aa0f-ab93e922353e"},"vehicle_type_id":"4","last_reported":1730970557,"current_range_meters":21600,"station_id":"ce4bhih2rcd13ifvqfs0","pricing_plan_id":"cebpf4jnsgd1na2vs0mg"},{"bike_id":"59475ddc-2670-4350-88dd-21b89dfe0b32","system_id":"levelo_inurba_marseille","lat":43.285711,"lon":5.394993,"is_reserved":false,"is_disabled":false,"rental_uris":{"android":"levelo://app?vid=59475ddc-2670-4350-88dd-21b89dfe0b32","ios":"levelo://app?vid=59475ddc-2670-4350-88dd-21b89dfe0b32"},"vehicle_type_id":"4","last_reported":1730970557,"current_range_meters":11600,"station_id":"ce4bh292rcd13ifvqdg0","pricing_plan_id":"cebpf4jnsgd1na2vs0mg"},{"bike_id":"8a401a8a-30f9-4643-ad63-74116d1b600f","system_id":"levelo_inurba_marseille","lat":43.32482,"lon":5.36575,"is_reserved":false,"is_disabled":false,"rental_uris":{"android":"levelo://app?vid=8a401a8a-30f9-4643-ad63-74116d1b600f","ios":"levelo://app?vid=8a401a8a-30f9-4643-ad63-74116d1b600f"},"vehicle_type_id":"4","last_reported":1730970557,"current_range_meters":36800,"station_id":"ce4bhs12rcd13ifvqhvg","pricing_plan_id":"cebpf4jnsgd1na2vs0mg"},{"bike_id":"5e3f8faf-ce94-4e09-ac7a-a71098158d8a","system_id":"levelo_inurba_marseille","lat":43.2695,"lon":5.38624,"is_reserved":false,"is_disabled":false,"rental_uris":{"android":"levelo://app?vid=5e3f8faf-ce94-4e09-ac7a-a71098158d8a","ios":"levelo://app?vid=5e3f8faf-ce94-4e09-ac7a-a71098158d8a"},"vehicle_type_id":"4","last_reported":1730970557,"current_range_meters":35600,"station_id":"ce4bhh92rcd13ifvqfh0","pricing_plan_id":"cebpf4jnsgd1na2vs0mg"},{"bike_id":"5594f466-40a1-4d76-913f-b05f5ff6ffaa","system_id":"levelo_inurba_marseille","lat":43.320511,"lon":5.415389,"is_reserved":false,"is_disabled":false,"rental_uris":{"android":"levelo://app?vid=5594f466-40a1-4d76-913f-b05f5ff6ffaa","ios":"levelo://app?vid=5594f466-40a1-4d76-913f-b05f5ff6ffaa"},"vehicle_type_id":"4","last_reported":1730970557,"current_range_meters":22800,"station_id":"ce4bhq92rcd13ifvqhkg","pricing_plan_id":"cebpf4jnsgd1na2vs0mg"},{"bike_id":"312a2e45-0a64-48c1-b780-670c5f80dc14","system_id":"levelo_inurba_marseille","lat":43.30277,"lon":5.37694,"is_reserved":false,"is_disabled":false,"rental_uris":{"android":"levelo://app?vid=312a2e45-0a64-48c1-b780-670c5f80dc14","ios":"levelo://app?vid=312a2e45-0a64-48c1-b780-670c5f80dc14"},"vehicle_type_id":"4","last_reported":1730970557,"current_range_meters":32800,"station_id":"ce4bguh2rcd13ifvqcj0","pricing_plan_id":"cebpf4jnsgd1na2vs0mg"},{"bike_id":"222611bd-e39a-4f89-82eb-2b6f0b63fe46","system_id":"levelo_inurba_marseille","lat":43.31701,"lon":5.37721,"is_reserved":false,"is_disabled":false,"rental_uris":{"android":"levelo://app?vid=222611bd-e39a-4f89-82eb-2b6f0b63fe46","ios":"levelo://app?vid=222611bd-e39a-4f89-82eb-2b6f0b63fe46"},"vehicle_type_id":"4","last_reported":1730970557,"current_range_meters":27200,"station_id":"ce4bgth2rcd13ifvqch0","pricing_plan_id":"cebpf4jnsgd1na2vs0mg"},{"bike_id":"794c21bb-2dc9-433c-bf5d-8d6b934201ad","system_id":"levelo_inurba_marseille","lat":43.2408,"lon":5.37754,"is_reserved":false,"is_disabled":false,"rental_uris":{"android":"levelo://app?vid=794c21bb-2dc9-433c-bf5d-8d6b934201ad","ios":"levelo://app?vid=794c21bb-2dc9-433c-bf5d-8d6b934201ad"},"vehicle_type_id":"4","last_reported":1730970557,"current_range_meters":24800,"station_id":"ce4bhnp2rcd13ifvqgvg","pricing_plan_id":"cebpf4jnsgd1na2vs0mg"},{"bike_id":"44561281-b3cf-462d-af9a-8106b45d6d01","system_id":"levelo_inurba_marseille","lat":43.29731,"lon":5.37686,"is_reserved":false,"is_disabled":false,"rental_uris":{"android":"levelo://app?vid=44561281-b3cf-462d-af9a-8106b45d6d01","ios":"levelo://app?vid=44561281-b3cf-462d-af9a-8106b45d6d01"},"vehicle_type_id":"4","last_reported":1730970557,"current_range_meters":38000,"station_id":"ce4bgkh2rcd13ifvqbl0","pricing_plan_id":"cebpf4jnsgd1na2vs0mg"},{"bike_id":"958d9970-45c2-4c78-bf21-7a472f91687b","system_id":"levelo_inurba_marseille","lat":43.27235,"lon":5.38573,"is_reserved":false,"is_disabled":false,"rental_uris":{"android":"levelo://app?vid=958d9970-45c2-4c78-bf21-7a472f91687b","ios":"levelo://app?vid=958d9970-45c2-4c78-bf21-7a472f91687b"},"vehicle_type_id":"4","last_reported":1730970557,"current_range_meters":37600,"station_id":"ce4bh412rcd13ifvqdr0","pricing_plan_id":"cebpf4jnsgd1na2vs0mg"},{"bike_id":"5f973d24-2357-4605-babb-8423689edd8f","system_id":"levelo_inurba_marseille","lat":43.25581,"lon":5.38264,"is_reserved":false,"is_disabled":false,"rental_uris":{"android":"levelo://app?vid=5f973d24-2357-4605-babb-8423689edd8f","ios":"levelo://app?vid=5f973d24-2357-4605-babb-8423689edd8f"},"vehicle_type_id":"4","last_reported":1730970557,"current_range_meters":32800,"station_id":"ce4bhih2rcd13ifvqfs0","pricing_plan_id":"cebpf4jnsgd1na2vs0mg"},{"bike_id":"08da7afd-bce2-4857-b4c4-ce3ab04a9605","system_id":"levelo_inurba_marseille","lat":43.25934,"lon":5.40915,"is_reserved":false,"is_disabled":false,"rental_uris":{"android":"levelo://app?vid=08da7afd-bce2-4857-b4c4-ce3ab04a9605","ios":"levelo://app?vid=08da7afd-bce2-4857-b4c4-ce3ab04a9605"},"vehicle_type_id":"4","last_reported":1730970557,"current_range_meters":36800,"station_id":"ce4bhm92rcd13ifvqglg","pricing_plan_id":"cebpf4jnsgd1na2vs0mg"},{"bike_id":"08f92521-0bfb-4a85-9556-944f8cfa70ca","system_id":"levelo_inurba_marseille","lat":43.30153,"lon":5.38077,"is_reserved":false,"is_disabled":false,"rental_uris":{"android":"levelo://app?vid=08f92521-0bfb-4a85-9556-944f8cfa70ca","ios":"levelo://app?vid=08f92521-0bfb-4a85-9556-944f8cfa70ca"},"vehicle_type_id":"4","last_reported":1730970557,"current_range_meters":26800,"station_id":"ce4bgjp2rcd13ifvqbh0","pricing_plan_id":"cebpf4jnsgd1na2vs0mg"},{"bike_id":"b4acb205-fefb-4ff0-a0f5-e0b7a0a1fe0d","system_id":"levelo_inurba_marseille","lat":43.27994,"lon":5.41661,"is_reserved":false,"is_disabled":false,"rental_uris":{"android":"levelo://app?vid=b4acb205-fefb-4ff0-a0f5-e0b7a0a1fe0d","ios":"levelo://app?vid=b4acb205-fefb-4ff0-a0f5-e0b7a0a1fe0d"},"vehicle_type_id":"4","last_reported":1730970557,"current_range_meters":30400,"station_id":"ce4bho12rcd13ifvqh1g","pricing_plan_id":"cebpf4jnsgd1na2vs0mg"},{"bike_id":"9552041d-63ed-4e05-8bc7-00a237683c60","system_id":"levelo_inurba_marseille","lat":43.23151,"lon":5.43703,"is_reserved":false,"is_disabled":false,"rental_uris":{"android":"levelo://app?vid=9552041d-63ed-4e05-8bc7-00a237683c60","ios":"levelo://app?vid=9552041d-63ed-4e05-8bc7-00a237683c60"},"vehicle_type_id":"4","last_reported":1730970557,"current_range_meters":13600,"station_id":"ce4bhmp2rcd13ifvqgog","pricing_plan_id":"cebpf4jnsgd1na2vs0mg"},{"bike_id":"ccda7fc9-1fd3-4c2e-9926-323959f5fad4","system_id":"levelo_inurba_marseille","lat":43.26189,"lon":5.37452,"is_reserved":false,"is_disabled":false,"rental_uris":{"android":"levelo://app?vid=ccda7fc9-1fd3-4c2e-9926-323959f5fad4","ios":"levelo://app?vid=ccda7fc9-1fd3-4c2e-9926-323959f5fad4"},"vehicle_type_id":"4","last_reported":1730970557,"current_range_meters":33600,"station_id":"ce4bhgp2rcd13ifvqfc0","pricing_plan_id":"cebpf4jnsgd1na2vs0mg"},{"bike_id":"148a05b0-5e9b-4a2d-af89-c42d1ba92550","system_id":"levelo_inurba_marseille","lat":43.28034,"lon":5.36948,"is_reserved":false,"is_disabled":false,"rental_uris":{"android":"levelo://app?vid=148a05b0-5e9b-4a2d-af89-c42d1ba92550","ios":"levelo://app?vid=148a05b0-5e9b-4a2d-af89-c42d1ba92550"},"vehicle_type_id":"4","last_reported":1730970557,"current_range_meters":28000,"station_id":"ce4bha12rcd13ifvqef0","pricing_plan_id":"cebpf4jnsgd1na2vs0mg"},{"bike_id":"5cc5be71-af92-4029-92b3-3f9d6f731576","system_id":"levelo_inurba_marseille","lat":43.24071,"lon":5.37759,"is_reserved":false,"is_disabled":false,"rental_uris":{"android":"levelo://app?vid=5cc5be71-af92-4029-92b3-3f9d6f731576","ios":"levelo://app?vid=5cc5be71-af92-4029-92b3-3f9d6f731576"},"vehicle_type_id":"4","last_reported":1730970557,"current_range_meters":30000,"station_id":"ce4bhnp2rcd13ifvqgvg","pricing_plan_id":"cebpf4jnsgd1na2vs0mg"},{"bike_id":"70d67e8b-cf90-41d7-a359-ddc74e8f5edf","system_id":"levelo_inurba_marseille","lat":43.2593,"lon":5.40913,"is_reserved":false,"is_disabled":false,"rental_uris":{"android":"levelo://app?vid=70d67e8b-cf90-41d7-a359-ddc74e8f5edf","ios":"levelo://app?vid=70d67e8b-cf90-41d7-a359-ddc74e8f5edf"},"vehicle_type_id":"4","last_reported":1730970557,"current_range_meters":17200,"station_id":"ce4bhm92rcd13ifvqglg","pricing_plan_id":"cebpf4jnsgd1na2vs0mg"},{"bike_id":"76af8b3d-9a84-4e55-b4f5-30a2c29789a2","system_id":"levelo_inurba_marseille","lat":43.24083,"lon":5.37754,"is_reserved":false,"is_disabled":false,"rental_uris":{"android":"levelo://app?vid=76af8b3d-9a84-4e55-b4f5-30a2c29789a2","ios":"levelo://app?vid=76af8b3d-9a84-4e55-b4f5-30a2c29789a2"},"vehicle_type_id":"4","last_reported":1730970557,"current_range_meters":30800,"station_id":"ce4bhnp2rcd13ifvqgvg","pricing_plan_id":"cebpf4jnsgd1na2vs0mg"},{"bike_id":"d6012cce-4213-4913-a5ff-a23b071f00be","system_id":"levelo_inurba_marseille","lat":43.29618,"lon":5.37152,"is_reserved":false,"is_disabled":false,"rental_uris":{"android":"levelo://app?vid=d6012cce-4213-4913-a5ff-a23b071f00be","ios":"levelo://app?vid=d6012cce-4213-4913-a5ff-a23b071f00be"},"vehicle_type_id":"4","last_reported":1730970557,"current_range_meters":10800,"station_id":"ce4bgnh2rcd13ifvqc0g","pricing_plan_id":"cebpf4jnsgd1na2vs0mg"},{"bike_id":"bbde159d-771c-477e-9cb9-0b5767d2e088","system_id":"levelo_inurba_marseille","lat":43.31479,"lon":5.37303,"is_reserved":false,"is_disabled":false,"rental_uris":{"android":"levelo://app?vid=bbde159d-771c-477e-9cb9-0b5767d2e088","ios":"levelo://app?vid=bbde159d-771c-477e-9cb9-0b5767d2e088"},"vehicle_type_id":"4","last_reported":1730970557,"current_range_meters":12400,"station_id":"ce4bgt12rcd13ifvqcd0","pricing_plan_id":"cebpf4jnsgd1na2vs0mg"},{"bike_id":"e79d5b13-7992-4a55-8fef-910734f1c0d6","system_id":"levelo_inurba_marseille","lat":43.31169,"lon":5.38716,"is_reserved":false,"is_disabled":false,"rental_uris":{"android":"levelo://app?vid=e79d5b13-7992-4a55-8fef-910734f1c0d6","ios":"levelo://app?vid=e79d5b13-7992-4a55-8fef-910734f1c0d6"},"vehicle_type_id":"4","last_reported":1730970557,"current_range_meters":11200,"station_id":"ce4bgv12rcd13ifvqcp0","pricing_plan_id":"cebpf4jnsgd1na2vs0mg"},{"bike_id":"b713cad6-70bd-42cf-b1ca-e1069e290e82","system_id":"levelo_inurba_marseille","lat":43.31364,"lon":5.36718,"is_reserved":false,"is_disabled":false,"rental_uris":{"android":"levelo://app?vid=b713cad6-70bd-42cf-b1ca-e1069e290e82","ios":"levelo://app?vid=b713cad6-70bd-42cf-b1ca-e1069e290e82"},"vehicle_type_id":"4","last_reported":1730970557,"current_range_meters":22000,"station_id":"ce4bgr92rcd13ifvqc6g","pricing_plan_id":"cebpf4jnsgd1na2vs0mg"},{"bike_id":"fa0b7a65-cee1-4d2a-a04c-01c31bf50672","system_id":"levelo_inurba_marseille","lat":43.24162,"lon":5.36395,"is_reserved":false,"is_disabled":false,"rental_uris":{"android":"levelo://app?vid=fa0b7a65-cee1-4d2a-a04c-01c31bf50672","ios":"levelo://app?vid=fa0b7a65-cee1-4d2a-a04c-01c31bf50672"},"vehicle_type_id":"4","last_reported":1730970557,"current_range_meters":24400,"station_id":"cpo36qri1sfpv3e86is0","pricing_plan_id":"cebpf4jnsgd1na2vs0mg"},{"bike_id":"60c74889-5959-446e-8a28-158cabd41175","system_id":"levelo_inurba_marseille","lat":43.30137,"lon":5.3742,"is_reserved":false,"is_disabled":false,"rental_uris":{"android":"levelo://app?vid=60c74889-5959-446e-8a28-158cabd41175","ios":"levelo://app?vid=60c74889-5959-446e-8a28-158cabd41175"},"vehicle_type_id":"4","last_reported":1730970557,"current_range_meters":11200,"station_id":"ce4bgs92rcd13ifvqcc0","pricing_plan_id":"cebpf4jnsgd1na2vs0mg"},{"bike_id":"42d7fa01-6c71-4599-94a5-4874f8427d87","system_id":"levelo_inurba_marseille","lat":43.26951,"lon":5.38636,"is_reserved":false,"is_disabled":false,"rental_uris":{"android":"levelo://app?vid=42d7fa01-6c71-4599-94a5-4874f8427d87","ios":"levelo://app?vid=42d7fa01-6c71-4599-94a5-4874f8427d87"},"vehicle_type_id":"4","last_reported":1730970557,"current_range_meters":38000,"station_id":"ce4bhh92rcd13ifvqfh0","pricing_plan_id":"cebpf4jnsgd1na2vs0mg"},{"bike_id":"5f71bbbc-b440-48b7-a743-bb6bda19f0ba","system_id":"levelo_inurba_marseille","lat":43.27492,"lon":5.42451,"is_reserved":false,"is_disabled":false,"rental_uris":{"android":"levelo://app?vid=5f71bbbc-b440-48b7-a743-bb6bda19f0ba","ios":"levelo://app?vid=5f71bbbc-b440-48b7-a743-bb6bda19f0ba"},"vehicle_type_id":"4","last_reported":1730970557,"current_range_meters":8000,"station_id":"ce4bhn92rcd13ifvqgrg","pricing_plan_id":"cebpf4jnsgd1na2vs0mg"},{"bike_id":"5205fbf7-8d59-4be8-bf69-1e6422de7447","system_id":"levelo_inurba_marseille","lat":43.30905,"lon":5.36853,"is_reserved":false,"is_disabled":false,"rental_uris":{"android":"levelo://app?vid=5205fbf7-8d59-4be8-bf69-1e6422de7447","ios":"levelo://app?vid=5205fbf7-8d59-4be8-bf69-1e6422de7447"},"vehicle_type_id":"4","last_reported":1730970557,"current_range_meters":8400,"station_id":"ce4bgn92rcd13ifvqbvg","pricing_plan_id":"cebpf4jnsgd1na2vs0mg"},{"bike_id":"cb0ff2cc-ff1a-49a6-b8fb-f55be74a223d","system_id":"levelo_inurba_marseille","lat":43.30555,"lon":5.36532,"is_reserved":false,"is_disabled":false,"rental_uris":{"android":"levelo://app?vid=cb0ff2cc-ff1a-49a6-b8fb-f55be74a223d","ios":"levelo://app?vid=cb0ff2cc-ff1a-49a6-b8fb-f55be74a223d"},"vehicle_type_id":"4","last_reported":1730970557,"current_range_meters":31200,"station_id":"ce4bgs12rcd13ifvqcag","pricing_plan_id":"cebpf4jnsgd1na2vs0mg"},{"bike_id":"ab358b4a-5cc4-45af-ad50-5362db6a94f1","system_id":"levelo_inurba_marseille","lat":43.32035,"lon":5.4154,"is_reserved":false,"is_disabled":false,"rental_uris":{"android":"levelo://app?vid=ab358b4a-5cc4-45af-ad50-5362db6a94f1","ios":"levelo://app?vid=ab358b4a-5cc4-45af-ad50-5362db6a94f1"},"vehicle_type_id":"4","last_reported":1730970557,"current_range_meters":21600,"station_id":"ce4bhq92rcd13ifvqhkg","pricing_plan_id":"cebpf4jnsgd1na2vs0mg"},{"bike_id":"317e22fd-8472-4da8-8656-66e026a126d6","system_id":"levelo_inurba_marseille","lat":43.24074,"lon":5.37755,"is_reserved":false,"is_disabled":false,"rental_uris":{"android":"levelo://app?vid=317e22fd-8472-4da8-8656-66e026a126d6","ios":"levelo://app?vid=317e22fd-8472-4da8-8656-66e026a126d6"},"vehicle_type_id":"4","last_reported":1730970557,"current_range_meters":36400,"station_id":"ce4bhnp2rcd13ifvqgvg","pricing_plan_id":"cebpf4jnsgd1na2vs0mg"},{"bike_id":"3e8121c1-30b6-4a14-9659-9db7d342da2a","system_id":"levelo_inurba_marseille","lat":43.24072,"lon":5.37756,"is_reserved":false,"is_disabled":false,"rental_uris":{"android":"levelo://app?vid=3e8121c1-30b6-4a14-9659-9db7d342da2a","ios":"levelo://app?vid=3e8121c1-30b6-4a14-9659-9db7d342da2a"},"vehicle_type_id":"4","last_reported":1730970557,"current_range_meters":8800,"station_id":"ce4bhnp2rcd13ifvqgvg","pricing_plan_id":"cebpf4jnsgd1na2vs0mg"},{"bike_id":"73ddab19-f3bf-49d8-9a14-da51e0ed8f6c","system_id":"levelo_inurba_marseille","lat":43.23144,"lon":5.4372,"is_reserved":false,"is_disabled":false,"rental_uris":{"android":"levelo://app?vid=73ddab19-f3bf-49d8-9a14-da51e0ed8f6c","ios":"levelo://app?vid=73ddab19-f3bf-49d8-9a14-da51e0ed8f6c"},"vehicle_type_id":"4","last_reported":1730970557,"current_range_meters":39200,"station_id":"ce4bhmp2rcd13ifvqgog","pricing_plan_id":"cebpf4jnsgd1na2vs0mg"},{"bike_id":"d1eef8ed-8492-4f33-b593-cbb9c4965d77","system_id":"levelo_inurba_marseille","lat":43.27492,"lon":5.42446,"is_reserved":false,"is_disabled":false,"rental_uris":{"android":"levelo://app?vid=d1eef8ed-8492-4f33-b593-cbb9c4965d77","ios":"levelo://app?vid=d1eef8ed-8492-4f33-b593-cbb9c4965d77"},"vehicle_type_id":"4","last_reported":1730970557,"current_range_meters":31200,"station_id":"ce4bhn92rcd13ifvqgrg","pricing_plan_id":"cebpf4jnsgd1na2vs0mg"},{"bike_id":"b3cfe5b9-3e84-4f44-9e4e-ba4fa07f2071","system_id":"levelo_inurba_marseille","lat":43.2408,"lon":5.37755,"is_reserved":false,"is_disabled":false,"rental_uris":{"android":"levelo://app?vid=b3cfe5b9-3e84-4f44-9e4e-ba4fa07f2071","ios":"levelo://app?vid=b3cfe5b9-3e84-4f44-9e4e-ba4fa07f2071"},"vehicle_type_id":"4","last_reported":1730970557,"current_range_meters":34000,"station_id":"ce4bhnp2rcd13ifvqgvg","pricing_plan_id":"cebpf4jnsgd1na2vs0mg"},{"bike_id":"16d792df-2422-4701-a75e-39adc48a83f3","system_id":"levelo_inurba_marseille","lat":43.29302,"lon":5.37455,"is_reserved":false,"is_disabled":false,"rental_uris":{"android":"levelo://app?vid=16d792df-2422-4701-a75e-39adc48a83f3","ios":"levelo://app?vid=16d792df-2422-4701-a75e-39adc48a83f3"},"vehicle_type_id":"4","last_reported":1730970557,"current_range_meters":20400,"station_id":"ce4bgi12rcd13ifvqb70","pricing_plan_id":"cebpf4jnsgd1na2vs0mg"},{"bike_id":"9d696f74-b98f-4b00-9f07-06ed4abe3915","system_id":"levelo_inurba_marseille","lat":43.23864,"lon":5.3652,"is_reserved":false,"is_disabled":false,"rental_uris":{"android":"levelo://app?vid=9d696f74-b98f-4b00-9f07-06ed4abe3915","ios":"levelo://app?vid=9d696f74-b98f-4b00-9f07-06ed4abe3915"},"vehicle_type_id":"4","last_reported":1730970557,"current_range_meters":32000,"station_id":"","pricing_plan_id":"cebpf4jnsgd1na2vs0mg"},{"bike_id":"19645b45-8dc5-44dd-9eea-afb63875c101","system_id":"levelo_inurba_marseille","lat":43.31692,"lon":5.3775,"is_reserved":false,"is_disabled":false,"rental_uris":{"android":"levelo://app?vid=19645b45-8dc5-44dd-9eea-afb63875c101","ios":"levelo://app?vid=19645b45-8dc5-44dd-9eea-afb63875c101"},"vehicle_type_id":"4","last_reported":1730970557,"current_range_meters":22800,"station_id":"ce4bgth2rcd13ifvqch0","pricing_plan_id":"cebpf4jnsgd1na2vs0mg"},{"bike_id":"b5ab3cce-171f-4768-826f-37879f0a2854","system_id":"levelo_inurba_marseille","lat":43.24071,"lon":5.37758,"is_reserved":false,"is_disabled":false,"rental_uris":{"android":"levelo://app?vid=b5ab3cce-171f-4768-826f-37879f0a2854","ios":"levelo://app?vid=b5ab3cce-171f-4768-826f-37879f0a2854"},"vehicle_type_id":"4","last_reported":1730970557,"current_range_meters":7200,"station_id":"ce4bhnp2rcd13ifvqgvg","pricing_plan_id":"cebpf4jnsgd1na2vs0mg"},{"bike_id":"605d4e9e-fbdb-4b92-83ae-fd538c3fa3db","system_id":"levelo_inurba_marseille","lat":43.24073,"lon":5.37758,"is_reserved":false,"is_disabled":false,"rental_uris":{"android":"levelo://app?vid=605d4e9e-fbdb-4b92-83ae-fd538c3fa3db","ios":"levelo://app?vid=605d4e9e-fbdb-4b92-83ae-fd538c3fa3db"},"vehicle_type_id":"4","last_reported":1730970557,"current_range_meters":10800,"station_id":"ce4bhnp2rcd13ifvqgvg","pricing_plan_id":"cebpf4jnsgd1na2vs0mg"},{"bike_id":"cef8e3ab-38be-4eca-a2b6-05bb441c24b9","system_id":"levelo_inurba_marseille","lat":43.29578,"lon":5.36738,"is_reserved":false,"is_disabled":false,"rental_uris":{"android":"levelo://app?vid=cef8e3ab-38be-4eca-a2b6-05bb441c24b9","ios":"levelo://app?vid=cef8e3ab-38be-4eca-a2b6-05bb441c24b9"},"vehicle_type_id":"4","last_reported":1730970557,"current_range_meters":34800,"station_id":"ce4bgph2rcd13ifvqc2g","pricing_plan_id":"cebpf4jnsgd1na2vs0mg"},{"bike_id":"4df686f7-8cdc-4be1-bac7-404bbaea22b8","system_id":"levelo_inurba_marseille","lat":43.2396,"lon":5.36637,"is_reserved":false,"is_disabled":false,"rental_uris":{"android":"levelo://app?vid=4df686f7-8cdc-4be1-bac7-404bbaea22b8","ios":"levelo://app?vid=4df686f7-8cdc-4be1-bac7-404bbaea22b8"},"vehicle_type_id":"4","last_reported":1730970557,"current_range_meters":24000,"station_id":"ce4bhi12rcd13ifvqfp0","pricing_plan_id":"cebpf4jnsgd1na2vs0mg"},{"bike_id":"4bab1dea-4fd2-4a9b-a80a-2ef71cd727ad","system_id":"levelo_inurba_marseille","lat":43.24083,"lon":5.37746,"is_reserved":false,"is_disabled":false,"rental_uris":{"android":"levelo://app?vid=4bab1dea-4fd2-4a9b-a80a-2ef71cd727ad","ios":"levelo://app?vid=4bab1dea-4fd2-4a9b-a80a-2ef71cd727ad"},"vehicle_type_id":"4","last_reported":1730970557,"current_range_meters":17200,"station_id":"ce4bhnp2rcd13ifvqgvg","pricing_plan_id":"cebpf4jnsgd1na2vs0mg"},{"bike_id":"e2f62a7a-4a87-4252-a97d-2b736d23e924","system_id":"levelo_inurba_marseille","lat":43.29917,"lon":5.37471,"is_reserved":false,"is_disabled":false,"rental_uris":{"android":"levelo://app?vid=e2f62a7a-4a87-4252-a97d-2b736d23e924","ios":"levelo://app?vid=e2f62a7a-4a87-4252-a97d-2b736d23e924"},"vehicle_type_id":"4","last_reported":1730970557,"current_range_meters":28400,"station_id":"ce4bgjh2rcd13ifvqbg0","pricing_plan_id":"cebpf4jnsgd1na2vs0mg"},{"bike_id":"e3ee10fb-8b83-41c1-b250-bb9136e88156","system_id":"levelo_inurba_marseille","lat":43.2408,"lon":5.37753,"is_reserved":false,"is_disabled":false,"rental_uris":{"android":"levelo://app?vid=e3ee10fb-8b83-41c1-b250-bb9136e88156","ios":"levelo://app?vid=e3ee10fb-8b83-41c1-b250-bb9136e88156"},"vehicle_type_id":"4","last_reported":1730970557,"current_range_meters":20000,"station_id":"ce4bhnp2rcd13ifvqgvg","pricing_plan_id":"cebpf4jnsgd1na2vs0mg"},{"bike_id":"be2379f1-2fee-4126-8b97-3ac71858d97d","system_id":"levelo_inurba_marseille","lat":43.2781,"lon":5.40707,"is_reserved":false,"is_disabled":false,"rental_uris":{"android":"levelo://app?vid=be2379f1-2fee-4126-8b97-3ac71858d97d","ios":"levelo://app?vid=be2379f1-2fee-4126-8b97-3ac71858d97d"},"vehicle_type_id":"4","last_reported":1730970557,"current_range_meters":28000,"station_id":"ce4bhnh2rcd13ifvqgtg","pricing_plan_id":"cebpf4jnsgd1na2vs0mg"},{"bike_id":"8d364948-bf75-486a-8ac9-08ee2c0b3844","system_id":"levelo_inurba_marseille","lat":43.30439,"lon":5.38895,"is_reserved":false,"is_disabled":false,"rental_uris":{"android":"levelo://app?vid=8d364948-bf75-486a-8ac9-08ee2c0b3844","ios":"levelo://app?vid=8d364948-bf75-486a-8ac9-08ee2c0b3844"},"vehicle_type_id":"4","last_reported":1730970557,"current_range_meters":12800,"station_id":"ce4bgk12rcd13ifvqbi0","pricing_plan_id":"cebpf4jnsgd1na2vs0mg"},{"bike_id":"77cbd3d7-f87c-41c7-9ee2-ce007afab03c","system_id":"levelo_inurba_marseille","lat":43.31087,"lon":5.42446,"is_reserved":false,"is_disabled":false,"rental_uris":{"android":"levelo://app?vid=77cbd3d7-f87c-41c7-9ee2-ce007afab03c","ios":"levelo://app?vid=77cbd3d7-f87c-41c7-9ee2-ce007afab03c"},"vehicle_type_id":"4","last_reported":1730970557,"current_range_meters":30400,"station_id":"ce4bhp92rcd13ifvqhag","pricing_plan_id":"cebpf4jnsgd1na2vs0mg"},{"bike_id":"b0a90dc9-62f4-4afc-a7f7-e2037fc95ad6","system_id":"levelo_inurba_marseille","lat":43.2749,"lon":5.42452,"is_reserved":false,"is_disabled":false,"rental_uris":{"android":"levelo://app?vid=b0a90dc9-62f4-4afc-a7f7-e2037fc95ad6","ios":"levelo://app?vid=b0a90dc9-62f4-4afc-a7f7-e2037fc95ad6"},"vehicle_type_id":"4","last_reported":1730970557,"current_range_meters":32000,"station_id":"ce4bhn92rcd13ifvqgrg","pricing_plan_id":"cebpf4jnsgd1na2vs0mg"},{"bike_id":"85dfbf9b-c0a4-4a9d-bc2b-c3b2b3b4f0c0","system_id":"levelo_inurba_marseille","lat":43.31348,"lon":5.36726,"is_reserved":false,"is_disabled":false,"rental_uris":{"android":"levelo://app?vid=85dfbf9b-c0a4-4a9d-bc2b-c3b2b3b4f0c0","ios":"levelo://app?vid=85dfbf9b-c0a4-4a9d-bc2b-c3b2b3b4f0c0"},"vehicle_type_id":"4","last_reported":1730970557,"current_range_meters":36000,"station_id":"ce4bgr92rcd13ifvqc6g","pricing_plan_id":"cebpf4jnsgd1na2vs0mg"},{"bike_id":"d65cbdf9-c20e-4475-94fb-d454141c76f2","system_id":"levelo_inurba_marseille","lat":43.29126,"lon":5.380798,"is_reserved":false,"is_disabled":false,"rental_uris":{"android":"levelo://app?vid=d65cbdf9-c20e-4475-94fb-d454141c76f2","ios":"levelo://app?vid=d65cbdf9-c20e-4475-94fb-d454141c76f2"},"vehicle_type_id":"4","last_reported":1730970557,"current_range_meters":20000,"station_id":"ce4bh4p2rcd13ifvqe1g","pricing_plan_id":"cebpf4jnsgd1na2vs0mg"},{"bike_id":"1ebcb894-33c0-4978-a2f6-3f53cef6cbb5","system_id":"levelo_inurba_marseille","lat":43.30466,"lon":5.37914,"is_reserved":false,"is_disabled":false,"rental_uris":{"android":"levelo://app?vid=1ebcb894-33c0-4978-a2f6-3f53cef6cbb5","ios":"levelo://app?vid=1ebcb894-33c0-4978-a2f6-3f53cef6cbb5"},"vehicle_type_id":"4","last_reported":1730970557,"current_range_meters":30800,"station_id":"ce4bgkh2rcd13ifvqbl0","pricing_plan_id":"cebpf4jnsgd1na2vs0mg"},{"bike_id":"79582731-c85c-44df-9358-c2952f2edf19","system_id":"levelo_inurba_marseille","lat":43.26685,"lon":5.38269,"is_reserved":false,"is_disabled":false,"rental_uris":{"android":"levelo://app?vid=79582731-c85c-44df-9358-c2952f2edf19","ios":"levelo://app?vid=79582731-c85c-44df-9358-c2952f2edf19"},"vehicle_type_id":"4","last_reported":1730970557,"current_range_meters":13600,"station_id":"ce4bhg92rcd13ifvqf90","pricing_plan_id":"cebpf4jnsgd1na2vs0mg"},{"bike_id":"e41e5be4-c508-4d61-b847-98292c01416f","system_id":"levelo_inurba_marseille","lat":43.24082,"lon":5.37748,"is_reserved":false,"is_disabled":false,"rental_uris":{"android":"levelo://app?vid=e41e5be4-c508-4d61-b847-98292c01416f","ios":"levelo://app?vid=e41e5be4-c508-4d61-b847-98292c01416f"},"vehicle_type_id":"4","last_reported":1730970557,"current_range_meters":31200,"station_id":"ce4bhnp2rcd13ifvqgvg","pricing_plan_id":"cebpf4jnsgd1na2vs0mg"},{"bike_id":"f1461fba-e0b0-44e4-977f-acc0ddb99640","system_id":"levelo_inurba_marseille","lat":43.33738,"lon":5.3746,"is_reserved":false,"is_disabled":false,"rental_uris":{"android":"levelo://app?vid=f1461fba-e0b0-44e4-977f-acc0ddb99640","ios":"levelo://app?vid=f1461fba-e0b0-44e4-977f-acc0ddb99640"},"vehicle_type_id":"4","last_reported":1730970557,"current_range_meters":36800,"station_id":"ce4bhnh2rcd13ifvqgtg","pricing_plan_id":"cebpf4jnsgd1na2vs0mg"},{"bike_id":"dfdcdfb7-6179-4cdc-b4c4-a6f9385b4747","system_id":"levelo_inurba_marseille","lat":43.29842,"lon":5.36267,"is_reserved":false,"is_disabled":false,"rental_uris":{"android":"levelo://app?vid=dfdcdfb7-6179-4cdc-b4c4-a6f9385b4747","ios":"levelo://app?vid=dfdcdfb7-6179-4cdc-b4c4-a6f9385b4747"},"vehicle_type_id":"4","last_reported":1730970557,"current_range_meters":40000,"station_id":"ce4bgpp2rcd13ifvqc3g","pricing_plan_id":"cebpf4jnsgd1na2vs0mg"},{"bike_id":"56724e01-9843-478f-9957-90072d770c6c","system_id":"levelo_inurba_marseille","lat":43.23191,"lon":5.35556,"is_reserved":false,"is_disabled":false,"rental_uris":{"android":"levelo://app?vid=56724e01-9843-478f-9957-90072d770c6c","ios":"levelo://app?vid=56724e01-9843-478f-9957-90072d770c6c"},"vehicle_type_id":"4","last_reported":1730970557,"current_range_meters":10800,"station_id":"ce4bhu92rcd13ifvqi70","pricing_plan_id":"cebpf4jnsgd1na2vs0mg"},{"bike_id":"60c4e271-b808-4fb8-9788-35adea8ed369","system_id":"levelo_inurba_marseille","lat":43.27679,"lon":5.38878,"is_reserved":false,"is_disabled":false,"rental_uris":{"android":"levelo://app?vid=60c4e271-b808-4fb8-9788-35adea8ed369","ios":"levelo://app?vid=60c4e271-b808-4fb8-9788-35adea8ed369"},"vehicle_type_id":"4","last_reported":1730970557,"current_range_meters":12000,"station_id":"ce4bhi12rcd13ifvqfo0","pricing_plan_id":"cebpf4jnsgd1na2vs0mg"},{"bike_id":"2133dfbe-49e8-4189-a0e7-2637129ed1cc","system_id":"levelo_inurba_marseille","lat":43.30162,"lon":5.38083,"is_reserved":false,"is_disabled":false,"rental_uris":{"android":"levelo://app?vid=2133dfbe-49e8-4189-a0e7-2637129ed1cc","ios":"levelo://app?vid=2133dfbe-49e8-4189-a0e7-2637129ed1cc"},"vehicle_type_id":"4","last_reported":1730970557,"current_range_meters":14400,"station_id":"ce4bgjp2rcd13ifvqbh0","pricing_plan_id":"cebpf4jnsgd1na2vs0mg"},{"bike_id":"cde33d01-4fdf-4588-9993-50576e545d63","system_id":"levelo_inurba_marseille","lat":43.29901,"lon":5.43671,"is_reserved":false,"is_disabled":false,"rental_uris":{"android":"levelo://app?vid=cde33d01-4fdf-4588-9993-50576e545d63","ios":"levelo://app?vid=cde33d01-4fdf-4588-9993-50576e545d63"},"vehicle_type_id":"4","last_reported":1730970557,"current_range_meters":34800,"station_id":"ce4bhpp2rcd13ifvqhfg","pricing_plan_id":"cebpf4jnsgd1na2vs0mg"},{"bike_id":"7bccb066-e739-4119-b23f-3c9f7b3e74a4","system_id":"levelo_inurba_marseille","lat":43.31352,"lon":5.3673,"is_reserved":false,"is_disabled":false,"rental_uris":{"android":"levelo://app?vid=7bccb066-e739-4119-b23f-3c9f7b3e74a4","ios":"levelo://app?vid=7bccb066-e739-4119-b23f-3c9f7b3e74a4"},"vehicle_type_id":"4","last_reported":1730970557,"current_range_meters":2000,"station_id":"ce4bgr92rcd13ifvqc6g","pricing_plan_id":"cebpf4jnsgd1na2vs0mg"},{"bike_id":"a3090da9-c978-47fc-9b38-2ef41445d40f","system_id":"levelo_inurba_marseille","lat":43.25862,"lon":5.39903,"is_reserved":false,"is_disabled":false,"rental_uris":{"android":"levelo://app?vid=a3090da9-c978-47fc-9b38-2ef41445d40f","ios":"levelo://app?vid=a3090da9-c978-47fc-9b38-2ef41445d40f"},"vehicle_type_id":"4","last_reported":1730970557,"current_range_meters":38000,"station_id":"ce4bhl92rcd13ifvqghg","pricing_plan_id":"cebpf4jnsgd1na2vs0mg"},{"bike_id":"d09face9-b25e-4f84-b6d4-bf15b02a82b0","system_id":"levelo_inurba_marseille","lat":43.29698,"lon":5.37288,"is_reserved":false,"is_disabled":false,"rental_uris":{"android":"levelo://app?vid=d09face9-b25e-4f84-b6d4-bf15b02a82b0","ios":"levelo://app?vid=d09face9-b25e-4f84-b6d4-bf15b02a82b0"},"vehicle_type_id":"4","last_reported":1730970557,"current_range_meters":12800,"station_id":"ce4bgk12rcd13ifvqbj0","pricing_plan_id":"cebpf4jnsgd1na2vs0mg"},{"bike_id":"34634ce2-f8c9-4afd-9d91-a815c55201fd","system_id":"levelo_inurba_marseille","lat":43.284188,"lon":5.409329,"is_reserved":false,"is_disabled":false,"rental_uris":{"android":"levelo://app?vid=34634ce2-f8c9-4afd-9d91-a815c55201fd","ios":"levelo://app?vid=34634ce2-f8c9-4afd-9d91-a815c55201fd"},"vehicle_type_id":"4","last_reported":1730970557,"current_range_meters":26000,"station_id":"","pricing_plan_id":"cebpf4jnsgd1na2vs0mg"},{"bike_id":"5eed7c4f-166a-423f-b11f-87a3edace396","system_id":"levelo_inurba_marseille","lat":43.25937,"lon":5.409,"is_reserved":false,"is_disabled":false,"rental_uris":{"android":"levelo://app?vid=5eed7c4f-166a-423f-b11f-87a3edace396","ios":"levelo://app?vid=5eed7c4f-166a-423f-b11f-87a3edace396"},"vehicle_type_id":"4","last_reported":1730970557,"current_range_meters":6800,"station_id":"ce4bhm92rcd13ifvqglg","pricing_plan_id":"cebpf4jnsgd1na2vs0mg"},{"bike_id":"9a009869-464e-4389-bd6a-31c28f578102","system_id":"levelo_inurba_marseille","lat":43.24079,"lon":5.37758,"is_reserved":false,"is_disabled":false,"rental_uris":{"android":"levelo://app?vid=9a009869-464e-4389-bd6a-31c28f578102","ios":"levelo://app?vid=9a009869-464e-4389-bd6a-31c28f578102"},"vehicle_type_id":"4","last_reported":1730970557,"current_range_meters":16400,"station_id":"ce4bhnp2rcd13ifvqgvg","pricing_plan_id":"cebpf4jnsgd1na2vs0mg"},{"bike_id":"17d047ef-61a6-4711-8df1-edd46f045f8e","system_id":"levelo_inurba_marseille","lat":43.30944,"lon":5.39028,"is_reserved":false,"is_disabled":false,"rental_uris":{"android":"levelo://app?vid=17d047ef-61a6-4711-8df1-edd46f045f8e","ios":"levelo://app?vid=17d047ef-61a6-4711-8df1-edd46f045f8e"},"vehicle_type_id":"4","last_reported":1730970557,"current_range_meters":31200,"station_id":"ce4bgup2rcd13ifvqco0","pricing_plan_id":"cebpf4jnsgd1na2vs0mg"},{"bike_id":"3a2440ba-e3bd-4086-85b1-ada68df6a6f3","system_id":"levelo_inurba_marseille","lat":43.29191,"lon":5.3931,"is_reserved":false,"is_disabled":false,"rental_uris":{"android":"levelo://app?vid=3a2440ba-e3bd-4086-85b1-ada68df6a6f3","ios":"levelo://app?vid=3a2440ba-e3bd-4086-85b1-ada68df6a6f3"},"vehicle_type_id":"4","last_reported":1730970557,"current_range_meters":30800,"station_id":"ce4bh192rcd13ifvqdd0","pricing_plan_id":"cebpf4jnsgd1na2vs0mg"},{"bike_id":"5174ae6b-73b7-4eb9-b82e-9c61c1f78ce8","system_id":"levelo_inurba_marseille","lat":43.3123,"lon":5.40617,"is_reserved":false,"is_disabled":false,"rental_uris":{"android":"levelo://app?vid=5174ae6b-73b7-4eb9-b82e-9c61c1f78ce8","ios":"levelo://app?vid=5174ae6b-73b7-4eb9-b82e-9c61c1f78ce8"},"vehicle_type_id":"4","last_reported":1730970557,"current_range_meters":17600,"station_id":"","pricing_plan_id":"cebpf4jnsgd1na2vs0mg"},{"bike_id":"6b42a713-24aa-457b-ae50-adbb0538cfbc","system_id":"levelo_inurba_marseille","lat":43.24665,"lon":5.3817,"is_reserved":false,"is_disabled":false,"rental_uris":{"android":"levelo://app?vid=6b42a713-24aa-457b-ae50-adbb0538cfbc","ios":"levelo://app?vid=6b42a713-24aa-457b-ae50-adbb0538cfbc"},"vehicle_type_id":"4","last_reported":1730970557,"current_range_meters":28400,"station_id":"ce4bhih2rcd13ifvqfr0","pricing_plan_id":"cebpf4jnsgd1na2vs0mg"},{"bike_id":"63e2c238-4362-42f9-b3e2-f038c4a1d015","system_id":"levelo_inurba_marseille","lat":43.32473,"lon":5.36556,"is_reserved":false,"is_disabled":false,"rental_uris":{"android":"levelo://app?vid=63e2c238-4362-42f9-b3e2-f038c4a1d015","ios":"levelo://app?vid=63e2c238-4362-42f9-b3e2-f038c4a1d015"},"vehicle_type_id":"4","last_reported":1730970557,"current_range_meters":32800,"station_id":"ce4bhs12rcd13ifvqhvg","pricing_plan_id":"cebpf4jnsgd1na2vs0mg"},{"bike_id":"02372d2f-129d-4984-b8ef-377b663593e2","system_id":"levelo_inurba_marseille","lat":43.27581,"lon":5.38413,"is_reserved":false,"is_disabled":false,"rental_uris":{"android":"levelo://app?vid=02372d2f-129d-4984-b8ef-377b663593e2","ios":"levelo://app?vid=02372d2f-129d-4984-b8ef-377b663593e2"},"vehicle_type_id":"4","last_reported":1730970557,"current_range_meters":17600,"station_id":"ce4bhh92rcd13ifvqfi0","pricing_plan_id":"cebpf4jnsgd1na2vs0mg"},{"bike_id":"560b8690-a84c-4e4a-80ef-4792530d5f11","system_id":"levelo_inurba_marseille","lat":43.30277,"lon":5.37704,"is_reserved":false,"is_disabled":false,"rental_uris":{"android":"levelo://app?vid=560b8690-a84c-4e4a-80ef-4792530d5f11","ios":"levelo://app?vid=560b8690-a84c-4e4a-80ef-4792530d5f11"},"vehicle_type_id":"4","last_reported":1730970557,"current_range_meters":30800,"station_id":"ce4bguh2rcd13ifvqcj0","pricing_plan_id":"cebpf4jnsgd1na2vs0mg"},{"bike_id":"c3e27800-3ee3-4406-99ec-fa9ce1dee0ca","system_id":"levelo_inurba_marseille","lat":43.30543,"lon":5.36537,"is_reserved":false,"is_disabled":false,"rental_uris":{"android":"levelo://app?vid=c3e27800-3ee3-4406-99ec-fa9ce1dee0ca","ios":"levelo://app?vid=c3e27800-3ee3-4406-99ec-fa9ce1dee0ca"},"vehicle_type_id":"4","last_reported":1730970557,"current_range_meters":39200,"station_id":"ce4bgs12rcd13ifvqcag","pricing_plan_id":"cebpf4jnsgd1na2vs0mg"},{"bike_id":"f97ef259-b649-4cde-8e85-e81d5d1c2c11","system_id":"levelo_inurba_marseille","lat":43.29571,"lon":5.37531,"is_reserved":false,"is_disabled":false,"rental_uris":{"android":"levelo://app?vid=f97ef259-b649-4cde-8e85-e81d5d1c2c11","ios":"levelo://app?vid=f97ef259-b649-4cde-8e85-e81d5d1c2c11"},"vehicle_type_id":"4","last_reported":1730970557,"current_range_meters":26000,"station_id":"ce4bgh92rcd13ifvqb50","pricing_plan_id":"cebpf4jnsgd1na2vs0mg"},{"bike_id":"76733292-6685-4127-a6aa-dc0a61b373d8","system_id":"levelo_inurba_marseille","lat":43.231466,"lon":5.437109,"is_reserved":false,"is_disabled":false,"rental_uris":{"android":"levelo://app?vid=76733292-6685-4127-a6aa-dc0a61b373d8","ios":"levelo://app?vid=76733292-6685-4127-a6aa-dc0a61b373d8"},"vehicle_type_id":"4","last_reported":1730970557,"current_range_meters":38000,"station_id":"ce4bhmp2rcd13ifvqgog","pricing_plan_id":"cebpf4jnsgd1na2vs0mg"},{"bike_id":"0997e0f4-4290-4e2c-a3bf-253b7bbdd77f","system_id":"levelo_inurba_marseille","lat":43.32553,"lon":5.41435,"is_reserved":false,"is_disabled":false,"rental_uris":{"android":"levelo://app?vid=0997e0f4-4290-4e2c-a3bf-253b7bbdd77f","ios":"levelo://app?vid=0997e0f4-4290-4e2c-a3bf-253b7bbdd77f"},"vehicle_type_id":"4","last_reported":1730970557,"current_range_meters":39200,"station_id":"ce4bhq12rcd13ifvqhhg","pricing_plan_id":"cebpf4jnsgd1na2vs0mg"},{"bike_id":"4425573e-d73c-4468-ae36-c95cd2911915","system_id":"levelo_inurba_marseille","lat":43.30152,"lon":5.38078,"is_reserved":false,"is_disabled":false,"rental_uris":{"android":"levelo://app?vid=4425573e-d73c-4468-ae36-c95cd2911915","ios":"levelo://app?vid=4425573e-d73c-4468-ae36-c95cd2911915"},"vehicle_type_id":"4","last_reported":1730970557,"current_range_meters":32000,"station_id":"ce4bgjp2rcd13ifvqbh0","pricing_plan_id":"cebpf4jnsgd1na2vs0mg"},{"bike_id":"0cd17c10-d65a-4ac8-8ed6-24e276d755ed","system_id":"levelo_inurba_marseille","lat":43.24068,"lon":5.37762,"is_reserved":false,"is_disabled":false,"rental_uris":{"android":"levelo://app?vid=0cd17c10-d65a-4ac8-8ed6-24e276d755ed","ios":"levelo://app?vid=0cd17c10-d65a-4ac8-8ed6-24e276d755ed"},"vehicle_type_id":"4","last_reported":1730970557,"current_range_meters":21600,"station_id":"ce4bhnp2rcd13ifvqgvg","pricing_plan_id":"cebpf4jnsgd1na2vs0mg"},{"bike_id":"6462d677-37fa-43ff-a0e4-eee43074de0a","system_id":"levelo_inurba_marseille","lat":43.2606,"lon":5.39397,"is_reserved":false,"is_disabled":false,"rental_uris":{"android":"levelo://app?vid=6462d677-37fa-43ff-a0e4-eee43074de0a","ios":"levelo://app?vid=6462d677-37fa-43ff-a0e4-eee43074de0a"},"vehicle_type_id":"4","last_reported":1730970557,"current_range_meters":39200,"station_id":"ce4bhh92rcd13ifvqfj0","pricing_plan_id":"cebpf4jnsgd1na2vs0mg"},{"bike_id":"cac8307b-b8e5-4e87-8f44-46de5e8f6fdd","system_id":"levelo_inurba_marseille","lat":43.29562,"lon":5.42286,"is_reserved":false,"is_disabled":false,"rental_uris":{"android":"levelo://app?vid=cac8307b-b8e5-4e87-8f44-46de5e8f6fdd","ios":"levelo://app?vid=cac8307b-b8e5-4e87-8f44-46de5e8f6fdd"},"vehicle_type_id":"4","last_reported":1730970557,"current_range_meters":19600,"station_id":"ce4bhph2rcd13ifvqhdg","pricing_plan_id":"cebpf4jnsgd1na2vs0mg"},{"bike_id":"167213ef-1f2e-4c37-90a6-0a3b5e442073","system_id":"levelo_inurba_marseille","lat":43.30151,"lon":5.38086,"is_reserved":false,"is_disabled":false,"rental_uris":{"android":"levelo://app?vid=167213ef-1f2e-4c37-90a6-0a3b5e442073","ios":"levelo://app?vid=167213ef-1f2e-4c37-90a6-0a3b5e442073"},"vehicle_type_id":"4","last_reported":1730970557,"current_range_meters":36000,"station_id":"ce4bgjp2rcd13ifvqbh0","pricing_plan_id":"cebpf4jnsgd1na2vs0mg"},{"bike_id":"2b15cfd0-fa9c-4c17-9466-54a6b266456a","system_id":"levelo_inurba_marseille","lat":43.29838,"lon":5.36267,"is_reserved":false,"is_disabled":false,"rental_uris":{"android":"levelo://app?vid=2b15cfd0-fa9c-4c17-9466-54a6b266456a","ios":"levelo://app?vid=2b15cfd0-fa9c-4c17-9466-54a6b266456a"},"vehicle_type_id":"4","last_reported":1730970557,"current_range_meters":30000,"station_id":"ce4bgpp2rcd13ifvqc3g","pricing_plan_id":"cebpf4jnsgd1na2vs0mg"},{"bike_id":"56c14c33-2f49-48ae-9a36-8d0346ec2c04","system_id":"levelo_inurba_marseille","lat":43.23148,"lon":5.43712,"is_reserved":false,"is_disabled":false,"rental_uris":{"android":"levelo://app?vid=56c14c33-2f49-48ae-9a36-8d0346ec2c04","ios":"levelo://app?vid=56c14c33-2f49-48ae-9a36-8d0346ec2c04"},"vehicle_type_id":"4","last_reported":1730970557,"current_range_meters":18000,"station_id":"ce4bhmp2rcd13ifvqgog","pricing_plan_id":"cebpf4jnsgd1na2vs0mg"},{"bike_id":"a4b299ec-fca9-4036-95b7-5434bcc12bdb","system_id":"levelo_inurba_marseille","lat":43.30238,"lon":5.40059,"is_reserved":false,"is_disabled":false,"rental_uris":{"android":"levelo://app?vid=a4b299ec-fca9-4036-95b7-5434bcc12bdb","ios":"levelo://app?vid=a4b299ec-fca9-4036-95b7-5434bcc12bdb"},"vehicle_type_id":"4","last_reported":1730970557,"current_range_meters":38400,"station_id":"ce4bgvh2rcd13ifvqcs0","pricing_plan_id":"cebpf4jnsgd1na2vs0mg"},{"bike_id":"f9b51361-1f59-4e32-8790-218894731a9c","system_id":"levelo_inurba_marseille","lat":43.23967,"lon":5.36634,"is_reserved":false,"is_disabled":false,"rental_uris":{"android":"levelo://app?vid=f9b51361-1f59-4e32-8790-218894731a9c","ios":"levelo://app?vid=f9b51361-1f59-4e32-8790-218894731a9c"},"vehicle_type_id":"4","last_reported":1730970557,"current_range_meters":25600,"station_id":"ce4bhi12rcd13ifvqfp0","pricing_plan_id":"cebpf4jnsgd1na2vs0mg"},{"bike_id":"8596a87d-bde6-4a5a-a36c-7472ade19640","system_id":"levelo_inurba_marseille","lat":43.24078,"lon":5.37753,"is_reserved":false,"is_disabled":false,"rental_uris":{"android":"levelo://app?vid=8596a87d-bde6-4a5a-a36c-7472ade19640","ios":"levelo://app?vid=8596a87d-bde6-4a5a-a36c-7472ade19640"},"vehicle_type_id":"4","last_reported":1730970557,"current_range_meters":26800,"station_id":"ce4bhnp2rcd13ifvqgvg","pricing_plan_id":"cebpf4jnsgd1na2vs0mg"},{"bike_id":"e307d60c-0ad5-438f-b4e6-0643eb043b02","system_id":"levelo_inurba_marseille","lat":43.29594,"lon":5.38103,"is_reserved":false,"is_disabled":false,"rental_uris":{"android":"levelo://app?vid=e307d60c-0ad5-438f-b4e6-0643eb043b02","ios":"levelo://app?vid=e307d60c-0ad5-438f-b4e6-0643eb043b02"},"vehicle_type_id":"4","last_reported":1730970557,"current_range_meters":37600,"station_id":"ce4bgl12rcd13ifvqbo0","pricing_plan_id":"cebpf4jnsgd1na2vs0mg"},{"bike_id":"2295466f-6d34-487a-b48f-cf671520587f","system_id":"levelo_inurba_marseille","lat":43.29304,"lon":5.37169,"is_reserved":false,"is_disabled":false,"rental_uris":{"android":"levelo://app?vid=2295466f-6d34-487a-b48f-cf671520587f","ios":"levelo://app?vid=2295466f-6d34-487a-b48f-cf671520587f"},"vehicle_type_id":"4","last_reported":1730970557,"current_range_meters":30400,"station_id":"ce4bgh92rcd13ifvqb40","pricing_plan_id":"cebpf4jnsgd1na2vs0mg"},{"bike_id":"746af076-5078-419f-8a93-4da4236b10fa","system_id":"levelo_inurba_marseille","lat":43.30946,"lon":5.39031,"is_reserved":false,"is_disabled":false,"rental_uris":{"android":"levelo://app?vid=746af076-5078-419f-8a93-4da4236b10fa","ios":"levelo://app?vid=746af076-5078-419f-8a93-4da4236b10fa"},"vehicle_type_id":"4","last_reported":1730970557,"current_range_meters":24800,"station_id":"ce4bgup2rcd13ifvqco0","pricing_plan_id":"cebpf4jnsgd1na2vs0mg"},{"bike_id":"adea7c1a-b20c-4638-a315-c9c7a0bb031d","system_id":"levelo_inurba_marseille","lat":43.29019,"lon":5.38141,"is_reserved":false,"is_disabled":false,"rental_uris":{"android":"levelo://app?vid=adea7c1a-b20c-4638-a315-c9c7a0bb031d","ios":"levelo://app?vid=adea7c1a-b20c-4638-a315-c9c7a0bb031d"},"vehicle_type_id":"4","last_reported":1730970557,"current_range_meters":6800,"station_id":"ce4bh4p2rcd13ifvqe1g","pricing_plan_id":"cebpf4jnsgd1na2vs0mg"},{"bike_id":"6db28662-ce69-418c-bf18-91733453ace9","system_id":"levelo_inurba_marseille","lat":43.299652,"lon":5.371888,"is_reserved":false,"is_disabled":false,"rental_uris":{"android":"levelo://app?vid=6db28662-ce69-418c-bf18-91733453ace9","ios":"levelo://app?vid=6db28662-ce69-418c-bf18-91733453ace9"},"vehicle_type_id":"4","last_reported":1730970557,"current_range_meters":4800,"station_id":"ce4bhi12rcd13ifvqfp0","pricing_plan_id":"cebpf4jnsgd1na2vs0mg"},{"bike_id":"f1ad7c23-e05c-484a-acc5-cd06e9e0272c","system_id":"levelo_inurba_marseille","lat":43.26206,"lon":5.37446,"is_reserved":false,"is_disabled":false,"rental_uris":{"android":"levelo://app?vid=f1ad7c23-e05c-484a-acc5-cd06e9e0272c","ios":"levelo://app?vid=f1ad7c23-e05c-484a-acc5-cd06e9e0272c"},"vehicle_type_id":"4","last_reported":1730970557,"current_range_meters":34800,"station_id":"ce4bhgp2rcd13ifvqfc0","pricing_plan_id":"cebpf4jnsgd1na2vs0mg"},{"bike_id":"73579928-e2e7-4f6c-b2ab-d967c3bfe602","system_id":"levelo_inurba_marseille","lat":43.30535,"lon":5.36531,"is_reserved":false,"is_disabled":false,"rental_uris":{"android":"levelo://app?vid=73579928-e2e7-4f6c-b2ab-d967c3bfe602","ios":"levelo://app?vid=73579928-e2e7-4f6c-b2ab-d967c3bfe602"},"vehicle_type_id":"4","last_reported":1730970557,"current_range_meters":8400,"station_id":"ce4bgs12rcd13ifvqcag","pricing_plan_id":"cebpf4jnsgd1na2vs0mg"},{"bike_id":"21b37299-84e4-4b5b-8bf6-49ee4ecf921e","system_id":"levelo_inurba_marseille","lat":43.23964,"lon":5.36637,"is_reserved":false,"is_disabled":false,"rental_uris":{"android":"levelo://app?vid=21b37299-84e4-4b5b-8bf6-49ee4ecf921e","ios":"levelo://app?vid=21b37299-84e4-4b5b-8bf6-49ee4ecf921e"},"vehicle_type_id":"4","last_reported":1730970557,"current_range_meters":39200,"station_id":"ce4bhi12rcd13ifvqfp0","pricing_plan_id":"cebpf4jnsgd1na2vs0mg"},{"bike_id":"4b67932a-96ea-49e1-9ff9-d70abe287a8e","system_id":"levelo_inurba_marseille","lat":43.29922,"lon":5.37462,"is_reserved":false,"is_disabled":false,"rental_uris":{"android":"levelo://app?vid=4b67932a-96ea-49e1-9ff9-d70abe287a8e","ios":"levelo://app?vid=4b67932a-96ea-49e1-9ff9-d70abe287a8e"},"vehicle_type_id":"4","last_reported":1730970557,"current_range_meters":28800,"station_id":"ce4bgjh2rcd13ifvqbg0","pricing_plan_id":"cebpf4jnsgd1na2vs0mg"},{"bike_id":"4e5d727a-7c34-44b8-af94-45a54b88c1cc","system_id":"levelo_inurba_marseille","lat":43.33722,"lon":5.39176,"is_reserved":false,"is_disabled":false,"rental_uris":{"android":"levelo://app?vid=4e5d727a-7c34-44b8-af94-45a54b88c1cc","ios":"levelo://app?vid=4e5d727a-7c34-44b8-af94-45a54b88c1cc"},"vehicle_type_id":"4","last_reported":1730970557,"current_range_meters":39200,"station_id":"ce4bhr92rcd13ifvqhsg","pricing_plan_id":"cebpf4jnsgd1na2vs0mg"},{"bike_id":"dfcca87b-f330-4212-bbd0-d4f21e5f05a1","system_id":"levelo_inurba_marseille","lat":43.2695,"lon":5.38641,"is_reserved":false,"is_disabled":false,"rental_uris":{"android":"levelo://app?vid=dfcca87b-f330-4212-bbd0-d4f21e5f05a1","ios":"levelo://app?vid=dfcca87b-f330-4212-bbd0-d4f21e5f05a1"},"vehicle_type_id":"4","last_reported":1730970557,"current_range_meters":36400,"station_id":"ce4bhh92rcd13ifvqfh0","pricing_plan_id":"cebpf4jnsgd1na2vs0mg"},{"bike_id":"5063d9ae-a48b-495d-a1b3-6fba6ad945ff","system_id":"levelo_inurba_marseille","lat":43.24075,"lon":5.3775,"is_reserved":false,"is_disabled":false,"rental_uris":{"android":"levelo://app?vid=5063d9ae-a48b-495d-a1b3-6fba6ad945ff","ios":"levelo://app?vid=5063d9ae-a48b-495d-a1b3-6fba6ad945ff"},"vehicle_type_id":"4","last_reported":1730970557,"current_range_meters":24000,"station_id":"ce4bhnp2rcd13ifvqgvg","pricing_plan_id":"cebpf4jnsgd1na2vs0mg"},{"bike_id":"fbdcd95a-9188-481a-a4b6-1e36a34b36b3","system_id":"levelo_inurba_marseille","lat":43.30942,"lon":5.39033,"is_reserved":false,"is_disabled":false,"rental_uris":{"android":"levelo://app?vid=fbdcd95a-9188-481a-a4b6-1e36a34b36b3","ios":"levelo://app?vid=fbdcd95a-9188-481a-a4b6-1e36a34b36b3"},"vehicle_type_id":"4","last_reported":1730970557,"current_range_meters":31200,"station_id":"ce4bgup2rcd13ifvqco0","pricing_plan_id":"cebpf4jnsgd1na2vs0mg"},{"bike_id":"1a734c82-dcc8-4d3d-a318-7fd63d2ec81e","system_id":"levelo_inurba_marseille","lat":43.32288,"lon":5.3827,"is_reserved":false,"is_disabled":false,"rental_uris":{"android":"levelo://app?vid=1a734c82-dcc8-4d3d-a318-7fd63d2ec81e","ios":"levelo://app?vid=1a734c82-dcc8-4d3d-a318-7fd63d2ec81e"},"vehicle_type_id":"4","last_reported":1730970557,"current_range_meters":35200,"station_id":"ce4bhr12rcd13ifvqhqg","pricing_plan_id":"cebpf4jnsgd1na2vs0mg"},{"bike_id":"0474bd5c-c1e3-4ca1-b3a1-d140689e0d18","system_id":"levelo_inurba_marseille","lat":43.30914,"lon":5.36849,"is_reserved":false,"is_disabled":false,"rental_uris":{"android":"levelo://app?vid=0474bd5c-c1e3-4ca1-b3a1-d140689e0d18","ios":"levelo://app?vid=0474bd5c-c1e3-4ca1-b3a1-d140689e0d18"},"vehicle_type_id":"4","last_reported":1730970557,"current_range_meters":28000,"station_id":"ce4bgn92rcd13ifvqbvg","pricing_plan_id":"cebpf4jnsgd1na2vs0mg"},{"bike_id":"9915abd7-5d8a-4533-be67-277c986c6010","system_id":"levelo_inurba_marseille","lat":43.26679,"lon":5.38265,"is_reserved":false,"is_disabled":false,"rental_uris":{"android":"levelo://app?vid=9915abd7-5d8a-4533-be67-277c986c6010","ios":"levelo://app?vid=9915abd7-5d8a-4533-be67-277c986c6010"},"vehicle_type_id":"4","last_reported":1730970557,"current_range_meters":28000,"station_id":"ce4bhg92rcd13ifvqf90","pricing_plan_id":"cebpf4jnsgd1na2vs0mg"},{"bike_id":"87b95e7e-e341-47d0-a0b5-f8b5d667bb4f","system_id":"levelo_inurba_marseille","lat":43.24076,"lon":5.37757,"is_reserved":false,"is_disabled":false,"rental_uris":{"android":"levelo://app?vid=87b95e7e-e341-47d0-a0b5-f8b5d667bb4f","ios":"levelo://app?vid=87b95e7e-e341-47d0-a0b5-f8b5d667bb4f"},"vehicle_type_id":"4","last_reported":1730970557,"current_range_meters":38000,"station_id":"ce4bhnp2rcd13ifvqgvg","pricing_plan_id":"cebpf4jnsgd1na2vs0mg"},{"bike_id":"4bddc708-4984-40cb-8b8a-b12640293d38","system_id":"levelo_inurba_marseille","lat":43.2781,"lon":5.40715,"is_reserved":false,"is_disabled":false,"rental_uris":{"android":"levelo://app?vid=4bddc708-4984-40cb-8b8a-b12640293d38","ios":"levelo://app?vid=4bddc708-4984-40cb-8b8a-b12640293d38"},"vehicle_type_id":"4","last_reported":1730970557,"current_range_meters":35200,"station_id":"ce4bhnh2rcd13ifvqgtg","pricing_plan_id":"cebpf4jnsgd1na2vs0mg"},{"bike_id":"1087f887-e632-4220-b28b-5649f8a81025","system_id":"levelo_inurba_marseille","lat":43.24077,"lon":5.37756,"is_reserved":false,"is_disabled":false,"rental_uris":{"android":"levelo://app?vid=1087f887-e632-4220-b28b-5649f8a81025","ios":"levelo://app?vid=1087f887-e632-4220-b28b-5649f8a81025"},"vehicle_type_id":"4","last_reported":1730970557,"current_range_meters":40000,"station_id":"ce4bhnp2rcd13ifvqgvg","pricing_plan_id":"cebpf4jnsgd1na2vs0mg"},{"bike_id":"461adaad-69ca-4b71-8a55-45412f551df5","system_id":"levelo_inurba_marseille","lat":43.29034,"lon":5.39972,"is_reserved":false,"is_disabled":false,"rental_uris":{"android":"levelo://app?vid=461adaad-69ca-4b71-8a55-45412f551df5","ios":"levelo://app?vid=461adaad-69ca-4b71-8a55-45412f551df5"},"vehicle_type_id":"4","last_reported":1730970557,"current_range_meters":28400,"station_id":"ce4bh392rcd13ifvqdm0","pricing_plan_id":"cebpf4jnsgd1na2vs0mg"},{"bike_id":"e831571d-8c71-447f-8264-0d693a5bfc98","system_id":"levelo_inurba_marseille","lat":43.30149,"lon":5.38087,"is_reserved":false,"is_disabled":false,"rental_uris":{"android":"levelo://app?vid=e831571d-8c71-447f-8264-0d693a5bfc98","ios":"levelo://app?vid=e831571d-8c71-447f-8264-0d693a5bfc98"},"vehicle_type_id":"4","last_reported":1730970557,"current_range_meters":36400,"station_id":"ce4bgjp2rcd13ifvqbh0","pricing_plan_id":"cebpf4jnsgd1na2vs0mg"},{"bike_id":"b3efa261-435a-4d71-be02-67992b1c969c","system_id":"levelo_inurba_marseille","lat":43.30148,"lon":5.38078,"is_reserved":false,"is_disabled":false,"rental_uris":{"android":"levelo://app?vid=b3efa261-435a-4d71-be02-67992b1c969c","ios":"levelo://app?vid=b3efa261-435a-4d71-be02-67992b1c969c"},"vehicle_type_id":"4","last_reported":1730970557,"current_range_meters":12800,"station_id":"ce4bgjp2rcd13ifvqbh0","pricing_plan_id":"cebpf4jnsgd1na2vs0mg"},{"bike_id":"96bbe4b9-c3df-4eb3-8e8f-0dd163426af7","system_id":"levelo_inurba_marseille","lat":43.27494,"lon":5.4245,"is_reserved":false,"is_disabled":false,"rental_uris":{"android":"levelo://app?vid=96bbe4b9-c3df-4eb3-8e8f-0dd163426af7","ios":"levelo://app?vid=96bbe4b9-c3df-4eb3-8e8f-0dd163426af7"},"vehicle_type_id":"4","last_reported":1730970557,"current_range_meters":31200,"station_id":"ce4bhn92rcd13ifvqgrg","pricing_plan_id":"cebpf4jnsgd1na2vs0mg"},{"bike_id":"c4cc972e-7a14-46d5-a623-3df8ede326b1","system_id":"levelo_inurba_marseille","lat":43.29672,"lon":5.37288,"is_reserved":false,"is_disabled":false,"rental_uris":{"android":"levelo://app?vid=c4cc972e-7a14-46d5-a623-3df8ede326b1","ios":"levelo://app?vid=c4cc972e-7a14-46d5-a623-3df8ede326b1"},"vehicle_type_id":"4","last_reported":1730970557,"current_range_meters":38800,"station_id":"ce4bgk12rcd13ifvqbj0","pricing_plan_id":"cebpf4jnsgd1na2vs0mg"},{"bike_id":"52af7a3b-ddda-465a-a3b9-5cc6f08e1552","system_id":"levelo_inurba_marseille","lat":43.24161,"lon":5.36398,"is_reserved":false,"is_disabled":false,"rental_uris":{"android":"levelo://app?vid=52af7a3b-ddda-465a-a3b9-5cc6f08e1552","ios":"levelo://app?vid=52af7a3b-ddda-465a-a3b9-5cc6f08e1552"},"vehicle_type_id":"4","last_reported":1730970557,"current_range_meters":16000,"station_id":"cpo36qri1sfpv3e86is0","pricing_plan_id":"cebpf4jnsgd1na2vs0mg"},{"bike_id":"a594f9b5-12bd-477c-843b-c8beaeecd285","system_id":"levelo_inurba_marseille","lat":43.32481,"lon":5.36569,"is_reserved":false,"is_disabled":false,"rental_uris":{"android":"levelo://app?vid=a594f9b5-12bd-477c-843b-c8beaeecd285","ios":"levelo://app?vid=a594f9b5-12bd-477c-843b-c8beaeecd285"},"vehicle_type_id":"4","last_reported":1730970557,"current_range_meters":11600,"station_id":"ce4bhs12rcd13ifvqhvg","pricing_plan_id":"cebpf4jnsgd1na2vs0mg"},{"bike_id":"aee4cdbf-ef97-4a0a-871c-7c40bd863747","system_id":"levelo_inurba_marseille","lat":43.30546,"lon":5.38439,"is_reserved":false,"is_disabled":false,"rental_uris":{"android":"levelo://app?vid=aee4cdbf-ef97-4a0a-871c-7c40bd863747","ios":"levelo://app?vid=aee4cdbf-ef97-4a0a-871c-7c40bd863747"},"vehicle_type_id":"4","last_reported":1730970557,"current_range_meters":14800,"station_id":"ce4bgg92rcd13ifvqb30","pricing_plan_id":"cebpf4jnsgd1na2vs0mg"},{"bike_id":"9bdc17b9-a84e-437b-a63b-d20105b448c0","system_id":"levelo_inurba_marseille","lat":43.30284,"lon":5.37704,"is_reserved":false,"is_disabled":false,"rental_uris":{"android":"levelo://app?vid=9bdc17b9-a84e-437b-a63b-d20105b448c0","ios":"levelo://app?vid=9bdc17b9-a84e-437b-a63b-d20105b448c0"},"vehicle_type_id":"4","last_reported":1730970557,"current_range_meters":17200,"station_id":"ce4bguh2rcd13ifvqcj0","pricing_plan_id":"cebpf4jnsgd1na2vs0mg"},{"bike_id":"3f4fc512-c09e-425c-8600-f50abb41362b","system_id":"levelo_inurba_marseille","lat":43.27494,"lon":5.42452,"is_reserved":false,"is_disabled":false,"rental_uris":{"android":"levelo://app?vid=3f4fc512-c09e-425c-8600-f50abb41362b","ios":"levelo://app?vid=3f4fc512-c09e-425c-8600-f50abb41362b"},"vehicle_type_id":"4","last_reported":1730970557,"current_range_meters":32400,"station_id":"ce4bhn92rcd13ifvqgrg","pricing_plan_id":"cebpf4jnsgd1na2vs0mg"},{"bike_id":"c60cd3eb-7761-4bc3-9c19-d67719c1599d","system_id":"levelo_inurba_marseille","lat":43.30959,"lon":5.39026,"is_reserved":false,"is_disabled":false,"rental_uris":{"android":"levelo://app?vid=c60cd3eb-7761-4bc3-9c19-d67719c1599d","ios":"levelo://app?vid=c60cd3eb-7761-4bc3-9c19-d67719c1599d"},"vehicle_type_id":"4","last_reported":1730970557,"current_range_meters":38800,"station_id":"ce4bgup2rcd13ifvqco0","pricing_plan_id":"cebpf4jnsgd1na2vs0mg"},{"bike_id":"7fc1ba3d-c517-4a2d-bf56-a37ac8039de0","system_id":"levelo_inurba_marseille","lat":43.30125,"lon":5.38814,"is_reserved":false,"is_disabled":false,"rental_uris":{"android":"levelo://app?vid=7fc1ba3d-c517-4a2d-bf56-a37ac8039de0","ios":"levelo://app?vid=7fc1ba3d-c517-4a2d-bf56-a37ac8039de0"},"vehicle_type_id":"4","last_reported":1730970557,"current_range_meters":10800,"station_id":"ce4bghh2rcd13ifvqb60","pricing_plan_id":"cebpf4jnsgd1na2vs0mg"},{"bike_id":"22b5768f-1b65-4e9d-9c4a-033c2af45c58","system_id":"levelo_inurba_marseille","lat":43.32541,"lon":5.41439,"is_reserved":false,"is_disabled":false,"rental_uris":{"android":"levelo://app?vid=22b5768f-1b65-4e9d-9c4a-033c2af45c58","ios":"levelo://app?vid=22b5768f-1b65-4e9d-9c4a-033c2af45c58"},"vehicle_type_id":"4","last_reported":1730970557,"current_range_meters":28000,"station_id":"ce4bhq12rcd13ifvqhhg","pricing_plan_id":"cebpf4jnsgd1na2vs0mg"},{"bike_id":"cdd64da5-123d-44db-8157-5473e1626676","system_id":"levelo_inurba_marseille","lat":43.29586,"lon":5.36743,"is_reserved":false,"is_disabled":false,"rental_uris":{"android":"levelo://app?vid=cdd64da5-123d-44db-8157-5473e1626676","ios":"levelo://app?vid=cdd64da5-123d-44db-8157-5473e1626676"},"vehicle_type_id":"4","last_reported":1730970557,"current_range_meters":36000,"station_id":"ce4bgph2rcd13ifvqc2g","pricing_plan_id":"cebpf4jnsgd1na2vs0mg"},{"bike_id":"b7af5fe1-1ffc-4983-a28e-5e881777edc3","system_id":"levelo_inurba_marseille","lat":43.25935,"lon":5.40919,"is_reserved":false,"is_disabled":false,"rental_uris":{"android":"levelo://app?vid=b7af5fe1-1ffc-4983-a28e-5e881777edc3","ios":"levelo://app?vid=b7af5fe1-1ffc-4983-a28e-5e881777edc3"},"vehicle_type_id":"4","last_reported":1730970557,"current_range_meters":17200,"station_id":"ce4bhm92rcd13ifvqglg","pricing_plan_id":"cebpf4jnsgd1na2vs0mg"},{"bike_id":"c509bded-159a-49a3-9bd2-65d7849f100b","system_id":"levelo_inurba_marseille","lat":43.28712,"lon":5.3866,"is_reserved":false,"is_disabled":false,"rental_uris":{"android":"levelo://app?vid=c509bded-159a-49a3-9bd2-65d7849f100b","ios":"levelo://app?vid=c509bded-159a-49a3-9bd2-65d7849f100b"},"vehicle_type_id":"4","last_reported":1730970557,"current_range_meters":39200,"station_id":"ce4bh492rcd13ifvqdug","pricing_plan_id":"cebpf4jnsgd1na2vs0mg"},{"bike_id":"2de6f799-b58b-485a-a379-f1e033107c71","system_id":"levelo_inurba_marseille","lat":43.3031,"lon":5.36894,"is_reserved":false,"is_disabled":false,"rental_uris":{"android":"levelo://app?vid=2de6f799-b58b-485a-a379-f1e033107c71","ios":"levelo://app?vid=2de6f799-b58b-485a-a379-f1e033107c71"},"vehicle_type_id":"4","last_reported":1730970557,"current_range_meters":39200,"station_id":"ce4bgqh2rcd13ifvqc5g","pricing_plan_id":"cebpf4jnsgd1na2vs0mg"},{"bike_id":"31370be7-bd9c-4a97-a16e-8d6a5ceded68","system_id":"levelo_inurba_marseille","lat":43.31332,"lon":5.36729,"is_reserved":false,"is_disabled":false,"rental_uris":{"android":"levelo://app?vid=31370be7-bd9c-4a97-a16e-8d6a5ceded68","ios":"levelo://app?vid=31370be7-bd9c-4a97-a16e-8d6a5ceded68"},"vehicle_type_id":"4","last_reported":1730970557,"current_range_meters":30800,"station_id":"ce4bgr92rcd13ifvqc6g","pricing_plan_id":"cebpf4jnsgd1na2vs0mg"},{"bike_id":"26ee007d-c521-4271-a726-fe0c9aeca07e","system_id":"levelo_inurba_marseille","lat":43.33109,"lon":5.38214,"is_reserved":false,"is_disabled":false,"rental_uris":{"android":"levelo://app?vid=26ee007d-c521-4271-a726-fe0c9aeca07e","ios":"levelo://app?vid=26ee007d-c521-4271-a726-fe0c9aeca07e"},"vehicle_type_id":"4","last_reported":1730970557,"current_range_meters":8800,"station_id":"","pricing_plan_id":"cebpf4jnsgd1na2vs0mg"},{"bike_id":"350a7e1e-713a-4552-8664-134097a3d34a","system_id":"levelo_inurba_marseille","lat":43.29165,"lon":5.37161,"is_reserved":false,"is_disabled":false,"rental_uris":{"android":"levelo://app?vid=350a7e1e-713a-4552-8664-134097a3d34a","ios":"levelo://app?vid=350a7e1e-713a-4552-8664-134097a3d34a"},"vehicle_type_id":"4","last_reported":1730970557,"current_range_meters":35200,"station_id":"ce4bha92rcd13ifvqeh0","pricing_plan_id":"cebpf4jnsgd1na2vs0mg"},{"bike_id":"fd017144-7f58-4195-ae2f-e49c1a8bb899","system_id":"levelo_inurba_marseille","lat":43.30146,"lon":5.38078,"is_reserved":false,"is_disabled":false,"rental_uris":{"android":"levelo://app?vid=fd017144-7f58-4195-ae2f-e49c1a8bb899","ios":"levelo://app?vid=fd017144-7f58-4195-ae2f-e49c1a8bb899"},"vehicle_type_id":"4","last_reported":1730970557,"current_range_meters":38800,"station_id":"ce4bgjp2rcd13ifvqbh0","pricing_plan_id":"cebpf4jnsgd1na2vs0mg"},{"bike_id":"204274af-cd8a-4fdc-9355-8da6a2c5b5a8","system_id":"levelo_inurba_marseille","lat":43.3091,"lon":5.36848,"is_reserved":false,"is_disabled":false,"rental_uris":{"android":"levelo://app?vid=204274af-cd8a-4fdc-9355-8da6a2c5b5a8","ios":"levelo://app?vid=204274af-cd8a-4fdc-9355-8da6a2c5b5a8"},"vehicle_type_id":"4","last_reported":1730970557,"current_range_meters":36400,"station_id":"ce4bgn92rcd13ifvqbvg","pricing_plan_id":"cebpf4jnsgd1na2vs0mg"},{"bike_id":"39e4c1e1-f0e2-42c6-891a-5fe8c3351ccb","system_id":"levelo_inurba_marseille","lat":43.26193,"lon":5.37448,"is_reserved":false,"is_disabled":false,"rental_uris":{"android":"levelo://app?vid=39e4c1e1-f0e2-42c6-891a-5fe8c3351ccb","ios":"levelo://app?vid=39e4c1e1-f0e2-42c6-891a-5fe8c3351ccb"},"vehicle_type_id":"4","last_reported":1730970557,"current_range_meters":36800,"station_id":"ce4bhgp2rcd13ifvqfc0","pricing_plan_id":"cebpf4jnsgd1na2vs0mg"},{"bike_id":"5f937143-bf87-49eb-8b26-6fb7312bd80f","system_id":"levelo_inurba_marseille","lat":43.25088,"lon":5.39521,"is_reserved":false,"is_disabled":false,"rental_uris":{"android":"levelo://app?vid=5f937143-bf87-49eb-8b26-6fb7312bd80f","ios":"levelo://app?vid=5f937143-bf87-49eb-8b26-6fb7312bd80f"},"vehicle_type_id":"4","last_reported":1730970557,"current_range_meters":20400,"station_id":"ce4bhm12rcd13ifvqgkg","pricing_plan_id":"cebpf4jnsgd1na2vs0mg"},{"bike_id":"11a8f5d3-adeb-4770-97f1-d4c26d4fa85f","system_id":"levelo_inurba_marseille","lat":43.30949,"lon":5.39035,"is_reserved":false,"is_disabled":false,"rental_uris":{"android":"levelo://app?vid=11a8f5d3-adeb-4770-97f1-d4c26d4fa85f","ios":"levelo://app?vid=11a8f5d3-adeb-4770-97f1-d4c26d4fa85f"},"vehicle_type_id":"4","last_reported":1730970557,"current_range_meters":16400,"station_id":"ce4bgup2rcd13ifvqco0","pricing_plan_id":"cebpf4jnsgd1na2vs0mg"},{"bike_id":"41e0706b-3304-4385-a7cd-5d995410f2bc","system_id":"levelo_inurba_marseille","lat":43.29034,"lon":5.39971,"is_reserved":false,"is_disabled":false,"rental_uris":{"android":"levelo://app?vid=41e0706b-3304-4385-a7cd-5d995410f2bc","ios":"levelo://app?vid=41e0706b-3304-4385-a7cd-5d995410f2bc"},"vehicle_type_id":"4","last_reported":1730970557,"current_range_meters":20400,"station_id":"ce4bh392rcd13ifvqdm0","pricing_plan_id":"cebpf4jnsgd1na2vs0mg"},{"bike_id":"f078b7bb-d872-4e7e-8ce2-23f60b593547","system_id":"levelo_inurba_marseille","lat":43.337444,"lon":5.374475,"is_reserved":false,"is_disabled":false,"rental_uris":{"android":"levelo://app?vid=f078b7bb-d872-4e7e-8ce2-23f60b593547","ios":"levelo://app?vid=f078b7bb-d872-4e7e-8ce2-23f60b593547"},"vehicle_type_id":"4","last_reported":1730970557,"current_range_meters":38400,"station_id":"","pricing_plan_id":"cebpf4jnsgd1na2vs0mg"},{"bike_id":"63679012-d0a0-44a9-a805-20815a46a99d","system_id":"levelo_inurba_marseille","lat":43.30776,"lon":5.40006,"is_reserved":false,"is_disabled":false,"rental_uris":{"android":"levelo://app?vid=63679012-d0a0-44a9-a805-20815a46a99d","ios":"levelo://app?vid=63679012-d0a0-44a9-a805-20815a46a99d"},"vehicle_type_id":"4","last_reported":1730970557,"current_range_meters":8400,"station_id":"","pricing_plan_id":"cebpf4jnsgd1na2vs0mg"},{"bike_id":"6cc359d5-7298-4810-a818-d4e6e28ea14a","system_id":"levelo_inurba_marseille","lat":43.30955,"lon":5.3905,"is_reserved":false,"is_disabled":false,"rental_uris":{"android":"levelo://app?vid=6cc359d5-7298-4810-a818-d4e6e28ea14a","ios":"levelo://app?vid=6cc359d5-7298-4810-a818-d4e6e28ea14a"},"vehicle_type_id":"4","last_reported":1730970557,"current_range_meters":32400,"station_id":"ce4bgup2rcd13ifvqco0","pricing_plan_id":"cebpf4jnsgd1na2vs0mg"},{"bike_id":"777b3eaa-30f9-4a1e-a4ff-060381cb7f7c","system_id":"levelo_inurba_marseille","lat":43.29037,"lon":5.39989,"is_reserved":false,"is_disabled":false,"rental_uris":{"android":"levelo://app?vid=777b3eaa-30f9-4a1e-a4ff-060381cb7f7c","ios":"levelo://app?vid=777b3eaa-30f9-4a1e-a4ff-060381cb7f7c"},"vehicle_type_id":"4","last_reported":1730970557,"current_range_meters":28400,"station_id":"ce4bh392rcd13ifvqdm0","pricing_plan_id":"cebpf4jnsgd1na2vs0mg"},{"bike_id":"250456d8-8281-463a-b832-040560d88517","system_id":"levelo_inurba_marseille","lat":43.31483,"lon":5.3726,"is_reserved":false,"is_disabled":false,"rental_uris":{"android":"levelo://app?vid=250456d8-8281-463a-b832-040560d88517","ios":"levelo://app?vid=250456d8-8281-463a-b832-040560d88517"},"vehicle_type_id":"4","last_reported":1730970557,"current_range_meters":10000,"station_id":"ce4bgt12rcd13ifvqcd0","pricing_plan_id":"cebpf4jnsgd1na2vs0mg"},{"bike_id":"f19e21fc-3fb8-4be5-8aae-3b3f9019566c","system_id":"levelo_inurba_marseille","lat":43.30551,"lon":5.36535,"is_reserved":false,"is_disabled":false,"rental_uris":{"android":"levelo://app?vid=f19e21fc-3fb8-4be5-8aae-3b3f9019566c","ios":"levelo://app?vid=f19e21fc-3fb8-4be5-8aae-3b3f9019566c"},"vehicle_type_id":"4","last_reported":1730970557,"current_range_meters":12000,"station_id":"ce4bgs12rcd13ifvqcag","pricing_plan_id":"cebpf4jnsgd1na2vs0mg"},{"bike_id":"0562544a-b79d-473e-a168-4b06e39e4c5b","system_id":"levelo_inurba_marseille","lat":43.32478,"lon":5.36567,"is_reserved":false,"is_disabled":false,"rental_uris":{"android":"levelo://app?vid=0562544a-b79d-473e-a168-4b06e39e4c5b","ios":"levelo://app?vid=0562544a-b79d-473e-a168-4b06e39e4c5b"},"vehicle_type_id":"4","last_reported":1730970557,"current_range_meters":32400,"station_id":"ce4bhs12rcd13ifvqhvg","pricing_plan_id":"cebpf4jnsgd1na2vs0mg"},{"bike_id":"bf9c9b48-c268-4e98-872f-40535e89f42a","system_id":"levelo_inurba_marseille","lat":43.30194,"lon":5.36631,"is_reserved":false,"is_disabled":false,"rental_uris":{"android":"levelo://app?vid=bf9c9b48-c268-4e98-872f-40535e89f42a","ios":"levelo://app?vid=bf9c9b48-c268-4e98-872f-40535e89f42a"},"vehicle_type_id":"4","last_reported":1730970557,"current_range_meters":38400,"station_id":"ce4bgrh2rcd13ifvqc8g","pricing_plan_id":"cebpf4jnsgd1na2vs0mg"},{"bike_id":"e1c15b9b-4bff-46c4-a326-64986ba4f363","system_id":"levelo_inurba_marseille","lat":43.31892,"lon":5.4074,"is_reserved":false,"is_disabled":false,"rental_uris":{"android":"levelo://app?vid=e1c15b9b-4bff-46c4-a326-64986ba4f363","ios":"levelo://app?vid=e1c15b9b-4bff-46c4-a326-64986ba4f363"},"vehicle_type_id":"4","last_reported":1730970557,"current_range_meters":31200,"station_id":"ce4bhq12rcd13ifvqhig","pricing_plan_id":"cebpf4jnsgd1na2vs0mg"},{"bike_id":"78ef9c13-ac49-450f-9deb-b3e2970839eb","system_id":"levelo_inurba_marseille","lat":43.30885,"lon":5.39636,"is_reserved":false,"is_disabled":false,"rental_uris":{"android":"levelo://app?vid=78ef9c13-ac49-450f-9deb-b3e2970839eb","ios":"levelo://app?vid=78ef9c13-ac49-450f-9deb-b3e2970839eb"},"vehicle_type_id":"4","last_reported":1730970557,"current_range_meters":17200,"station_id":"ce4bh012rcd13ifvqcv0","pricing_plan_id":"cebpf4jnsgd1na2vs0mg"},{"bike_id":"afb1f26c-6a37-442a-9588-088ed0a731a1","system_id":"levelo_inurba_marseille","lat":43.24074,"lon":5.37754,"is_reserved":false,"is_disabled":false,"rental_uris":{"android":"levelo://app?vid=afb1f26c-6a37-442a-9588-088ed0a731a1","ios":"levelo://app?vid=afb1f26c-6a37-442a-9588-088ed0a731a1"},"vehicle_type_id":"4","last_reported":1730970557,"current_range_meters":36800,"station_id":"ce4bhnp2rcd13ifvqgvg","pricing_plan_id":"cebpf4jnsgd1na2vs0mg"},{"bike_id":"944a28a0-ffb8-4660-a285-de6a3c52f9d5","system_id":"levelo_inurba_marseille","lat":43.25932,"lon":5.40908,"is_reserved":false,"is_disabled":false,"rental_uris":{"android":"levelo://app?vid=944a28a0-ffb8-4660-a285-de6a3c52f9d5","ios":"levelo://app?vid=944a28a0-ffb8-4660-a285-de6a3c52f9d5"},"vehicle_type_id":"4","last_reported":1730970557,"current_range_meters":8400,"station_id":"ce4bhm92rcd13ifvqglg","pricing_plan_id":"cebpf4jnsgd1na2vs0mg"},{"bike_id":"a5df532e-10e3-446a-adac-0a1d77087d3d","system_id":"levelo_inurba_marseille","lat":43.23156,"lon":5.43706,"is_reserved":false,"is_disabled":false,"rental_uris":{"android":"levelo://app?vid=a5df532e-10e3-446a-adac-0a1d77087d3d","ios":"levelo://app?vid=a5df532e-10e3-446a-adac-0a1d77087d3d"},"vehicle_type_id":"4","last_reported":1730970557,"current_range_meters":16400,"station_id":"ce4bhmp2rcd13ifvqgog","pricing_plan_id":"cebpf4jnsgd1na2vs0mg"},{"bike_id":"12f83d46-5599-4659-bee2-8d96df1e73dc","system_id":"levelo_inurba_marseille","lat":43.309098,"lon":5.368492,"is_reserved":false,"is_disabled":false,"rental_uris":{"android":"levelo://app?vid=12f83d46-5599-4659-bee2-8d96df1e73dc","ios":"levelo://app?vid=12f83d46-5599-4659-bee2-8d96df1e73dc"},"vehicle_type_id":"4","last_reported":1730970557,"current_range_meters":33600,"station_id":"ce4bgn92rcd13ifvqbvg","pricing_plan_id":"cebpf4jnsgd1na2vs0mg"},{"bike_id":"9c3169c5-7306-4ddc-9f15-d6bb8c9cdea4","system_id":"levelo_inurba_marseille","lat":43.27495,"lon":5.42453,"is_reserved":false,"is_disabled":false,"rental_uris":{"android":"levelo://app?vid=9c3169c5-7306-4ddc-9f15-d6bb8c9cdea4","ios":"levelo://app?vid=9c3169c5-7306-4ddc-9f15-d6bb8c9cdea4"},"vehicle_type_id":"4","last_reported":1730970557,"current_range_meters":28800,"station_id":"ce4bhn92rcd13ifvqgrg","pricing_plan_id":"cebpf4jnsgd1na2vs0mg"},{"bike_id":"3d8b476d-8750-457d-95a9-3917563d57d1","system_id":"levelo_inurba_marseille","lat":43.29019,"lon":5.38139,"is_reserved":false,"is_disabled":false,"rental_uris":{"android":"levelo://app?vid=3d8b476d-8750-457d-95a9-3917563d57d1","ios":"levelo://app?vid=3d8b476d-8750-457d-95a9-3917563d57d1"},"vehicle_type_id":"4","last_reported":1730970557,"current_range_meters":27200,"station_id":"ce4bh4p2rcd13ifvqe1g","pricing_plan_id":"cebpf4jnsgd1na2vs0mg"},{"bike_id":"4450272b-34bc-4703-ac02-8e79cf5992c2","system_id":"levelo_inurba_marseille","lat":43.30141,"lon":5.37422,"is_reserved":false,"is_disabled":false,"rental_uris":{"android":"levelo://app?vid=4450272b-34bc-4703-ac02-8e79cf5992c2","ios":"levelo://app?vid=4450272b-34bc-4703-ac02-8e79cf5992c2"},"vehicle_type_id":"4","last_reported":1730970557,"current_range_meters":38800,"station_id":"ce4bgs92rcd13ifvqcc0","pricing_plan_id":"cebpf4jnsgd1na2vs0mg"},{"bike_id":"d21bbe6d-d864-4100-abd8-39933a2f1023","system_id":"levelo_inurba_marseille","lat":43.2749,"lon":5.42457,"is_reserved":false,"is_disabled":false,"rental_uris":{"android":"levelo://app?vid=d21bbe6d-d864-4100-abd8-39933a2f1023","ios":"levelo://app?vid=d21bbe6d-d864-4100-abd8-39933a2f1023"},"vehicle_type_id":"4","last_reported":1730970557,"current_range_meters":30000,"station_id":"ce4bhn92rcd13ifvqgrg","pricing_plan_id":"cebpf4jnsgd1na2vs0mg"},{"bike_id":"eefc89dd-333c-4a70-99a3-43178ccdaa1f","system_id":"levelo_inurba_marseille","lat":43.32535,"lon":5.41431,"is_reserved":false,"is_disabled":false,"rental_uris":{"android":"levelo://app?vid=eefc89dd-333c-4a70-99a3-43178ccdaa1f","ios":"levelo://app?vid=eefc89dd-333c-4a70-99a3-43178ccdaa1f"},"vehicle_type_id":"4","last_reported":1730970557,"current_range_meters":4000,"station_id":"ce4bhq12rcd13ifvqhhg","pricing_plan_id":"cebpf4jnsgd1na2vs0mg"},{"bike_id":"2f5e2bdf-d3b9-45bc-9ec5-d61fe84a7a2e","system_id":"levelo_inurba_marseille","lat":43.29168,"lon":5.37156,"is_reserved":false,"is_disabled":false,"rental_uris":{"android":"levelo://app?vid=2f5e2bdf-d3b9-45bc-9ec5-d61fe84a7a2e","ios":"levelo://app?vid=2f5e2bdf-d3b9-45bc-9ec5-d61fe84a7a2e"},"vehicle_type_id":"4","last_reported":1730970557,"current_range_meters":14800,"station_id":"ce4bha92rcd13ifvqeh0","pricing_plan_id":"cebpf4jnsgd1na2vs0mg"},{"bike_id":"c5359f87-3892-4627-99a6-e3ecb14aa9fe","system_id":"levelo_inurba_marseille","lat":43.2511,"lon":5.4033,"is_reserved":false,"is_disabled":false,"rental_uris":{"android":"levelo://app?vid=c5359f87-3892-4627-99a6-e3ecb14aa9fe","ios":"levelo://app?vid=c5359f87-3892-4627-99a6-e3ecb14aa9fe"},"vehicle_type_id":"4","last_reported":1730970557,"current_range_meters":24800,"station_id":"ce4bhlh2rcd13ifvqgig","pricing_plan_id":"cebpf4jnsgd1na2vs0mg"},{"bike_id":"19d3c731-a541-44a7-9bb3-77e95b0464f4","system_id":"levelo_inurba_marseille","lat":43.29794,"lon":5.38115,"is_reserved":false,"is_disabled":false,"rental_uris":{"android":"levelo://app?vid=19d3c731-a541-44a7-9bb3-77e95b0464f4","ios":"levelo://app?vid=19d3c731-a541-44a7-9bb3-77e95b0464f4"},"vehicle_type_id":"4","last_reported":1730970557,"current_range_meters":25200,"station_id":"ce4bgip2rcd13ifvqbb0","pricing_plan_id":"cebpf4jnsgd1na2vs0mg"},{"bike_id":"2a1c1d39-a3ee-45b7-8182-d06c16353596","system_id":"levelo_inurba_marseille","lat":43.30309,"lon":5.369,"is_reserved":false,"is_disabled":false,"rental_uris":{"android":"levelo://app?vid=2a1c1d39-a3ee-45b7-8182-d06c16353596","ios":"levelo://app?vid=2a1c1d39-a3ee-45b7-8182-d06c16353596"},"vehicle_type_id":"4","last_reported":1730970557,"current_range_meters":24400,"station_id":"ce4bgqh2rcd13ifvqc5g","pricing_plan_id":"cebpf4jnsgd1na2vs0mg"},{"bike_id":"fc969ca7-8f79-4d66-bfea-1b2db71c3980","system_id":"levelo_inurba_marseille","lat":43.29041,"lon":5.39964,"is_reserved":false,"is_disabled":false,"rental_uris":{"android":"levelo://app?vid=fc969ca7-8f79-4d66-bfea-1b2db71c3980","ios":"levelo://app?vid=fc969ca7-8f79-4d66-bfea-1b2db71c3980"},"vehicle_type_id":"4","last_reported":1730970557,"current_range_meters":6800,"station_id":"ce4bh392rcd13ifvqdm0","pricing_plan_id":"cebpf4jnsgd1na2vs0mg"},{"bike_id":"1ed4b874-bdae-43c6-98a8-b3cf65705ae8","system_id":"levelo_inurba_marseille","lat":43.23151,"lon":5.43724,"is_reserved":false,"is_disabled":false,"rental_uris":{"android":"levelo://app?vid=1ed4b874-bdae-43c6-98a8-b3cf65705ae8","ios":"levelo://app?vid=1ed4b874-bdae-43c6-98a8-b3cf65705ae8"},"vehicle_type_id":"4","last_reported":1730970557,"current_range_meters":17200,"station_id":"ce4bhmp2rcd13ifvqgog","pricing_plan_id":"cebpf4jnsgd1na2vs0mg"},{"bike_id":"9a242017-b2b8-4871-b084-3d4890f99b1c","system_id":"levelo_inurba_marseille","lat":43.31269,"lon":5.40168,"is_reserved":false,"is_disabled":false,"rental_uris":{"android":"levelo://app?vid=9a242017-b2b8-4871-b084-3d4890f99b1c","ios":"levelo://app?vid=9a242017-b2b8-4871-b084-3d4890f99b1c"},"vehicle_type_id":"4","last_reported":1730970557,"current_range_meters":20800,"station_id":"ce4bh092rcd13ifvqd30","pricing_plan_id":"cebpf4jnsgd1na2vs0mg"},{"bike_id":"25bbedd7-af32-4fde-8344-e30e3df72ea0","system_id":"levelo_inurba_marseille","lat":43.30209,"lon":5.39464,"is_reserved":false,"is_disabled":false,"rental_uris":{"android":"levelo://app?vid=25bbedd7-af32-4fde-8344-e30e3df72ea0","ios":"levelo://app?vid=25bbedd7-af32-4fde-8344-e30e3df72ea0"},"vehicle_type_id":"4","last_reported":1730970557,"current_range_meters":38000,"station_id":"ce4bh0p2rcd13ifvqd70","pricing_plan_id":"cebpf4jnsgd1na2vs0mg"},{"bike_id":"1e74b8b8-dd50-4215-8b1e-b3b88f610b98","system_id":"levelo_inurba_marseille","lat":43.30426,"lon":5.38883,"is_reserved":false,"is_disabled":false,"rental_uris":{"android":"levelo://app?vid=1e74b8b8-dd50-4215-8b1e-b3b88f610b98","ios":"levelo://app?vid=1e74b8b8-dd50-4215-8b1e-b3b88f610b98"},"vehicle_type_id":"4","last_reported":1730970557,"current_range_meters":38000,"station_id":"ce4bgk12rcd13ifvqbi0","pricing_plan_id":"cebpf4jnsgd1na2vs0mg"},{"bike_id":"263685c3-225f-4033-b252-e91414e0d28c","system_id":"levelo_inurba_marseille","lat":43.31349,"lon":5.36707,"is_reserved":false,"is_disabled":false,"rental_uris":{"android":"levelo://app?vid=263685c3-225f-4033-b252-e91414e0d28c","ios":"levelo://app?vid=263685c3-225f-4033-b252-e91414e0d28c"},"vehicle_type_id":"4","last_reported":1730970557,"current_range_meters":27200,"station_id":"ce4bgr92rcd13ifvqc6g","pricing_plan_id":"cebpf4jnsgd1na2vs0mg"},{"bike_id":"f3618dde-db99-40c6-9fce-dee9a0bce454","system_id":"levelo_inurba_marseille","lat":43.30916,"lon":5.36859,"is_reserved":false,"is_disabled":false,"rental_uris":{"android":"levelo://app?vid=f3618dde-db99-40c6-9fce-dee9a0bce454","ios":"levelo://app?vid=f3618dde-db99-40c6-9fce-dee9a0bce454"},"vehicle_type_id":"4","last_reported":1730970557,"current_range_meters":40000,"station_id":"ce4bgn92rcd13ifvqbvg","pricing_plan_id":"cebpf4jnsgd1na2vs0mg"},{"bike_id":"d3e54780-ddfb-432e-bfd3-55d19e8c43c8","system_id":"levelo_inurba_marseille","lat":43.31747,"lon":5.39022,"is_reserved":false,"is_disabled":false,"rental_uris":{"android":"levelo://app?vid=d3e54780-ddfb-432e-bfd3-55d19e8c43c8","ios":"levelo://app?vid=d3e54780-ddfb-432e-bfd3-55d19e8c43c8"},"vehicle_type_id":"4","last_reported":1730970557,"current_range_meters":32400,"station_id":"ce4bhqp2rcd13ifvqhng","pricing_plan_id":"cebpf4jnsgd1na2vs0mg"},{"bike_id":"42db4e00-3ed6-447d-91ad-14539788c2ad","system_id":"levelo_inurba_marseille","lat":43.29837,"lon":5.383761,"is_reserved":false,"is_disabled":false,"rental_uris":{"android":"levelo://app?vid=42db4e00-3ed6-447d-91ad-14539788c2ad","ios":"levelo://app?vid=42db4e00-3ed6-447d-91ad-14539788c2ad"},"vehicle_type_id":"4","last_reported":1730970557,"current_range_meters":28400,"station_id":"ce4bgip2rcd13ifvqbb0","pricing_plan_id":"cebpf4jnsgd1na2vs0mg"},{"bike_id":"91c12d34-8db0-4920-b828-bc91b4612ed0","system_id":"levelo_inurba_marseille","lat":43.23149,"lon":5.43708,"is_reserved":false,"is_disabled":false,"rental_uris":{"android":"levelo://app?vid=91c12d34-8db0-4920-b828-bc91b4612ed0","ios":"levelo://app?vid=91c12d34-8db0-4920-b828-bc91b4612ed0"},"vehicle_type_id":"4","last_reported":1730970557,"current_range_meters":30800,"station_id":"ce4bhmp2rcd13ifvqgog","pricing_plan_id":"cebpf4jnsgd1na2vs0mg"},{"bike_id":"8781bd6a-bd0c-4fad-ba40-5608c5b353d8","system_id":"levelo_inurba_marseille","lat":43.33607,"lon":5.41035,"is_reserved":false,"is_disabled":false,"rental_uris":{"android":"levelo://app?vid=8781bd6a-bd0c-4fad-ba40-5608c5b353d8","ios":"levelo://app?vid=8781bd6a-bd0c-4fad-ba40-5608c5b353d8"},"vehicle_type_id":"4","last_reported":1730970557,"current_range_meters":20400,"station_id":"ce4bhqh2rcd13ifvqhmg","pricing_plan_id":"cebpf4jnsgd1na2vs0mg"},{"bike_id":"8f13bf78-8a00-4d5d-b662-61b51bbc7302","system_id":"levelo_inurba_marseille","lat":43.27075,"lon":5.42275,"is_reserved":false,"is_disabled":false,"rental_uris":{"android":"levelo://app?vid=8f13bf78-8a00-4d5d-b662-61b51bbc7302","ios":"levelo://app?vid=8f13bf78-8a00-4d5d-b662-61b51bbc7302"},"vehicle_type_id":"4","last_reported":1730970557,"current_range_meters":28400,"station_id":"ce4bhk92rcd13ifvqgb0","pricing_plan_id":"cebpf4jnsgd1na2vs0mg"},{"bike_id":"226cc2b3-50e4-47e6-99a5-ef2c89f923b5","system_id":"levelo_inurba_marseille","lat":43.30216,"lon":5.39461,"is_reserved":false,"is_disabled":false,"rental_uris":{"android":"levelo://app?vid=226cc2b3-50e4-47e6-99a5-ef2c89f923b5","ios":"levelo://app?vid=226cc2b3-50e4-47e6-99a5-ef2c89f923b5"},"vehicle_type_id":"4","last_reported":1730970557,"current_range_meters":38000,"station_id":"ce4bh0p2rcd13ifvqd70","pricing_plan_id":"cebpf4jnsgd1na2vs0mg"},{"bike_id":"92bfdb81-1ac2-4e23-9e47-9d5b1f837dde","system_id":"levelo_inurba_marseille","lat":43.30534,"lon":5.36532,"is_reserved":false,"is_disabled":false,"rental_uris":{"android":"levelo://app?vid=92bfdb81-1ac2-4e23-9e47-9d5b1f837dde","ios":"levelo://app?vid=92bfdb81-1ac2-4e23-9e47-9d5b1f837dde"},"vehicle_type_id":"4","last_reported":1730970557,"current_range_meters":18800,"station_id":"ce4bgs12rcd13ifvqcag","pricing_plan_id":"cebpf4jnsgd1na2vs0mg"},{"bike_id":"075b048b-8589-435e-a40a-b3890b9d40d5","system_id":"levelo_inurba_marseille","lat":43.24395,"lon":5.37052,"is_reserved":false,"is_disabled":false,"rental_uris":{"android":"levelo://app?vid=075b048b-8589-435e-a40a-b3890b9d40d5","ios":"levelo://app?vid=075b048b-8589-435e-a40a-b3890b9d40d5"},"vehicle_type_id":"4","last_reported":1730970557,"current_range_meters":40000,"station_id":"ce4bhhh2rcd13ifvqfk0","pricing_plan_id":"cebpf4jnsgd1na2vs0mg"},{"bike_id":"8b56b489-05a6-4b88-b48f-443d06411579","system_id":"levelo_inurba_marseille","lat":43.26678,"lon":5.38264,"is_reserved":false,"is_disabled":false,"rental_uris":{"android":"levelo://app?vid=8b56b489-05a6-4b88-b48f-443d06411579","ios":"levelo://app?vid=8b56b489-05a6-4b88-b48f-443d06411579"},"vehicle_type_id":"4","last_reported":1730970557,"current_range_meters":23200,"station_id":"ce4bhg92rcd13ifvqf90","pricing_plan_id":"cebpf4jnsgd1na2vs0mg"},{"bike_id":"d7419ddb-5370-47dc-9299-9ed32a20da4e","system_id":"levelo_inurba_marseille","lat":43.26678,"lon":5.38252,"is_reserved":false,"is_disabled":false,"rental_uris":{"android":"levelo://app?vid=d7419ddb-5370-47dc-9299-9ed32a20da4e","ios":"levelo://app?vid=d7419ddb-5370-47dc-9299-9ed32a20da4e"},"vehicle_type_id":"4","last_reported":1730970557,"current_range_meters":14800,"station_id":"ce4bhg92rcd13ifvqf90","pricing_plan_id":"cebpf4jnsgd1na2vs0mg"},{"bike_id":"cd23d2af-6909-4409-b4d1-b7c36d31bbf0","system_id":"levelo_inurba_marseille","lat":43.34143,"lon":5.40911,"is_reserved":false,"is_disabled":false,"rental_uris":{"android":"levelo://app?vid=cd23d2af-6909-4409-b4d1-b7c36d31bbf0","ios":"levelo://app?vid=cd23d2af-6909-4409-b4d1-b7c36d31bbf0"},"vehicle_type_id":"4","last_reported":1730970557,"current_range_meters":37600,"station_id":"ce4bhqh2rcd13ifvqhlg","pricing_plan_id":"cebpf4jnsgd1na2vs0mg"},{"bike_id":"0b745ddc-0bcc-491b-8bda-cc63fc31cdc1","system_id":"levelo_inurba_marseille","lat":43.27209,"lon":5.39177,"is_reserved":false,"is_disabled":false,"rental_uris":{"android":"levelo://app?vid=0b745ddc-0bcc-491b-8bda-cc63fc31cdc1","ios":"levelo://app?vid=0b745ddc-0bcc-491b-8bda-cc63fc31cdc1"},"vehicle_type_id":"4","last_reported":1730970557,"current_range_meters":34800,"station_id":"ce4bhhp2rcd13ifvqfm0","pricing_plan_id":"cebpf4jnsgd1na2vs0mg"},{"bike_id":"2b04845f-8c2a-4e5c-948b-a8b896a00a0a","system_id":"levelo_inurba_marseille","lat":43.32547,"lon":5.41444,"is_reserved":false,"is_disabled":false,"rental_uris":{"android":"levelo://app?vid=2b04845f-8c2a-4e5c-948b-a8b896a00a0a","ios":"levelo://app?vid=2b04845f-8c2a-4e5c-948b-a8b896a00a0a"},"vehicle_type_id":"4","last_reported":1730970557,"current_range_meters":12400,"station_id":"ce4bhq12rcd13ifvqhhg","pricing_plan_id":"cebpf4jnsgd1na2vs0mg"},{"bike_id":"3ae6c5b4-d28a-4257-ab2c-a82f1d337382","system_id":"levelo_inurba_marseille","lat":43.304191,"lon":5.412866,"is_reserved":false,"is_disabled":false,"rental_uris":{"android":"levelo://app?vid=3ae6c5b4-d28a-4257-ab2c-a82f1d337382","ios":"levelo://app?vid=3ae6c5b4-d28a-4257-ab2c-a82f1d337382"},"vehicle_type_id":"4","last_reported":1730970557,"current_range_meters":31200,"station_id":"ce4bh112rcd13ifvqd90","pricing_plan_id":"cebpf4jnsgd1na2vs0mg"},{"bike_id":"0e0aa953-ce04-478d-bf26-e5f223f30f5e","system_id":"levelo_inurba_marseille","lat":43.30539,"lon":5.36527,"is_reserved":false,"is_disabled":false,"rental_uris":{"android":"levelo://app?vid=0e0aa953-ce04-478d-bf26-e5f223f30f5e","ios":"levelo://app?vid=0e0aa953-ce04-478d-bf26-e5f223f30f5e"},"vehicle_type_id":"4","last_reported":1730970557,"current_range_meters":25200,"station_id":"ce4bgs12rcd13ifvqcag","pricing_plan_id":"cebpf4jnsgd1na2vs0mg"},{"bike_id":"0928d453-46ad-442a-9a4a-e04ca654907e","system_id":"levelo_inurba_marseille","lat":43.25578,"lon":5.382267,"is_reserved":false,"is_disabled":false,"rental_uris":{"android":"levelo://app?vid=0928d453-46ad-442a-9a4a-e04ca654907e","ios":"levelo://app?vid=0928d453-46ad-442a-9a4a-e04ca654907e"},"vehicle_type_id":"4","last_reported":1730970557,"current_range_meters":24000,"station_id":"ce4bhih2rcd13ifvqfs0","pricing_plan_id":"cebpf4jnsgd1na2vs0mg"},{"bike_id":"98d3de5f-e96b-460b-81bc-84e8a55261ab","system_id":"levelo_inurba_marseille","lat":43.31336,"lon":5.36714,"is_reserved":false,"is_disabled":false,"rental_uris":{"android":"levelo://app?vid=98d3de5f-e96b-460b-81bc-84e8a55261ab","ios":"levelo://app?vid=98d3de5f-e96b-460b-81bc-84e8a55261ab"},"vehicle_type_id":"4","last_reported":1730970557,"current_range_meters":35200,"station_id":"ce4bgr92rcd13ifvqc6g","pricing_plan_id":"cebpf4jnsgd1na2vs0mg"},{"bike_id":"2158f736-f366-4058-8006-1ca067d66f45","system_id":"levelo_inurba_marseille","lat":43.25935,"lon":5.4091,"is_reserved":false,"is_disabled":false,"rental_uris":{"android":"levelo://app?vid=2158f736-f366-4058-8006-1ca067d66f45","ios":"levelo://app?vid=2158f736-f366-4058-8006-1ca067d66f45"},"vehicle_type_id":"4","last_reported":1730970557,"current_range_meters":30400,"station_id":"ce4bhm92rcd13ifvqglg","pricing_plan_id":"cebpf4jnsgd1na2vs0mg"},{"bike_id":"7340dc7b-1164-4293-8938-58d52cecc69f","system_id":"levelo_inurba_marseille","lat":43.31333,"lon":5.36726,"is_reserved":false,"is_disabled":false,"rental_uris":{"android":"levelo://app?vid=7340dc7b-1164-4293-8938-58d52cecc69f","ios":"levelo://app?vid=7340dc7b-1164-4293-8938-58d52cecc69f"},"vehicle_type_id":"4","last_reported":1730970557,"current_range_meters":38000,"station_id":"ce4bgr92rcd13ifvqc6g","pricing_plan_id":"cebpf4jnsgd1na2vs0mg"},{"bike_id":"7078a230-503b-44c0-93e2-65fcc9cbe5c4","system_id":"levelo_inurba_marseille","lat":43.24079,"lon":5.37751,"is_reserved":false,"is_disabled":false,"rental_uris":{"android":"levelo://app?vid=7078a230-503b-44c0-93e2-65fcc9cbe5c4","ios":"levelo://app?vid=7078a230-503b-44c0-93e2-65fcc9cbe5c4"},"vehicle_type_id":"4","last_reported":1730970557,"current_range_meters":34800,"station_id":"ce4bhnp2rcd13ifvqgvg","pricing_plan_id":"cebpf4jnsgd1na2vs0mg"},{"bike_id":"4c487dff-fdc9-49d7-b2dd-4add6d9f1005","system_id":"levelo_inurba_marseille","lat":43.30884,"lon":5.37195,"is_reserved":false,"is_disabled":false,"rental_uris":{"android":"levelo://app?vid=4c487dff-fdc9-49d7-b2dd-4add6d9f1005","ios":"levelo://app?vid=4c487dff-fdc9-49d7-b2dd-4add6d9f1005"},"vehicle_type_id":"4","last_reported":1730970557,"current_range_meters":38000,"station_id":"ce4bguh2rcd13ifvqckg","pricing_plan_id":"cebpf4jnsgd1na2vs0mg"},{"bike_id":"d3701091-3ca8-4df2-a0fe-5264fb281f03","system_id":"levelo_inurba_marseille","lat":43.30915,"lon":5.36844,"is_reserved":false,"is_disabled":false,"rental_uris":{"android":"levelo://app?vid=d3701091-3ca8-4df2-a0fe-5264fb281f03","ios":"levelo://app?vid=d3701091-3ca8-4df2-a0fe-5264fb281f03"},"vehicle_type_id":"4","last_reported":1730970557,"current_range_meters":14800,"station_id":"ce4bgn92rcd13ifvqbvg","pricing_plan_id":"cebpf4jnsgd1na2vs0mg"},{"bike_id":"9f44cb52-8d97-40b8-8142-d730fbddcd65","system_id":"levelo_inurba_marseille","lat":43.301397,"lon":5.374231,"is_reserved":false,"is_disabled":false,"rental_uris":{"android":"levelo://app?vid=9f44cb52-8d97-40b8-8142-d730fbddcd65","ios":"levelo://app?vid=9f44cb52-8d97-40b8-8142-d730fbddcd65"},"vehicle_type_id":"4","last_reported":1730970557,"current_range_meters":26000,"station_id":"ce4bgs92rcd13ifvqcc0","pricing_plan_id":"cebpf4jnsgd1na2vs0mg"},{"bike_id":"93a83a5c-0d3d-43a2-be24-e99a92c3575d","system_id":"levelo_inurba_marseille","lat":43.30838,"lon":5.37117,"is_reserved":false,"is_disabled":false,"rental_uris":{"android":"levelo://app?vid=93a83a5c-0d3d-43a2-be24-e99a92c3575d","ios":"levelo://app?vid=93a83a5c-0d3d-43a2-be24-e99a92c3575d"},"vehicle_type_id":"4","last_reported":1730970557,"current_range_meters":2800,"station_id":"","pricing_plan_id":"cebpf4jnsgd1na2vs0mg"},{"bike_id":"6b8e9f15-f818-4864-9a59-ee975c790da6","system_id":"levelo_inurba_marseille","lat":43.30469,"lon":5.37909,"is_reserved":false,"is_disabled":false,"rental_uris":{"android":"levelo://app?vid=6b8e9f15-f818-4864-9a59-ee975c790da6","ios":"levelo://app?vid=6b8e9f15-f818-4864-9a59-ee975c790da6"},"vehicle_type_id":"4","last_reported":1730970557,"current_range_meters":25200,"station_id":"ce4bgup2rcd13ifvqcn0","pricing_plan_id":"cebpf4jnsgd1na2vs0mg"},{"bike_id":"5781a8a0-9309-4d44-bd8b-8068aee8be31","system_id":"levelo_inurba_marseille","lat":43.23152,"lon":5.43722,"is_reserved":false,"is_disabled":false,"rental_uris":{"android":"levelo://app?vid=5781a8a0-9309-4d44-bd8b-8068aee8be31","ios":"levelo://app?vid=5781a8a0-9309-4d44-bd8b-8068aee8be31"},"vehicle_type_id":"4","last_reported":1730970557,"current_range_meters":40000,"station_id":"ce4bhmp2rcd13ifvqgog","pricing_plan_id":"cebpf4jnsgd1na2vs0mg"},{"bike_id":"5eafa96a-40ea-4751-a828-481793e67bf1","system_id":"levelo_inurba_marseille","lat":43.2594,"lon":5.40897,"is_reserved":false,"is_disabled":false,"rental_uris":{"android":"levelo://app?vid=5eafa96a-40ea-4751-a828-481793e67bf1","ios":"levelo://app?vid=5eafa96a-40ea-4751-a828-481793e67bf1"},"vehicle_type_id":"4","last_reported":1730970557,"current_range_meters":30400,"station_id":"ce4bhm92rcd13ifvqglg","pricing_plan_id":"cebpf4jnsgd1na2vs0mg"},{"bike_id":"51876613-4cb0-44a5-8a02-28f91215db2c","system_id":"levelo_inurba_marseille","lat":43.30275,"lon":5.37692,"is_reserved":false,"is_disabled":false,"rental_uris":{"android":"levelo://app?vid=51876613-4cb0-44a5-8a02-28f91215db2c","ios":"levelo://app?vid=51876613-4cb0-44a5-8a02-28f91215db2c"},"vehicle_type_id":"4","last_reported":1730970557,"current_range_meters":39200,"station_id":"ce4bguh2rcd13ifvqcj0","pricing_plan_id":"cebpf4jnsgd1na2vs0mg"},{"bike_id":"4812777b-72e8-48b6-aa9c-2817af15f93f","system_id":"levelo_inurba_marseille","lat":43.2968,"lon":5.37293,"is_reserved":false,"is_disabled":false,"rental_uris":{"android":"levelo://app?vid=4812777b-72e8-48b6-aa9c-2817af15f93f","ios":"levelo://app?vid=4812777b-72e8-48b6-aa9c-2817af15f93f"},"vehicle_type_id":"4","last_reported":1730970557,"current_range_meters":20400,"station_id":"ce4bgk12rcd13ifvqbj0","pricing_plan_id":"cebpf4jnsgd1na2vs0mg"},