{"last_updated":1742980225,"ttl":60,"version":"2.2","data":{"bikes":[{"bike_id":"6e8ec9fc-8e34-4741-8f45-91a56b098fad","system_id":"levelo_inurba_marseille","lat":43.30141,"lon":5.37409,"is_reserved":false,"is_disabled":false,"rental_uris":{"android":"levelo://app?vid=6e8ec9fc-8e34-4741-8f45-91a56b098fad","ios":"levelo://app?vid=6e8ec9fc-8e34-4741-8f45-91a56b098fad"},"vehicle_type_id":"4","last_reported":1742980225,"current_range_meters":2800,"station_id":"ce4bgs92rcd13ifvqcc0","pricing_plan_id":"cebpf4jnsgd1na2vs0mg"},{"bike_id":"f6157e81-857a-447c-b8a7-5c91cd73d832","system_id":"levelo_inurba_marseille","lat":43.27203,"lon":5.40953,"is_reserved":false,"is_disabled":false,"rental_uris":{"android":"levelo://app?vid=f6157e81-857a-447c-b8a7-5c91cd73d832","ios":"levelo://app?vid=f6157e81-857a-447c-b8a7-5c91cd73d832"},"vehicle_type_id":"4","last_reported":1742980225,"current_range_meters":2800,"station_id":"ce4bhl12rcd13ifvqgf0","pricing_plan_id":"cebpf4jnsgd1na2vs0mg"},{"bike_id":"06386015-1121-49bb-aa6e-b2a42338e148","system_id":"levelo_inurba_marseille","lat":43.33026,"lon":5.39039,"is_reserved":false,"is_disabled":false,"rental_uris":{"android":"levelo://app?vid=06386015-1121-49bb-aa6e-b2a42338e148","ios":"levelo://app?vid=06386015-1121-49bb-aa6e-b2a42338e148"},"vehicle_type_id":"4","last_reported":1742980225,"current_range_meters":3200,"station_id":"ce4bhr92rcd13ifvqhrg","pricing_plan_id":"cebpf4jnsgd1na2vs0mg"},{"bike_id":"1d70ca98-568a-4f14-8eca-f7bb2194e34b","system_id":"levelo_inurba_marseille","lat":43.27498,"lon":5.4246,"is_reserved":false,"is_disabled":false,"rental_uris":{"android":"levelo://app?vid=1d70ca98-568a-4f14-8eca-f7bb2194e34b","ios":"levelo://app?vid=1d70ca98-568a-4f14-8eca-f7bb2194e34b"},"vehicle_type_id":"4","last_reported":1742980225,"current_range_meters":3200,"station_id":"ce4bhn92rcd13ifvqgrg","pricing_plan_id":"cebpf4jnsgd1na2vs0mg"},{"bike_id":"e2a45305-ba86-4966-9679-d1a8ca8232ba","system_id":"levelo_inurba_marseille","lat":43.24804,"lon":5.37453,"is_reserved":false,"is_disabled":false,"rental_uris":{"android":"levelo://app?vid=e2a45305-ba86-4966-9679-d1a8ca8232ba","ios":"levelo://app?vid=e2a45305-ba86-4966-9679-d1a8ca8232ba"},"vehicle_type_id":"4","last_reported":1742980225,"current_range_meters":3200,"station_id":"ce4bhgh2rcd13ifvqfb0","pricing_plan_id":"cebpf4jnsgd1na2vs0mg"},{"bike_id":"f18bc89f-2e71-4f15-b1b1-777493f16e8a","system_id":"levelo_inurba_marseille","lat":43.26691,"lon":5.38266,"is_reserved":false,"is_disabled":false,"rental_uris":{"android":"levelo://app?vid=f18bc89f-2e71-4f15-b1b1-777493f16e8a","ios":"levelo://app?vid=f18bc89f-2e71-4f15-b1b1-777493f16e8a"},"vehicle_type_id":"4","last_reported":1742980225,"current_range_meters":3200,"station_id":"ce4bhg92rcd13ifvqf90","pricing_plan_id":"cebpf4jnsgd1na2vs0mg"},{"bike_id":"3513a6f0-dbc9-4f37-8b52-79603521c288","system_id":"levelo_inurba_marseille","lat":43.23057,"lon":5.35494,"is_reserved":false,"is_disabled":false,"rental_uris":{"android":"levelo://app?vid=3513a6f0-dbc9-4f37-8b52-79603521c288","ios":"levelo://app?vid=3513a6f0-dbc9-4f37-8b52-79603521c288"},"vehicle_type_id":"4","last_reported":1742980225,"current_range_meters":3200,"station_id":"cpo3342slgdg3j2ifvpg","pricing_plan_id":"cebpf4jnsgd1na2vs0mg"},{"bike_id":"77c5e0ee-7e3d-4058-a081-035dbe8ca8a2","system_id":"levelo_inurba_marseille","lat":43.24173,"lon":5.39721,"is_reserved":false,"is_disabled":false,"rental_uris":{"android":"levelo://app?vid=77c5e0ee-7e3d-4058-a081-035dbe8ca8a2","ios":"levelo://app?vid=77c5e0ee-7e3d-4058-a081-035dbe8ca8a2"},"vehicle_type_id":"4","last_reported":1742980225,"current_range_meters":3200,"station_id":"ce4bhn12rcd13ifvqgpg","pricing_plan_id":"cebpf4jnsgd1na2vs0mg"},{"bike_id":"8bed5d62-fde5-4beb-9512-4bb084829f22","system_id":"levelo_inurba_marseille","lat":43.2721,"lon":5.3916,"is_reserved":false,"is_disabled":false,"rental_uris":{"android":"levelo://app?vid=8bed5d62-fde5-4beb-9512-4bb084829f22","ios":"levelo://app?vid=8bed5d62-fde5-4beb-9512-4bb084829f22"},"vehicle_type_id":"4","last_reported":1742980225,"current_range_meters":3200,"station_id":"ce4bhhp2rcd13ifvqfm0","pricing_plan_id":"cebpf4jnsgd1na2vs0mg"},{"bike_id":"03ee78e5-8953-4476-b431-47f3628c00b6","system_id":"levelo_inurba_marseille","lat":43.31244,"lon":5.36878,"is_reserved":false,"is_disabled":false,"rental_uris":{"android":"levelo://app?vid=03ee78e5-8953-4476-b431-47f3628c00b6","ios":"levelo://app?vid=03ee78e5-8953-4476-b431-47f3628c00b6"},"vehicle_type_id":"4","last_reported":1742980225,"current_range_meters":3600,"station_id":"ce4bgl92rcd13ifvqbq0","pricing_plan_id":"cebpf4jnsgd1na2vs0mg"},{"bike_id":"113eda5c-c33d-48d6-833a-f334ce033e65","system_id":"levelo_inurba_marseille","lat":43.24993,"lon":5.38945,"is_reserved":false,"is_disabled":false,"rental_uris":{"android":"levelo://app?vid=113eda5c-c33d-48d6-833a-f334ce033e65","ios":"levelo://app?vid=113eda5c-c33d-48d6-833a-f334ce033e65"},"vehicle_type_id":"4","last_reported":1742980225,"current_range_meters":3600,"station_id":"ce4bhgp2rcd13ifvqfd0","pricing_plan_id":"cebpf4jnsgd1na2vs0mg"},{"bike_id":"462ed12f-2154-4077-ad8f-99b7dff5cf51","system_id":"levelo_inurba_marseille","lat":43.29915,"lon":5.37467,"is_reserved":false,"is_disabled":false,"rental_uris":{"android":"levelo://app?vid=462ed12f-2154-4077-ad8f-99b7dff5cf51","ios":"levelo://app?vid=462ed12f-2154-4077-ad8f-99b7dff5cf51"},"vehicle_type_id":"4","last_reported":1742980225,"current_range_meters":3200,"station_id":"ce4bgjh2rcd13ifvqbg0","pricing_plan_id":"cebpf4jnsgd1na2vs0mg"},{"bike_id":"e4e1622e-5434-4700-9131-c6c940b8d38c","system_id":"levelo_inurba_marseille","lat":43.27497,"lon":5.42453,"is_reserved":false,"is_disabled":false,"rental_uris":{"android":"levelo://app?vid=e4e1622e-5434-4700-9131-c6c940b8d38c","ios":"levelo://app?vid=e4e1622e-5434-4700-9131-c6c940b8d38c"},"vehicle_type_id":"4","last_reported":1742980225,"current_range_meters":3600,"station_id":"ce4bhn92rcd13ifvqgrg","pricing_plan_id":"cebpf4jnsgd1na2vs0mg"},{"bike_id":"f09bcdb2-0145-4b9f-b77b-063daac05265","system_id":"levelo_inurba_marseille","lat":43.269495,"lon":5.386311,"is_reserved":false,"is_disabled":false,"rental_uris":{"android":"levelo://app?vid=f09bcdb2-0145-4b9f-b77b-063daac05265","ios":"levelo://app?vid=f09bcdb2-0145-4b9f-b77b-063daac05265"},"vehicle_type_id":"4","last_reported":1742980225,"current_range_meters":3600,"station_id":"ce4bhh92rcd13ifvqfh0","pricing_plan_id":"cebpf4jnsgd1na2vs0mg"},{"bike_id":"fa74e59b-15ec-4c83-8daf-f5bf20714d62","system_id":"levelo_inurba_marseille","lat":43.290358,"lon":5.375644,"is_reserved":false,"is_disabled":false,"rental_uris":{"android":"levelo://app?vid=fa74e59b-15ec-4c83-8daf-f5bf20714d62","ios":"levelo://app?vid=fa74e59b-15ec-4c83-8daf-f5bf20714d62"},"vehicle_type_id":"4","last_reported":1742980225,"current_range_meters":3600,"station_id":"ce4bh692rcd13ifvqe90","pricing_plan_id":"cebpf4jnsgd1na2vs0mg"},{"bike_id":"2ee4698f-07a1-495b-8f87-7ef2e7a4047f","system_id":"levelo_inurba_marseille","lat":43.289995,"lon":5.367372,"is_reserved":false,"is_disabled":false,"rental_uris":{"android":"levelo://app?vid=2ee4698f-07a1-495b-8f87-7ef2e7a4047f","ios":"levelo://app?vid=2ee4698f-07a1-495b-8f87-7ef2e7a4047f"},"vehicle_type_id":"4","last_reported":1742980225,"current_range_meters":4000,"station_id":"ce4bh3p2rcd13ifvqdq0","pricing_plan_id":"cebpf4jnsgd1na2vs0mg"},{"bike_id":"bd23b71a-da55-4b74-b9f9-519b4a0ea657","system_id":"levelo_inurba_marseille","lat":43.2721,"lon":5.39176,"is_reserved":false,"is_disabled":false,"rental_uris":{"android":"levelo://app?vid=bd23b71a-da55-4b74-b9f9-519b4a0ea657","ios":"levelo://app?vid=bd23b71a-da55-4b74-b9f9-519b4a0ea657"},"vehicle_type_id":"4","last_reported":1742980225,"current_range_meters":4000,"station_id":"ce4bhhp2rcd13ifvqfm0","pricing_plan_id":"cebpf4jnsgd1na2vs0mg"},{"bike_id":"32f54dc6-3413-47f1-9b2d-810e06f763c7","system_id":"levelo_inurba_marseille","lat":43.29265,"lon":5.40896,"is_reserved":false,"is_disabled":false,"rental_uris":{"android":"levelo://app?vid=32f54dc6-3413-47f1-9b2d-810e06f763c7","ios":"levelo://app?vid=32f54dc6-3413-47f1-9b2d-810e06f763c7"},"vehicle_type_id":"4","last_reported":1742980225,"current_range_meters":4000,"station_id":"ce4bh192rcd13ifvqdc0","pricing_plan_id":"cebpf4jnsgd1na2vs0mg"},{"bike_id":"02c642d0-bab7-4205-b1fb-4419adeb4af1","system_id":"levelo_inurba_marseille","lat":43.29042,"lon":5.356,"is_reserved":false,"is_disabled":true,"rental_uris":{"android":"levelo://app?vid=02c642d0-bab7-4205-b1fb-4419adeb4af1","ios":"levelo://app?vid=02c642d0-bab7-4205-b1fb-4419adeb4af1"},"vehicle_type_id":"4","last_reported":1742980225,"current_range_meters":4000,"station_id":"","pricing_plan_id":"cebpf4jnsgd1na2vs0mg"},{"bike_id":"092dfe83-96ca-4e7f-aa20-d64e440ff664","system_id":"levelo_inurba_marseille","lat":43.26953,"lon":5.3864,"is_reserved":false,"is_disabled":false,"rental_uris":{"android":"levelo://app?vid=092dfe83-96ca-4e7f-aa20-d64e440ff664","ios":"levelo://app?vid=092dfe83-96ca-4e7f-aa20-d64e440ff664"},"vehicle_type_id":"4","last_reported":1742980225,"current_range_meters":4000,"station_id":"ce4bhh92rcd13ifvqfh0","pricing_plan_id":"cebpf4jnsgd1na2vs0mg"},{"bike_id":"4c5d380a-5623-45b3-a218-f3fc2c6865c6","system_id":"levelo_inurba_marseille","lat":43.30463,"lon":5.37903,"is_reserved":false,"is_disabled":false,"rental_uris":{"android":"levelo://app?vid=4c5d380a-5623-45b3-a218-f3fc2c6865c6","ios":"levelo://app?vid=4c5d380a-5623-45b3-a218-f3fc2c6865c6"},"vehicle_type_id":"4","last_reported":1742980225,"current_range_meters":4400,"station_id":"ce4bgup2rcd13ifvqcn0","pricing_plan_id":"cebpf4jnsgd1na2vs0mg"},{"bike_id":"5eb00e60-b5d9-4a65-9bba-344db36c1e04","system_id":"levelo_inurba_marseille","lat":43.25829,"lon":5.39437,"is_reserved":false,"is_disabled":false,"rental_uris":{"android":"levelo://app?vid=5eb00e60-b5d9-4a65-9bba-344db36c1e04","ios":"levelo://app?vid=5eb00e60-b5d9-4a65-9bba-344db36c1e04"},"vehicle_type_id":"4","last_reported":1742980225,"current_range_meters":4400,"station_id":"ce4bhip2rcd13ifvqft0","pricing_plan_id":"cebpf4jnsgd1na2vs0mg"},{"bike_id":"c2826a42-9611-4d76-9da5-0170521c0d18","system_id":"levelo_inurba_marseille","lat":43.24088,"lon":5.3776,"is_reserved":false,"is_disabled":false,"rental_uris":{"android":"levelo://app?vid=c2826a42-9611-4d76-9da5-0170521c0d18","ios":"levelo://app?vid=c2826a42-9611-4d76-9da5-0170521c0d18"},"vehicle_type_id":"4","last_reported":1742980225,"current_range_meters":4400,"station_id":"ce4bhnp2rcd13ifvqgvg","pricing_plan_id":"cebpf4jnsgd1na2vs0mg"},{"bike_id":"71f21b44-3eb7-4439-bde2-3e801932d863","system_id":"levelo_inurba_marseille","lat":43.23195,"lon":5.3555,"is_reserved":false,"is_disabled":false,"rental_uris":{"android":"levelo://app?vid=71f21b44-3eb7-4439-bde2-3e801932d863","ios":"levelo://app?vid=71f21b44-3eb7-4439-bde2-3e801932d863"},"vehicle_type_id":"4","last_reported":1742980225,"current_range_meters":4400,"station_id":"ce4bhu92rcd13ifvqi70","pricing_plan_id":"cebpf4jnsgd1na2vs0mg"},{"bike_id":"bc9e59da-24a5-43b2-9344-e686036c5b53","system_id":"levelo_inurba_marseille","lat":43.260665,"lon":5.394058,"is_reserved":false,"is_disabled":false,"rental_uris":{"android":"levelo://app?vid=bc9e59da-24a5-43b2-9344-e686036c5b53","ios":"levelo://app?vid=bc9e59da-24a5-43b2-9344-e686036c5b53"},"vehicle_type_id":"4","last_reported":1742980225,"current_range_meters":4400,"station_id":"ce4bhh92rcd13ifvqfj0","pricing_plan_id":"cebpf4jnsgd1na2vs0mg"},{"bike_id":"4be91bdf-77cf-4c4c-9ae8-a8a21f986d67","system_id":"levelo_inurba_marseille","lat":43.291825,"lon":5.382977,"is_reserved":false,"is_disabled":false,"rental_uris":{"android":"levelo://app?vid=4be91bdf-77cf-4c4c-9ae8-a8a21f986d67","ios":"levelo://app?vid=4be91bdf-77cf-4c4c-9ae8-a8a21f986d67"},"vehicle_type_id":"4","last_reported":1742980225,"current_range_meters":4400,"station_id":"ce4bh692rcd13ifvqea0","pricing_plan_id":"cebpf4jnsgd1na2vs0mg"},{"bike_id":"66f69882-9bc0-4f69-af42-1e4faa3ed134","system_id":"levelo_inurba_marseille","lat":43.29888,"lon":5.4367,"is_reserved":false,"is_disabled":false,"rental_uris":{"android":"levelo://app?vid=66f69882-9bc0-4f69-af42-1e4faa3ed134","ios":"levelo://app?vid=66f69882-9bc0-4f69-af42-1e4faa3ed134"},"vehicle_type_id":"4","last_reported":1742980225,"current_range_meters":4800,"station_id":"ce4bhpp2rcd13ifvqhfg","pricing_plan_id":"cebpf4jnsgd1na2vs0mg"},{"bike_id":"ef43d9bd-e531-4a59-b8a9-fdc80b41fa34","system_id":"levelo_inurba_marseille","lat":43.31288,"lon":5.40166,"is_reserved":false,"is_disabled":true,"rental_uris":{"android":"levelo://app?vid=ef43d9bd-e531-4a59-b8a9-fdc80b41fa34","ios":"levelo://app?vid=ef43d9bd-e531-4a59-b8a9-fdc80b41fa34"},"vehicle_type_id":"4","last_reported":1742980225,"current_range_meters":4800,"station_id":"ce4bh092rcd13ifvqd30","pricing_plan_id":"cebpf4jnsgd1na2vs0mg"},{"bike_id":"38e476a3-7fa7-42ff-bc10-2fcb40220abd","system_id":"levelo_inurba_marseille","lat":43.23214,"lon":5.35547,"is_reserved":false,"is_disabled":false,"rental_uris":{"android":"levelo://app?vid=38e476a3-7fa7-42ff-bc10-2fcb40220abd","ios":"levelo://app?vid=38e476a3-7fa7-42ff-bc10-2fcb40220abd"},"vehicle_type_id":"4","last_reported":1742980225,"current_range_meters":4800,"station_id":"ce4bhu92rcd13ifvqi70","pricing_plan_id":"cebpf4jnsgd1na2vs0mg"},{"bike_id":"5a38931b-2d7b-4bf3-8299-4a90c2fd7d7b","system_id":"levelo_inurba_marseille","lat":43.24072,"lon":5.37768,"is_reserved":false,"is_disabled":false,"rental_uris":{"android":"levelo://app?vid=5a38931b-2d7b-4bf3-8299-4a90c2fd7d7b","ios":"levelo://app?vid=5a38931b-2d7b-4bf3-8299-4a90c2fd7d7b"},"vehicle_type_id":"4","last_reported":1742980225,"current_range_meters":4800,"station_id":"ce4bhnp2rcd13ifvqgvg","pricing_plan_id":"cebpf4jnsgd1na2vs0mg"},{"bike_id":"2a00e69f-e8f0-4293-a71f-9f6c011d4f23","system_id":"levelo_inurba_marseille","lat":43.25018,"lon":5.38926,"is_reserved":false,"is_disabled":false,"rental_uris":{"android":"levelo://app?vid=2a00e69f-e8f0-4293-a71f-9f6c011d4f23","ios":"levelo://app?vid=2a00e69f-e8f0-4293-a71f-9f6c011d4f23"},"vehicle_type_id":"4","last_reported":1742980225,"current_range_meters":5600,"station_id":"ce4bhgp2rcd13ifvqfd0","pricing_plan_id":"cebpf4jnsgd1na2vs0mg"},{"bike_id":"a0d4632a-7a87-4031-aeeb-061ca0feaca6","system_id":"levelo_inurba_marseille","lat":43.239605,"lon":5.366244,"is_reserved":false,"is_disabled":false,"rental_uris":{"android":"levelo://app?vid=a0d4632a-7a87-4031-aeeb-061ca0feaca6","ios":"levelo://app?vid=a0d4632a-7a87-4031-aeeb-061ca0feaca6"},"vehicle_type_id":"4","last_reported":1742980225,"current_range_meters":5600,"station_id":"ce4bhi12rcd13ifvqfp0","pricing_plan_id":"cebpf4jnsgd1na2vs0mg"},{"bike_id":"96f77a4d-ec9e-4346-a23d-d0e6a21a823f","system_id":"levelo_inurba_marseille","lat":43.29679,"lon":5.3771,"is_reserved":false,"is_disabled":false,"rental_uris":{"android":"levelo://app?vid=96f77a4d-ec9e-4346-a23d-d0e6a21a823f","ios":"levelo://app?vid=96f77a4d-ec9e-4346-a23d-d0e6a21a823f"},"vehicle_type_id":"4","last_reported":1742980225,"current_range_meters":5600,"station_id":"ce4bgkh2rcd13ifvqbl0","pricing_plan_id":"cebpf4jnsgd1na2vs0mg"},{"bike_id":"bb48c2af-e710-4619-a63c-47618231d7de","system_id":"levelo_inurba_marseille","lat":43.29301,"lon":5.37451,"is_reserved":false,"is_disabled":false,"rental_uris":{"android":"levelo://app?vid=bb48c2af-e710-4619-a63c-47618231d7de","ios":"levelo://app?vid=bb48c2af-e710-4619-a63c-47618231d7de"},"vehicle_type_id":"4","last_reported":1742980225,"current_range_meters":5600,"station_id":"ce4bgi12rcd13ifvqb70","pricing_plan_id":"cebpf4jnsgd1na2vs0mg"},{"bike_id":"731571a8-8570-46cf-8be8-be6fb950820d","system_id":"levelo_inurba_marseille","lat":43.30561,"lon":5.36716,"is_reserved":false,"is_disabled":false,"rental_uris":{"android":"levelo://app?vid=731571a8-8570-46cf-8be8-be6fb950820d","ios":"levelo://app?vid=731571a8-8570-46cf-8be8-be6fb950820d"},"vehicle_type_id":"4","last_reported":1742980225,"current_range_meters":5600,"station_id":"ce4bgrp2rcd13ifvqc9g","pricing_plan_id":"cebpf4jnsgd1na2vs0mg"},{"bike_id":"52d363fe-5316-4f57-b127-d18678d2192d","system_id":"levelo_inurba_marseille","lat":43.30329,"lon":5.36909,"is_reserved":false,"is_disabled":false,"rental_uris":{"android":"levelo://app?vid=52d363fe-5316-4f57-b127-d18678d2192d","ios":"levelo://app?vid=52d363fe-5316-4f57-b127-d18678d2192d"},"vehicle_type_id":"4","last_reported":1742980225,"current_range_meters":5600,"station_id":"ce4bgqh2rcd13ifvqc5g","pricing_plan_id":"cebpf4jnsgd1na2vs0mg"},{"bike_id":"b3a886ee-88d8-49ee-b715-80e76b320971","system_id":"levelo_inurba_marseille","lat":43.295835,"lon":5.367435,"is_reserved":false,"is_disabled":false,"rental_uris":{"android":"levelo://app?vid=b3a886ee-88d8-49ee-b715-80e76b320971","ios":"levelo://app?vid=b3a886ee-88d8-49ee-b715-80e76b320971"},"vehicle_type_id":"4","last_reported":1742980225,"current_range_meters":6000,"station_id":"ce4bgph2rcd13ifvqc2g","pricing_plan_id":"cebpf4jnsgd1na2vs0mg"},{"bike_id":"f0dc1799-be0b-41f2-87a2-bbe5c38b40e1","system_id":"levelo_inurba_marseille","lat":43.30598,"lon":5.3935,"is_reserved":false,"is_disabled":true,"rental_uris":{"android":"levelo://app?vid=f0dc1799-be0b-41f2-87a2-bbe5c38b40e1","ios":"levelo://app?vid=f0dc1799-be0b-41f2-87a2-bbe5c38b40e1"},"vehicle_type_id":"4","last_reported":1742980225,"current_range_meters":6000,"station_id":"ce4bh0p2rcd13ifvqd80","pricing_plan_id":"cebpf4jnsgd1na2vs0mg"},{"bike_id":"3f3dc18c-6df6-4f10-bdb6-bb2ee80a2e60","system_id":"levelo_inurba_marseille","lat":43.27198,"lon":5.39183,"is_reserved":false,"is_disabled":false,"rental_uris":{"android":"levelo://app?vid=3f3dc18c-6df6-4f10-bdb6-bb2ee80a2e60","ios":"levelo://app?vid=3f3dc18c-6df6-4f10-bdb6-bb2ee80a2e60"},"vehicle_type_id":"4","last_reported":1742980225,"current_range_meters":6000,"station_id":"ce4bhhp2rcd13ifvqfm0","pricing_plan_id":"cebpf4jnsgd1na2vs0mg"},{"bike_id":"aec1d2be-86f6-4e60-beb2-de9c370350a2","system_id":"levelo_inurba_marseille","lat":43.30141,"lon":5.37408,"is_reserved":false,"is_disabled":false,"rental_uris":{"android":"levelo://app?vid=aec1d2be-86f6-4e60-beb2-de9c370350a2","ios":"levelo://app?vid=aec1d2be-86f6-4e60-beb2-de9c370350a2"},"vehicle_type_id":"4","last_reported":1742980225,"current_range_meters":6000,"station_id":"ce4bgs92rcd13ifvqcc0","pricing_plan_id":"cebpf4jnsgd1na2vs0mg"},{"bike_id":"c1342d82-cc37-454b-900b-cfaa0750256a","system_id":"levelo_inurba_marseille","lat":43.2847,"lon":5.35857,"is_reserved":false,"is_disabled":true,"rental_uris":{"android":"levelo://app?vid=c1342d82-cc37-454b-900b-cfaa0750256a","ios":"levelo://app?vid=c1342d82-cc37-454b-900b-cfaa0750256a"},"vehicle_type_id":"4","last_reported":1742980225,"current_range_meters":6000,"station_id":"ce4bhah2rcd13ifvqei0","pricing_plan_id":"cebpf4jnsgd1na2vs0mg"},{"bike_id":"0a3f2887-277b-4c92-93ad-1681993dc2c2","system_id":"levelo_inurba_marseille","lat":43.26569,"lon":5.39004,"is_reserved":false,"is_disabled":false,"rental_uris":{"android":"levelo://app?vid=0a3f2887-277b-4c92-93ad-1681993dc2c2","ios":"levelo://app?vid=0a3f2887-277b-4c92-93ad-1681993dc2c2"},"vehicle_type_id":"4","last_reported":1742980225,"current_range_meters":6000,"station_id":"ce4bhe12rcd13ifvqf30","pricing_plan_id":"cebpf4jnsgd1na2vs0mg"},{"bike_id":"b468cdc4-ed51-4226-af15-6e5f6f19fd8c","system_id":"levelo_inurba_marseille","lat":43.25811,"lon":5.39443,"is_reserved":false,"is_disabled":false,"rental_uris":{"android":"levelo://app?vid=b468cdc4-ed51-4226-af15-6e5f6f19fd8c","ios":"levelo://app?vid=b468cdc4-ed51-4226-af15-6e5f6f19fd8c"},"vehicle_type_id":"4","last_reported":1742980225,"current_range_meters":6400,"station_id":"ce4bhip2rcd13ifvqft0","pricing_plan_id":"cebpf4jnsgd1na2vs0mg"},{"bike_id":"19fdbebf-f11d-4ae8-a306-3b7c77193b59","system_id":"levelo_inurba_marseille","lat":43.30791,"lon":5.43535,"is_reserved":false,"is_disabled":false,"rental_uris":{"android":"levelo://app?vid=19fdbebf-f11d-4ae8-a306-3b7c77193b59","ios":"levelo://app?vid=19fdbebf-f11d-4ae8-a306-3b7c77193b59"},"vehicle_type_id":"4","last_reported":1742980225,"current_range_meters":6400,"station_id":"ce4bhph2rcd13ifvqheg","pricing_plan_id":"cebpf4jnsgd1na2vs0mg"},{"bike_id":"7bcb2fd7-af3e-47fb-9a8d-65ecca5aecdd","system_id":"levelo_inurba_marseille","lat":43.31353,"lon":5.36713,"is_reserved":false,"is_disabled":false,"rental_uris":{"android":"levelo://app?vid=7bcb2fd7-af3e-47fb-9a8d-65ecca5aecdd","ios":"levelo://app?vid=7bcb2fd7-af3e-47fb-9a8d-65ecca5aecdd"},"vehicle_type_id":"4","last_reported":1742980225,"current_range_meters":6400,"station_id":"ce4bgr92rcd13ifvqc6g","pricing_plan_id":"cebpf4jnsgd1na2vs0mg"},{"bike_id":"ae64d049-3c54-4b63-a552-b1e07d06f548","system_id":"levelo_inurba_marseille","lat":43.25731,"lon":5.41105,"is_reserved":false,"is_disabled":false,"rental_uris":{"android":"levelo://app?vid=ae64d049-3c54-4b63-a552-b1e07d06f548","ios":"levelo://app?vid=ae64d049-3c54-4b63-a552-b1e07d06f548"},"vehicle_type_id":"4","last_reported":1742980225,"current_range_meters":4800,"station_id":"ce4bho12rcd13ifvqh1g","pricing_plan_id":"cebpf4jnsgd1na2vs0mg"},{"bike_id":"b6fd1ec3-47b2-486f-8b84-f71e2b87ecef","system_id":"levelo_inurba_marseille","lat":43.31083,"lon":5.42428,"is_reserved":false,"is_disabled":true,"rental_uris":{"android":"levelo://app?vid=b6fd1ec3-47b2-486f-8b84-f71e2b87ecef","ios":"levelo://app?vid=b6fd1ec3-47b2-486f-8b84-f71e2b87ecef"},"vehicle_type_id":"4","last_reported":1742980225,"current_range_meters":6400,"station_id":"ce4bhp92rcd13ifvqhag","pricing_plan_id":"cebpf4jnsgd1na2vs0mg"},{"bike_id":"661ad638-f20a-4099-990d-7e316fc20bf4","system_id":"levelo_inurba_marseille","lat":43.24081,"lon":5.37752,"is_reserved":false,"is_disabled":false,"rental_uris":{"android":"levelo://app?vid=661ad638-f20a-4099-990d-7e316fc20bf4","ios":"levelo://app?vid=661ad638-f20a-4099-990d-7e316fc20bf4"},"vehicle_type_id":"4","last_reported":1742980225,"current_range_meters":6400,"station_id":"ce4bhnp2rcd13ifvqgvg","pricing_plan_id":"cebpf4jnsgd1na2vs0mg"},{"bike_id":"6014c8c5-d179-414f-ba5e-6122a0b3b802","system_id":"levelo_inurba_marseille","lat":43.231434,"lon":5.437225,"is_reserved":false,"is_disabled":false,"rental_uris":{"android":"levelo://app?vid=6014c8c5-d179-414f-ba5e-6122a0b3b802","ios":"levelo://app?vid=6014c8c5-d179-414f-ba5e-6122a0b3b802"},"vehicle_type_id":"4","last_reported":1742980225,"current_range_meters":6400,"station_id":"ce4bhmp2rcd13ifvqgog","pricing_plan_id":"cebpf4jnsgd1na2vs0mg"},{"bike_id":"27875274-e08a-4003-a497-08a6e40e0e54","system_id":"levelo_inurba_marseille","lat":43.31347,"lon":5.36712,"is_reserved":false,"is_disabled":false,"rental_uris":{"android":"levelo://app?vid=27875274-e08a-4003-a497-08a6e40e0e54","ios":"levelo://app?vid=27875274-e08a-4003-a497-08a6e40e0e54"},"vehicle_type_id":"4","last_reported":1742980225,"current_range_meters":6400,"station_id":"ce4bgr92rcd13ifvqc6g","pricing_plan_id":"cebpf4jnsgd1na2vs0mg"},{"bike_id":"298009fa-3dde-4b00-b35f-074033cfd422","system_id":"levelo_inurba_marseille","lat":43.30474,"lon":5.37907,"is_reserved":false,"is_disabled":false,"rental_uris":{"android":"levelo://app?vid=298009fa-3dde-4b00-b35f-074033cfd422","ios":"levelo://app?vid=298009fa-3dde-4b00-b35f-074033cfd422"},"vehicle_type_id":"4","last_reported":1742980225,"current_range_meters":6800,"station_id":"ce4bgup2rcd13ifvqcn0","pricing_plan_id":"cebpf4jnsgd1na2vs0mg"},{"bike_id":"2a99ecb7-4bf0-4c00-89bb-11ff019b8a6d","system_id":"levelo_inurba_marseille","lat":43.22932,"lon":5.35381,"is_reserved":false,"is_disabled":false,"rental_uris":{"android":"levelo://app?vid=2a99ecb7-4bf0-4c00-89bb-11ff019b8a6d","ios":"levelo://app?vid=2a99ecb7-4bf0-4c00-89bb-11ff019b8a6d"},"vehicle_type_id":"4","last_reported":1742980225,"current_range_meters":6800,"station_id":"cpo3532slgdg3j2ikp40","pricing_plan_id":"cebpf4jnsgd1na2vs0mg"},{"bike_id":"de122bcd-19fc-43a4-b91e-4dd2001b5c5a","system_id":"levelo_inurba_marseille","lat":43.30552,"lon":5.36687,"is_reserved":false,"is_disabled":false,"rental_uris":{"android":"levelo://app?vid=de122bcd-19fc-43a4-b91e-4dd2001b5c5a","ios":"levelo://app?vid=de122bcd-19fc-43a4-b91e-4dd2001b5c5a"},"vehicle_type_id":"4","last_reported":1742980225,"current_range_meters":6800,"station_id":"ce4bgrp2rcd13ifvqc9g","pricing_plan_id":"cebpf4jnsgd1na2vs0mg"},{"bike_id":"d9f7d8be-9425-4103-9342-1eabe2318a05","system_id":"levelo_inurba_marseille","lat":43.26684,"lon":5.38265,"is_reserved":false,"is_disabled":false,"rental_uris":{"android":"levelo://app?vid=d9f7d8be-9425-4103-9342-1eabe2318a05","ios":"levelo://app?vid=d9f7d8be-9425-4103-9342-1eabe2318a05"},"vehicle_type_id":"4","last_reported":1742980225,"current_range_meters":6800,"station_id":"ce4bhg92rcd13ifvqf90","pricing_plan_id":"cebpf4jnsgd1na2vs0mg"},{"bike_id":"9044c124-7f8b-4f46-92b4-6bb3bf42d405","system_id":"levelo_inurba_marseille","lat":43.24812,"lon":5.3746,"is_reserved":false,"is_disabled":false,"rental_uris":{"android":"levelo://app?vid=9044c124-7f8b-4f46-92b4-6bb3bf42d405","ios":"levelo://app?vid=9044c124-7f8b-4f46-92b4-6bb3bf42d405"},"vehicle_type_id":"4","last_reported":1742980225,"current_range_meters":6800,"station_id":"ce4bhgh2rcd13ifvqfb0","pricing_plan_id":"cebpf4jnsgd1na2vs0mg"},{"bike_id":"c2f7eae2-9f3b-483f-bacd-e79ac6fba4a9","system_id":"levelo_inurba_marseille","lat":43.2993,"lon":5.37488,"is_reserved":false,"is_disabled":false,"rental_uris":{"android":"levelo://app?vid=c2f7eae2-9f3b-483f-bacd-e79ac6fba4a9","ios":"levelo://app?vid=c2f7eae2-9f3b-483f-bacd-e79ac6fba4a9"},"vehicle_type_id":"4","last_reported":1742980225,"current_range_meters":6800,"station_id":"ce4bgjh2rcd13ifvqbg0","pricing_plan_id":"cebpf4jnsgd1na2vs0mg"},{"bike_id":"4391582d-58aa-45d7-9475-5c5bfbb8630c","system_id":"levelo_inurba_marseille","lat":43.30143,"lon":5.37414,"is_reserved":false,"is_disabled":false,"rental_uris":{"android":"levelo://app?vid=4391582d-58aa-45d7-9475-5c5bfbb8630c","ios":"levelo://app?vid=4391582d-58aa-45d7-9475-5c5bfbb8630c"},"vehicle_type_id":"4","last_reported":1742980225,"current_range_meters":6800,"station_id":"ce4bgs92rcd13ifvqcc0","pricing_plan_id":"cebpf4jnsgd1na2vs0mg"},{"bike_id":"dcbf3777-ef71-4e08-8260-3969029ce833","system_id":"levelo_inurba_marseille","lat":43.31345,"lon":5.36705,"is_reserved":false,"is_disabled":false,"rental_uris":{"android":"levelo://app?vid=dcbf3777-ef71-4e08-8260-3969029ce833","ios":"levelo://app?vid=dcbf3777-ef71-4e08-8260-3969029ce833"},"vehicle_type_id":"4","last_reported":1742980225,"current_range_meters":6800,"station_id":"ce4bgr92rcd13ifvqc6g","pricing_plan_id":"cebpf4jnsgd1na2vs0mg"},{"bike_id":"f63f5481-a6f7-4d46-af84-60ed21e786f8","system_id":"levelo_inurba_marseille","lat":43.284099,"lon":5.375047,"is_reserved":false,"is_disabled":false,"rental_uris":{"android":"levelo://app?vid=f63f5481-a6f7-4d46-af84-60ed21e786f8","ios":"levelo://app?vid=f63f5481-a6f7-4d46-af84-60ed21e786f8"},"vehicle_type_id":"4","last_reported":1742980225,"current_range_meters":6800,"station_id":"ce4bh412rcd13ifvqds0","pricing_plan_id":"cebpf4jnsgd1na2vs0mg"},{"bike_id":"22a21f30-f926-4b55-9440-4d8cdfed855e","system_id":"levelo_inurba_marseille","lat":43.25924,"lon":5.40904,"is_reserved":false,"is_disabled":false,"rental_uris":{"android":"levelo://app?vid=22a21f30-f926-4b55-9440-4d8cdfed855e","ios":"levelo://app?vid=22a21f30-f926-4b55-9440-4d8cdfed855e"},"vehicle_type_id":"4","last_reported":1742980225,"current_range_meters":7200,"station_id":"ce4bhm92rcd13ifvqglg","pricing_plan_id":"cebpf4jnsgd1na2vs0mg"},{"bike_id":"ccd7db91-2a06-4510-bd3a-6e7707ab1a6b","system_id":"levelo_inurba_marseille","lat":43.30951,"lon":5.39041,"is_reserved":false,"is_disabled":true,"rental_uris":{"android":"levelo://app?vid=ccd7db91-2a06-4510-bd3a-6e7707ab1a6b","ios":"levelo://app?vid=ccd7db91-2a06-4510-bd3a-6e7707ab1a6b"},"vehicle_type_id":"4","last_reported":1742980225,"current_range_meters":7200,"station_id":"ce4bgup2rcd13ifvqco0","pricing_plan_id":"cebpf4jnsgd1na2vs0mg"},{"bike_id":"360a067a-6d96-4d68-a6c5-eec71ba01945","system_id":"levelo_inurba_marseille","lat":43.337444,"lon":5.374475,"is_reserved":false,"is_disabled":false,"rental_uris":{"android":"levelo://app?vid=360a067a-6d96-4d68-a6c5-eec71ba01945","ios":"levelo://app?vid=360a067a-6d96-4d68-a6c5-eec71ba01945"},"vehicle_type_id":"4","last_reported":1742980225,"current_range_meters":7200,"station_id":"ce4bgqh2rcd13ifvqc4g","pricing_plan_id":"cebpf4jnsgd1na2vs0mg"},{"bike_id":"72297f85-fbfc-44cc-8430-07726aba3f87","system_id":"levelo_inurba_marseille","lat":43.26514,"lon":5.3953,"is_reserved":false,"is_disabled":false,"rental_uris":{"android":"levelo://app?vid=72297f85-fbfc-44cc-8430-07726aba3f87","ios":"levelo://app?vid=72297f85-fbfc-44cc-8430-07726aba3f87"},"vehicle_type_id":"4","last_reported":1742980225,"current_range_meters":7200,"station_id":"ce4bhi12rcd13ifvqfq0","pricing_plan_id":"cebpf4jnsgd1na2vs0mg"},{"bike_id":"2f3e2a92-1301-4a27-8eaa-7b0ea525530e","system_id":"levelo_inurba_marseille","lat":43.3168,"lon":5.4363,"is_reserved":false,"is_disabled":false,"rental_uris":{"android":"levelo://app?vid=2f3e2a92-1301-4a27-8eaa-7b0ea525530e","ios":"levelo://app?vid=2f3e2a92-1301-4a27-8eaa-7b0ea525530e"},"vehicle_type_id":"4","last_reported":1742980225,"current_range_meters":7200,"station_id":"","pricing_plan_id":"cebpf4jnsgd1na2vs0mg"},{"bike_id":"0c9cada4-2764-4013-a528-15089818cb84","system_id":"levelo_inurba_marseille","lat":43.27781,"lon":5.41163,"is_reserved":false,"is_disabled":false,"rental_uris":{"android":"levelo://app?vid=0c9cada4-2764-4013-a528-15089818cb84","ios":"levelo://app?vid=0c9cada4-2764-4013-a528-15089818cb84"},"vehicle_type_id":"4","last_reported":1742980225,"current_range_meters":7200,"station_id":"","pricing_plan_id":"cebpf4jnsgd1na2vs0mg"},{"bike_id":"c27804bd-f22b-4f5e-b0b6-7240b2cee169","system_id":"levelo_inurba_marseille","lat":43.23152,"lon":5.43716,"is_reserved":false,"is_disabled":false,"rental_uris":{"android":"levelo://app?vid=c27804bd-f22b-4f5e-b0b6-7240b2cee169","ios":"levelo://app?vid=c27804bd-f22b-4f5e-b0b6-7240b2cee169"},"vehicle_type_id":"4","last_reported":1742980225,"current_range_meters":7200,"station_id":"ce4bhmp2rcd13ifvqgog","pricing_plan_id":"cebpf4jnsgd1na2vs0mg"},{"bike_id":"ca59c07c-5b79-44c2-8b7b-45fa2de33c29","system_id":"levelo_inurba_marseille","lat":43.29276,"lon":5.36843,"is_reserved":false,"is_disabled":false,"rental_uris":{"android":"levelo://app?vid=ca59c07c-5b79-44c2-8b7b-45fa2de33c29","ios":"levelo://app?vid=ca59c07c-5b79-44c2-8b7b-45fa2de33c29"},"vehicle_type_id":"4","last_reported":1742980225,"current_range_meters":7200,"station_id":"ce4bhbp2rcd13ifvqesg","pricing_plan_id":"cebpf4jnsgd1na2vs0mg"},{"bike_id":"f9ccb95c-1e1e-4730-9226-b94025c62f3e","system_id":"levelo_inurba_marseille","lat":43.30557,"lon":5.36529,"is_reserved":false,"is_disabled":false,"rental_uris":{"android":"levelo://app?vid=f9ccb95c-1e1e-4730-9226-b94025c62f3e","ios":"levelo://app?vid=f9ccb95c-1e1e-4730-9226-b94025c62f3e"},"vehicle_type_id":"4","last_reported":1742980225,"current_range_meters":7200,"station_id":"ce4bgs12rcd13ifvqcag","pricing_plan_id":"cebpf4jnsgd1na2vs0mg"},{"bike_id":"9cce312a-1703-4bdb-aef7-e24e4f5509a1","system_id":"levelo_inurba_marseille","lat":43.29605,"lon":5.38107,"is_reserved":false,"is_disabled":false,"rental_uris":{"android":"levelo://app?vid=9cce312a-1703-4bdb-aef7-e24e4f5509a1","ios":"levelo://app?vid=9cce312a-1703-4bdb-aef7-e24e4f5509a1"},"vehicle_type_id":"4","last_reported":1742980225,"current_range_meters":7200,"station_id":"ce4bgl12rcd13ifvqbo0","pricing_plan_id":"cebpf4jnsgd1na2vs0mg"},{"bike_id":"cddb2d48-ad91-422a-9966-039925cdc3aa","system_id":"levelo_inurba_marseille","lat":43.30116,"lon":5.37439,"is_reserved":false,"is_disabled":false,"rental_uris":{"android":"levelo://app?vid=cddb2d48-ad91-422a-9966-039925cdc3aa","ios":"levelo://app?vid=cddb2d48-ad91-422a-9966-039925cdc3aa"},"vehicle_type_id":"4","last_reported":1742980225,"current_range_meters":7200,"station_id":"ce4bgs92rcd13ifvqcc0","pricing_plan_id":"cebpf4jnsgd1na2vs0mg"},{"bike_id":"77823725-c761-49bc-902c-64c32b686ae7","system_id":"levelo_inurba_marseille","lat":43.23063,"lon":5.35488,"is_reserved":false,"is_disabled":false,"rental_uris":{"android":"levelo://app?vid=77823725-c761-49bc-902c-64c32b686ae7","ios":"levelo://app?vid=77823725-c761-49bc-902c-64c32b686ae7"},"vehicle_type_id":"4","last_reported":1742980225,"current_range_meters":7200,"station_id":"cpo3342slgdg3j2ifvpg","pricing_plan_id":"cebpf4jnsgd1na2vs0mg"},{"bike_id":"bb8ab43e-d77e-40ca-92f3-39f857d462c7","system_id":"levelo_inurba_marseille","lat":43.29234,"lon":5.36141,"is_reserved":false,"is_disabled":false,"rental_uris":{"android":"levelo://app?vid=bb8ab43e-d77e-40ca-92f3-39f857d462c7","ios":"levelo://app?vid=bb8ab43e-d77e-40ca-92f3-39f857d462c7"},"vehicle_type_id":"4","last_reported":1742980225,"current_range_meters":7200,"station_id":"","pricing_plan_id":"cebpf4jnsgd1na2vs0mg"},{"bike_id":"8ab522e9-837c-4f4a-afeb-39aaf0d1e599","system_id":"levelo_inurba_marseille","lat":43.27497,"lon":5.4245,"is_reserved":false,"is_disabled":false,"rental_uris":{"android":"levelo://app?vid=8ab522e9-837c-4f4a-afeb-39aaf0d1e599","ios":"levelo://app?vid=8ab522e9-837c-4f4a-afeb-39aaf0d1e599"},"vehicle_type_id":"4","last_reported":1742980225,"current_range_meters":8000,"station_id":"ce4bhn92rcd13ifvqgrg","pricing_plan_id":"cebpf4jnsgd1na2vs0mg"},{"bike_id":"5eb0e2f0-8111-4362-8b3d-f072323b11aa","system_id":"levelo_inurba_marseille","lat":43.28607,"lon":5.37075,"is_reserved":false,"is_disabled":false,"rental_uris":{"android":"levelo://app?vid=5eb0e2f0-8111-4362-8b3d-f072323b11aa","ios":"levelo://app?vid=5eb0e2f0-8111-4362-8b3d-f072323b11aa"},"vehicle_type_id":"4","last_reported":1742980225,"current_range_meters":8000,"station_id":"ce4bht12rcd13ifvqi60","pricing_plan_id":"cebpf4jnsgd1na2vs0mg"},{"bike_id":"f294d69a-8637-46e9-95b8-3d82151d6376","system_id":"levelo_inurba_marseille","lat":43.27989,"lon":5.41663,"is_reserved":false,"is_disabled":true,"rental_uris":{"android":"levelo://app?vid=f294d69a-8637-46e9-95b8-3d82151d6376","ios":"levelo://app?vid=f294d69a-8637-46e9-95b8-3d82151d6376"},"vehicle_type_id":"4","last_reported":1742980225,"current_range_meters":8000,"station_id":"ce4bho12rcd13ifvqh1g","pricing_plan_id":"cebpf4jnsgd1na2vs0mg"},{"bike_id":"c63ac188-bce8-4039-bcdd-076e45bfbfb1","system_id":"levelo_inurba_marseille","lat":43.31233,"lon":5.3687,"is_reserved":false,"is_disabled":false,"rental_uris":{"android":"levelo://app?vid=c63ac188-bce8-4039-bcdd-076e45bfbfb1","ios":"levelo://app?vid=c63ac188-bce8-4039-bcdd-076e45bfbfb1"},"vehicle_type_id":"4","last_reported":1742980225,"current_range_meters":8000,"station_id":"ce4bgl92rcd13ifvqbq0","pricing_plan_id":"cebpf4jnsgd1na2vs0mg"},{"bike_id":"40aea8ca-b5e5-4267-a1e3-f70f6de3777b","system_id":"levelo_inurba_marseille","lat":43.29084,"lon":5.38137,"is_reserved":false,"is_disabled":false,"rental_uris":{"android":"levelo://app?vid=40aea8ca-b5e5-4267-a1e3-f70f6de3777b","ios":"levelo://app?vid=40aea8ca-b5e5-4267-a1e3-f70f6de3777b"},"vehicle_type_id":"4","last_reported":1742980225,"current_range_meters":8000,"station_id":"ce4bhgp2rcd13ifvqfd0","pricing_plan_id":"cebpf4jnsgd1na2vs0mg"},{"bike_id":"0f0d42c3-84c8-4474-94d7-c3b433d9ecc5","system_id":"levelo_inurba_marseille","lat":43.26503,"lon":5.39531,"is_reserved":false,"is_disabled":false,"rental_uris":{"android":"levelo://app?vid=0f0d42c3-84c8-4474-94d7-c3b433d9ecc5","ios":"levelo://app?vid=0f0d42c3-84c8-4474-94d7-c3b433d9ecc5"},"vehicle_type_id":"4","last_reported":1742980225,"current_range_meters":8000,"station_id":"ce4bhi12rcd13ifvqfq0","pricing_plan_id":"cebpf4jnsgd1na2vs0mg"},{"bike_id":"37ab873a-5728-4fd5-b897-22fd63d8db9a","system_id":"levelo_inurba_marseille","lat":43.31356,"lon":5.36717,"is_reserved":false,"is_disabled":false,"rental_uris":{"android":"levelo://app?vid=37ab873a-5728-4fd5-b897-22fd63d8db9a","ios":"levelo://app?vid=37ab873a-5728-4fd5-b897-22fd63d8db9a"},"vehicle_type_id":"4","last_reported":1742980225,"current_range_meters":8000,"station_id":"ce4bgr92rcd13ifvqc6g","pricing_plan_id":"cebpf4jnsgd1na2vs0mg"},{"bike_id":"6633349b-54ae-41b8-88d5-61ec5d012302","system_id":"levelo_inurba_marseille","lat":43.321051,"lon":5.367757,"is_reserved":false,"is_disabled":false,"rental_uris":{"android":"levelo://app?vid=6633349b-54ae-41b8-88d5-61ec5d012302","ios":"levelo://app?vid=6633349b-54ae-41b8-88d5-61ec5d012302"},"vehicle_type_id":"4","last_reported":1742980225,"current_range_meters":8000,"station_id":"ce4bhrh2rcd13ifvqhug","pricing_plan_id":"cebpf4jnsgd1na2vs0mg"},{"bike_id":"5947461e-f1d9-4b8a-a16b-079c1e611686","system_id":"levelo_inurba_marseille","lat":43.2824,"lon":5.35082,"is_reserved":false,"is_disabled":true,"rental_uris":{"android":"levelo://app?vid=5947461e-f1d9-4b8a-a16b-079c1e611686","ios":"levelo://app?vid=5947461e-f1d9-4b8a-a16b-079c1e611686"},"vehicle_type_id":"4","last_reported":1742980225,"current_range_meters":8000,"station_id":"ce4bhbp2rcd13ifvqerg","pricing_plan_id":"cebpf4jnsgd1na2vs0mg"},{"bike_id":"74406c35-ee35-437d-be26-2d7711378046","system_id":"levelo_inurba_marseille","lat":43.32352,"lon":5.36743,"is_reserved":false,"is_disabled":false,"rental_uris":{"android":"levelo://app?vid=74406c35-ee35-437d-be26-2d7711378046","ios":"levelo://app?vid=74406c35-ee35-437d-be26-2d7711378046"},"vehicle_type_id":"4","last_reported":1742980225,"current_range_meters":8000,"station_id":"ce4bhsh2rcd13ifvqi2g","pricing_plan_id":"cebpf4jnsgd1na2vs0mg"},{"bike_id":"11438d8e-2d0f-46ba-9f5d-f2d8f9f5eadf","system_id":"levelo_inurba_marseille","lat":43.25078,"lon":5.39519,"is_reserved":false,"is_disabled":false,"rental_uris":{"android":"levelo://app?vid=11438d8e-2d0f-46ba-9f5d-f2d8f9f5eadf","ios":"levelo://app?vid=11438d8e-2d0f-46ba-9f5d-f2d8f9f5eadf"},"vehicle_type_id":"4","last_reported":1742980225,"current_range_meters":8000,"station_id":"ce4bhm12rcd13ifvqgkg","pricing_plan_id":"cebpf4jnsgd1na2vs0mg"},{"bike_id":"8c5e09de-c9ee-4ecd-8bf7-a9da954099c1","system_id":"levelo_inurba_marseille","lat":43.27983,"lon":5.40024,"is_reserved":false,"is_disabled":false,"rental_uris":{"android":"levelo://app?vid=8c5e09de-c9ee-4ecd-8bf7-a9da954099c1","ios":"levelo://app?vid=8c5e09de-c9ee-4ecd-8bf7-a9da954099c1"},"vehicle_type_id":"4","last_reported":1742980225,"current_range_meters":8000,"station_id":"ce4bho92rcd13ifvqh4g","pricing_plan_id":"cebpf4jnsgd1na2vs0mg"},{"bike_id":"30d2fbca-239f-49cd-b89b-17b0ba382ee0","system_id":"levelo_inurba_marseille","lat":43.24073,"lon":5.37748,"is_reserved":false,"is_disabled":false,"rental_uris":{"android":"levelo://app?vid=30d2fbca-239f-49cd-b89b-17b0ba382ee0","ios":"levelo://app?vid=30d2fbca-239f-49cd-b89b-17b0ba382ee0"},"vehicle_type_id":"4","last_reported":1742980225,"current_range_meters":8000,"station_id":"ce4bhnp2rcd13ifvqgvg","pricing_plan_id":"cebpf4jnsgd1na2vs0mg"},{"bike_id":"8046ef72-cb0a-400d-b1d8-b0250c67a0d7","system_id":"levelo_inurba_marseille","lat":43.24699,"lon":5.38141,"is_reserved":false,"is_disabled":false,"rental_uris":{"android":"levelo://app?vid=8046ef72-cb0a-400d-b1d8-b0250c67a0d7","ios":"levelo://app?vid=8046ef72-cb0a-400d-b1d8-b0250c67a0d7"},"vehicle_type_id":"4","last_reported":1742980225,"current_range_meters":8000,"station_id":"ce4bhih2rcd13ifvqfr0","pricing_plan_id":"cebpf4jnsgd1na2vs0mg"},{"bike_id":"23b433e7-d6f0-49f4-a2b6-908a39c14fc8","system_id":"levelo_inurba_marseille","lat":43.30538,"lon":5.36532,"is_reserved":false,"is_disabled":false,"rental_uris":{"android":"levelo://app?vid=23b433e7-d6f0-49f4-a2b6-908a39c14fc8","ios":"levelo://app?vid=23b433e7-d6f0-49f4-a2b6-908a39c14fc8"},"vehicle_type_id":"4","last_reported":1742980225,"current_range_meters":8000,"station_id":"ce4bgs12rcd13ifvqcag","pricing_plan_id":"cebpf4jnsgd1na2vs0mg"},{"bike_id":"89e75ed9-7f20-48f7-ad37-e0033e47c633","system_id":"levelo_inurba_marseille","lat":43.24653,"lon":5.38885,"is_reserved":false,"is_disabled":false,"rental_uris":{"android":"levelo://app?vid=89e75ed9-7f20-48f7-ad37-e0033e47c633","ios":"levelo://app?vid=89e75ed9-7f20-48f7-ad37-e0033e47c633"},"vehicle_type_id":"4","last_reported":1742980225,"current_range_meters":8000,"station_id":"ce4bhg12rcd13ifvqf60","pricing_plan_id":"cebpf4jnsgd1na2vs0mg"},{"bike_id":"c5a53012-3ad4-48af-9734-3592df1799d5","system_id":"levelo_inurba_marseille","lat":43.23195,"lon":5.35543,"is_reserved":false,"is_disabled":false,"rental_uris":{"android":"levelo://app?vid=c5a53012-3ad4-48af-9734-3592df1799d5","ios":"levelo://app?vid=c5a53012-3ad4-48af-9734-3592df1799d5"},"vehicle_type_id":"4","last_reported":1742980225,"current_range_meters":8400,"station_id":"ce4bhu92rcd13ifvqi70","pricing_plan_id":"cebpf4jnsgd1na2vs0mg"},{"bike_id":"e3b71eec-a3d0-4b61-8d59-4c56fb14f990","system_id":"levelo_inurba_marseille","lat":43.27486,"lon":5.4246,"is_reserved":false,"is_disabled":false,"rental_uris":{"android":"levelo://app?vid=e3b71eec-a3d0-4b61-8d59-4c56fb14f990","ios":"levelo://app?vid=e3b71eec-a3d0-4b61-8d59-4c56fb14f990"},"vehicle_type_id":"4","last_reported":1742980225,"current_range_meters":8400,"station_id":"ce4bhn92rcd13ifvqgrg","pricing_plan_id":"cebpf4jnsgd1na2vs0mg"},{"bike_id":"16e3790f-41b6-400e-8d88-6751ca433300","system_id":"levelo_inurba_marseille","lat":43.25003,"lon":5.38942,"is_reserved":false,"is_disabled":false,"rental_uris":{"android":"levelo://app?vid=16e3790f-41b6-400e-8d88-6751ca433300","ios":"levelo://app?vid=16e3790f-41b6-400e-8d88-6751ca433300"},"vehicle_type_id":"4","last_reported":1742980225,"current_range_meters":8400,"station_id":"ce4bhgp2rcd13ifvqfd0","pricing_plan_id":"cebpf4jnsgd1na2vs0mg"},{"bike_id":"11c734e9-f732-4450-9953-d83a554913c5","system_id":"levelo_inurba_marseille","lat":43.29794,"lon":5.37104,"is_reserved":false,"is_disabled":false,"rental_uris":{"android":"levelo://app?vid=11c734e9-f732-4450-9953-d83a554913c5","ios":"levelo://app?vid=11c734e9-f732-4450-9953-d83a554913c5"},"vehicle_type_id":"4","last_reported":1742980225,"current_range_meters":8400,"station_id":"ce4bgop2rcd13ifvqc1g","pricing_plan_id":"cebpf4jnsgd1na2vs0mg"},{"bike_id":"09a98c1c-04c0-4f35-98d3-aed6f1a61ff9","system_id":"levelo_inurba_marseille","lat":43.31497,"lon":5.37298,"is_reserved":false,"is_disabled":false,"rental_uris":{"android":"levelo://app?vid=09a98c1c-04c0-4f35-98d3-aed6f1a61ff9","ios":"levelo://app?vid=09a98c1c-04c0-4f35-98d3-aed6f1a61ff9"},"vehicle_type_id":"4","last_reported":1742980225,"current_range_meters":8400,"station_id":"ce4bgt12rcd13ifvqcd0","pricing_plan_id":"cebpf4jnsgd1na2vs0mg"},{"bike_id":"2a284af8-dd2b-4fd4-ba94-d7c9236a4eac","system_id":"levelo_inurba_marseille","lat":43.29505,"lon":5.37523,"is_reserved":false,"is_disabled":false,"rental_uris":{"android":"levelo://app?vid=2a284af8-dd2b-4fd4-ba94-d7c9236a4eac","ios":"levelo://app?vid=2a284af8-dd2b-4fd4-ba94-d7c9236a4eac"},"vehicle_type_id":"4","last_reported":1742980225,"current_range_meters":8400,"station_id":"ce4bgkp2rcd13ifvqbmg","pricing_plan_id":"cebpf4jnsgd1na2vs0mg"},{"bike_id":"b552983c-06ba-4b69-a9c7-29e216a38c4c","system_id":"levelo_inurba_marseille","lat":43.30961,"lon":5.39044,"is_reserved":false,"is_disabled":false,"rental_uris":{"android":"levelo://app?vid=b552983c-06ba-4b69-a9c7-29e216a38c4c","ios":"levelo://app?vid=b552983c-06ba-4b69-a9c7-29e216a38c4c"},"vehicle_type_id":"4","last_reported":1742980225,"current_range_meters":8400,"station_id":"ce4bgup2rcd13ifvqco0","pricing_plan_id":"cebpf4jnsgd1na2vs0mg"},{"bike_id":"a5a388db-96e3-49b4-84c4-5143f4a888d4","system_id":"levelo_inurba_marseille","lat":43.30185,"lon":5.36624,"is_reserved":false,"is_disabled":false,"rental_uris":{"android":"levelo://app?vid=a5a388db-96e3-49b4-84c4-5143f4a888d4","ios":"levelo://app?vid=a5a388db-96e3-49b4-84c4-5143f4a888d4"},"vehicle_type_id":"4","last_reported":1742980225,"current_range_meters":6800,"station_id":"ce4bgrh2rcd13ifvqc8g","pricing_plan_id":"cebpf4jnsgd1na2vs0mg"},{"bike_id":"338ef5ef-6ed0-4719-a7ea-82be458e61b4","system_id":"levelo_inurba_marseille","lat":43.24393,"lon":5.3705,"is_reserved":false,"is_disabled":false,"rental_uris":{"android":"levelo://app?vid=338ef5ef-6ed0-4719-a7ea-82be458e61b4","ios":"levelo://app?vid=338ef5ef-6ed0-4719-a7ea-82be458e61b4"},"vehicle_type_id":"4","last_reported":1742980225,"current_range_meters":8800,"station_id":"ce4bhhh2rcd13ifvqfk0","pricing_plan_id":"cebpf4jnsgd1na2vs0mg"},{"bike_id":"6c1623d8-7c1c-4afb-9289-83b9abae8919","system_id":"levelo_inurba_marseille","lat":43.24071,"lon":5.37762,"is_reserved":false,"is_disabled":false,"rental_uris":{"android":"levelo://app?vid=6c1623d8-7c1c-4afb-9289-83b9abae8919","ios":"levelo://app?vid=6c1623d8-7c1c-4afb-9289-83b9abae8919"},"vehicle_type_id":"4","last_reported":1742980225,"current_range_meters":8800,"station_id":"ce4bhnp2rcd13ifvqgvg","pricing_plan_id":"cebpf4jnsgd1na2vs0mg"},{"bike_id":"127deccd-e3a0-488f-80ac-e0b392c59b5e","system_id":"levelo_inurba_marseille","lat":43.303037,"lon":5.392098,"is_reserved":false,"is_disabled":false,"rental_uris":{"android":"levelo://app?vid=127deccd-e3a0-488f-80ac-e0b392c59b5e","ios":"levelo://app?vid=127deccd-e3a0-488f-80ac-e0b392c59b5e"},"vehicle_type_id":"4","last_reported":1742980225,"current_range_meters":8800,"station_id":"ce4bgh92rcd13ifvqb40","pricing_plan_id":"cebpf4jnsgd1na2vs0mg"},{"bike_id":"ef1feedc-5425-4f50-a645-66f231623a5e","system_id":"levelo_inurba_marseille","lat":43.33587,"lon":5.40993,"is_reserved":false,"is_disabled":false,"rental_uris":{"android":"levelo://app?vid=ef1feedc-5425-4f50-a645-66f231623a5e","ios":"levelo://app?vid=ef1feedc-5425-4f50-a645-66f231623a5e"},"vehicle_type_id":"4","last_reported":1742980225,"current_range_meters":8400,"station_id":"ce4bhqh2rcd13ifvqhmg","pricing_plan_id":"cebpf4jnsgd1na2vs0mg"},{"bike_id":"c49c8986-30f2-4efb-b4f1-0fe63f1c68d0","system_id":"levelo_inurba_marseille","lat":43.312263,"lon":5.36866,"is_reserved":false,"is_disabled":false,"rental_uris":{"android":"levelo://app?vid=c49c8986-30f2-4efb-b4f1-0fe63f1c68d0","ios":"levelo://app?vid=c49c8986-30f2-4efb-b4f1-0fe63f1c68d0"},"vehicle_type_id":"4","last_reported":1742980225,"current_range_meters":8800,"station_id":"ce4bgl92rcd13ifvqbq0","pricing_plan_id":"cebpf4jnsgd1na2vs0mg"},{"bike_id":"18a55842-e267-4efe-aff4-a7141869978c","system_id":"levelo_inurba_marseille","lat":43.231772,"lon":5.399894,"is_reserved":false,"is_disabled":false,"rental_uris":{"android":"levelo://app?vid=18a55842-e267-4efe-aff4-a7141869978c","ios":"levelo://app?vid=18a55842-e267-4efe-aff4-a7141869978c"},"vehicle_type_id":"4","last_reported":1742980225,"current_range_meters":8800,"station_id":"","pricing_plan_id":"cebpf4jnsgd1na2vs0mg"},{"bike_id":"3082883e-716b-4940-977a-23703e6964ed","system_id":"levelo_inurba_marseille","lat":43.31337,"lon":5.39685,"is_reserved":false,"is_disabled":true,"rental_uris":{"android":"levelo://app?vid=3082883e-716b-4940-977a-23703e6964ed","ios":"levelo://app?vid=3082883e-716b-4940-977a-23703e6964ed"},"vehicle_type_id":"4","last_reported":1742980225,"current_range_meters":8800,"station_id":"ce4bgvp2rcd13ifvqcu0","pricing_plan_id":"cebpf4jnsgd1na2vs0mg"},{"bike_id":"494edb5c-8886-472a-b4b2-0033adc0ccbd","system_id":"levelo_inurba_marseille","lat":43.231757,"lon":5.399887,"is_reserved":false,"is_disabled":false,"rental_uris":{"android":"levelo://app?vid=494edb5c-8886-472a-b4b2-0033adc0ccbd","ios":"levelo://app?vid=494edb5c-8886-472a-b4b2-0033adc0ccbd"},"vehicle_type_id":"4","last_reported":1742980225,"current_range_meters":8800,"station_id":"ce4bhn12rcd13ifvqgqg","pricing_plan_id":"cebpf4jnsgd1na2vs0mg"},{"bike_id":"c16ec384-cc35-4949-bf8a-e4271ebe9984","system_id":"levelo_inurba_marseille","lat":43.31347,"lon":5.3671,"is_reserved":false,"is_disabled":false,"rental_uris":{"android":"levelo://app?vid=c16ec384-cc35-4949-bf8a-e4271ebe9984","ios":"levelo://app?vid=c16ec384-cc35-4949-bf8a-e4271ebe9984"},"vehicle_type_id":"4","last_reported":1742980225,"current_range_meters":8800,"station_id":"ce4bgr92rcd13ifvqc6g","pricing_plan_id":"cebpf4jnsgd1na2vs0mg"},{"bike_id":"cfa70219-598e-4d76-b57d-6a178556abe4","system_id":"levelo_inurba_marseille","lat":43.29841,"lon":5.36267,"is_reserved":false,"is_disabled":false,"rental_uris":{"android":"levelo://app?vid=cfa70219-598e-4d76-b57d-6a178556abe4","ios":"levelo://app?vid=cfa70219-598e-4d76-b57d-6a178556abe4"},"vehicle_type_id":"4","last_reported":1742980225,"current_range_meters":9200,"station_id":"ce4bgpp2rcd13ifvqc3g","pricing_plan_id":"cebpf4jnsgd1na2vs0mg"},{"bike_id":"0212deb9-29f3-4a07-9e8b-5135c180a147","system_id":"levelo_inurba_marseille","lat":43.301406,"lon":5.380921,"is_reserved":false,"is_disabled":false,"rental_uris":{"android":"levelo://app?vid=0212deb9-29f3-4a07-9e8b-5135c180a147","ios":"levelo://app?vid=0212deb9-29f3-4a07-9e8b-5135c180a147"},"vehicle_type_id":"4","last_reported":1742980225,"current_range_meters":9200,"station_id":"ce4bgjp2rcd13ifvqbh0","pricing_plan_id":"cebpf4jnsgd1na2vs0mg"},{"bike_id":"1c058c5f-2dec-42f5-9437-366d59841df3","system_id":"levelo_inurba_marseille","lat":43.309105,"lon":5.368428,"is_reserved":false,"is_disabled":false,"rental_uris":{"android":"levelo://app?vid=1c058c5f-2dec-42f5-9437-366d59841df3","ios":"levelo://app?vid=1c058c5f-2dec-42f5-9437-366d59841df3"},"vehicle_type_id":"4","last_reported":1742980225,"current_range_meters":9200,"station_id":"ce4bgn92rcd13ifvqbvg","pricing_plan_id":"cebpf4jnsgd1na2vs0mg"},{"bike_id":"886eeead-2d62-4b60-ad17-0ac5aff862e9","system_id":"levelo_inurba_marseille","lat":43.30959,"lon":5.39032,"is_reserved":false,"is_disabled":false,"rental_uris":{"android":"levelo://app?vid=886eeead-2d62-4b60-ad17-0ac5aff862e9","ios":"levelo://app?vid=886eeead-2d62-4b60-ad17-0ac5aff862e9"},"vehicle_type_id":"4","last_reported":1742980225,"current_range_meters":9600,"station_id":"ce4bgup2rcd13ifvqco0","pricing_plan_id":"cebpf4jnsgd1na2vs0mg"},{"bike_id":"a2052c52-cd84-4f87-b704-4dd37901bb75","system_id":"levelo_inurba_marseille","lat":43.28442,"lon":5.35901,"is_reserved":false,"is_disabled":true,"rental_uris":{"android":"levelo://app?vid=a2052c52-cd84-4f87-b704-4dd37901bb75","ios":"levelo://app?vid=a2052c52-cd84-4f87-b704-4dd37901bb75"},"vehicle_type_id":"4","last_reported":1742980225,"current_range_meters":9600,"station_id":"ce4bhah2rcd13ifvqei0","pricing_plan_id":"cebpf4jnsgd1na2vs0mg"},{"bike_id":"abd8fd5c-549a-4d06-af65-1a9cc709c124","system_id":"levelo_inurba_marseille","lat":43.27213,"lon":5.3919,"is_reserved":false,"is_disabled":false,"rental_uris":{"android":"levelo://app?vid=abd8fd5c-549a-4d06-af65-1a9cc709c124","ios":"levelo://app?vid=abd8fd5c-549a-4d06-af65-1a9cc709c124"},"vehicle_type_id":"4","last_reported":1742980225,"current_range_meters":9600,"station_id":"ce4bhhp2rcd13ifvqfm0","pricing_plan_id":"cebpf4jnsgd1na2vs0mg"},{"bike_id":"b10a8c40-550e-4072-a4c6-55da87e1264d","system_id":"levelo_inurba_marseille","lat":43.231657,"lon":5.436744,"is_reserved":false,"is_disabled":false,"rental_uris":{"android":"levelo://app?vid=b10a8c40-550e-4072-a4c6-55da87e1264d","ios":"levelo://app?vid=b10a8c40-550e-4072-a4c6-55da87e1264d"},"vehicle_type_id":"4","last_reported":1742980225,"current_range_meters":9600,"station_id":"","pricing_plan_id":"cebpf4jnsgd1na2vs0mg"},{"bike_id":"407a8141-59c8-4ce0-bd40-6deb4e5aec1d","system_id":"levelo_inurba_marseille","lat":43.25925,"lon":5.40898,"is_reserved":false,"is_disabled":false,"rental_uris":{"android":"levelo://app?vid=407a8141-59c8-4ce0-bd40-6deb4e5aec1d","ios":"levelo://app?vid=407a8141-59c8-4ce0-bd40-6deb4e5aec1d"},"vehicle_type_id":"4","last_reported":1742980225,"current_range_meters":9600,"station_id":"ce4bhm92rcd13ifvqglg","pricing_plan_id":"cebpf4jnsgd1na2vs0mg"},{"bike_id":"70344d0b-4b6b-42c1-ac8f-1e9ab0a610ba","system_id":"levelo_inurba_marseille","lat":43.24809,"lon":5.37447,"is_reserved":false,"is_disabled":false,"rental_uris":{"android":"levelo://app?vid=70344d0b-4b6b-42c1-ac8f-1e9ab0a610ba","ios":"levelo://app?vid=70344d0b-4b6b-42c1-ac8f-1e9ab0a610ba"},"vehicle_type_id":"4","last_reported":1742980225,"current_range_meters":9200,"station_id":"ce4bhgh2rcd13ifvqfb0","pricing_plan_id":"cebpf4jnsgd1na2vs0mg"},{"bike_id":"ee28380f-2566-499f-8ab8-5a75cb1ed72f","system_id":"levelo_inurba_marseille","lat":43.288329,"lon":5.393258,"is_reserved":false,"is_disabled":true,"rental_uris":{"android":"levelo://app?vid=ee28380f-2566-499f-8ab8-5a75cb1ed72f","ios":"levelo://app?vid=ee28380f-2566-499f-8ab8-5a75cb1ed72f"},"vehicle_type_id":"4","last_reported":1742980225,"current_range_meters":9600,"station_id":"","pricing_plan_id":"cebpf4jnsgd1na2vs0mg"},{"bike_id":"f181af96-707a-4f2c-ada9-dc4b5f236092","system_id":"levelo_inurba_marseille","lat":43.29545,"lon":5.42259,"is_reserved":false,"is_disabled":false,"rental_uris":{"android":"levelo://app?vid=f181af96-707a-4f2c-ada9-dc4b5f236092","ios":"levelo://app?vid=f181af96-707a-4f2c-ada9-dc4b5f236092"},"vehicle_type_id":"4","last_reported":1742980225,"current_range_meters":9600,"station_id":"ce4bhph2rcd13ifvqhdg","pricing_plan_id":"cebpf4jnsgd1na2vs0mg"},{"bike_id":"fa14eb3a-1fdb-4bc8-8092-af468e8ded60","system_id":"levelo_inurba_marseille","lat":43.2799,"lon":5.4003,"is_reserved":false,"is_disabled":false,"rental_uris":{"android":"levelo://app?vid=fa14eb3a-1fdb-4bc8-8092-af468e8ded60","ios":"levelo://app?vid=fa14eb3a-1fdb-4bc8-8092-af468e8ded60"},"vehicle_type_id":"4","last_reported":1742980225,"current_range_meters":9600,"station_id":"ce4bho92rcd13ifvqh4g","pricing_plan_id":"cebpf4jnsgd1na2vs0mg"},{"bike_id":"68254b2f-a8ae-4baa-bc07-7b79f85032f3","system_id":"levelo_inurba_marseille","lat":43.27372,"lon":5.36252,"is_reserved":false,"is_disabled":false,"rental_uris":{"android":"levelo://app?vid=68254b2f-a8ae-4baa-bc07-7b79f85032f3","ios":"levelo://app?vid=68254b2f-a8ae-4baa-bc07-7b79f85032f3"},"vehicle_type_id":"4","last_reported":1742980225,"current_range_meters":9600,"station_id":"ce4bhbh2rcd13ifvqeo0","pricing_plan_id":"cebpf4jnsgd1na2vs0mg"},{"bike_id":"240e2301-6fa5-4bfa-a86f-afcfa555dd21","system_id":"levelo_inurba_marseille","lat":43.30204,"lon":5.36623,"is_reserved":false,"is_disabled":false,"rental_uris":{"android":"levelo://app?vid=240e2301-6fa5-4bfa-a86f-afcfa555dd21","ios":"levelo://app?vid=240e2301-6fa5-4bfa-a86f-afcfa555dd21"},"vehicle_type_id":"4","last_reported":1742980225,"current_range_meters":9600,"station_id":"ce4bgrh2rcd13ifvqc8g","pricing_plan_id":"cebpf4jnsgd1na2vs0mg"},{"bike_id":"efbcaaa6-b11f-400a-9240-cc4b1a3b098a","system_id":"levelo_inurba_marseille","lat":43.30606,"lon":5.39362,"is_reserved":false,"is_disabled":true,"rental_uris":{"android":"levelo://app?vid=efbcaaa6-b11f-400a-9240-cc4b1a3b098a","ios":"levelo://app?vid=efbcaaa6-b11f-400a-9240-cc4b1a3b098a"},"vehicle_type_id":"4","last_reported":1742980225,"current_range_meters":9600,"station_id":"ce4bh0p2rcd13ifvqd80","pricing_plan_id":"cebpf4jnsgd1na2vs0mg"},{"bike_id":"c4b88c2e-98e3-4499-8e1f-4f4d33a56e5a","system_id":"levelo_inurba_marseille","lat":43.28411,"lon":5.34978,"is_reserved":false,"is_disabled":true,"rental_uris":{"android":"levelo://app?vid=c4b88c2e-98e3-4499-8e1f-4f4d33a56e5a","ios":"levelo://app?vid=c4b88c2e-98e3-4499-8e1f-4f4d33a56e5a"},"vehicle_type_id":"4","last_reported":1742980225,"current_range_meters":9600,"station_id":"ce4bhbh2rcd13ifvqepg","pricing_plan_id":"cebpf4jnsgd1na2vs0mg"},{"bike_id":"b79b810a-4c67-4d29-a4c6-af60860b8e97","system_id":"levelo_inurba_marseille","lat":43.24078,"lon":5.37757,"is_reserved":false,"is_disabled":false,"rental_uris":{"android":"levelo://app?vid=b79b810a-4c67-4d29-a4c6-af60860b8e97","ios":"levelo://app?vid=b79b810a-4c67-4d29-a4c6-af60860b8e97"},"vehicle_type_id":"4","last_reported":1742980225,"current_range_meters":10000,"station_id":"ce4bhnp2rcd13ifvqgvg","pricing_plan_id":"cebpf4jnsgd1na2vs0mg"},{"bike_id":"87dfd15a-95ae-4bee-80b6-7386fb5a180f","system_id":"levelo_inurba_marseille","lat":43.24179,"lon":5.39721,"is_reserved":false,"is_disabled":false,"rental_uris":{"android":"levelo://app?vid=87dfd15a-95ae-4bee-80b6-7386fb5a180f","ios":"levelo://app?vid=87dfd15a-95ae-4bee-80b6-7386fb5a180f"},"vehicle_type_id":"4","last_reported":1742980225,"current_range_meters":10000,"station_id":"ce4bhn12rcd13ifvqgpg","pricing_plan_id":"cebpf4jnsgd1na2vs0mg"},{"bike_id":"0eedf9a7-c32c-4bae-a37f-32439201ac09","system_id":"levelo_inurba_marseille","lat":43.28868,"lon":5.39298,"is_reserved":false,"is_disabled":true,"rental_uris":{"android":"levelo://app?vid=0eedf9a7-c32c-4bae-a37f-32439201ac09","ios":"levelo://app?vid=0eedf9a7-c32c-4bae-a37f-32439201ac09"},"vehicle_type_id":"4","last_reported":1742980225,"current_range_meters":10000,"station_id":"ce4bh2p2rcd13ifvqdi0","pricing_plan_id":"cebpf4jnsgd1na2vs0mg"},{"bike_id":"069b06e8-a591-409a-99eb-5f5ed3322248","system_id":"levelo_inurba_marseille","lat":43.26569,"lon":5.39008,"is_reserved":false,"is_disabled":false,"rental_uris":{"android":"levelo://app?vid=069b06e8-a591-409a-99eb-5f5ed3322248","ios":"levelo://app?vid=069b06e8-a591-409a-99eb-5f5ed3322248"},"vehicle_type_id":"4","last_reported":1742980225,"current_range_meters":10000,"station_id":"ce4bhe12rcd13ifvqf30","pricing_plan_id":"cebpf4jnsgd1na2vs0mg"},{"bike_id":"91b528d9-2fac-4545-8a89-e2ce1c5c2685","system_id":"levelo_inurba_marseille","lat":43.30197,"lon":5.36631,"is_reserved":false,"is_disabled":false,"rental_uris":{"android":"levelo://app?vid=91b528d9-2fac-4545-8a89-e2ce1c5c2685","ios":"levelo://app?vid=91b528d9-2fac-4545-8a89-e2ce1c5c2685"},"vehicle_type_id":"4","last_reported":1742980225,"current_range_meters":10000,"station_id":"ce4bgrh2rcd13ifvqc8g","pricing_plan_id":"cebpf4jnsgd1na2vs0mg"},{"bike_id":"8a9602e7-e6f2-4dac-845f-cea224e49dd5","system_id":"levelo_inurba_marseille","lat":43.23067,"lon":5.35492,"is_reserved":false,"is_disabled":false,"rental_uris":{"android":"levelo://app?vid=8a9602e7-e6f2-4dac-845f-cea224e49dd5","ios":"levelo://app?vid=8a9602e7-e6f2-4dac-845f-cea224e49dd5"},"vehicle_type_id":"4","last_reported":1742980225,"current_range_meters":10000,"station_id":"cpo3342slgdg3j2ifvpg","pricing_plan_id":"cebpf4jnsgd1na2vs0mg"},{"bike_id":"01cbffb0-3fb0-4769-96f8-4c2dd20b8277","system_id":"levelo_inurba_marseille","lat":43.28514,"lon":5.40581,"is_reserved":false,"is_disabled":true,"rental_uris":{"android":"levelo://app?vid=01cbffb0-3fb0-4769-96f8-4c2dd20b8277","ios":"levelo://app?vid=01cbffb0-3fb0-4769-96f8-4c2dd20b8277"},"vehicle_type_id":"4","last_reported":1742980225,"current_range_meters":10000,"station_id":"","pricing_plan_id":"cebpf4jnsgd1na2vs0mg"},{"bike_id":"da43d894-069e-486e-a738-14255c3635ad","system_id":"levelo_inurba_marseille","lat":43.26054,"lon":5.39393,"is_reserved":false,"is_disabled":false,"rental_uris":{"android":"levelo://app?vid=da43d894-069e-486e-a738-14255c3635ad","ios":"levelo://app?vid=da43d894-069e-486e-a738-14255c3635ad"},"vehicle_type_id":"4","last_reported":1742980225,"current_range_meters":10000,"station_id":"ce4bhh92rcd13ifvqfj0","pricing_plan_id":"cebpf4jnsgd1na2vs0mg"},{"bike_id":"dbf224bd-8a6c-4633-9c6a-2bebb1a8328b","system_id":"levelo_inurba_marseille","lat":43.29024,"lon":5.3813,"is_reserved":false,"is_disabled":false,"rental_uris":{"android":"levelo://app?vid=dbf224bd-8a6c-4633-9c6a-2bebb1a8328b","ios":"levelo://app?vid=dbf224bd-8a6c-4633-9c6a-2bebb1a8328b"},"vehicle_type_id":"4","last_reported":1742980225,"current_range_meters":10000,"station_id":"ce4bh4p2rcd13ifvqe1g","pricing_plan_id":"cebpf4jnsgd1na2vs0mg"},{"bike_id":"7fdecdeb-36cb-4cf4-9c98-d803f5809435","system_id":"levelo_inurba_marseille","lat":43.26101,"lon":5.39799,"is_reserved":false,"is_disabled":false,"rental_uris":{"android":"levelo://app?vid=7fdecdeb-36cb-4cf4-9c98-d803f5809435","ios":"levelo://app?vid=7fdecdeb-36cb-4cf4-9c98-d803f5809435"},"vehicle_type_id":"4","last_reported":1742980225,"current_range_meters":10000,"station_id":"","pricing_plan_id":"cebpf4jnsgd1na2vs0mg"},{"bike_id":"974f5876-effd-44d0-911c-76ea7a107a8c","system_id":"levelo_inurba_marseille","lat":43.333605,"lon":5.359735,"is_reserved":false,"is_disabled":false,"rental_uris":{"android":"levelo://app?vid=974f5876-effd-44d0-911c-76ea7a107a8c","ios":"levelo://app?vid=974f5876-effd-44d0-911c-76ea7a107a8c"},"vehicle_type_id":"4","last_reported":1742980225,"current_range_meters":10000,"station_id":"","pricing_plan_id":"cebpf4jnsgd1na2vs0mg"},{"bike_id":"ac6ca1e7-5f6c-4ad3-a5c7-af4dd1829d1c","system_id":"levelo_inurba_marseille","lat":43.30959,"lon":5.39035,"is_reserved":false,"is_disabled":false,"rental_uris":{"android":"levelo://app?vid=ac6ca1e7-5f6c-4ad3-a5c7-af4dd1829d1c","ios":"levelo://app?vid=ac6ca1e7-5f6c-4ad3-a5c7-af4dd1829d1c"},"vehicle_type_id":"4","last_reported":1742980225,"current_range_meters":10000,"station_id":"ce4bgup2rcd13ifvqco0","pricing_plan_id":"cebpf4jnsgd1na2vs0mg"},{"bike_id":"e1a0b3ad-96e1-49e4-9d67-0ac6b2b6a02a","system_id":"levelo_inurba_marseille","lat":43.29226,"lon":5.36069,"is_reserved":false,"is_disabled":false,"rental_uris":{"android":"levelo://app?vid=e1a0b3ad-96e1-49e4-9d67-0ac6b2b6a02a","ios":"levelo://app?vid=e1a0b3ad-96e1-49e4-9d67-0ac6b2b6a02a"},"vehicle_type_id":"4","last_reported":1742980225,"current_range_meters":10000,"station_id":"ce4bhbh2rcd13ifvqeqg","pricing_plan_id":"cebpf4jnsgd1na2vs0mg"},{"bike_id":"67de4242-7f64-4831-8e2f-144fd7b9e4e8","system_id":"levelo_inurba_marseille","lat":43.31325,"lon":5.36726,"is_reserved":false,"is_disabled":false,"rental_uris":{"android":"levelo://app?vid=67de4242-7f64-4831-8e2f-144fd7b9e4e8","ios":"levelo://app?vid=67de4242-7f64-4831-8e2f-144fd7b9e4e8"},"vehicle_type_id":"4","last_reported":1742980225,"current_range_meters":10800,"station_id":"ce4bgr92rcd13ifvqc6g","pricing_plan_id":"cebpf4jnsgd1na2vs0mg"},{"bike_id":"8de7059d-00de-4eed-a842-00ac61b0e1a8","system_id":"levelo_inurba_marseille","lat":43.29591,"lon":5.38095,"is_reserved":false,"is_disabled":false,"rental_uris":{"android":"levelo://app?vid=8de7059d-00de-4eed-a842-00ac61b0e1a8","ios":"levelo://app?vid=8de7059d-00de-4eed-a842-00ac61b0e1a8"},"vehicle_type_id":"4","last_reported":1742980225,"current_range_meters":10800,"station_id":"ce4bgl12rcd13ifvqbo0","pricing_plan_id":"cebpf4jnsgd1na2vs0mg"},{"bike_id":"8e1b69fe-38a9-404e-9145-427fd10d244c","system_id":"levelo_inurba_marseille","lat":43.28427,"lon":5.34995,"is_reserved":false,"is_disabled":true,"rental_uris":{"android":"levelo://app?vid=8e1b69fe-38a9-404e-9145-427fd10d244c","ios":"levelo://app?vid=8e1b69fe-38a9-404e-9145-427fd10d244c"},"vehicle_type_id":"4","last_reported":1742980225,"current_range_meters":10800,"station_id":"ce4bhbh2rcd13ifvqepg","pricing_plan_id":"cebpf4jnsgd1na2vs0mg"},{"bike_id":"84a7a785-5392-42bc-8088-fb903bcc7f5c","system_id":"levelo_inurba_marseille","lat":43.23077,"lon":5.35492,"is_reserved":false,"is_disabled":false,"rental_uris":{"android":"levelo://app?vid=84a7a785-5392-42bc-8088-fb903bcc7f5c","ios":"levelo://app?vid=84a7a785-5392-42bc-8088-fb903bcc7f5c"},"vehicle_type_id":"4","last_reported":1742980225,"current_range_meters":10800,"station_id":"cpo3342slgdg3j2ifvpg","pricing_plan_id":"cebpf4jnsgd1na2vs0mg"},{"bike_id":"34ff9dfa-f521-4b06-a88c-c4e4d9d74f39","system_id":"levelo_inurba_marseille","lat":43.27843,"lon":5.4072,"is_reserved":false,"is_disabled":true,"rental_uris":{"android":"levelo://app?vid=34ff9dfa-f521-4b06-a88c-c4e4d9d74f39","ios":"levelo://app?vid=34ff9dfa-f521-4b06-a88c-c4e4d9d74f39"},"vehicle_type_id":"4","last_reported":1742980225,"current_range_meters":10800,"station_id":"ce4bhnh2rcd13ifvqgtg","pricing_plan_id":"cebpf4jnsgd1na2vs0mg"},{"bike_id":"1d165c56-236e-4374-8632-8a15f8f79471","system_id":"levelo_inurba_marseille","lat":43.31259,"lon":5.36883,"is_reserved":false,"is_disabled":false,"rental_uris":{"android":"levelo://app?vid=1d165c56-236e-4374-8632-8a15f8f79471","ios":"levelo://app?vid=1d165c56-236e-4374-8632-8a15f8f79471"},"vehicle_type_id":"4","last_reported":1742980225,"current_range_meters":10800,"station_id":"ce4bgl92rcd13ifvqbq0","pricing_plan_id":"cebpf4jnsgd1na2vs0mg"},{"bike_id":"f6788da0-87a8-4558-ba51-aba48bf0e8c0","system_id":"levelo_inurba_marseille","lat":43.30559,"lon":5.36714,"is_reserved":false,"is_disabled":false,"rental_uris":{"android":"levelo://app?vid=f6788da0-87a8-4558-ba51-aba48bf0e8c0","ios":"levelo://app?vid=f6788da0-87a8-4558-ba51-aba48bf0e8c0"},"vehicle_type_id":"4","last_reported":1742980225,"current_range_meters":10800,"station_id":"ce4bgrp2rcd13ifvqc9g","pricing_plan_id":"cebpf4jnsgd1na2vs0mg"},{"bike_id":"41a3dd54-69c8-4a8c-8cb4-82f3648e8acc","system_id":"levelo_inurba_marseille","lat":43.27366,"lon":5.36248,"is_reserved":false,"is_disabled":false,"rental_uris":{"android":"levelo://app?vid=41a3dd54-69c8-4a8c-8cb4-82f3648e8acc","ios":"levelo://app?vid=41a3dd54-69c8-4a8c-8cb4-82f3648e8acc"},"vehicle_type_id":"4","last_reported":1742980225,"current_range_meters":10800,"station_id":"ce4bhbh2rcd13ifvqeo0","pricing_plan_id":"cebpf4jnsgd1na2vs0mg"},{"bike_id":"ba6a46e1-2737-444a-9c29-0a44b16eab2c","system_id":"levelo_inurba_marseille","lat":43.30572,"lon":5.36508,"is_reserved":false,"is_disabled":false,"rental_uris":{"android":"levelo://app?vid=ba6a46e1-2737-444a-9c29-0a44b16eab2c","ios":"levelo://app?vid=ba6a46e1-2737-444a-9c29-0a44b16eab2c"},"vehicle_type_id":"4","last_reported":1742980225,"current_range_meters":10800,"station_id":"ce4bgs12rcd13ifvqcag","pricing_plan_id":"cebpf4jnsgd1na2vs0mg"},{"bike_id":"d45a2f6c-957b-46cd-bd89-ee8e58d1536e","system_id":"levelo_inurba_marseille","lat":43.277186,"lon":5.407956,"is_reserved":false,"is_disabled":false,"rental_uris":{"android":"levelo://app?vid=d45a2f6c-957b-46cd-bd89-ee8e58d1536e","ios":"levelo://app?vid=d45a2f6c-957b-46cd-bd89-ee8e58d1536e"},"vehicle_type_id":"4","last_reported":1742980225,"current_range_meters":11200,"station_id":"","pricing_plan_id":"cebpf4jnsgd1na2vs0mg"},{"bike_id":"638022dd-4547-48d2-bf6b-3ac63c13562c","system_id":"levelo_inurba_marseille","lat":43.3091,"lon":5.36853,"is_reserved":false,"is_disabled":false,"rental_uris":{"android":"levelo://app?vid=638022dd-4547-48d2-bf6b-3ac63c13562c","ios":"levelo://app?vid=638022dd-4547-48d2-bf6b-3ac63c13562c"},"vehicle_type_id":"4","last_reported":1742980225,"current_range_meters":11200,"station_id":"ce4bgn92rcd13ifvqbvg","pricing_plan_id":"cebpf4jnsgd1na2vs0mg"},{"bike_id":"23bf910c-0327-4950-8153-5ee42fab5e7e","system_id":"levelo_inurba_marseille","lat":43.273034,"lon":5.390756,"is_reserved":false,"is_disabled":false,"rental_uris":{"android":"levelo://app?vid=23bf910c-0327-4950-8153-5ee42fab5e7e","ios":"levelo://app?vid=23bf910c-0327-4950-8153-5ee42fab5e7e"},"vehicle_type_id":"4","last_reported":1742980225,"current_range_meters":11200,"station_id":"ce4bhgp2rcd13ifvqfe0","pricing_plan_id":"cebpf4jnsgd1na2vs0mg"},{"bike_id":"a446a54f-4fbf-40df-b247-11c1431d2281","system_id":"levelo_inurba_marseille","lat":43.31264,"lon":5.36882,"is_reserved":false,"is_disabled":false,"rental_uris":{"android":"levelo://app?vid=a446a54f-4fbf-40df-b247-11c1431d2281","ios":"levelo://app?vid=a446a54f-4fbf-40df-b247-11c1431d2281"},"vehicle_type_id":"4","last_reported":1742980225,"current_range_meters":11200,"station_id":"ce4bgl92rcd13ifvqbq0","pricing_plan_id":"cebpf4jnsgd1na2vs0mg"},{"bike_id":"82219511-549c-4b63-baf5-ff8405cca9d7","system_id":"levelo_inurba_marseille","lat":43.31703,"lon":5.437,"is_reserved":false,"is_disabled":false,"rental_uris":{"android":"levelo://app?vid=82219511-549c-4b63-baf5-ff8405cca9d7","ios":"levelo://app?vid=82219511-549c-4b63-baf5-ff8405cca9d7"},"vehicle_type_id":"4","last_reported":1742980225,"current_range_meters":11200,"station_id":"ce4bhp92rcd13ifvqhcg","pricing_plan_id":"cebpf4jnsgd1na2vs0mg"},{"bike_id":"9c7b67ef-a80b-4d76-beff-aa96c2a3469a","system_id":"levelo_inurba_marseille","lat":43.27988,"lon":5.40024,"is_reserved":false,"is_disabled":false,"rental_uris":{"android":"levelo://app?vid=9c7b67ef-a80b-4d76-beff-aa96c2a3469a","ios":"levelo://app?vid=9c7b67ef-a80b-4d76-beff-aa96c2a3469a"},"vehicle_type_id":"4","last_reported":1742980225,"current_range_meters":11200,"station_id":"ce4bho92rcd13ifvqh4g","pricing_plan_id":"cebpf4jnsgd1na2vs0mg"},{"bike_id":"c09afdac-21c7-47cf-ba19-b0b4d39ff61c","system_id":"levelo_inurba_marseille","lat":43.30285,"lon":5.37695,"is_reserved":false,"is_disabled":false,"rental_uris":{"android":"levelo://app?vid=c09afdac-21c7-47cf-ba19-b0b4d39ff61c","ios":"levelo://app?vid=c09afdac-21c7-47cf-ba19-b0b4d39ff61c"},"vehicle_type_id":"4","last_reported":1742980225,"current_range_meters":11200,"station_id":"ce4bguh2rcd13ifvqcj0","pricing_plan_id":"cebpf4jnsgd1na2vs0mg"},{"bike_id":"b418d168-f2ad-4db0-9a6f-e88743ba94c8","system_id":"levelo_inurba_marseille","lat":43.29259,"lon":5.3763,"is_reserved":false,"is_disabled":true,"rental_uris":{"android":"levelo://app?vid=b418d168-f2ad-4db0-9a6f-e88743ba94c8","ios":"levelo://app?vid=b418d168-f2ad-4db0-9a6f-e88743ba94c8"},"vehicle_type_id":"4","last_reported":1742980225,"current_range_meters":11600,"station_id":"ce4bgi12rcd13ifvqb80","pricing_plan_id":"cebpf4jnsgd1na2vs0mg"},{"bike_id":"d1f0bfd4-c951-4e4e-b8ea-91fef0511b94","system_id":"levelo_inurba_marseille","lat":43.32362,"lon":5.36743,"is_reserved":false,"is_disabled":false,"rental_uris":{"android":"levelo://app?vid=d1f0bfd4-c951-4e4e-b8ea-91fef0511b94","ios":"levelo://app?vid=d1f0bfd4-c951-4e4e-b8ea-91fef0511b94"},"vehicle_type_id":"4","last_reported":1742980225,"current_range_meters":11600,"station_id":"ce4bhsh2rcd13ifvqi2g","pricing_plan_id":"cebpf4jnsgd1na2vs0mg"},{"bike_id":"7bc072f1-057f-4089-85c2-8d6c7d37745e","system_id":"levelo_inurba_marseille","lat":43.24076,"lon":5.37748,"is_reserved":false,"is_disabled":false,"rental_uris":{"android":"levelo://app?vid=7bc072f1-057f-4089-85c2-8d6c7d37745e","ios":"levelo://app?vid=7bc072f1-057f-4089-85c2-8d6c7d37745e"},"vehicle_type_id":"4","last_reported":1742980225,"current_range_meters":11600,"station_id":"ce4bhnp2rcd13ifvqgvg","pricing_plan_id":"cebpf4jnsgd1na2vs0mg"},{"bike_id":"54d44173-db50-4875-ac62-110bb8896faf","system_id":"levelo_inurba_marseille","lat":43.25945,"lon":5.409,"is_reserved":false,"is_disabled":false,"rental_uris":{"android":"levelo://app?vid=54d44173-db50-4875-ac62-110bb8896faf","ios":"levelo://app?vid=54d44173-db50-4875-ac62-110bb8896faf"},"vehicle_type_id":"4","last_reported":1742980225,"current_range_meters":11600,"station_id":"ce4bhm92rcd13ifvqglg","pricing_plan_id":"cebpf4jnsgd1na2vs0mg"},{"bike_id":"3d63c1ea-398b-48a2-94ae-b7e44551f43f","system_id":"levelo_inurba_marseille","lat":43.24194,"lon":5.39726,"is_reserved":false,"is_disabled":false,"rental_uris":{"android":"levelo://app?vid=3d63c1ea-398b-48a2-94ae-b7e44551f43f","ios":"levelo://app?vid=3d63c1ea-398b-48a2-94ae-b7e44551f43f"},"vehicle_type_id":"4","last_reported":1742980225,"current_range_meters":11600,"station_id":"ce4bhn12rcd13ifvqgpg","pricing_plan_id":"cebpf4jnsgd1na2vs0mg"},{"bike_id":"dd3c2c21-8058-4ad2-bb2d-1b89c01c402f","system_id":"levelo_inurba_marseille","lat":43.30551,"lon":5.36524,"is_reserved":false,"is_disabled":false,"rental_uris":{"android":"levelo://app?vid=dd3c2c21-8058-4ad2-bb2d-1b89c01c402f","ios":"levelo://app?vid=dd3c2c21-8058-4ad2-bb2d-1b89c01c402f"},"vehicle_type_id":"4","last_reported":1742980225,"current_range_meters":11600,"station_id":"ce4bgs12rcd13ifvqcag","pricing_plan_id":"cebpf4jnsgd1na2vs0mg"},{"bike_id":"d8e407df-bc76-4856-b2d2-07a58f6ce4af","system_id":"levelo_inurba_marseille","lat":43.24063,"lon":5.37764,"is_reserved":false,"is_disabled":false,"rental_uris":{"android":"levelo://app?vid=d8e407df-bc76-4856-b2d2-07a58f6ce4af","ios":"levelo://app?vid=d8e407df-bc76-4856-b2d2-07a58f6ce4af"},"vehicle_type_id":"4","last_reported":1742980225,"current_range_meters":11600,"station_id":"ce4bhnp2rcd13ifvqgvg","pricing_plan_id":"cebpf4jnsgd1na2vs0mg"},{"bike_id":"2349ea78-e5ff-44c1-8a9d-5755df83b4b0","system_id":"levelo_inurba_marseille","lat":43.2812,"lon":5.42675,"is_reserved":false,"is_disabled":false,"rental_uris":{"android":"levelo://app?vid=2349ea78-e5ff-44c1-8a9d-5755df83b4b0","ios":"levelo://app?vid=2349ea78-e5ff-44c1-8a9d-5755df83b4b0"},"vehicle_type_id":"4","last_reported":1742980225,"current_range_meters":11600,"station_id":"ce4bhnh2rcd13ifvqgug","pricing_plan_id":"cebpf4jnsgd1na2vs0mg"},{"bike_id":"22fab63b-0a45-437e-94f0-df311425c259","system_id":"levelo_inurba_marseille","lat":43.23138,"lon":5.43713,"is_reserved":false,"is_disabled":false,"rental_uris":{"android":"levelo://app?vid=22fab63b-0a45-437e-94f0-df311425c259","ios":"levelo://app?vid=22fab63b-0a45-437e-94f0-df311425c259"},"vehicle_type_id":"4","last_reported":1742980225,"current_range_meters":11200,"station_id":"ce4bhmp2rcd13ifvqgog","pricing_plan_id":"cebpf4jnsgd1na2vs0mg"},{"bike_id":"b96f2cee-4e48-4be4-b9b6-94888f070424","system_id":"levelo_inurba_marseille","lat":43.29933,"lon":5.36546,"is_reserved":false,"is_disabled":false,"rental_uris":{"android":"levelo://app?vid=b96f2cee-4e48-4be4-b9b6-94888f070424","ios":"levelo://app?vid=b96f2cee-4e48-4be4-b9b6-94888f070424"},"vehicle_type_id":"4","last_reported":1742980225,"current_range_meters":12000,"station_id":"ce4bgm92rcd13ifvqbr0","pricing_plan_id":"cebpf4jnsgd1na2vs0mg"},{"bike_id":"6998abca-5316-4de7-9281-f1119ffbd138","system_id":"levelo_inurba_marseille","lat":43.30543,"lon":5.36534,"is_reserved":false,"is_disabled":false,"rental_uris":{"android":"levelo://app?vid=6998abca-5316-4de7-9281-f1119ffbd138","ios":"levelo://app?vid=6998abca-5316-4de7-9281-f1119ffbd138"},"vehicle_type_id":"4","last_reported":1742980225,"current_range_meters":12000,"station_id":"ce4bgs12rcd13ifvqcag","pricing_plan_id":"cebpf4jnsgd1na2vs0mg"},{"bike_id":"db944b48-3fac-4590-aef5-97f9c9fe6fc6","system_id":"levelo_inurba_marseille","lat":43.2991,"lon":5.38133,"is_reserved":false,"is_disabled":false,"rental_uris":{"android":"levelo://app?vid=db944b48-3fac-4590-aef5-97f9c9fe6fc6","ios":"levelo://app?vid=db944b48-3fac-4590-aef5-97f9c9fe6fc6"},"vehicle_type_id":"4","last_reported":1742980225,"current_range_meters":12400,"station_id":"ce4bgj12rcd13ifvqbc0","pricing_plan_id":"cebpf4jnsgd1na2vs0mg"},{"bike_id":"589f1146-20bc-4a88-9ab7-60ee275b3000","system_id":"levelo_inurba_marseille","lat":43.29687,"lon":5.38034,"is_reserved":false,"is_disabled":false,"rental_uris":{"android":"levelo://app?vid=589f1146-20bc-4a88-9ab7-60ee275b3000","ios":"levelo://app?vid=589f1146-20bc-4a88-9ab7-60ee275b3000"},"vehicle_type_id":"4","last_reported":1742980225,"current_range_meters":12400,"station_id":"","pricing_plan_id":"cebpf4jnsgd1na2vs0mg"},{"bike_id":"8ee06270-6e68-4f36-943c-c6853abcfcb7","system_id":"levelo_inurba_marseille","lat":43.30996,"lon":5.39078,"is_reserved":false,"is_disabled":false,"rental_uris":{"android":"levelo://app?vid=8ee06270-6e68-4f36-943c-c6853abcfcb7","ios":"levelo://app?vid=8ee06270-6e68-4f36-943c-c6853abcfcb7"},"vehicle_type_id":"4","last_reported":1742980225,"current_range_meters":12400,"station_id":"","pricing_plan_id":"cebpf4jnsgd1na2vs0mg"},{"bike_id":"c8b805e1-cedc-42cf-af1f-70167cf74539","system_id":"levelo_inurba_marseille","lat":43.29159,"lon":5.37162,"is_reserved":false,"is_disabled":false,"rental_uris":{"android":"levelo://app?vid=c8b805e1-cedc-42cf-af1f-70167cf74539","ios":"levelo://app?vid=c8b805e1-cedc-42cf-af1f-70167cf74539"},"vehicle_type_id":"4","last_reported":1742980225,"current_range_meters":12400,"station_id":"ce4bha92rcd13ifvqeh0","pricing_plan_id":"cebpf4jnsgd1na2vs0mg"},{"bike_id":"7e7a371c-b9b4-41ba-9c03-4ba1bef7f880","system_id":"levelo_inurba_marseille","lat":43.23133,"lon":5.4373,"is_reserved":false,"is_disabled":false,"rental_uris":{"android":"levelo://app?vid=7e7a371c-b9b4-41ba-9c03-4ba1bef7f880","ios":"levelo://app?vid=7e7a371c-b9b4-41ba-9c03-4ba1bef7f880"},"vehicle_type_id":"4","last_reported":1742980225,"current_range_meters":12400,"station_id":"ce4bhmp2rcd13ifvqgog","pricing_plan_id":"cebpf4jnsgd1na2vs0mg"},{"bike_id":"ccdfac36-22da-4f2d-bd50-7bf147cc0fff","system_id":"levelo_inurba_marseille","lat":43.29907,"lon":5.436539,"is_reserved":false,"is_disabled":false,"rental_uris":{"android":"levelo://app?vid=ccdfac36-22da-4f2d-bd50-7bf147cc0fff","ios":"levelo://app?vid=ccdfac36-22da-4f2d-bd50-7bf147cc0fff"},"vehicle_type_id":"4","last_reported":1742980225,"current_range_meters":12800,"station_id":"ce4bhpp2rcd13ifvqhfg","pricing_plan_id":"cebpf4jnsgd1na2vs0mg"},{"bike_id":"e3f76d45-4904-44a7-aac2-e04832e991bb","system_id":"levelo_inurba_marseille","lat":43.29956,"lon":5.41325,"is_reserved":false,"is_disabled":false,"rental_uris":{"android":"levelo://app?vid=e3f76d45-4904-44a7-aac2-e04832e991bb","ios":"levelo://app?vid=e3f76d45-4904-44a7-aac2-e04832e991bb"},"vehicle_type_id":"4","last_reported":1742980225,"current_range_meters":12800,"station_id":"ce4bhp12rcd13ifvqh9g","pricing_plan_id":"cebpf4jnsgd1na2vs0mg"},{"bike_id":"076ae03d-be91-45c9-8c57-e4e9001d0e51","system_id":"levelo_inurba_marseille","lat":43.25874,"lon":5.39891,"is_reserved":false,"is_disabled":false,"rental_uris":{"android":"levelo://app?vid=076ae03d-be91-45c9-8c57-e4e9001d0e51","ios":"levelo://app?vid=076ae03d-be91-45c9-8c57-e4e9001d0e51"},"vehicle_type_id":"4","last_reported":1742980225,"current_range_meters":12800,"station_id":"ce4bhl92rcd13ifvqghg","pricing_plan_id":"cebpf4jnsgd1na2vs0mg"},{"bike_id":"ad737e2f-11da-423b-a467-d138055342bd","system_id":"levelo_inurba_marseille","lat":43.23149,"lon":5.43712,"is_reserved":false,"is_disabled":false,"rental_uris":{"android":"levelo://app?vid=ad737e2f-11da-423b-a467-d138055342bd","ios":"levelo://app?vid=ad737e2f-11da-423b-a467-d138055342bd"},"vehicle_type_id":"4","last_reported":1742980225,"current_range_meters":12800,"station_id":"ce4bhmp2rcd13ifvqgog","pricing_plan_id":"cebpf4jnsgd1na2vs0mg"},{"bike_id":"484928c8-8c60-48c3-a758-e3e274268153","system_id":"levelo_inurba_marseille","lat":43.24165,"lon":5.36392,"is_reserved":false,"is_disabled":false,"rental_uris":{"android":"levelo://app?vid=484928c8-8c60-48c3-a758-e3e274268153","ios":"levelo://app?vid=484928c8-8c60-48c3-a758-e3e274268153"},"vehicle_type_id":"4","last_reported":1742980225,"current_range_meters":12800,"station_id":"cpo36qri1sfpv3e86is0","pricing_plan_id":"cebpf4jnsgd1na2vs0mg"},{"bike_id":"5a285ed5-90dc-4b6e-862a-02384c201442","system_id":"levelo_inurba_marseille","lat":43.2924,"lon":5.36094,"is_reserved":false,"is_disabled":false,"rental_uris":{"android":"levelo://app?vid=5a285ed5-90dc-4b6e-862a-02384c201442","ios":"levelo://app?vid=5a285ed5-90dc-4b6e-862a-02384c201442"},"vehicle_type_id":"4","last_reported":1742980225,"current_range_meters":12400,"station_id":"ce4bhbh2rcd13ifvqeqg","pricing_plan_id":"cebpf4jnsgd1na2vs0mg"},{"bike_id":"ceb50989-9a96-4a68-a2a6-d517e965d2d6","system_id":"levelo_inurba_marseille","lat":43.29258,"lon":5.37607,"is_reserved":false,"is_disabled":false,"rental_uris":{"android":"levelo://app?vid=ceb50989-9a96-4a68-a2a6-d517e965d2d6","ios":"levelo://app?vid=ceb50989-9a96-4a68-a2a6-d517e965d2d6"},"vehicle_type_id":"4","last_reported":1742980225,"current_range_meters":12800,"station_id":"ce4bgi12rcd13ifvqb80","pricing_plan_id":"cebpf4jnsgd1na2vs0mg"},{"bike_id":"49749916-1602-4a67-bcc3-803f3f931eb7","system_id":"levelo_inurba_marseille","lat":43.30376,"lon":5.42484,"is_reserved":false,"is_disabled":false,"rental_uris":{"android":"levelo://app?vid=49749916-1602-4a67-bcc3-803f3f931eb7","ios":"levelo://app?vid=49749916-1602-4a67-bcc3-803f3f931eb7"},"vehicle_type_id":"4","last_reported":1742980225,"current_range_meters":12800,"station_id":"ce4bhoh2rcd13ifvqh6g","pricing_plan_id":"cebpf4jnsgd1na2vs0mg"},{"bike_id":"9490ab3f-b563-4312-b2ed-009944c7886e","system_id":"levelo_inurba_marseille","lat":43.32492,"lon":5.36557,"is_reserved":false,"is_disabled":false,"rental_uris":{"android":"levelo://app?vid=9490ab3f-b563-4312-b2ed-009944c7886e","ios":"levelo://app?vid=9490ab3f-b563-4312-b2ed-009944c7886e"},"vehicle_type_id":"4","last_reported":1742980225,"current_range_meters":13600,"station_id":"ce4bhs12rcd13ifvqhvg","pricing_plan_id":"cebpf4jnsgd1na2vs0mg"},{"bike_id":"9e4dae27-4c9b-4b7d-bc96-eb2a33a07992","system_id":"levelo_inurba_marseille","lat":43.25932,"lon":5.40909,"is_reserved":false,"is_disabled":false,"rental_uris":{"android":"levelo://app?vid=9e4dae27-4c9b-4b7d-bc96-eb2a33a07992","ios":"levelo://app?vid=9e4dae27-4c9b-4b7d-bc96-eb2a33a07992"},"vehicle_type_id":"4","last_reported":1742980225,"current_range_meters":13600,"station_id":"ce4bhm92rcd13ifvqglg","pricing_plan_id":"cebpf4jnsgd1na2vs0mg"},{"bike_id":"2623a753-dcde-4ffa-9bf1-3275e6037e7a","system_id":"levelo_inurba_marseille","lat":43.32488,"lon":5.3658,"is_reserved":false,"is_disabled":false,"rental_uris":{"android":"levelo://app?vid=2623a753-dcde-4ffa-9bf1-3275e6037e7a","ios":"levelo://app?vid=2623a753-dcde-4ffa-9bf1-3275e6037e7a"},"vehicle_type_id":"4","last_reported":1742980225,"current_range_meters":13600,"station_id":"ce4bhs12rcd13ifvqhvg","pricing_plan_id":"cebpf4jnsgd1na2vs0mg"},{"bike_id":"e1286bcb-31ee-4020-bfdf-b33e9a0bfa99","system_id":"levelo_inurba_marseille","lat":43.24074,"lon":5.37746,"is_reserved":false,"is_disabled":false,"rental_uris":{"android":"levelo://app?vid=e1286bcb-31ee-4020-bfdf-b33e9a0bfa99","ios":"levelo://app?vid=e1286bcb-31ee-4020-bfdf-b33e9a0bfa99"},"vehicle_type_id":"4","last_reported":1742980225,"current_range_meters":13600,"station_id":"ce4bhnp2rcd13ifvqgvg","pricing_plan_id":"cebpf4jnsgd1na2vs0mg"},{"bike_id":"818afcaf-08c4-48e2-bead-bf2127aea8c7","system_id":"levelo_inurba_marseille","lat":43.24077,"lon":5.37753,"is_reserved":false,"is_disabled":false,"rental_uris":{"android":"levelo://app?vid=818afcaf-08c4-48e2-bead-bf2127aea8c7","ios":"levelo://app?vid=818afcaf-08c4-48e2-bead-bf2127aea8c7"},"vehicle_type_id":"4","last_reported":1742980225,"current_range_meters":14000,"station_id":"ce4bhnp2rcd13ifvqgvg","pricing_plan_id":"cebpf4jnsgd1na2vs0mg"},{"bike_id":"5b830359-30b8-45d9-a902-126192112277","system_id":"levelo_inurba_marseille","lat":43.231976,"lon":5.355449,"is_reserved":false,"is_disabled":false,"rental_uris":{"android":"levelo://app?vid=5b830359-30b8-45d9-a902-126192112277","ios":"levelo://app?vid=5b830359-30b8-45d9-a902-126192112277"},"vehicle_type_id":"4","last_reported":1742980225,"current_range_meters":14000,"station_id":"ce4bhu92rcd13ifvqi70","pricing_plan_id":"cebpf4jnsgd1na2vs0mg"},{"bike_id":"f1414457-b578-4c46-b2bf-7e89a08e69ff","system_id":"levelo_inurba_marseille","lat":43.30495,"lon":5.36549,"is_reserved":false,"is_disabled":false,"rental_uris":{"android":"levelo://app?vid=f1414457-b578-4c46-b2bf-7e89a08e69ff","ios":"levelo://app?vid=f1414457-b578-4c46-b2bf-7e89a08e69ff"},"vehicle_type_id":"4","last_reported":1742980225,"current_range_meters":14000,"station_id":"","pricing_plan_id":"cebpf4jnsgd1na2vs0mg"},{"bike_id":"68d42813-4eb5-41fe-a58d-c64b32f2b935","system_id":"levelo_inurba_marseille","lat":43.32362,"lon":5.36764,"is_reserved":false,"is_disabled":false,"rental_uris":{"android":"levelo://app?vid=68d42813-4eb5-41fe-a58d-c64b32f2b935","ios":"levelo://app?vid=68d42813-4eb5-41fe-a58d-c64b32f2b935"},"vehicle_type_id":"4","last_reported":1742980225,"current_range_meters":14000,"station_id":"ce4bhsh2rcd13ifvqi2g","pricing_plan_id":"cebpf4jnsgd1na2vs0mg"},{"bike_id":"379879bf-1f7f-45f5-9cac-b09d574b3620","system_id":"levelo_inurba_marseille","lat":43.23141,"lon":5.43715,"is_reserved":false,"is_disabled":false,"rental_uris":{"android":"levelo://app?vid=379879bf-1f7f-45f5-9cac-b09d574b3620","ios":"levelo://app?vid=379879bf-1f7f-45f5-9cac-b09d574b3620"},"vehicle_type_id":"4","last_reported":1742980225,"current_range_meters":14000,"station_id":"ce4bhmp2rcd13ifvqgog","pricing_plan_id":"cebpf4jnsgd1na2vs0mg"},{"bike_id":"e018165b-85ef-4a9f-b979-57b52370648d","system_id":"levelo_inurba_marseille","lat":43.30548,"lon":5.36542,"is_reserved":false,"is_disabled":false,"rental_uris":{"android":"levelo://app?vid=e018165b-85ef-4a9f-b979-57b52370648d","ios":"levelo://app?vid=e018165b-85ef-4a9f-b979-57b52370648d"},"vehicle_type_id":"4","last_reported":1742980225,"current_range_meters":14000,"station_id":"ce4bgs12rcd13ifvqcag","pricing_plan_id":"cebpf4jnsgd1na2vs0mg"},{"bike_id":"b5e57696-a120-4c97-a0b1-cb108aae85e3","system_id":"levelo_inurba_marseille","lat":43.23147,"lon":5.43708,"is_reserved":false,"is_disabled":false,"rental_uris":{"android":"levelo://app?vid=b5e57696-a120-4c97-a0b1-cb108aae85e3","ios":"levelo://app?vid=b5e57696-a120-4c97-a0b1-cb108aae85e3"},"vehicle_type_id":"4","last_reported":1742980225,"current_range_meters":14000,"station_id":"ce4bhmp2rcd13ifvqgog","pricing_plan_id":"cebpf4jnsgd1na2vs0mg"},{"bike_id":"1f377461-e419-48cf-9a06-4347dee0a6e0","system_id":"levelo_inurba_marseille","lat":43.25109,"lon":5.40324,"is_reserved":false,"is_disabled":false,"rental_uris":{"android":"levelo://app?vid=1f377461-e419-48cf-9a06-4347dee0a6e0","ios":"levelo://app?vid=1f377461-e419-48cf-9a06-4347dee0a6e0"},"vehicle_type_id":"4","last_reported":1742980225,"current_range_meters":14000,"station_id":"ce4bhlh2rcd13ifvqgig","pricing_plan_id":"cebpf4jnsgd1na2vs0mg"},{"bike_id":"a603b2f8-324c-49d1-81fd-0211e0940be8","system_id":"levelo_inurba_marseille","lat":43.23964,"lon":5.36633,"is_reserved":false,"is_disabled":false,"rental_uris":{"android":"levelo://app?vid=a603b2f8-324c-49d1-81fd-0211e0940be8","ios":"levelo://app?vid=a603b2f8-324c-49d1-81fd-0211e0940be8"},"vehicle_type_id":"4","last_reported":1742980225,"current_range_meters":14000,"station_id":"ce4bhi12rcd13ifvqfp0","pricing_plan_id":"cebpf4jnsgd1na2vs0mg"},{"bike_id":"1a597ed0-a3be-4e12-8a99-bd0cc083c316","system_id":"levelo_inurba_marseille","lat":43.30462,"lon":5.37912,"is_reserved":false,"is_disabled":false,"rental_uris":{"android":"levelo://app?vid=1a597ed0-a3be-4e12-8a99-bd0cc083c316","ios":"levelo://app?vid=1a597ed0-a3be-4e12-8a99-bd0cc083c316"},"vehicle_type_id":"4","last_reported":1742980225,"current_range_meters":14400,"station_id":"ce4bgup2rcd13ifvqcn0","pricing_plan_id":"cebpf4jnsgd1na2vs0mg"},{"bike_id":"cdd5d523-33ba-40c2-a505-e8c09fee8afa","system_id":"levelo_inurba_marseille","lat":43.298004,"lon":5.380947,"is_reserved":false,"is_disabled":false,"rental_uris":{"android":"levelo://app?vid=cdd5d523-33ba-40c2-a505-e8c09fee8afa","ios":"levelo://app?vid=cdd5d523-33ba-40c2-a505-e8c09fee8afa"},"vehicle_type_id":"4","last_reported":1742980225,"current_range_meters":14000,"station_id":"ce4bh512rcd13ifvqe3g","pricing_plan_id":"cebpf4jnsgd1na2vs0mg"},{"bike_id":"6a229e76-786b-4748-9253-57e7b584b49d","system_id":"levelo_inurba_marseille","lat":43.25574,"lon":5.38223,"is_reserved":false,"is_disabled":false,"rental_uris":{"android":"levelo://app?vid=6a229e76-786b-4748-9253-57e7b584b49d","ios":"levelo://app?vid=6a229e76-786b-4748-9253-57e7b584b49d"},"vehicle_type_id":"4","last_reported":1742980225,"current_range_meters":14400,"station_id":"ce4bhih2rcd13ifvqfs0","pricing_plan_id":"cebpf4jnsgd1na2vs0mg"},{"bike_id":"57f59764-2b05-49be-8fc8-b1afcb7241f2","system_id":"levelo_inurba_marseille","lat":43.29519,"lon":5.37504,"is_reserved":false,"is_disabled":false,"rental_uris":{"android":"levelo://app?vid=57f59764-2b05-49be-8fc8-b1afcb7241f2","ios":"levelo://app?vid=57f59764-2b05-49be-8fc8-b1afcb7241f2"},"vehicle_type_id":"4","last_reported":1742980225,"current_range_meters":14400,"station_id":"ce4bgkp2rcd13ifvqbmg","pricing_plan_id":"cebpf4jnsgd1na2vs0mg"},{"bike_id":"a7a09dd7-2f8e-4f88-ae28-7e95ddd1c10a","system_id":"levelo_inurba_marseille","lat":43.269941,"lon":5.386759,"is_reserved":false,"is_disabled":false,"rental_uris":{"android":"levelo://app?vid=a7a09dd7-2f8e-4f88-ae28-7e95ddd1c10a","ios":"levelo://app?vid=a7a09dd7-2f8e-4f88-ae28-7e95ddd1c10a"},"vehicle_type_id":"4","last_reported":1742980225,"current_range_meters":14400,"station_id":"ce4bhe12rcd13ifvqf30","pricing_plan_id":"cebpf4jnsgd1na2vs0mg"},{"bike_id":"00f4a948-f5a1-45bf-9bb7-c0d0af4bfda3","system_id":"levelo_inurba_marseille","lat":43.301409,"lon":5.380862,"is_reserved":false,"is_disabled":false,"rental_uris":{"android":"levelo://app?vid=00f4a948-f5a1-45bf-9bb7-c0d0af4bfda3","ios":"levelo://app?vid=00f4a948-f5a1-45bf-9bb7-c0d0af4bfda3"},"vehicle_type_id":"4","last_reported":1742980225,"current_range_meters":14400,"station_id":"ce4bhch2rcd13ifvqeug","pricing_plan_id":"cebpf4jnsgd1na2vs0mg"},{"bike_id":"7e4b498a-163b-450a-94ab-936e7be9c83c","system_id":"levelo_inurba_marseille","lat":43.32355,"lon":5.36747,"is_reserved":false,"is_disabled":false,"rental_uris":{"android":"levelo://app?vid=7e4b498a-163b-450a-94ab-936e7be9c83c","ios":"levelo://app?vid=7e4b498a-163b-450a-94ab-936e7be9c83c"},"vehicle_type_id":"4","last_reported":1742980225,"current_range_meters":14400,"station_id":"ce4bhsh2rcd13ifvqi2g","pricing_plan_id":"cebpf4jnsgd1na2vs0mg"},{"bike_id":"8a1d064b-8562-46a4-8539-94286ec64257","system_id":"levelo_inurba_marseille","lat":43.25868,"lon":5.39896,"is_reserved":false,"is_disabled":false,"rental_uris":{"android":"levelo://app?vid=8a1d064b-8562-46a4-8539-94286ec64257","ios":"levelo://app?vid=8a1d064b-8562-46a4-8539-94286ec64257"},"vehicle_type_id":"4","last_reported":1742980225,"current_range_meters":14400,"station_id":"ce4bhl92rcd13ifvqghg","pricing_plan_id":"cebpf4jnsgd1na2vs0mg"},{"bike_id":"46bc7627-5963-437b-83ed-b3f9497370e8","system_id":"levelo_inurba_marseille","lat":43.299086,"lon":5.436688,"is_reserved":false,"is_disabled":false,"rental_uris":{"android":"levelo://app?vid=46bc7627-5963-437b-83ed-b3f9497370e8","ios":"levelo://app?vid=46bc7627-5963-437b-83ed-b3f9497370e8"},"vehicle_type_id":"4","last_reported":1742980225,"current_range_meters":14400,"station_id":"ce4bhpp2rcd13ifvqhfg","pricing_plan_id":"cebpf4jnsgd1na2vs0mg"},{"bike_id":"8082a2bc-6656-428c-8e19-813b9d8673ad","system_id":"levelo_inurba_marseille","lat":43.30106,"lon":5.37482,"is_reserved":false,"is_disabled":false,"rental_uris":{"android":"levelo://app?vid=8082a2bc-6656-428c-8e19-813b9d8673ad","ios":"levelo://app?vid=8082a2bc-6656-428c-8e19-813b9d8673ad"},"vehicle_type_id":"4","last_reported":1742980225,"current_range_meters":14400,"station_id":"ce4bgs92rcd13ifvqcc0","pricing_plan_id":"cebpf4jnsgd1na2vs0mg"},{"bike_id":"ab3885e5-48b8-4545-bd27-28094bc5e2e1","system_id":"levelo_inurba_marseille","lat":43.301467,"lon":5.374267,"is_reserved":false,"is_disabled":false,"rental_uris":{"android":"levelo://app?vid=ab3885e5-48b8-4545-bd27-28094bc5e2e1","ios":"levelo://app?vid=ab3885e5-48b8-4545-bd27-28094bc5e2e1"},"vehicle_type_id":"4","last_reported":1742980225,"current_range_meters":14800,"station_id":"ce4bgs92rcd13ifvqcc0","pricing_plan_id":"cebpf4jnsgd1na2vs0mg"},{"bike_id":"1c07003a-3333-410f-bd87-aa08fc3ffd08","system_id":"levelo_inurba_marseille","lat":43.27198,"lon":5.4096,"is_reserved":false,"is_disabled":false,"rental_uris":{"android":"levelo://app?vid=1c07003a-3333-410f-bd87-aa08fc3ffd08","ios":"levelo://app?vid=1c07003a-3333-410f-bd87-aa08fc3ffd08"},"vehicle_type_id":"4","last_reported":1742980225,"current_range_meters":14800,"station_id":"ce4bhl12rcd13ifvqgf0","pricing_plan_id":"cebpf4jnsgd1na2vs0mg"},{"bike_id":"c6e3452b-f8d0-48b5-b208-01d642929070","system_id":"levelo_inurba_marseille","lat":43.30547,"lon":5.36701,"is_reserved":false,"is_disabled":false,"rental_uris":{"android":"levelo://app?vid=c6e3452b-f8d0-48b5-b208-01d642929070","ios":"levelo://app?vid=c6e3452b-f8d0-48b5-b208-01d642929070"},"vehicle_type_id":"4","last_reported":1742980225,"current_range_meters":14800,"station_id":"ce4bgrp2rcd13ifvqc9g","pricing_plan_id":"cebpf4jnsgd1na2vs0mg"},{"bike_id":"83aac015-361e-46fc-99b9-1f07a74b976c","system_id":"levelo_inurba_marseille","lat":43.33605,"lon":5.41032,"is_reserved":false,"is_disabled":false,"rental_uris":{"android":"levelo://app?vid=83aac015-361e-46fc-99b9-1f07a74b976c","ios":"levelo://app?vid=83aac015-361e-46fc-99b9-1f07a74b976c"},"vehicle_type_id":"4","last_reported":1742980225,"current_range_meters":15200,"station_id":"ce4bhqh2rcd13ifvqhmg","pricing_plan_id":"cebpf4jnsgd1na2vs0mg"},{"bike_id":"7539c709-757d-4238-8415-2f26ecdd6be0","system_id":"levelo_inurba_marseille","lat":43.28661,"lon":5.36352,"is_reserved":false,"is_disabled":false,"rental_uris":{"android":"levelo://app?vid=7539c709-757d-4238-8415-2f26ecdd6be0","ios":"levelo://app?vid=7539c709-757d-4238-8415-2f26ecdd6be0"},"vehicle_type_id":"4","last_reported":1742980225,"current_range_meters":15200,"station_id":"ce4bhah2rcd13ifvqej0","pricing_plan_id":"cebpf4jnsgd1na2vs0mg"},{"bike_id":"ab255577-419b-4b2c-b48f-5c6fb00afdfd","system_id":"levelo_inurba_marseille","lat":43.32351,"lon":5.36754,"is_reserved":false,"is_disabled":false,"rental_uris":{"android":"levelo://app?vid=ab255577-419b-4b2c-b48f-5c6fb00afdfd","ios":"levelo://app?vid=ab255577-419b-4b2c-b48f-5c6fb00afdfd"},"vehicle_type_id":"4","last_reported":1742980225,"current_range_meters":15200,"station_id":"ce4bhsh2rcd13ifvqi2g","pricing_plan_id":"cebpf4jnsgd1na2vs0mg"},{"bike_id":"e248b38b-c29e-4a88-808a-bebb493d0d86","system_id":"levelo_inurba_marseille","lat":43.24384,"lon":5.37052,"is_reserved":false,"is_disabled":false,"rental_uris":{"android":"levelo://app?vid=e248b38b-c29e-4a88-808a-bebb493d0d86","ios":"levelo://app?vid=e248b38b-c29e-4a88-808a-bebb493d0d86"},"vehicle_type_id":"4","last_reported":1742980225,"current_range_meters":16000,"station_id":"ce4bhhh2rcd13ifvqfk0","pricing_plan_id":"cebpf4jnsgd1na2vs0mg"},{"bike_id":"5d34a88f-e60d-4821-a85a-378298906811","system_id":"levelo_inurba_marseille","lat":43.33603,"lon":5.41023,"is_reserved":false,"is_disabled":false,"rental_uris":{"android":"levelo://app?vid=5d34a88f-e60d-4821-a85a-378298906811","ios":"levelo://app?vid=5d34a88f-e60d-4821-a85a-378298906811"},"vehicle_type_id":"4","last_reported":1742980225,"current_range_meters":16000,"station_id":"ce4bhqh2rcd13ifvqhmg","pricing_plan_id":"cebpf4jnsgd1na2vs0mg"},{"bike_id":"c8c01adc-5f8e-489a-91bd-e5fc7697064b","system_id":"levelo_inurba_marseille","lat":43.305293,"lon":5.365368,"is_reserved":false,"is_disabled":false,"rental_uris":{"android":"levelo://app?vid=c8c01adc-5f8e-489a-91bd-e5fc7697064b","ios":"levelo://app?vid=c8c01adc-5f8e-489a-91bd-e5fc7697064b"},"vehicle_type_id":"4","last_reported":1742980225,"current_range_meters":16000,"station_id":"ce4bgs12rcd13ifvqcag","pricing_plan_id":"cebpf4jnsgd1na2vs0mg"},{"bike_id":"26a47bbc-7d75-44b8-9864-11f6acf207bc","system_id":"levelo_inurba_marseille","lat":43.24662,"lon":5.38914,"is_reserved":false,"is_disabled":false,"rental_uris":{"android":"levelo://app?vid=26a47bbc-7d75-44b8-9864-11f6acf207bc","ios":"levelo://app?vid=26a47bbc-7d75-44b8-9864-11f6acf207bc"},"vehicle_type_id":"4","last_reported":1742980225,"current_range_meters":16000,"station_id":"","pricing_plan_id":"cebpf4jnsgd1na2vs0mg"},{"bike_id":"a3ae93ad-53e5-4cc9-b231-7cabfe495b80","system_id":"levelo_inurba_marseille","lat":43.29839,"lon":5.36266,"is_reserved":false,"is_disabled":false,"rental_uris":{"android":"levelo://app?vid=a3ae93ad-53e5-4cc9-b231-7cabfe495b80","ios":"levelo://app?vid=a3ae93ad-53e5-4cc9-b231-7cabfe495b80"},"vehicle_type_id":"4","last_reported":1742980225,"current_range_meters":16000,"station_id":"ce4bgpp2rcd13ifvqc3g","pricing_plan_id":"cebpf4jnsgd1na2vs0mg"},{"bike_id":"94e79fc7-9367-4952-8689-794a28fc3d39","system_id":"levelo_inurba_marseille","lat":43.29887,"lon":5.4368,"is_reserved":false,"is_disabled":false,"rental_uris":{"android":"levelo://app?vid=94e79fc7-9367-4952-8689-794a28fc3d39","ios":"levelo://app?vid=94e79fc7-9367-4952-8689-794a28fc3d39"},"vehicle_type_id":"4","last_reported":1742980225,"current_range_meters":16000,"station_id":"ce4bhpp2rcd13ifvqhfg","pricing_plan_id":"cebpf4jnsgd1na2vs0mg"},{"bike_id":"3cacb6a0-7ea6-4b88-824d-1ab254ed1d44","system_id":"levelo_inurba_marseille","lat":43.33601,"lon":5.41034,"is_reserved":false,"is_disabled":false,"rental_uris":{"android":"levelo://app?vid=3cacb6a0-7ea6-4b88-824d-1ab254ed1d44","ios":"levelo://app?vid=3cacb6a0-7ea6-4b88-824d-1ab254ed1d44"},"vehicle_type_id":"4","last_reported":1742980225,"current_range_meters":16000,"station_id":"ce4bhqh2rcd13ifvqhmg","pricing_plan_id":"cebpf4jnsgd1na2vs0mg"},{"bike_id":"75c7187b-7cb5-4136-b180-795a32bcbe1d","system_id":"levelo_inurba_marseille","lat":43.27974,"lon":5.38589,"is_reserved":false,"is_disabled":true,"rental_uris":{"android":"levelo://app?vid=75c7187b-7cb5-4136-b180-795a32bcbe1d","ios":"levelo://app?vid=75c7187b-7cb5-4136-b180-795a32bcbe1d"},"vehicle_type_id":"4","last_reported":1742980225,"current_range_meters":16000,"station_id":"","pricing_plan_id":"cebpf4jnsgd1na2vs0mg"},{"bike_id":"765e2e3b-db70-414c-a180-e7e8466c9b78","system_id":"levelo_inurba_marseille","lat":43.27496,"lon":5.42451,"is_reserved":false,"is_disabled":false,"rental_uris":{"android":"levelo://app?vid=765e2e3b-db70-414c-a180-e7e8466c9b78","ios":"levelo://app?vid=765e2e3b-db70-414c-a180-e7e8466c9b78"},"vehicle_type_id":"4","last_reported":1742980225,"current_range_meters":16000,"station_id":"ce4bhn92rcd13ifvqgrg","pricing_plan_id":"cebpf4jnsgd1na2vs0mg"},{"bike_id":"c093a7d4-b886-4347-89c9-386e49a112e6","system_id":"levelo_inurba_marseille","lat":43.26681,"lon":5.38261,"is_reserved":false,"is_disabled":false,"rental_uris":{"android":"levelo://app?vid=c093a7d4-b886-4347-89c9-386e49a112e6","ios":"levelo://app?vid=c093a7d4-b886-4347-89c9-386e49a112e6"},"vehicle_type_id":"4","last_reported":1742980225,"current_range_meters":16000,"station_id":"ce4bhg92rcd13ifvqf90","pricing_plan_id":"cebpf4jnsgd1na2vs0mg"},{"bike_id":"95246acf-5e02-4e9d-9bc9-59c152d321ff","system_id":"levelo_inurba_marseille","lat":43.29527,"lon":5.37504,"is_reserved":false,"is_disabled":false,"rental_uris":{"android":"levelo://app?vid=95246acf-5e02-4e9d-9bc9-59c152d321ff","ios":"levelo://app?vid=95246acf-5e02-4e9d-9bc9-59c152d321ff"},"vehicle_type_id":"4","last_reported":1742980225,"current_range_meters":16000,"station_id":"ce4bgkp2rcd13ifvqbmg","pricing_plan_id":"cebpf4jnsgd1na2vs0mg"},{"bike_id":"6fcfdccf-9044-49ee-acde-501b32f49492","system_id":"levelo_inurba_marseille","lat":43.27484,"lon":5.42461,"is_reserved":false,"is_disabled":false,"rental_uris":{"android":"levelo://app?vid=6fcfdccf-9044-49ee-acde-501b32f49492","ios":"levelo://app?vid=6fcfdccf-9044-49ee-acde-501b32f49492"},"vehicle_type_id":"4","last_reported":1742980225,"current_range_meters":16000,"station_id":"ce4bhn92rcd13ifvqgrg","pricing_plan_id":"cebpf4jnsgd1na2vs0mg"},{"bike_id":"5a86a0ff-a812-42dc-84dd-dff8f4cf06da","system_id":"levelo_inurba_marseille","lat":43.281232,"lon":5.378353,"is_reserved":false,"is_disabled":false,"rental_uris":{"android":"levelo://app?vid=5a86a0ff-a812-42dc-84dd-dff8f4cf06da","ios":"levelo://app?vid=5a86a0ff-a812-42dc-84dd-dff8f4cf06da"},"vehicle_type_id":"4","last_reported":1742980225,"current_range_meters":16000,"station_id":"ce4bha12rcd13ifvqee0","pricing_plan_id":"cebpf4jnsgd1na2vs0mg"},{"bike_id":"7707ba99-4220-4c06-9477-d400a44a399f","system_id":"levelo_inurba_marseille","lat":43.29796,"lon":5.38099,"is_reserved":false,"is_disabled":false,"rental_uris":{"android":"levelo://app?vid=7707ba99-4220-4c06-9477-d400a44a399f","ios":"levelo://app?vid=7707ba99-4220-4c06-9477-d400a44a399f"},"vehicle_type_id":"4","last_reported":1742980225,"current_range_meters":16400,"station_id":"ce4bgip2rcd13ifvqbb0","pricing_plan_id":"cebpf4jnsgd1na2vs0mg"},{"bike_id":"29730c40-6535-4c36-9b72-3d655b1047b3","system_id":"levelo_inurba_marseille","lat":43.30532,"lon":5.38416,"is_reserved":false,"is_disabled":false,"rental_uris":{"android":"levelo://app?vid=29730c40-6535-4c36-9b72-3d655b1047b3","ios":"levelo://app?vid=29730c40-6535-4c36-9b72-3d655b1047b3"},"vehicle_type_id":"4","last_reported":1742980225,"current_range_meters":16400,"station_id":"ce4bgg92rcd13ifvqb30","pricing_plan_id":"cebpf4jnsgd1na2vs0mg"},{"bike_id":"24a1248f-5e8a-4578-9a89-a7ea39a78ae1","system_id":"levelo_inurba_marseille","lat":43.27961,"lon":5.41059,"is_reserved":false,"is_disabled":true,"rental_uris":{"android":"levelo://app?vid=24a1248f-5e8a-4578-9a89-a7ea39a78ae1","ios":"levelo://app?vid=24a1248f-5e8a-4578-9a89-a7ea39a78ae1"},"vehicle_type_id":"4","last_reported":1742980225,"current_range_meters":16400,"station_id":"ce4bhnp2rcd13ifvqh0g","pricing_plan_id":"cebpf4jnsgd1na2vs0mg"},