{"last_updated":1746677690,"ttl":60,"version":"2.2","data":{"bikes":[{"bike_id":"4fe44c6f-4956-44d3-9435-7d3f522b7497","system_id":"levelo_inurba_marseille","lat":43.280983,"lon":5.408576,"is_reserved":false,"is_disabled":false,"rental_uris":{"android":"levelo://app?vid=4fe44c6f-4956-44d3-9435-7d3f522b7497","ios":"levelo://app?vid=4fe44c6f-4956-44d3-9435-7d3f522b7497"},"vehicle_type_id":"4","last_reported":1746677690,"current_range_meters":2800,"station_id":"","pricing_plan_id":"cebpf4jnsgd1na2vs0mg"},{"bike_id":"16cbd0c4-f3ab-4604-bddd-a0596f5e94ce","system_id":"levelo_inurba_marseille","lat":43.30779,"lon":5.37648,"is_reserved":false,"is_disabled":false,"rental_uris":{"android":"levelo://app?vid=16cbd0c4-f3ab-4604-bddd-a0596f5e94ce","ios":"levelo://app?vid=16cbd0c4-f3ab-4604-bddd-a0596f5e94ce"},"vehicle_type_id":"4","last_reported":1746677690,"current_range_meters":2800,"station_id":"ce4bgv92rcd13ifvqcq0","pricing_plan_id":"cebpf4jnsgd1na2vs0mg"},{"bike_id":"63cb73aa-86fe-4599-9b76-3790ec130780","system_id":"levelo_inurba_marseille","lat":43.29581,"lon":5.37909,"is_reserved":false,"is_disabled":false,"rental_uris":{"android":"levelo://app?vid=63cb73aa-86fe-4599-9b76-3790ec130780","ios":"levelo://app?vid=63cb73aa-86fe-4599-9b76-3790ec130780"},"vehicle_type_id":"4","last_reported":1746677690,"current_range_meters":2800,"station_id":"","pricing_plan_id":"cebpf4jnsgd1na2vs0mg"},{"bike_id":"92725351-a1ce-45d5-a552-16c91880da90","system_id":"levelo_inurba_marseille","lat":43.31066,"lon":5.383478,"is_reserved":false,"is_disabled":false,"rental_uris":{"android":"levelo://app?vid=92725351-a1ce-45d5-a552-16c91880da90","ios":"levelo://app?vid=92725351-a1ce-45d5-a552-16c91880da90"},"vehicle_type_id":"4","last_reported":1746677690,"current_range_meters":3200,"station_id":"ce4bgv92rcd13ifvqcr0","pricing_plan_id":"cebpf4jnsgd1na2vs0mg"},{"bike_id":"351c998d-7524-4daf-aa92-d5e4d72a1b49","system_id":"levelo_inurba_marseille","lat":43.308065,"lon":5.381457,"is_reserved":false,"is_disabled":false,"rental_uris":{"android":"levelo://app?vid=351c998d-7524-4daf-aa92-d5e4d72a1b49","ios":"levelo://app?vid=351c998d-7524-4daf-aa92-d5e4d72a1b49"},"vehicle_type_id":"4","last_reported":1746677690,"current_range_meters":3200,"station_id":"ce4bgt12rcd13ifvqce0","pricing_plan_id":"cebpf4jnsgd1na2vs0mg"},{"bike_id":"c9592205-9409-4f74-aed1-7c4141a58caa","system_id":"levelo_inurba_marseille","lat":43.27139,"lon":5.36388,"is_reserved":false,"is_disabled":false,"rental_uris":{"android":"levelo://app?vid=c9592205-9409-4f74-aed1-7c4141a58caa","ios":"levelo://app?vid=c9592205-9409-4f74-aed1-7c4141a58caa"},"vehicle_type_id":"4","last_reported":1746677690,"current_range_meters":3200,"station_id":"","pricing_plan_id":"cebpf4jnsgd1na2vs0mg"},{"bike_id":"5f89e5d8-8e5e-4a6d-901c-70aafb0a905d","system_id":"levelo_inurba_marseille","lat":43.292378,"lon":5.373854,"is_reserved":false,"is_disabled":false,"rental_uris":{"android":"levelo://app?vid=5f89e5d8-8e5e-4a6d-901c-70aafb0a905d","ios":"levelo://app?vid=5f89e5d8-8e5e-4a6d-901c-70aafb0a905d"},"vehicle_type_id":"4","last_reported":1746677690,"current_range_meters":4000,"station_id":"","pricing_plan_id":"cebpf4jnsgd1na2vs0mg"},{"bike_id":"78d6cd42-7367-40db-afa3-81e38969457f","system_id":"levelo_inurba_marseille","lat":43.301348,"lon":5.398791,"is_reserved":false,"is_disabled":false,"rental_uris":{"android":"levelo://app?vid=78d6cd42-7367-40db-afa3-81e38969457f","ios":"levelo://app?vid=78d6cd42-7367-40db-afa3-81e38969457f"},"vehicle_type_id":"4","last_reported":1746677690,"current_range_meters":4000,"station_id":"ce4bh0h2rcd13ifvqd40","pricing_plan_id":"cebpf4jnsgd1na2vs0mg"},{"bike_id":"45aaad29-61be-4b55-a624-2b9190511697","system_id":"levelo_inurba_marseille","lat":43.28429,"lon":5.37507,"is_reserved":false,"is_disabled":false,"rental_uris":{"android":"levelo://app?vid=45aaad29-61be-4b55-a624-2b9190511697","ios":"levelo://app?vid=45aaad29-61be-4b55-a624-2b9190511697"},"vehicle_type_id":"4","last_reported":1746677690,"current_range_meters":4000,"station_id":"ce4bh412rcd13ifvqds0","pricing_plan_id":"cebpf4jnsgd1na2vs0mg"},{"bike_id":"705f1f6f-d92c-4df1-a512-943b0bf79900","system_id":"levelo_inurba_marseille","lat":43.22502,"lon":5.34793,"is_reserved":false,"is_disabled":false,"rental_uris":{"android":"levelo://app?vid=705f1f6f-d92c-4df1-a512-943b0bf79900","ios":"levelo://app?vid=705f1f6f-d92c-4df1-a512-943b0bf79900"},"vehicle_type_id":"4","last_reported":1746677690,"current_range_meters":4000,"station_id":"st_cvj5dfep6f1abm77gieg","pricing_plan_id":"cebpf4jnsgd1na2vs0mg"},{"bike_id":"da1da5b7-01c4-402d-9f7a-8ee4a44e531b","system_id":"levelo_inurba_marseille","lat":43.23148,"lon":5.43727,"is_reserved":false,"is_disabled":false,"rental_uris":{"android":"levelo://app?vid=da1da5b7-01c4-402d-9f7a-8ee4a44e531b","ios":"levelo://app?vid=da1da5b7-01c4-402d-9f7a-8ee4a44e531b"},"vehicle_type_id":"4","last_reported":1746677690,"current_range_meters":4400,"station_id":"ce4bhmp2rcd13ifvqgog","pricing_plan_id":"cebpf4jnsgd1na2vs0mg"},{"bike_id":"4ffe4636-e089-4bed-8651-8a5d07b6f76b","system_id":"levelo_inurba_marseille","lat":43.31716,"lon":5.40466,"is_reserved":false,"is_disabled":false,"rental_uris":{"android":"levelo://app?vid=4ffe4636-e089-4bed-8651-8a5d07b6f76b","ios":"levelo://app?vid=4ffe4636-e089-4bed-8651-8a5d07b6f76b"},"vehicle_type_id":"4","last_reported":1746677690,"current_range_meters":4800,"station_id":"ce4bh012rcd13ifvqd00","pricing_plan_id":"cebpf4jnsgd1na2vs0mg"},{"bike_id":"406e84c6-4b16-44c2-b175-144ad146b8ce","system_id":"levelo_inurba_marseille","lat":43.290654,"lon":5.371523,"is_reserved":false,"is_disabled":true,"rental_uris":{"android":"levelo://app?vid=406e84c6-4b16-44c2-b175-144ad146b8ce","ios":"levelo://app?vid=406e84c6-4b16-44c2-b175-144ad146b8ce"},"vehicle_type_id":"4","last_reported":1746677690,"current_range_meters":4800,"station_id":"ce4bh5p2rcd13ifvqe4g","pricing_plan_id":"cebpf4jnsgd1na2vs0mg"},{"bike_id":"d38c6f35-9b5a-4701-b635-4daf6aa6dc6d","system_id":"levelo_inurba_marseille","lat":43.313206,"lon":5.397168,"is_reserved":false,"is_disabled":false,"rental_uris":{"android":"levelo://app?vid=d38c6f35-9b5a-4701-b635-4daf6aa6dc6d","ios":"levelo://app?vid=d38c6f35-9b5a-4701-b635-4daf6aa6dc6d"},"vehicle_type_id":"4","last_reported":1746677690,"current_range_meters":4800,"station_id":"ce4bgvp2rcd13ifvqcu0","pricing_plan_id":"cebpf4jnsgd1na2vs0mg"},{"bike_id":"f0c95ea1-4fc5-467b-9fcd-175e60806ba9","system_id":"levelo_inurba_marseille","lat":43.307707,"lon":5.376577,"is_reserved":false,"is_disabled":false,"rental_uris":{"android":"levelo://app?vid=f0c95ea1-4fc5-467b-9fcd-175e60806ba9","ios":"levelo://app?vid=f0c95ea1-4fc5-467b-9fcd-175e60806ba9"},"vehicle_type_id":"4","last_reported":1746677690,"current_range_meters":5600,"station_id":"ce4bgv92rcd13ifvqcq0","pricing_plan_id":"cebpf4jnsgd1na2vs0mg"},{"bike_id":"6be85270-949b-41b0-bafa-6a9ac2af25b4","system_id":"levelo_inurba_marseille","lat":43.324,"lon":5.39001,"is_reserved":false,"is_disabled":true,"rental_uris":{"android":"levelo://app?vid=6be85270-949b-41b0-bafa-6a9ac2af25b4","ios":"levelo://app?vid=6be85270-949b-41b0-bafa-6a9ac2af25b4"},"vehicle_type_id":"4","last_reported":1746677690,"current_range_meters":5600,"station_id":"","pricing_plan_id":"cebpf4jnsgd1na2vs0mg"},{"bike_id":"511a1b48-d342-4461-a7ca-feb9b7b58bfb","system_id":"levelo_inurba_marseille","lat":43.28418,"lon":5.37525,"is_reserved":false,"is_disabled":false,"rental_uris":{"android":"levelo://app?vid=511a1b48-d342-4461-a7ca-feb9b7b58bfb","ios":"levelo://app?vid=511a1b48-d342-4461-a7ca-feb9b7b58bfb"},"vehicle_type_id":"4","last_reported":1746677690,"current_range_meters":5600,"station_id":"ce4bh412rcd13ifvqds0","pricing_plan_id":"cebpf4jnsgd1na2vs0mg"},{"bike_id":"65e1084f-ebcf-4601-908e-c0c52240a2e5","system_id":"levelo_inurba_marseille","lat":43.26205,"lon":5.379219,"is_reserved":false,"is_disabled":true,"rental_uris":{"android":"levelo://app?vid=65e1084f-ebcf-4601-908e-c0c52240a2e5","ios":"levelo://app?vid=65e1084f-ebcf-4601-908e-c0c52240a2e5"},"vehicle_type_id":"4","last_reported":1746677690,"current_range_meters":6000,"station_id":"ce4bhjp2rcd13ifvqg90","pricing_plan_id":"cebpf4jnsgd1na2vs0mg"},{"bike_id":"1496fd3b-8e15-4e17-813d-5cc0107c427c","system_id":"levelo_inurba_marseille","lat":43.30929,"lon":5.40148,"is_reserved":false,"is_disabled":false,"rental_uris":{"android":"levelo://app?vid=1496fd3b-8e15-4e17-813d-5cc0107c427c","ios":"levelo://app?vid=1496fd3b-8e15-4e17-813d-5cc0107c427c"},"vehicle_type_id":"4","last_reported":1746677690,"current_range_meters":6000,"station_id":"ce4bgvp2rcd13ifvqct0","pricing_plan_id":"cebpf4jnsgd1na2vs0mg"},{"bike_id":"88f90c5c-6128-4b9d-bb34-6e1b40933e50","system_id":"levelo_inurba_marseille","lat":43.282956,"lon":5.432216,"is_reserved":false,"is_disabled":false,"rental_uris":{"android":"levelo://app?vid=88f90c5c-6128-4b9d-bb34-6e1b40933e50","ios":"levelo://app?vid=88f90c5c-6128-4b9d-bb34-6e1b40933e50"},"vehicle_type_id":"4","last_reported":1746677690,"current_range_meters":6000,"station_id":"","pricing_plan_id":"cebpf4jnsgd1na2vs0mg"},{"bike_id":"bb9bd20c-3c3b-4ad2-a135-a54fd9e64545","system_id":"levelo_inurba_marseille","lat":43.24072,"lon":5.37795,"is_reserved":false,"is_disabled":false,"rental_uris":{"android":"levelo://app?vid=bb9bd20c-3c3b-4ad2-a135-a54fd9e64545","ios":"levelo://app?vid=bb9bd20c-3c3b-4ad2-a135-a54fd9e64545"},"vehicle_type_id":"4","last_reported":1746677690,"current_range_meters":6400,"station_id":"ce4bhnp2rcd13ifvqgvg","pricing_plan_id":"cebpf4jnsgd1na2vs0mg"},{"bike_id":"2eb3c6b8-2801-4650-907a-e3f09f8c5ba1","system_id":"levelo_inurba_marseille","lat":43.31186,"lon":5.38701,"is_reserved":false,"is_disabled":false,"rental_uris":{"android":"levelo://app?vid=2eb3c6b8-2801-4650-907a-e3f09f8c5ba1","ios":"levelo://app?vid=2eb3c6b8-2801-4650-907a-e3f09f8c5ba1"},"vehicle_type_id":"4","last_reported":1746677690,"current_range_meters":6400,"station_id":"ce4bgv12rcd13ifvqcp0","pricing_plan_id":"cebpf4jnsgd1na2vs0mg"},{"bike_id":"550a0abb-925d-499a-8bb1-f4f2c932bb08","system_id":"levelo_inurba_marseille","lat":43.2397,"lon":5.36633,"is_reserved":false,"is_disabled":false,"rental_uris":{"android":"levelo://app?vid=550a0abb-925d-499a-8bb1-f4f2c932bb08","ios":"levelo://app?vid=550a0abb-925d-499a-8bb1-f4f2c932bb08"},"vehicle_type_id":"4","last_reported":1746677690,"current_range_meters":6400,"station_id":"ce4bhi12rcd13ifvqfp0","pricing_plan_id":"cebpf4jnsgd1na2vs0mg"},{"bike_id":"ebcb5402-009b-4a85-a64a-1ddb8811c73b","system_id":"levelo_inurba_marseille","lat":43.30241,"lon":5.40091,"is_reserved":false,"is_disabled":true,"rental_uris":{"android":"levelo://app?vid=ebcb5402-009b-4a85-a64a-1ddb8811c73b","ios":"levelo://app?vid=ebcb5402-009b-4a85-a64a-1ddb8811c73b"},"vehicle_type_id":"4","last_reported":1746677690,"current_range_meters":6400,"station_id":"ce4bgvh2rcd13ifvqcs0","pricing_plan_id":"cebpf4jnsgd1na2vs0mg"},{"bike_id":"e16a169d-ac6f-418c-a095-9a9b0792d8ff","system_id":"levelo_inurba_marseille","lat":43.284576,"lon":5.358834,"is_reserved":false,"is_disabled":false,"rental_uris":{"android":"levelo://app?vid=e16a169d-ac6f-418c-a095-9a9b0792d8ff","ios":"levelo://app?vid=e16a169d-ac6f-418c-a095-9a9b0792d8ff"},"vehicle_type_id":"4","last_reported":1746677690,"current_range_meters":6400,"station_id":"ce4bhah2rcd13ifvqei0","pricing_plan_id":"cebpf4jnsgd1na2vs0mg"},{"bike_id":"7fc497f0-f2cb-4eae-91fe-c25c43380474","system_id":"levelo_inurba_marseille","lat":43.26803,"lon":5.402614,"is_reserved":false,"is_disabled":false,"rental_uris":{"android":"levelo://app?vid=7fc497f0-f2cb-4eae-91fe-c25c43380474","ios":"levelo://app?vid=7fc497f0-f2cb-4eae-91fe-c25c43380474"},"vehicle_type_id":"4","last_reported":1746677690,"current_range_meters":6400,"station_id":"ce501612rcd8frsf0b60","pricing_plan_id":"cebpf4jnsgd1na2vs0mg"},{"bike_id":"aa6eaa6f-a172-4a31-8500-b76476b59cb3","system_id":"levelo_inurba_marseille","lat":43.23179,"lon":5.39994,"is_reserved":false,"is_disabled":false,"rental_uris":{"android":"levelo://app?vid=aa6eaa6f-a172-4a31-8500-b76476b59cb3","ios":"levelo://app?vid=aa6eaa6f-a172-4a31-8500-b76476b59cb3"},"vehicle_type_id":"4","last_reported":1746677690,"current_range_meters":6800,"station_id":"ce4bhn12rcd13ifvqgqg","pricing_plan_id":"cebpf4jnsgd1na2vs0mg"},{"bike_id":"082b5772-10bb-4282-bdbf-aa00094bbf28","system_id":"levelo_inurba_marseille","lat":43.270588,"lon":5.402632,"is_reserved":false,"is_disabled":false,"rental_uris":{"android":"levelo://app?vid=082b5772-10bb-4282-bdbf-aa00094bbf28","ios":"levelo://app?vid=082b5772-10bb-4282-bdbf-aa00094bbf28"},"vehicle_type_id":"4","last_reported":1746677690,"current_range_meters":6800,"station_id":"ce4bhk92rcd13ifvqgc0","pricing_plan_id":"cebpf4jnsgd1na2vs0mg"},{"bike_id":"b305b914-f92b-4621-a604-a66b86730743","system_id":"levelo_inurba_marseille","lat":43.28937,"lon":5.39633,"is_reserved":false,"is_disabled":false,"rental_uris":{"android":"levelo://app?vid=b305b914-f92b-4621-a604-a66b86730743","ios":"levelo://app?vid=b305b914-f92b-4621-a604-a66b86730743"},"vehicle_type_id":"4","last_reported":1746677690,"current_range_meters":6800,"station_id":"ce4bh3h2rcd13ifvqdn0","pricing_plan_id":"cebpf4jnsgd1na2vs0mg"},{"bike_id":"0e10e92a-439e-4081-803c-5f351bcf88ef","system_id":"levelo_inurba_marseille","lat":43.27949,"lon":5.41042,"is_reserved":false,"is_disabled":false,"rental_uris":{"android":"levelo://app?vid=0e10e92a-439e-4081-803c-5f351bcf88ef","ios":"levelo://app?vid=0e10e92a-439e-4081-803c-5f351bcf88ef"},"vehicle_type_id":"4","last_reported":1746677690,"current_range_meters":7200,"station_id":"ce4bhnp2rcd13ifvqh0g","pricing_plan_id":"cebpf4jnsgd1na2vs0mg"},{"bike_id":"922f47de-f5fb-4e00-9974-a09ff3caf4c7","system_id":"levelo_inurba_marseille","lat":43.24179,"lon":5.3971,"is_reserved":false,"is_disabled":false,"rental_uris":{"android":"levelo://app?vid=922f47de-f5fb-4e00-9974-a09ff3caf4c7","ios":"levelo://app?vid=922f47de-f5fb-4e00-9974-a09ff3caf4c7"},"vehicle_type_id":"4","last_reported":1746677690,"current_range_meters":7200,"station_id":"ce4bhn12rcd13ifvqgpg","pricing_plan_id":"cebpf4jnsgd1na2vs0mg"},{"bike_id":"81ba7db5-5264-4e66-9236-ac68ced72379","system_id":"levelo_inurba_marseille","lat":43.313727,"lon":5.384953,"is_reserved":false,"is_disabled":false,"rental_uris":{"android":"levelo://app?vid=81ba7db5-5264-4e66-9236-ac68ced72379","ios":"levelo://app?vid=81ba7db5-5264-4e66-9236-ac68ced72379"},"vehicle_type_id":"4","last_reported":1746677690,"current_range_meters":7200,"station_id":"ce4bgt92rcd13ifvqcf0","pricing_plan_id":"cebpf4jnsgd1na2vs0mg"},{"bike_id":"9d03e3b9-cc02-47cb-8220-42e752a6ad34","system_id":"levelo_inurba_marseille","lat":43.28993,"lon":5.476996,"is_reserved":false,"is_disabled":false,"rental_uris":{"android":"levelo://app?vid=9d03e3b9-cc02-47cb-8220-42e752a6ad34","ios":"levelo://app?vid=9d03e3b9-cc02-47cb-8220-42e752a6ad34"},"vehicle_type_id":"4","last_reported":1746677690,"current_range_meters":7200,"station_id":"","pricing_plan_id":"cebpf4jnsgd1na2vs0mg"},{"bike_id":"741b655c-a3a9-46a1-bbce-25f85ccce089","system_id":"levelo_inurba_marseille","lat":43.276619,"lon":5.380389,"is_reserved":false,"is_disabled":false,"rental_uris":{"android":"levelo://app?vid=741b655c-a3a9-46a1-bbce-25f85ccce089","ios":"levelo://app?vid=741b655c-a3a9-46a1-bbce-25f85ccce089"},"vehicle_type_id":"4","last_reported":1746677690,"current_range_meters":7200,"station_id":"","pricing_plan_id":"cebpf4jnsgd1na2vs0mg"},{"bike_id":"96cde410-af28-430b-883d-e5b9a0d0cbac","system_id":"levelo_inurba_marseille","lat":43.251081,"lon":5.403331,"is_reserved":false,"is_disabled":false,"rental_uris":{"android":"levelo://app?vid=96cde410-af28-430b-883d-e5b9a0d0cbac","ios":"levelo://app?vid=96cde410-af28-430b-883d-e5b9a0d0cbac"},"vehicle_type_id":"4","last_reported":1746677690,"current_range_meters":7200,"station_id":"ce4bhlh2rcd13ifvqgig","pricing_plan_id":"cebpf4jnsgd1na2vs0mg"},{"bike_id":"fb158fd2-2336-47ee-a8b2-1a7cf41ae5f2","system_id":"levelo_inurba_marseille","lat":43.264958,"lon":5.395449,"is_reserved":false,"is_disabled":false,"rental_uris":{"android":"levelo://app?vid=fb158fd2-2336-47ee-a8b2-1a7cf41ae5f2","ios":"levelo://app?vid=fb158fd2-2336-47ee-a8b2-1a7cf41ae5f2"},"vehicle_type_id":"4","last_reported":1746677690,"current_range_meters":7200,"station_id":"ce4bhi12rcd13ifvqfq0","pricing_plan_id":"cebpf4jnsgd1na2vs0mg"},{"bike_id":"dfd27e22-9b34-42f8-9fdf-f3a07c5bdce7","system_id":"levelo_inurba_marseille","lat":43.24165,"lon":5.36397,"is_reserved":false,"is_disabled":false,"rental_uris":{"android":"levelo://app?vid=dfd27e22-9b34-42f8-9fdf-f3a07c5bdce7","ios":"levelo://app?vid=dfd27e22-9b34-42f8-9fdf-f3a07c5bdce7"},"vehicle_type_id":"4","last_reported":1746677690,"current_range_meters":7200,"station_id":"cpo36qri1sfpv3e86is0","pricing_plan_id":"cebpf4jnsgd1na2vs0mg"},{"bike_id":"e643ab0a-d97d-4d9f-bf0d-21fd7dcb7558","system_id":"levelo_inurba_marseille","lat":43.324503,"lon":5.411387,"is_reserved":false,"is_disabled":false,"rental_uris":{"android":"levelo://app?vid=e643ab0a-d97d-4d9f-bf0d-21fd7dcb7558","ios":"levelo://app?vid=e643ab0a-d97d-4d9f-bf0d-21fd7dcb7558"},"vehicle_type_id":"4","last_reported":1746677690,"current_range_meters":7200,"station_id":"","pricing_plan_id":"cebpf4jnsgd1na2vs0mg"},{"bike_id":"fa63a7e4-e781-4293-89ae-80fbf3b33863","system_id":"levelo_inurba_marseille","lat":43.254524,"lon":5.418685,"is_reserved":false,"is_disabled":false,"rental_uris":{"android":"levelo://app?vid=fa63a7e4-e781-4293-89ae-80fbf3b33863","ios":"levelo://app?vid=fa63a7e4-e781-4293-89ae-80fbf3b33863"},"vehicle_type_id":"4","last_reported":1746677690,"current_range_meters":8000,"station_id":"","pricing_plan_id":"cebpf4jnsgd1na2vs0mg"},{"bike_id":"2e445f61-4a73-4073-acba-6c82db587ecc","system_id":"levelo_inurba_marseille","lat":43.294564,"lon":5.396147,"is_reserved":false,"is_disabled":false,"rental_uris":{"android":"levelo://app?vid=2e445f61-4a73-4073-acba-6c82db587ecc","ios":"levelo://app?vid=2e445f61-4a73-4073-acba-6c82db587ecc"},"vehicle_type_id":"4","last_reported":1746677690,"current_range_meters":8000,"station_id":"","pricing_plan_id":"cebpf4jnsgd1na2vs0mg"},{"bike_id":"de08f367-3ba8-4ab1-ad17-0f6a6563b4e5","system_id":"levelo_inurba_marseille","lat":43.28211,"lon":5.39902,"is_reserved":false,"is_disabled":true,"rental_uris":{"android":"levelo://app?vid=de08f367-3ba8-4ab1-ad17-0f6a6563b4e5","ios":"levelo://app?vid=de08f367-3ba8-4ab1-ad17-0f6a6563b4e5"},"vehicle_type_id":"4","last_reported":1746677690,"current_range_meters":8000,"station_id":"","pricing_plan_id":"cebpf4jnsgd1na2vs0mg"},{"bike_id":"149dbc3f-738a-4425-9044-fb81967ea585","system_id":"levelo_inurba_marseille","lat":43.23055,"lon":5.35494,"is_reserved":false,"is_disabled":false,"rental_uris":{"android":"levelo://app?vid=149dbc3f-738a-4425-9044-fb81967ea585","ios":"levelo://app?vid=149dbc3f-738a-4425-9044-fb81967ea585"},"vehicle_type_id":"4","last_reported":1746677690,"current_range_meters":8000,"station_id":"cpo3342slgdg3j2ifvpg","pricing_plan_id":"cebpf4jnsgd1na2vs0mg"},{"bike_id":"5872f101-9271-4805-860d-0ee54b52f844","system_id":"levelo_inurba_marseille","lat":43.32282,"lon":5.38285,"is_reserved":false,"is_disabled":false,"rental_uris":{"android":"levelo://app?vid=5872f101-9271-4805-860d-0ee54b52f844","ios":"levelo://app?vid=5872f101-9271-4805-860d-0ee54b52f844"},"vehicle_type_id":"4","last_reported":1746677690,"current_range_meters":8000,"station_id":"ce4bhr12rcd13ifvqhqg","pricing_plan_id":"cebpf4jnsgd1na2vs0mg"},{"bike_id":"cb84fd98-316c-48ed-82d8-63f94cc06a91","system_id":"levelo_inurba_marseille","lat":43.28835,"lon":5.35858,"is_reserved":false,"is_disabled":false,"rental_uris":{"android":"levelo://app?vid=cb84fd98-316c-48ed-82d8-63f94cc06a91","ios":"levelo://app?vid=cb84fd98-316c-48ed-82d8-63f94cc06a91"},"vehicle_type_id":"4","last_reported":1746677690,"current_range_meters":8000,"station_id":"ce4bhb12rcd13ifvqem0","pricing_plan_id":"cebpf4jnsgd1na2vs0mg"},{"bike_id":"3e8d8104-67f6-4ceb-98a1-a0150fb4c1b0","system_id":"levelo_inurba_marseille","lat":43.303267,"lon":5.404356,"is_reserved":false,"is_disabled":false,"rental_uris":{"android":"levelo://app?vid=3e8d8104-67f6-4ceb-98a1-a0150fb4c1b0","ios":"levelo://app?vid=3e8d8104-67f6-4ceb-98a1-a0150fb4c1b0"},"vehicle_type_id":"4","last_reported":1746677690,"current_range_meters":8000,"station_id":"ce4bh012rcd13ifvqd10","pricing_plan_id":"cebpf4jnsgd1na2vs0mg"},{"bike_id":"b7bdbe3a-b7ec-4256-908f-dfa71835a5d1","system_id":"levelo_inurba_marseille","lat":43.288602,"lon":5.371446,"is_reserved":false,"is_disabled":false,"rental_uris":{"android":"levelo://app?vid=b7bdbe3a-b7ec-4256-908f-dfa71835a5d1","ios":"levelo://app?vid=b7bdbe3a-b7ec-4256-908f-dfa71835a5d1"},"vehicle_type_id":"4","last_reported":1746677690,"current_range_meters":8000,"station_id":"","pricing_plan_id":"cebpf4jnsgd1na2vs0mg"},{"bike_id":"be3a2ed9-e107-46dc-8066-89cfcff50847","system_id":"levelo_inurba_marseille","lat":43.292354,"lon":5.371501,"is_reserved":false,"is_disabled":false,"rental_uris":{"android":"levelo://app?vid=be3a2ed9-e107-46dc-8066-89cfcff50847","ios":"levelo://app?vid=be3a2ed9-e107-46dc-8066-89cfcff50847"},"vehicle_type_id":"4","last_reported":1746677690,"current_range_meters":8400,"station_id":"","pricing_plan_id":"cebpf4jnsgd1na2vs0mg"},{"bike_id":"fa33b3e0-78c1-4096-9d94-84103ef7cc85","system_id":"levelo_inurba_marseille","lat":43.30468,"lon":5.37919,"is_reserved":false,"is_disabled":false,"rental_uris":{"android":"levelo://app?vid=fa33b3e0-78c1-4096-9d94-84103ef7cc85","ios":"levelo://app?vid=fa33b3e0-78c1-4096-9d94-84103ef7cc85"},"vehicle_type_id":"4","last_reported":1746677690,"current_range_meters":8400,"station_id":"ce4bgup2rcd13ifvqcn0","pricing_plan_id":"cebpf4jnsgd1na2vs0mg"},{"bike_id":"19b6b99c-4396-4548-b087-15910aa32c76","system_id":"levelo_inurba_marseille","lat":43.303019,"lon":5.391981,"is_reserved":false,"is_disabled":true,"rental_uris":{"android":"levelo://app?vid=19b6b99c-4396-4548-b087-15910aa32c76","ios":"levelo://app?vid=19b6b99c-4396-4548-b087-15910aa32c76"},"vehicle_type_id":"4","last_reported":1746677690,"current_range_meters":8400,"station_id":"ce4bgkh2rcd13ifvqbk0","pricing_plan_id":"cebpf4jnsgd1na2vs0mg"},{"bike_id":"506b28be-ab9b-45d4-aa32-973d711ef404","system_id":"levelo_inurba_marseille","lat":43.262289,"lon":5.40453,"is_reserved":false,"is_disabled":false,"rental_uris":{"android":"levelo://app?vid=506b28be-ab9b-45d4-aa32-973d711ef404","ios":"levelo://app?vid=506b28be-ab9b-45d4-aa32-973d711ef404"},"vehicle_type_id":"4","last_reported":1746677690,"current_range_meters":8400,"station_id":"ce4bhmh2rcd13ifvqgmg","pricing_plan_id":"cebpf4jnsgd1na2vs0mg"},{"bike_id":"871d92dc-153b-42ec-8d90-34c9e0fb29bf","system_id":"levelo_inurba_marseille","lat":43.306273,"lon":5.398718,"is_reserved":false,"is_disabled":false,"rental_uris":{"android":"levelo://app?vid=871d92dc-153b-42ec-8d90-34c9e0fb29bf","ios":"levelo://app?vid=871d92dc-153b-42ec-8d90-34c9e0fb29bf"},"vehicle_type_id":"4","last_reported":1746677690,"current_range_meters":8400,"station_id":"","pricing_plan_id":"cebpf4jnsgd1na2vs0mg"},{"bike_id":"89420609-8590-4e4d-9042-8fb0e02b5686","system_id":"levelo_inurba_marseille","lat":43.24166,"lon":5.36404,"is_reserved":false,"is_disabled":false,"rental_uris":{"android":"levelo://app?vid=89420609-8590-4e4d-9042-8fb0e02b5686","ios":"levelo://app?vid=89420609-8590-4e4d-9042-8fb0e02b5686"},"vehicle_type_id":"4","last_reported":1746677690,"current_range_meters":8400,"station_id":"cpo36qri1sfpv3e86is0","pricing_plan_id":"cebpf4jnsgd1na2vs0mg"},{"bike_id":"9fcf8f94-bd3a-4bcd-a417-322eed8d3454","system_id":"levelo_inurba_marseille","lat":43.306406,"lon":5.400759,"is_reserved":false,"is_disabled":false,"rental_uris":{"android":"levelo://app?vid=9fcf8f94-bd3a-4bcd-a417-322eed8d3454","ios":"levelo://app?vid=9fcf8f94-bd3a-4bcd-a417-322eed8d3454"},"vehicle_type_id":"4","last_reported":1746677690,"current_range_meters":8400,"station_id":"ce4bh112rcd13ifvqda0","pricing_plan_id":"cebpf4jnsgd1na2vs0mg"},{"bike_id":"a96833c3-7aad-4769-953e-d8192a324355","system_id":"levelo_inurba_marseille","lat":43.22482,"lon":5.34802,"is_reserved":false,"is_disabled":false,"rental_uris":{"android":"levelo://app?vid=a96833c3-7aad-4769-953e-d8192a324355","ios":"levelo://app?vid=a96833c3-7aad-4769-953e-d8192a324355"},"vehicle_type_id":"4","last_reported":1746677690,"current_range_meters":8400,"station_id":"st_cvj5dfep6f1abm77gieg","pricing_plan_id":"cebpf4jnsgd1na2vs0mg"},{"bike_id":"028c3799-fdb4-49d4-90e9-300404e8fc36","system_id":"levelo_inurba_marseille","lat":43.32479,"lon":5.36573,"is_reserved":false,"is_disabled":true,"rental_uris":{"android":"levelo://app?vid=028c3799-fdb4-49d4-90e9-300404e8fc36","ios":"levelo://app?vid=028c3799-fdb4-49d4-90e9-300404e8fc36"},"vehicle_type_id":"4","last_reported":1746677690,"current_range_meters":8400,"station_id":"ce4bhs12rcd13ifvqhvg","pricing_plan_id":"cebpf4jnsgd1na2vs0mg"},{"bike_id":"abc05507-3bd9-4703-8c4e-985b5bffaf60","system_id":"levelo_inurba_marseille","lat":43.31692,"lon":5.40494,"is_reserved":false,"is_disabled":false,"rental_uris":{"android":"levelo://app?vid=abc05507-3bd9-4703-8c4e-985b5bffaf60","ios":"levelo://app?vid=abc05507-3bd9-4703-8c4e-985b5bffaf60"},"vehicle_type_id":"4","last_reported":1746677690,"current_range_meters":8800,"station_id":"ce4bh012rcd13ifvqd00","pricing_plan_id":"cebpf4jnsgd1na2vs0mg"},{"bike_id":"dbe6c090-a883-4f7a-86ca-f7062cab9bbf","system_id":"levelo_inurba_marseille","lat":43.21749,"lon":5.34608,"is_reserved":false,"is_disabled":false,"rental_uris":{"android":"levelo://app?vid=dbe6c090-a883-4f7a-86ca-f7062cab9bbf","ios":"levelo://app?vid=dbe6c090-a883-4f7a-86ca-f7062cab9bbf"},"vehicle_type_id":"4","last_reported":1746677690,"current_range_meters":8800,"station_id":"st_cvj6r9ubvosntc0bgbag","pricing_plan_id":"cebpf4jnsgd1na2vs0mg"},{"bike_id":"6fcecdbd-a5d7-498c-85d8-462b7a653c6a","system_id":"levelo_inurba_marseille","lat":43.284573,"lon":5.358898,"is_reserved":false,"is_disabled":false,"rental_uris":{"android":"levelo://app?vid=6fcecdbd-a5d7-498c-85d8-462b7a653c6a","ios":"levelo://app?vid=6fcecdbd-a5d7-498c-85d8-462b7a653c6a"},"vehicle_type_id":"4","last_reported":1746677690,"current_range_meters":8800,"station_id":"ce4bhah2rcd13ifvqei0","pricing_plan_id":"cebpf4jnsgd1na2vs0mg"},{"bike_id":"de98c600-f638-4cff-9c9e-a1bfa0672c00","system_id":"levelo_inurba_marseille","lat":43.2572,"lon":5.41118,"is_reserved":false,"is_disabled":false,"rental_uris":{"android":"levelo://app?vid=de98c600-f638-4cff-9c9e-a1bfa0672c00","ios":"levelo://app?vid=de98c600-f638-4cff-9c9e-a1bfa0672c00"},"vehicle_type_id":"4","last_reported":1746677690,"current_range_meters":8800,"station_id":"ce4bhkp2rcd13ifvqgd0","pricing_plan_id":"cebpf4jnsgd1na2vs0mg"},{"bike_id":"c650db92-e467-494a-8ffb-fba552729a60","system_id":"levelo_inurba_marseille","lat":43.23971,"lon":5.3663,"is_reserved":false,"is_disabled":false,"rental_uris":{"android":"levelo://app?vid=c650db92-e467-494a-8ffb-fba552729a60","ios":"levelo://app?vid=c650db92-e467-494a-8ffb-fba552729a60"},"vehicle_type_id":"4","last_reported":1746677690,"current_range_meters":8800,"station_id":"ce4bhi12rcd13ifvqfp0","pricing_plan_id":"cebpf4jnsgd1na2vs0mg"},{"bike_id":"7ac090f6-ac88-4d74-bff6-95aa8d4e1c9d","system_id":"levelo_inurba_marseille","lat":43.28275,"lon":5.35057,"is_reserved":false,"is_disabled":false,"rental_uris":{"android":"levelo://app?vid=7ac090f6-ac88-4d74-bff6-95aa8d4e1c9d","ios":"levelo://app?vid=7ac090f6-ac88-4d74-bff6-95aa8d4e1c9d"},"vehicle_type_id":"4","last_reported":1746677690,"current_range_meters":9200,"station_id":"ce4bhbp2rcd13ifvqerg","pricing_plan_id":"cebpf4jnsgd1na2vs0mg"},{"bike_id":"981828d7-8b56-48ee-a505-30b8fd9578f5","system_id":"levelo_inurba_marseille","lat":43.23191,"lon":5.39978,"is_reserved":false,"is_disabled":false,"rental_uris":{"android":"levelo://app?vid=981828d7-8b56-48ee-a505-30b8fd9578f5","ios":"levelo://app?vid=981828d7-8b56-48ee-a505-30b8fd9578f5"},"vehicle_type_id":"4","last_reported":1746677690,"current_range_meters":9200,"station_id":"ce4bhn12rcd13ifvqgqg","pricing_plan_id":"cebpf4jnsgd1na2vs0mg"},{"bike_id":"ce40ea43-bacf-49f3-b5af-ffaf2a1f03b1","system_id":"levelo_inurba_marseille","lat":43.304924,"lon":5.367615,"is_reserved":false,"is_disabled":false,"rental_uris":{"android":"levelo://app?vid=ce40ea43-bacf-49f3-b5af-ffaf2a1f03b1","ios":"levelo://app?vid=ce40ea43-bacf-49f3-b5af-ffaf2a1f03b1"},"vehicle_type_id":"4","last_reported":1746677690,"current_range_meters":9200,"station_id":"","pricing_plan_id":"cebpf4jnsgd1na2vs0mg"},{"bike_id":"957aba25-c5b1-43b8-b7ae-7df1badff429","system_id":"levelo_inurba_marseille","lat":43.31282,"lon":5.40172,"is_reserved":false,"is_disabled":false,"rental_uris":{"android":"levelo://app?vid=957aba25-c5b1-43b8-b7ae-7df1badff429","ios":"levelo://app?vid=957aba25-c5b1-43b8-b7ae-7df1badff429"},"vehicle_type_id":"4","last_reported":1746677690,"current_range_meters":9200,"station_id":"ce4bh092rcd13ifvqd30","pricing_plan_id":"cebpf4jnsgd1na2vs0mg"},{"bike_id":"577c68d3-e214-4444-8d4f-e2a733fa506e","system_id":"levelo_inurba_marseille","lat":43.270739,"lon":5.422813,"is_reserved":false,"is_disabled":false,"rental_uris":{"android":"levelo://app?vid=577c68d3-e214-4444-8d4f-e2a733fa506e","ios":"levelo://app?vid=577c68d3-e214-4444-8d4f-e2a733fa506e"},"vehicle_type_id":"4","last_reported":1746677690,"current_range_meters":9200,"station_id":"ce4bhk92rcd13ifvqgb0","pricing_plan_id":"cebpf4jnsgd1na2vs0mg"},{"bike_id":"b34e4c55-b45a-4758-b035-1ea940c62339","system_id":"levelo_inurba_marseille","lat":43.25086,"lon":5.39524,"is_reserved":false,"is_disabled":false,"rental_uris":{"android":"levelo://app?vid=b34e4c55-b45a-4758-b035-1ea940c62339","ios":"levelo://app?vid=b34e4c55-b45a-4758-b035-1ea940c62339"},"vehicle_type_id":"4","last_reported":1746677690,"current_range_meters":9200,"station_id":"ce4bhm12rcd13ifvqgkg","pricing_plan_id":"cebpf4jnsgd1na2vs0mg"},{"bike_id":"1f77a630-8a52-477b-86b4-44132d8564e3","system_id":"levelo_inurba_marseille","lat":43.23181,"lon":5.39987,"is_reserved":false,"is_disabled":false,"rental_uris":{"android":"levelo://app?vid=1f77a630-8a52-477b-86b4-44132d8564e3","ios":"levelo://app?vid=1f77a630-8a52-477b-86b4-44132d8564e3"},"vehicle_type_id":"4","last_reported":1746677690,"current_range_meters":9200,"station_id":"ce4bhn12rcd13ifvqgqg","pricing_plan_id":"cebpf4jnsgd1na2vs0mg"},{"bike_id":"a85b8cb5-9c38-4791-b503-0517774cb5ac","system_id":"levelo_inurba_marseille","lat":43.25824,"lon":5.39435,"is_reserved":false,"is_disabled":false,"rental_uris":{"android":"levelo://app?vid=a85b8cb5-9c38-4791-b503-0517774cb5ac","ios":"levelo://app?vid=a85b8cb5-9c38-4791-b503-0517774cb5ac"},"vehicle_type_id":"4","last_reported":1746677690,"current_range_meters":9200,"station_id":"ce4bhip2rcd13ifvqft0","pricing_plan_id":"cebpf4jnsgd1na2vs0mg"},{"bike_id":"d973d241-d398-47d6-b82a-346bc62bee70","system_id":"levelo_inurba_marseille","lat":43.30465,"lon":5.37912,"is_reserved":false,"is_disabled":false,"rental_uris":{"android":"levelo://app?vid=d973d241-d398-47d6-b82a-346bc62bee70","ios":"levelo://app?vid=d973d241-d398-47d6-b82a-346bc62bee70"},"vehicle_type_id":"4","last_reported":1746677690,"current_range_meters":9200,"station_id":"ce4bgup2rcd13ifvqcn0","pricing_plan_id":"cebpf4jnsgd1na2vs0mg"},{"bike_id":"569154da-5aba-4b6a-9874-971785801a0f","system_id":"levelo_inurba_marseille","lat":43.278081,"lon":5.407107,"is_reserved":false,"is_disabled":false,"rental_uris":{"android":"levelo://app?vid=569154da-5aba-4b6a-9874-971785801a0f","ios":"levelo://app?vid=569154da-5aba-4b6a-9874-971785801a0f"},"vehicle_type_id":"4","last_reported":1746677690,"current_range_meters":9600,"station_id":"ce4bhnh2rcd13ifvqgtg","pricing_plan_id":"cebpf4jnsgd1na2vs0mg"},{"bike_id":"dec0d6a2-ea21-4420-8ba6-c57a18c9821b","system_id":"levelo_inurba_marseille","lat":43.30403,"lon":5.41278,"is_reserved":false,"is_disabled":false,"rental_uris":{"android":"levelo://app?vid=dec0d6a2-ea21-4420-8ba6-c57a18c9821b","ios":"levelo://app?vid=dec0d6a2-ea21-4420-8ba6-c57a18c9821b"},"vehicle_type_id":"4","last_reported":1746677690,"current_range_meters":9600,"station_id":"ce4bhop2rcd13ifvqh8g","pricing_plan_id":"cebpf4jnsgd1na2vs0mg"},{"bike_id":"f90504b1-69d0-454d-a9d6-21119d763b82","system_id":"levelo_inurba_marseille","lat":43.25108,"lon":5.40328,"is_reserved":false,"is_disabled":false,"rental_uris":{"android":"levelo://app?vid=f90504b1-69d0-454d-a9d6-21119d763b82","ios":"levelo://app?vid=f90504b1-69d0-454d-a9d6-21119d763b82"},"vehicle_type_id":"4","last_reported":1746677690,"current_range_meters":9600,"station_id":"ce4bhlh2rcd13ifvqgig","pricing_plan_id":"cebpf4jnsgd1na2vs0mg"},{"bike_id":"b15fe93b-1059-4d75-abd3-040e349ce402","system_id":"levelo_inurba_marseille","lat":43.30123,"lon":5.37008,"is_reserved":false,"is_disabled":false,"rental_uris":{"android":"levelo://app?vid=b15fe93b-1059-4d75-abd3-040e349ce402","ios":"levelo://app?vid=b15fe93b-1059-4d75-abd3-040e349ce402"},"vehicle_type_id":"4","last_reported":1746677690,"current_range_meters":9600,"station_id":"","pricing_plan_id":"cebpf4jnsgd1na2vs0mg"},{"bike_id":"f1be0eeb-570a-41ec-ba38-e001b9c7d591","system_id":"levelo_inurba_marseille","lat":43.25127,"lon":5.40313,"is_reserved":false,"is_disabled":false,"rental_uris":{"android":"levelo://app?vid=f1be0eeb-570a-41ec-ba38-e001b9c7d591","ios":"levelo://app?vid=f1be0eeb-570a-41ec-ba38-e001b9c7d591"},"vehicle_type_id":"4","last_reported":1746677690,"current_range_meters":8000,"station_id":"ce4bhlh2rcd13ifvqgig","pricing_plan_id":"cebpf4jnsgd1na2vs0mg"},{"bike_id":"15c94903-bff0-448b-a6ba-943a7f56259b","system_id":"levelo_inurba_marseille","lat":43.2466,"lon":5.38154,"is_reserved":false,"is_disabled":false,"rental_uris":{"android":"levelo://app?vid=15c94903-bff0-448b-a6ba-943a7f56259b","ios":"levelo://app?vid=15c94903-bff0-448b-a6ba-943a7f56259b"},"vehicle_type_id":"4","last_reported":1746677690,"current_range_meters":10000,"station_id":"ce4bhih2rcd13ifvqfr0","pricing_plan_id":"cebpf4jnsgd1na2vs0mg"},{"bike_id":"f239e61b-13fc-400d-ba4a-9e414ced2af9","system_id":"levelo_inurba_marseille","lat":43.317591,"lon":5.390182,"is_reserved":false,"is_disabled":false,"rental_uris":{"android":"levelo://app?vid=f239e61b-13fc-400d-ba4a-9e414ced2af9","ios":"levelo://app?vid=f239e61b-13fc-400d-ba4a-9e414ced2af9"},"vehicle_type_id":"4","last_reported":1746677690,"current_range_meters":10000,"station_id":"ce4bhqp2rcd13ifvqhng","pricing_plan_id":"cebpf4jnsgd1na2vs0mg"},{"bike_id":"c460d626-46dc-4323-977a-1bf36ca4902b","system_id":"levelo_inurba_marseille","lat":43.2802,"lon":5.36954,"is_reserved":false,"is_disabled":false,"rental_uris":{"android":"levelo://app?vid=c460d626-46dc-4323-977a-1bf36ca4902b","ios":"levelo://app?vid=c460d626-46dc-4323-977a-1bf36ca4902b"},"vehicle_type_id":"4","last_reported":1746677690,"current_range_meters":10000,"station_id":"ce4bha12rcd13ifvqef0","pricing_plan_id":"cebpf4jnsgd1na2vs0mg"},{"bike_id":"be14bb78-6eb0-48f8-90f5-613b7d561dab","system_id":"levelo_inurba_marseille","lat":43.31076,"lon":5.3836,"is_reserved":false,"is_disabled":false,"rental_uris":{"android":"levelo://app?vid=be14bb78-6eb0-48f8-90f5-613b7d561dab","ios":"levelo://app?vid=be14bb78-6eb0-48f8-90f5-613b7d561dab"},"vehicle_type_id":"4","last_reported":1746677690,"current_range_meters":10000,"station_id":"ce4bgv92rcd13ifvqcr0","pricing_plan_id":"cebpf4jnsgd1na2vs0mg"},{"bike_id":"8b3204dd-c684-4e41-9504-d9a19e706268","system_id":"levelo_inurba_marseille","lat":43.2173,"lon":5.34605,"is_reserved":false,"is_disabled":false,"rental_uris":{"android":"levelo://app?vid=8b3204dd-c684-4e41-9504-d9a19e706268","ios":"levelo://app?vid=8b3204dd-c684-4e41-9504-d9a19e706268"},"vehicle_type_id":"4","last_reported":1746677690,"current_range_meters":10000,"station_id":"st_cvj6r9ubvosntc0bgbag","pricing_plan_id":"cebpf4jnsgd1na2vs0mg"},{"bike_id":"87b9a829-6d08-4a6d-9a8e-b298b8a08212","system_id":"levelo_inurba_marseille","lat":43.28445,"lon":5.35914,"is_reserved":false,"is_disabled":false,"rental_uris":{"android":"levelo://app?vid=87b9a829-6d08-4a6d-9a8e-b298b8a08212","ios":"levelo://app?vid=87b9a829-6d08-4a6d-9a8e-b298b8a08212"},"vehicle_type_id":"4","last_reported":1746677690,"current_range_meters":10000,"station_id":"ce4bhah2rcd13ifvqei0","pricing_plan_id":"cebpf4jnsgd1na2vs0mg"},{"bike_id":"f48191bb-3f3c-4965-b323-74d778d7c2f2","system_id":"levelo_inurba_marseille","lat":43.309286,"lon":5.401446,"is_reserved":false,"is_disabled":false,"rental_uris":{"android":"levelo://app?vid=f48191bb-3f3c-4965-b323-74d778d7c2f2","ios":"levelo://app?vid=f48191bb-3f3c-4965-b323-74d778d7c2f2"},"vehicle_type_id":"4","last_reported":1746677690,"current_range_meters":10000,"station_id":"ce4bgvp2rcd13ifvqct0","pricing_plan_id":"cebpf4jnsgd1na2vs0mg"},{"bike_id":"be2ea01e-901c-4275-b9a1-758d91918d20","system_id":"levelo_inurba_marseille","lat":43.31063,"lon":5.38347,"is_reserved":false,"is_disabled":false,"rental_uris":{"android":"levelo://app?vid=be2ea01e-901c-4275-b9a1-758d91918d20","ios":"levelo://app?vid=be2ea01e-901c-4275-b9a1-758d91918d20"},"vehicle_type_id":"4","last_reported":1746677690,"current_range_meters":10000,"station_id":"ce4bgv92rcd13ifvqcr0","pricing_plan_id":"cebpf4jnsgd1na2vs0mg"},{"bike_id":"cb804ca6-4e74-4d08-aea7-2b4aae9112aa","system_id":"levelo_inurba_marseille","lat":43.29965,"lon":5.37985,"is_reserved":false,"is_disabled":false,"rental_uris":{"android":"levelo://app?vid=cb804ca6-4e74-4d08-aea7-2b4aae9112aa","ios":"levelo://app?vid=cb804ca6-4e74-4d08-aea7-2b4aae9112aa"},"vehicle_type_id":"4","last_reported":1746677690,"current_range_meters":10800,"station_id":"","pricing_plan_id":"cebpf4jnsgd1na2vs0mg"},{"bike_id":"2ffa008f-4045-404e-a632-f92e2b79f62f","system_id":"levelo_inurba_marseille","lat":43.28141,"lon":5.42652,"is_reserved":false,"is_disabled":false,"rental_uris":{"android":"levelo://app?vid=2ffa008f-4045-404e-a632-f92e2b79f62f","ios":"levelo://app?vid=2ffa008f-4045-404e-a632-f92e2b79f62f"},"vehicle_type_id":"4","last_reported":1746677690,"current_range_meters":10800,"station_id":"ce4bhnh2rcd13ifvqgug","pricing_plan_id":"cebpf4jnsgd1na2vs0mg"},{"bike_id":"eff01a47-9a9f-4a02-be20-e3fd0c3270dd","system_id":"levelo_inurba_marseille","lat":43.30619,"lon":5.40093,"is_reserved":false,"is_disabled":false,"rental_uris":{"android":"levelo://app?vid=eff01a47-9a9f-4a02-be20-e3fd0c3270dd","ios":"levelo://app?vid=eff01a47-9a9f-4a02-be20-e3fd0c3270dd"},"vehicle_type_id":"4","last_reported":1746677690,"current_range_meters":10800,"station_id":"ce4bh112rcd13ifvqda0","pricing_plan_id":"cebpf4jnsgd1na2vs0mg"},{"bike_id":"df8a7d6f-c276-46e4-ad0f-788630dc88d8","system_id":"levelo_inurba_marseille","lat":43.262173,"lon":5.40469,"is_reserved":false,"is_disabled":false,"rental_uris":{"android":"levelo://app?vid=df8a7d6f-c276-46e4-ad0f-788630dc88d8","ios":"levelo://app?vid=df8a7d6f-c276-46e4-ad0f-788630dc88d8"},"vehicle_type_id":"4","last_reported":1746677690,"current_range_meters":10800,"station_id":"ce4bhmh2rcd13ifvqgmg","pricing_plan_id":"cebpf4jnsgd1na2vs0mg"},{"bike_id":"b8f1d430-f302-458c-b7db-1e660bb7522d","system_id":"levelo_inurba_marseille","lat":43.28726,"lon":5.36083,"is_reserved":false,"is_disabled":false,"rental_uris":{"android":"levelo://app?vid=b8f1d430-f302-458c-b7db-1e660bb7522d","ios":"levelo://app?vid=b8f1d430-f302-458c-b7db-1e660bb7522d"},"vehicle_type_id":"4","last_reported":1746677690,"current_range_meters":11200,"station_id":"cki0cbj6b192h4jlfktg","pricing_plan_id":"cebpf4jnsgd1na2vs0mg"},{"bike_id":"4c008abf-8094-4403-b988-cca7e78b355a","system_id":"levelo_inurba_marseille","lat":43.29897,"lon":5.43667,"is_reserved":false,"is_disabled":false,"rental_uris":{"android":"levelo://app?vid=4c008abf-8094-4403-b988-cca7e78b355a","ios":"levelo://app?vid=4c008abf-8094-4403-b988-cca7e78b355a"},"vehicle_type_id":"4","last_reported":1746677690,"current_range_meters":10800,"station_id":"ce4bhpp2rcd13ifvqhfg","pricing_plan_id":"cebpf4jnsgd1na2vs0mg"},{"bike_id":"1eace673-3a00-40bd-93b8-c982c5e56958","system_id":"levelo_inurba_marseille","lat":43.29551,"lon":5.42279,"is_reserved":false,"is_disabled":false,"rental_uris":{"android":"levelo://app?vid=1eace673-3a00-40bd-93b8-c982c5e56958","ios":"levelo://app?vid=1eace673-3a00-40bd-93b8-c982c5e56958"},"vehicle_type_id":"4","last_reported":1746677690,"current_range_meters":11200,"station_id":"ce4bhph2rcd13ifvqhdg","pricing_plan_id":"cebpf4jnsgd1na2vs0mg"},{"bike_id":"cb5561fb-3ed2-49bf-bd58-7c8862116c78","system_id":"levelo_inurba_marseille","lat":43.21218,"lon":5.35069,"is_reserved":false,"is_disabled":false,"rental_uris":{"android":"levelo://app?vid=cb5561fb-3ed2-49bf-bd58-7c8862116c78","ios":"levelo://app?vid=cb5561fb-3ed2-49bf-bd58-7c8862116c78"},"vehicle_type_id":"4","last_reported":1746677690,"current_range_meters":11200,"station_id":"st_cvj6sg6p6f1abm77japg","pricing_plan_id":"cebpf4jnsgd1na2vs0mg"},{"bike_id":"e5536c63-7559-437b-8afa-b4350cca2c29","system_id":"levelo_inurba_marseille","lat":43.231867,"lon":5.399813,"is_reserved":false,"is_disabled":false,"rental_uris":{"android":"levelo://app?vid=e5536c63-7559-437b-8afa-b4350cca2c29","ios":"levelo://app?vid=e5536c63-7559-437b-8afa-b4350cca2c29"},"vehicle_type_id":"4","last_reported":1746677690,"current_range_meters":11600,"station_id":"ce4bhn12rcd13ifvqgqg","pricing_plan_id":"cebpf4jnsgd1na2vs0mg"},{"bike_id":"5453c7c8-d7df-431d-98db-167d3c16d978","system_id":"levelo_inurba_marseille","lat":43.313638,"lon":5.385041,"is_reserved":false,"is_disabled":false,"rental_uris":{"android":"levelo://app?vid=5453c7c8-d7df-431d-98db-167d3c16d978","ios":"levelo://app?vid=5453c7c8-d7df-431d-98db-167d3c16d978"},"vehicle_type_id":"4","last_reported":1746677690,"current_range_meters":12000,"station_id":"ce4bgt92rcd13ifvqcf0","pricing_plan_id":"cebpf4jnsgd1na2vs0mg"},{"bike_id":"814b049e-86d8-441d-a9b7-533911196968","system_id":"levelo_inurba_marseille","lat":43.313712,"lon":5.385016,"is_reserved":false,"is_disabled":false,"rental_uris":{"android":"levelo://app?vid=814b049e-86d8-441d-a9b7-533911196968","ios":"levelo://app?vid=814b049e-86d8-441d-a9b7-533911196968"},"vehicle_type_id":"4","last_reported":1746677690,"current_range_meters":12000,"station_id":"ce4bgt92rcd13ifvqcf0","pricing_plan_id":"cebpf4jnsgd1na2vs0mg"},{"bike_id":"b08eb946-5f0c-421c-9af3-6153a411b7f0","system_id":"levelo_inurba_marseille","lat":43.299746,"lon":5.385002,"is_reserved":false,"is_disabled":true,"rental_uris":{"android":"levelo://app?vid=b08eb946-5f0c-421c-9af3-6153a411b7f0","ios":"levelo://app?vid=b08eb946-5f0c-421c-9af3-6153a411b7f0"},"vehicle_type_id":"4","last_reported":1746677690,"current_range_meters":12000,"station_id":"ce4bgj92rcd13ifvqbd0","pricing_plan_id":"cebpf4jnsgd1na2vs0mg"},{"bike_id":"9209774a-06b7-47c7-a6eb-adc0c3f47cff","system_id":"levelo_inurba_marseille","lat":43.255775,"lon":5.382349,"is_reserved":false,"is_disabled":false,"rental_uris":{"android":"levelo://app?vid=9209774a-06b7-47c7-a6eb-adc0c3f47cff","ios":"levelo://app?vid=9209774a-06b7-47c7-a6eb-adc0c3f47cff"},"vehicle_type_id":"4","last_reported":1746677690,"current_range_meters":12000,"station_id":"ce4bhih2rcd13ifvqfs0","pricing_plan_id":"cebpf4jnsgd1na2vs0mg"},{"bike_id":"84628364-7e3f-47f9-bbf2-3101fea10d79","system_id":"levelo_inurba_marseille","lat":43.295525,"lon":5.422888,"is_reserved":false,"is_disabled":false,"rental_uris":{"android":"levelo://app?vid=84628364-7e3f-47f9-bbf2-3101fea10d79","ios":"levelo://app?vid=84628364-7e3f-47f9-bbf2-3101fea10d79"},"vehicle_type_id":"4","last_reported":1746677690,"current_range_meters":12000,"station_id":"ce4bhph2rcd13ifvqhdg","pricing_plan_id":"cebpf4jnsgd1na2vs0mg"},{"bike_id":"b3dda9f1-e281-4acc-a3e5-f9bdd89841dd","system_id":"levelo_inurba_marseille","lat":43.28424,"lon":5.37535,"is_reserved":false,"is_disabled":false,"rental_uris":{"android":"levelo://app?vid=b3dda9f1-e281-4acc-a3e5-f9bdd89841dd","ios":"levelo://app?vid=b3dda9f1-e281-4acc-a3e5-f9bdd89841dd"},"vehicle_type_id":"4","last_reported":1746677690,"current_range_meters":12000,"station_id":"ce4bh412rcd13ifvqds0","pricing_plan_id":"cebpf4jnsgd1na2vs0mg"},{"bike_id":"d1d025cd-b4c2-45c4-b8a2-5328e19eb3f6","system_id":"levelo_inurba_marseille","lat":43.29037,"lon":5.3756,"is_reserved":false,"is_disabled":true,"rental_uris":{"android":"levelo://app?vid=d1d025cd-b4c2-45c4-b8a2-5328e19eb3f6","ios":"levelo://app?vid=d1d025cd-b4c2-45c4-b8a2-5328e19eb3f6"},"vehicle_type_id":"4","last_reported":1746677690,"current_range_meters":12400,"station_id":"ce4bh692rcd13ifvqe90","pricing_plan_id":"cebpf4jnsgd1na2vs0mg"},{"bike_id":"e945a495-d359-4bb7-bb94-1340aff95955","system_id":"levelo_inurba_marseille","lat":43.28143,"lon":5.40618,"is_reserved":false,"is_disabled":false,"rental_uris":{"android":"levelo://app?vid=e945a495-d359-4bb7-bb94-1340aff95955","ios":"levelo://app?vid=e945a495-d359-4bb7-bb94-1340aff95955"},"vehicle_type_id":"4","last_reported":1746677690,"current_range_meters":12800,"station_id":"","pricing_plan_id":"cebpf4jnsgd1na2vs0mg"},{"bike_id":"17b214d6-99b5-4fbd-a65f-6ac3467903ea","system_id":"levelo_inurba_marseille","lat":43.31076,"lon":5.38356,"is_reserved":false,"is_disabled":false,"rental_uris":{"android":"levelo://app?vid=17b214d6-99b5-4fbd-a65f-6ac3467903ea","ios":"levelo://app?vid=17b214d6-99b5-4fbd-a65f-6ac3467903ea"},"vehicle_type_id":"4","last_reported":1746677690,"current_range_meters":12800,"station_id":"ce4bgv92rcd13ifvqcr0","pricing_plan_id":"cebpf4jnsgd1na2vs0mg"},{"bike_id":"4fd4e11c-a549-4e31-bac4-1b009123ee90","system_id":"levelo_inurba_marseille","lat":43.24388,"lon":5.37063,"is_reserved":false,"is_disabled":false,"rental_uris":{"android":"levelo://app?vid=4fd4e11c-a549-4e31-bac4-1b009123ee90","ios":"levelo://app?vid=4fd4e11c-a549-4e31-bac4-1b009123ee90"},"vehicle_type_id":"4","last_reported":1746677690,"current_range_meters":13600,"station_id":"ce4bhhh2rcd13ifvqfk0","pricing_plan_id":"cebpf4jnsgd1na2vs0mg"},{"bike_id":"492a7a57-4c14-4260-ba62-da55dda4a419","system_id":"levelo_inurba_marseille","lat":43.323368,"lon":5.406177,"is_reserved":false,"is_disabled":false,"rental_uris":{"android":"levelo://app?vid=492a7a57-4c14-4260-ba62-da55dda4a419","ios":"levelo://app?vid=492a7a57-4c14-4260-ba62-da55dda4a419"},"vehicle_type_id":"4","last_reported":1746677690,"current_range_meters":13600,"station_id":"ce4bhq92rcd13ifvqhjg","pricing_plan_id":"cebpf4jnsgd1na2vs0mg"},{"bike_id":"90a5aece-6c9f-4a04-8e34-8bf03248111c","system_id":"levelo_inurba_marseille","lat":43.28463,"lon":5.35887,"is_reserved":false,"is_disabled":false,"rental_uris":{"android":"levelo://app?vid=90a5aece-6c9f-4a04-8e34-8bf03248111c","ios":"levelo://app?vid=90a5aece-6c9f-4a04-8e34-8bf03248111c"},"vehicle_type_id":"4","last_reported":1746677690,"current_range_meters":13600,"station_id":"ce4bhah2rcd13ifvqei0","pricing_plan_id":"cebpf4jnsgd1na2vs0mg"},{"bike_id":"2574c1c6-9761-4223-8bf8-0f4ec6798a10","system_id":"levelo_inurba_marseille","lat":43.25124,"lon":5.4033,"is_reserved":false,"is_disabled":false,"rental_uris":{"android":"levelo://app?vid=2574c1c6-9761-4223-8bf8-0f4ec6798a10","ios":"levelo://app?vid=2574c1c6-9761-4223-8bf8-0f4ec6798a10"},"vehicle_type_id":"4","last_reported":1746677690,"current_range_meters":13600,"station_id":"ce4bhlh2rcd13ifvqgig","pricing_plan_id":"cebpf4jnsgd1na2vs0mg"},{"bike_id":"809c8673-c032-46b9-aa07-62c38e26d44e","system_id":"levelo_inurba_marseille","lat":43.250449,"lon":5.387953,"is_reserved":false,"is_disabled":false,"rental_uris":{"android":"levelo://app?vid=809c8673-c032-46b9-aa07-62c38e26d44e","ios":"levelo://app?vid=809c8673-c032-46b9-aa07-62c38e26d44e"},"vehicle_type_id":"4","last_reported":1746677690,"current_range_meters":14000,"station_id":"","pricing_plan_id":"cebpf4jnsgd1na2vs0mg"},{"bike_id":"319ba057-940e-4619-a97e-aba778a6925e","system_id":"levelo_inurba_marseille","lat":43.30183,"lon":5.38087,"is_reserved":false,"is_disabled":false,"rental_uris":{"android":"levelo://app?vid=319ba057-940e-4619-a97e-aba778a6925e","ios":"levelo://app?vid=319ba057-940e-4619-a97e-aba778a6925e"},"vehicle_type_id":"4","last_reported":1746677690,"current_range_meters":14000,"station_id":"ce4bgjp2rcd13ifvqbh0","pricing_plan_id":"cebpf4jnsgd1na2vs0mg"},{"bike_id":"2ed327f6-8175-4783-a942-a15e7df3127f","system_id":"levelo_inurba_marseille","lat":43.317534,"lon":5.390321,"is_reserved":false,"is_disabled":true,"rental_uris":{"android":"levelo://app?vid=2ed327f6-8175-4783-a942-a15e7df3127f","ios":"levelo://app?vid=2ed327f6-8175-4783-a942-a15e7df3127f"},"vehicle_type_id":"4","last_reported":1746677690,"current_range_meters":14000,"station_id":"ce4bhqp2rcd13ifvqhng","pricing_plan_id":"cebpf4jnsgd1na2vs0mg"},{"bike_id":"ab0829c7-4dad-444c-acbb-a5c3d542fa8c","system_id":"levelo_inurba_marseille","lat":43.240785,"lon":5.377498,"is_reserved":false,"is_disabled":false,"rental_uris":{"android":"levelo://app?vid=ab0829c7-4dad-444c-acbb-a5c3d542fa8c","ios":"levelo://app?vid=ab0829c7-4dad-444c-acbb-a5c3d542fa8c"},"vehicle_type_id":"4","last_reported":1746677690,"current_range_meters":14000,"station_id":"ce4bhnp2rcd13ifvqgvg","pricing_plan_id":"cebpf4jnsgd1na2vs0mg"},{"bike_id":"a37b7e8d-b235-4308-b31b-128793110b41","system_id":"levelo_inurba_marseille","lat":43.297758,"lon":5.381079,"is_reserved":false,"is_disabled":true,"rental_uris":{"android":"levelo://app?vid=a37b7e8d-b235-4308-b31b-128793110b41","ios":"levelo://app?vid=a37b7e8d-b235-4308-b31b-128793110b41"},"vehicle_type_id":"4","last_reported":1746677690,"current_range_meters":14400,"station_id":"ce4bgip2rcd13ifvqbb0","pricing_plan_id":"cebpf4jnsgd1na2vs0mg"},{"bike_id":"acfa0500-0172-4be8-b08b-b3f4d183b68c","system_id":"levelo_inurba_marseille","lat":43.24053,"lon":5.37766,"is_reserved":false,"is_disabled":false,"rental_uris":{"android":"levelo://app?vid=acfa0500-0172-4be8-b08b-b3f4d183b68c","ios":"levelo://app?vid=acfa0500-0172-4be8-b08b-b3f4d183b68c"},"vehicle_type_id":"4","last_reported":1746677690,"current_range_meters":14400,"station_id":"ce4bhnp2rcd13ifvqgvg","pricing_plan_id":"cebpf4jnsgd1na2vs0mg"},{"bike_id":"3cf2ec27-f7b8-4e23-8492-0e23be5e930a","system_id":"levelo_inurba_marseille","lat":43.289744,"lon":5.37839,"is_reserved":false,"is_disabled":true,"rental_uris":{"android":"levelo://app?vid=3cf2ec27-f7b8-4e23-8492-0e23be5e930a","ios":"levelo://app?vid=3cf2ec27-f7b8-4e23-8492-0e23be5e930a"},"vehicle_type_id":"4","last_reported":1746677690,"current_range_meters":14400,"station_id":"ce4bh9p2rcd13ifvqed0","pricing_plan_id":"cebpf4jnsgd1na2vs0mg"},{"bike_id":"5090961f-1c7d-4202-8794-ee3f3eb80c81","system_id":"levelo_inurba_marseille","lat":43.305074,"lon":5.393,"is_reserved":false,"is_disabled":false,"rental_uris":{"android":"levelo://app?vid=5090961f-1c7d-4202-8794-ee3f3eb80c81","ios":"levelo://app?vid=5090961f-1c7d-4202-8794-ee3f3eb80c81"},"vehicle_type_id":"4","last_reported":1746677690,"current_range_meters":14400,"station_id":"","pricing_plan_id":"cebpf4jnsgd1na2vs0mg"},{"bike_id":"179e39d6-f393-46e0-b36a-f5293148431d","system_id":"levelo_inurba_marseille","lat":43.32488,"lon":5.36559,"is_reserved":false,"is_disabled":true,"rental_uris":{"android":"levelo://app?vid=179e39d6-f393-46e0-b36a-f5293148431d","ios":"levelo://app?vid=179e39d6-f393-46e0-b36a-f5293148431d"},"vehicle_type_id":"4","last_reported":1746677690,"current_range_meters":14400,"station_id":"ce4bhs12rcd13ifvqhvg","pricing_plan_id":"cebpf4jnsgd1na2vs0mg"},{"bike_id":"47cd9dba-9c5a-4de3-a27d-45ec0de547bc","system_id":"levelo_inurba_marseille","lat":43.288437,"lon":5.433231,"is_reserved":false,"is_disabled":false,"rental_uris":{"android":"levelo://app?vid=47cd9dba-9c5a-4de3-a27d-45ec0de547bc","ios":"levelo://app?vid=47cd9dba-9c5a-4de3-a27d-45ec0de547bc"},"vehicle_type_id":"4","last_reported":1746677690,"current_range_meters":14400,"station_id":"","pricing_plan_id":"cebpf4jnsgd1na2vs0mg"},{"bike_id":"f19bfea6-e4ad-4f01-8691-f490acd211d4","system_id":"levelo_inurba_marseille","lat":43.30778,"lon":5.37646,"is_reserved":false,"is_disabled":false,"rental_uris":{"android":"levelo://app?vid=f19bfea6-e4ad-4f01-8691-f490acd211d4","ios":"levelo://app?vid=f19bfea6-e4ad-4f01-8691-f490acd211d4"},"vehicle_type_id":"4","last_reported":1746677690,"current_range_meters":14800,"station_id":"ce4bgv92rcd13ifvqcq0","pricing_plan_id":"cebpf4jnsgd1na2vs0mg"},{"bike_id":"2aace568-ac2f-49c7-9458-5246d5166cd0","system_id":"levelo_inurba_marseille","lat":43.28902,"lon":5.45041,"is_reserved":false,"is_disabled":false,"rental_uris":{"android":"levelo://app?vid=2aace568-ac2f-49c7-9458-5246d5166cd0","ios":"levelo://app?vid=2aace568-ac2f-49c7-9458-5246d5166cd0"},"vehicle_type_id":"4","last_reported":1746677690,"current_range_meters":14800,"station_id":"","pricing_plan_id":"cebpf4jnsgd1na2vs0mg"},{"bike_id":"35eb9b66-8c2b-45ff-81a1-c39ede7f7193","system_id":"levelo_inurba_marseille","lat":43.29298,"lon":5.37445,"is_reserved":false,"is_disabled":false,"rental_uris":{"android":"levelo://app?vid=35eb9b66-8c2b-45ff-81a1-c39ede7f7193","ios":"levelo://app?vid=35eb9b66-8c2b-45ff-81a1-c39ede7f7193"},"vehicle_type_id":"4","last_reported":1746677690,"current_range_meters":14800,"station_id":"ce4bgi12rcd13ifvqb70","pricing_plan_id":"cebpf4jnsgd1na2vs0mg"},{"bike_id":"2b3e8eda-70f2-4381-b06f-90dbe789e880","system_id":"levelo_inurba_marseille","lat":43.290559,"lon":5.399706,"is_reserved":false,"is_disabled":false,"rental_uris":{"android":"levelo://app?vid=2b3e8eda-70f2-4381-b06f-90dbe789e880","ios":"levelo://app?vid=2b3e8eda-70f2-4381-b06f-90dbe789e880"},"vehicle_type_id":"4","last_reported":1746677690,"current_range_meters":14800,"station_id":"","pricing_plan_id":"cebpf4jnsgd1na2vs0mg"},{"bike_id":"ffe52ac1-3319-41f7-a5de-bf49f0348d0c","system_id":"levelo_inurba_marseille","lat":43.336037,"lon":5.410287,"is_reserved":false,"is_disabled":false,"rental_uris":{"android":"levelo://app?vid=ffe52ac1-3319-41f7-a5de-bf49f0348d0c","ios":"levelo://app?vid=ffe52ac1-3319-41f7-a5de-bf49f0348d0c"},"vehicle_type_id":"4","last_reported":1746677690,"current_range_meters":14800,"station_id":"ce4bhqh2rcd13ifvqhmg","pricing_plan_id":"cebpf4jnsgd1na2vs0mg"},{"bike_id":"9cf54e36-7262-492b-9233-846ec2629fb1","system_id":"levelo_inurba_marseille","lat":43.302506,"lon":5.400748,"is_reserved":false,"is_disabled":false,"rental_uris":{"android":"levelo://app?vid=9cf54e36-7262-492b-9233-846ec2629fb1","ios":"levelo://app?vid=9cf54e36-7262-492b-9233-846ec2629fb1"},"vehicle_type_id":"4","last_reported":1746677690,"current_range_meters":15200,"station_id":"ce4bgvh2rcd13ifvqcs0","pricing_plan_id":"cebpf4jnsgd1na2vs0mg"},{"bike_id":"1916e3c8-cbe8-49aa-8b03-cd6efeec9565","system_id":"levelo_inurba_marseille","lat":43.30144,"lon":5.39887,"is_reserved":false,"is_disabled":false,"rental_uris":{"android":"levelo://app?vid=1916e3c8-cbe8-49aa-8b03-cd6efeec9565","ios":"levelo://app?vid=1916e3c8-cbe8-49aa-8b03-cd6efeec9565"},"vehicle_type_id":"4","last_reported":1746677690,"current_range_meters":16000,"station_id":"ce4bh0h2rcd13ifvqd40","pricing_plan_id":"cebpf4jnsgd1na2vs0mg"},{"bike_id":"0ec4cf3b-fa46-4a20-879c-6a1b1652b29e","system_id":"levelo_inurba_marseille","lat":43.30891,"lon":5.39654,"is_reserved":false,"is_disabled":false,"rental_uris":{"android":"levelo://app?vid=0ec4cf3b-fa46-4a20-879c-6a1b1652b29e","ios":"levelo://app?vid=0ec4cf3b-fa46-4a20-879c-6a1b1652b29e"},"vehicle_type_id":"4","last_reported":1746677690,"current_range_meters":16000,"station_id":"ce4bh012rcd13ifvqcv0","pricing_plan_id":"cebpf4jnsgd1na2vs0mg"},{"bike_id":"caccb556-2ad0-45b8-84b8-819024dd44e6","system_id":"levelo_inurba_marseille","lat":43.29777,"lon":5.36821,"is_reserved":false,"is_disabled":false,"rental_uris":{"android":"levelo://app?vid=caccb556-2ad0-45b8-84b8-819024dd44e6","ios":"levelo://app?vid=caccb556-2ad0-45b8-84b8-819024dd44e6"},"vehicle_type_id":"4","last_reported":1746677690,"current_range_meters":16000,"station_id":"","pricing_plan_id":"cebpf4jnsgd1na2vs0mg"},{"bike_id":"e6282093-23fb-41a9-859d-c0d9ad966535","system_id":"levelo_inurba_marseille","lat":43.317165,"lon":5.377256,"is_reserved":false,"is_disabled":false,"rental_uris":{"android":"levelo://app?vid=e6282093-23fb-41a9-859d-c0d9ad966535","ios":"levelo://app?vid=e6282093-23fb-41a9-859d-c0d9ad966535"},"vehicle_type_id":"4","last_reported":1746677690,"current_range_meters":16000,"station_id":"ce4bgth2rcd13ifvqch0","pricing_plan_id":"cebpf4jnsgd1na2vs0mg"},{"bike_id":"1f0ec024-dd17-4e6c-b386-b5410269e547","system_id":"levelo_inurba_marseille","lat":43.30236,"lon":5.40073,"is_reserved":false,"is_disabled":false,"rental_uris":{"android":"levelo://app?vid=1f0ec024-dd17-4e6c-b386-b5410269e547","ios":"levelo://app?vid=1f0ec024-dd17-4e6c-b386-b5410269e547"},"vehicle_type_id":"4","last_reported":1746677690,"current_range_meters":16000,"station_id":"ce4bgvh2rcd13ifvqcs0","pricing_plan_id":"cebpf4jnsgd1na2vs0mg"},{"bike_id":"a60892ec-d65f-4ea1-a529-725b1e5fe55a","system_id":"levelo_inurba_marseille","lat":43.31051,"lon":5.38339,"is_reserved":false,"is_disabled":false,"rental_uris":{"android":"levelo://app?vid=a60892ec-d65f-4ea1-a529-725b1e5fe55a","ios":"levelo://app?vid=a60892ec-d65f-4ea1-a529-725b1e5fe55a"},"vehicle_type_id":"4","last_reported":1746677690,"current_range_meters":16000,"station_id":"ce4bgv92rcd13ifvqcr0","pricing_plan_id":"cebpf4jnsgd1na2vs0mg"},{"bike_id":"6971f759-8594-489e-a8f6-9153c9a9c438","system_id":"levelo_inurba_marseille","lat":43.276839,"lon":5.419644,"is_reserved":false,"is_disabled":false,"rental_uris":{"android":"levelo://app?vid=6971f759-8594-489e-a8f6-9153c9a9c438","ios":"levelo://app?vid=6971f759-8594-489e-a8f6-9153c9a9c438"},"vehicle_type_id":"4","last_reported":1746677690,"current_range_meters":16000,"station_id":"","pricing_plan_id":"cebpf4jnsgd1na2vs0mg"},{"bike_id":"892d6969-dc39-4548-b915-eaf519c712bf","system_id":"levelo_inurba_marseille","lat":43.32544,"lon":5.41429,"is_reserved":false,"is_disabled":false,"rental_uris":{"android":"levelo://app?vid=892d6969-dc39-4548-b915-eaf519c712bf","ios":"levelo://app?vid=892d6969-dc39-4548-b915-eaf519c712bf"},"vehicle_type_id":"4","last_reported":1746677690,"current_range_meters":16000,"station_id":"ce4bhq12rcd13ifvqhhg","pricing_plan_id":"cebpf4jnsgd1na2vs0mg"},{"bike_id":"409ac4af-1a09-48e2-98b6-3b67bc8cd418","system_id":"levelo_inurba_marseille","lat":43.30108,"lon":5.39881,"is_reserved":false,"is_disabled":false,"rental_uris":{"android":"levelo://app?vid=409ac4af-1a09-48e2-98b6-3b67bc8cd418","ios":"levelo://app?vid=409ac4af-1a09-48e2-98b6-3b67bc8cd418"},"vehicle_type_id":"4","last_reported":1746677690,"current_range_meters":16000,"station_id":"ce4bh0h2rcd13ifvqd40","pricing_plan_id":"cebpf4jnsgd1na2vs0mg"},{"bike_id":"9fdf99a7-c0f5-47dc-b9fc-d24f0faaa129","system_id":"levelo_inurba_marseille","lat":43.32541,"lon":5.41433,"is_reserved":false,"is_disabled":false,"rental_uris":{"android":"levelo://app?vid=9fdf99a7-c0f5-47dc-b9fc-d24f0faaa129","ios":"levelo://app?vid=9fdf99a7-c0f5-47dc-b9fc-d24f0faaa129"},"vehicle_type_id":"4","last_reported":1746677690,"current_range_meters":16400,"station_id":"ce4bhq12rcd13ifvqhhg","pricing_plan_id":"cebpf4jnsgd1na2vs0mg"},{"bike_id":"e8cf782e-6413-400d-a924-7d455b80c7c1","system_id":"levelo_inurba_marseille","lat":43.30276,"lon":5.37722,"is_reserved":false,"is_disabled":false,"rental_uris":{"android":"levelo://app?vid=e8cf782e-6413-400d-a924-7d455b80c7c1","ios":"levelo://app?vid=e8cf782e-6413-400d-a924-7d455b80c7c1"},"vehicle_type_id":"4","last_reported":1746677690,"current_range_meters":16400,"station_id":"ce4bguh2rcd13ifvqcj0","pricing_plan_id":"cebpf4jnsgd1na2vs0mg"},{"bike_id":"89f953df-2061-408d-8f0d-6a2938e5443a","system_id":"levelo_inurba_marseille","lat":43.236626,"lon":5.403484,"is_reserved":false,"is_disabled":false,"rental_uris":{"android":"levelo://app?vid=89f953df-2061-408d-8f0d-6a2938e5443a","ios":"levelo://app?vid=89f953df-2061-408d-8f0d-6a2938e5443a"},"vehicle_type_id":"4","last_reported":1746677690,"current_range_meters":16400,"station_id":"","pricing_plan_id":"cebpf4jnsgd1na2vs0mg"},{"bike_id":"6a12e15e-b49d-4142-b121-ab33a215e4e1","system_id":"levelo_inurba_marseille","lat":43.31335,"lon":5.39714,"is_reserved":false,"is_disabled":false,"rental_uris":{"android":"levelo://app?vid=6a12e15e-b49d-4142-b121-ab33a215e4e1","ios":"levelo://app?vid=6a12e15e-b49d-4142-b121-ab33a215e4e1"},"vehicle_type_id":"4","last_reported":1746677690,"current_range_meters":16800,"station_id":"ce4bgvp2rcd13ifvqcu0","pricing_plan_id":"cebpf4jnsgd1na2vs0mg"},{"bike_id":"386441d1-d0cd-4783-a499-3625d3e469b1","system_id":"levelo_inurba_marseille","lat":43.28173,"lon":5.36353,"is_reserved":false,"is_disabled":true,"rental_uris":{"android":"levelo://app?vid=386441d1-d0cd-4783-a499-3625d3e469b1","ios":"levelo://app?vid=386441d1-d0cd-4783-a499-3625d3e469b1"},"vehicle_type_id":"4","last_reported":1746677690,"current_range_meters":16800,"station_id":"","pricing_plan_id":"cebpf4jnsgd1na2vs0mg"},{"bike_id":"e9135506-ad92-4336-9c8f-389560d4b052","system_id":"levelo_inurba_marseille","lat":43.31383,"lon":5.38502,"is_reserved":false,"is_disabled":false,"rental_uris":{"android":"levelo://app?vid=e9135506-ad92-4336-9c8f-389560d4b052","ios":"levelo://app?vid=e9135506-ad92-4336-9c8f-389560d4b052"},"vehicle_type_id":"4","last_reported":1746677690,"current_range_meters":17200,"station_id":"ce4bgt92rcd13ifvqcf0","pricing_plan_id":"cebpf4jnsgd1na2vs0mg"},{"bike_id":"6c990ab7-1787-46fb-bf99-030755abaccf","system_id":"levelo_inurba_marseille","lat":43.272026,"lon":5.391989,"is_reserved":false,"is_disabled":true,"rental_uris":{"android":"levelo://app?vid=6c990ab7-1787-46fb-bf99-030755abaccf","ios":"levelo://app?vid=6c990ab7-1787-46fb-bf99-030755abaccf"},"vehicle_type_id":"4","last_reported":1746677690,"current_range_meters":17200,"station_id":"ce4bhhp2rcd13ifvqfm0","pricing_plan_id":"cebpf4jnsgd1na2vs0mg"},{"bike_id":"084222e8-109d-40e5-bbed-f1d8a90c69e1","system_id":"levelo_inurba_marseille","lat":43.30224,"lon":5.39477,"is_reserved":false,"is_disabled":false,"rental_uris":{"android":"levelo://app?vid=084222e8-109d-40e5-bbed-f1d8a90c69e1","ios":"levelo://app?vid=084222e8-109d-40e5-bbed-f1d8a90c69e1"},"vehicle_type_id":"4","last_reported":1746677690,"current_range_meters":17200,"station_id":"ce4bh0p2rcd13ifvqd70","pricing_plan_id":"cebpf4jnsgd1na2vs0mg"},{"bike_id":"70a29a45-574c-4ff1-aca3-740aa0e705be","system_id":"levelo_inurba_marseille","lat":43.24168,"lon":5.3639,"is_reserved":false,"is_disabled":false,"rental_uris":{"android":"levelo://app?vid=70a29a45-574c-4ff1-aca3-740aa0e705be","ios":"levelo://app?vid=70a29a45-574c-4ff1-aca3-740aa0e705be"},"vehicle_type_id":"4","last_reported":1746677690,"current_range_meters":17200,"station_id":"cpo36qri1sfpv3e86is0","pricing_plan_id":"cebpf4jnsgd1na2vs0mg"},{"bike_id":"b5cd2326-e521-4c77-a615-4cb9bbb6d1fa","system_id":"levelo_inurba_marseille","lat":43.29502,"lon":5.38554,"is_reserved":false,"is_disabled":false,"rental_uris":{"android":"levelo://app?vid=b5cd2326-e521-4c77-a615-4cb9bbb6d1fa","ios":"levelo://app?vid=b5cd2326-e521-4c77-a615-4cb9bbb6d1fa"},"vehicle_type_id":"4","last_reported":1746677690,"current_range_meters":17200,"station_id":"ce4bgih2rcd13ifvqba0","pricing_plan_id":"cebpf4jnsgd1na2vs0mg"},{"bike_id":"ad29d92a-66a4-4434-a9eb-9d33cbff844a","system_id":"levelo_inurba_marseille","lat":43.302496,"lon":5.400518,"is_reserved":false,"is_disabled":false,"rental_uris":{"android":"levelo://app?vid=ad29d92a-66a4-4434-a9eb-9d33cbff844a","ios":"levelo://app?vid=ad29d92a-66a4-4434-a9eb-9d33cbff844a"},"vehicle_type_id":"4","last_reported":1746677690,"current_range_meters":17200,"station_id":"ce4bgvh2rcd13ifvqcs0","pricing_plan_id":"cebpf4jnsgd1na2vs0mg"},{"bike_id":"49e1edb5-3fad-4311-9de7-56cceb654a91","system_id":"levelo_inurba_marseille","lat":43.26832,"lon":5.40207,"is_reserved":false,"is_disabled":false,"rental_uris":{"android":"levelo://app?vid=49e1edb5-3fad-4311-9de7-56cceb654a91","ios":"levelo://app?vid=49e1edb5-3fad-4311-9de7-56cceb654a91"},"vehicle_type_id":"4","last_reported":1746677690,"current_range_meters":17200,"station_id":"ce501612rcd8frsf0b60","pricing_plan_id":"cebpf4jnsgd1na2vs0mg"},{"bike_id":"e433a49d-4b63-4b26-816f-c8626448fe9e","system_id":"levelo_inurba_marseille","lat":43.299598,"lon":5.413328,"is_reserved":false,"is_disabled":false,"rental_uris":{"android":"levelo://app?vid=e433a49d-4b63-4b26-816f-c8626448fe9e","ios":"levelo://app?vid=e433a49d-4b63-4b26-816f-c8626448fe9e"},"vehicle_type_id":"4","last_reported":1746677690,"current_range_meters":17200,"station_id":"ce4bhp12rcd13ifvqh9g","pricing_plan_id":"cebpf4jnsgd1na2vs0mg"},{"bike_id":"828bb672-77b0-41cc-998c-b85b3f290f41","system_id":"levelo_inurba_marseille","lat":43.30128,"lon":5.39861,"is_reserved":false,"is_disabled":false,"rental_uris":{"android":"levelo://app?vid=828bb672-77b0-41cc-998c-b85b3f290f41","ios":"levelo://app?vid=828bb672-77b0-41cc-998c-b85b3f290f41"},"vehicle_type_id":"4","last_reported":1746677690,"current_range_meters":17600,"station_id":"ce4bh0h2rcd13ifvqd40","pricing_plan_id":"cebpf4jnsgd1na2vs0mg"},{"bike_id":"1e7a6412-170a-481a-8586-435773217c9f","system_id":"levelo_inurba_marseille","lat":43.29908,"lon":5.38155,"is_reserved":false,"is_disabled":false,"rental_uris":{"android":"levelo://app?vid=1e7a6412-170a-481a-8586-435773217c9f","ios":"levelo://app?vid=1e7a6412-170a-481a-8586-435773217c9f"},"vehicle_type_id":"4","last_reported":1746677690,"current_range_meters":17600,"station_id":"ce4bgj12rcd13ifvqbc0","pricing_plan_id":"cebpf4jnsgd1na2vs0mg"},{"bike_id":"ad3912e1-02bc-450f-9f15-6e4766049115","system_id":"levelo_inurba_marseille","lat":43.295556,"lon":5.422974,"is_reserved":false,"is_disabled":false,"rental_uris":{"android":"levelo://app?vid=ad3912e1-02bc-450f-9f15-6e4766049115","ios":"levelo://app?vid=ad3912e1-02bc-450f-9f15-6e4766049115"},"vehicle_type_id":"4","last_reported":1746677690,"current_range_meters":17600,"station_id":"ce4bhph2rcd13ifvqhdg","pricing_plan_id":"cebpf4jnsgd1na2vs0mg"},{"bike_id":"872b87aa-5ad9-4d9e-92de-5eb2db684f78","system_id":"levelo_inurba_marseille","lat":43.2867,"lon":5.36351,"is_reserved":false,"is_disabled":false,"rental_uris":{"android":"levelo://app?vid=872b87aa-5ad9-4d9e-92de-5eb2db684f78","ios":"levelo://app?vid=872b87aa-5ad9-4d9e-92de-5eb2db684f78"},"vehicle_type_id":"4","last_reported":1746677690,"current_range_meters":17600,"station_id":"ce4bhah2rcd13ifvqej0","pricing_plan_id":"cebpf4jnsgd1na2vs0mg"},{"bike_id":"16d82653-e2e5-4531-a384-7902e244f0cf","system_id":"levelo_inurba_marseille","lat":43.2253,"lon":5.34793,"is_reserved":false,"is_disabled":false,"rental_uris":{"android":"levelo://app?vid=16d82653-e2e5-4531-a384-7902e244f0cf","ios":"levelo://app?vid=16d82653-e2e5-4531-a384-7902e244f0cf"},"vehicle_type_id":"4","last_reported":1746677690,"current_range_meters":18000,"station_id":"st_cvj5dfep6f1abm77gieg","pricing_plan_id":"cebpf4jnsgd1na2vs0mg"},{"bike_id":"89b5c51b-cd9c-475c-ba7a-726b12d22f75","system_id":"levelo_inurba_marseille","lat":43.21158,"lon":5.35103,"is_reserved":false,"is_disabled":false,"rental_uris":{"android":"levelo://app?vid=89b5c51b-cd9c-475c-ba7a-726b12d22f75","ios":"levelo://app?vid=89b5c51b-cd9c-475c-ba7a-726b12d22f75"},"vehicle_type_id":"4","last_reported":1746677690,"current_range_meters":18000,"station_id":"st_cvj6sg6p6f1abm77japg","pricing_plan_id":"cebpf4jnsgd1na2vs0mg"},{"bike_id":"e85fb6e7-29b9-4a2c-aa10-343a3bf1aacc","system_id":"levelo_inurba_marseille","lat":43.29903,"lon":5.43679,"is_reserved":false,"is_disabled":false,"rental_uris":{"android":"levelo://app?vid=e85fb6e7-29b9-4a2c-aa10-343a3bf1aacc","ios":"levelo://app?vid=e85fb6e7-29b9-4a2c-aa10-343a3bf1aacc"},"vehicle_type_id":"4","last_reported":1746677690,"current_range_meters":18000,"station_id":"ce4bhpp2rcd13ifvqhfg","pricing_plan_id":"cebpf4jnsgd1na2vs0mg"},{"bike_id":"86faaeb0-89f8-42b9-be93-a34d16b7bcf7","system_id":"levelo_inurba_marseille","lat":43.30095,"lon":5.37067,"is_reserved":false,"is_disabled":false,"rental_uris":{"android":"levelo://app?vid=86faaeb0-89f8-42b9-be93-a34d16b7bcf7","ios":"levelo://app?vid=86faaeb0-89f8-42b9-be93-a34d16b7bcf7"},"vehicle_type_id":"4","last_reported":1746677690,"current_range_meters":18000,"station_id":"","pricing_plan_id":"cebpf4jnsgd1na2vs0mg"},{"bike_id":"f3035667-5db8-4d82-95b2-1aa404290e19","system_id":"levelo_inurba_marseille","lat":43.2416,"lon":5.39755,"is_reserved":false,"is_disabled":false,"rental_uris":{"android":"levelo://app?vid=f3035667-5db8-4d82-95b2-1aa404290e19","ios":"levelo://app?vid=f3035667-5db8-4d82-95b2-1aa404290e19"},"vehicle_type_id":"4","last_reported":1746677690,"current_range_meters":18000,"station_id":"ce4bhn12rcd13ifvqgpg","pricing_plan_id":"cebpf4jnsgd1na2vs0mg"},{"bike_id":"3cac0407-9710-44bd-a04a-af262a1048b3","system_id":"levelo_inurba_marseille","lat":43.28139,"lon":5.42654,"is_reserved":false,"is_disabled":false,"rental_uris":{"android":"levelo://app?vid=3cac0407-9710-44bd-a04a-af262a1048b3","ios":"levelo://app?vid=3cac0407-9710-44bd-a04a-af262a1048b3"},"vehicle_type_id":"4","last_reported":1746677690,"current_range_meters":18800,"station_id":"ce4bhnh2rcd13ifvqgug","pricing_plan_id":"cebpf4jnsgd1na2vs0mg"},{"bike_id":"33eb1e3c-9e9a-4b25-b5c8-06d98a037e5b","system_id":"levelo_inurba_marseille","lat":43.30413,"lon":5.41288,"is_reserved":false,"is_disabled":false,"rental_uris":{"android":"levelo://app?vid=33eb1e3c-9e9a-4b25-b5c8-06d98a037e5b","ios":"levelo://app?vid=33eb1e3c-9e9a-4b25-b5c8-06d98a037e5b"},"vehicle_type_id":"4","last_reported":1746677690,"current_range_meters":18800,"station_id":"ce4bhop2rcd13ifvqh8g","pricing_plan_id":"cebpf4jnsgd1na2vs0mg"},{"bike_id":"545f7335-f587-48c6-bdc0-fb5f2925857f","system_id":"levelo_inurba_marseille","lat":43.31077,"lon":5.3836,"is_reserved":false,"is_disabled":false,"rental_uris":{"android":"levelo://app?vid=545f7335-f587-48c6-bdc0-fb5f2925857f","ios":"levelo://app?vid=545f7335-f587-48c6-bdc0-fb5f2925857f"},"vehicle_type_id":"4","last_reported":1746677690,"current_range_meters":18800,"station_id":"ce4bgv92rcd13ifvqcr0","pricing_plan_id":"cebpf4jnsgd1na2vs0mg"},{"bike_id":"a71a0dfc-7de8-44ee-9bb2-1e81dadd19e0","system_id":"levelo_inurba_marseille","lat":43.317006,"lon":5.437038,"is_reserved":false,"is_disabled":false,"rental_uris":{"android":"levelo://app?vid=a71a0dfc-7de8-44ee-9bb2-1e81dadd19e0","ios":"levelo://app?vid=a71a0dfc-7de8-44ee-9bb2-1e81dadd19e0"},"vehicle_type_id":"4","last_reported":1746677690,"current_range_meters":18800,"station_id":"ce4bhp92rcd13ifvqhcg","pricing_plan_id":"cebpf4jnsgd1na2vs0mg"},{"bike_id":"31e69915-0dbd-4c3f-9f9d-99fb88776bd2","system_id":"levelo_inurba_marseille","lat":43.29618,"lon":5.405969,"is_reserved":false,"is_disabled":false,"rental_uris":{"android":"levelo://app?vid=31e69915-0dbd-4c3f-9f9d-99fb88776bd2","ios":"levelo://app?vid=31e69915-0dbd-4c3f-9f9d-99fb88776bd2"},"vehicle_type_id":"4","last_reported":1746677690,"current_range_meters":18800,"station_id":"ce4bh0h2rcd13ifvqd60","pricing_plan_id":"cebpf4jnsgd1na2vs0mg"},{"bike_id":"fc0953ab-6307-4092-9957-be52c434151e","system_id":"levelo_inurba_marseille","lat":43.27497,"lon":5.4245,"is_reserved":false,"is_disabled":false,"rental_uris":{"android":"levelo://app?vid=fc0953ab-6307-4092-9957-be52c434151e","ios":"levelo://app?vid=fc0953ab-6307-4092-9957-be52c434151e"},"vehicle_type_id":"4","last_reported":1746677690,"current_range_meters":18800,"station_id":"ce4bhn92rcd13ifvqgrg","pricing_plan_id":"cebpf4jnsgd1na2vs0mg"},{"bike_id":"385efc73-c8f2-4acf-91a3-ae63842dcfc6","system_id":"levelo_inurba_marseille","lat":43.286047,"lon":5.370718,"is_reserved":false,"is_disabled":true,"rental_uris":{"android":"levelo://app?vid=385efc73-c8f2-4acf-91a3-ae63842dcfc6","ios":"levelo://app?vid=385efc73-c8f2-4acf-91a3-ae63842dcfc6"},"vehicle_type_id":"4","last_reported":1746677690,"current_range_meters":19200,"station_id":"ce4bht12rcd13ifvqi60","pricing_plan_id":"cebpf4jnsgd1na2vs0mg"},{"bike_id":"5607f9e2-c252-4beb-b5b4-87616dcb2ae5","system_id":"levelo_inurba_marseille","lat":43.32332,"lon":5.36757,"is_reserved":false,"is_disabled":false,"rental_uris":{"android":"levelo://app?vid=5607f9e2-c252-4beb-b5b4-87616dcb2ae5","ios":"levelo://app?vid=5607f9e2-c252-4beb-b5b4-87616dcb2ae5"},"vehicle_type_id":"4","last_reported":1746677690,"current_range_meters":19200,"station_id":"ce4bhsh2rcd13ifvqi2g","pricing_plan_id":"cebpf4jnsgd1na2vs0mg"},{"bike_id":"14581aba-b181-4996-ae9c-58bc49578e0e","system_id":"levelo_inurba_marseille","lat":43.296313,"lon":5.406246,"is_reserved":false,"is_disabled":false,"rental_uris":{"android":"levelo://app?vid=14581aba-b181-4996-ae9c-58bc49578e0e","ios":"levelo://app?vid=14581aba-b181-4996-ae9c-58bc49578e0e"},"vehicle_type_id":"4","last_reported":1746677690,"current_range_meters":19200,"station_id":"ce4bh0h2rcd13ifvqd60","pricing_plan_id":"cebpf4jnsgd1na2vs0mg"},{"bike_id":"ff807334-3ad3-4e40-bbde-648eb2b1c45b","system_id":"levelo_inurba_marseille","lat":43.211756,"lon":5.350791,"is_reserved":false,"is_disabled":false,"rental_uris":{"android":"levelo://app?vid=ff807334-3ad3-4e40-bbde-648eb2b1c45b","ios":"levelo://app?vid=ff807334-3ad3-4e40-bbde-648eb2b1c45b"},"vehicle_type_id":"4","last_reported":1746677690,"current_range_meters":19200,"station_id":"st_cvj6sg6p6f1abm77japg","pricing_plan_id":"cebpf4jnsgd1na2vs0mg"},{"bike_id":"371f44c9-186d-4778-97f3-945a8631fc05","system_id":"levelo_inurba_marseille","lat":43.24101,"lon":5.37744,"is_reserved":false,"is_disabled":false,"rental_uris":{"android":"levelo://app?vid=371f44c9-186d-4778-97f3-945a8631fc05","ios":"levelo://app?vid=371f44c9-186d-4778-97f3-945a8631fc05"},"vehicle_type_id":"4","last_reported":1746677690,"current_range_meters":19200,"station_id":"ce4bhnp2rcd13ifvqgvg","pricing_plan_id":"cebpf4jnsgd1na2vs0mg"},{"bike_id":"6619ad38-8d79-49fa-b7fe-9d35f862ea57","system_id":"levelo_inurba_marseille","lat":43.260557,"lon":5.415981,"is_reserved":false,"is_disabled":true,"rental_uris":{"android":"levelo://app?vid=6619ad38-8d79-49fa-b7fe-9d35f862ea57","ios":"levelo://app?vid=6619ad38-8d79-49fa-b7fe-9d35f862ea57"},"vehicle_type_id":"4","last_reported":1746677690,"current_range_meters":19600,"station_id":"","pricing_plan_id":"cebpf4jnsgd1na2vs0mg"},{"bike_id":"eccba332-1be7-42d7-a3c4-90b0d1cb293e","system_id":"levelo_inurba_marseille","lat":43.279868,"lon":5.416643,"is_reserved":false,"is_disabled":false,"rental_uris":{"android":"levelo://app?vid=eccba332-1be7-42d7-a3c4-90b0d1cb293e","ios":"levelo://app?vid=eccba332-1be7-42d7-a3c4-90b0d1cb293e"},"vehicle_type_id":"4","last_reported":1746677690,"current_range_meters":19200,"station_id":"ce4bho12rcd13ifvqh1g","pricing_plan_id":"cebpf4jnsgd1na2vs0mg"},{"bike_id":"90dd7ece-e0e3-4e3f-8585-4f4f345a0f96","system_id":"levelo_inurba_marseille","lat":43.317007,"lon":5.404653,"is_reserved":false,"is_disabled":false,"rental_uris":{"android":"levelo://app?vid=90dd7ece-e0e3-4e3f-8585-4f4f345a0f96","ios":"levelo://app?vid=90dd7ece-e0e3-4e3f-8585-4f4f345a0f96"},"vehicle_type_id":"4","last_reported":1746677690,"current_range_meters":19600,"station_id":"ce4bh012rcd13ifvqd00","pricing_plan_id":"cebpf4jnsgd1na2vs0mg"},{"bike_id":"c821e32e-d925-441c-80d2-d5a984744aba","system_id":"levelo_inurba_marseille","lat":43.211969,"lon":5.350836,"is_reserved":false,"is_disabled":false,"rental_uris":{"android":"levelo://app?vid=c821e32e-d925-441c-80d2-d5a984744aba","ios":"levelo://app?vid=c821e32e-d925-441c-80d2-d5a984744aba"},"vehicle_type_id":"4","last_reported":1746677690,"current_range_meters":19600,"station_id":"st_cvj6sg6p6f1abm77japg","pricing_plan_id":"cebpf4jnsgd1na2vs0mg"},{"bike_id":"8667c9cf-b1e4-47a2-a990-8aa6e7913022","system_id":"levelo_inurba_marseille","lat":43.28101,"lon":5.37855,"is_reserved":false,"is_disabled":true,"rental_uris":{"android":"levelo://app?vid=8667c9cf-b1e4-47a2-a990-8aa6e7913022","ios":"levelo://app?vid=8667c9cf-b1e4-47a2-a990-8aa6e7913022"},"vehicle_type_id":"4","last_reported":1746677690,"current_range_meters":19600,"station_id":"ce4bha12rcd13ifvqee0","pricing_plan_id":"cebpf4jnsgd1na2vs0mg"},{"bike_id":"8d07c3e4-4780-432f-81a8-525c811272d6","system_id":"levelo_inurba_marseille","lat":43.314836,"lon":5.373033,"is_reserved":false,"is_disabled":false,"rental_uris":{"android":"levelo://app?vid=8d07c3e4-4780-432f-81a8-525c811272d6","ios":"levelo://app?vid=8d07c3e4-4780-432f-81a8-525c811272d6"},"vehicle_type_id":"4","last_reported":1746677690,"current_range_meters":19600,"station_id":"ce4bgt12rcd13ifvqcd0","pricing_plan_id":"cebpf4jnsgd1na2vs0mg"},{"bike_id":"95407fdd-6b53-4c42-85f7-ee3e66f21b13","system_id":"levelo_inurba_marseille","lat":43.24323,"lon":5.38013,"is_reserved":false,"is_disabled":false,"rental_uris":{"android":"levelo://app?vid=95407fdd-6b53-4c42-85f7-ee3e66f21b13","ios":"levelo://app?vid=95407fdd-6b53-4c42-85f7-ee3e66f21b13"},"vehicle_type_id":"4","last_reported":1746677690,"current_range_meters":20000,"station_id":"","pricing_plan_id":"cebpf4jnsgd1na2vs0mg"},{"bike_id":"f44f1a89-67d8-4c00-9599-b3a2c38876d9","system_id":"levelo_inurba_marseille","lat":43.279845,"lon":5.416566,"is_reserved":false,"is_disabled":false,"rental_uris":{"android":"levelo://app?vid=f44f1a89-67d8-4c00-9599-b3a2c38876d9","ios":"levelo://app?vid=f44f1a89-67d8-4c00-9599-b3a2c38876d9"},"vehicle_type_id":"4","last_reported":1746677690,"current_range_meters":20000,"station_id":"ce4bho12rcd13ifvqh1g","pricing_plan_id":"cebpf4jnsgd1na2vs0mg"},{"bike_id":"c00b4dc3-faff-4d5a-88c8-7b701ca8bbe6","system_id":"levelo_inurba_marseille","lat":43.31688,"lon":5.40471,"is_reserved":false,"is_disabled":false,"rental_uris":{"android":"levelo://app?vid=c00b4dc3-faff-4d5a-88c8-7b701ca8bbe6","ios":"levelo://app?vid=c00b4dc3-faff-4d5a-88c8-7b701ca8bbe6"},"vehicle_type_id":"4","last_reported":1746677690,"current_range_meters":20000,"station_id":"ce4bh012rcd13ifvqd00","pricing_plan_id":"cebpf4jnsgd1na2vs0mg"},{"bike_id":"bc4a17a8-edea-4cae-b62d-433382f254e3","system_id":"levelo_inurba_marseille","lat":43.26931,"lon":5.40265,"is_reserved":false,"is_disabled":false,"rental_uris":{"android":"levelo://app?vid=bc4a17a8-edea-4cae-b62d-433382f254e3","ios":"levelo://app?vid=bc4a17a8-edea-4cae-b62d-433382f254e3"},"vehicle_type_id":"4","last_reported":1746677690,"current_range_meters":20000,"station_id":"cjm6bp8fraef2m0cb0m0","pricing_plan_id":"cebpf4jnsgd1na2vs0mg"},{"bike_id":"bda5be8e-0919-47ea-aae0-c476c63ec293","system_id":"levelo_inurba_marseille","lat":43.305356,"lon":5.384304,"is_reserved":false,"is_disabled":true,"rental_uris":{"android":"levelo://app?vid=bda5be8e-0919-47ea-aae0-c476c63ec293","ios":"levelo://app?vid=bda5be8e-0919-47ea-aae0-c476c63ec293"},"vehicle_type_id":"4","last_reported":1746677690,"current_range_meters":20000,"station_id":"ce4bgg92rcd13ifvqb30","pricing_plan_id":"cebpf4jnsgd1na2vs0mg"},{"bike_id":"f3e9ab38-3242-4aa5-83f9-529a16ccf936","system_id":"levelo_inurba_marseille","lat":43.22505,"lon":5.34799,"is_reserved":false,"is_disabled":false,"rental_uris":{"android":"levelo://app?vid=f3e9ab38-3242-4aa5-83f9-529a16ccf936","ios":"levelo://app?vid=f3e9ab38-3242-4aa5-83f9-529a16ccf936"},"vehicle_type_id":"4","last_reported":1746677690,"current_range_meters":20000,"station_id":"st_cvj5dfep6f1abm77gieg","pricing_plan_id":"cebpf4jnsgd1na2vs0mg"},{"bike_id":"4ccb6697-61c7-4c15-8380-1ace8dfc2cbf","system_id":"levelo_inurba_marseille","lat":43.29003,"lon":5.35612,"is_reserved":false,"is_disabled":false,"rental_uris":{"android":"levelo://app?vid=4ccb6697-61c7-4c15-8380-1ace8dfc2cbf","ios":"levelo://app?vid=4ccb6697-61c7-4c15-8380-1ace8dfc2cbf"},"vehicle_type_id":"4","last_reported":1746677690,"current_range_meters":20400,"station_id":"ce4bhb92rcd13ifvqen0","pricing_plan_id":"cebpf4jnsgd1na2vs0mg"},{"bike_id":"2266dcd2-0424-4645-8b9d-541ac70080f4","system_id":"levelo_inurba_marseille","lat":43.32593,"lon":5.36391,"is_reserved":false,"is_disabled":false,"rental_uris":{"android":"levelo://app?vid=2266dcd2-0424-4645-8b9d-541ac70080f4","ios":"levelo://app?vid=2266dcd2-0424-4645-8b9d-541ac70080f4"},"vehicle_type_id":"4","last_reported":1746677690,"current_range_meters":20800,"station_id":"","pricing_plan_id":"cebpf4jnsgd1na2vs0mg"},{"bike_id":"08f13c7a-2eb9-4abf-8400-826a57aabaef","system_id":"levelo_inurba_marseille","lat":43.316737,"lon":5.372489,"is_reserved":false,"is_disabled":false,"rental_uris":{"android":"levelo://app?vid=08f13c7a-2eb9-4abf-8400-826a57aabaef","ios":"levelo://app?vid=08f13c7a-2eb9-4abf-8400-826a57aabaef"},"vehicle_type_id":"4","last_reported":1746677690,"current_range_meters":20800,"station_id":"","pricing_plan_id":"cebpf4jnsgd1na2vs0mg"},{"bike_id":"00ec563f-f51e-4242-b88d-7a29630508da","system_id":"levelo_inurba_marseille","lat":43.29751,"lon":5.37714,"is_reserved":false,"is_disabled":true,"rental_uris":{"android":"levelo://app?vid=00ec563f-f51e-4242-b88d-7a29630508da","ios":"levelo://app?vid=00ec563f-f51e-4242-b88d-7a29630508da"},"vehicle_type_id":"4","last_reported":1746677690,"current_range_meters":20800,"station_id":"ce4bgkh2rcd13ifvqbl0","pricing_plan_id":"cebpf4jnsgd1na2vs0mg"},{"bike_id":"f73d450b-fde6-4898-99b1-916875a407c6","system_id":"levelo_inurba_marseille","lat":43.22505,"lon":5.34786,"is_reserved":false,"is_disabled":false,"rental_uris":{"android":"levelo://app?vid=f73d450b-fde6-4898-99b1-916875a407c6","ios":"levelo://app?vid=f73d450b-fde6-4898-99b1-916875a407c6"},"vehicle_type_id":"4","last_reported":1746677690,"current_range_meters":21600,"station_id":"st_cvj5dfep6f1abm77gieg","pricing_plan_id":"cebpf4jnsgd1na2vs0mg"},{"bike_id":"da3aa9b6-280e-441a-9902-7b55cb9fe3a3","system_id":"levelo_inurba_marseille","lat":43.3237,"lon":5.36752,"is_reserved":false,"is_disabled":false,"rental_uris":{"android":"levelo://app?vid=da3aa9b6-280e-441a-9902-7b55cb9fe3a3","ios":"levelo://app?vid=da3aa9b6-280e-441a-9902-7b55cb9fe3a3"},"vehicle_type_id":"4","last_reported":1746677690,"current_range_meters":21600,"station_id":"ce4bhsh2rcd13ifvqi2g","pricing_plan_id":"cebpf4jnsgd1na2vs0mg"},{"bike_id":"ba38a60a-fe6b-4d9c-9ac1-ebdcd46cf517","system_id":"levelo_inurba_marseille","lat":43.241706,"lon":5.397391,"is_reserved":false,"is_disabled":false,"rental_uris":{"android":"levelo://app?vid=ba38a60a-fe6b-4d9c-9ac1-ebdcd46cf517","ios":"levelo://app?vid=ba38a60a-fe6b-4d9c-9ac1-ebdcd46cf517"},"vehicle_type_id":"4","last_reported":1746677690,"current_range_meters":22000,"station_id":"ce4bhn12rcd13ifvqgpg","pricing_plan_id":"cebpf4jnsgd1na2vs0mg"},{"bike_id":"b7d249f8-d402-44a4-bedf-62a47def9566","system_id":"levelo_inurba_marseille","lat":43.307905,"lon":5.376428,"is_reserved":false,"is_disabled":false,"rental_uris":{"android":"levelo://app?vid=b7d249f8-d402-44a4-bedf-62a47def9566","ios":"levelo://app?vid=b7d249f8-d402-44a4-bedf-62a47def9566"},"vehicle_type_id":"4","last_reported":1746677690,"current_range_meters":22000,"station_id":"ce4bgv92rcd13ifvqcq0","pricing_plan_id":"cebpf4jnsgd1na2vs0mg"},{"bike_id":"91e162dc-df90-4b10-94c0-748de28a9b55","system_id":"levelo_inurba_marseille","lat":43.277977,"lon":5.399682,"is_reserved":false,"is_disabled":false,"rental_uris":{"android":"levelo://app?vid=91e162dc-df90-4b10-94c0-748de28a9b55","ios":"levelo://app?vid=91e162dc-df90-4b10-94c0-748de28a9b55"},"vehicle_type_id":"4","last_reported":1746677690,"current_range_meters":22000,"station_id":"","pricing_plan_id":"cebpf4jnsgd1na2vs0mg"},{"bike_id":"5a66b016-8425-4ea9-ad57-b6177cc96802","system_id":"levelo_inurba_marseille","lat":43.31571,"lon":5.38888,"is_reserved":false,"is_disabled":false,"rental_uris":{"android":"levelo://app?vid=5a66b016-8425-4ea9-ad57-b6177cc96802","ios":"levelo://app?vid=5a66b016-8425-4ea9-ad57-b6177cc96802"},"vehicle_type_id":"4","last_reported":1746677690,"current_range_meters":22000,"station_id":"","pricing_plan_id":"cebpf4jnsgd1na2vs0mg"},{"bike_id":"277f2b47-80a1-428b-8dbe-81e5e0c02f6d","system_id":"levelo_inurba_marseille","lat":43.30451,"lon":5.37926,"is_reserved":false,"is_disabled":false,"rental_uris":{"android":"levelo://app?vid=277f2b47-80a1-428b-8dbe-81e5e0c02f6d","ios":"levelo://app?vid=277f2b47-80a1-428b-8dbe-81e5e0c02f6d"},"vehicle_type_id":"4","last_reported":1746677690,"current_range_meters":22000,"station_id":"ce4bgup2rcd13ifvqcn0","pricing_plan_id":"cebpf4jnsgd1na2vs0mg"},{"bike_id":"4811fdd4-28a6-412f-98c6-0bcb42d207e2","system_id":"levelo_inurba_marseille","lat":43.30807,"lon":5.43532,"is_reserved":false,"is_disabled":false,"rental_uris":{"android":"levelo://app?vid=4811fdd4-28a6-412f-98c6-0bcb42d207e2","ios":"levelo://app?vid=4811fdd4-28a6-412f-98c6-0bcb42d207e2"},"vehicle_type_id":"4","last_reported":1746677690,"current_range_meters":22000,"station_id":"ce4bhph2rcd13ifvqheg","pricing_plan_id":"cebpf4jnsgd1na2vs0mg"},{"bike_id":"46b78159-ed00-4041-a24f-3ed1435c9009","system_id":"levelo_inurba_marseille","lat":43.30929,"lon":5.40145,"is_reserved":false,"is_disabled":false,"rental_uris":{"android":"levelo://app?vid=46b78159-ed00-4041-a24f-3ed1435c9009","ios":"levelo://app?vid=46b78159-ed00-4041-a24f-3ed1435c9009"},"vehicle_type_id":"4","last_reported":1746677690,"current_range_meters":22400,"station_id":"ce4bgvp2rcd13ifvqct0","pricing_plan_id":"cebpf4jnsgd1na2vs0mg"},{"bike_id":"37f2c22e-dc87-4650-ae08-b53837cd376a","system_id":"levelo_inurba_marseille","lat":43.239591,"lon":5.366318,"is_reserved":false,"is_disabled":false,"rental_uris":{"android":"levelo://app?vid=37f2c22e-dc87-4650-ae08-b53837cd376a","ios":"levelo://app?vid=37f2c22e-dc87-4650-ae08-b53837cd376a"},"vehicle_type_id":"4","last_reported":1746677690,"current_range_meters":22400,"station_id":"ce4bhi12rcd13ifvqfp0","pricing_plan_id":"cebpf4jnsgd1na2vs0mg"},{"bike_id":"2f0cbd38-7746-40cd-aad8-7b6caf605afe","system_id":"levelo_inurba_marseille","lat":43.2975,"lon":5.4599,"is_reserved":false,"is_disabled":false,"rental_uris":{"android":"levelo://app?vid=2f0cbd38-7746-40cd-aad8-7b6caf605afe","ios":"levelo://app?vid=2f0cbd38-7746-40cd-aad8-7b6caf605afe"},"vehicle_type_id":"4","last_reported":1746677690,"current_range_meters":22400,"station_id":"","pricing_plan_id":"cebpf4jnsgd1na2vs0mg"},{"bike_id":"81d4cec4-4182-4035-b937-2cdef08d4fe1","system_id":"levelo_inurba_marseille","lat":43.30735,"lon":5.42444,"is_reserved":false,"is_disabled":false,"rental_uris":{"android":"levelo://app?vid=81d4cec4-4182-4035-b937-2cdef08d4fe1","ios":"levelo://app?vid=81d4cec4-4182-4035-b937-2cdef08d4fe1"},"vehicle_type_id":"4","last_reported":1746677690,"current_range_meters":22800,"station_id":"st_cvj6ca6bvosntc0bfgr0","pricing_plan_id":"cebpf4jnsgd1na2vs0mg"},{"bike_id":"3efe50aa-6a3d-4e17-a8ae-822980fea60a","system_id":"levelo_inurba_marseille","lat":43.29224,"lon":5.36092,"is_reserved":false,"is_disabled":false,"rental_uris":{"android":"levelo://app?vid=3efe50aa-6a3d-4e17-a8ae-822980fea60a","ios":"levelo://app?vid=3efe50aa-6a3d-4e17-a8ae-822980fea60a"},"vehicle_type_id":"4","last_reported":1746677690,"current_range_meters":22800,"station_id":"ce4bhbh2rcd13ifvqeqg","pricing_plan_id":"cebpf4jnsgd1na2vs0mg"},{"bike_id":"7bb35b3d-f7fe-420b-a58d-bb84a1d6d6e7","system_id":"levelo_inurba_marseille","lat":43.297982,"lon":5.404004,"is_reserved":false,"is_disabled":false,"rental_uris":{"android":"levelo://app?vid=7bb35b3d-f7fe-420b-a58d-bb84a1d6d6e7","ios":"levelo://app?vid=7bb35b3d-f7fe-420b-a58d-bb84a1d6d6e7"},"vehicle_type_id":"4","last_reported":1746677690,"current_range_meters":22800,"station_id":"ce4bh112rcd13ifvqd90","pricing_plan_id":"cebpf4jnsgd1na2vs0mg"},{"bike_id":"17b5d9fc-a9af-4ef7-b57c-f269d43e9280","system_id":"levelo_inurba_marseille","lat":43.32477,"lon":5.36584,"is_reserved":false,"is_disabled":false,"rental_uris":{"android":"levelo://app?vid=17b5d9fc-a9af-4ef7-b57c-f269d43e9280","ios":"levelo://app?vid=17b5d9fc-a9af-4ef7-b57c-f269d43e9280"},"vehicle_type_id":"4","last_reported":1746677690,"current_range_meters":22800,"station_id":"ce4bhs12rcd13ifvqhvg","pricing_plan_id":"cebpf4jnsgd1na2vs0mg"},{"bike_id":"9a1c9931-7935-4501-9926-c53ac3815ef0","system_id":"levelo_inurba_marseille","lat":43.311134,"lon":5.377608,"is_reserved":false,"is_disabled":false,"rental_uris":{"android":"levelo://app?vid=9a1c9931-7935-4501-9926-c53ac3815ef0","ios":"levelo://app?vid=9a1c9931-7935-4501-9926-c53ac3815ef0"},"vehicle_type_id":"4","last_reported":1746677690,"current_range_meters":22800,"station_id":"ce4bgt92rcd13ifvqcg0","pricing_plan_id":"cebpf4jnsgd1na2vs0mg"},{"bike_id":"1a9509c7-d920-4502-b622-226f5af06e90","system_id":"levelo_inurba_marseille","lat":43.297847,"lon":5.39337,"is_reserved":false,"is_disabled":false,"rental_uris":{"android":"levelo://app?vid=1a9509c7-d920-4502-b622-226f5af06e90","ios":"levelo://app?vid=1a9509c7-d920-4502-b622-226f5af06e90"},"vehicle_type_id":"4","last_reported":1746677690,"current_range_meters":22800,"station_id":"chh1huq6cuj3fo74tm60","pricing_plan_id":"cebpf4jnsgd1na2vs0mg"},{"bike_id":"e4dc056c-09fa-401a-95c1-d7d5ee330f3e","system_id":"levelo_inurba_marseille","lat":43.23183,"lon":5.39993,"is_reserved":false,"is_disabled":false,"rental_uris":{"android":"levelo://app?vid=e4dc056c-09fa-401a-95c1-d7d5ee330f3e","ios":"levelo://app?vid=e4dc056c-09fa-401a-95c1-d7d5ee330f3e"},"vehicle_type_id":"4","last_reported":1746677690,"current_range_meters":22800,"station_id":"ce4bhn12rcd13ifvqgqg","pricing_plan_id":"cebpf4jnsgd1na2vs0mg"},{"bike_id":"13586205-fbc1-445e-9c22-4e6ff6d11497","system_id":"levelo_inurba_marseille","lat":43.308688,"lon":5.396554,"is_reserved":false,"is_disabled":false,"rental_uris":{"android":"levelo://app?vid=13586205-fbc1-445e-9c22-4e6ff6d11497","ios":"levelo://app?vid=13586205-fbc1-445e-9c22-4e6ff6d11497"},"vehicle_type_id":"4","last_reported":1746677690,"current_range_meters":23200,"station_id":"ce4bh012rcd13ifvqcv0","pricing_plan_id":"cebpf4jnsgd1na2vs0mg"},{"bike_id":"c1041c9f-2085-470a-b13c-f88fd8323115","system_id":"levelo_inurba_marseille","lat":43.277454,"lon":5.386726,"is_reserved":false,"is_disabled":false,"rental_uris":{"android":"levelo://app?vid=c1041c9f-2085-470a-b13c-f88fd8323115","ios":"levelo://app?vid=c1041c9f-2085-470a-b13c-f88fd8323115"},"vehicle_type_id":"4","last_reported":1746677690,"current_range_meters":23200,"station_id":"","pricing_plan_id":"cebpf4jnsgd1na2vs0mg"},{"bike_id":"d1107ecd-be4f-458d-a1cd-17553b1323a8","system_id":"levelo_inurba_marseille","lat":43.214878,"lon":5.348187,"is_reserved":false,"is_disabled":false,"rental_uris":{"android":"levelo://app?vid=d1107ecd-be4f-458d-a1cd-17553b1323a8","ios":"levelo://app?vid=d1107ecd-be4f-458d-a1cd-17553b1323a8"},"vehicle_type_id":"4","last_reported":1746677690,"current_range_meters":23200,"station_id":"","pricing_plan_id":"cebpf4jnsgd1na2vs0mg"},{"bike_id":"f597e4b6-c723-45d1-a62d-164b4d4c53ce","system_id":"levelo_inurba_marseille","lat":43.31375,"lon":5.385,"is_reserved":false,"is_disabled":false,"rental_uris":{"android":"levelo://app?vid=f597e4b6-c723-45d1-a62d-164b4d4c53ce","ios":"levelo://app?vid=f597e4b6-c723-45d1-a62d-164b4d4c53ce"},"vehicle_type_id":"4","last_reported":1746677690,"current_range_meters":23200,"station_id":"ce4bgt92rcd13ifvqcf0","pricing_plan_id":"cebpf4jnsgd1na2vs0mg"},{"bike_id":"a0f59bc0-650a-4106-a079-d368ed8a3edf","system_id":"levelo_inurba_marseille","lat":43.27407,"lon":5.39405,"is_reserved":false,"is_disabled":false,"rental_uris":{"android":"levelo://app?vid=a0f59bc0-650a-4106-a079-d368ed8a3edf","ios":"levelo://app?vid=a0f59bc0-650a-4106-a079-d368ed8a3edf"},"vehicle_type_id":"4","last_reported":1746677690,"current_range_meters":23200,"station_id":"ce4bhdp2rcd13ifvqf20","pricing_plan_id":"cebpf4jnsgd1na2vs0mg"},{"bike_id":"d555e0d6-19ba-408b-ad9f-2e129d0a634e","system_id":"levelo_inurba_marseille","lat":43.31041,"lon":5.3756,"is_reserved":false,"is_disabled":false,"rental_uris":{"android":"levelo://app?vid=d555e0d6-19ba-408b-ad9f-2e129d0a634e","ios":"levelo://app?vid=d555e0d6-19ba-408b-ad9f-2e129d0a634e"},"vehicle_type_id":"4","last_reported":1746677690,"current_range_meters":23200,"station_id":"","pricing_plan_id":"cebpf4jnsgd1na2vs0mg"},{"bike_id":"6536cb6e-d928-4440-9089-a7deb10c7d96","system_id":"levelo_inurba_marseille","lat":43.241641,"lon":5.363963,"is_reserved":false,"is_disabled":false,"rental_uris":{"android":"levelo://app?vid=6536cb6e-d928-4440-9089-a7deb10c7d96","ios":"levelo://app?vid=6536cb6e-d928-4440-9089-a7deb10c7d96"},"vehicle_type_id":"4","last_reported":1746677690,"current_range_meters":23200,"station_id":"cpo36qri1sfpv3e86is0","pricing_plan_id":"cebpf4jnsgd1na2vs0mg"},{"bike_id":"b4c5f569-86b0-45f5-b55a-c2587db1b919","system_id":"levelo_inurba_marseille","lat":43.23059,"lon":5.35494,"is_reserved":false,"is_disabled":false,"rental_uris":{"android":"levelo://app?vid=b4c5f569-86b0-45f5-b55a-c2587db1b919","ios":"levelo://app?vid=b4c5f569-86b0-45f5-b55a-c2587db1b919"},"vehicle_type_id":"4","last_reported":1746677690,"current_range_meters":24000,"station_id":"cpo3342slgdg3j2ifvpg","pricing_plan_id":"cebpf4jnsgd1na2vs0mg"},{"bike_id":"83a50b95-d68b-4f37-b42f-f4b6d18160f2","system_id":"levelo_inurba_marseille","lat":43.25913,"lon":5.4091,"is_reserved":false,"is_disabled":false,"rental_uris":{"android":"levelo://app?vid=83a50b95-d68b-4f37-b42f-f4b6d18160f2","ios":"levelo://app?vid=83a50b95-d68b-4f37-b42f-f4b6d18160f2"},"vehicle_type_id":"4","last_reported":1746677690,"current_range_meters":24000,"station_id":"ce4bhm92rcd13ifvqglg","pricing_plan_id":"cebpf4jnsgd1na2vs0mg"},{"bike_id":"db93ad70-9b3a-4b71-bab8-333dc8f71d95","system_id":"levelo_inurba_marseille","lat":43.28456,"lon":5.35906,"is_reserved":false,"is_disabled":false,"rental_uris":{"android":"levelo://app?vid=db93ad70-9b3a-4b71-bab8-333dc8f71d95","ios":"levelo://app?vid=db93ad70-9b3a-4b71-bab8-333dc8f71d95"},"vehicle_type_id":"4","last_reported":1746677690,"current_range_meters":24000,"station_id":"ce4bhah2rcd13ifvqei0","pricing_plan_id":"cebpf4jnsgd1na2vs0mg"},{"bike_id":"e86c0dd7-fbe2-4409-b768-089fc63f644d","system_id":"levelo_inurba_marseille","lat":43.29633,"lon":5.40596,"is_reserved":false,"is_disabled":false,"rental_uris":{"android":"levelo://app?vid=e86c0dd7-fbe2-4409-b768-089fc63f644d","ios":"levelo://app?vid=e86c0dd7-fbe2-4409-b768-089fc63f644d"},"vehicle_type_id":"4","last_reported":1746677690,"current_range_meters":24000,"station_id":"ce4bh0h2rcd13ifvqd60","pricing_plan_id":"cebpf4jnsgd1na2vs0mg"},{"bike_id":"590a2231-4831-42d6-b5fc-66fb6bb33da2","system_id":"levelo_inurba_marseille","lat":43.31247,"lon":5.40162,"is_reserved":false,"is_disabled":true,"rental_uris":{"android":"levelo://app?vid=590a2231-4831-42d6-b5fc-66fb6bb33da2","ios":"levelo://app?vid=590a2231-4831-42d6-b5fc-66fb6bb33da2"},"vehicle_type_id":"4","last_reported":1746677690,"current_range_meters":24000,"station_id":"ce4bh092rcd13ifvqd30","pricing_plan_id":"cebpf4jnsgd1na2vs0mg"},{"bike_id":"4aaed20e-3f19-4db4-979c-695a73337ead","system_id":"levelo_inurba_marseille","lat":43.250882,"lon":5.395069,"is_reserved":false,"is_disabled":false,"rental_uris":{"android":"levelo://app?vid=4aaed20e-3f19-4db4-979c-695a73337ead","ios":"levelo://app?vid=4aaed20e-3f19-4db4-979c-695a73337ead"},"vehicle_type_id":"4","last_reported":1746677690,"current_range_meters":24400,"station_id":"ce4bhm12rcd13ifvqgkg","pricing_plan_id":"cebpf4jnsgd1na2vs0mg"},{"bike_id":"e1eefe4b-c8d9-4584-bc99-1ff52d9d59bc","system_id":"levelo_inurba_marseille","lat":43.31532,"lon":5.38023,"is_reserved":false,"is_disabled":false,"rental_uris":{"android":"levelo://app?vid=e1eefe4b-c8d9-4584-bc99-1ff52d9d59bc","ios":"levelo://app?vid=e1eefe4b-c8d9-4584-bc99-1ff52d9d59bc"},"vehicle_type_id":"4","last_reported":1746677690,"current_range_meters":24400,"station_id":"ce4bhsp2rcd13ifvqi50","pricing_plan_id":"cebpf4jnsgd1na2vs0mg"},{"bike_id":"77edca4d-55bc-4f6d-9c31-13dc55f264c1","system_id":"levelo_inurba_marseille","lat":43.28446,"lon":5.35002,"is_reserved":false,"is_disabled":true,"rental_uris":{"android":"levelo://app?vid=77edca4d-55bc-4f6d-9c31-13dc55f264c1","ios":"levelo://app?vid=77edca4d-55bc-4f6d-9c31-13dc55f264c1"},"vehicle_type_id":"4","last_reported":1746677690,"current_range_meters":24400,"station_id":"ce4bhbh2rcd13ifvqepg","pricing_plan_id":"cebpf4jnsgd1na2vs0mg"},{"bike_id":"cba9399e-d991-4631-881f-8bf1d2e05a93","system_id":"levelo_inurba_marseille","lat":43.30257,"lon":5.40082,"is_reserved":false,"is_disabled":false,"rental_uris":{"android":"levelo://app?vid=cba9399e-d991-4631-881f-8bf1d2e05a93","ios":"levelo://app?vid=cba9399e-d991-4631-881f-8bf1d2e05a93"},"vehicle_type_id":"4","last_reported":1746677690,"current_range_meters":24400,"station_id":"ce4bgvh2rcd13ifvqcs0","pricing_plan_id":"cebpf4jnsgd1na2vs0mg"},{"bike_id":"7e788b61-4617-49cc-b6a4-f19d5b00a75c","system_id":"levelo_inurba_marseille","lat":43.26492,"lon":5.39543,"is_reserved":false,"is_disabled":false,"rental_uris":{"android":"levelo://app?vid=7e788b61-4617-49cc-b6a4-f19d5b00a75c","ios":"levelo://app?vid=7e788b61-4617-49cc-b6a4-f19d5b00a75c"},"vehicle_type_id":"4","last_reported":1746677690,"current_range_meters":24400,"station_id":"ce4bhi12rcd13ifvqfq0","pricing_plan_id":"cebpf4jnsgd1na2vs0mg"},{"bike_id":"b6ef3f00-dd79-48ff-9fc3-86c640ce7218","system_id":"levelo_inurba_marseille","lat":43.257056,"lon":5.411226,"is_reserved":false,"is_disabled":false,"rental_uris":{"android":"levelo://app?vid=b6ef3f00-dd79-48ff-9fc3-86c640ce7218","ios":"levelo://app?vid=b6ef3f00-dd79-48ff-9fc3-86c640ce7218"},"vehicle_type_id":"4","last_reported":1746677690,"current_range_meters":24400,"station_id":"ce4bhkp2rcd13ifvqgd0","pricing_plan_id":"cebpf4jnsgd1na2vs0mg"},{"bike_id":"05af4aa6-15a9-427f-b97e-db9d190d483a","system_id":"levelo_inurba_marseille","lat":43.31704,"lon":5.40461,"is_reserved":false,"is_disabled":false,"rental_uris":{"android":"levelo://app?vid=05af4aa6-15a9-427f-b97e-db9d190d483a","ios":"levelo://app?vid=05af4aa6-15a9-427f-b97e-db9d190d483a"},"vehicle_type_id":"4","last_reported":1746677690,"current_range_meters":24400,"station_id":"ce4bh012rcd13ifvqd00","pricing_plan_id":"cebpf4jnsgd1na2vs0mg"},{"bike_id":"e143f927-77fa-433f-8c67-63fa7888f990","system_id":"levelo_inurba_marseille","lat":43.27497,"lon":5.424568,"is_reserved":false,"is_disabled":false,"rental_uris":{"android":"levelo://app?vid=e143f927-77fa-433f-8c67-63fa7888f990","ios":"levelo://app?vid=e143f927-77fa-433f-8c67-63fa7888f990"},"vehicle_type_id":"4","last_reported":1746677690,"current_range_meters":24400,"station_id":"ce4bhn92rcd13ifvqgrg","pricing_plan_id":"cebpf4jnsgd1na2vs0mg"},{"bike_id":"2d8b0937-d5c9-496b-a867-537923bdfe85","system_id":"levelo_inurba_marseille","lat":43.25123,"lon":5.40334,"is_reserved":false,"is_disabled":false,"rental_uris":{"android":"levelo://app?vid=2d8b0937-d5c9-496b-a867-537923bdfe85","ios":"levelo://app?vid=2d8b0937-d5c9-496b-a867-537923bdfe85"},"vehicle_type_id":"4","last_reported":1746677690,"current_range_meters":24800,"station_id":"ce4bhlh2rcd13ifvqgig","pricing_plan_id":"cebpf4jnsgd1na2vs0mg"},{"bike_id":"936c8d22-0874-4acf-afca-5bf5afcf3472","system_id":"levelo_inurba_marseille","lat":43.31397,"lon":5.3822,"is_reserved":false,"is_disabled":false,"rental_uris":{"android":"levelo://app?vid=936c8d22-0874-4acf-afca-5bf5afcf3472","ios":"levelo://app?vid=936c8d22-0874-4acf-afca-5bf5afcf3472"},"vehicle_type_id":"4","last_reported":1746677690,"current_range_meters":24800,"station_id":"","pricing_plan_id":"cebpf4jnsgd1na2vs0mg"},{"bike_id":"8bd2766e-f806-43b2-a3d2-44445c285677","system_id":"levelo_inurba_marseille","lat":43.28694,"lon":5.37403,"is_reserved":false,"is_disabled":false,"rental_uris":{"android":"levelo://app?vid=8bd2766e-f806-43b2-a3d2-44445c285677","ios":"levelo://app?vid=8bd2766e-f806-43b2-a3d2-44445c285677"},"vehicle_type_id":"4","last_reported":1746677690,"current_range_meters":24800,"station_id":"ce4bh3p2rcd13ifvqdq0","pricing_plan_id":"cebpf4jnsgd1na2vs0mg"},{"bike_id":"b1d951ca-1666-4534-84e9-62b23f1d1b74","system_id":"levelo_inurba_marseille","lat":43.25583,"lon":5.38244,"is_reserved":false,"is_disabled":false,"rental_uris":{"android":"levelo://app?vid=b1d951ca-1666-4534-84e9-62b23f1d1b74","ios":"levelo://app?vid=b1d951ca-1666-4534-84e9-62b23f1d1b74"},"vehicle_type_id":"4","last_reported":1746677690,"current_range_meters":24800,"station_id":"ce4bhih2rcd13ifvqfs0","pricing_plan_id":"cebpf4jnsgd1na2vs0mg"},