{"last_updated":1724706434,"ttl":30,"version":"2.2","data":{"bikes":[{"bike_id":"7cc7b80e-68f1-430b-983c-c776aac9c8c6","system_id":"levelo_inurba_marseille","lat":43.31341,"lon":5.367098,"is_reserved":false,"is_disabled":false,"rental_uris":{"android":"levelo://app?vid=7cc7b80e-68f1-430b-983c-c776aac9c8c6","ios":"levelo://app?vid=7cc7b80e-68f1-430b-983c-c776aac9c8c6"},"vehicle_type_id":"4","last_reported":1724706434,"current_range_meters":28800,"station_id":"ce4bgr92rcd13ifvqc6g","pricing_plan_id":"cebpf4jnsgd1na2vs0mg"},{"bike_id":"0d494d37-2cf1-487c-9ac6-defcea8fb5ed","system_id":"levelo_inurba_marseille","lat":43.3123,"lon":5.3685,"is_reserved":false,"is_disabled":false,"rental_uris":{"android":"levelo://app?vid=0d494d37-2cf1-487c-9ac6-defcea8fb5ed","ios":"levelo://app?vid=0d494d37-2cf1-487c-9ac6-defcea8fb5ed"},"vehicle_type_id":"4","last_reported":1724706434,"current_range_meters":24000,"station_id":"ce4bgl92rcd13ifvqbq0","pricing_plan_id":"cebpf4jnsgd1na2vs0mg"},{"bike_id":"4fa22c30-74b8-4a41-8957-625b24ff6f6c","system_id":"levelo_inurba_marseille","lat":43.312239,"lon":5.368562,"is_reserved":false,"is_disabled":false,"rental_uris":{"android":"levelo://app?vid=4fa22c30-74b8-4a41-8957-625b24ff6f6c","ios":"levelo://app?vid=4fa22c30-74b8-4a41-8957-625b24ff6f6c"},"vehicle_type_id":"4","last_reported":1724706434,"current_range_meters":26800,"station_id":"ce4bgl92rcd13ifvqbq0","pricing_plan_id":"cebpf4jnsgd1na2vs0mg"},{"bike_id":"c01582a8-cf88-455f-a707-a56e91528689","system_id":"levelo_inurba_marseille","lat":43.312239,"lon":5.368562,"is_reserved":false,"is_disabled":false,"rental_uris":{"android":"levelo://app?vid=c01582a8-cf88-455f-a707-a56e91528689","ios":"levelo://app?vid=c01582a8-cf88-455f-a707-a56e91528689"},"vehicle_type_id":"4","last_reported":1724706434,"current_range_meters":12000,"station_id":"ce4bgl92rcd13ifvqbq0","pricing_plan_id":"cebpf4jnsgd1na2vs0mg"},{"bike_id":"f79af37c-221f-4381-b1e7-6ec9d7d8ec14","system_id":"levelo_inurba_marseille","lat":43.314811,"lon":5.373103,"is_reserved":false,"is_disabled":false,"rental_uris":{"android":"levelo://app?vid=f79af37c-221f-4381-b1e7-6ec9d7d8ec14","ios":"levelo://app?vid=f79af37c-221f-4381-b1e7-6ec9d7d8ec14"},"vehicle_type_id":"4","last_reported":1724706434,"current_range_meters":0,"station_id":"ce4bgt12rcd13ifvqcd0","pricing_plan_id":"cebpf4jnsgd1na2vs0mg"},{"bike_id":"fd1bf573-b3fd-4737-a201-f6bfda972257","system_id":"levelo_inurba_marseille","lat":43.314811,"lon":5.373103,"is_reserved":false,"is_disabled":false,"rental_uris":{"android":"levelo://app?vid=fd1bf573-b3fd-4737-a201-f6bfda972257","ios":"levelo://app?vid=fd1bf573-b3fd-4737-a201-f6bfda972257"},"vehicle_type_id":"4","last_reported":1724706434,"current_range_meters":9200,"station_id":"ce4bgt12rcd13ifvqcd0","pricing_plan_id":"cebpf4jnsgd1na2vs0mg"},{"bike_id":"9c2edc37-7ad9-4eaf-80fa-80fa02fa86c3","system_id":"levelo_inurba_marseille","lat":43.309039,"lon":5.371797,"is_reserved":false,"is_disabled":false,"rental_uris":{"android":"levelo://app?vid=9c2edc37-7ad9-4eaf-80fa-80fa02fa86c3","ios":"levelo://app?vid=9c2edc37-7ad9-4eaf-80fa-80fa02fa86c3"},"vehicle_type_id":"4","last_reported":1724706434,"current_range_meters":11200,"station_id":"ce4bguh2rcd13ifvqckg","pricing_plan_id":"cebpf4jnsgd1na2vs0mg"},{"bike_id":"49f641fc-c981-4600-8f81-6e13a4879b13","system_id":"levelo_inurba_marseille","lat":43.309039,"lon":5.371797,"is_reserved":false,"is_disabled":false,"rental_uris":{"android":"levelo://app?vid=49f641fc-c981-4600-8f81-6e13a4879b13","ios":"levelo://app?vid=49f641fc-c981-4600-8f81-6e13a4879b13"},"vehicle_type_id":"4","last_reported":1724706434,"current_range_meters":16400,"station_id":"ce4bguh2rcd13ifvqckg","pricing_plan_id":"cebpf4jnsgd1na2vs0mg"},{"bike_id":"a98c3525-5a1a-4e1f-a2a3-4dd3bea00407","system_id":"levelo_inurba_marseille","lat":43.309039,"lon":5.371797,"is_reserved":false,"is_disabled":false,"rental_uris":{"android":"levelo://app?vid=a98c3525-5a1a-4e1f-a2a3-4dd3bea00407","ios":"levelo://app?vid=a98c3525-5a1a-4e1f-a2a3-4dd3bea00407"},"vehicle_type_id":"4","last_reported":1724706434,"current_range_meters":17600,"station_id":"ce4bguh2rcd13ifvqckg","pricing_plan_id":"cebpf4jnsgd1na2vs0mg"},{"bike_id":"56894544-60c1-452a-a2a0-e1d15d7450d5","system_id":"levelo_inurba_marseille","lat":43.30891,"lon":5.37198,"is_reserved":false,"is_disabled":false,"rental_uris":{"android":"levelo://app?vid=56894544-60c1-452a-a2a0-e1d15d7450d5","ios":"levelo://app?vid=56894544-60c1-452a-a2a0-e1d15d7450d5"},"vehicle_type_id":"4","last_reported":1724706434,"current_range_meters":9600,"station_id":"ce4bguh2rcd13ifvqckg","pricing_plan_id":"cebpf4jnsgd1na2vs0mg"},{"bike_id":"af0580ec-b11b-4946-96af-deb31dbc1daf","system_id":"levelo_inurba_marseille","lat":43.309034,"lon":5.371783,"is_reserved":false,"is_disabled":false,"rental_uris":{"android":"levelo://app?vid=af0580ec-b11b-4946-96af-deb31dbc1daf","ios":"levelo://app?vid=af0580ec-b11b-4946-96af-deb31dbc1daf"},"vehicle_type_id":"4","last_reported":1724706434,"current_range_meters":10000,"station_id":"ce4bguh2rcd13ifvqckg","pricing_plan_id":"cebpf4jnsgd1na2vs0mg"},{"bike_id":"bb493553-6ee4-40be-8562-5503eca70d20","system_id":"levelo_inurba_marseille","lat":43.30905,"lon":5.37497,"is_reserved":false,"is_disabled":false,"rental_uris":{"android":"levelo://app?vid=bb493553-6ee4-40be-8562-5503eca70d20","ios":"levelo://app?vid=bb493553-6ee4-40be-8562-5503eca70d20"},"vehicle_type_id":"4","last_reported":1724706434,"current_range_meters":2800,"station_id":"","pricing_plan_id":"cebpf4jnsgd1na2vs0mg"},{"bike_id":"2d1f199f-b9ce-4a93-8b87-61fff7c1fd98","system_id":"levelo_inurba_marseille","lat":43.30596,"lon":5.37218,"is_reserved":false,"is_disabled":false,"rental_uris":{"android":"levelo://app?vid=2d1f199f-b9ce-4a93-8b87-61fff7c1fd98","ios":"levelo://app?vid=2d1f199f-b9ce-4a93-8b87-61fff7c1fd98"},"vehicle_type_id":"4","last_reported":1724706434,"current_range_meters":11600,"station_id":"ce4bgqh2rcd13ifvqc4g","pricing_plan_id":"cebpf4jnsgd1na2vs0mg"},{"bike_id":"cd90cd02-357d-4002-b660-c7ff0fc0c7c7","system_id":"levelo_inurba_marseille","lat":43.30592,"lon":5.37215,"is_reserved":false,"is_disabled":false,"rental_uris":{"android":"levelo://app?vid=cd90cd02-357d-4002-b660-c7ff0fc0c7c7","ios":"levelo://app?vid=cd90cd02-357d-4002-b660-c7ff0fc0c7c7"},"vehicle_type_id":"4","last_reported":1724706434,"current_range_meters":6800,"station_id":"ce4bgqh2rcd13ifvqc4g","pricing_plan_id":"cebpf4jnsgd1na2vs0mg"},{"bike_id":"0736043d-a7f7-49ff-bbaa-9c158b277fe4","system_id":"levelo_inurba_marseille","lat":43.311131,"lon":5.377651,"is_reserved":false,"is_disabled":false,"rental_uris":{"android":"levelo://app?vid=0736043d-a7f7-49ff-bbaa-9c158b277fe4","ios":"levelo://app?vid=0736043d-a7f7-49ff-bbaa-9c158b277fe4"},"vehicle_type_id":"4","last_reported":1724706434,"current_range_meters":16800,"station_id":"ce4bgt92rcd13ifvqcg0","pricing_plan_id":"cebpf4jnsgd1na2vs0mg"},{"bike_id":"5f98d60c-fba1-4752-a0ac-a5121cba2496","system_id":"levelo_inurba_marseille","lat":43.31126,"lon":5.3776,"is_reserved":false,"is_disabled":false,"rental_uris":{"android":"levelo://app?vid=5f98d60c-fba1-4752-a0ac-a5121cba2496","ios":"levelo://app?vid=5f98d60c-fba1-4752-a0ac-a5121cba2496"},"vehicle_type_id":"4","last_reported":1724706434,"current_range_meters":0,"station_id":"ce4bgt92rcd13ifvqcg0","pricing_plan_id":"cebpf4jnsgd1na2vs0mg"},{"bike_id":"2476cd53-fd2f-4e53-a38f-54b11f91141a","system_id":"levelo_inurba_marseille","lat":43.311187,"lon":5.377657,"is_reserved":false,"is_disabled":false,"rental_uris":{"android":"levelo://app?vid=2476cd53-fd2f-4e53-a38f-54b11f91141a","ios":"levelo://app?vid=2476cd53-fd2f-4e53-a38f-54b11f91141a"},"vehicle_type_id":"4","last_reported":1724706434,"current_range_meters":8800,"station_id":"ce4bgt92rcd13ifvqcg0","pricing_plan_id":"cebpf4jnsgd1na2vs0mg"},{"bike_id":"4075865b-e666-49b8-93e9-d98f72e0dd0f","system_id":"levelo_inurba_marseille","lat":43.31116,"lon":5.37767,"is_reserved":false,"is_disabled":false,"rental_uris":{"android":"levelo://app?vid=4075865b-e666-49b8-93e9-d98f72e0dd0f","ios":"levelo://app?vid=4075865b-e666-49b8-93e9-d98f72e0dd0f"},"vehicle_type_id":"4","last_reported":1724706434,"current_range_meters":0,"station_id":"ce4bgt92rcd13ifvqcg0","pricing_plan_id":"cebpf4jnsgd1na2vs0mg"},{"bike_id":"64252a83-3591-4643-ae9b-d43a32b31369","system_id":"levelo_inurba_marseille","lat":43.31112,"lon":5.37773,"is_reserved":false,"is_disabled":false,"rental_uris":{"android":"levelo://app?vid=64252a83-3591-4643-ae9b-d43a32b31369","ios":"levelo://app?vid=64252a83-3591-4643-ae9b-d43a32b31369"},"vehicle_type_id":"4","last_reported":1724706434,"current_range_meters":26400,"station_id":"","pricing_plan_id":"cebpf4jnsgd1na2vs0mg"},{"bike_id":"f3a34e05-144d-4829-824d-10ee952fde50","system_id":"levelo_inurba_marseille","lat":43.31111,"lon":5.37782,"is_reserved":false,"is_disabled":false,"rental_uris":{"android":"levelo://app?vid=f3a34e05-144d-4829-824d-10ee952fde50","ios":"levelo://app?vid=f3a34e05-144d-4829-824d-10ee952fde50"},"vehicle_type_id":"4","last_reported":1724706434,"current_range_meters":0,"station_id":"ce4bgt92rcd13ifvqcg0","pricing_plan_id":"cebpf4jnsgd1na2vs0mg"},{"bike_id":"4d193205-8237-4c5a-b3b6-e3bad65ce7d8","system_id":"levelo_inurba_marseille","lat":43.307945,"lon":5.376487,"is_reserved":false,"is_disabled":false,"rental_uris":{"android":"levelo://app?vid=4d193205-8237-4c5a-b3b6-e3bad65ce7d8","ios":"levelo://app?vid=4d193205-8237-4c5a-b3b6-e3bad65ce7d8"},"vehicle_type_id":"4","last_reported":1724706434,"current_range_meters":4800,"station_id":"ce4bgv92rcd13ifvqcq0","pricing_plan_id":"cebpf4jnsgd1na2vs0mg"},{"bike_id":"a317ce07-bd13-4a13-ae26-07e690c65a2c","system_id":"levelo_inurba_marseille","lat":43.31181,"lon":5.378845,"is_reserved":false,"is_disabled":false,"rental_uris":{"android":"levelo://app?vid=a317ce07-bd13-4a13-ae26-07e690c65a2c","ios":"levelo://app?vid=a317ce07-bd13-4a13-ae26-07e690c65a2c"},"vehicle_type_id":"4","last_reported":1724706434,"current_range_meters":0,"station_id":"","pricing_plan_id":"cebpf4jnsgd1na2vs0mg"},{"bike_id":"60c3ce07-6192-4c73-9978-79cf6a671293","system_id":"levelo_inurba_marseille","lat":43.31718,"lon":5.37752,"is_reserved":false,"is_disabled":false,"rental_uris":{"android":"levelo://app?vid=60c3ce07-6192-4c73-9978-79cf6a671293","ios":"levelo://app?vid=60c3ce07-6192-4c73-9978-79cf6a671293"},"vehicle_type_id":"4","last_reported":1724706434,"current_range_meters":0,"station_id":"ce4bgth2rcd13ifvqch0","pricing_plan_id":"cebpf4jnsgd1na2vs0mg"},{"bike_id":"76396786-201d-4f53-9bb5-aab4100bf121","system_id":"levelo_inurba_marseille","lat":43.279742,"lon":5.38744,"is_reserved":false,"is_disabled":false,"rental_uris":{"android":"levelo://app?vid=76396786-201d-4f53-9bb5-aab4100bf121","ios":"levelo://app?vid=76396786-201d-4f53-9bb5-aab4100bf121"},"vehicle_type_id":"4","last_reported":1724706434,"current_range_meters":18000,"station_id":"ce4bhg12rcd13ifvqf80","pricing_plan_id":"cebpf4jnsgd1na2vs0mg"},{"bike_id":"75e39e78-ec98-4f52-b727-ee153d824ca8","system_id":"levelo_inurba_marseille","lat":43.303046,"lon":5.368981,"is_reserved":false,"is_disabled":false,"rental_uris":{"android":"levelo://app?vid=75e39e78-ec98-4f52-b727-ee153d824ca8","ios":"levelo://app?vid=75e39e78-ec98-4f52-b727-ee153d824ca8"},"vehicle_type_id":"4","last_reported":1724706434,"current_range_meters":800,"station_id":"ce4bgqh2rcd13ifvqc5g","pricing_plan_id":"cebpf4jnsgd1na2vs0mg"},{"bike_id":"526b9db8-e42a-4b66-911b-ed780c5bf586","system_id":"levelo_inurba_marseille","lat":43.315289,"lon":5.380349,"is_reserved":false,"is_disabled":false,"rental_uris":{"android":"levelo://app?vid=526b9db8-e42a-4b66-911b-ed780c5bf586","ios":"levelo://app?vid=526b9db8-e42a-4b66-911b-ed780c5bf586"},"vehicle_type_id":"4","last_reported":1724706434,"current_range_meters":400,"station_id":"ce4bhsp2rcd13ifvqi50","pricing_plan_id":"cebpf4jnsgd1na2vs0mg"},{"bike_id":"227a464d-9590-482d-80a6-eb58ddd99873","system_id":"levelo_inurba_marseille","lat":43.315289,"lon":5.380349,"is_reserved":false,"is_disabled":false,"rental_uris":{"android":"levelo://app?vid=227a464d-9590-482d-80a6-eb58ddd99873","ios":"levelo://app?vid=227a464d-9590-482d-80a6-eb58ddd99873"},"vehicle_type_id":"4","last_reported":1724706434,"current_range_meters":30800,"station_id":"ce4bhsp2rcd13ifvqi50","pricing_plan_id":"cebpf4jnsgd1na2vs0mg"},{"bike_id":"1bea7064-d86c-40e8-a428-fcb358c6e3fd","system_id":"levelo_inurba_marseille","lat":43.310305,"lon":5.380645,"is_reserved":false,"is_disabled":false,"rental_uris":{"android":"levelo://app?vid=1bea7064-d86c-40e8-a428-fcb358c6e3fd","ios":"levelo://app?vid=1bea7064-d86c-40e8-a428-fcb358c6e3fd"},"vehicle_type_id":"4","last_reported":1724706434,"current_range_meters":19200,"station_id":"","pricing_plan_id":"cebpf4jnsgd1na2vs0mg"},{"bike_id":"1a8c8c1b-c4e3-496e-a48c-0f59bbf17191","system_id":"levelo_inurba_marseille","lat":43.30193,"lon":5.366267,"is_reserved":false,"is_disabled":false,"rental_uris":{"android":"levelo://app?vid=1a8c8c1b-c4e3-496e-a48c-0f59bbf17191","ios":"levelo://app?vid=1a8c8c1b-c4e3-496e-a48c-0f59bbf17191"},"vehicle_type_id":"4","last_reported":1724706434,"current_range_meters":3200,"station_id":"ce4bgrh2rcd13ifvqc8g","pricing_plan_id":"cebpf4jnsgd1na2vs0mg"},{"bike_id":"00981a4a-d604-4cf3-aadb-c332f303f719","system_id":"levelo_inurba_marseille","lat":43.30187,"lon":5.36612,"is_reserved":false,"is_disabled":false,"rental_uris":{"android":"levelo://app?vid=00981a4a-d604-4cf3-aadb-c332f303f719","ios":"levelo://app?vid=00981a4a-d604-4cf3-aadb-c332f303f719"},"vehicle_type_id":"4","last_reported":1724706434,"current_range_meters":25200,"station_id":"ce4bgrh2rcd13ifvqc8g","pricing_plan_id":"cebpf4jnsgd1na2vs0mg"},{"bike_id":"b80d6b80-3058-4958-ba31-dd38303b59d5","system_id":"levelo_inurba_marseille","lat":43.308012,"lon":5.381511,"is_reserved":false,"is_disabled":false,"rental_uris":{"android":"levelo://app?vid=b80d6b80-3058-4958-ba31-dd38303b59d5","ios":"levelo://app?vid=b80d6b80-3058-4958-ba31-dd38303b59d5"},"vehicle_type_id":"4","last_reported":1724706434,"current_range_meters":0,"station_id":"ce4bgt12rcd13ifvqce0","pricing_plan_id":"cebpf4jnsgd1na2vs0mg"},{"bike_id":"a6088b81-fce1-4075-966e-b48f55a2993d","system_id":"levelo_inurba_marseille","lat":43.308012,"lon":5.381511,"is_reserved":false,"is_disabled":false,"rental_uris":{"android":"levelo://app?vid=a6088b81-fce1-4075-966e-b48f55a2993d","ios":"levelo://app?vid=a6088b81-fce1-4075-966e-b48f55a2993d"},"vehicle_type_id":"4","last_reported":1724706434,"current_range_meters":18800,"station_id":"ce4bgt12rcd13ifvqce0","pricing_plan_id":"cebpf4jnsgd1na2vs0mg"},{"bike_id":"136fce35-ffc1-475d-8c43-574758908315","system_id":"levelo_inurba_marseille","lat":43.304606,"lon":5.379026,"is_reserved":false,"is_disabled":false,"rental_uris":{"android":"levelo://app?vid=136fce35-ffc1-475d-8c43-574758908315","ios":"levelo://app?vid=136fce35-ffc1-475d-8c43-574758908315"},"vehicle_type_id":"4","last_reported":1724706434,"current_range_meters":13200,"station_id":"ce4bgup2rcd13ifvqcn0","pricing_plan_id":"cebpf4jnsgd1na2vs0mg"},{"bike_id":"c00412ae-9197-420b-a209-1df3a24ece46","system_id":"levelo_inurba_marseille","lat":43.3046,"lon":5.37914,"is_reserved":false,"is_disabled":false,"rental_uris":{"android":"levelo://app?vid=c00412ae-9197-420b-a209-1df3a24ece46","ios":"levelo://app?vid=c00412ae-9197-420b-a209-1df3a24ece46"},"vehicle_type_id":"4","last_reported":1724706434,"current_range_meters":0,"station_id":"ce4bgup2rcd13ifvqcn0","pricing_plan_id":"cebpf4jnsgd1na2vs0mg"},{"bike_id":"00aaa01b-3e40-4e8a-b9a9-b5e9709c183b","system_id":"levelo_inurba_marseille","lat":43.32476,"lon":5.36568,"is_reserved":false,"is_disabled":false,"rental_uris":{"android":"levelo://app?vid=00aaa01b-3e40-4e8a-b9a9-b5e9709c183b","ios":"levelo://app?vid=00aaa01b-3e40-4e8a-b9a9-b5e9709c183b"},"vehicle_type_id":"4","last_reported":1724706434,"current_range_meters":0,"station_id":"ce4bhs12rcd13ifvqhvg","pricing_plan_id":"cebpf4jnsgd1na2vs0mg"},{"bike_id":"7cda7f10-7fae-4c87-95c7-87a923ff1fde","system_id":"levelo_inurba_marseille","lat":43.324771,"lon":5.36557,"is_reserved":false,"is_disabled":false,"rental_uris":{"android":"levelo://app?vid=7cda7f10-7fae-4c87-95c7-87a923ff1fde","ios":"levelo://app?vid=7cda7f10-7fae-4c87-95c7-87a923ff1fde"},"vehicle_type_id":"4","last_reported":1724706434,"current_range_meters":0,"station_id":"ce4bhs12rcd13ifvqhvg","pricing_plan_id":"cebpf4jnsgd1na2vs0mg"},{"bike_id":"b130c06d-de33-4550-a94f-38e9f8b8455b","system_id":"levelo_inurba_marseille","lat":43.324771,"lon":5.36557,"is_reserved":false,"is_disabled":false,"rental_uris":{"android":"levelo://app?vid=b130c06d-de33-4550-a94f-38e9f8b8455b","ios":"levelo://app?vid=b130c06d-de33-4550-a94f-38e9f8b8455b"},"vehicle_type_id":"4","last_reported":1724706434,"current_range_meters":10400,"station_id":"ce4bhs12rcd13ifvqhvg","pricing_plan_id":"cebpf4jnsgd1na2vs0mg"},{"bike_id":"75864807-15c6-4147-a770-af630139e6b1","system_id":"levelo_inurba_marseille","lat":43.324771,"lon":5.36557,"is_reserved":false,"is_disabled":false,"rental_uris":{"android":"levelo://app?vid=75864807-15c6-4147-a770-af630139e6b1","ios":"levelo://app?vid=75864807-15c6-4147-a770-af630139e6b1"},"vehicle_type_id":"4","last_reported":1724706434,"current_range_meters":19200,"station_id":"ce4bhs12rcd13ifvqhvg","pricing_plan_id":"cebpf4jnsgd1na2vs0mg"},{"bike_id":"c4053aa4-7826-4a63-a9d0-3d9ed32d748c","system_id":"levelo_inurba_marseille","lat":43.324771,"lon":5.36557,"is_reserved":false,"is_disabled":false,"rental_uris":{"android":"levelo://app?vid=c4053aa4-7826-4a63-a9d0-3d9ed32d748c","ios":"levelo://app?vid=c4053aa4-7826-4a63-a9d0-3d9ed32d748c"},"vehicle_type_id":"4","last_reported":1724706434,"current_range_meters":2400,"station_id":"ce4bhs12rcd13ifvqhvg","pricing_plan_id":"cebpf4jnsgd1na2vs0mg"},{"bike_id":"cc1657b1-d0e7-4e5d-a2c0-c296a4eec89d","system_id":"levelo_inurba_marseille","lat":43.324771,"lon":5.36557,"is_reserved":false,"is_disabled":false,"rental_uris":{"android":"levelo://app?vid=cc1657b1-d0e7-4e5d-a2c0-c296a4eec89d","ios":"levelo://app?vid=cc1657b1-d0e7-4e5d-a2c0-c296a4eec89d"},"vehicle_type_id":"4","last_reported":1724706434,"current_range_meters":26800,"station_id":"ce4bhs12rcd13ifvqhvg","pricing_plan_id":"cebpf4jnsgd1na2vs0mg"},{"bike_id":"00354d3c-bc66-4868-aa4e-4113ef909a5f","system_id":"levelo_inurba_marseille","lat":43.310804,"lon":5.38359,"is_reserved":false,"is_disabled":false,"rental_uris":{"android":"levelo://app?vid=00354d3c-bc66-4868-aa4e-4113ef909a5f","ios":"levelo://app?vid=00354d3c-bc66-4868-aa4e-4113ef909a5f"},"vehicle_type_id":"4","last_reported":1724706434,"current_range_meters":18800,"station_id":"ce4bgv92rcd13ifvqcr0","pricing_plan_id":"cebpf4jnsgd1na2vs0mg"},{"bike_id":"d560e5cb-7456-4ed0-af4f-babbaca93fe8","system_id":"levelo_inurba_marseille","lat":43.3106,"lon":5.38357,"is_reserved":false,"is_disabled":false,"rental_uris":{"android":"levelo://app?vid=d560e5cb-7456-4ed0-af4f-babbaca93fe8","ios":"levelo://app?vid=d560e5cb-7456-4ed0-af4f-babbaca93fe8"},"vehicle_type_id":"4","last_reported":1724706434,"current_range_meters":22800,"station_id":"ce4bgv92rcd13ifvqcr0","pricing_plan_id":"cebpf4jnsgd1na2vs0mg"},{"bike_id":"e1996417-ec59-44f4-b4b6-9f39ce83d9c4","system_id":"levelo_inurba_marseille","lat":43.31074,"lon":5.38361,"is_reserved":false,"is_disabled":false,"rental_uris":{"android":"levelo://app?vid=e1996417-ec59-44f4-b4b6-9f39ce83d9c4","ios":"levelo://app?vid=e1996417-ec59-44f4-b4b6-9f39ce83d9c4"},"vehicle_type_id":"4","last_reported":1724706434,"current_range_meters":31200,"station_id":"","pricing_plan_id":"cebpf4jnsgd1na2vs0mg"},{"bike_id":"43d34380-340a-4ab8-b947-7cedfe50acbd","system_id":"levelo_inurba_marseille","lat":43.302784,"lon":5.377158,"is_reserved":false,"is_disabled":false,"rental_uris":{"android":"levelo://app?vid=43d34380-340a-4ab8-b947-7cedfe50acbd","ios":"levelo://app?vid=43d34380-340a-4ab8-b947-7cedfe50acbd"},"vehicle_type_id":"4","last_reported":1724706434,"current_range_meters":24000,"station_id":"ce4bguh2rcd13ifvqcj0","pricing_plan_id":"cebpf4jnsgd1na2vs0mg"},{"bike_id":"dc0a501e-a030-42fd-884d-2b5d55db633f","system_id":"levelo_inurba_marseille","lat":43.30143,"lon":5.37413,"is_reserved":false,"is_disabled":false,"rental_uris":{"android":"levelo://app?vid=dc0a501e-a030-42fd-884d-2b5d55db633f","ios":"levelo://app?vid=dc0a501e-a030-42fd-884d-2b5d55db633f"},"vehicle_type_id":"4","last_reported":1724706434,"current_range_meters":9600,"station_id":"ce4bgs92rcd13ifvqcc0","pricing_plan_id":"cebpf4jnsgd1na2vs0mg"},{"bike_id":"04913269-e135-4260-a7b1-9d43eccca2c2","system_id":"levelo_inurba_marseille","lat":43.30141,"lon":5.37417,"is_reserved":false,"is_disabled":false,"rental_uris":{"android":"levelo://app?vid=04913269-e135-4260-a7b1-9d43eccca2c2","ios":"levelo://app?vid=04913269-e135-4260-a7b1-9d43eccca2c2"},"vehicle_type_id":"4","last_reported":1724706434,"current_range_meters":0,"station_id":"ce4bgs92rcd13ifvqcc0","pricing_plan_id":"cebpf4jnsgd1na2vs0mg"},{"bike_id":"43fc73e0-3914-4d94-979c-df85555d5912","system_id":"levelo_inurba_marseille","lat":43.30136,"lon":5.37433,"is_reserved":false,"is_disabled":false,"rental_uris":{"android":"levelo://app?vid=43fc73e0-3914-4d94-979c-df85555d5912","ios":"levelo://app?vid=43fc73e0-3914-4d94-979c-df85555d5912"},"vehicle_type_id":"4","last_reported":1724706434,"current_range_meters":23600,"station_id":"ce4bgs92rcd13ifvqcc0","pricing_plan_id":"cebpf4jnsgd1na2vs0mg"},{"bike_id":"ff2e2f17-e53a-4360-9800-37c28492171b","system_id":"levelo_inurba_marseille","lat":43.319645,"lon":5.381507,"is_reserved":false,"is_disabled":false,"rental_uris":{"android":"levelo://app?vid=ff2e2f17-e53a-4360-9800-37c28492171b","ios":"levelo://app?vid=ff2e2f17-e53a-4360-9800-37c28492171b"},"vehicle_type_id":"4","last_reported":1724706434,"current_range_meters":5600,"station_id":"ce4bhr12rcd13ifvqhpg","pricing_plan_id":"cebpf4jnsgd1na2vs0mg"},{"bike_id":"117cda6a-1261-45f1-aa8c-f5aabee24375","system_id":"levelo_inurba_marseille","lat":43.32531,"lon":5.36403,"is_reserved":false,"is_disabled":false,"rental_uris":{"android":"levelo://app?vid=117cda6a-1261-45f1-aa8c-f5aabee24375","ios":"levelo://app?vid=117cda6a-1261-45f1-aa8c-f5aabee24375"},"vehicle_type_id":"4","last_reported":1724706434,"current_range_meters":9600,"station_id":"","pricing_plan_id":"cebpf4jnsgd1na2vs0mg"},{"bike_id":"d4cc526e-d9ff-4fc4-8a3d-10ce3af0b84c","system_id":"levelo_inurba_marseille","lat":43.3199,"lon":5.38166,"is_reserved":false,"is_disabled":false,"rental_uris":{"android":"levelo://app?vid=d4cc526e-d9ff-4fc4-8a3d-10ce3af0b84c","ios":"levelo://app?vid=d4cc526e-d9ff-4fc4-8a3d-10ce3af0b84c"},"vehicle_type_id":"4","last_reported":1724706434,"current_range_meters":16400,"station_id":"ce4bhr12rcd13ifvqhpg","pricing_plan_id":"cebpf4jnsgd1na2vs0mg"},{"bike_id":"961b946a-91c2-4c90-b00e-412d018f9ab4","system_id":"levelo_inurba_marseille","lat":43.319935,"lon":5.381699,"is_reserved":false,"is_disabled":false,"rental_uris":{"android":"levelo://app?vid=961b946a-91c2-4c90-b00e-412d018f9ab4","ios":"levelo://app?vid=961b946a-91c2-4c90-b00e-412d018f9ab4"},"vehicle_type_id":"4","last_reported":1724706434,"current_range_meters":17600,"station_id":"ce4bhr12rcd13ifvqhpg","pricing_plan_id":"cebpf4jnsgd1na2vs0mg"},{"bike_id":"f7b5e582-a404-46c1-a9f8-80642bc31c72","system_id":"levelo_inurba_marseille","lat":43.313571,"lon":5.384829,"is_reserved":false,"is_disabled":false,"rental_uris":{"android":"levelo://app?vid=f7b5e582-a404-46c1-a9f8-80642bc31c72","ios":"levelo://app?vid=f7b5e582-a404-46c1-a9f8-80642bc31c72"},"vehicle_type_id":"4","last_reported":1724706434,"current_range_meters":29600,"station_id":"ce4bgt92rcd13ifvqcf0","pricing_plan_id":"cebpf4jnsgd1na2vs0mg"},{"bike_id":"e3816a2b-dafc-40cd-810b-f4a8e33f7ab4","system_id":"levelo_inurba_marseille","lat":43.313571,"lon":5.384829,"is_reserved":false,"is_disabled":false,"rental_uris":{"android":"levelo://app?vid=e3816a2b-dafc-40cd-810b-f4a8e33f7ab4","ios":"levelo://app?vid=e3816a2b-dafc-40cd-810b-f4a8e33f7ab4"},"vehicle_type_id":"4","last_reported":1724706434,"current_range_meters":31200,"station_id":"ce4bgt92rcd13ifvqcf0","pricing_plan_id":"cebpf4jnsgd1na2vs0mg"},{"bike_id":"36115a07-c239-40ae-b9a4-d96e5c9e1b50","system_id":"levelo_inurba_marseille","lat":43.299222,"lon":5.365554,"is_reserved":false,"is_disabled":false,"rental_uris":{"android":"levelo://app?vid=36115a07-c239-40ae-b9a4-d96e5c9e1b50","ios":"levelo://app?vid=36115a07-c239-40ae-b9a4-d96e5c9e1b50"},"vehicle_type_id":"4","last_reported":1724706434,"current_range_meters":800,"station_id":"ce4bgm92rcd13ifvqbr0","pricing_plan_id":"cebpf4jnsgd1na2vs0mg"},{"bike_id":"eae1876d-231a-4528-8e1f-39a43f4e3a5c","system_id":"levelo_inurba_marseille","lat":43.299222,"lon":5.365554,"is_reserved":false,"is_disabled":false,"rental_uris":{"android":"levelo://app?vid=eae1876d-231a-4528-8e1f-39a43f4e3a5c","ios":"levelo://app?vid=eae1876d-231a-4528-8e1f-39a43f4e3a5c"},"vehicle_type_id":"4","last_reported":1724706434,"current_range_meters":13200,"station_id":"ce4bgm92rcd13ifvqbr0","pricing_plan_id":"cebpf4jnsgd1na2vs0mg"},{"bike_id":"e7567acc-1065-41c0-b988-1119e0b446aa","system_id":"levelo_inurba_marseille","lat":43.299222,"lon":5.365554,"is_reserved":false,"is_disabled":false,"rental_uris":{"android":"levelo://app?vid=e7567acc-1065-41c0-b988-1119e0b446aa","ios":"levelo://app?vid=e7567acc-1065-41c0-b988-1119e0b446aa"},"vehicle_type_id":"4","last_reported":1724706434,"current_range_meters":27200,"station_id":"ce4bgm92rcd13ifvqbr0","pricing_plan_id":"cebpf4jnsgd1na2vs0mg"},{"bike_id":"2b21dad2-c0c9-45c9-a3c7-d560dfbbce32","system_id":"levelo_inurba_marseille","lat":43.297774,"lon":5.370875,"is_reserved":false,"is_disabled":false,"rental_uris":{"android":"levelo://app?vid=2b21dad2-c0c9-45c9-a3c7-d560dfbbce32","ios":"levelo://app?vid=2b21dad2-c0c9-45c9-a3c7-d560dfbbce32"},"vehicle_type_id":"4","last_reported":1724706434,"current_range_meters":12000,"station_id":"ce4bgop2rcd13ifvqc1g","pricing_plan_id":"cebpf4jnsgd1na2vs0mg"},{"bike_id":"f7968b64-d0fe-49d5-931f-08d8523df590","system_id":"levelo_inurba_marseille","lat":43.322872,"lon":5.382756,"is_reserved":false,"is_disabled":false,"rental_uris":{"android":"levelo://app?vid=f7968b64-d0fe-49d5-931f-08d8523df590","ios":"levelo://app?vid=f7968b64-d0fe-49d5-931f-08d8523df590"},"vehicle_type_id":"4","last_reported":1724706434,"current_range_meters":0,"station_id":"ce4bhr12rcd13ifvqhqg","pricing_plan_id":"cebpf4jnsgd1na2vs0mg"},{"bike_id":"45b14dd4-d206-4ac2-b715-e6281b8209e7","system_id":"levelo_inurba_marseille","lat":43.305364,"lon":5.384119,"is_reserved":false,"is_disabled":false,"rental_uris":{"android":"levelo://app?vid=45b14dd4-d206-4ac2-b715-e6281b8209e7","ios":"levelo://app?vid=45b14dd4-d206-4ac2-b715-e6281b8209e7"},"vehicle_type_id":"4","last_reported":1724706434,"current_range_meters":28000,"station_id":"ce4bgg92rcd13ifvqb30","pricing_plan_id":"cebpf4jnsgd1na2vs0mg"},{"bike_id":"a6ca07ff-8689-4704-b5fc-1330e0cae207","system_id":"levelo_inurba_marseille","lat":43.298433,"lon":5.362774,"is_reserved":false,"is_disabled":false,"rental_uris":{"android":"levelo://app?vid=a6ca07ff-8689-4704-b5fc-1330e0cae207","ios":"levelo://app?vid=a6ca07ff-8689-4704-b5fc-1330e0cae207"},"vehicle_type_id":"4","last_reported":1724706434,"current_range_meters":4800,"station_id":"ce4bgpp2rcd13ifvqc3g","pricing_plan_id":"cebpf4jnsgd1na2vs0mg"},{"bike_id":"33c43be2-1b55-4c03-8d88-17db7cd21f2f","system_id":"levelo_inurba_marseille","lat":43.298433,"lon":5.362774,"is_reserved":false,"is_disabled":false,"rental_uris":{"android":"levelo://app?vid=33c43be2-1b55-4c03-8d88-17db7cd21f2f","ios":"levelo://app?vid=33c43be2-1b55-4c03-8d88-17db7cd21f2f"},"vehicle_type_id":"4","last_reported":1724706434,"current_range_meters":26800,"station_id":"ce4bgpp2rcd13ifvqc3g","pricing_plan_id":"cebpf4jnsgd1na2vs0mg"},{"bike_id":"9439758b-0aa1-4e75-90b4-16ab2ef31057","system_id":"levelo_inurba_marseille","lat":43.298433,"lon":5.362774,"is_reserved":false,"is_disabled":false,"rental_uris":{"android":"levelo://app?vid=9439758b-0aa1-4e75-90b4-16ab2ef31057","ios":"levelo://app?vid=9439758b-0aa1-4e75-90b4-16ab2ef31057"},"vehicle_type_id":"4","last_reported":1724706434,"current_range_meters":5200,"station_id":"ce4bgpp2rcd13ifvqc3g","pricing_plan_id":"cebpf4jnsgd1na2vs0mg"},{"bike_id":"e043a53e-7991-413c-95e5-79d6907eb699","system_id":"levelo_inurba_marseille","lat":43.298433,"lon":5.362774,"is_reserved":false,"is_disabled":false,"rental_uris":{"android":"levelo://app?vid=e043a53e-7991-413c-95e5-79d6907eb699","ios":"levelo://app?vid=e043a53e-7991-413c-95e5-79d6907eb699"},"vehicle_type_id":"4","last_reported":1724706434,"current_range_meters":25600,"station_id":"ce4bgpp2rcd13ifvqc3g","pricing_plan_id":"cebpf4jnsgd1na2vs0mg"},{"bike_id":"32d7c46f-7ff4-4d8e-ae81-ffdcb4ebc5e0","system_id":"levelo_inurba_marseille","lat":43.305364,"lon":5.384119,"is_reserved":false,"is_disabled":false,"rental_uris":{"android":"levelo://app?vid=32d7c46f-7ff4-4d8e-ae81-ffdcb4ebc5e0","ios":"levelo://app?vid=32d7c46f-7ff4-4d8e-ae81-ffdcb4ebc5e0"},"vehicle_type_id":"4","last_reported":1724706434,"current_range_meters":17200,"station_id":"ce4bgg92rcd13ifvqb30","pricing_plan_id":"cebpf4jnsgd1na2vs0mg"},{"bike_id":"55d50eeb-64c8-4d79-93ee-c463f2705f29","system_id":"levelo_inurba_marseille","lat":43.298433,"lon":5.362774,"is_reserved":false,"is_disabled":false,"rental_uris":{"android":"levelo://app?vid=55d50eeb-64c8-4d79-93ee-c463f2705f29","ios":"levelo://app?vid=55d50eeb-64c8-4d79-93ee-c463f2705f29"},"vehicle_type_id":"4","last_reported":1724706434,"current_range_meters":21200,"station_id":"ce4bgpp2rcd13ifvqc3g","pricing_plan_id":"cebpf4jnsgd1na2vs0mg"},{"bike_id":"74624132-3c17-41f9-b7e9-3a0b62d17412","system_id":"levelo_inurba_marseille","lat":43.29915,"lon":5.3747,"is_reserved":false,"is_disabled":false,"rental_uris":{"android":"levelo://app?vid=74624132-3c17-41f9-b7e9-3a0b62d17412","ios":"levelo://app?vid=74624132-3c17-41f9-b7e9-3a0b62d17412"},"vehicle_type_id":"4","last_reported":1724706434,"current_range_meters":29200,"station_id":"ce4bgjh2rcd13ifvqbg0","pricing_plan_id":"cebpf4jnsgd1na2vs0mg"},{"bike_id":"75baedac-94f3-478a-8c37-c1c3ef041e0a","system_id":"levelo_inurba_marseille","lat":43.311722,"lon":5.387247,"is_reserved":false,"is_disabled":false,"rental_uris":{"android":"levelo://app?vid=75baedac-94f3-478a-8c37-c1c3ef041e0a","ios":"levelo://app?vid=75baedac-94f3-478a-8c37-c1c3ef041e0a"},"vehicle_type_id":"4","last_reported":1724706434,"current_range_meters":31200,"station_id":"ce4bgv12rcd13ifvqcp0","pricing_plan_id":"cebpf4jnsgd1na2vs0mg"},{"bike_id":"5c255f1f-b94b-4a1e-bc46-84321dcfdce2","system_id":"levelo_inurba_marseille","lat":43.311722,"lon":5.387247,"is_reserved":false,"is_disabled":false,"rental_uris":{"android":"levelo://app?vid=5c255f1f-b94b-4a1e-bc46-84321dcfdce2","ios":"levelo://app?vid=5c255f1f-b94b-4a1e-bc46-84321dcfdce2"},"vehicle_type_id":"4","last_reported":1724706434,"current_range_meters":8800,"station_id":"ce4bgv12rcd13ifvqcp0","pricing_plan_id":"cebpf4jnsgd1na2vs0mg"},{"bike_id":"05f1ef79-8435-4738-8c08-cae48efecb8b","system_id":"levelo_inurba_marseille","lat":43.299243,"lon":5.374807,"is_reserved":false,"is_disabled":false,"rental_uris":{"android":"levelo://app?vid=05f1ef79-8435-4738-8c08-cae48efecb8b","ios":"levelo://app?vid=05f1ef79-8435-4738-8c08-cae48efecb8b"},"vehicle_type_id":"4","last_reported":1724706434,"current_range_meters":21600,"station_id":"ce4bgjh2rcd13ifvqbg0","pricing_plan_id":"cebpf4jnsgd1na2vs0mg"},{"bike_id":"5f96aafc-fff4-48eb-a185-6490e0eb27d7","system_id":"levelo_inurba_marseille","lat":43.311722,"lon":5.387247,"is_reserved":false,"is_disabled":false,"rental_uris":{"android":"levelo://app?vid=5f96aafc-fff4-48eb-a185-6490e0eb27d7","ios":"levelo://app?vid=5f96aafc-fff4-48eb-a185-6490e0eb27d7"},"vehicle_type_id":"4","last_reported":1724706434,"current_range_meters":14800,"station_id":"ce4bgv12rcd13ifvqcp0","pricing_plan_id":"cebpf4jnsgd1na2vs0mg"},{"bike_id":"cc1c7d41-b4c6-44da-8e4d-75b9bdfbf200","system_id":"levelo_inurba_marseille","lat":43.311722,"lon":5.387247,"is_reserved":false,"is_disabled":false,"rental_uris":{"android":"levelo://app?vid=cc1c7d41-b4c6-44da-8e4d-75b9bdfbf200","ios":"levelo://app?vid=cc1c7d41-b4c6-44da-8e4d-75b9bdfbf200"},"vehicle_type_id":"4","last_reported":1724706434,"current_range_meters":7200,"station_id":"ce4bgv12rcd13ifvqcp0","pricing_plan_id":"cebpf4jnsgd1na2vs0mg"},{"bike_id":"d662c4a1-2ac7-42ba-882f-320ce3545873","system_id":"levelo_inurba_marseille","lat":43.31168,"lon":5.38726,"is_reserved":false,"is_disabled":false,"rental_uris":{"android":"levelo://app?vid=d662c4a1-2ac7-42ba-882f-320ce3545873","ios":"levelo://app?vid=d662c4a1-2ac7-42ba-882f-320ce3545873"},"vehicle_type_id":"4","last_reported":1724706434,"current_range_meters":8400,"station_id":"ce4bgv12rcd13ifvqcp0","pricing_plan_id":"cebpf4jnsgd1na2vs0mg"},{"bike_id":"f1100baa-997f-49b8-a69f-316cff4dac2e","system_id":"levelo_inurba_marseille","lat":43.311722,"lon":5.387247,"is_reserved":false,"is_disabled":false,"rental_uris":{"android":"levelo://app?vid=f1100baa-997f-49b8-a69f-316cff4dac2e","ios":"levelo://app?vid=f1100baa-997f-49b8-a69f-316cff4dac2e"},"vehicle_type_id":"4","last_reported":1724706434,"current_range_meters":31600,"station_id":"ce4bgv12rcd13ifvqcp0","pricing_plan_id":"cebpf4jnsgd1na2vs0mg"},{"bike_id":"6620c18c-e539-494a-b633-92cac3f2bd47","system_id":"levelo_inurba_marseille","lat":43.32292,"lon":5.38249,"is_reserved":false,"is_disabled":false,"rental_uris":{"android":"levelo://app?vid=6620c18c-e539-494a-b633-92cac3f2bd47","ios":"levelo://app?vid=6620c18c-e539-494a-b633-92cac3f2bd47"},"vehicle_type_id":"4","last_reported":1724706434,"current_range_meters":19200,"station_id":"ce4bhr12rcd13ifvqhqg","pricing_plan_id":"cebpf4jnsgd1na2vs0mg"},{"bike_id":"90d37695-c612-4384-92d0-977df80ac5dd","system_id":"levelo_inurba_marseille","lat":43.32288,"lon":5.38267,"is_reserved":false,"is_disabled":false,"rental_uris":{"android":"levelo://app?vid=90d37695-c612-4384-92d0-977df80ac5dd","ios":"levelo://app?vid=90d37695-c612-4384-92d0-977df80ac5dd"},"vehicle_type_id":"4","last_reported":1724706434,"current_range_meters":12400,"station_id":"ce4bhr12rcd13ifvqhqg","pricing_plan_id":"cebpf4jnsgd1na2vs0mg"},{"bike_id":"314640de-ec62-4ae2-b3e0-46495e456313","system_id":"levelo_inurba_marseille","lat":43.322872,"lon":5.382756,"is_reserved":false,"is_disabled":false,"rental_uris":{"android":"levelo://app?vid=314640de-ec62-4ae2-b3e0-46495e456313","ios":"levelo://app?vid=314640de-ec62-4ae2-b3e0-46495e456313"},"vehicle_type_id":"4","last_reported":1724706434,"current_range_meters":21600,"station_id":"ce4bhr12rcd13ifvqhqg","pricing_plan_id":"cebpf4jnsgd1na2vs0mg"},{"bike_id":"5fadc05a-927e-4576-839e-0c9259f9564c","system_id":"levelo_inurba_marseille","lat":43.297163,"lon":5.365866,"is_reserved":false,"is_disabled":false,"rental_uris":{"android":"levelo://app?vid=5fadc05a-927e-4576-839e-0c9259f9564c","ios":"levelo://app?vid=5fadc05a-927e-4576-839e-0c9259f9564c"},"vehicle_type_id":"4","last_reported":1724706434,"current_range_meters":0,"station_id":"ce4bgn12rcd13ifvqbt0","pricing_plan_id":"cebpf4jnsgd1na2vs0mg"},{"bike_id":"29b9b9c1-8890-4417-acc7-33e69a232a18","system_id":"levelo_inurba_marseille","lat":43.297163,"lon":5.365866,"is_reserved":false,"is_disabled":false,"rental_uris":{"android":"levelo://app?vid=29b9b9c1-8890-4417-acc7-33e69a232a18","ios":"levelo://app?vid=29b9b9c1-8890-4417-acc7-33e69a232a18"},"vehicle_type_id":"4","last_reported":1724706434,"current_range_meters":9200,"station_id":"ce4bgn12rcd13ifvqbt0","pricing_plan_id":"cebpf4jnsgd1na2vs0mg"},{"bike_id":"5afbe641-9bf5-48f1-8a1e-2b53b47c72bd","system_id":"levelo_inurba_marseille","lat":43.297163,"lon":5.365866,"is_reserved":false,"is_disabled":false,"rental_uris":{"android":"levelo://app?vid=5afbe641-9bf5-48f1-8a1e-2b53b47c72bd","ios":"levelo://app?vid=5afbe641-9bf5-48f1-8a1e-2b53b47c72bd"},"vehicle_type_id":"4","last_reported":1724706434,"current_range_meters":20400,"station_id":"ce4bgn12rcd13ifvqbt0","pricing_plan_id":"cebpf4jnsgd1na2vs0mg"},{"bike_id":"b6714d97-e281-49f7-a7b5-d0365cdf8a77","system_id":"levelo_inurba_marseille","lat":43.297163,"lon":5.365866,"is_reserved":false,"is_disabled":false,"rental_uris":{"android":"levelo://app?vid=b6714d97-e281-49f7-a7b5-d0365cdf8a77","ios":"levelo://app?vid=b6714d97-e281-49f7-a7b5-d0365cdf8a77"},"vehicle_type_id":"4","last_reported":1724706434,"current_range_meters":31200,"station_id":"ce4bgn12rcd13ifvqbt0","pricing_plan_id":"cebpf4jnsgd1na2vs0mg"},{"bike_id":"9c23e0a3-83f9-4725-8cf3-a66088b68d8a","system_id":"levelo_inurba_marseille","lat":43.296131,"lon":5.370773,"is_reserved":false,"is_disabled":false,"rental_uris":{"android":"levelo://app?vid=9c23e0a3-83f9-4725-8cf3-a66088b68d8a","ios":"levelo://app?vid=9c23e0a3-83f9-4725-8cf3-a66088b68d8a"},"vehicle_type_id":"4","last_reported":1724706434,"current_range_meters":12000,"station_id":"ce4bgnh2rcd13ifvqc0g","pricing_plan_id":"cebpf4jnsgd1na2vs0mg"},{"bike_id":"f0d49290-053a-4e1a-ba0b-2712385b68f5","system_id":"levelo_inurba_marseille","lat":43.29573,"lon":5.367355,"is_reserved":false,"is_disabled":false,"rental_uris":{"android":"levelo://app?vid=f0d49290-053a-4e1a-ba0b-2712385b68f5","ios":"levelo://app?vid=f0d49290-053a-4e1a-ba0b-2712385b68f5"},"vehicle_type_id":"4","last_reported":1724706434,"current_range_meters":10400,"station_id":"ce4bgph2rcd13ifvqc2g","pricing_plan_id":"cebpf4jnsgd1na2vs0mg"},{"bike_id":"607d7d1c-83e5-4858-8fdd-f17a3ae45393","system_id":"levelo_inurba_marseille","lat":43.29573,"lon":5.367355,"is_reserved":false,"is_disabled":false,"rental_uris":{"android":"levelo://app?vid=607d7d1c-83e5-4858-8fdd-f17a3ae45393","ios":"levelo://app?vid=607d7d1c-83e5-4858-8fdd-f17a3ae45393"},"vehicle_type_id":"4","last_reported":1724706434,"current_range_meters":27200,"station_id":"ce4bgph2rcd13ifvqc2g","pricing_plan_id":"cebpf4jnsgd1na2vs0mg"},{"bike_id":"c75ccc24-b4af-43d0-bfdf-df9bfbb74594","system_id":"levelo_inurba_marseille","lat":43.29721,"lon":5.37723,"is_reserved":false,"is_disabled":false,"rental_uris":{"android":"levelo://app?vid=c75ccc24-b4af-43d0-bfdf-df9bfbb74594","ios":"levelo://app?vid=c75ccc24-b4af-43d0-bfdf-df9bfbb74594"},"vehicle_type_id":"4","last_reported":1724706434,"current_range_meters":27600,"station_id":"","pricing_plan_id":"cebpf4jnsgd1na2vs0mg"},{"bike_id":"02d92a04-4401-44c9-8cd2-52ad60b40761","system_id":"levelo_inurba_marseille","lat":43.309589,"lon":5.390258,"is_reserved":false,"is_disabled":false,"rental_uris":{"android":"levelo://app?vid=02d92a04-4401-44c9-8cd2-52ad60b40761","ios":"levelo://app?vid=02d92a04-4401-44c9-8cd2-52ad60b40761"},"vehicle_type_id":"4","last_reported":1724706434,"current_range_meters":8800,"station_id":"ce4bgup2rcd13ifvqco0","pricing_plan_id":"cebpf4jnsgd1na2vs0mg"},{"bike_id":"46257a86-5b02-4458-afc3-78c601d78a5d","system_id":"levelo_inurba_marseille","lat":43.3095,"lon":5.39035,"is_reserved":false,"is_disabled":false,"rental_uris":{"android":"levelo://app?vid=46257a86-5b02-4458-afc3-78c601d78a5d","ios":"levelo://app?vid=46257a86-5b02-4458-afc3-78c601d78a5d"},"vehicle_type_id":"4","last_reported":1724706434,"current_range_meters":0,"station_id":"ce4bgup2rcd13ifvqco0","pricing_plan_id":"cebpf4jnsgd1na2vs0mg"},{"bike_id":"c4ac7407-73cd-4d44-82d2-3408818e634b","system_id":"levelo_inurba_marseille","lat":43.309589,"lon":5.390258,"is_reserved":false,"is_disabled":false,"rental_uris":{"android":"levelo://app?vid=c4ac7407-73cd-4d44-82d2-3408818e634b","ios":"levelo://app?vid=c4ac7407-73cd-4d44-82d2-3408818e634b"},"vehicle_type_id":"4","last_reported":1724706434,"current_range_meters":8400,"station_id":"ce4bgup2rcd13ifvqco0","pricing_plan_id":"cebpf4jnsgd1na2vs0mg"},{"bike_id":"9e5aa10d-8797-4471-9df2-7050ff47925e","system_id":"levelo_inurba_marseille","lat":43.317557,"lon":5.390173,"is_reserved":false,"is_disabled":false,"rental_uris":{"android":"levelo://app?vid=9e5aa10d-8797-4471-9df2-7050ff47925e","ios":"levelo://app?vid=9e5aa10d-8797-4471-9df2-7050ff47925e"},"vehicle_type_id":"4","last_reported":1724706434,"current_range_meters":10800,"station_id":"ce4bhqp2rcd13ifvqhng","pricing_plan_id":"cebpf4jnsgd1na2vs0mg"},{"bike_id":"407a4b83-4185-42ea-8b14-e0f03efbdd98","system_id":"levelo_inurba_marseille","lat":43.317557,"lon":5.390173,"is_reserved":false,"is_disabled":false,"rental_uris":{"android":"levelo://app?vid=407a4b83-4185-42ea-8b14-e0f03efbdd98","ios":"levelo://app?vid=407a4b83-4185-42ea-8b14-e0f03efbdd98"},"vehicle_type_id":"4","last_reported":1724706434,"current_range_meters":31200,"station_id":"ce4bhqp2rcd13ifvqhng","pricing_plan_id":"cebpf4jnsgd1na2vs0mg"},{"bike_id":"99af8703-a510-4361-83bb-88f0fd907950","system_id":"levelo_inurba_marseille","lat":43.317557,"lon":5.390173,"is_reserved":false,"is_disabled":false,"rental_uris":{"android":"levelo://app?vid=99af8703-a510-4361-83bb-88f0fd907950","ios":"levelo://app?vid=99af8703-a510-4361-83bb-88f0fd907950"},"vehicle_type_id":"4","last_reported":1724706434,"current_range_meters":21200,"station_id":"ce4bhqp2rcd13ifvqhng","pricing_plan_id":"cebpf4jnsgd1na2vs0mg"},{"bike_id":"c2e76ad2-7790-489b-9d5c-98bd5358ca90","system_id":"levelo_inurba_marseille","lat":43.317557,"lon":5.390173,"is_reserved":false,"is_disabled":false,"rental_uris":{"android":"levelo://app?vid=c2e76ad2-7790-489b-9d5c-98bd5358ca90","ios":"levelo://app?vid=c2e76ad2-7790-489b-9d5c-98bd5358ca90"},"vehicle_type_id":"4","last_reported":1724706434,"current_range_meters":31200,"station_id":"ce4bhqp2rcd13ifvqhng","pricing_plan_id":"cebpf4jnsgd1na2vs0mg"},{"bike_id":"de44b69e-fc97-47dc-8b90-0c224c917c80","system_id":"levelo_inurba_marseille","lat":43.31762,"lon":5.39021,"is_reserved":false,"is_disabled":false,"rental_uris":{"android":"levelo://app?vid=de44b69e-fc97-47dc-8b90-0c224c917c80","ios":"levelo://app?vid=de44b69e-fc97-47dc-8b90-0c224c917c80"},"vehicle_type_id":"4","last_reported":1724706434,"current_range_meters":31200,"station_id":"ce4bhqp2rcd13ifvqhng","pricing_plan_id":"cebpf4jnsgd1na2vs0mg"},{"bike_id":"2a490b4b-75a2-45d6-baea-9503a2f09398","system_id":"levelo_inurba_marseille","lat":43.317557,"lon":5.390173,"is_reserved":false,"is_disabled":false,"rental_uris":{"android":"levelo://app?vid=2a490b4b-75a2-45d6-baea-9503a2f09398","ios":"levelo://app?vid=2a490b4b-75a2-45d6-baea-9503a2f09398"},"vehicle_type_id":"4","last_reported":1724706434,"current_range_meters":25200,"station_id":"ce4bhqp2rcd13ifvqhng","pricing_plan_id":"cebpf4jnsgd1na2vs0mg"},{"bike_id":"facbd3a6-7fb0-4d1e-a963-7668313eadcb","system_id":"levelo_inurba_marseille","lat":43.31751,"lon":5.39033,"is_reserved":false,"is_disabled":false,"rental_uris":{"android":"levelo://app?vid=facbd3a6-7fb0-4d1e-a963-7668313eadcb","ios":"levelo://app?vid=facbd3a6-7fb0-4d1e-a963-7668313eadcb"},"vehicle_type_id":"4","last_reported":1724706434,"current_range_meters":31200,"station_id":"ce4bhqp2rcd13ifvqhng","pricing_plan_id":"cebpf4jnsgd1na2vs0mg"},{"bike_id":"b687b5a9-a38a-4d18-a7eb-d145e0e2cc88","system_id":"levelo_inurba_marseille","lat":43.31753,"lon":5.39035,"is_reserved":false,"is_disabled":false,"rental_uris":{"android":"levelo://app?vid=b687b5a9-a38a-4d18-a7eb-d145e0e2cc88","ios":"levelo://app?vid=b687b5a9-a38a-4d18-a7eb-d145e0e2cc88"},"vehicle_type_id":"4","last_reported":1724706434,"current_range_meters":31200,"station_id":"ce4bhqp2rcd13ifvqhng","pricing_plan_id":"cebpf4jnsgd1na2vs0mg"},{"bike_id":"3b1e68e2-1462-466b-90e2-9f454d16bc79","system_id":"levelo_inurba_marseille","lat":43.298037,"lon":5.381066,"is_reserved":false,"is_disabled":false,"rental_uris":{"android":"levelo://app?vid=3b1e68e2-1462-466b-90e2-9f454d16bc79","ios":"levelo://app?vid=3b1e68e2-1462-466b-90e2-9f454d16bc79"},"vehicle_type_id":"4","last_reported":1724706434,"current_range_meters":16800,"station_id":"ce4bgip2rcd13ifvqbb0","pricing_plan_id":"cebpf4jnsgd1na2vs0mg"},{"bike_id":"092f9de0-93e3-4792-bea2-fc0f34a9aaee","system_id":"levelo_inurba_marseille","lat":43.304274,"lon":5.388873,"is_reserved":false,"is_disabled":false,"rental_uris":{"android":"levelo://app?vid=092f9de0-93e3-4792-bea2-fc0f34a9aaee","ios":"levelo://app?vid=092f9de0-93e3-4792-bea2-fc0f34a9aaee"},"vehicle_type_id":"4","last_reported":1724706434,"current_range_meters":22000,"station_id":"ce4bgk12rcd13ifvqbi0","pricing_plan_id":"cebpf4jnsgd1na2vs0mg"},{"bike_id":"603757ac-9105-4bd6-ab74-69226ddecedc","system_id":"levelo_inurba_marseille","lat":43.304368,"lon":5.38891,"is_reserved":false,"is_disabled":false,"rental_uris":{"android":"levelo://app?vid=603757ac-9105-4bd6-ab74-69226ddecedc","ios":"levelo://app?vid=603757ac-9105-4bd6-ab74-69226ddecedc"},"vehicle_type_id":"4","last_reported":1724706434,"current_range_meters":11600,"station_id":"ce4bgk12rcd13ifvqbi0","pricing_plan_id":"cebpf4jnsgd1na2vs0mg"},{"bike_id":"3cddfb6c-e1dc-4f74-8fa2-2a96bb225a0d","system_id":"levelo_inurba_marseille","lat":43.29788,"lon":5.38102,"is_reserved":false,"is_disabled":false,"rental_uris":{"android":"levelo://app?vid=3cddfb6c-e1dc-4f74-8fa2-2a96bb225a0d","ios":"levelo://app?vid=3cddfb6c-e1dc-4f74-8fa2-2a96bb225a0d"},"vehicle_type_id":"4","last_reported":1724706434,"current_range_meters":6000,"station_id":"","pricing_plan_id":"cebpf4jnsgd1na2vs0mg"},{"bike_id":"93b48089-bcf3-48ae-9894-2209ddb00c69","system_id":"levelo_inurba_marseille","lat":43.304278,"lon":5.388868,"is_reserved":false,"is_disabled":false,"rental_uris":{"android":"levelo://app?vid=93b48089-bcf3-48ae-9894-2209ddb00c69","ios":"levelo://app?vid=93b48089-bcf3-48ae-9894-2209ddb00c69"},"vehicle_type_id":"4","last_reported":1724706434,"current_range_meters":17600,"station_id":"ce4bgk12rcd13ifvqbi0","pricing_plan_id":"cebpf4jnsgd1na2vs0mg"},{"bike_id":"7947b03e-2c79-4acd-800c-3ed80d2639f4","system_id":"levelo_inurba_marseille","lat":43.30421,"lon":5.38887,"is_reserved":false,"is_disabled":false,"rental_uris":{"android":"levelo://app?vid=7947b03e-2c79-4acd-800c-3ed80d2639f4","ios":"levelo://app?vid=7947b03e-2c79-4acd-800c-3ed80d2639f4"},"vehicle_type_id":"4","last_reported":1724706434,"current_range_meters":22400,"station_id":"ce4bgk12rcd13ifvqbi0","pricing_plan_id":"cebpf4jnsgd1na2vs0mg"},{"bike_id":"2f162bd1-b8d3-4d21-93ac-53b321aa9413","system_id":"levelo_inurba_marseille","lat":43.29496,"lon":5.36198,"is_reserved":false,"is_disabled":false,"rental_uris":{"android":"levelo://app?vid=2f162bd1-b8d3-4d21-93ac-53b321aa9413","ios":"levelo://app?vid=2f162bd1-b8d3-4d21-93ac-53b321aa9413"},"vehicle_type_id":"4","last_reported":1724706434,"current_range_meters":30400,"station_id":"","pricing_plan_id":"cebpf4jnsgd1na2vs0mg"},{"bike_id":"a65ad4f9-c309-47c3-a043-8eda6c062aa4","system_id":"levelo_inurba_marseille","lat":43.304278,"lon":5.388868,"is_reserved":false,"is_disabled":false,"rental_uris":{"android":"levelo://app?vid=a65ad4f9-c309-47c3-a043-8eda6c062aa4","ios":"levelo://app?vid=a65ad4f9-c309-47c3-a043-8eda6c062aa4"},"vehicle_type_id":"4","last_reported":1724706434,"current_range_meters":21600,"station_id":"ce4bgk12rcd13ifvqbi0","pricing_plan_id":"cebpf4jnsgd1na2vs0mg"},{"bike_id":"54c5670d-a4c2-415f-9444-457d1d767a12","system_id":"levelo_inurba_marseille","lat":43.296277,"lon":5.377108,"is_reserved":false,"is_disabled":false,"rental_uris":{"android":"levelo://app?vid=54c5670d-a4c2-415f-9444-457d1d767a12","ios":"levelo://app?vid=54c5670d-a4c2-415f-9444-457d1d767a12"},"vehicle_type_id":"4","last_reported":1724706434,"current_range_meters":3600,"station_id":"ce4bgi92rcd13ifvqb90","pricing_plan_id":"cebpf4jnsgd1na2vs0mg"},{"bike_id":"ec4533c1-7ba6-440c-a936-27667fb58617","system_id":"levelo_inurba_marseille","lat":43.299724,"lon":5.384848,"is_reserved":false,"is_disabled":false,"rental_uris":{"android":"levelo://app?vid=ec4533c1-7ba6-440c-a936-27667fb58617","ios":"levelo://app?vid=ec4533c1-7ba6-440c-a936-27667fb58617"},"vehicle_type_id":"4","last_reported":1724706434,"current_range_meters":16800,"station_id":"ce4bgj92rcd13ifvqbd0","pricing_plan_id":"cebpf4jnsgd1na2vs0mg"},{"bike_id":"ba3b68b6-0d47-489a-9ba2-b7a1ff355018","system_id":"levelo_inurba_marseille","lat":43.299724,"lon":5.384848,"is_reserved":false,"is_disabled":false,"rental_uris":{"android":"levelo://app?vid=ba3b68b6-0d47-489a-9ba2-b7a1ff355018","ios":"levelo://app?vid=ba3b68b6-0d47-489a-9ba2-b7a1ff355018"},"vehicle_type_id":"4","last_reported":1724706434,"current_range_meters":14000,"station_id":"ce4bgj92rcd13ifvqbd0","pricing_plan_id":"cebpf4jnsgd1na2vs0mg"},{"bike_id":"82591eb6-ae0b-4d7b-be44-29b4e10f77fc","system_id":"levelo_inurba_marseille","lat":43.32367,"lon":5.38883,"is_reserved":false,"is_disabled":false,"rental_uris":{"android":"levelo://app?vid=82591eb6-ae0b-4d7b-be44-29b4e10f77fc","ios":"levelo://app?vid=82591eb6-ae0b-4d7b-be44-29b4e10f77fc"},"vehicle_type_id":"4","last_reported":1724706434,"current_range_meters":0,"station_id":"ce4bhqp2rcd13ifvqhog","pricing_plan_id":"cebpf4jnsgd1na2vs0mg"},{"bike_id":"a716e398-afcc-4c03-ae80-f61b20cfab50","system_id":"levelo_inurba_marseille","lat":43.32367,"lon":5.388836,"is_reserved":false,"is_disabled":false,"rental_uris":{"android":"levelo://app?vid=a716e398-afcc-4c03-ae80-f61b20cfab50","ios":"levelo://app?vid=a716e398-afcc-4c03-ae80-f61b20cfab50"},"vehicle_type_id":"4","last_reported":1724706434,"current_range_meters":2800,"station_id":"ce4bhqp2rcd13ifvqhog","pricing_plan_id":"cebpf4jnsgd1na2vs0mg"},{"bike_id":"834a7d6b-43e4-411d-bfd8-bf353688a874","system_id":"levelo_inurba_marseille","lat":43.32367,"lon":5.388836,"is_reserved":false,"is_disabled":false,"rental_uris":{"android":"levelo://app?vid=834a7d6b-43e4-411d-bfd8-bf353688a874","ios":"levelo://app?vid=834a7d6b-43e4-411d-bfd8-bf353688a874"},"vehicle_type_id":"4","last_reported":1724706434,"current_range_meters":3600,"station_id":"ce4bhqp2rcd13ifvqhog","pricing_plan_id":"cebpf4jnsgd1na2vs0mg"},{"bike_id":"f34e9ff8-5944-40ad-ade0-f55b513d3797","system_id":"levelo_inurba_marseille","lat":43.32366,"lon":5.38886,"is_reserved":false,"is_disabled":false,"rental_uris":{"android":"levelo://app?vid=f34e9ff8-5944-40ad-ade0-f55b513d3797","ios":"levelo://app?vid=f34e9ff8-5944-40ad-ade0-f55b513d3797"},"vehicle_type_id":"4","last_reported":1724706434,"current_range_meters":400,"station_id":"ce4bhqp2rcd13ifvqhog","pricing_plan_id":"cebpf4jnsgd1na2vs0mg"},{"bike_id":"572e2367-89d7-49de-99ad-2d458c88b1bb","system_id":"levelo_inurba_marseille","lat":43.32367,"lon":5.388836,"is_reserved":false,"is_disabled":false,"rental_uris":{"android":"levelo://app?vid=572e2367-89d7-49de-99ad-2d458c88b1bb","ios":"levelo://app?vid=572e2367-89d7-49de-99ad-2d458c88b1bb"},"vehicle_type_id":"4","last_reported":1724706434,"current_range_meters":5200,"station_id":"ce4bhqp2rcd13ifvqhog","pricing_plan_id":"cebpf4jnsgd1na2vs0mg"},{"bike_id":"b60f3181-43da-48ce-b737-0460b525c1d1","system_id":"levelo_inurba_marseille","lat":43.32367,"lon":5.388836,"is_reserved":false,"is_disabled":false,"rental_uris":{"android":"levelo://app?vid=b60f3181-43da-48ce-b737-0460b525c1d1","ios":"levelo://app?vid=b60f3181-43da-48ce-b737-0460b525c1d1"},"vehicle_type_id":"4","last_reported":1724706434,"current_range_meters":28400,"station_id":"ce4bhqp2rcd13ifvqhog","pricing_plan_id":"cebpf4jnsgd1na2vs0mg"},{"bike_id":"d545ce2c-9eb9-4b44-89d5-46ed36e81c85","system_id":"levelo_inurba_marseille","lat":43.32367,"lon":5.388836,"is_reserved":false,"is_disabled":false,"rental_uris":{"android":"levelo://app?vid=d545ce2c-9eb9-4b44-89d5-46ed36e81c85","ios":"levelo://app?vid=d545ce2c-9eb9-4b44-89d5-46ed36e81c85"},"vehicle_type_id":"4","last_reported":1724706434,"current_range_meters":1600,"station_id":"ce4bhqp2rcd13ifvqhog","pricing_plan_id":"cebpf4jnsgd1na2vs0mg"},{"bike_id":"0ebef8b6-7384-42a3-a644-836f41e116fd","system_id":"levelo_inurba_marseille","lat":43.30159,"lon":5.38886,"is_reserved":false,"is_disabled":false,"rental_uris":{"android":"levelo://app?vid=0ebef8b6-7384-42a3-a644-836f41e116fd","ios":"levelo://app?vid=0ebef8b6-7384-42a3-a644-836f41e116fd"},"vehicle_type_id":"4","last_reported":1724706434,"current_range_meters":0,"station_id":"","pricing_plan_id":"cebpf4jnsgd1na2vs0mg"},{"bike_id":"16f012a7-1d8b-4c3d-b240-f20b02c4ed2f","system_id":"levelo_inurba_marseille","lat":43.30187,"lon":5.38932,"is_reserved":false,"is_disabled":false,"rental_uris":{"android":"levelo://app?vid=16f012a7-1d8b-4c3d-b240-f20b02c4ed2f","ios":"levelo://app?vid=16f012a7-1d8b-4c3d-b240-f20b02c4ed2f"},"vehicle_type_id":"4","last_reported":1724706434,"current_range_meters":800,"station_id":"","pricing_plan_id":"cebpf4jnsgd1na2vs0mg"},{"bike_id":"628cc390-cb21-454f-b090-646eebae4780","system_id":"levelo_inurba_marseille","lat":43.29602,"lon":5.381084,"is_reserved":false,"is_disabled":false,"rental_uris":{"android":"levelo://app?vid=628cc390-cb21-454f-b090-646eebae4780","ios":"levelo://app?vid=628cc390-cb21-454f-b090-646eebae4780"},"vehicle_type_id":"4","last_reported":1724706434,"current_range_meters":4000,"station_id":"ce4bgl12rcd13ifvqbo0","pricing_plan_id":"cebpf4jnsgd1na2vs0mg"},{"bike_id":"c0f3a916-8241-4419-8855-93ef3261d38d","system_id":"levelo_inurba_marseille","lat":43.29606,"lon":5.38109,"is_reserved":false,"is_disabled":false,"rental_uris":{"android":"levelo://app?vid=c0f3a916-8241-4419-8855-93ef3261d38d","ios":"levelo://app?vid=c0f3a916-8241-4419-8855-93ef3261d38d"},"vehicle_type_id":"4","last_reported":1724706434,"current_range_meters":0,"station_id":"ce4bgl12rcd13ifvqbo0","pricing_plan_id":"cebpf4jnsgd1na2vs0mg"},{"bike_id":"f09c75ee-fd39-4ce4-8dbf-084ac23cd96b","system_id":"levelo_inurba_marseille","lat":43.29602,"lon":5.381084,"is_reserved":false,"is_disabled":false,"rental_uris":{"android":"levelo://app?vid=f09c75ee-fd39-4ce4-8dbf-084ac23cd96b","ios":"levelo://app?vid=f09c75ee-fd39-4ce4-8dbf-084ac23cd96b"},"vehicle_type_id":"4","last_reported":1724706434,"current_range_meters":5600,"station_id":"ce4bgl12rcd13ifvqbo0","pricing_plan_id":"cebpf4jnsgd1na2vs0mg"},{"bike_id":"fcbab343-5fac-4124-af99-740badae20e8","system_id":"levelo_inurba_marseille","lat":43.29597,"lon":5.38106,"is_reserved":false,"is_disabled":false,"rental_uris":{"android":"levelo://app?vid=fcbab343-5fac-4124-af99-740badae20e8","ios":"levelo://app?vid=fcbab343-5fac-4124-af99-740badae20e8"},"vehicle_type_id":"4","last_reported":1724706434,"current_range_meters":13200,"station_id":"ce4bgl12rcd13ifvqbo0","pricing_plan_id":"cebpf4jnsgd1na2vs0mg"},{"bike_id":"35846ad7-0de8-4d43-9991-d59a22d3ec68","system_id":"levelo_inurba_marseille","lat":43.293259,"lon":5.371586,"is_reserved":false,"is_disabled":false,"rental_uris":{"android":"levelo://app?vid=35846ad7-0de8-4d43-9991-d59a22d3ec68","ios":"levelo://app?vid=35846ad7-0de8-4d43-9991-d59a22d3ec68"},"vehicle_type_id":"4","last_reported":1724706434,"current_range_meters":19600,"station_id":"ce4bgh92rcd13ifvqb40","pricing_plan_id":"cebpf4jnsgd1na2vs0mg"},{"bike_id":"8d85bbc8-ef7d-4ad9-b8e8-82cfaa2c0f38","system_id":"levelo_inurba_marseille","lat":43.29304,"lon":5.37161,"is_reserved":false,"is_disabled":false,"rental_uris":{"android":"levelo://app?vid=8d85bbc8-ef7d-4ad9-b8e8-82cfaa2c0f38","ios":"levelo://app?vid=8d85bbc8-ef7d-4ad9-b8e8-82cfaa2c0f38"},"vehicle_type_id":"4","last_reported":1724706434,"current_range_meters":0,"station_id":"ce4bgh92rcd13ifvqb40","pricing_plan_id":"cebpf4jnsgd1na2vs0mg"},{"bike_id":"d25e36e9-18a5-48f3-8c1c-76be7448d2e0","system_id":"levelo_inurba_marseille","lat":43.305994,"lon":5.393687,"is_reserved":false,"is_disabled":false,"rental_uris":{"android":"levelo://app?vid=d25e36e9-18a5-48f3-8c1c-76be7448d2e0","ios":"levelo://app?vid=d25e36e9-18a5-48f3-8c1c-76be7448d2e0"},"vehicle_type_id":"4","last_reported":1724706434,"current_range_meters":20400,"station_id":"ce4bh0p2rcd13ifvqd80","pricing_plan_id":"cebpf4jnsgd1na2vs0mg"},{"bike_id":"dd967e50-e878-420e-9979-2b9d8df8f766","system_id":"levelo_inurba_marseille","lat":43.305994,"lon":5.393687,"is_reserved":false,"is_disabled":false,"rental_uris":{"android":"levelo://app?vid=dd967e50-e878-420e-9979-2b9d8df8f766","ios":"levelo://app?vid=dd967e50-e878-420e-9979-2b9d8df8f766"},"vehicle_type_id":"4","last_reported":1724706434,"current_range_meters":14800,"station_id":"ce4bh0p2rcd13ifvqd80","pricing_plan_id":"cebpf4jnsgd1na2vs0mg"},{"bike_id":"73c5d20b-27ed-4248-a1e3-b66bbe79c4a9","system_id":"levelo_inurba_marseille","lat":43.305994,"lon":5.393687,"is_reserved":false,"is_disabled":false,"rental_uris":{"android":"levelo://app?vid=73c5d20b-27ed-4248-a1e3-b66bbe79c4a9","ios":"levelo://app?vid=73c5d20b-27ed-4248-a1e3-b66bbe79c4a9"},"vehicle_type_id":"4","last_reported":1724706434,"current_range_meters":7200,"station_id":"ce4bh0p2rcd13ifvqd80","pricing_plan_id":"cebpf4jnsgd1na2vs0mg"},{"bike_id":"ce8a0584-1ac3-45bc-aa16-aa04fb9a33a9","system_id":"levelo_inurba_marseille","lat":43.293009,"lon":5.374584,"is_reserved":false,"is_disabled":false,"rental_uris":{"android":"levelo://app?vid=ce8a0584-1ac3-45bc-aa16-aa04fb9a33a9","ios":"levelo://app?vid=ce8a0584-1ac3-45bc-aa16-aa04fb9a33a9"},"vehicle_type_id":"4","last_reported":1724706434,"current_range_meters":0,"station_id":"ce4bgi12rcd13ifvqb70","pricing_plan_id":"cebpf4jnsgd1na2vs0mg"},{"bike_id":"d1685b86-3161-47e7-a064-130d6b760eaf","system_id":"levelo_inurba_marseille","lat":43.305994,"lon":5.393687,"is_reserved":false,"is_disabled":false,"rental_uris":{"android":"levelo://app?vid=d1685b86-3161-47e7-a064-130d6b760eaf","ios":"levelo://app?vid=d1685b86-3161-47e7-a064-130d6b760eaf"},"vehicle_type_id":"4","last_reported":1724706434,"current_range_meters":2400,"station_id":"ce4bh0p2rcd13ifvqd80","pricing_plan_id":"cebpf4jnsgd1na2vs0mg"},{"bike_id":"ba9d3246-75c2-4747-a151-04342c89d44a","system_id":"levelo_inurba_marseille","lat":43.303002,"lon":5.392142,"is_reserved":false,"is_disabled":false,"rental_uris":{"android":"levelo://app?vid=ba9d3246-75c2-4747-a151-04342c89d44a","ios":"levelo://app?vid=ba9d3246-75c2-4747-a151-04342c89d44a"},"vehicle_type_id":"4","last_reported":1724706434,"current_range_meters":3200,"station_id":"ce4bgkh2rcd13ifvqbk0","pricing_plan_id":"cebpf4jnsgd1na2vs0mg"},{"bike_id":"8623c423-d959-4528-b17d-bcf684891e75","system_id":"levelo_inurba_marseille","lat":43.303002,"lon":5.392142,"is_reserved":false,"is_disabled":false,"rental_uris":{"android":"levelo://app?vid=8623c423-d959-4528-b17d-bcf684891e75","ios":"levelo://app?vid=8623c423-d959-4528-b17d-bcf684891e75"},"vehicle_type_id":"4","last_reported":1724706434,"current_range_meters":3600,"station_id":"ce4bgkh2rcd13ifvqbk0","pricing_plan_id":"cebpf4jnsgd1na2vs0mg"},{"bike_id":"59802b9b-ef32-4ad2-bdbb-41854fbe2cdc","system_id":"levelo_inurba_marseille","lat":43.303002,"lon":5.392142,"is_reserved":false,"is_disabled":false,"rental_uris":{"android":"levelo://app?vid=59802b9b-ef32-4ad2-bdbb-41854fbe2cdc","ios":"levelo://app?vid=59802b9b-ef32-4ad2-bdbb-41854fbe2cdc"},"vehicle_type_id":"4","last_reported":1724706434,"current_range_meters":25200,"station_id":"ce4bgkh2rcd13ifvqbk0","pricing_plan_id":"cebpf4jnsgd1na2vs0mg"},{"bike_id":"9788ce9c-eb7c-4cbe-b5fc-48f50e44370e","system_id":"levelo_inurba_marseille","lat":43.302992,"lon":5.392136,"is_reserved":false,"is_disabled":false,"rental_uris":{"android":"levelo://app?vid=9788ce9c-eb7c-4cbe-b5fc-48f50e44370e","ios":"levelo://app?vid=9788ce9c-eb7c-4cbe-b5fc-48f50e44370e"},"vehicle_type_id":"4","last_reported":1724706434,"current_range_meters":0,"station_id":"ce4bgkh2rcd13ifvqbk0","pricing_plan_id":"cebpf4jnsgd1na2vs0mg"},{"bike_id":"bd4aa713-cff8-4cd2-860d-2f154a26113e","system_id":"levelo_inurba_marseille","lat":43.2936,"lon":5.37835,"is_reserved":false,"is_disabled":false,"rental_uris":{"android":"levelo://app?vid=bd4aa713-cff8-4cd2-860d-2f154a26113e","ios":"levelo://app?vid=bd4aa713-cff8-4cd2-860d-2f154a26113e"},"vehicle_type_id":"4","last_reported":1724706434,"current_range_meters":9200,"station_id":"ce4bgjh2rcd13ifvqbf0","pricing_plan_id":"cebpf4jnsgd1na2vs0mg"},{"bike_id":"47b1664a-9e95-42db-a97b-2750b84191b8","system_id":"levelo_inurba_marseille","lat":43.303002,"lon":5.392142,"is_reserved":false,"is_disabled":false,"rental_uris":{"android":"levelo://app?vid=47b1664a-9e95-42db-a97b-2750b84191b8","ios":"levelo://app?vid=47b1664a-9e95-42db-a97b-2750b84191b8"},"vehicle_type_id":"4","last_reported":1724706434,"current_range_meters":7600,"station_id":"ce4bgkh2rcd13ifvqbk0","pricing_plan_id":"cebpf4jnsgd1na2vs0mg"},{"bike_id":"47f6a1aa-be3f-4a54-a0a8-88d886325d84","system_id":"levelo_inurba_marseille","lat":43.303002,"lon":5.392142,"is_reserved":false,"is_disabled":false,"rental_uris":{"android":"levelo://app?vid=47f6a1aa-be3f-4a54-a0a8-88d886325d84","ios":"levelo://app?vid=47f6a1aa-be3f-4a54-a0a8-88d886325d84"},"vehicle_type_id":"4","last_reported":1724706434,"current_range_meters":13200,"station_id":"ce4bgkh2rcd13ifvqbk0","pricing_plan_id":"cebpf4jnsgd1na2vs0mg"},{"bike_id":"0d57bc30-07e6-442d-8115-0e78ca0e9ca8","system_id":"levelo_inurba_marseille","lat":43.300852,"lon":5.390859,"is_reserved":false,"is_disabled":false,"rental_uris":{"android":"levelo://app?vid=0d57bc30-07e6-442d-8115-0e78ca0e9ca8","ios":"levelo://app?vid=0d57bc30-07e6-442d-8115-0e78ca0e9ca8"},"vehicle_type_id":"4","last_reported":1724706434,"current_range_meters":0,"station_id":"ce4bh192rcd13ifvqdb0","pricing_plan_id":"cebpf4jnsgd1na2vs0mg"},{"bike_id":"e805fa55-5a4b-4b3f-94e1-8d4b3722a21f","system_id":"levelo_inurba_marseille","lat":43.292311,"lon":5.360731,"is_reserved":false,"is_disabled":false,"rental_uris":{"android":"levelo://app?vid=e805fa55-5a4b-4b3f-94e1-8d4b3722a21f","ios":"levelo://app?vid=e805fa55-5a4b-4b3f-94e1-8d4b3722a21f"},"vehicle_type_id":"4","last_reported":1724706434,"current_range_meters":0,"station_id":"ce4bhbh2rcd13ifvqeqg","pricing_plan_id":"cebpf4jnsgd1na2vs0mg"},{"bike_id":"0cda614b-7a18-4bfa-9c39-6a7b796768f1","system_id":"levelo_inurba_marseille","lat":43.30085,"lon":5.390856,"is_reserved":false,"is_disabled":false,"rental_uris":{"android":"levelo://app?vid=0cda614b-7a18-4bfa-9c39-6a7b796768f1","ios":"levelo://app?vid=0cda614b-7a18-4bfa-9c39-6a7b796768f1"},"vehicle_type_id":"4","last_reported":1724706434,"current_range_meters":1600,"station_id":"ce4bh192rcd13ifvqdb0","pricing_plan_id":"cebpf4jnsgd1na2vs0mg"},{"bike_id":"aca0a1d8-5a65-47dd-88fa-7270b89fd934","system_id":"levelo_inurba_marseille","lat":43.292311,"lon":5.360731,"is_reserved":false,"is_disabled":false,"rental_uris":{"android":"levelo://app?vid=aca0a1d8-5a65-47dd-88fa-7270b89fd934","ios":"levelo://app?vid=aca0a1d8-5a65-47dd-88fa-7270b89fd934"},"vehicle_type_id":"4","last_reported":1724706434,"current_range_meters":8000,"station_id":"ce4bhbh2rcd13ifvqeqg","pricing_plan_id":"cebpf4jnsgd1na2vs0mg"},{"bike_id":"d49361d1-34d2-4db8-9e9c-c854bae7178c","system_id":"levelo_inurba_marseille","lat":43.298764,"lon":5.388973,"is_reserved":false,"is_disabled":false,"rental_uris":{"android":"levelo://app?vid=d49361d1-34d2-4db8-9e9c-c854bae7178c","ios":"levelo://app?vid=d49361d1-34d2-4db8-9e9c-c854bae7178c"},"vehicle_type_id":"4","last_reported":1724706434,"current_range_meters":2800,"station_id":"ce4bh392rcd13ifvqdl0","pricing_plan_id":"cebpf4jnsgd1na2vs0mg"},{"bike_id":"7c3840b6-e598-406f-8559-c7d09d245d17","system_id":"levelo_inurba_marseille","lat":43.291663,"lon":5.371399,"is_reserved":false,"is_disabled":false,"rental_uris":{"android":"levelo://app?vid=7c3840b6-e598-406f-8559-c7d09d245d17","ios":"levelo://app?vid=7c3840b6-e598-406f-8559-c7d09d245d17"},"vehicle_type_id":"4","last_reported":1724706434,"current_range_meters":0,"station_id":"ce4bha92rcd13ifvqeh0","pricing_plan_id":"cebpf4jnsgd1na2vs0mg"},{"bike_id":"c774416e-1652-4046-aea4-97373322ab9d","system_id":"levelo_inurba_marseille","lat":43.309038,"lon":5.396546,"is_reserved":false,"is_disabled":false,"rental_uris":{"android":"levelo://app?vid=c774416e-1652-4046-aea4-97373322ab9d","ios":"levelo://app?vid=c774416e-1652-4046-aea4-97373322ab9d"},"vehicle_type_id":"4","last_reported":1724706434,"current_range_meters":14800,"station_id":"ce4bh012rcd13ifvqcv0","pricing_plan_id":"cebpf4jnsgd1na2vs0mg"},{"bike_id":"30f05fea-ab99-494a-b33d-60a52de77e69","system_id":"levelo_inurba_marseille","lat":43.291773,"lon":5.375193,"is_reserved":false,"is_disabled":false,"rental_uris":{"android":"levelo://app?vid=30f05fea-ab99-494a-b33d-60a52de77e69","ios":"levelo://app?vid=30f05fea-ab99-494a-b33d-60a52de77e69"},"vehicle_type_id":"4","last_reported":1724706434,"current_range_meters":0,"station_id":"","pricing_plan_id":"cebpf4jnsgd1na2vs0mg"},{"bike_id":"39c58365-af0e-4ff6-b1e4-07dd22d5dd55","system_id":"levelo_inurba_marseille","lat":43.309038,"lon":5.396546,"is_reserved":false,"is_disabled":false,"rental_uris":{"android":"levelo://app?vid=39c58365-af0e-4ff6-b1e4-07dd22d5dd55","ios":"levelo://app?vid=39c58365-af0e-4ff6-b1e4-07dd22d5dd55"},"vehicle_type_id":"4","last_reported":1724706434,"current_range_meters":10000,"station_id":"ce4bh012rcd13ifvqcv0","pricing_plan_id":"cebpf4jnsgd1na2vs0mg"},{"bike_id":"4f6043cb-fb74-4a3b-aaba-921ba564d9bf","system_id":"levelo_inurba_marseille","lat":43.31328,"lon":5.39691,"is_reserved":false,"is_disabled":false,"rental_uris":{"android":"levelo://app?vid=4f6043cb-fb74-4a3b-aaba-921ba564d9bf","ios":"levelo://app?vid=4f6043cb-fb74-4a3b-aaba-921ba564d9bf"},"vehicle_type_id":"4","last_reported":1724706434,"current_range_meters":20800,"station_id":"ce4bgvp2rcd13ifvqcu0","pricing_plan_id":"cebpf4jnsgd1na2vs0mg"},{"bike_id":"20c2841e-8e22-4fff-a5cd-aa64374c33bd","system_id":"levelo_inurba_marseille","lat":43.31328,"lon":5.39692,"is_reserved":false,"is_disabled":false,"rental_uris":{"android":"levelo://app?vid=20c2841e-8e22-4fff-a5cd-aa64374c33bd","ios":"levelo://app?vid=20c2841e-8e22-4fff-a5cd-aa64374c33bd"},"vehicle_type_id":"4","last_reported":1724706434,"current_range_meters":6000,"station_id":"ce4bgvp2rcd13ifvqcu0","pricing_plan_id":"cebpf4jnsgd1na2vs0mg"},{"bike_id":"1f35ed94-c8d6-43d3-9c9e-35b3a3ccf80d","system_id":"levelo_inurba_marseille","lat":43.309038,"lon":5.396546,"is_reserved":false,"is_disabled":false,"rental_uris":{"android":"levelo://app?vid=1f35ed94-c8d6-43d3-9c9e-35b3a3ccf80d","ios":"levelo://app?vid=1f35ed94-c8d6-43d3-9c9e-35b3a3ccf80d"},"vehicle_type_id":"4","last_reported":1724706434,"current_range_meters":2800,"station_id":"ce4bh012rcd13ifvqcv0","pricing_plan_id":"cebpf4jnsgd1na2vs0mg"},{"bike_id":"4894e2ae-a768-454c-b74b-ef9cd4372181","system_id":"levelo_inurba_marseille","lat":43.31332,"lon":5.39693,"is_reserved":false,"is_disabled":false,"rental_uris":{"android":"levelo://app?vid=4894e2ae-a768-454c-b74b-ef9cd4372181","ios":"levelo://app?vid=4894e2ae-a768-454c-b74b-ef9cd4372181"},"vehicle_type_id":"4","last_reported":1724706434,"current_range_meters":22000,"station_id":"ce4bgvp2rcd13ifvqcu0","pricing_plan_id":"cebpf4jnsgd1na2vs0mg"},{"bike_id":"45d008a7-7fed-4df9-a1ff-1331e35cbf4e","system_id":"levelo_inurba_marseille","lat":43.31327,"lon":5.39694,"is_reserved":false,"is_disabled":false,"rental_uris":{"android":"levelo://app?vid=45d008a7-7fed-4df9-a1ff-1331e35cbf4e","ios":"levelo://app?vid=45d008a7-7fed-4df9-a1ff-1331e35cbf4e"},"vehicle_type_id":"4","last_reported":1724706434,"current_range_meters":6400,"station_id":"ce4bgvp2rcd13ifvqcu0","pricing_plan_id":"cebpf4jnsgd1na2vs0mg"},{"bike_id":"e3032a7b-665e-4ee3-8bd4-46a2b77236a4","system_id":"levelo_inurba_marseille","lat":43.31325,"lon":5.39695,"is_reserved":false,"is_disabled":false,"rental_uris":{"android":"levelo://app?vid=e3032a7b-665e-4ee3-8bd4-46a2b77236a4","ios":"levelo://app?vid=e3032a7b-665e-4ee3-8bd4-46a2b77236a4"},"vehicle_type_id":"4","last_reported":1724706434,"current_range_meters":31200,"station_id":"ce4bgvp2rcd13ifvqcu0","pricing_plan_id":"cebpf4jnsgd1na2vs0mg"},{"bike_id":"6c2ec593-4a92-49e3-94bd-8726b35624fd","system_id":"levelo_inurba_marseille","lat":43.31325,"lon":5.39695,"is_reserved":false,"is_disabled":false,"rental_uris":{"android":"levelo://app?vid=6c2ec593-4a92-49e3-94bd-8726b35624fd","ios":"levelo://app?vid=6c2ec593-4a92-49e3-94bd-8726b35624fd"},"vehicle_type_id":"4","last_reported":1724706434,"current_range_meters":16000,"station_id":"ce4bgvp2rcd13ifvqcu0","pricing_plan_id":"cebpf4jnsgd1na2vs0mg"},{"bike_id":"215ce1b2-2d13-42c6-85e0-409e5b065015","system_id":"levelo_inurba_marseille","lat":43.31327,"lon":5.39695,"is_reserved":false,"is_disabled":false,"rental_uris":{"android":"levelo://app?vid=215ce1b2-2d13-42c6-85e0-409e5b065015","ios":"levelo://app?vid=215ce1b2-2d13-42c6-85e0-409e5b065015"},"vehicle_type_id":"4","last_reported":1724706434,"current_range_meters":28800,"station_id":"ce4bgvp2rcd13ifvqcu0","pricing_plan_id":"cebpf4jnsgd1na2vs0mg"},{"bike_id":"541fa202-7dbd-46eb-a4b0-8af50240e0d2","system_id":"levelo_inurba_marseille","lat":43.31339,"lon":5.39695,"is_reserved":false,"is_disabled":false,"rental_uris":{"android":"levelo://app?vid=541fa202-7dbd-46eb-a4b0-8af50240e0d2","ios":"levelo://app?vid=541fa202-7dbd-46eb-a4b0-8af50240e0d2"},"vehicle_type_id":"4","last_reported":1724706434,"current_range_meters":19600,"station_id":"ce4bgvp2rcd13ifvqcu0","pricing_plan_id":"cebpf4jnsgd1na2vs0mg"},{"bike_id":"fcfbb498-2f14-407d-9682-59accc45d3d2","system_id":"levelo_inurba_marseille","lat":43.31327,"lon":5.39696,"is_reserved":false,"is_disabled":false,"rental_uris":{"android":"levelo://app?vid=fcfbb498-2f14-407d-9682-59accc45d3d2","ios":"levelo://app?vid=fcfbb498-2f14-407d-9682-59accc45d3d2"},"vehicle_type_id":"4","last_reported":1724706434,"current_range_meters":4000,"station_id":"ce4bgvp2rcd13ifvqcu0","pricing_plan_id":"cebpf4jnsgd1na2vs0mg"},{"bike_id":"3033046b-4248-457e-b780-a17c5bfbe443","system_id":"levelo_inurba_marseille","lat":43.313291,"lon":5.396838,"is_reserved":false,"is_disabled":false,"rental_uris":{"android":"levelo://app?vid=3033046b-4248-457e-b780-a17c5bfbe443","ios":"levelo://app?vid=3033046b-4248-457e-b780-a17c5bfbe443"},"vehicle_type_id":"4","last_reported":1724706434,"current_range_meters":8000,"station_id":"ce4bgvp2rcd13ifvqcu0","pricing_plan_id":"cebpf4jnsgd1na2vs0mg"},{"bike_id":"0eb2e848-9373-46b7-9e80-f81f864ea1b3","system_id":"levelo_inurba_marseille","lat":43.313291,"lon":5.396838,"is_reserved":false,"is_disabled":false,"rental_uris":{"android":"levelo://app?vid=0eb2e848-9373-46b7-9e80-f81f864ea1b3","ios":"levelo://app?vid=0eb2e848-9373-46b7-9e80-f81f864ea1b3"},"vehicle_type_id":"4","last_reported":1724706434,"current_range_meters":6400,"station_id":"ce4bgvp2rcd13ifvqcu0","pricing_plan_id":"cebpf4jnsgd1na2vs0mg"},{"bike_id":"f50f0348-1997-4f98-af34-8536a1f167e3","system_id":"levelo_inurba_marseille","lat":43.33428,"lon":5.36137,"is_reserved":false,"is_disabled":false,"rental_uris":{"android":"levelo://app?vid=f50f0348-1997-4f98-af34-8536a1f167e3","ios":"levelo://app?vid=f50f0348-1997-4f98-af34-8536a1f167e3"},"vehicle_type_id":"4","last_reported":1724706434,"current_range_meters":9600,"station_id":"","pricing_plan_id":"cebpf4jnsgd1na2vs0mg"},{"bike_id":"eb0e81d1-a5ba-491f-9342-2b452d14e177","system_id":"levelo_inurba_marseille","lat":43.309038,"lon":5.396546,"is_reserved":false,"is_disabled":false,"rental_uris":{"android":"levelo://app?vid=eb0e81d1-a5ba-491f-9342-2b452d14e177","ios":"levelo://app?vid=eb0e81d1-a5ba-491f-9342-2b452d14e177"},"vehicle_type_id":"4","last_reported":1724706434,"current_range_meters":25200,"station_id":"ce4bh012rcd13ifvqcv0","pricing_plan_id":"cebpf4jnsgd1na2vs0mg"},{"bike_id":"a3208f48-e9f0-47e6-8014-2f8bc506a99c","system_id":"levelo_inurba_marseille","lat":43.29529,"lon":5.3854,"is_reserved":false,"is_disabled":false,"rental_uris":{"android":"levelo://app?vid=a3208f48-e9f0-47e6-8014-2f8bc506a99c","ios":"levelo://app?vid=a3208f48-e9f0-47e6-8014-2f8bc506a99c"},"vehicle_type_id":"4","last_reported":1724706434,"current_range_meters":0,"station_id":"ce4bgih2rcd13ifvqba0","pricing_plan_id":"cebpf4jnsgd1na2vs0mg"},{"bike_id":"537ddf1d-9374-4d72-bf96-2d355a7e0957","system_id":"levelo_inurba_marseille","lat":43.29531,"lon":5.38547,"is_reserved":false,"is_disabled":false,"rental_uris":{"android":"levelo://app?vid=537ddf1d-9374-4d72-bf96-2d355a7e0957","ios":"levelo://app?vid=537ddf1d-9374-4d72-bf96-2d355a7e0957"},"vehicle_type_id":"4","last_reported":1724706434,"current_range_meters":0,"station_id":"ce4bgih2rcd13ifvqba0","pricing_plan_id":"cebpf4jnsgd1na2vs0mg"},{"bike_id":"c36ef198-cdcc-451e-9bf7-b13ffe079795","system_id":"levelo_inurba_marseille","lat":43.29524,"lon":5.38537,"is_reserved":false,"is_disabled":false,"rental_uris":{"android":"levelo://app?vid=c36ef198-cdcc-451e-9bf7-b13ffe079795","ios":"levelo://app?vid=c36ef198-cdcc-451e-9bf7-b13ffe079795"},"vehicle_type_id":"4","last_reported":1724706434,"current_range_meters":0,"station_id":"ce4bgih2rcd13ifvqba0","pricing_plan_id":"cebpf4jnsgd1na2vs0mg"},{"bike_id":"c7afcf86-bc7b-4186-b99e-5f875992b8da","system_id":"levelo_inurba_marseille","lat":43.290779,"lon":5.371482,"is_reserved":false,"is_disabled":false,"rental_uris":{"android":"levelo://app?vid=c7afcf86-bc7b-4186-b99e-5f875992b8da","ios":"levelo://app?vid=c7afcf86-bc7b-4186-b99e-5f875992b8da"},"vehicle_type_id":"4","last_reported":1724706434,"current_range_meters":20800,"station_id":"ce4bh5p2rcd13ifvqe4g","pricing_plan_id":"cebpf4jnsgd1na2vs0mg"},{"bike_id":"96e6e0fd-7546-416f-959e-a96cb510ab27","system_id":"levelo_inurba_marseille","lat":43.29057,"lon":5.37161,"is_reserved":false,"is_disabled":false,"rental_uris":{"android":"levelo://app?vid=96e6e0fd-7546-416f-959e-a96cb510ab27","ios":"levelo://app?vid=96e6e0fd-7546-416f-959e-a96cb510ab27"},"vehicle_type_id":"4","last_reported":1724706434,"current_range_meters":18000,"station_id":"ce4bh5p2rcd13ifvqe4g","pricing_plan_id":"cebpf4jnsgd1na2vs0mg"},{"bike_id":"bb3d52e5-57e2-4662-ad8d-faedaa073fd5","system_id":"levelo_inurba_marseille","lat":43.29053,"lon":5.37162,"is_reserved":false,"is_disabled":false,"rental_uris":{"android":"levelo://app?vid=bb3d52e5-57e2-4662-ad8d-faedaa073fd5","ios":"levelo://app?vid=bb3d52e5-57e2-4662-ad8d-faedaa073fd5"},"vehicle_type_id":"4","last_reported":1724706434,"current_range_meters":0,"station_id":"ce4bh5p2rcd13ifvqe4g","pricing_plan_id":"cebpf4jnsgd1na2vs0mg"},{"bike_id":"3e0b5e10-53bc-425d-b0be-37c4d1a94565","system_id":"levelo_inurba_marseille","lat":43.32459,"lon":5.39403,"is_reserved":false,"is_disabled":false,"rental_uris":{"android":"levelo://app?vid=3e0b5e10-53bc-425d-b0be-37c4d1a94565","ios":"levelo://app?vid=3e0b5e10-53bc-425d-b0be-37c4d1a94565"},"vehicle_type_id":"4","last_reported":1724706434,"current_range_meters":5600,"station_id":"","pricing_plan_id":"cebpf4jnsgd1na2vs0mg"},{"bike_id":"d1b20923-23c9-4b79-a355-9f2910e459b0","system_id":"levelo_inurba_marseille","lat":43.290335,"lon":5.359305,"is_reserved":false,"is_disabled":false,"rental_uris":{"android":"levelo://app?vid=d1b20923-23c9-4b79-a355-9f2910e459b0","ios":"levelo://app?vid=d1b20923-23c9-4b79-a355-9f2910e459b0"},"vehicle_type_id":"4","last_reported":1724706434,"current_range_meters":0,"station_id":"ce4bha92rcd13ifvqeg0","pricing_plan_id":"cebpf4jnsgd1na2vs0mg"},{"bike_id":"87a934d5-bf43-4968-9ac4-e94b20a9e6a1","system_id":"levelo_inurba_marseille","lat":43.290631,"lon":5.359244,"is_reserved":false,"is_disabled":false,"rental_uris":{"android":"levelo://app?vid=87a934d5-bf43-4968-9ac4-e94b20a9e6a1","ios":"levelo://app?vid=87a934d5-bf43-4968-9ac4-e94b20a9e6a1"},"vehicle_type_id":"4","last_reported":1724706434,"current_range_meters":20800,"station_id":"ce4bha92rcd13ifvqeg0","pricing_plan_id":"cebpf4jnsgd1na2vs0mg"},{"bike_id":"44c3659d-ad66-4da7-987f-6865b1fd452b","system_id":"levelo_inurba_marseille","lat":43.29419,"lon":5.3862,"is_reserved":false,"is_disabled":false,"rental_uris":{"android":"levelo://app?vid=44c3659d-ad66-4da7-987f-6865b1fd452b","ios":"levelo://app?vid=44c3659d-ad66-4da7-987f-6865b1fd452b"},"vehicle_type_id":"4","last_reported":1724706434,"current_range_meters":0,"station_id":"ce4bh2h2rcd13ifvqdh0","pricing_plan_id":"cebpf4jnsgd1na2vs0mg"},{"bike_id":"80c1c808-9755-410b-8d5e-fe308b480c5e","system_id":"levelo_inurba_marseille","lat":43.294153,"lon":5.386305,"is_reserved":false,"is_disabled":false,"rental_uris":{"android":"levelo://app?vid=80c1c808-9755-410b-8d5e-fe308b480c5e","ios":"levelo://app?vid=80c1c808-9755-410b-8d5e-fe308b480c5e"},"vehicle_type_id":"4","last_reported":1724706434,"current_range_meters":15600,"station_id":"ce4bh2h2rcd13ifvqdh0","pricing_plan_id":"cebpf4jnsgd1na2vs0mg"},{"bike_id":"5c10a1f8-77ea-4920-a941-590c314ae953","system_id":"levelo_inurba_marseille","lat":43.294162,"lon":5.386292,"is_reserved":false,"is_disabled":false,"rental_uris":{"android":"levelo://app?vid=5c10a1f8-77ea-4920-a941-590c314ae953","ios":"levelo://app?vid=5c10a1f8-77ea-4920-a941-590c314ae953"},"vehicle_type_id":"4","last_reported":1724706434,"current_range_meters":0,"station_id":"ce4bh2h2rcd13ifvqdh0","pricing_plan_id":"cebpf4jnsgd1na2vs0mg"},{"bike_id":"7c8609ba-f14e-4846-9f0b-66cdfa4d4ea0","system_id":"levelo_inurba_marseille","lat":43.29417,"lon":5.38623,"is_reserved":false,"is_disabled":false,"rental_uris":{"android":"levelo://app?vid=7c8609ba-f14e-4846-9f0b-66cdfa4d4ea0","ios":"levelo://app?vid=7c8609ba-f14e-4846-9f0b-66cdfa4d4ea0"},"vehicle_type_id":"4","last_reported":1724706434,"current_range_meters":0,"station_id":"ce4bh2h2rcd13ifvqdh0","pricing_plan_id":"cebpf4jnsgd1na2vs0mg"},{"bike_id":"db6cd00e-0228-464a-9079-c6362fb9cfd6","system_id":"levelo_inurba_marseille","lat":43.294153,"lon":5.386305,"is_reserved":false,"is_disabled":false,"rental_uris":{"android":"levelo://app?vid=db6cd00e-0228-464a-9079-c6362fb9cfd6","ios":"levelo://app?vid=db6cd00e-0228-464a-9079-c6362fb9cfd6"},"vehicle_type_id":"4","last_reported":1724706434,"current_range_meters":0,"station_id":"ce4bh2h2rcd13ifvqdh0","pricing_plan_id":"cebpf4jnsgd1na2vs0mg"},{"bike_id":"f215c349-8bcd-467d-abbe-1b1c7be5cddb","system_id":"levelo_inurba_marseille","lat":43.29418,"lon":5.38629,"is_reserved":false,"is_disabled":false,"rental_uris":{"android":"levelo://app?vid=f215c349-8bcd-467d-abbe-1b1c7be5cddb","ios":"levelo://app?vid=f215c349-8bcd-467d-abbe-1b1c7be5cddb"},"vehicle_type_id":"4","last_reported":1724706434,"current_range_meters":0,"station_id":"ce4bh2h2rcd13ifvqdh0","pricing_plan_id":"cebpf4jnsgd1na2vs0mg"},{"bike_id":"6a68afed-3ca1-4737-885e-9d413995a800","system_id":"levelo_inurba_marseille","lat":43.294162,"lon":5.386292,"is_reserved":false,"is_disabled":false,"rental_uris":{"android":"levelo://app?vid=6a68afed-3ca1-4737-885e-9d413995a800","ios":"levelo://app?vid=6a68afed-3ca1-4737-885e-9d413995a800"},"vehicle_type_id":"4","last_reported":1724706434,"current_range_meters":0,"station_id":"ce4bh2h2rcd13ifvqdh0","pricing_plan_id":"cebpf4jnsgd1na2vs0mg"},{"bike_id":"b86993fa-468e-4d85-a16c-ab27bea38d58","system_id":"levelo_inurba_marseille","lat":43.29413,"lon":5.38621,"is_reserved":false,"is_disabled":false,"rental_uris":{"android":"levelo://app?vid=b86993fa-468e-4d85-a16c-ab27bea38d58","ios":"levelo://app?vid=b86993fa-468e-4d85-a16c-ab27bea38d58"},"vehicle_type_id":"4","last_reported":1724706434,"current_range_meters":0,"station_id":"ce4bh2h2rcd13ifvqdh0","pricing_plan_id":"cebpf4jnsgd1na2vs0mg"},{"bike_id":"4aa6605a-b514-49a7-9ce6-cb8df17d91a7","system_id":"levelo_inurba_marseille","lat":43.29412,"lon":5.38633,"is_reserved":false,"is_disabled":false,"rental_uris":{"android":"levelo://app?vid=4aa6605a-b514-49a7-9ce6-cb8df17d91a7","ios":"levelo://app?vid=4aa6605a-b514-49a7-9ce6-cb8df17d91a7"},"vehicle_type_id":"4","last_reported":1724706434,"current_range_meters":0,"station_id":"ce4bh2h2rcd13ifvqdh0","pricing_plan_id":"cebpf4jnsgd1na2vs0mg"},{"bike_id":"2ad660a3-1b8e-479f-96ea-08632c050289","system_id":"levelo_inurba_marseille","lat":43.28936,"lon":5.36638,"is_reserved":false,"is_disabled":false,"rental_uris":{"android":"levelo://app?vid=2ad660a3-1b8e-479f-96ea-08632c050289","ios":"levelo://app?vid=2ad660a3-1b8e-479f-96ea-08632c050289"},"vehicle_type_id":"4","last_reported":1724706434,"current_range_meters":0,"station_id":"ce4bhap2rcd13ifvqek0","pricing_plan_id":"cebpf4jnsgd1na2vs0mg"},{"bike_id":"29351a5c-a357-49ca-abd8-b8242fdef868","system_id":"levelo_inurba_marseille","lat":43.289184,"lon":5.366408,"is_reserved":false,"is_disabled":false,"rental_uris":{"android":"levelo://app?vid=29351a5c-a357-49ca-abd8-b8242fdef868","ios":"levelo://app?vid=29351a5c-a357-49ca-abd8-b8242fdef868"},"vehicle_type_id":"4","last_reported":1724706434,"current_range_meters":1600,"station_id":"ce4bhap2rcd13ifvqek0","pricing_plan_id":"cebpf4jnsgd1na2vs0mg"},{"bike_id":"ee57f0e8-bff2-4316-9a01-93250effc6f2","system_id":"levelo_inurba_marseille","lat":43.28929,"lon":5.36639,"is_reserved":false,"is_disabled":false,"rental_uris":{"android":"levelo://app?vid=ee57f0e8-bff2-4316-9a01-93250effc6f2","ios":"levelo://app?vid=ee57f0e8-bff2-4316-9a01-93250effc6f2"},"vehicle_type_id":"4","last_reported":1724706434,"current_range_meters":0,"station_id":"ce4bhap2rcd13ifvqek0","pricing_plan_id":"cebpf4jnsgd1na2vs0mg"},{"bike_id":"0c597a14-9b25-4760-b546-31724ff18c06","system_id":"levelo_inurba_marseille","lat":43.289364,"lon":5.363881,"is_reserved":false,"is_disabled":false,"rental_uris":{"android":"levelo://app?vid=0c597a14-9b25-4760-b546-31724ff18c06","ios":"levelo://app?vid=0c597a14-9b25-4760-b546-31724ff18c06"},"vehicle_type_id":"4","last_reported":1724706434,"current_range_meters":31200,"station_id":"ce4bhc92rcd13ifvqetg","pricing_plan_id":"cebpf4jnsgd1na2vs0mg"},{"bike_id":"653d2731-b89f-4319-926c-7e57bd4329f8","system_id":"levelo_inurba_marseille","lat":43.289326,"lon":5.363927,"is_reserved":false,"is_disabled":false,"rental_uris":{"android":"levelo://app?vid=653d2731-b89f-4319-926c-7e57bd4329f8","ios":"levelo://app?vid=653d2731-b89f-4319-926c-7e57bd4329f8"},"vehicle_type_id":"4","last_reported":1724706434,"current_range_meters":31200,"station_id":"ce4bhc92rcd13ifvqetg","pricing_plan_id":"cebpf4jnsgd1na2vs0mg"},{"bike_id":"831372ec-ff2d-456e-a4ef-e445c29228c6","system_id":"levelo_inurba_marseille","lat":43.289468,"lon":5.363719,"is_reserved":false,"is_disabled":false,"rental_uris":{"android":"levelo://app?vid=831372ec-ff2d-456e-a4ef-e445c29228c6","ios":"levelo://app?vid=831372ec-ff2d-456e-a4ef-e445c29228c6"},"vehicle_type_id":"4","last_reported":1724706434,"current_range_meters":26800,"station_id":"ce4bhc92rcd13ifvqetg","pricing_plan_id":"cebpf4jnsgd1na2vs0mg"},{"bike_id":"366fbfcc-f32f-45fe-86b1-9e6f4fb83be0","system_id":"levelo_inurba_marseille","lat":43.289468,"lon":5.363719,"is_reserved":false,"is_disabled":false,"rental_uris":{"android":"levelo://app?vid=366fbfcc-f32f-45fe-86b1-9e6f4fb83be0","ios":"levelo://app?vid=366fbfcc-f32f-45fe-86b1-9e6f4fb83be0"},"vehicle_type_id":"4","last_reported":1724706434,"current_range_meters":17600,"station_id":"ce4bhc92rcd13ifvqetg","pricing_plan_id":"cebpf4jnsgd1na2vs0mg"},{"bike_id":"b3535125-53c7-426d-a921-92d14d90ae53","system_id":"levelo_inurba_marseille","lat":43.304274,"lon":5.397513,"is_reserved":false,"is_disabled":false,"rental_uris":{"android":"levelo://app?vid=b3535125-53c7-426d-a921-92d14d90ae53","ios":"levelo://app?vid=b3535125-53c7-426d-a921-92d14d90ae53"},"vehicle_type_id":"4","last_reported":1724706434,"current_range_meters":400,"station_id":"ce4bh092rcd13ifvqd20","pricing_plan_id":"cebpf4jnsgd1na2vs0mg"},{"bike_id":"135026c6-3398-425d-895c-620c2fb459ca","system_id":"levelo_inurba_marseille","lat":43.304296,"lon":5.397513,"is_reserved":false,"is_disabled":false,"rental_uris":{"android":"levelo://app?vid=135026c6-3398-425d-895c-620c2fb459ca","ios":"levelo://app?vid=135026c6-3398-425d-895c-620c2fb459ca"},"vehicle_type_id":"4","last_reported":1724706434,"current_range_meters":28000,"station_id":"ce4bh092rcd13ifvqd20","pricing_plan_id":"cebpf4jnsgd1na2vs0mg"},{"bike_id":"6731c1b6-1cef-4888-9cd3-fcb1f14bcbfd","system_id":"levelo_inurba_marseille","lat":43.29263,"lon":5.38451,"is_reserved":false,"is_disabled":false,"rental_uris":{"android":"levelo://app?vid=6731c1b6-1cef-4888-9cd3-fcb1f14bcbfd","ios":"levelo://app?vid=6731c1b6-1cef-4888-9cd3-fcb1f14bcbfd"},"vehicle_type_id":"4","last_reported":1724706434,"current_range_meters":30800,"station_id":"ce4bh692rcd13ifvqea0","pricing_plan_id":"cebpf4jnsgd1na2vs0mg"},{"bike_id":"77334c24-5e69-42a1-bbf8-4c2b0b4918ca","system_id":"levelo_inurba_marseille","lat":43.292563,"lon":5.38447,"is_reserved":false,"is_disabled":false,"rental_uris":{"android":"levelo://app?vid=77334c24-5e69-42a1-bbf8-4c2b0b4918ca","ios":"levelo://app?vid=77334c24-5e69-42a1-bbf8-4c2b0b4918ca"},"vehicle_type_id":"4","last_reported":1724706434,"current_range_meters":0,"station_id":"ce4bh692rcd13ifvqea0","pricing_plan_id":"cebpf4jnsgd1na2vs0mg"},{"bike_id":"57541b4a-325d-4621-9b0d-44a4567d7e12","system_id":"levelo_inurba_marseille","lat":43.286961,"lon":5.373785,"is_reserved":false,"is_disabled":false,"rental_uris":{"android":"levelo://app?vid=57541b4a-325d-4621-9b0d-44a4567d7e12","ios":"levelo://app?vid=57541b4a-325d-4621-9b0d-44a4567d7e12"},"vehicle_type_id":"4","last_reported":1724706434,"current_range_meters":9600,"station_id":"ce4bh3p2rcd13ifvqdq0","pricing_plan_id":"cebpf4jnsgd1na2vs0mg"},{"bike_id":"9b994865-6346-4bbf-884a-dff8f134134e","system_id":"levelo_inurba_marseille","lat":43.29247,"lon":5.38449,"is_reserved":false,"is_disabled":false,"rental_uris":{"android":"levelo://app?vid=9b994865-6346-4bbf-884a-dff8f134134e","ios":"levelo://app?vid=9b994865-6346-4bbf-884a-dff8f134134e"},"vehicle_type_id":"4","last_reported":1724706434,"current_range_meters":0,"station_id":"ce4bh692rcd13ifvqea0","pricing_plan_id":"cebpf4jnsgd1na2vs0mg"},{"bike_id":"4e64957c-b156-4dd2-92fc-5d52b009a87c","system_id":"levelo_inurba_marseille","lat":43.29245,"lon":5.38448,"is_reserved":false,"is_disabled":false,"rental_uris":{"android":"levelo://app?vid=4e64957c-b156-4dd2-92fc-5d52b009a87c","ios":"levelo://app?vid=4e64957c-b156-4dd2-92fc-5d52b009a87c"},"vehicle_type_id":"4","last_reported":1724706434,"current_range_meters":0,"station_id":"ce4bh692rcd13ifvqea0","pricing_plan_id":"cebpf4jnsgd1na2vs0mg"},{"bike_id":"6d314bdc-b32a-45c2-b25d-9b57c713d282","system_id":"levelo_inurba_marseille","lat":43.290104,"lon":5.356111,"is_reserved":false,"is_disabled":false,"rental_uris":{"android":"levelo://app?vid=6d314bdc-b32a-45c2-b25d-9b57c713d282","ios":"levelo://app?vid=6d314bdc-b32a-45c2-b25d-9b57c713d282"},"vehicle_type_id":"4","last_reported":1724706434,"current_range_meters":6400,"station_id":"ce4bhb92rcd13ifvqen0","pricing_plan_id":"cebpf4jnsgd1na2vs0mg"},{"bike_id":"adf8aa61-9c80-4d4f-8a3c-4b3c7d6677af","system_id":"levelo_inurba_marseille","lat":43.290104,"lon":5.356111,"is_reserved":false,"is_disabled":false,"rental_uris":{"android":"levelo://app?vid=adf8aa61-9c80-4d4f-8a3c-4b3c7d6677af","ios":"levelo://app?vid=adf8aa61-9c80-4d4f-8a3c-4b3c7d6677af"},"vehicle_type_id":"4","last_reported":1724706434,"current_range_meters":31200,"station_id":"ce4bhb92rcd13ifvqen0","pricing_plan_id":"cebpf4jnsgd1na2vs0mg"},{"bike_id":"0ce03ae1-f9eb-4123-a11d-81518d5da1b5","system_id":"levelo_inurba_marseille","lat":43.28991,"lon":5.37825,"is_reserved":false,"is_disabled":false,"rental_uris":{"android":"levelo://app?vid=0ce03ae1-f9eb-4123-a11d-81518d5da1b5","ios":"levelo://app?vid=0ce03ae1-f9eb-4123-a11d-81518d5da1b5"},"vehicle_type_id":"4","last_reported":1724706434,"current_range_meters":30800,"station_id":"ce4bh9p2rcd13ifvqed0","pricing_plan_id":"cebpf4jnsgd1na2vs0mg"},{"bike_id":"d9d35e9f-1623-45c7-be51-4ae9218955f7","system_id":"levelo_inurba_marseille","lat":43.297807,"lon":5.393533,"is_reserved":false,"is_disabled":false,"rental_uris":{"android":"levelo://app?vid=d9d35e9f-1623-45c7-be51-4ae9218955f7","ios":"levelo://app?vid=d9d35e9f-1623-45c7-be51-4ae9218955f7"},"vehicle_type_id":"4","last_reported":1724706434,"current_range_meters":25200,"station_id":"chh1huq6cuj3fo74tm60","pricing_plan_id":"cebpf4jnsgd1na2vs0mg"},{"bike_id":"39f768d3-e508-4b0e-9db9-6106e4d4368d","system_id":"levelo_inurba_marseille","lat":43.330442,"lon":5.389148,"is_reserved":false,"is_disabled":false,"rental_uris":{"android":"levelo://app?vid=39f768d3-e508-4b0e-9db9-6106e4d4368d","ios":"levelo://app?vid=39f768d3-e508-4b0e-9db9-6106e4d4368d"},"vehicle_type_id":"4","last_reported":1724706434,"current_range_meters":8800,"station_id":"ce4bhr92rcd13ifvqhrg","pricing_plan_id":"cebpf4jnsgd1na2vs0mg"},{"bike_id":"00fd8c77-8882-4ec3-a9c3-cd8c85227734","system_id":"levelo_inurba_marseille","lat":43.297807,"lon":5.393533,"is_reserved":false,"is_disabled":false,"rental_uris":{"android":"levelo://app?vid=00fd8c77-8882-4ec3-a9c3-cd8c85227734","ios":"levelo://app?vid=00fd8c77-8882-4ec3-a9c3-cd8c85227734"},"vehicle_type_id":"4","last_reported":1724706434,"current_range_meters":11600,"station_id":"chh1huq6cuj3fo74tm60","pricing_plan_id":"cebpf4jnsgd1na2vs0mg"},{"bike_id":"e7478b5f-9ed1-43d6-a809-e5d47619f237","system_id":"levelo_inurba_marseille","lat":43.28979,"lon":5.3783,"is_reserved":false,"is_disabled":false,"rental_uris":{"android":"levelo://app?vid=e7478b5f-9ed1-43d6-a809-e5d47619f237","ios":"levelo://app?vid=e7478b5f-9ed1-43d6-a809-e5d47619f237"},"vehicle_type_id":"4","last_reported":1724706434,"current_range_meters":0,"station_id":"ce4bh9p2rcd13ifvqed0","pricing_plan_id":"cebpf4jnsgd1na2vs0mg"},{"bike_id":"0070ee8a-9b49-4e65-8035-66a51343a8fc","system_id":"levelo_inurba_marseille","lat":43.289741,"lon":5.378306,"is_reserved":false,"is_disabled":false,"rental_uris":{"android":"levelo://app?vid=0070ee8a-9b49-4e65-8035-66a51343a8fc","ios":"levelo://app?vid=0070ee8a-9b49-4e65-8035-66a51343a8fc"},"vehicle_type_id":"4","last_reported":1724706434,"current_range_meters":13600,"station_id":"ce4bh9p2rcd13ifvqed0","pricing_plan_id":"cebpf4jnsgd1na2vs0mg"},{"bike_id":"d5d44028-bc36-42d6-af8d-2a554650ed9c","system_id":"levelo_inurba_marseille","lat":43.297807,"lon":5.393533,"is_reserved":false,"is_disabled":false,"rental_uris":{"android":"levelo://app?vid=d5d44028-bc36-42d6-af8d-2a554650ed9c","ios":"levelo://app?vid=d5d44028-bc36-42d6-af8d-2a554650ed9c"},"vehicle_type_id":"4","last_reported":1724706434,"current_range_meters":22400,"station_id":"chh1huq6cuj3fo74tm60","pricing_plan_id":"cebpf4jnsgd1na2vs0mg"},{"bike_id":"ff5a67e8-7448-47ea-969a-7ee519525fa1","system_id":"levelo_inurba_marseille","lat":43.33024,"lon":5.39035,"is_reserved":false,"is_disabled":false,"rental_uris":{"android":"levelo://app?vid=ff5a67e8-7448-47ea-969a-7ee519525fa1","ios":"levelo://app?vid=ff5a67e8-7448-47ea-969a-7ee519525fa1"},"vehicle_type_id":"4","last_reported":1724706434,"current_range_meters":5200,"station_id":"ce4bhr92rcd13ifvqhrg","pricing_plan_id":"cebpf4jnsgd1na2vs0mg"},{"bike_id":"d74f8e03-6953-4ea3-bafd-ccae5b05d505","system_id":"levelo_inurba_marseille","lat":43.33026,"lon":5.39033,"is_reserved":false,"is_disabled":false,"rental_uris":{"android":"levelo://app?vid=d74f8e03-6953-4ea3-bafd-ccae5b05d505","ios":"levelo://app?vid=d74f8e03-6953-4ea3-bafd-ccae5b05d505"},"vehicle_type_id":"4","last_reported":1724706434,"current_range_meters":0,"station_id":"ce4bhr92rcd13ifvqhrg","pricing_plan_id":"cebpf4jnsgd1na2vs0mg"},{"bike_id":"d0983350-b54b-45b4-9b64-77d38941eeab","system_id":"levelo_inurba_marseille","lat":43.33025,"lon":5.39035,"is_reserved":false,"is_disabled":false,"rental_uris":{"android":"levelo://app?vid=d0983350-b54b-45b4-9b64-77d38941eeab","ios":"levelo://app?vid=d0983350-b54b-45b4-9b64-77d38941eeab"},"vehicle_type_id":"4","last_reported":1724706434,"current_range_meters":5200,"station_id":"ce4bhr92rcd13ifvqhrg","pricing_plan_id":"cebpf4jnsgd1na2vs0mg"},{"bike_id":"ab8ffa89-270e-42e0-8e0d-6c17f3118df1","system_id":"levelo_inurba_marseille","lat":43.330442,"lon":5.389148,"is_reserved":false,"is_disabled":false,"rental_uris":{"android":"levelo://app?vid=ab8ffa89-270e-42e0-8e0d-6c17f3118df1","ios":"levelo://app?vid=ab8ffa89-270e-42e0-8e0d-6c17f3118df1"},"vehicle_type_id":"4","last_reported":1724706434,"current_range_meters":20400,"station_id":"ce4bhr92rcd13ifvqhrg","pricing_plan_id":"cebpf4jnsgd1na2vs0mg"},{"bike_id":"a383fd46-9ea7-46c5-9f8e-bb16b7349e51","system_id":"levelo_inurba_marseille","lat":43.330442,"lon":5.389148,"is_reserved":false,"is_disabled":false,"rental_uris":{"android":"levelo://app?vid=a383fd46-9ea7-46c5-9f8e-bb16b7349e51","ios":"levelo://app?vid=a383fd46-9ea7-46c5-9f8e-bb16b7349e51"},"vehicle_type_id":"4","last_reported":1724706434,"current_range_meters":3600,"station_id":"ce4bhr92rcd13ifvqhrg","pricing_plan_id":"cebpf4jnsgd1na2vs0mg"},{"bike_id":"3924fcb7-954c-41e9-92ec-d106d32bea7c","system_id":"levelo_inurba_marseille","lat":43.330442,"lon":5.389148,"is_reserved":false,"is_disabled":false,"rental_uris":{"android":"levelo://app?vid=3924fcb7-954c-41e9-92ec-d106d32bea7c","ios":"levelo://app?vid=3924fcb7-954c-41e9-92ec-d106d32bea7c"},"vehicle_type_id":"4","last_reported":1724706434,"current_range_meters":6400,"station_id":"ce4bhr92rcd13ifvqhrg","pricing_plan_id":"cebpf4jnsgd1na2vs0mg"},{"bike_id":"1a7c37e6-55ea-4809-a9bb-bbd0d34a1655","system_id":"levelo_inurba_marseille","lat":43.33022,"lon":5.39046,"is_reserved":false,"is_disabled":false,"rental_uris":{"android":"levelo://app?vid=1a7c37e6-55ea-4809-a9bb-bbd0d34a1655","ios":"levelo://app?vid=1a7c37e6-55ea-4809-a9bb-bbd0d34a1655"},"vehicle_type_id":"4","last_reported":1724706434,"current_range_meters":1600,"station_id":"ce4bhr92rcd13ifvqhrg","pricing_plan_id":"cebpf4jnsgd1na2vs0mg"},{"bike_id":"0c6aa4c4-aa64-4f7c-bc59-9a58750f8af4","system_id":"levelo_inurba_marseille","lat":43.330442,"lon":5.389148,"is_reserved":false,"is_disabled":false,"rental_uris":{"android":"levelo://app?vid=0c6aa4c4-aa64-4f7c-bc59-9a58750f8af4","ios":"levelo://app?vid=0c6aa4c4-aa64-4f7c-bc59-9a58750f8af4"},"vehicle_type_id":"4","last_reported":1724706434,"current_range_meters":29200,"station_id":"ce4bhr92rcd13ifvqhrg","pricing_plan_id":"cebpf4jnsgd1na2vs0mg"},{"bike_id":"23d464ef-a6c0-4cec-a514-3ecbf738b4de","system_id":"levelo_inurba_marseille","lat":43.33025,"lon":5.39045,"is_reserved":false,"is_disabled":false,"rental_uris":{"android":"levelo://app?vid=23d464ef-a6c0-4cec-a514-3ecbf738b4de","ios":"levelo://app?vid=23d464ef-a6c0-4cec-a514-3ecbf738b4de"},"vehicle_type_id":"4","last_reported":1724706434,"current_range_meters":8000,"station_id":"ce4bhr92rcd13ifvqhrg","pricing_plan_id":"cebpf4jnsgd1na2vs0mg"},{"bike_id":"c4a234aa-0fbd-4a52-a8a8-42fc0cd14d48","system_id":"levelo_inurba_marseille","lat":43.33025,"lon":5.39045,"is_reserved":false,"is_disabled":false,"rental_uris":{"android":"levelo://app?vid=c4a234aa-0fbd-4a52-a8a8-42fc0cd14d48","ios":"levelo://app?vid=c4a234aa-0fbd-4a52-a8a8-42fc0cd14d48"},"vehicle_type_id":"4","last_reported":1724706434,"current_range_meters":14000,"station_id":"ce4bhr92rcd13ifvqhrg","pricing_plan_id":"cebpf4jnsgd1na2vs0mg"},{"bike_id":"5d087e74-ff82-46ff-a816-e406a8f4c9c9","system_id":"levelo_inurba_marseille","lat":43.295136,"lon":5.39039,"is_reserved":false,"is_disabled":false,"rental_uris":{"android":"levelo://app?vid=5d087e74-ff82-46ff-a816-e406a8f4c9c9","ios":"levelo://app?vid=5d087e74-ff82-46ff-a816-e406a8f4c9c9"},"vehicle_type_id":"4","last_reported":1724706434,"current_range_meters":0,"station_id":"ce4bh3p2rcd13ifvqdp0","pricing_plan_id":"cebpf4jnsgd1na2vs0mg"},{"bike_id":"9dca6815-85bc-4f47-b6cc-aae7c6b35aba","system_id":"levelo_inurba_marseille","lat":43.28966,"lon":5.37839,"is_reserved":false,"is_disabled":false,"rental_uris":{"android":"levelo://app?vid=9dca6815-85bc-4f47-b6cc-aae7c6b35aba","ios":"levelo://app?vid=9dca6815-85bc-4f47-b6cc-aae7c6b35aba"},"vehicle_type_id":"4","last_reported":1724706434,"current_range_meters":0,"station_id":"ce4bh9p2rcd13ifvqed0","pricing_plan_id":"cebpf4jnsgd1na2vs0mg"},{"bike_id":"4041d0c8-646a-40e2-afdd-0b7366003385","system_id":"levelo_inurba_marseille","lat":43.29514,"lon":5.39051,"is_reserved":false,"is_disabled":false,"rental_uris":{"android":"levelo://app?vid=4041d0c8-646a-40e2-afdd-0b7366003385","ios":"levelo://app?vid=4041d0c8-646a-40e2-afdd-0b7366003385"},"vehicle_type_id":"4","last_reported":1724706434,"current_range_meters":23600,"station_id":"ce4bh3p2rcd13ifvqdp0","pricing_plan_id":"cebpf4jnsgd1na2vs0mg"},{"bike_id":"0fc1b7cd-df07-4d4e-b66f-d43a3aface17","system_id":"levelo_inurba_marseille","lat":43.28856,"lon":5.358371,"is_reserved":false,"is_disabled":false,"rental_uris":{"android":"levelo://app?vid=0fc1b7cd-df07-4d4e-b66f-d43a3aface17","ios":"levelo://app?vid=0fc1b7cd-df07-4d4e-b66f-d43a3aface17"},"vehicle_type_id":"4","last_reported":1724706434,"current_range_meters":800,"station_id":"ce4bhb12rcd13ifvqem0","pricing_plan_id":"cebpf4jnsgd1na2vs0mg"},{"bike_id":"06824f7c-5af0-46e9-89a2-574105534a47","system_id":"levelo_inurba_marseille","lat":43.28856,"lon":5.358371,"is_reserved":false,"is_disabled":false,"rental_uris":{"android":"levelo://app?vid=06824f7c-5af0-46e9-89a2-574105534a47","ios":"levelo://app?vid=06824f7c-5af0-46e9-89a2-574105534a47"},"vehicle_type_id":"4","last_reported":1724706434,"current_range_meters":0,"station_id":"ce4bhb12rcd13ifvqem0","pricing_plan_id":"cebpf4jnsgd1na2vs0mg"},{"bike_id":"57403d4f-fc44-48d6-bc97-0dfc38a65fa2","system_id":"levelo_inurba_marseille","lat":43.337398,"lon":5.374574,"is_reserved":false,"is_disabled":false,"rental_uris":{"android":"levelo://app?vid=57403d4f-fc44-48d6-bc97-0dfc38a65fa2","ios":"levelo://app?vid=57403d4f-fc44-48d6-bc97-0dfc38a65fa2"},"vehicle_type_id":"4","last_reported":1724706434,"current_range_meters":26800,"station_id":"","pricing_plan_id":"cebpf4jnsgd1na2vs0mg"},{"bike_id":"89998154-cb20-46bc-af85-09bea7461b44","system_id":"levelo_inurba_marseille","lat":43.312609,"lon":5.401662,"is_reserved":false,"is_disabled":false,"rental_uris":{"android":"levelo://app?vid=89998154-cb20-46bc-af85-09bea7461b44","ios":"levelo://app?vid=89998154-cb20-46bc-af85-09bea7461b44"},"vehicle_type_id":"4","last_reported":1724706434,"current_range_meters":24400,"station_id":"ce4bh092rcd13ifvqd30","pricing_plan_id":"cebpf4jnsgd1na2vs0mg"},{"bike_id":"ef6d66ec-9d9d-48ee-8119-3cad19dd0db2","system_id":"levelo_inurba_marseille","lat":43.312609,"lon":5.401662,"is_reserved":false,"is_disabled":false,"rental_uris":{"android":"levelo://app?vid=ef6d66ec-9d9d-48ee-8119-3cad19dd0db2","ios":"levelo://app?vid=ef6d66ec-9d9d-48ee-8119-3cad19dd0db2"},"vehicle_type_id":"4","last_reported":1724706434,"current_range_meters":22800,"station_id":"ce4bh092rcd13ifvqd30","pricing_plan_id":"cebpf4jnsgd1na2vs0mg"},{"bike_id":"41870288-0a40-45c0-8770-d9f828436cd8","system_id":"levelo_inurba_marseille","lat":43.312609,"lon":5.401662,"is_reserved":false,"is_disabled":false,"rental_uris":{"android":"levelo://app?vid=41870288-0a40-45c0-8770-d9f828436cd8","ios":"levelo://app?vid=41870288-0a40-45c0-8770-d9f828436cd8"},"vehicle_type_id":"4","last_reported":1724706434,"current_range_meters":31200,"station_id":"ce4bh092rcd13ifvqd30","pricing_plan_id":"cebpf4jnsgd1na2vs0mg"},{"bike_id":"9fc5e490-2b96-45f4-b7b7-19bd82c7eb7c","system_id":"levelo_inurba_marseille","lat":43.312609,"lon":5.401662,"is_reserved":false,"is_disabled":false,"rental_uris":{"android":"levelo://app?vid=9fc5e490-2b96-45f4-b7b7-19bd82c7eb7c","ios":"levelo://app?vid=9fc5e490-2b96-45f4-b7b7-19bd82c7eb7c"},"vehicle_type_id":"4","last_reported":1724706434,"current_range_meters":22000,"station_id":"ce4bh092rcd13ifvqd30","pricing_plan_id":"cebpf4jnsgd1na2vs0mg"},{"bike_id":"54c23e3c-5e77-4895-9624-8c8f00353526","system_id":"levelo_inurba_marseille","lat":43.309371,"lon":5.401449,"is_reserved":false,"is_disabled":false,"rental_uris":{"android":"levelo://app?vid=54c23e3c-5e77-4895-9624-8c8f00353526","ios":"levelo://app?vid=54c23e3c-5e77-4895-9624-8c8f00353526"},"vehicle_type_id":"4","last_reported":1724706434,"current_range_meters":21200,"station_id":"ce4bgvp2rcd13ifvqct0","pricing_plan_id":"cebpf4jnsgd1na2vs0mg"},{"bike_id":"d0092788-0ffa-4a5b-9829-3ac2d3a41cc0","system_id":"levelo_inurba_marseille","lat":43.312609,"lon":5.401662,"is_reserved":false,"is_disabled":false,"rental_uris":{"android":"levelo://app?vid=d0092788-0ffa-4a5b-9829-3ac2d3a41cc0","ios":"levelo://app?vid=d0092788-0ffa-4a5b-9829-3ac2d3a41cc0"},"vehicle_type_id":"4","last_reported":1724706434,"current_range_meters":6000,"station_id":"ce4bh092rcd13ifvqd30","pricing_plan_id":"cebpf4jnsgd1na2vs0mg"},