{"last_updated":1707426360,"ttl":30,"version":"2.2","data":{"bikes":[{"bike_id":"938c5698-962c-4bcd-881a-ea5e105010e7","system_id":"levelo_inurba_marseille","lat":43.312239,"lon":5.368562,"is_reserved":false,"is_disabled":false,"rental_uris":{"android":"levelo://app?vid=938c5698-962c-4bcd-881a-ea5e105010e7","ios":"levelo://app?vid=938c5698-962c-4bcd-881a-ea5e105010e7"},"vehicle_type_id":"4","last_reported":1707426360,"current_range_meters":12800,"station_id":"ce4bgl92rcd13ifvqbq0","pricing_plan_id":"free"},{"bike_id":"483e00e0-e9af-44b6-80c2-23b653fd094b","system_id":"levelo_inurba_marseille","lat":43.312239,"lon":5.368562,"is_reserved":false,"is_disabled":false,"rental_uris":{"android":"levelo://app?vid=483e00e0-e9af-44b6-80c2-23b653fd094b","ios":"levelo://app?vid=483e00e0-e9af-44b6-80c2-23b653fd094b"},"vehicle_type_id":"4","last_reported":1707426360,"current_range_meters":3200,"station_id":"ce4bgl92rcd13ifvqbq0","pricing_plan_id":"free"},{"bike_id":"0b065b4c-65d8-4c4f-82dc-58cc56d3ece9","system_id":"levelo_inurba_marseille","lat":43.312239,"lon":5.368562,"is_reserved":false,"is_disabled":false,"rental_uris":{"android":"levelo://app?vid=0b065b4c-65d8-4c4f-82dc-58cc56d3ece9","ios":"levelo://app?vid=0b065b4c-65d8-4c4f-82dc-58cc56d3ece9"},"vehicle_type_id":"4","last_reported":1707426360,"current_range_meters":16400,"station_id":"ce4bgl92rcd13ifvqbq0","pricing_plan_id":"free"},{"bike_id":"d8fe3eed-4d24-4b2f-976c-b27a247a9801","system_id":"levelo_inurba_marseille","lat":43.314811,"lon":5.373104,"is_reserved":false,"is_disabled":false,"rental_uris":{"android":"levelo://app?vid=d8fe3eed-4d24-4b2f-976c-b27a247a9801","ios":"levelo://app?vid=d8fe3eed-4d24-4b2f-976c-b27a247a9801"},"vehicle_type_id":"4","last_reported":1707426360,"current_range_meters":20400,"station_id":"ce4bgt12rcd13ifvqcd0","pricing_plan_id":"free"},{"bike_id":"d2247550-82c8-429f-84c2-7eb2fbe37225","system_id":"levelo_inurba_marseille","lat":43.314811,"lon":5.373103,"is_reserved":false,"is_disabled":false,"rental_uris":{"android":"levelo://app?vid=d2247550-82c8-429f-84c2-7eb2fbe37225","ios":"levelo://app?vid=d2247550-82c8-429f-84c2-7eb2fbe37225"},"vehicle_type_id":"4","last_reported":1707426360,"current_range_meters":21600,"station_id":"ce4bgt12rcd13ifvqcd0","pricing_plan_id":"free"},{"bike_id":"def42fee-e47c-406d-8311-4e2c72041abe","system_id":"levelo_inurba_marseille","lat":43.314811,"lon":5.373104,"is_reserved":false,"is_disabled":false,"rental_uris":{"android":"levelo://app?vid=def42fee-e47c-406d-8311-4e2c72041abe","ios":"levelo://app?vid=def42fee-e47c-406d-8311-4e2c72041abe"},"vehicle_type_id":"4","last_reported":1707426360,"current_range_meters":0,"station_id":"ce4bgt12rcd13ifvqcd0","pricing_plan_id":"free"},{"bike_id":"45b04b2c-ca14-42f6-99ef-d172c0eb5f46","system_id":"levelo_inurba_marseille","lat":43.314811,"lon":5.373104,"is_reserved":false,"is_disabled":false,"rental_uris":{"android":"levelo://app?vid=45b04b2c-ca14-42f6-99ef-d172c0eb5f46","ios":"levelo://app?vid=45b04b2c-ca14-42f6-99ef-d172c0eb5f46"},"vehicle_type_id":"4","last_reported":1707426360,"current_range_meters":16400,"station_id":"ce4bgt12rcd13ifvqcd0","pricing_plan_id":"free"},{"bike_id":"a59e4a29-8764-4217-9c8d-9c52d0b3b6a8","system_id":"levelo_inurba_marseille","lat":43.305368,"lon":5.367343,"is_reserved":false,"is_disabled":false,"rental_uris":{"android":"levelo://app?vid=a59e4a29-8764-4217-9c8d-9c52d0b3b6a8","ios":"levelo://app?vid=a59e4a29-8764-4217-9c8d-9c52d0b3b6a8"},"vehicle_type_id":"4","last_reported":1707426360,"current_range_meters":22400,"station_id":"ce4bgrp2rcd13ifvqc9g","pricing_plan_id":"free"},{"bike_id":"78218044-5143-4cc9-8e0d-fdebd6fa455a","system_id":"levelo_inurba_marseille","lat":43.311125,"lon":5.377624,"is_reserved":false,"is_disabled":false,"rental_uris":{"android":"levelo://app?vid=78218044-5143-4cc9-8e0d-fdebd6fa455a","ios":"levelo://app?vid=78218044-5143-4cc9-8e0d-fdebd6fa455a"},"vehicle_type_id":"4","last_reported":1707426360,"current_range_meters":9600,"station_id":"ce4bgt92rcd13ifvqcg0","pricing_plan_id":"free"},{"bike_id":"2c1c9b59-1c34-4d81-9838-5500df139b8f","system_id":"levelo_inurba_marseille","lat":43.305989,"lon":5.37225,"is_reserved":false,"is_disabled":false,"rental_uris":{"android":"levelo://app?vid=2c1c9b59-1c34-4d81-9838-5500df139b8f","ios":"levelo://app?vid=2c1c9b59-1c34-4d81-9838-5500df139b8f"},"vehicle_type_id":"4","last_reported":1707426360,"current_range_meters":16800,"station_id":"ce4bgqh2rcd13ifvqc4g","pricing_plan_id":"free"},{"bike_id":"c09e9b68-6d56-4e74-8f91-fd0a7e2c4439","system_id":"levelo_inurba_marseille","lat":43.305989,"lon":5.37225,"is_reserved":false,"is_disabled":false,"rental_uris":{"android":"levelo://app?vid=c09e9b68-6d56-4e74-8f91-fd0a7e2c4439","ios":"levelo://app?vid=c09e9b68-6d56-4e74-8f91-fd0a7e2c4439"},"vehicle_type_id":"4","last_reported":1707426360,"current_range_meters":2800,"station_id":"ce4bgqh2rcd13ifvqc4g","pricing_plan_id":"free"},{"bike_id":"b60d9eb2-6434-4a84-8fb6-1f1587a927a4","system_id":"levelo_inurba_marseille","lat":43.305989,"lon":5.37225,"is_reserved":false,"is_disabled":false,"rental_uris":{"android":"levelo://app?vid=b60d9eb2-6434-4a84-8fb6-1f1587a927a4","ios":"levelo://app?vid=b60d9eb2-6434-4a84-8fb6-1f1587a927a4"},"vehicle_type_id":"4","last_reported":1707426360,"current_range_meters":19200,"station_id":"ce4bgqh2rcd13ifvqc4g","pricing_plan_id":"free"},{"bike_id":"69b58cc3-725e-4d76-91ee-ab686a87310d","system_id":"levelo_inurba_marseille","lat":43.305989,"lon":5.37225,"is_reserved":false,"is_disabled":false,"rental_uris":{"android":"levelo://app?vid=69b58cc3-725e-4d76-91ee-ab686a87310d","ios":"levelo://app?vid=69b58cc3-725e-4d76-91ee-ab686a87310d"},"vehicle_type_id":"4","last_reported":1707426360,"current_range_meters":16400,"station_id":"ce4bgqh2rcd13ifvqc4g","pricing_plan_id":"free"},{"bike_id":"1aee753e-8cb9-4227-b4cd-3efa798feeb0","system_id":"levelo_inurba_marseille","lat":43.311125,"lon":5.377624,"is_reserved":false,"is_disabled":false,"rental_uris":{"android":"levelo://app?vid=1aee753e-8cb9-4227-b4cd-3efa798feeb0","ios":"levelo://app?vid=1aee753e-8cb9-4227-b4cd-3efa798feeb0"},"vehicle_type_id":"4","last_reported":1707426360,"current_range_meters":30000,"station_id":"ce4bgt92rcd13ifvqcg0","pricing_plan_id":"free"},{"bike_id":"1f54c61f-72d6-47e1-b1fd-1ace3ad847ec","system_id":"levelo_inurba_marseille","lat":43.307945,"lon":5.376487,"is_reserved":false,"is_disabled":false,"rental_uris":{"android":"levelo://app?vid=1f54c61f-72d6-47e1-b1fd-1ace3ad847ec","ios":"levelo://app?vid=1f54c61f-72d6-47e1-b1fd-1ace3ad847ec"},"vehicle_type_id":"4","last_reported":1707426360,"current_range_meters":27200,"station_id":"ce4bgv92rcd13ifvqcq0","pricing_plan_id":"free"},{"bike_id":"15bfd2d9-0096-4b16-ad85-f41d134bae80","system_id":"levelo_inurba_marseille","lat":43.317075,"lon":5.377367,"is_reserved":false,"is_disabled":false,"rental_uris":{"android":"levelo://app?vid=15bfd2d9-0096-4b16-ad85-f41d134bae80","ios":"levelo://app?vid=15bfd2d9-0096-4b16-ad85-f41d134bae80"},"vehicle_type_id":"4","last_reported":1707426360,"current_range_meters":11600,"station_id":"ce4bgth2rcd13ifvqch0","pricing_plan_id":"free"},{"bike_id":"57f9cdbd-7754-45df-bb45-79910aa8cc29","system_id":"levelo_inurba_marseille","lat":43.30524,"lon":5.37304,"is_reserved":false,"is_disabled":false,"rental_uris":{"android":"levelo://app?vid=57f9cdbd-7754-45df-bb45-79910aa8cc29","ios":"levelo://app?vid=57f9cdbd-7754-45df-bb45-79910aa8cc29"},"vehicle_type_id":"4","last_reported":1707426360,"current_range_meters":14000,"station_id":"","pricing_plan_id":"free"},{"bike_id":"7bba82ad-59fe-4131-ac89-5b7403a50767","system_id":"levelo_inurba_marseille","lat":43.317075,"lon":5.377367,"is_reserved":false,"is_disabled":false,"rental_uris":{"android":"levelo://app?vid=7bba82ad-59fe-4131-ac89-5b7403a50767","ios":"levelo://app?vid=7bba82ad-59fe-4131-ac89-5b7403a50767"},"vehicle_type_id":"4","last_reported":1707426360,"current_range_meters":15200,"station_id":"ce4bgth2rcd13ifvqch0","pricing_plan_id":"free"},{"bike_id":"b7c290e9-638d-49d8-9c9c-9f1196ec4e13","system_id":"levelo_inurba_marseille","lat":43.317085,"lon":5.377405,"is_reserved":false,"is_disabled":false,"rental_uris":{"android":"levelo://app?vid=b7c290e9-638d-49d8-9c9c-9f1196ec4e13","ios":"levelo://app?vid=b7c290e9-638d-49d8-9c9c-9f1196ec4e13"},"vehicle_type_id":"4","last_reported":1707426360,"current_range_meters":16000,"station_id":"ce4bgth2rcd13ifvqch0","pricing_plan_id":"free"},{"bike_id":"a3f63328-8a87-4f59-8eb4-64e49290aa8a","system_id":"levelo_inurba_marseille","lat":43.317075,"lon":5.377367,"is_reserved":false,"is_disabled":false,"rental_uris":{"android":"levelo://app?vid=a3f63328-8a87-4f59-8eb4-64e49290aa8a","ios":"levelo://app?vid=a3f63328-8a87-4f59-8eb4-64e49290aa8a"},"vehicle_type_id":"4","last_reported":1707426360,"current_range_meters":24000,"station_id":"ce4bgth2rcd13ifvqch0","pricing_plan_id":"free"},{"bike_id":"4994646f-aae7-40cd-84f1-75e4300a04eb","system_id":"levelo_inurba_marseille","lat":43.317003,"lon":5.377568,"is_reserved":false,"is_disabled":false,"rental_uris":{"android":"levelo://app?vid=4994646f-aae7-40cd-84f1-75e4300a04eb","ios":"levelo://app?vid=4994646f-aae7-40cd-84f1-75e4300a04eb"},"vehicle_type_id":"4","last_reported":1707426360,"current_range_meters":13200,"station_id":"ce4bgth2rcd13ifvqch0","pricing_plan_id":"free"},{"bike_id":"56c2e490-644d-488d-8cb9-2f17759567ec","system_id":"levelo_inurba_marseille","lat":43.309386,"lon":5.378193,"is_reserved":false,"is_disabled":false,"rental_uris":{"android":"levelo://app?vid=56c2e490-644d-488d-8cb9-2f17759567ec","ios":"levelo://app?vid=56c2e490-644d-488d-8cb9-2f17759567ec"},"vehicle_type_id":"4","last_reported":1707426360,"current_range_meters":13200,"station_id":"ce4bhqp2rcd13ifvqhog","pricing_plan_id":"free"},{"bike_id":"8d16053a-1622-4d24-b0d4-2613c4e81613","system_id":"levelo_inurba_marseille","lat":43.31476,"lon":5.38007,"is_reserved":false,"is_disabled":false,"rental_uris":{"android":"levelo://app?vid=8d16053a-1622-4d24-b0d4-2613c4e81613","ios":"levelo://app?vid=8d16053a-1622-4d24-b0d4-2613c4e81613"},"vehicle_type_id":"4","last_reported":1707426360,"current_range_meters":24000,"station_id":"","pricing_plan_id":"free"},{"bike_id":"99c1f12b-3b0a-4416-9f10-2e2544fd8f5d","system_id":"levelo_inurba_marseille","lat":43.303046,"lon":5.368981,"is_reserved":false,"is_disabled":false,"rental_uris":{"android":"levelo://app?vid=99c1f12b-3b0a-4416-9f10-2e2544fd8f5d","ios":"levelo://app?vid=99c1f12b-3b0a-4416-9f10-2e2544fd8f5d"},"vehicle_type_id":"4","last_reported":1707426360,"current_range_meters":1200,"station_id":"ce4bgqh2rcd13ifvqc5g","pricing_plan_id":"free"},{"bike_id":"7b6de86b-d0d4-4e3e-9589-996c5d266b74","system_id":"levelo_inurba_marseille","lat":43.30304,"lon":5.368987,"is_reserved":false,"is_disabled":false,"rental_uris":{"android":"levelo://app?vid=7b6de86b-d0d4-4e3e-9589-996c5d266b74","ios":"levelo://app?vid=7b6de86b-d0d4-4e3e-9589-996c5d266b74"},"vehicle_type_id":"4","last_reported":1707426360,"current_range_meters":11200,"station_id":"ce4bgqh2rcd13ifvqc5g","pricing_plan_id":"free"},{"bike_id":"36954da0-e004-4ed7-8c4e-d5e8350b6b3b","system_id":"levelo_inurba_marseille","lat":43.315293,"lon":5.380349,"is_reserved":false,"is_disabled":false,"rental_uris":{"android":"levelo://app?vid=36954da0-e004-4ed7-8c4e-d5e8350b6b3b","ios":"levelo://app?vid=36954da0-e004-4ed7-8c4e-d5e8350b6b3b"},"vehicle_type_id":"4","last_reported":1707426360,"current_range_meters":23200,"station_id":"ce4bhsp2rcd13ifvqi50","pricing_plan_id":"free"},{"bike_id":"a2ca8b13-a05f-414d-b3c4-b0b0df4c416d","system_id":"levelo_inurba_marseille","lat":43.315293,"lon":5.380349,"is_reserved":false,"is_disabled":false,"rental_uris":{"android":"levelo://app?vid=a2ca8b13-a05f-414d-b3c4-b0b0df4c416d","ios":"levelo://app?vid=a2ca8b13-a05f-414d-b3c4-b0b0df4c416d"},"vehicle_type_id":"4","last_reported":1707426360,"current_range_meters":20800,"station_id":"ce4bhsp2rcd13ifvqi50","pricing_plan_id":"free"},{"bike_id":"dca02982-a8ca-4f8f-99aa-c4c50c3dc6cf","system_id":"levelo_inurba_marseille","lat":43.32273,"lon":5.36961,"is_reserved":false,"is_disabled":false,"rental_uris":{"android":"levelo://app?vid=dca02982-a8ca-4f8f-99aa-c4c50c3dc6cf","ios":"levelo://app?vid=dca02982-a8ca-4f8f-99aa-c4c50c3dc6cf"},"vehicle_type_id":"4","last_reported":1707426360,"current_range_meters":28800,"station_id":"","pricing_plan_id":"free"},{"bike_id":"caae94e0-92b0-4fa4-91b9-a103f6da4e5a","system_id":"levelo_inurba_marseille","lat":43.301939,"lon":5.366286,"is_reserved":false,"is_disabled":false,"rental_uris":{"android":"levelo://app?vid=caae94e0-92b0-4fa4-91b9-a103f6da4e5a","ios":"levelo://app?vid=caae94e0-92b0-4fa4-91b9-a103f6da4e5a"},"vehicle_type_id":"4","last_reported":1707426360,"current_range_meters":25600,"station_id":"ce4bgrh2rcd13ifvqc8g","pricing_plan_id":"free"},{"bike_id":"e33016fe-a5d2-46b9-8dcc-0462b3bfcb06","system_id":"levelo_inurba_marseille","lat":43.301939,"lon":5.366286,"is_reserved":false,"is_disabled":false,"rental_uris":{"android":"levelo://app?vid=e33016fe-a5d2-46b9-8dcc-0462b3bfcb06","ios":"levelo://app?vid=e33016fe-a5d2-46b9-8dcc-0462b3bfcb06"},"vehicle_type_id":"4","last_reported":1707426360,"current_range_meters":22400,"station_id":"ce4bgrh2rcd13ifvqc8g","pricing_plan_id":"free"},{"bike_id":"12e7ce4e-2648-40c4-8138-ca47c88fd4fa","system_id":"levelo_inurba_marseille","lat":43.308012,"lon":5.381511,"is_reserved":false,"is_disabled":false,"rental_uris":{"android":"levelo://app?vid=12e7ce4e-2648-40c4-8138-ca47c88fd4fa","ios":"levelo://app?vid=12e7ce4e-2648-40c4-8138-ca47c88fd4fa"},"vehicle_type_id":"4","last_reported":1707426360,"current_range_meters":0,"station_id":"ce4bgt12rcd13ifvqce0","pricing_plan_id":"free"},{"bike_id":"fb9f8d5b-d296-4a98-b844-5b9a6fdd48e3","system_id":"levelo_inurba_marseille","lat":43.308012,"lon":5.381511,"is_reserved":false,"is_disabled":false,"rental_uris":{"android":"levelo://app?vid=fb9f8d5b-d296-4a98-b844-5b9a6fdd48e3","ios":"levelo://app?vid=fb9f8d5b-d296-4a98-b844-5b9a6fdd48e3"},"vehicle_type_id":"4","last_reported":1707426360,"current_range_meters":9200,"station_id":"ce4bgt12rcd13ifvqce0","pricing_plan_id":"free"},{"bike_id":"ca6558b0-79ce-4fcf-a6b4-195d0c0d4a01","system_id":"levelo_inurba_marseille","lat":43.30459,"lon":5.37898,"is_reserved":false,"is_disabled":false,"rental_uris":{"android":"levelo://app?vid=ca6558b0-79ce-4fcf-a6b4-195d0c0d4a01","ios":"levelo://app?vid=ca6558b0-79ce-4fcf-a6b4-195d0c0d4a01"},"vehicle_type_id":"4","last_reported":1707426360,"current_range_meters":0,"station_id":"ce4bgup2rcd13ifvqcn0","pricing_plan_id":"free"},{"bike_id":"556e5bf7-0325-499b-90b6-dd351ce5b4da","system_id":"levelo_inurba_marseille","lat":43.304606,"lon":5.379026,"is_reserved":false,"is_disabled":false,"rental_uris":{"android":"levelo://app?vid=556e5bf7-0325-499b-90b6-dd351ce5b4da","ios":"levelo://app?vid=556e5bf7-0325-499b-90b6-dd351ce5b4da"},"vehicle_type_id":"4","last_reported":1707426360,"current_range_meters":12400,"station_id":"ce4bgup2rcd13ifvqcn0","pricing_plan_id":"free"},{"bike_id":"5e024f7e-336a-46ce-9198-a79c973a73ee","system_id":"levelo_inurba_marseille","lat":43.324771,"lon":5.36557,"is_reserved":false,"is_disabled":false,"rental_uris":{"android":"levelo://app?vid=5e024f7e-336a-46ce-9198-a79c973a73ee","ios":"levelo://app?vid=5e024f7e-336a-46ce-9198-a79c973a73ee"},"vehicle_type_id":"4","last_reported":1707426360,"current_range_meters":22800,"station_id":"ce4bhs12rcd13ifvqhvg","pricing_plan_id":"free"},{"bike_id":"97f71f75-d414-4d74-9636-20377fab8590","system_id":"levelo_inurba_marseille","lat":43.324771,"lon":5.36557,"is_reserved":false,"is_disabled":false,"rental_uris":{"android":"levelo://app?vid=97f71f75-d414-4d74-9636-20377fab8590","ios":"levelo://app?vid=97f71f75-d414-4d74-9636-20377fab8590"},"vehicle_type_id":"4","last_reported":1707426360,"current_range_meters":21600,"station_id":"ce4bhs12rcd13ifvqhvg","pricing_plan_id":"free"},{"bike_id":"5e3f4117-bf71-4295-8fac-b33a9c44e6b6","system_id":"levelo_inurba_marseille","lat":43.324771,"lon":5.36557,"is_reserved":false,"is_disabled":false,"rental_uris":{"android":"levelo://app?vid=5e3f4117-bf71-4295-8fac-b33a9c44e6b6","ios":"levelo://app?vid=5e3f4117-bf71-4295-8fac-b33a9c44e6b6"},"vehicle_type_id":"4","last_reported":1707426360,"current_range_meters":14400,"station_id":"ce4bhs12rcd13ifvqhvg","pricing_plan_id":"free"},{"bike_id":"8dcfabc7-efbb-482d-a35a-f5d5fec8c60d","system_id":"levelo_inurba_marseille","lat":43.32481,"lon":5.365596,"is_reserved":false,"is_disabled":false,"rental_uris":{"android":"levelo://app?vid=8dcfabc7-efbb-482d-a35a-f5d5fec8c60d","ios":"levelo://app?vid=8dcfabc7-efbb-482d-a35a-f5d5fec8c60d"},"vehicle_type_id":"4","last_reported":1707426360,"current_range_meters":16000,"station_id":"ce4bhs12rcd13ifvqhvg","pricing_plan_id":"free"},{"bike_id":"91c66a19-a3c7-49c3-af5d-2beaa8d69313","system_id":"levelo_inurba_marseille","lat":43.324829,"lon":5.365603,"is_reserved":false,"is_disabled":false,"rental_uris":{"android":"levelo://app?vid=91c66a19-a3c7-49c3-af5d-2beaa8d69313","ios":"levelo://app?vid=91c66a19-a3c7-49c3-af5d-2beaa8d69313"},"vehicle_type_id":"4","last_reported":1707426360,"current_range_meters":8400,"station_id":"ce4bhs12rcd13ifvqhvg","pricing_plan_id":"free"},{"bike_id":"95778230-221f-4436-a994-c6b5a8112c1a","system_id":"levelo_inurba_marseille","lat":43.302784,"lon":5.377158,"is_reserved":false,"is_disabled":false,"rental_uris":{"android":"levelo://app?vid=95778230-221f-4436-a994-c6b5a8112c1a","ios":"levelo://app?vid=95778230-221f-4436-a994-c6b5a8112c1a"},"vehicle_type_id":"4","last_reported":1707426360,"current_range_meters":3200,"station_id":"ce4bguh2rcd13ifvqcj0","pricing_plan_id":"free"},{"bike_id":"1b2db50b-af92-473b-a987-939df6fb199a","system_id":"levelo_inurba_marseille","lat":43.31998,"lon":5.381503,"is_reserved":false,"is_disabled":false,"rental_uris":{"android":"levelo://app?vid=1b2db50b-af92-473b-a987-939df6fb199a","ios":"levelo://app?vid=1b2db50b-af92-473b-a987-939df6fb199a"},"vehicle_type_id":"4","last_reported":1707426360,"current_range_meters":15200,"station_id":"ce4bhr12rcd13ifvqhpg","pricing_plan_id":"free"},{"bike_id":"197e2d22-1ad5-47b2-8c09-70933158ca5e","system_id":"levelo_inurba_marseille","lat":43.31998,"lon":5.38151,"is_reserved":false,"is_disabled":false,"rental_uris":{"android":"levelo://app?vid=197e2d22-1ad5-47b2-8c09-70933158ca5e","ios":"levelo://app?vid=197e2d22-1ad5-47b2-8c09-70933158ca5e"},"vehicle_type_id":"4","last_reported":1707426360,"current_range_meters":8000,"station_id":"ce4bhr12rcd13ifvqhpg","pricing_plan_id":"free"},{"bike_id":"52ce10df-218c-4855-ab5a-cd0f3cd6dffb","system_id":"levelo_inurba_marseille","lat":43.32,"lon":5.3815,"is_reserved":false,"is_disabled":false,"rental_uris":{"android":"levelo://app?vid=52ce10df-218c-4855-ab5a-cd0f3cd6dffb","ios":"levelo://app?vid=52ce10df-218c-4855-ab5a-cd0f3cd6dffb"},"vehicle_type_id":"4","last_reported":1707426360,"current_range_meters":13200,"station_id":"ce4bhr12rcd13ifvqhpg","pricing_plan_id":"free"},{"bike_id":"88d785ae-39c2-4d51-a65d-5351a1ab12b9","system_id":"levelo_inurba_marseille","lat":43.32003,"lon":5.38149,"is_reserved":false,"is_disabled":false,"rental_uris":{"android":"levelo://app?vid=88d785ae-39c2-4d51-a65d-5351a1ab12b9","ios":"levelo://app?vid=88d785ae-39c2-4d51-a65d-5351a1ab12b9"},"vehicle_type_id":"4","last_reported":1707426360,"current_range_meters":0,"station_id":"ce4bhr12rcd13ifvqhpg","pricing_plan_id":"free"},{"bike_id":"7e4fbd0c-593d-4fce-a0d8-40a20f202c96","system_id":"levelo_inurba_marseille","lat":43.319984,"lon":5.381539,"is_reserved":false,"is_disabled":false,"rental_uris":{"android":"levelo://app?vid=7e4fbd0c-593d-4fce-a0d8-40a20f202c96","ios":"levelo://app?vid=7e4fbd0c-593d-4fce-a0d8-40a20f202c96"},"vehicle_type_id":"4","last_reported":1707426360,"current_range_meters":27200,"station_id":"ce4bhr12rcd13ifvqhpg","pricing_plan_id":"free"},{"bike_id":"e4fe70e8-b126-4ab7-8e77-41d73c69158e","system_id":"levelo_inurba_marseille","lat":43.32003,"lon":5.38159,"is_reserved":false,"is_disabled":false,"rental_uris":{"android":"levelo://app?vid=e4fe70e8-b126-4ab7-8e77-41d73c69158e","ios":"levelo://app?vid=e4fe70e8-b126-4ab7-8e77-41d73c69158e"},"vehicle_type_id":"4","last_reported":1707426360,"current_range_meters":4800,"station_id":"ce4bhr12rcd13ifvqhpg","pricing_plan_id":"free"},{"bike_id":"4a9b4c12-3419-4a1e-bd30-fcdaca5c3cd4","system_id":"levelo_inurba_marseille","lat":43.31997,"lon":5.38168,"is_reserved":false,"is_disabled":false,"rental_uris":{"android":"levelo://app?vid=4a9b4c12-3419-4a1e-bd30-fcdaca5c3cd4","ios":"levelo://app?vid=4a9b4c12-3419-4a1e-bd30-fcdaca5c3cd4"},"vehicle_type_id":"4","last_reported":1707426360,"current_range_meters":6000,"station_id":"ce4bhr12rcd13ifvqhpg","pricing_plan_id":"free"},{"bike_id":"ff43e6a4-b0cc-4248-9085-55e6641d9e98","system_id":"levelo_inurba_marseille","lat":43.313638,"lon":5.384893,"is_reserved":false,"is_disabled":false,"rental_uris":{"android":"levelo://app?vid=ff43e6a4-b0cc-4248-9085-55e6641d9e98","ios":"levelo://app?vid=ff43e6a4-b0cc-4248-9085-55e6641d9e98"},"vehicle_type_id":"4","last_reported":1707426360,"current_range_meters":0,"station_id":"ce4bgt92rcd13ifvqcf0","pricing_plan_id":"free"},{"bike_id":"d1391e2f-df57-45e2-a090-ea1e4207f863","system_id":"levelo_inurba_marseille","lat":43.313571,"lon":5.384829,"is_reserved":false,"is_disabled":false,"rental_uris":{"android":"levelo://app?vid=d1391e2f-df57-45e2-a090-ea1e4207f863","ios":"levelo://app?vid=d1391e2f-df57-45e2-a090-ea1e4207f863"},"vehicle_type_id":"4","last_reported":1707426360,"current_range_meters":17600,"station_id":"ce4bgt92rcd13ifvqcf0","pricing_plan_id":"free"},{"bike_id":"5fa28617-f563-46be-ba66-2dea438057b1","system_id":"levelo_inurba_marseille","lat":43.31364,"lon":5.38492,"is_reserved":false,"is_disabled":false,"rental_uris":{"android":"levelo://app?vid=5fa28617-f563-46be-ba66-2dea438057b1","ios":"levelo://app?vid=5fa28617-f563-46be-ba66-2dea438057b1"},"vehicle_type_id":"4","last_reported":1707426360,"current_range_meters":0,"station_id":"ce4bgt92rcd13ifvqcf0","pricing_plan_id":"free"},{"bike_id":"7cafcc78-01f5-4282-8107-0b82975acc06","system_id":"levelo_inurba_marseille","lat":43.299724,"lon":5.371829,"is_reserved":false,"is_disabled":false,"rental_uris":{"android":"levelo://app?vid=7cafcc78-01f5-4282-8107-0b82975acc06","ios":"levelo://app?vid=7cafcc78-01f5-4282-8107-0b82975acc06"},"vehicle_type_id":"4","last_reported":1707426360,"current_range_meters":30400,"station_id":"ce4bgr92rcd13ifvqc7g","pricing_plan_id":"free"},{"bike_id":"595255af-2211-41d7-aa2d-43f1294db7c6","system_id":"levelo_inurba_marseille","lat":43.299724,"lon":5.371829,"is_reserved":false,"is_disabled":false,"rental_uris":{"android":"levelo://app?vid=595255af-2211-41d7-aa2d-43f1294db7c6","ios":"levelo://app?vid=595255af-2211-41d7-aa2d-43f1294db7c6"},"vehicle_type_id":"4","last_reported":1707426360,"current_range_meters":19200,"station_id":"ce4bgr92rcd13ifvqc7g","pricing_plan_id":"free"},{"bike_id":"60937ebf-3059-4843-b0eb-87453b3e8120","system_id":"levelo_inurba_marseille","lat":43.299724,"lon":5.371829,"is_reserved":false,"is_disabled":false,"rental_uris":{"android":"levelo://app?vid=60937ebf-3059-4843-b0eb-87453b3e8120","ios":"levelo://app?vid=60937ebf-3059-4843-b0eb-87453b3e8120"},"vehicle_type_id":"4","last_reported":1707426360,"current_range_meters":17600,"station_id":"ce4bgr92rcd13ifvqc7g","pricing_plan_id":"free"},{"bike_id":"b769c47e-71b9-4833-b503-1d5fd3607e00","system_id":"levelo_inurba_marseille","lat":43.30509,"lon":5.38275,"is_reserved":false,"is_disabled":false,"rental_uris":{"android":"levelo://app?vid=b769c47e-71b9-4833-b503-1d5fd3607e00","ios":"levelo://app?vid=b769c47e-71b9-4833-b503-1d5fd3607e00"},"vehicle_type_id":"4","last_reported":1707426360,"current_range_meters":12400,"station_id":"","pricing_plan_id":"free"},{"bike_id":"4debe574-c9d2-4f7b-a7d0-b55168f26cda","system_id":"levelo_inurba_marseille","lat":43.305364,"lon":5.384119,"is_reserved":false,"is_disabled":false,"rental_uris":{"android":"levelo://app?vid=4debe574-c9d2-4f7b-a7d0-b55168f26cda","ios":"levelo://app?vid=4debe574-c9d2-4f7b-a7d0-b55168f26cda"},"vehicle_type_id":"4","last_reported":1707426360,"current_range_meters":19600,"station_id":"ce4bgg92rcd13ifvqb30","pricing_plan_id":"free"},{"bike_id":"9d3a1de0-8c50-4dc1-addd-668de1df80dc","system_id":"levelo_inurba_marseille","lat":43.326525,"lon":5.36078,"is_reserved":false,"is_disabled":false,"rental_uris":{"android":"levelo://app?vid=9d3a1de0-8c50-4dc1-addd-668de1df80dc","ios":"levelo://app?vid=9d3a1de0-8c50-4dc1-addd-668de1df80dc"},"vehicle_type_id":"4","last_reported":1707426360,"current_range_meters":5600,"station_id":"","pricing_plan_id":"free"},{"bike_id":"78feab83-f5fd-4e6c-8dea-46e7e1c7966a","system_id":"levelo_inurba_marseille","lat":43.305364,"lon":5.384119,"is_reserved":false,"is_disabled":false,"rental_uris":{"android":"levelo://app?vid=78feab83-f5fd-4e6c-8dea-46e7e1c7966a","ios":"levelo://app?vid=78feab83-f5fd-4e6c-8dea-46e7e1c7966a"},"vehicle_type_id":"4","last_reported":1707426360,"current_range_meters":21200,"station_id":"ce4bgg92rcd13ifvqb30","pricing_plan_id":"free"},{"bike_id":"c3eaf76c-401c-4aa6-80ae-93fcea27db2a","system_id":"levelo_inurba_marseille","lat":43.305364,"lon":5.384119,"is_reserved":false,"is_disabled":false,"rental_uris":{"android":"levelo://app?vid=c3eaf76c-401c-4aa6-80ae-93fcea27db2a","ios":"levelo://app?vid=c3eaf76c-401c-4aa6-80ae-93fcea27db2a"},"vehicle_type_id":"4","last_reported":1707426360,"current_range_meters":19200,"station_id":"ce4bgg92rcd13ifvqb30","pricing_plan_id":"free"},{"bike_id":"c8bf2a7f-4634-472f-b62e-659cf78c7558","system_id":"levelo_inurba_marseille","lat":43.305364,"lon":5.384119,"is_reserved":false,"is_disabled":false,"rental_uris":{"android":"levelo://app?vid=c8bf2a7f-4634-472f-b62e-659cf78c7558","ios":"levelo://app?vid=c8bf2a7f-4634-472f-b62e-659cf78c7558"},"vehicle_type_id":"4","last_reported":1707426360,"current_range_meters":5600,"station_id":"ce4bgg92rcd13ifvqb30","pricing_plan_id":"free"},{"bike_id":"9d8331aa-265f-44b9-9080-c8b89a198c95","system_id":"levelo_inurba_marseille","lat":43.298433,"lon":5.362774,"is_reserved":false,"is_disabled":false,"rental_uris":{"android":"levelo://app?vid=9d8331aa-265f-44b9-9080-c8b89a198c95","ios":"levelo://app?vid=9d8331aa-265f-44b9-9080-c8b89a198c95"},"vehicle_type_id":"4","last_reported":1707426360,"current_range_meters":29600,"station_id":"ce4bgpp2rcd13ifvqc3g","pricing_plan_id":"free"},{"bike_id":"f6f2eb2d-da2a-4574-acc9-7218c4305e55","system_id":"levelo_inurba_marseille","lat":43.298433,"lon":5.362774,"is_reserved":false,"is_disabled":false,"rental_uris":{"android":"levelo://app?vid=f6f2eb2d-da2a-4574-acc9-7218c4305e55","ios":"levelo://app?vid=f6f2eb2d-da2a-4574-acc9-7218c4305e55"},"vehicle_type_id":"4","last_reported":1707426360,"current_range_meters":31200,"station_id":"ce4bgpp2rcd13ifvqc3g","pricing_plan_id":"free"},{"bike_id":"0e8305a5-7ed9-4e9f-a7dc-c616edaee596","system_id":"levelo_inurba_marseille","lat":43.298433,"lon":5.362774,"is_reserved":false,"is_disabled":false,"rental_uris":{"android":"levelo://app?vid=0e8305a5-7ed9-4e9f-a7dc-c616edaee596","ios":"levelo://app?vid=0e8305a5-7ed9-4e9f-a7dc-c616edaee596"},"vehicle_type_id":"4","last_reported":1707426360,"current_range_meters":29600,"station_id":"ce4bgpp2rcd13ifvqc3g","pricing_plan_id":"free"},{"bike_id":"ec462169-c6f4-4d79-9d4a-56a466ceff88","system_id":"levelo_inurba_marseille","lat":43.298433,"lon":5.362774,"is_reserved":false,"is_disabled":false,"rental_uris":{"android":"levelo://app?vid=ec462169-c6f4-4d79-9d4a-56a466ceff88","ios":"levelo://app?vid=ec462169-c6f4-4d79-9d4a-56a466ceff88"},"vehicle_type_id":"4","last_reported":1707426360,"current_range_meters":1200,"station_id":"ce4bgpp2rcd13ifvqc3g","pricing_plan_id":"free"},{"bike_id":"f95bffba-358a-4d90-9d93-993c3b5eb266","system_id":"levelo_inurba_marseille","lat":43.299243,"lon":5.374807,"is_reserved":false,"is_disabled":false,"rental_uris":{"android":"levelo://app?vid=f95bffba-358a-4d90-9d93-993c3b5eb266","ios":"levelo://app?vid=f95bffba-358a-4d90-9d93-993c3b5eb266"},"vehicle_type_id":"4","last_reported":1707426360,"current_range_meters":0,"station_id":"ce4bgjh2rcd13ifvqbg0","pricing_plan_id":"free"},{"bike_id":"6f9570e6-f7a2-4b27-b7d2-371888f68b14","system_id":"levelo_inurba_marseille","lat":43.298433,"lon":5.362774,"is_reserved":false,"is_disabled":false,"rental_uris":{"android":"levelo://app?vid=6f9570e6-f7a2-4b27-b7d2-371888f68b14","ios":"levelo://app?vid=6f9570e6-f7a2-4b27-b7d2-371888f68b14"},"vehicle_type_id":"4","last_reported":1707426360,"current_range_meters":31600,"station_id":"ce4bgpp2rcd13ifvqc3g","pricing_plan_id":"free"},{"bike_id":"cdfb9505-72dc-4854-89ee-d54402c15595","system_id":"levelo_inurba_marseille","lat":43.31171,"lon":5.38705,"is_reserved":false,"is_disabled":false,"rental_uris":{"android":"levelo://app?vid=cdfb9505-72dc-4854-89ee-d54402c15595","ios":"levelo://app?vid=cdfb9505-72dc-4854-89ee-d54402c15595"},"vehicle_type_id":"4","last_reported":1707426360,"current_range_meters":6800,"station_id":"ce4bgv12rcd13ifvqcp0","pricing_plan_id":"free"},{"bike_id":"fd055ca9-2138-4bf5-b246-178feb11e08d","system_id":"levelo_inurba_marseille","lat":43.311722,"lon":5.387247,"is_reserved":false,"is_disabled":false,"rental_uris":{"android":"levelo://app?vid=fd055ca9-2138-4bf5-b246-178feb11e08d","ios":"levelo://app?vid=fd055ca9-2138-4bf5-b246-178feb11e08d"},"vehicle_type_id":"4","last_reported":1707426360,"current_range_meters":18400,"station_id":"ce4bgv12rcd13ifvqcp0","pricing_plan_id":"free"},{"bike_id":"0711fd7d-3c70-4478-a6e4-8fd026d3c342","system_id":"levelo_inurba_marseille","lat":43.311722,"lon":5.387247,"is_reserved":false,"is_disabled":false,"rental_uris":{"android":"levelo://app?vid=0711fd7d-3c70-4478-a6e4-8fd026d3c342","ios":"levelo://app?vid=0711fd7d-3c70-4478-a6e4-8fd026d3c342"},"vehicle_type_id":"4","last_reported":1707426360,"current_range_meters":25600,"station_id":"ce4bgv12rcd13ifvqcp0","pricing_plan_id":"free"},{"bike_id":"e01a2c2e-7d48-4a06-80d3-e091110df9f2","system_id":"levelo_inurba_marseille","lat":43.311722,"lon":5.387247,"is_reserved":false,"is_disabled":false,"rental_uris":{"android":"levelo://app?vid=e01a2c2e-7d48-4a06-80d3-e091110df9f2","ios":"levelo://app?vid=e01a2c2e-7d48-4a06-80d3-e091110df9f2"},"vehicle_type_id":"4","last_reported":1707426360,"current_range_meters":18400,"station_id":"ce4bgv12rcd13ifvqcp0","pricing_plan_id":"free"},{"bike_id":"bb0fbd8d-edd3-469a-86f7-fb80291e0927","system_id":"levelo_inurba_marseille","lat":43.3117,"lon":5.3871,"is_reserved":false,"is_disabled":false,"rental_uris":{"android":"levelo://app?vid=bb0fbd8d-edd3-469a-86f7-fb80291e0927","ios":"levelo://app?vid=bb0fbd8d-edd3-469a-86f7-fb80291e0927"},"vehicle_type_id":"4","last_reported":1707426360,"current_range_meters":0,"station_id":"ce4bgv12rcd13ifvqcp0","pricing_plan_id":"free"},{"bike_id":"40111fe1-8989-48b2-ba23-1b3d5dea7964","system_id":"levelo_inurba_marseille","lat":43.312018,"lon":5.387162,"is_reserved":false,"is_disabled":false,"rental_uris":{"android":"levelo://app?vid=40111fe1-8989-48b2-ba23-1b3d5dea7964","ios":"levelo://app?vid=40111fe1-8989-48b2-ba23-1b3d5dea7964"},"vehicle_type_id":"4","last_reported":1707426360,"current_range_meters":2000,"station_id":"ce4bgv12rcd13ifvqcp0","pricing_plan_id":"free"},{"bike_id":"4a7d9f3d-7f22-4e6b-9d4a-01f7558b2752","system_id":"levelo_inurba_marseille","lat":43.3118,"lon":5.38719,"is_reserved":false,"is_disabled":false,"rental_uris":{"android":"levelo://app?vid=4a7d9f3d-7f22-4e6b-9d4a-01f7558b2752","ios":"levelo://app?vid=4a7d9f3d-7f22-4e6b-9d4a-01f7558b2752"},"vehicle_type_id":"4","last_reported":1707426360,"current_range_meters":0,"station_id":"ce4bgv12rcd13ifvqcp0","pricing_plan_id":"free"},{"bike_id":"d19a9ac6-4750-4983-a966-41ad06dec4ad","system_id":"levelo_inurba_marseille","lat":43.31168,"lon":5.3872,"is_reserved":false,"is_disabled":false,"rental_uris":{"android":"levelo://app?vid=d19a9ac6-4750-4983-a966-41ad06dec4ad","ios":"levelo://app?vid=d19a9ac6-4750-4983-a966-41ad06dec4ad"},"vehicle_type_id":"4","last_reported":1707426360,"current_range_meters":0,"station_id":"ce4bgv12rcd13ifvqcp0","pricing_plan_id":"free"},{"bike_id":"8e585367-9654-4918-b351-b160a5fdac04","system_id":"levelo_inurba_marseille","lat":43.297774,"lon":5.370875,"is_reserved":false,"is_disabled":false,"rental_uris":{"android":"levelo://app?vid=8e585367-9654-4918-b351-b160a5fdac04","ios":"levelo://app?vid=8e585367-9654-4918-b351-b160a5fdac04"},"vehicle_type_id":"4","last_reported":1707426360,"current_range_meters":27200,"station_id":"ce4bgop2rcd13ifvqc1g","pricing_plan_id":"free"},{"bike_id":"eefe6e9a-bb51-44f7-a644-f94de5a43093","system_id":"levelo_inurba_marseille","lat":43.322872,"lon":5.382756,"is_reserved":false,"is_disabled":false,"rental_uris":{"android":"levelo://app?vid=eefe6e9a-bb51-44f7-a644-f94de5a43093","ios":"levelo://app?vid=eefe6e9a-bb51-44f7-a644-f94de5a43093"},"vehicle_type_id":"4","last_reported":1707426360,"current_range_meters":28400,"station_id":"ce4bhr12rcd13ifvqhqg","pricing_plan_id":"free"},{"bike_id":"609955aa-ee67-4dfb-ada1-55361e458bdc","system_id":"levelo_inurba_marseille","lat":43.322872,"lon":5.382756,"is_reserved":false,"is_disabled":false,"rental_uris":{"android":"levelo://app?vid=609955aa-ee67-4dfb-ada1-55361e458bdc","ios":"levelo://app?vid=609955aa-ee67-4dfb-ada1-55361e458bdc"},"vehicle_type_id":"4","last_reported":1707426360,"current_range_meters":12000,"station_id":"ce4bhr12rcd13ifvqhqg","pricing_plan_id":"free"},{"bike_id":"cddc0538-3135-4513-862d-684db566508e","system_id":"levelo_inurba_marseille","lat":43.32827,"lon":5.36679,"is_reserved":false,"is_disabled":false,"rental_uris":{"android":"levelo://app?vid=cddc0538-3135-4513-862d-684db566508e","ios":"levelo://app?vid=cddc0538-3135-4513-862d-684db566508e"},"vehicle_type_id":"4","last_reported":1707426360,"current_range_meters":2000,"station_id":"ce4bhs92rcd13ifvqi0g","pricing_plan_id":"free"},{"bike_id":"2490d54c-e224-48f6-b101-f4862f7d282c","system_id":"levelo_inurba_marseille","lat":43.328296,"lon":5.366798,"is_reserved":false,"is_disabled":false,"rental_uris":{"android":"levelo://app?vid=2490d54c-e224-48f6-b101-f4862f7d282c","ios":"levelo://app?vid=2490d54c-e224-48f6-b101-f4862f7d282c"},"vehicle_type_id":"4","last_reported":1707426360,"current_range_meters":24800,"station_id":"ce4bhs92rcd13ifvqi0g","pricing_plan_id":"free"},{"bike_id":"16c66d5b-4529-46f4-bb7e-2ca8e392d94f","system_id":"levelo_inurba_marseille","lat":43.3283,"lon":5.36684,"is_reserved":false,"is_disabled":false,"rental_uris":{"android":"levelo://app?vid=16c66d5b-4529-46f4-bb7e-2ca8e392d94f","ios":"levelo://app?vid=16c66d5b-4529-46f4-bb7e-2ca8e392d94f"},"vehicle_type_id":"4","last_reported":1707426360,"current_range_meters":26000,"station_id":"ce4bhs92rcd13ifvqi0g","pricing_plan_id":"free"},{"bike_id":"c780842c-e95f-47ff-a149-ed36c8a413db","system_id":"levelo_inurba_marseille","lat":43.32278,"lon":5.3833,"is_reserved":false,"is_disabled":false,"rental_uris":{"android":"levelo://app?vid=c780842c-e95f-47ff-a149-ed36c8a413db","ios":"levelo://app?vid=c780842c-e95f-47ff-a149-ed36c8a413db"},"vehicle_type_id":"4","last_reported":1707426360,"current_range_meters":26800,"station_id":"","pricing_plan_id":"free"},{"bike_id":"7e1b2a77-71b5-4003-b54e-450ad3f3f9d1","system_id":"levelo_inurba_marseille","lat":43.32275,"lon":5.38334,"is_reserved":false,"is_disabled":false,"rental_uris":{"android":"levelo://app?vid=7e1b2a77-71b5-4003-b54e-450ad3f3f9d1","ios":"levelo://app?vid=7e1b2a77-71b5-4003-b54e-450ad3f3f9d1"},"vehicle_type_id":"4","last_reported":1707426360,"current_range_meters":31200,"station_id":"","pricing_plan_id":"free"},{"bike_id":"37f1e6c2-4084-4aa1-872e-22cc5ae77a0a","system_id":"levelo_inurba_marseille","lat":43.297163,"lon":5.365866,"is_reserved":false,"is_disabled":false,"rental_uris":{"android":"levelo://app?vid=37f1e6c2-4084-4aa1-872e-22cc5ae77a0a","ios":"levelo://app?vid=37f1e6c2-4084-4aa1-872e-22cc5ae77a0a"},"vehicle_type_id":"4","last_reported":1707426360,"current_range_meters":20000,"station_id":"ce4bgn12rcd13ifvqbt0","pricing_plan_id":"free"},{"bike_id":"7e001b73-9835-44e9-ba37-5c04e01648e7","system_id":"levelo_inurba_marseille","lat":43.328371,"lon":5.366909,"is_reserved":false,"is_disabled":false,"rental_uris":{"android":"levelo://app?vid=7e001b73-9835-44e9-ba37-5c04e01648e7","ios":"levelo://app?vid=7e001b73-9835-44e9-ba37-5c04e01648e7"},"vehicle_type_id":"4","last_reported":1707426360,"current_range_meters":6000,"station_id":"ce4bhs92rcd13ifvqi0g","pricing_plan_id":"free"},{"bike_id":"815a1d42-c358-4fa7-bf12-c9e48b1aa831","system_id":"levelo_inurba_marseille","lat":43.32835,"lon":5.36686,"is_reserved":false,"is_disabled":false,"rental_uris":{"android":"levelo://app?vid=815a1d42-c358-4fa7-bf12-c9e48b1aa831","ios":"levelo://app?vid=815a1d42-c358-4fa7-bf12-c9e48b1aa831"},"vehicle_type_id":"4","last_reported":1707426360,"current_range_meters":0,"station_id":"ce4bhs92rcd13ifvqi0g","pricing_plan_id":"free"},{"bike_id":"2d581178-da0d-44c7-b5df-d77b3289efb0","system_id":"levelo_inurba_marseille","lat":43.297163,"lon":5.365866,"is_reserved":false,"is_disabled":false,"rental_uris":{"android":"levelo://app?vid=2d581178-da0d-44c7-b5df-d77b3289efb0","ios":"levelo://app?vid=2d581178-da0d-44c7-b5df-d77b3289efb0"},"vehicle_type_id":"4","last_reported":1707426360,"current_range_meters":31200,"station_id":"ce4bgn12rcd13ifvqbt0","pricing_plan_id":"free"},{"bike_id":"f0e9e831-215d-4141-8da7-a7ec1027a690","system_id":"levelo_inurba_marseille","lat":43.29711,"lon":5.36602,"is_reserved":false,"is_disabled":false,"rental_uris":{"android":"levelo://app?vid=f0e9e831-215d-4141-8da7-a7ec1027a690","ios":"levelo://app?vid=f0e9e831-215d-4141-8da7-a7ec1027a690"},"vehicle_type_id":"4","last_reported":1707426360,"current_range_meters":8000,"station_id":"ce4bgn12rcd13ifvqbt0","pricing_plan_id":"free"},{"bike_id":"f1a9b330-6c83-48c8-ad39-73f391264b5e","system_id":"levelo_inurba_marseille","lat":43.297163,"lon":5.365866,"is_reserved":false,"is_disabled":false,"rental_uris":{"android":"levelo://app?vid=f1a9b330-6c83-48c8-ad39-73f391264b5e","ios":"levelo://app?vid=f1a9b330-6c83-48c8-ad39-73f391264b5e"},"vehicle_type_id":"4","last_reported":1707426360,"current_range_meters":9600,"station_id":"ce4bgn12rcd13ifvqbt0","pricing_plan_id":"free"},{"bike_id":"9fb6b766-7e1d-4d91-a94c-13f50a460b0e","system_id":"levelo_inurba_marseille","lat":43.295963,"lon":5.367967,"is_reserved":false,"is_disabled":false,"rental_uris":{"android":"levelo://app?vid=9fb6b766-7e1d-4d91-a94c-13f50a460b0e","ios":"levelo://app?vid=9fb6b766-7e1d-4d91-a94c-13f50a460b0e"},"vehicle_type_id":"4","last_reported":1707426360,"current_range_meters":26400,"station_id":"","pricing_plan_id":"free"},{"bike_id":"2da1fd7c-9278-4ff5-add7-e0212df25319","system_id":"levelo_inurba_marseille","lat":43.29573,"lon":5.367355,"is_reserved":false,"is_disabled":false,"rental_uris":{"android":"levelo://app?vid=2da1fd7c-9278-4ff5-add7-e0212df25319","ios":"levelo://app?vid=2da1fd7c-9278-4ff5-add7-e0212df25319"},"vehicle_type_id":"4","last_reported":1707426360,"current_range_meters":27200,"station_id":"ce4bgph2rcd13ifvqc2g","pricing_plan_id":"free"},{"bike_id":"37e6bc8c-a640-4bb9-a298-eaae0004053b","system_id":"levelo_inurba_marseille","lat":43.29573,"lon":5.367355,"is_reserved":false,"is_disabled":false,"rental_uris":{"android":"levelo://app?vid=37e6bc8c-a640-4bb9-a298-eaae0004053b","ios":"levelo://app?vid=37e6bc8c-a640-4bb9-a298-eaae0004053b"},"vehicle_type_id":"4","last_reported":1707426360,"current_range_meters":22000,"station_id":"ce4bgph2rcd13ifvqc2g","pricing_plan_id":"free"},{"bike_id":"04855fbc-5fd1-4798-8012-470445d2d9eb","system_id":"levelo_inurba_marseille","lat":43.29573,"lon":5.367355,"is_reserved":false,"is_disabled":false,"rental_uris":{"android":"levelo://app?vid=04855fbc-5fd1-4798-8012-470445d2d9eb","ios":"levelo://app?vid=04855fbc-5fd1-4798-8012-470445d2d9eb"},"vehicle_type_id":"4","last_reported":1707426360,"current_range_meters":28000,"station_id":"ce4bgph2rcd13ifvqc2g","pricing_plan_id":"free"},{"bike_id":"d5dd78e8-e736-40cd-ba21-424b44114a26","system_id":"levelo_inurba_marseille","lat":43.300505,"lon":5.383452,"is_reserved":false,"is_disabled":false,"rental_uris":{"android":"levelo://app?vid=d5dd78e8-e736-40cd-ba21-424b44114a26","ios":"levelo://app?vid=d5dd78e8-e736-40cd-ba21-424b44114a26"},"vehicle_type_id":"4","last_reported":1707426360,"current_range_meters":18800,"station_id":"","pricing_plan_id":"free"},{"bike_id":"82e0619d-9d07-42b7-9422-54b0d1ae9e31","system_id":"levelo_inurba_marseille","lat":43.309589,"lon":5.390258,"is_reserved":false,"is_disabled":false,"rental_uris":{"android":"levelo://app?vid=82e0619d-9d07-42b7-9422-54b0d1ae9e31","ios":"levelo://app?vid=82e0619d-9d07-42b7-9422-54b0d1ae9e31"},"vehicle_type_id":"4","last_reported":1707426360,"current_range_meters":26400,"station_id":"ce4bgup2rcd13ifvqco0","pricing_plan_id":"free"},{"bike_id":"dfa251c3-cc07-4a29-9015-d1becd3048de","system_id":"levelo_inurba_marseille","lat":43.30515,"lon":5.38824,"is_reserved":false,"is_disabled":false,"rental_uris":{"android":"levelo://app?vid=dfa251c3-cc07-4a29-9015-d1becd3048de","ios":"levelo://app?vid=dfa251c3-cc07-4a29-9015-d1becd3048de"},"vehicle_type_id":"4","last_reported":1707426360,"current_range_meters":29600,"station_id":"ce4bgk12rcd13ifvqbi0","pricing_plan_id":"free"},{"bike_id":"2b999047-63bf-440f-9ca3-782decbe7ac4","system_id":"levelo_inurba_marseille","lat":43.309589,"lon":5.390258,"is_reserved":false,"is_disabled":false,"rental_uris":{"android":"levelo://app?vid=2b999047-63bf-440f-9ca3-782decbe7ac4","ios":"levelo://app?vid=2b999047-63bf-440f-9ca3-782decbe7ac4"},"vehicle_type_id":"4","last_reported":1707426360,"current_range_meters":0,"station_id":"ce4bgup2rcd13ifvqco0","pricing_plan_id":"free"},{"bike_id":"e9992eb8-fa8e-4d59-9ba0-1a9819d306e7","system_id":"levelo_inurba_marseille","lat":43.309589,"lon":5.390258,"is_reserved":false,"is_disabled":false,"rental_uris":{"android":"levelo://app?vid=e9992eb8-fa8e-4d59-9ba0-1a9819d306e7","ios":"levelo://app?vid=e9992eb8-fa8e-4d59-9ba0-1a9819d306e7"},"vehicle_type_id":"4","last_reported":1707426360,"current_range_meters":22400,"station_id":"ce4bgup2rcd13ifvqco0","pricing_plan_id":"free"},{"bike_id":"1b9829a2-d586-42fc-bbe4-f97934c32bb6","system_id":"levelo_inurba_marseille","lat":43.317557,"lon":5.390173,"is_reserved":false,"is_disabled":false,"rental_uris":{"android":"levelo://app?vid=1b9829a2-d586-42fc-bbe4-f97934c32bb6","ios":"levelo://app?vid=1b9829a2-d586-42fc-bbe4-f97934c32bb6"},"vehicle_type_id":"4","last_reported":1707426360,"current_range_meters":16000,"station_id":"ce4bhqp2rcd13ifvqhng","pricing_plan_id":"free"},{"bike_id":"f18f1e75-8453-42b7-8340-e2e55754ac63","system_id":"levelo_inurba_marseille","lat":43.317557,"lon":5.390173,"is_reserved":false,"is_disabled":false,"rental_uris":{"android":"levelo://app?vid=f18f1e75-8453-42b7-8340-e2e55754ac63","ios":"levelo://app?vid=f18f1e75-8453-42b7-8340-e2e55754ac63"},"vehicle_type_id":"4","last_reported":1707426360,"current_range_meters":30000,"station_id":"ce4bhqp2rcd13ifvqhng","pricing_plan_id":"free"},{"bike_id":"fd836a0f-fe5c-42e6-a65f-7743b126b28e","system_id":"levelo_inurba_marseille","lat":43.317557,"lon":5.390173,"is_reserved":false,"is_disabled":false,"rental_uris":{"android":"levelo://app?vid=fd836a0f-fe5c-42e6-a65f-7743b126b28e","ios":"levelo://app?vid=fd836a0f-fe5c-42e6-a65f-7743b126b28e"},"vehicle_type_id":"4","last_reported":1707426360,"current_range_meters":15600,"station_id":"ce4bhqp2rcd13ifvqhng","pricing_plan_id":"free"},{"bike_id":"8bd1f47b-e1cd-4851-abd6-0e9a63572b89","system_id":"levelo_inurba_marseille","lat":43.317557,"lon":5.390173,"is_reserved":false,"is_disabled":false,"rental_uris":{"android":"levelo://app?vid=8bd1f47b-e1cd-4851-abd6-0e9a63572b89","ios":"levelo://app?vid=8bd1f47b-e1cd-4851-abd6-0e9a63572b89"},"vehicle_type_id":"4","last_reported":1707426360,"current_range_meters":14800,"station_id":"ce4bhqp2rcd13ifvqhng","pricing_plan_id":"free"},{"bike_id":"0ed0311b-4900-4306-9a6a-4e09ee2dcb63","system_id":"levelo_inurba_marseille","lat":43.31759,"lon":5.390194,"is_reserved":false,"is_disabled":false,"rental_uris":{"android":"levelo://app?vid=0ed0311b-4900-4306-9a6a-4e09ee2dcb63","ios":"levelo://app?vid=0ed0311b-4900-4306-9a6a-4e09ee2dcb63"},"vehicle_type_id":"4","last_reported":1707426360,"current_range_meters":4000,"station_id":"ce4bhqp2rcd13ifvqhng","pricing_plan_id":"free"},{"bike_id":"f9e71f25-83c3-4ad2-95f8-b63267492ced","system_id":"levelo_inurba_marseille","lat":43.317557,"lon":5.390173,"is_reserved":false,"is_disabled":false,"rental_uris":{"android":"levelo://app?vid=f9e71f25-83c3-4ad2-95f8-b63267492ced","ios":"levelo://app?vid=f9e71f25-83c3-4ad2-95f8-b63267492ced"},"vehicle_type_id":"4","last_reported":1707426360,"current_range_meters":26400,"station_id":"ce4bhqp2rcd13ifvqhng","pricing_plan_id":"free"},{"bike_id":"b184cde2-97ca-4063-abb7-6b6aaaff94fb","system_id":"levelo_inurba_marseille","lat":43.317557,"lon":5.390173,"is_reserved":false,"is_disabled":false,"rental_uris":{"android":"levelo://app?vid=b184cde2-97ca-4063-abb7-6b6aaaff94fb","ios":"levelo://app?vid=b184cde2-97ca-4063-abb7-6b6aaaff94fb"},"vehicle_type_id":"4","last_reported":1707426360,"current_range_meters":18800,"station_id":"ce4bhqp2rcd13ifvqhng","pricing_plan_id":"free"},{"bike_id":"fe04a6fc-e788-4d71-a21e-fb84777caff4","system_id":"levelo_inurba_marseille","lat":43.298137,"lon":5.380971,"is_reserved":false,"is_disabled":false,"rental_uris":{"android":"levelo://app?vid=fe04a6fc-e788-4d71-a21e-fb84777caff4","ios":"levelo://app?vid=fe04a6fc-e788-4d71-a21e-fb84777caff4"},"vehicle_type_id":"4","last_reported":1707426360,"current_range_meters":28800,"station_id":"ce4bgip2rcd13ifvqbb0","pricing_plan_id":"free"},{"bike_id":"9fa4ca85-6857-4667-b3aa-b2b15b052586","system_id":"levelo_inurba_marseille","lat":43.304274,"lon":5.388873,"is_reserved":false,"is_disabled":false,"rental_uris":{"android":"levelo://app?vid=9fa4ca85-6857-4667-b3aa-b2b15b052586","ios":"levelo://app?vid=9fa4ca85-6857-4667-b3aa-b2b15b052586"},"vehicle_type_id":"4","last_reported":1707426360,"current_range_meters":20000,"station_id":"ce4bgk12rcd13ifvqbi0","pricing_plan_id":"free"},{"bike_id":"0826968b-401d-44c0-9366-ad59de8bbc4a","system_id":"levelo_inurba_marseille","lat":43.304274,"lon":5.388873,"is_reserved":false,"is_disabled":false,"rental_uris":{"android":"levelo://app?vid=0826968b-401d-44c0-9366-ad59de8bbc4a","ios":"levelo://app?vid=0826968b-401d-44c0-9366-ad59de8bbc4a"},"vehicle_type_id":"4","last_reported":1707426360,"current_range_meters":13600,"station_id":"ce4bgk12rcd13ifvqbi0","pricing_plan_id":"free"},{"bike_id":"db34de34-ddc7-41b2-ba51-b40fe863e543","system_id":"levelo_inurba_marseille","lat":43.30431,"lon":5.38878,"is_reserved":false,"is_disabled":false,"rental_uris":{"android":"levelo://app?vid=db34de34-ddc7-41b2-ba51-b40fe863e543","ios":"levelo://app?vid=db34de34-ddc7-41b2-ba51-b40fe863e543"},"vehicle_type_id":"4","last_reported":1707426360,"current_range_meters":6400,"station_id":"ce4bgk12rcd13ifvqbi0","pricing_plan_id":"free"},{"bike_id":"3bf76b0c-1943-4afc-addb-1117a7fb0101","system_id":"levelo_inurba_marseille","lat":43.296277,"lon":5.377108,"is_reserved":false,"is_disabled":false,"rental_uris":{"android":"levelo://app?vid=3bf76b0c-1943-4afc-addb-1117a7fb0101","ios":"levelo://app?vid=3bf76b0c-1943-4afc-addb-1117a7fb0101"},"vehicle_type_id":"4","last_reported":1707426360,"current_range_meters":21200,"station_id":"ce4bgi92rcd13ifvqb90","pricing_plan_id":"free"},{"bike_id":"297559aa-be30-4576-b692-ad8165d5e669","system_id":"levelo_inurba_marseille","lat":43.298037,"lon":5.381066,"is_reserved":false,"is_disabled":false,"rental_uris":{"android":"levelo://app?vid=297559aa-be30-4576-b692-ad8165d5e669","ios":"levelo://app?vid=297559aa-be30-4576-b692-ad8165d5e669"},"vehicle_type_id":"4","last_reported":1707426360,"current_range_meters":4400,"station_id":"ce4bgip2rcd13ifvqbb0","pricing_plan_id":"free"},{"bike_id":"8a502afe-a76b-4956-9f7d-f5cabfdc380e","system_id":"levelo_inurba_marseille","lat":43.30436,"lon":5.38885,"is_reserved":false,"is_disabled":false,"rental_uris":{"android":"levelo://app?vid=8a502afe-a76b-4956-9f7d-f5cabfdc380e","ios":"levelo://app?vid=8a502afe-a76b-4956-9f7d-f5cabfdc380e"},"vehicle_type_id":"4","last_reported":1707426360,"current_range_meters":30400,"station_id":"ce4bgk12rcd13ifvqbi0","pricing_plan_id":"free"},{"bike_id":"0bd93be9-6589-4c7b-8097-499a13c1114f","system_id":"levelo_inurba_marseille","lat":43.30436,"lon":5.38885,"is_reserved":false,"is_disabled":false,"rental_uris":{"android":"levelo://app?vid=0bd93be9-6589-4c7b-8097-499a13c1114f","ios":"levelo://app?vid=0bd93be9-6589-4c7b-8097-499a13c1114f"},"vehicle_type_id":"4","last_reported":1707426360,"current_range_meters":28400,"station_id":"ce4bgk12rcd13ifvqbi0","pricing_plan_id":"free"},{"bike_id":"6f8c68e8-379b-42ba-92ae-c1cf4b111699","system_id":"levelo_inurba_marseille","lat":43.30438,"lon":5.38888,"is_reserved":false,"is_disabled":false,"rental_uris":{"android":"levelo://app?vid=6f8c68e8-379b-42ba-92ae-c1cf4b111699","ios":"levelo://app?vid=6f8c68e8-379b-42ba-92ae-c1cf4b111699"},"vehicle_type_id":"4","last_reported":1707426360,"current_range_meters":22800,"station_id":"ce4bgk12rcd13ifvqbi0","pricing_plan_id":"free"},{"bike_id":"3c8aa37c-671e-4ae5-8bcb-8302c4d3c473","system_id":"levelo_inurba_marseille","lat":43.3043,"lon":5.38883,"is_reserved":false,"is_disabled":false,"rental_uris":{"android":"levelo://app?vid=3c8aa37c-671e-4ae5-8bcb-8302c4d3c473","ios":"levelo://app?vid=3c8aa37c-671e-4ae5-8bcb-8302c4d3c473"},"vehicle_type_id":"4","last_reported":1707426360,"current_range_meters":26800,"station_id":"ce4bgk12rcd13ifvqbi0","pricing_plan_id":"free"},{"bike_id":"7a6da386-b838-45c5-aa6b-8660bd77f157","system_id":"levelo_inurba_marseille","lat":43.30425,"lon":5.3888,"is_reserved":false,"is_disabled":false,"rental_uris":{"android":"levelo://app?vid=7a6da386-b838-45c5-aa6b-8660bd77f157","ios":"levelo://app?vid=7a6da386-b838-45c5-aa6b-8660bd77f157"},"vehicle_type_id":"4","last_reported":1707426360,"current_range_meters":2000,"station_id":"ce4bgk12rcd13ifvqbi0","pricing_plan_id":"free"},{"bike_id":"9abb1fc5-d205-4d4d-b350-e0d1cb0aa268","system_id":"levelo_inurba_marseille","lat":43.304366,"lon":5.388904,"is_reserved":false,"is_disabled":false,"rental_uris":{"android":"levelo://app?vid=9abb1fc5-d205-4d4d-b350-e0d1cb0aa268","ios":"levelo://app?vid=9abb1fc5-d205-4d4d-b350-e0d1cb0aa268"},"vehicle_type_id":"4","last_reported":1707426360,"current_range_meters":24400,"station_id":"ce4bgk12rcd13ifvqbi0","pricing_plan_id":"free"},{"bike_id":"3baf6229-a884-4309-a901-9faeba5af313","system_id":"levelo_inurba_marseille","lat":43.298037,"lon":5.381066,"is_reserved":false,"is_disabled":false,"rental_uris":{"android":"levelo://app?vid=3baf6229-a884-4309-a901-9faeba5af313","ios":"levelo://app?vid=3baf6229-a884-4309-a901-9faeba5af313"},"vehicle_type_id":"4","last_reported":1707426360,"current_range_meters":4000,"station_id":"ce4bgip2rcd13ifvqbb0","pricing_plan_id":"free"},{"bike_id":"5927017c-c1f4-4432-ac17-3bc65b9faa0c","system_id":"levelo_inurba_marseille","lat":43.298037,"lon":5.381066,"is_reserved":false,"is_disabled":false,"rental_uris":{"android":"levelo://app?vid=5927017c-c1f4-4432-ac17-3bc65b9faa0c","ios":"levelo://app?vid=5927017c-c1f4-4432-ac17-3bc65b9faa0c"},"vehicle_type_id":"4","last_reported":1707426360,"current_range_meters":24400,"station_id":"ce4bgip2rcd13ifvqbb0","pricing_plan_id":"free"},{"bike_id":"fc6dd4db-9a06-4451-b33b-ba977b605d88","system_id":"levelo_inurba_marseille","lat":43.299707,"lon":5.384859,"is_reserved":false,"is_disabled":false,"rental_uris":{"android":"levelo://app?vid=fc6dd4db-9a06-4451-b33b-ba977b605d88","ios":"levelo://app?vid=fc6dd4db-9a06-4451-b33b-ba977b605d88"},"vehicle_type_id":"4","last_reported":1707426360,"current_range_meters":12800,"station_id":"ce4bgj92rcd13ifvqbd0","pricing_plan_id":"free"},{"bike_id":"4aeb7196-f19f-4cc8-b349-9dc382fdeb3d","system_id":"levelo_inurba_marseille","lat":43.29967,"lon":5.38501,"is_reserved":false,"is_disabled":false,"rental_uris":{"android":"levelo://app?vid=4aeb7196-f19f-4cc8-b349-9dc382fdeb3d","ios":"levelo://app?vid=4aeb7196-f19f-4cc8-b349-9dc382fdeb3d"},"vehicle_type_id":"4","last_reported":1707426360,"current_range_meters":12000,"station_id":"","pricing_plan_id":"free"},{"bike_id":"6347a8f0-b1dc-4dea-9250-39f00f2473eb","system_id":"levelo_inurba_marseille","lat":43.32367,"lon":5.388836,"is_reserved":false,"is_disabled":false,"rental_uris":{"android":"levelo://app?vid=6347a8f0-b1dc-4dea-9250-39f00f2473eb","ios":"levelo://app?vid=6347a8f0-b1dc-4dea-9250-39f00f2473eb"},"vehicle_type_id":"4","last_reported":1707426360,"current_range_meters":16000,"station_id":"ce4bhqp2rcd13ifvqhog","pricing_plan_id":"free"},{"bike_id":"8c67e61e-e7d9-4bb7-9545-eb36146dd69c","system_id":"levelo_inurba_marseille","lat":43.32365,"lon":5.38876,"is_reserved":false,"is_disabled":false,"rental_uris":{"android":"levelo://app?vid=8c67e61e-e7d9-4bb7-9545-eb36146dd69c","ios":"levelo://app?vid=8c67e61e-e7d9-4bb7-9545-eb36146dd69c"},"vehicle_type_id":"4","last_reported":1707426360,"current_range_meters":27200,"station_id":"ce4bhqp2rcd13ifvqhog","pricing_plan_id":"free"},{"bike_id":"f0a2d98e-41a2-4406-b3e3-228e878fbcd6","system_id":"levelo_inurba_marseille","lat":43.32367,"lon":5.388836,"is_reserved":false,"is_disabled":false,"rental_uris":{"android":"levelo://app?vid=f0a2d98e-41a2-4406-b3e3-228e878fbcd6","ios":"levelo://app?vid=f0a2d98e-41a2-4406-b3e3-228e878fbcd6"},"vehicle_type_id":"4","last_reported":1707426360,"current_range_meters":17600,"station_id":"ce4bhqp2rcd13ifvqhog","pricing_plan_id":"free"},{"bike_id":"21e18872-8511-415f-a0c8-295cd280fcd9","system_id":"levelo_inurba_marseille","lat":43.32367,"lon":5.388836,"is_reserved":false,"is_disabled":false,"rental_uris":{"android":"levelo://app?vid=21e18872-8511-415f-a0c8-295cd280fcd9","ios":"levelo://app?vid=21e18872-8511-415f-a0c8-295cd280fcd9"},"vehicle_type_id":"4","last_reported":1707426360,"current_range_meters":8800,"station_id":"ce4bhqp2rcd13ifvqhog","pricing_plan_id":"free"},{"bike_id":"1415f1b6-7f68-4a65-a840-dc551695fc0e","system_id":"levelo_inurba_marseille","lat":43.32367,"lon":5.388836,"is_reserved":false,"is_disabled":false,"rental_uris":{"android":"levelo://app?vid=1415f1b6-7f68-4a65-a840-dc551695fc0e","ios":"levelo://app?vid=1415f1b6-7f68-4a65-a840-dc551695fc0e"},"vehicle_type_id":"4","last_reported":1707426360,"current_range_meters":5200,"station_id":"ce4bhqp2rcd13ifvqhog","pricing_plan_id":"free"},{"bike_id":"27e7d923-81e0-4c18-9a4b-aeb5de43f55c","system_id":"levelo_inurba_marseille","lat":43.32367,"lon":5.388836,"is_reserved":false,"is_disabled":false,"rental_uris":{"android":"levelo://app?vid=27e7d923-81e0-4c18-9a4b-aeb5de43f55c","ios":"levelo://app?vid=27e7d923-81e0-4c18-9a4b-aeb5de43f55c"},"vehicle_type_id":"4","last_reported":1707426360,"current_range_meters":8000,"station_id":"ce4bhqp2rcd13ifvqhog","pricing_plan_id":"free"},{"bike_id":"55769c3e-d570-4ade-829b-4a0316d221aa","system_id":"levelo_inurba_marseille","lat":43.32367,"lon":5.38878,"is_reserved":false,"is_disabled":false,"rental_uris":{"android":"levelo://app?vid=55769c3e-d570-4ade-829b-4a0316d221aa","ios":"levelo://app?vid=55769c3e-d570-4ade-829b-4a0316d221aa"},"vehicle_type_id":"4","last_reported":1707426360,"current_range_meters":13600,"station_id":"ce4bhqp2rcd13ifvqhog","pricing_plan_id":"free"},{"bike_id":"23db12a9-e975-4550-8f02-17cef190884b","system_id":"levelo_inurba_marseille","lat":43.32367,"lon":5.388836,"is_reserved":false,"is_disabled":false,"rental_uris":{"android":"levelo://app?vid=23db12a9-e975-4550-8f02-17cef190884b","ios":"levelo://app?vid=23db12a9-e975-4550-8f02-17cef190884b"},"vehicle_type_id":"4","last_reported":1707426360,"current_range_meters":5600,"station_id":"ce4bhqp2rcd13ifvqhog","pricing_plan_id":"free"},{"bike_id":"5b62e739-aeb2-40cb-9fd0-8e2120b72154","system_id":"levelo_inurba_marseille","lat":43.32367,"lon":5.388836,"is_reserved":false,"is_disabled":false,"rental_uris":{"android":"levelo://app?vid=5b62e739-aeb2-40cb-9fd0-8e2120b72154","ios":"levelo://app?vid=5b62e739-aeb2-40cb-9fd0-8e2120b72154"},"vehicle_type_id":"4","last_reported":1707426360,"current_range_meters":6000,"station_id":"ce4bhqp2rcd13ifvqhog","pricing_plan_id":"free"},{"bike_id":"acb915b4-afa3-4ad7-8afa-689cea408395","system_id":"levelo_inurba_marseille","lat":43.32366,"lon":5.38882,"is_reserved":false,"is_disabled":false,"rental_uris":{"android":"levelo://app?vid=acb915b4-afa3-4ad7-8afa-689cea408395","ios":"levelo://app?vid=acb915b4-afa3-4ad7-8afa-689cea408395"},"vehicle_type_id":"4","last_reported":1707426360,"current_range_meters":6400,"station_id":"ce4bhqp2rcd13ifvqhog","pricing_plan_id":"free"},{"bike_id":"4d52ab88-d505-4783-a6ac-77f2acce4dd9","system_id":"levelo_inurba_marseille","lat":43.32362,"lon":5.38887,"is_reserved":false,"is_disabled":false,"rental_uris":{"android":"levelo://app?vid=4d52ab88-d505-4783-a6ac-77f2acce4dd9","ios":"levelo://app?vid=4d52ab88-d505-4783-a6ac-77f2acce4dd9"},"vehicle_type_id":"4","last_reported":1707426360,"current_range_meters":6000,"station_id":"ce4bhqp2rcd13ifvqhog","pricing_plan_id":"free"},{"bike_id":"e1c5c8eb-63f6-4b8e-b9dd-0783ca26b249","system_id":"levelo_inurba_marseille","lat":43.32363,"lon":5.38887,"is_reserved":false,"is_disabled":false,"rental_uris":{"android":"levelo://app?vid=e1c5c8eb-63f6-4b8e-b9dd-0783ca26b249","ios":"levelo://app?vid=e1c5c8eb-63f6-4b8e-b9dd-0783ca26b249"},"vehicle_type_id":"4","last_reported":1707426360,"current_range_meters":8800,"station_id":"ce4bhqp2rcd13ifvqhog","pricing_plan_id":"free"},{"bike_id":"a08a26fe-546a-4630-aced-98e496243792","system_id":"levelo_inurba_marseille","lat":43.32362,"lon":5.38888,"is_reserved":false,"is_disabled":false,"rental_uris":{"android":"levelo://app?vid=a08a26fe-546a-4630-aced-98e496243792","ios":"levelo://app?vid=a08a26fe-546a-4630-aced-98e496243792"},"vehicle_type_id":"4","last_reported":1707426360,"current_range_meters":17200,"station_id":"ce4bhqp2rcd13ifvqhog","pricing_plan_id":"free"},{"bike_id":"5d90aec3-eff0-47a3-81d9-4f927162b08d","system_id":"levelo_inurba_marseille","lat":43.32367,"lon":5.38884,"is_reserved":false,"is_disabled":false,"rental_uris":{"android":"levelo://app?vid=5d90aec3-eff0-47a3-81d9-4f927162b08d","ios":"levelo://app?vid=5d90aec3-eff0-47a3-81d9-4f927162b08d"},"vehicle_type_id":"4","last_reported":1707426360,"current_range_meters":19600,"station_id":"ce4bhqp2rcd13ifvqhog","pricing_plan_id":"free"},{"bike_id":"f6b5077d-247e-4e7c-906b-88c3fa20cf84","system_id":"levelo_inurba_marseille","lat":43.293259,"lon":5.371586,"is_reserved":false,"is_disabled":false,"rental_uris":{"android":"levelo://app?vid=f6b5077d-247e-4e7c-906b-88c3fa20cf84","ios":"levelo://app?vid=f6b5077d-247e-4e7c-906b-88c3fa20cf84"},"vehicle_type_id":"4","last_reported":1707426360,"current_range_meters":11600,"station_id":"ce4bgh92rcd13ifvqb40","pricing_plan_id":"free"},{"bike_id":"8b393f60-d2ca-4301-8b5c-3fc4e12eb9a0","system_id":"levelo_inurba_marseille","lat":43.29309,"lon":5.371753,"is_reserved":false,"is_disabled":false,"rental_uris":{"android":"levelo://app?vid=8b393f60-d2ca-4301-8b5c-3fc4e12eb9a0","ios":"levelo://app?vid=8b393f60-d2ca-4301-8b5c-3fc4e12eb9a0"},"vehicle_type_id":"4","last_reported":1707426360,"current_range_meters":16000,"station_id":"","pricing_plan_id":"free"},{"bike_id":"03302baa-7caa-44fa-b589-94a3dc4e5435","system_id":"levelo_inurba_marseille","lat":43.293249,"lon":5.371578,"is_reserved":false,"is_disabled":false,"rental_uris":{"android":"levelo://app?vid=03302baa-7caa-44fa-b589-94a3dc4e5435","ios":"levelo://app?vid=03302baa-7caa-44fa-b589-94a3dc4e5435"},"vehicle_type_id":"4","last_reported":1707426360,"current_range_meters":21200,"station_id":"ce4bgh92rcd13ifvqb40","pricing_plan_id":"free"},{"bike_id":"becd77fd-502c-4d82-aec1-745224e48d9e","system_id":"levelo_inurba_marseille","lat":43.292749,"lon":5.368402,"is_reserved":false,"is_disabled":false,"rental_uris":{"android":"levelo://app?vid=becd77fd-502c-4d82-aec1-745224e48d9e","ios":"levelo://app?vid=becd77fd-502c-4d82-aec1-745224e48d9e"},"vehicle_type_id":"4","last_reported":1707426360,"current_range_meters":20400,"station_id":"ce4bhbp2rcd13ifvqesg","pricing_plan_id":"free"},{"bike_id":"af1ad061-14b4-4700-9a3b-88e6d49ba6d8","system_id":"levelo_inurba_marseille","lat":43.292749,"lon":5.368398,"is_reserved":false,"is_disabled":false,"rental_uris":{"android":"levelo://app?vid=af1ad061-14b4-4700-9a3b-88e6d49ba6d8","ios":"levelo://app?vid=af1ad061-14b4-4700-9a3b-88e6d49ba6d8"},"vehicle_type_id":"4","last_reported":1707426360,"current_range_meters":9200,"station_id":"ce4bhbp2rcd13ifvqesg","pricing_plan_id":"free"},{"bike_id":"e1974525-edd0-4069-83d6-14c8504ed06b","system_id":"levelo_inurba_marseille","lat":43.293249,"lon":5.371578,"is_reserved":false,"is_disabled":false,"rental_uris":{"android":"levelo://app?vid=e1974525-edd0-4069-83d6-14c8504ed06b","ios":"levelo://app?vid=e1974525-edd0-4069-83d6-14c8504ed06b"},"vehicle_type_id":"4","last_reported":1707426360,"current_range_meters":0,"station_id":"ce4bgh92rcd13ifvqb40","pricing_plan_id":"free"},{"bike_id":"daa3d43d-2f9b-4e3b-8123-18121e626b24","system_id":"levelo_inurba_marseille","lat":43.2931,"lon":5.37446,"is_reserved":false,"is_disabled":false,"rental_uris":{"android":"levelo://app?vid=daa3d43d-2f9b-4e3b-8123-18121e626b24","ios":"levelo://app?vid=daa3d43d-2f9b-4e3b-8123-18121e626b24"},"vehicle_type_id":"4","last_reported":1707426360,"current_range_meters":0,"station_id":"ce4bgi12rcd13ifvqb70","pricing_plan_id":"free"},{"bike_id":"51f0ed72-2884-420b-8712-15848ec7962c","system_id":"levelo_inurba_marseille","lat":43.29306,"lon":5.37444,"is_reserved":false,"is_disabled":false,"rental_uris":{"android":"levelo://app?vid=51f0ed72-2884-420b-8712-15848ec7962c","ios":"levelo://app?vid=51f0ed72-2884-420b-8712-15848ec7962c"},"vehicle_type_id":"4","last_reported":1707426360,"current_range_meters":16400,"station_id":"ce4bgi12rcd13ifvqb70","pricing_plan_id":"free"},{"bike_id":"f4e4d7ab-3d4c-494b-9bba-ecbd6ebef8d0","system_id":"levelo_inurba_marseille","lat":43.29304,"lon":5.3746,"is_reserved":false,"is_disabled":false,"rental_uris":{"android":"levelo://app?vid=f4e4d7ab-3d4c-494b-9bba-ecbd6ebef8d0","ios":"levelo://app?vid=f4e4d7ab-3d4c-494b-9bba-ecbd6ebef8d0"},"vehicle_type_id":"4","last_reported":1707426360,"current_range_meters":4800,"station_id":"ce4bgi12rcd13ifvqb70","pricing_plan_id":"free"},{"bike_id":"66811588-cba1-4b7a-bc27-cf8100c8c54d","system_id":"levelo_inurba_marseille","lat":43.29301,"lon":5.37452,"is_reserved":false,"is_disabled":false,"rental_uris":{"android":"levelo://app?vid=66811588-cba1-4b7a-bc27-cf8100c8c54d","ios":"levelo://app?vid=66811588-cba1-4b7a-bc27-cf8100c8c54d"},"vehicle_type_id":"4","last_reported":1707426360,"current_range_meters":18000,"station_id":"ce4bgi12rcd13ifvqb70","pricing_plan_id":"free"},{"bike_id":"08b3ea40-57c5-435a-a6aa-6f5681a19bee","system_id":"levelo_inurba_marseille","lat":43.305994,"lon":5.393687,"is_reserved":false,"is_disabled":false,"rental_uris":{"android":"levelo://app?vid=08b3ea40-57c5-435a-a6aa-6f5681a19bee","ios":"levelo://app?vid=08b3ea40-57c5-435a-a6aa-6f5681a19bee"},"vehicle_type_id":"4","last_reported":1707426360,"current_range_meters":26000,"station_id":"ce4bh0p2rcd13ifvqd80","pricing_plan_id":"free"},{"bike_id":"9d76e28e-0aab-4747-af70-4ee452333d45","system_id":"levelo_inurba_marseille","lat":43.30312,"lon":5.39197,"is_reserved":false,"is_disabled":false,"rental_uris":{"android":"levelo://app?vid=9d76e28e-0aab-4747-af70-4ee452333d45","ios":"levelo://app?vid=9d76e28e-0aab-4747-af70-4ee452333d45"},"vehicle_type_id":"4","last_reported":1707426360,"current_range_meters":23200,"station_id":"ce4bgkh2rcd13ifvqbk0","pricing_plan_id":"free"},{"bike_id":"b78b743d-76d0-4e39-99b4-92d692ca5aeb","system_id":"levelo_inurba_marseille","lat":43.302992,"lon":5.392136,"is_reserved":false,"is_disabled":false,"rental_uris":{"android":"levelo://app?vid=b78b743d-76d0-4e39-99b4-92d692ca5aeb","ios":"levelo://app?vid=b78b743d-76d0-4e39-99b4-92d692ca5aeb"},"vehicle_type_id":"4","last_reported":1707426360,"current_range_meters":31200,"station_id":"ce4bgkh2rcd13ifvqbk0","pricing_plan_id":"free"},{"bike_id":"c456fe27-aefd-473f-b6c5-35bba2be9f6c","system_id":"levelo_inurba_marseille","lat":43.30085,"lon":5.390856,"is_reserved":false,"is_disabled":false,"rental_uris":{"android":"levelo://app?vid=c456fe27-aefd-473f-b6c5-35bba2be9f6c","ios":"levelo://app?vid=c456fe27-aefd-473f-b6c5-35bba2be9f6c"},"vehicle_type_id":"4","last_reported":1707426360,"current_range_meters":3600,"station_id":"ce4bh192rcd13ifvqdb0","pricing_plan_id":"free"},{"bike_id":"53de07a6-f3d8-44b1-abc6-94cb888ef343","system_id":"levelo_inurba_marseille","lat":43.30105,"lon":5.39086,"is_reserved":false,"is_disabled":false,"rental_uris":{"android":"levelo://app?vid=53de07a6-f3d8-44b1-abc6-94cb888ef343","ios":"levelo://app?vid=53de07a6-f3d8-44b1-abc6-94cb888ef343"},"vehicle_type_id":"4","last_reported":1707426360,"current_range_meters":29600,"station_id":"ce4bh192rcd13ifvqdb0","pricing_plan_id":"free"},{"bike_id":"429e8ede-0347-44c9-bb4e-d4e1d82e1b36","system_id":"levelo_inurba_marseille","lat":43.292675,"lon":5.376168,"is_reserved":false,"is_disabled":false,"rental_uris":{"android":"levelo://app?vid=429e8ede-0347-44c9-bb4e-d4e1d82e1b36","ios":"levelo://app?vid=429e8ede-0347-44c9-bb4e-d4e1d82e1b36"},"vehicle_type_id":"4","last_reported":1707426360,"current_range_meters":18000,"station_id":"","pricing_plan_id":"free"},{"bike_id":"ddb19a40-4b9b-4360-b310-9cee03d94c97","system_id":"levelo_inurba_marseille","lat":43.291675,"lon":5.371583,"is_reserved":false,"is_disabled":false,"rental_uris":{"android":"levelo://app?vid=ddb19a40-4b9b-4360-b310-9cee03d94c97","ios":"levelo://app?vid=ddb19a40-4b9b-4360-b310-9cee03d94c97"},"vehicle_type_id":"4","last_reported":1707426360,"current_range_meters":13200,"station_id":"ce4bha92rcd13ifvqeh0","pricing_plan_id":"free"},{"bike_id":"36b0734a-287c-4019-b11b-3a7a62c30510","system_id":"levelo_inurba_marseille","lat":43.298764,"lon":5.388973,"is_reserved":false,"is_disabled":false,"rental_uris":{"android":"levelo://app?vid=36b0734a-287c-4019-b11b-3a7a62c30510","ios":"levelo://app?vid=36b0734a-287c-4019-b11b-3a7a62c30510"},"vehicle_type_id":"4","last_reported":1707426360,"current_range_meters":25600,"station_id":"ce4bh392rcd13ifvqdl0","pricing_plan_id":"free"},{"bike_id":"e2853b03-6abd-45c7-bceb-ce558451a907","system_id":"levelo_inurba_marseille","lat":43.291675,"lon":5.371583,"is_reserved":false,"is_disabled":false,"rental_uris":{"android":"levelo://app?vid=e2853b03-6abd-45c7-bceb-ce558451a907","ios":"levelo://app?vid=e2853b03-6abd-45c7-bceb-ce558451a907"},"vehicle_type_id":"4","last_reported":1707426360,"current_range_meters":23200,"station_id":"ce4bha92rcd13ifvqeh0","pricing_plan_id":"free"},{"bike_id":"1a72034b-ecaa-4402-8ac8-cf56303c18b5","system_id":"levelo_inurba_marseille","lat":43.29883,"lon":5.38905,"is_reserved":false,"is_disabled":false,"rental_uris":{"android":"levelo://app?vid=1a72034b-ecaa-4402-8ac8-cf56303c18b5","ios":"levelo://app?vid=1a72034b-ecaa-4402-8ac8-cf56303c18b5"},"vehicle_type_id":"4","last_reported":1707426360,"current_range_meters":22400,"station_id":"ce4bh392rcd13ifvqdl0","pricing_plan_id":"free"},{"bike_id":"77ff2b43-29fa-4880-99bc-3e698db0bec3","system_id":"levelo_inurba_marseille","lat":43.291675,"lon":5.371583,"is_reserved":false,"is_disabled":false,"rental_uris":{"android":"levelo://app?vid=77ff2b43-29fa-4880-99bc-3e698db0bec3","ios":"levelo://app?vid=77ff2b43-29fa-4880-99bc-3e698db0bec3"},"vehicle_type_id":"4","last_reported":1707426360,"current_range_meters":19600,"station_id":"ce4bha92rcd13ifvqeh0","pricing_plan_id":"free"},{"bike_id":"eaff2975-2ef6-4681-84a6-bd37ce45f3c8","system_id":"levelo_inurba_marseille","lat":43.298764,"lon":5.388973,"is_reserved":false,"is_disabled":false,"rental_uris":{"android":"levelo://app?vid=eaff2975-2ef6-4681-84a6-bd37ce45f3c8","ios":"levelo://app?vid=eaff2975-2ef6-4681-84a6-bd37ce45f3c8"},"vehicle_type_id":"4","last_reported":1707426360,"current_range_meters":6400,"station_id":"ce4bh392rcd13ifvqdl0","pricing_plan_id":"free"},{"bike_id":"8dc6d682-eed0-47bd-8483-d437a0c20c9f","system_id":"levelo_inurba_marseille","lat":43.298764,"lon":5.388973,"is_reserved":false,"is_disabled":false,"rental_uris":{"android":"levelo://app?vid=8dc6d682-eed0-47bd-8483-d437a0c20c9f","ios":"levelo://app?vid=8dc6d682-eed0-47bd-8483-d437a0c20c9f"},"vehicle_type_id":"4","last_reported":1707426360,"current_range_meters":28800,"station_id":"ce4bh392rcd13ifvqdl0","pricing_plan_id":"free"},{"bike_id":"b27c03d6-25d6-4234-8cb8-16d9d9ee5451","system_id":"levelo_inurba_marseille","lat":43.291675,"lon":5.371583,"is_reserved":false,"is_disabled":false,"rental_uris":{"android":"levelo://app?vid=b27c03d6-25d6-4234-8cb8-16d9d9ee5451","ios":"levelo://app?vid=b27c03d6-25d6-4234-8cb8-16d9d9ee5451"},"vehicle_type_id":"4","last_reported":1707426360,"current_range_meters":16400,"station_id":"ce4bha92rcd13ifvqeh0","pricing_plan_id":"free"},{"bike_id":"99d77634-6e8b-4fd2-b94d-df5d78ad2035","system_id":"levelo_inurba_marseille","lat":43.298816,"lon":5.389084,"is_reserved":false,"is_disabled":false,"rental_uris":{"android":"levelo://app?vid=99d77634-6e8b-4fd2-b94d-df5d78ad2035","ios":"levelo://app?vid=99d77634-6e8b-4fd2-b94d-df5d78ad2035"},"vehicle_type_id":"4","last_reported":1707426360,"current_range_meters":29600,"station_id":"ce4bh392rcd13ifvqdl0","pricing_plan_id":"free"},{"bike_id":"ab26a5f7-3c0f-4fc5-b39f-9e5653a11856","system_id":"levelo_inurba_marseille","lat":43.29872,"lon":5.389,"is_reserved":false,"is_disabled":false,"rental_uris":{"android":"levelo://app?vid=ab26a5f7-3c0f-4fc5-b39f-9e5653a11856","ios":"levelo://app?vid=ab26a5f7-3c0f-4fc5-b39f-9e5653a11856"},"vehicle_type_id":"4","last_reported":1707426360,"current_range_meters":10800,"station_id":"ce4bh392rcd13ifvqdl0","pricing_plan_id":"free"},{"bike_id":"314c02f1-395b-4f9a-bab6-96017578778e","system_id":"levelo_inurba_marseille","lat":43.291671,"lon":5.371575,"is_reserved":false,"is_disabled":false,"rental_uris":{"android":"levelo://app?vid=314c02f1-395b-4f9a-bab6-96017578778e","ios":"levelo://app?vid=314c02f1-395b-4f9a-bab6-96017578778e"},"vehicle_type_id":"4","last_reported":1707426360,"current_range_meters":11200,"station_id":"ce4bha92rcd13ifvqeh0","pricing_plan_id":"free"},{"bike_id":"373c31ff-4465-4bab-a8ec-60880b044f5f","system_id":"levelo_inurba_marseille","lat":43.291675,"lon":5.371583,"is_reserved":false,"is_disabled":false,"rental_uris":{"android":"levelo://app?vid=373c31ff-4465-4bab-a8ec-60880b044f5f","ios":"levelo://app?vid=373c31ff-4465-4bab-a8ec-60880b044f5f"},"vehicle_type_id":"4","last_reported":1707426360,"current_range_meters":20800,"station_id":"ce4bha92rcd13ifvqeh0","pricing_plan_id":"free"},{"bike_id":"8d4c2f22-45e3-4e99-a0b9-330fb9590789","system_id":"levelo_inurba_marseille","lat":43.298764,"lon":5.388973,"is_reserved":false,"is_disabled":false,"rental_uris":{"android":"levelo://app?vid=8d4c2f22-45e3-4e99-a0b9-330fb9590789","ios":"levelo://app?vid=8d4c2f22-45e3-4e99-a0b9-330fb9590789"},"vehicle_type_id":"4","last_reported":1707426360,"current_range_meters":12800,"station_id":"ce4bh392rcd13ifvqdl0","pricing_plan_id":"free"},{"bike_id":"e673e5f0-4414-4e20-9b42-4ecb02ba21b5","system_id":"levelo_inurba_marseille","lat":43.29874,"lon":5.3891,"is_reserved":false,"is_disabled":false,"rental_uris":{"android":"levelo://app?vid=e673e5f0-4414-4e20-9b42-4ecb02ba21b5","ios":"levelo://app?vid=e673e5f0-4414-4e20-9b42-4ecb02ba21b5"},"vehicle_type_id":"4","last_reported":1707426360,"current_range_meters":7600,"station_id":"ce4bh392rcd13ifvqdl0","pricing_plan_id":"free"},{"bike_id":"630f268d-2535-45ba-bd4f-f8bbe121e42d","system_id":"levelo_inurba_marseille","lat":43.291671,"lon":5.371575,"is_reserved":false,"is_disabled":false,"rental_uris":{"android":"levelo://app?vid=630f268d-2535-45ba-bd4f-f8bbe121e42d","ios":"levelo://app?vid=630f268d-2535-45ba-bd4f-f8bbe121e42d"},"vehicle_type_id":"4","last_reported":1707426360,"current_range_meters":17600,"station_id":"ce4bha92rcd13ifvqeh0","pricing_plan_id":"free"},{"bike_id":"0dc783cd-e17b-4807-8453-f6df8576825d","system_id":"levelo_inurba_marseille","lat":43.291675,"lon":5.371583,"is_reserved":false,"is_disabled":false,"rental_uris":{"android":"levelo://app?vid=0dc783cd-e17b-4807-8453-f6df8576825d","ios":"levelo://app?vid=0dc783cd-e17b-4807-8453-f6df8576825d"},"vehicle_type_id":"4","last_reported":1707426360,"current_range_meters":13600,"station_id":"ce4bha92rcd13ifvqeh0","pricing_plan_id":"free"},{"bike_id":"82db12c8-4ef4-4a40-9c38-9b5070192362","system_id":"levelo_inurba_marseille","lat":43.29873,"lon":5.38915,"is_reserved":false,"is_disabled":false,"rental_uris":{"android":"levelo://app?vid=82db12c8-4ef4-4a40-9c38-9b5070192362","ios":"levelo://app?vid=82db12c8-4ef4-4a40-9c38-9b5070192362"},"vehicle_type_id":"4","last_reported":1707426360,"current_range_meters":9200,"station_id":"ce4bh392rcd13ifvqdl0","pricing_plan_id":"free"},{"bike_id":"05779b34-c8a9-4500-9494-ca40a6d03845","system_id":"levelo_inurba_marseille","lat":43.298764,"lon":5.388973,"is_reserved":false,"is_disabled":false,"rental_uris":{"android":"levelo://app?vid=05779b34-c8a9-4500-9494-ca40a6d03845","ios":"levelo://app?vid=05779b34-c8a9-4500-9494-ca40a6d03845"},"vehicle_type_id":"4","last_reported":1707426360,"current_range_meters":5600,"station_id":"ce4bh392rcd13ifvqdl0","pricing_plan_id":"free"},{"bike_id":"08cf43ad-d088-48b4-a8f7-be76a3d53af4","system_id":"levelo_inurba_marseille","lat":43.291675,"lon":5.371583,"is_reserved":false,"is_disabled":false,"rental_uris":{"android":"levelo://app?vid=08cf43ad-d088-48b4-a8f7-be76a3d53af4","ios":"levelo://app?vid=08cf43ad-d088-48b4-a8f7-be76a3d53af4"},"vehicle_type_id":"4","last_reported":1707426360,"current_range_meters":27200,"station_id":"ce4bha92rcd13ifvqeh0","pricing_plan_id":"free"},{"bike_id":"5c789018-301c-43c5-ae07-fb4f18fd8ac6","system_id":"levelo_inurba_marseille","lat":43.291994,"lon":5.357886,"is_reserved":false,"is_disabled":false,"rental_uris":{"android":"levelo://app?vid=5c789018-301c-43c5-ae07-fb4f18fd8ac6","ios":"levelo://app?vid=5c789018-301c-43c5-ae07-fb4f18fd8ac6"},"vehicle_type_id":"4","last_reported":1707426360,"current_range_meters":21600,"station_id":"ce4bhb12rcd13ifvqel0","pricing_plan_id":"free"},{"bike_id":"f83eb0ff-6187-4fe4-90f8-0acee4211487","system_id":"levelo_inurba_marseille","lat":43.30887,"lon":5.396378,"is_reserved":false,"is_disabled":false,"rental_uris":{"android":"levelo://app?vid=f83eb0ff-6187-4fe4-90f8-0acee4211487","ios":"levelo://app?vid=f83eb0ff-6187-4fe4-90f8-0acee4211487"},"vehicle_type_id":"4","last_reported":1707426360,"current_range_meters":0,"station_id":"ce4bh012rcd13ifvqcv0","pricing_plan_id":"free"},{"bike_id":"d797193c-366c-4924-beb1-b0dfbad5c140","system_id":"levelo_inurba_marseille","lat":43.30885,"lon":5.39642,"is_reserved":false,"is_disabled":false,"rental_uris":{"android":"levelo://app?vid=d797193c-366c-4924-beb1-b0dfbad5c140","ios":"levelo://app?vid=d797193c-366c-4924-beb1-b0dfbad5c140"},"vehicle_type_id":"4","last_reported":1707426360,"current_range_meters":23200,"station_id":"ce4bh012rcd13ifvqcv0","pricing_plan_id":"free"},{"bike_id":"3853f241-2369-44c5-9186-2545e13de57c","system_id":"levelo_inurba_marseille","lat":43.30881,"lon":5.39643,"is_reserved":false,"is_disabled":false,"rental_uris":{"android":"levelo://app?vid=3853f241-2369-44c5-9186-2545e13de57c","ios":"levelo://app?vid=3853f241-2369-44c5-9186-2545e13de57c"},"vehicle_type_id":"4","last_reported":1707426360,"current_range_meters":0,"station_id":"ce4bh012rcd13ifvqcv0","pricing_plan_id":"free"},{"bike_id":"d05b9da8-31cc-4d64-a36c-00b1e2601ab8","system_id":"levelo_inurba_marseille","lat":43.313291,"lon":5.396838,"is_reserved":false,"is_disabled":false,"rental_uris":{"android":"levelo://app?vid=d05b9da8-31cc-4d64-a36c-00b1e2601ab8","ios":"levelo://app?vid=d05b9da8-31cc-4d64-a36c-00b1e2601ab8"},"vehicle_type_id":"4","last_reported":1707426360,"current_range_meters":24000,"station_id":"ce4bgvp2rcd13ifvqcu0","pricing_plan_id":"free"},{"bike_id":"75eb9766-a55d-4d04-aced-b3811f66cad9","system_id":"levelo_inurba_marseille","lat":43.29529,"lon":5.385581,"is_reserved":false,"is_disabled":false,"rental_uris":{"android":"levelo://app?vid=75eb9766-a55d-4d04-aced-b3811f66cad9","ios":"levelo://app?vid=75eb9766-a55d-4d04-aced-b3811f66cad9"},"vehicle_type_id":"4","last_reported":1707426360,"current_range_meters":0,"station_id":"ce4bgih2rcd13ifvqba0","pricing_plan_id":"free"},{"bike_id":"3e5581e3-11bd-4623-b8c8-a78058e97905","system_id":"levelo_inurba_marseille","lat":43.30886,"lon":5.39651,"is_reserved":false,"is_disabled":false,"rental_uris":{"android":"levelo://app?vid=3e5581e3-11bd-4623-b8c8-a78058e97905","ios":"levelo://app?vid=3e5581e3-11bd-4623-b8c8-a78058e97905"},"vehicle_type_id":"4","last_reported":1707426360,"current_range_meters":30800,"station_id":"ce4bh012rcd13ifvqcv0","pricing_plan_id":"free"},{"bike_id":"ae489a57-3177-4f97-8008-62c19767e9bf","system_id":"levelo_inurba_marseille","lat":43.29529,"lon":5.385581,"is_reserved":false,"is_disabled":false,"rental_uris":{"android":"levelo://app?vid=ae489a57-3177-4f97-8008-62c19767e9bf","ios":"levelo://app?vid=ae489a57-3177-4f97-8008-62c19767e9bf"},"vehicle_type_id":"4","last_reported":1707426360,"current_range_meters":14800,"station_id":"ce4bgih2rcd13ifvqba0","pricing_plan_id":"free"},{"bike_id":"8de2cbf0-eeac-4a10-b2e9-ad0ffe6e0a0a","system_id":"levelo_inurba_marseille","lat":43.309047,"lon":5.396551,"is_reserved":false,"is_disabled":false,"rental_uris":{"android":"levelo://app?vid=8de2cbf0-eeac-4a10-b2e9-ad0ffe6e0a0a","ios":"levelo://app?vid=8de2cbf0-eeac-4a10-b2e9-ad0ffe6e0a0a"},"vehicle_type_id":"4","last_reported":1707426360,"current_range_meters":0,"station_id":"ce4bh012rcd13ifvqcv0","pricing_plan_id":"free"},{"bike_id":"ec852974-7fd5-42f2-918b-6b76a3740ed9","system_id":"levelo_inurba_marseille","lat":43.309047,"lon":5.396551,"is_reserved":false,"is_disabled":false,"rental_uris":{"android":"levelo://app?vid=ec852974-7fd5-42f2-918b-6b76a3740ed9","ios":"levelo://app?vid=ec852974-7fd5-42f2-918b-6b76a3740ed9"},"vehicle_type_id":"4","last_reported":1707426360,"current_range_meters":6800,"station_id":"ce4bh012rcd13ifvqcv0","pricing_plan_id":"free"},{"bike_id":"1bbae4f2-2908-46cf-a846-47ae7af97e09","system_id":"levelo_inurba_marseille","lat":43.29529,"lon":5.385581,"is_reserved":false,"is_disabled":false,"rental_uris":{"android":"levelo://app?vid=1bbae4f2-2908-46cf-a846-47ae7af97e09","ios":"levelo://app?vid=1bbae4f2-2908-46cf-a846-47ae7af97e09"},"vehicle_type_id":"4","last_reported":1707426360,"current_range_meters":10000,"station_id":"ce4bgih2rcd13ifvqba0","pricing_plan_id":"free"},{"bike_id":"4bc1e160-792c-415b-860f-4c7f38fa7f59","system_id":"levelo_inurba_marseille","lat":43.30881,"lon":5.39654,"is_reserved":false,"is_disabled":false,"rental_uris":{"android":"levelo://app?vid=4bc1e160-792c-415b-860f-4c7f38fa7f59","ios":"levelo://app?vid=4bc1e160-792c-415b-860f-4c7f38fa7f59"},"vehicle_type_id":"4","last_reported":1707426360,"current_range_meters":18800,"station_id":"ce4bh012rcd13ifvqcv0","pricing_plan_id":"free"},{"bike_id":"cc9ab02c-c5ba-452f-aba4-518ea3b262ae","system_id":"levelo_inurba_marseille","lat":43.290833,"lon":5.36667,"is_reserved":false,"is_disabled":false,"rental_uris":{"android":"levelo://app?vid=cc9ab02c-c5ba-452f-aba4-518ea3b262ae","ios":"levelo://app?vid=cc9ab02c-c5ba-452f-aba4-518ea3b262ae"},"vehicle_type_id":"4","last_reported":1707426360,"current_range_meters":0,"station_id":"","pricing_plan_id":"free"},{"bike_id":"02c00062-d27f-4ad2-bed2-6ad45c094173","system_id":"levelo_inurba_marseille","lat":43.29529,"lon":5.385581,"is_reserved":false,"is_disabled":false,"rental_uris":{"android":"levelo://app?vid=02c00062-d27f-4ad2-bed2-6ad45c094173","ios":"levelo://app?vid=02c00062-d27f-4ad2-bed2-6ad45c094173"},"vehicle_type_id":"4","last_reported":1707426360,"current_range_meters":23200,"station_id":"ce4bgih2rcd13ifvqba0","pricing_plan_id":"free"},{"bike_id":"710a8eb9-0d65-4ebf-9bdd-26ad33a517a7","system_id":"levelo_inurba_marseille","lat":43.29529,"lon":5.385581,"is_reserved":false,"is_disabled":false,"rental_uris":{"android":"levelo://app?vid=710a8eb9-0d65-4ebf-9bdd-26ad33a517a7","ios":"levelo://app?vid=710a8eb9-0d65-4ebf-9bdd-26ad33a517a7"},"vehicle_type_id":"4","last_reported":1707426360,"current_range_meters":16000,"station_id":"ce4bgih2rcd13ifvqba0","pricing_plan_id":"free"},{"bike_id":"2faa59fc-b902-414a-816f-6c676930a42e","system_id":"levelo_inurba_marseille","lat":43.29529,"lon":5.385581,"is_reserved":false,"is_disabled":false,"rental_uris":{"android":"levelo://app?vid=2faa59fc-b902-414a-816f-6c676930a42e","ios":"levelo://app?vid=2faa59fc-b902-414a-816f-6c676930a42e"},"vehicle_type_id":"4","last_reported":1707426360,"current_range_meters":0,"station_id":"ce4bgih2rcd13ifvqba0","pricing_plan_id":"free"},{"bike_id":"3144169f-206e-414f-b07c-2ed91717efd4","system_id":"levelo_inurba_marseille","lat":43.29529,"lon":5.385581,"is_reserved":false,"is_disabled":false,"rental_uris":{"android":"levelo://app?vid=3144169f-206e-414f-b07c-2ed91717efd4","ios":"levelo://app?vid=3144169f-206e-414f-b07c-2ed91717efd4"},"vehicle_type_id":"4","last_reported":1707426360,"current_range_meters":2400,"station_id":"ce4bgih2rcd13ifvqba0","pricing_plan_id":"free"},{"bike_id":"f106d035-cdcd-49eb-8481-8e8abc1b6d8f","system_id":"levelo_inurba_marseille","lat":43.29531,"lon":5.3854,"is_reserved":false,"is_disabled":false,"rental_uris":{"android":"levelo://app?vid=f106d035-cdcd-49eb-8481-8e8abc1b6d8f","ios":"levelo://app?vid=f106d035-cdcd-49eb-8481-8e8abc1b6d8f"},"vehicle_type_id":"4","last_reported":1707426360,"current_range_meters":20800,"station_id":"","pricing_plan_id":"free"},{"bike_id":"d32507a4-bb7d-4273-85bc-f167d2264ef8","system_id":"levelo_inurba_marseille","lat":43.29529,"lon":5.385581,"is_reserved":false,"is_disabled":false,"rental_uris":{"android":"levelo://app?vid=d32507a4-bb7d-4273-85bc-f167d2264ef8","ios":"levelo://app?vid=d32507a4-bb7d-4273-85bc-f167d2264ef8"},"vehicle_type_id":"4","last_reported":1707426360,"current_range_meters":27600,"station_id":"ce4bgih2rcd13ifvqba0","pricing_plan_id":"free"},{"bike_id":"8ab2d7cc-6f11-4228-a4fd-01982ed03545","system_id":"levelo_inurba_marseille","lat":43.29529,"lon":5.385581,"is_reserved":false,"is_disabled":false,"rental_uris":{"android":"levelo://app?vid=8ab2d7cc-6f11-4228-a4fd-01982ed03545","ios":"levelo://app?vid=8ab2d7cc-6f11-4228-a4fd-01982ed03545"},"vehicle_type_id":"4","last_reported":1707426360,"current_range_meters":23200,"station_id":"ce4bgih2rcd13ifvqba0","pricing_plan_id":"free"},{"bike_id":"72a5ffdd-aab2-4a65-b076-52d4b7dbcda4","system_id":"levelo_inurba_marseille","lat":43.290779,"lon":5.371482,"is_reserved":false,"is_disabled":false,"rental_uris":{"android":"levelo://app?vid=72a5ffdd-aab2-4a65-b076-52d4b7dbcda4","ios":"levelo://app?vid=72a5ffdd-aab2-4a65-b076-52d4b7dbcda4"},"vehicle_type_id":"4","last_reported":1707426360,"current_range_meters":24400,"station_id":"ce4bh5p2rcd13ifvqe4g","pricing_plan_id":"free"},{"bike_id":"49a93081-1ec1-402c-8f1d-be5213d50969","system_id":"levelo_inurba_marseille","lat":43.29545,"lon":5.38608,"is_reserved":false,"is_disabled":false,"rental_uris":{"android":"levelo://app?vid=49a93081-1ec1-402c-8f1d-be5213d50969","ios":"levelo://app?vid=49a93081-1ec1-402c-8f1d-be5213d50969"},"vehicle_type_id":"4","last_reported":1707426360,"current_range_meters":18400,"station_id":"ce4bgih2rcd13ifvqba0","pricing_plan_id":"free"},{"bike_id":"309038f0-4ff4-49b5-8236-45886e2831f0","system_id":"levelo_inurba_marseille","lat":43.29543,"lon":5.38615,"is_reserved":false,"is_disabled":false,"rental_uris":{"android":"levelo://app?vid=309038f0-4ff4-49b5-8236-45886e2831f0","ios":"levelo://app?vid=309038f0-4ff4-49b5-8236-45886e2831f0"},"vehicle_type_id":"4","last_reported":1707426360,"current_range_meters":4000,"station_id":"","pricing_plan_id":"free"},{"bike_id":"d0393aec-e829-407b-9d4d-ba285d4c279c","system_id":"levelo_inurba_marseille","lat":43.290779,"lon":5.371482,"is_reserved":false,"is_disabled":false,"rental_uris":{"android":"levelo://app?vid=d0393aec-e829-407b-9d4d-ba285d4c279c","ios":"levelo://app?vid=d0393aec-e829-407b-9d4d-ba285d4c279c"},"vehicle_type_id":"4","last_reported":1707426360,"current_range_meters":4000,"station_id":"ce4bh5p2rcd13ifvqe4g","pricing_plan_id":"free"},{"bike_id":"8575174a-9570-45c1-adb8-7e227b7e35f0","system_id":"levelo_inurba_marseille","lat":43.290722,"lon":5.371538,"is_reserved":false,"is_disabled":false,"rental_uris":{"android":"levelo://app?vid=8575174a-9570-45c1-adb8-7e227b7e35f0","ios":"levelo://app?vid=8575174a-9570-45c1-adb8-7e227b7e35f0"},"vehicle_type_id":"4","last_reported":1707426360,"current_range_meters":4000,"station_id":"ce4bh5p2rcd13ifvqe4g","pricing_plan_id":"free"},{"bike_id":"a9e21f2d-3355-4bf9-b7f7-4fdfeaf836d0","system_id":"levelo_inurba_marseille","lat":43.290779,"lon":5.371482,"is_reserved":false,"is_disabled":false,"rental_uris":{"android":"levelo://app?vid=a9e21f2d-3355-4bf9-b7f7-4fdfeaf836d0","ios":"levelo://app?vid=a9e21f2d-3355-4bf9-b7f7-4fdfeaf836d0"},"vehicle_type_id":"4","last_reported":1707426360,"current_range_meters":29600,"station_id":"ce4bh5p2rcd13ifvqe4g","pricing_plan_id":"free"},{"bike_id":"618187df-8147-4b7d-b6b9-aec2120e7e39","system_id":"levelo_inurba_marseille","lat":43.290779,"lon":5.371482,"is_reserved":false,"is_disabled":false,"rental_uris":{"android":"levelo://app?vid=618187df-8147-4b7d-b6b9-aec2120e7e39","ios":"levelo://app?vid=618187df-8147-4b7d-b6b9-aec2120e7e39"},"vehicle_type_id":"4","last_reported":1707426360,"current_range_meters":0,"station_id":"ce4bh5p2rcd13ifvqe4g","pricing_plan_id":"free"},{"bike_id":"46e7f75e-73b3-4a2b-bcd1-1d983f77bfc5","system_id":"levelo_inurba_marseille","lat":43.290779,"lon":5.371482,"is_reserved":false,"is_disabled":false,"rental_uris":{"android":"levelo://app?vid=46e7f75e-73b3-4a2b-bcd1-1d983f77bfc5","ios":"levelo://app?vid=46e7f75e-73b3-4a2b-bcd1-1d983f77bfc5"},"vehicle_type_id":"4","last_reported":1707426360,"current_range_meters":23200,"station_id":"ce4bh5p2rcd13ifvqe4g","pricing_plan_id":"free"},{"bike_id":"8e61cdaf-dafc-4c65-9b08-283856c628de","system_id":"levelo_inurba_marseille","lat":43.29114,"lon":5.35909,"is_reserved":false,"is_disabled":false,"rental_uris":{"android":"levelo://app?vid=8e61cdaf-dafc-4c65-9b08-283856c628de","ios":"levelo://app?vid=8e61cdaf-dafc-4c65-9b08-283856c628de"},"vehicle_type_id":"4","last_reported":1707426360,"current_range_meters":4800,"station_id":"","pricing_plan_id":"free"},{"bike_id":"6923c8b0-eff7-4a54-b84f-6ecec9d88453","system_id":"levelo_inurba_marseille","lat":43.302008,"lon":5.394694,"is_reserved":false,"is_disabled":false,"rental_uris":{"android":"levelo://app?vid=6923c8b0-eff7-4a54-b84f-6ecec9d88453","ios":"levelo://app?vid=6923c8b0-eff7-4a54-b84f-6ecec9d88453"},"vehicle_type_id":"4","last_reported":1707426360,"current_range_meters":10000,"station_id":"ce4bh0p2rcd13ifvqd70","pricing_plan_id":"free"},{"bike_id":"a92793e8-ee1c-47a0-b247-da995f1f8ba3","system_id":"levelo_inurba_marseille","lat":43.30212,"lon":5.39458,"is_reserved":false,"is_disabled":false,"rental_uris":{"android":"levelo://app?vid=a92793e8-ee1c-47a0-b247-da995f1f8ba3","ios":"levelo://app?vid=a92793e8-ee1c-47a0-b247-da995f1f8ba3"},"vehicle_type_id":"4","last_reported":1707426360,"current_range_meters":30400,"station_id":"ce4bh0p2rcd13ifvqd70","pricing_plan_id":"free"},{"bike_id":"8bfac769-69c7-4aa2-873f-0c3cd9c5a773","system_id":"levelo_inurba_marseille","lat":43.30213,"lon":5.3946,"is_reserved":false,"is_disabled":false,"rental_uris":{"android":"levelo://app?vid=8bfac769-69c7-4aa2-873f-0c3cd9c5a773","ios":"levelo://app?vid=8bfac769-69c7-4aa2-873f-0c3cd9c5a773"},"vehicle_type_id":"4","last_reported":1707426360,"current_range_meters":28400,"station_id":"ce4bh0p2rcd13ifvqd70","pricing_plan_id":"free"},{"bike_id":"328951a7-83c0-4dfb-b15a-b12050e946e3","system_id":"levelo_inurba_marseille","lat":43.302008,"lon":5.394694,"is_reserved":false,"is_disabled":false,"rental_uris":{"android":"levelo://app?vid=328951a7-83c0-4dfb-b15a-b12050e946e3","ios":"levelo://app?vid=328951a7-83c0-4dfb-b15a-b12050e946e3"},"vehicle_type_id":"4","last_reported":1707426360,"current_range_meters":11600,"station_id":"ce4bh0p2rcd13ifvqd70","pricing_plan_id":"free"},{"bike_id":"f276b896-39e4-4e31-9364-6e5c78961c8b","system_id":"levelo_inurba_marseille","lat":43.302008,"lon":5.394694,"is_reserved":false,"is_disabled":false,"rental_uris":{"android":"levelo://app?vid=f276b896-39e4-4e31-9364-6e5c78961c8b","ios":"levelo://app?vid=f276b896-39e4-4e31-9364-6e5c78961c8b"},"vehicle_type_id":"4","last_reported":1707426360,"current_range_meters":12000,"station_id":"ce4bh0p2rcd13ifvqd70","pricing_plan_id":"free"},{"bike_id":"929a1820-ce1f-44da-abee-6c9fdb39a3c7","system_id":"levelo_inurba_marseille","lat":43.302008,"lon":5.394694,"is_reserved":false,"is_disabled":false,"rental_uris":{"android":"levelo://app?vid=929a1820-ce1f-44da-abee-6c9fdb39a3c7","ios":"levelo://app?vid=929a1820-ce1f-44da-abee-6c9fdb39a3c7"},"vehicle_type_id":"4","last_reported":1707426360,"current_range_meters":18000,"station_id":"ce4bh0p2rcd13ifvqd70","pricing_plan_id":"free"},{"bike_id":"64bef546-aea8-4c2f-bfe4-3e5b6d6d4191","system_id":"levelo_inurba_marseille","lat":43.3021,"lon":5.39469,"is_reserved":false,"is_disabled":false,"rental_uris":{"android":"levelo://app?vid=64bef546-aea8-4c2f-bfe4-3e5b6d6d4191","ios":"levelo://app?vid=64bef546-aea8-4c2f-bfe4-3e5b6d6d4191"},"vehicle_type_id":"4","last_reported":1707426360,"current_range_meters":30000,"station_id":"ce4bh0p2rcd13ifvqd70","pricing_plan_id":"free"},{"bike_id":"e2d88ed0-9403-4bc9-9083-31d012904da5","system_id":"levelo_inurba_marseille","lat":43.30201,"lon":5.39465,"is_reserved":false,"is_disabled":false,"rental_uris":{"android":"levelo://app?vid=e2d88ed0-9403-4bc9-9083-31d012904da5","ios":"levelo://app?vid=e2d88ed0-9403-4bc9-9083-31d012904da5"},"vehicle_type_id":"4","last_reported":1707426360,"current_range_meters":31200,"station_id":"ce4bh0p2rcd13ifvqd70","pricing_plan_id":"free"},{"bike_id":"cee74369-784c-4768-8490-7e3b2cd97469","system_id":"levelo_inurba_marseille","lat":43.290631,"lon":5.359244,"is_reserved":false,"is_disabled":false,"rental_uris":{"android":"levelo://app?vid=cee74369-784c-4768-8490-7e3b2cd97469","ios":"levelo://app?vid=cee74369-784c-4768-8490-7e3b2cd97469"},"vehicle_type_id":"4","last_reported":1707426360,"current_range_meters":22400,"station_id":"ce4bha92rcd13ifvqeg0","pricing_plan_id":"free"},{"bike_id":"8ffbe46c-b9e7-420d-b879-c85814510ca1","system_id":"levelo_inurba_marseille","lat":43.294153,"lon":5.386305,"is_reserved":false,"is_disabled":false,"rental_uris":{"android":"levelo://app?vid=8ffbe46c-b9e7-420d-b879-c85814510ca1","ios":"levelo://app?vid=8ffbe46c-b9e7-420d-b879-c85814510ca1"},"vehicle_type_id":"4","last_reported":1707426360,"current_range_meters":18000,"station_id":"ce4bh2h2rcd13ifvqdh0","pricing_plan_id":"free"},{"bike_id":"0001e0f0-8dc1-4aae-a245-2cce0a3a3af1","system_id":"levelo_inurba_marseille","lat":43.290319,"lon":5.375732,"is_reserved":false,"is_disabled":false,"rental_uris":{"android":"levelo://app?vid=0001e0f0-8dc1-4aae-a245-2cce0a3a3af1","ios":"levelo://app?vid=0001e0f0-8dc1-4aae-a245-2cce0a3a3af1"},"vehicle_type_id":"4","last_reported":1707426360,"current_range_meters":6400,"station_id":"ce4bh692rcd13ifvqe90","pricing_plan_id":"free"},{"bike_id":"9c1877b3-7445-477c-b0fb-1f752e82f6a7","system_id":"levelo_inurba_marseille","lat":43.294153,"lon":5.386305,"is_reserved":false,"is_disabled":false,"rental_uris":{"android":"levelo://app?vid=9c1877b3-7445-477c-b0fb-1f752e82f6a7","ios":"levelo://app?vid=9c1877b3-7445-477c-b0fb-1f752e82f6a7"},"vehicle_type_id":"4","last_reported":1707426360,"current_range_meters":0,"station_id":"ce4bh2h2rcd13ifvqdh0","pricing_plan_id":"free"},{"bike_id":"8c49ce70-b0e1-4546-919d-fe8571d1d0dd","system_id":"levelo_inurba_marseille","lat":43.294162,"lon":5.386292,"is_reserved":false,"is_disabled":false,"rental_uris":{"android":"levelo://app?vid=8c49ce70-b0e1-4546-919d-fe8571d1d0dd","ios":"levelo://app?vid=8c49ce70-b0e1-4546-919d-fe8571d1d0dd"},"vehicle_type_id":"4","last_reported":1707426360,"current_range_meters":3200,"station_id":"ce4bh2h2rcd13ifvqdh0","pricing_plan_id":"free"},{"bike_id":"952506b4-86b8-402e-92f0-284ba7a1e8ca","system_id":"levelo_inurba_marseille","lat":43.29421,"lon":5.38626,"is_reserved":false,"is_disabled":false,"rental_uris":{"android":"levelo://app?vid=952506b4-86b8-402e-92f0-284ba7a1e8ca","ios":"levelo://app?vid=952506b4-86b8-402e-92f0-284ba7a1e8ca"},"vehicle_type_id":"4","last_reported":1707426360,"current_range_meters":11200,"station_id":"ce4bh2h2rcd13ifvqdh0","pricing_plan_id":"free"},{"bike_id":"d3cac4d5-aa1f-4f86-a4f4-9da33a93781c","system_id":"levelo_inurba_marseille","lat":43.29418,"lon":5.38623,"is_reserved":false,"is_disabled":false,"rental_uris":{"android":"levelo://app?vid=d3cac4d5-aa1f-4f86-a4f4-9da33a93781c","ios":"levelo://app?vid=d3cac4d5-aa1f-4f86-a4f4-9da33a93781c"},"vehicle_type_id":"4","last_reported":1707426360,"current_range_meters":2000,"station_id":"ce4bh2h2rcd13ifvqdh0","pricing_plan_id":"free"},{"bike_id":"d0e57f79-83f5-4dab-8909-2e2eb540cd48","system_id":"levelo_inurba_marseille","lat":43.29419,"lon":5.38625,"is_reserved":false,"is_disabled":false,"rental_uris":{"android":"levelo://app?vid=d0e57f79-83f5-4dab-8909-2e2eb540cd48","ios":"levelo://app?vid=d0e57f79-83f5-4dab-8909-2e2eb540cd48"},"vehicle_type_id":"4","last_reported":1707426360,"current_range_meters":10800,"station_id":"ce4bh2h2rcd13ifvqdh0","pricing_plan_id":"free"},{"bike_id":"8dfe7311-41b2-4ec7-a484-a7ee7390aa62","system_id":"levelo_inurba_marseille","lat":43.294162,"lon":5.386292,"is_reserved":false,"is_disabled":false,"rental_uris":{"android":"levelo://app?vid=8dfe7311-41b2-4ec7-a484-a7ee7390aa62","ios":"levelo://app?vid=8dfe7311-41b2-4ec7-a484-a7ee7390aa62"},"vehicle_type_id":"4","last_reported":1707426360,"current_range_meters":21600,"station_id":"ce4bh2h2rcd13ifvqdh0","pricing_plan_id":"free"},{"bike_id":"aca372c3-cccc-4999-b799-8ebe676498de","system_id":"levelo_inurba_marseille","lat":43.294172,"lon":5.386252,"is_reserved":false,"is_disabled":false,"rental_uris":{"android":"levelo://app?vid=aca372c3-cccc-4999-b799-8ebe676498de","ios":"levelo://app?vid=aca372c3-cccc-4999-b799-8ebe676498de"},"vehicle_type_id":"4","last_reported":1707426360,"current_range_meters":23600,"station_id":"ce4bh2h2rcd13ifvqdh0","pricing_plan_id":"free"},{"bike_id":"907dc810-ca1c-4d96-ae54-e7d25c31f567","system_id":"levelo_inurba_marseille","lat":43.29417,"lon":5.38626,"is_reserved":false,"is_disabled":false,"rental_uris":{"android":"levelo://app?vid=907dc810-ca1c-4d96-ae54-e7d25c31f567","ios":"levelo://app?vid=907dc810-ca1c-4d96-ae54-e7d25c31f567"},"vehicle_type_id":"4","last_reported":1707426360,"current_range_meters":0,"station_id":"ce4bh2h2rcd13ifvqdh0","pricing_plan_id":"free"},{"bike_id":"f08ebc67-ff3a-46c1-b86a-9f3aebfadb85","system_id":"levelo_inurba_marseille","lat":43.29416,"lon":5.38626,"is_reserved":false,"is_disabled":false,"rental_uris":{"android":"levelo://app?vid=f08ebc67-ff3a-46c1-b86a-9f3aebfadb85","ios":"levelo://app?vid=f08ebc67-ff3a-46c1-b86a-9f3aebfadb85"},"vehicle_type_id":"4","last_reported":1707426360,"current_range_meters":1200,"station_id":"ce4bh2h2rcd13ifvqdh0","pricing_plan_id":"free"},{"bike_id":"52f8be39-f319-4612-b0e3-9abb9fc6aad1","system_id":"levelo_inurba_marseille","lat":43.29417,"lon":5.38628,"is_reserved":false,"is_disabled":false,"rental_uris":{"android":"levelo://app?vid=52f8be39-f319-4612-b0e3-9abb9fc6aad1","ios":"levelo://app?vid=52f8be39-f319-4612-b0e3-9abb9fc6aad1"},"vehicle_type_id":"4","last_reported":1707426360,"current_range_meters":2400,"station_id":"ce4bh2h2rcd13ifvqdh0","pricing_plan_id":"free"},{"bike_id":"a416f6de-cddc-4ff3-9ed6-77058d57c74e","system_id":"levelo_inurba_marseille","lat":43.289184,"lon":5.366408,"is_reserved":false,"is_disabled":false,"rental_uris":{"android":"levelo://app?vid=a416f6de-cddc-4ff3-9ed6-77058d57c74e","ios":"levelo://app?vid=a416f6de-cddc-4ff3-9ed6-77058d57c74e"},"vehicle_type_id":"4","last_reported":1707426360,"current_range_meters":17600,"station_id":"ce4bhap2rcd13ifvqek0","pricing_plan_id":"free"},{"bike_id":"44eeff0f-f7c9-4bc9-84d3-a9d0beec2437","system_id":"levelo_inurba_marseille","lat":43.294162,"lon":5.386292,"is_reserved":false,"is_disabled":false,"rental_uris":{"android":"levelo://app?vid=44eeff0f-f7c9-4bc9-84d3-a9d0beec2437","ios":"levelo://app?vid=44eeff0f-f7c9-4bc9-84d3-a9d0beec2437"},"vehicle_type_id":"4","last_reported":1707426360,"current_range_meters":0,"station_id":"ce4bh2h2rcd13ifvqdh0","pricing_plan_id":"free"},{"bike_id":"cb5e4be7-515f-42a5-abb0-2729711d81d7","system_id":"levelo_inurba_marseille","lat":43.294162,"lon":5.386292,"is_reserved":false,"is_disabled":false,"rental_uris":{"android":"levelo://app?vid=cb5e4be7-515f-42a5-abb0-2729711d81d7","ios":"levelo://app?vid=cb5e4be7-515f-42a5-abb0-2729711d81d7"},"vehicle_type_id":"4","last_reported":1707426360,"current_range_meters":11200,"station_id":"ce4bh2h2rcd13ifvqdh0","pricing_plan_id":"free"},{"bike_id":"a7ae3877-9806-4379-a52e-f383539a9a23","system_id":"levelo_inurba_marseille","lat":43.294162,"lon":5.386292,"is_reserved":false,"is_disabled":false,"rental_uris":{"android":"levelo://app?vid=a7ae3877-9806-4379-a52e-f383539a9a23","ios":"levelo://app?vid=a7ae3877-9806-4379-a52e-f383539a9a23"},"vehicle_type_id":"4","last_reported":1707426360,"current_range_meters":24800,"station_id":"ce4bh2h2rcd13ifvqdh0","pricing_plan_id":"free"},{"bike_id":"76881a22-3909-479f-b2ab-eb08b48ce7e0","system_id":"levelo_inurba_marseille","lat":43.289468,"lon":5.363719,"is_reserved":false,"is_disabled":false,"rental_uris":{"android":"levelo://app?vid=76881a22-3909-479f-b2ab-eb08b48ce7e0","ios":"levelo://app?vid=76881a22-3909-479f-b2ab-eb08b48ce7e0"},"vehicle_type_id":"4","last_reported":1707426360,"current_range_meters":17600,"station_id":"ce4bhc92rcd13ifvqetg","pricing_plan_id":"free"},{"bike_id":"c9382074-0a3c-4625-bef9-f19bd78b45f8","system_id":"levelo_inurba_marseille","lat":43.29415,"lon":5.38627,"is_reserved":false,"is_disabled":false,"rental_uris":{"android":"levelo://app?vid=c9382074-0a3c-4625-bef9-f19bd78b45f8","ios":"levelo://app?vid=c9382074-0a3c-4625-bef9-f19bd78b45f8"},"vehicle_type_id":"4","last_reported":1707426360,"current_range_meters":21600,"station_id":"ce4bh2h2rcd13ifvqdh0","pricing_plan_id":"free"},{"bike_id":"adab2e35-ee8a-4435-9c3c-645759257993","system_id":"levelo_inurba_marseille","lat":43.289468,"lon":5.363719,"is_reserved":false,"is_disabled":false,"rental_uris":{"android":"levelo://app?vid=adab2e35-ee8a-4435-9c3c-645759257993","ios":"levelo://app?vid=adab2e35-ee8a-4435-9c3c-645759257993"},"vehicle_type_id":"4","last_reported":1707426360,"current_range_meters":4800,"station_id":"ce4bhc92rcd13ifvqetg","pricing_plan_id":"free"},{"bike_id":"9599419f-a9af-4e2a-8de5-632f96179d85","system_id":"levelo_inurba_marseille","lat":43.294153,"lon":5.386305,"is_reserved":false,"is_disabled":false,"rental_uris":{"android":"levelo://app?vid=9599419f-a9af-4e2a-8de5-632f96179d85","ios":"levelo://app?vid=9599419f-a9af-4e2a-8de5-632f96179d85"},"vehicle_type_id":"4","last_reported":1707426360,"current_range_meters":10400,"station_id":"ce4bh2h2rcd13ifvqdh0","pricing_plan_id":"free"},{"bike_id":"7c1337b8-2c46-46fe-b701-bb2b74bc14c6","system_id":"levelo_inurba_marseille","lat":43.289184,"lon":5.366408,"is_reserved":false,"is_disabled":false,"rental_uris":{"android":"levelo://app?vid=7c1337b8-2c46-46fe-b701-bb2b74bc14c6","ios":"levelo://app?vid=7c1337b8-2c46-46fe-b701-bb2b74bc14c6"},"vehicle_type_id":"4","last_reported":1707426360,"current_range_meters":26800,"station_id":"ce4bhap2rcd13ifvqek0","pricing_plan_id":"free"},