{"last_updated":1740017438,"ttl":60,"version":"2.2","data":{"bikes":[{"bike_id":"6e06d03c-0776-432c-b5af-8a25557fb65a","system_id":"levelo_inurba_marseille","lat":43.26081,"lon":5.39408,"is_reserved":false,"is_disabled":true,"rental_uris":{"android":"levelo://app?vid=6e06d03c-0776-432c-b5af-8a25557fb65a","ios":"levelo://app?vid=6e06d03c-0776-432c-b5af-8a25557fb65a"},"vehicle_type_id":"4","last_reported":1740017438,"current_range_meters":3200,"station_id":"ce4bhh92rcd13ifvqfj0","pricing_plan_id":"cebpf4jnsgd1na2vs0mg"},{"bike_id":"116e5da6-0355-4ef5-a853-61ec8dfe376e","system_id":"levelo_inurba_marseille","lat":43.24162,"lon":5.39709,"is_reserved":false,"is_disabled":false,"rental_uris":{"android":"levelo://app?vid=116e5da6-0355-4ef5-a853-61ec8dfe376e","ios":"levelo://app?vid=116e5da6-0355-4ef5-a853-61ec8dfe376e"},"vehicle_type_id":"4","last_reported":1740017438,"current_range_meters":3600,"station_id":"ce4bhn12rcd13ifvqgpg","pricing_plan_id":"cebpf4jnsgd1na2vs0mg"},{"bike_id":"71bb236c-2c03-4f33-b140-b96ce83ffbed","system_id":"levelo_inurba_marseille","lat":43.25872,"lon":5.39903,"is_reserved":false,"is_disabled":false,"rental_uris":{"android":"levelo://app?vid=71bb236c-2c03-4f33-b140-b96ce83ffbed","ios":"levelo://app?vid=71bb236c-2c03-4f33-b140-b96ce83ffbed"},"vehicle_type_id":"4","last_reported":1740017438,"current_range_meters":3600,"station_id":"ce4bhl92rcd13ifvqghg","pricing_plan_id":"cebpf4jnsgd1na2vs0mg"},{"bike_id":"71c0f6e9-51dc-4d11-b507-e393d0b372dd","system_id":"levelo_inurba_marseille","lat":43.27482,"lon":5.42474,"is_reserved":false,"is_disabled":false,"rental_uris":{"android":"levelo://app?vid=71c0f6e9-51dc-4d11-b507-e393d0b372dd","ios":"levelo://app?vid=71c0f6e9-51dc-4d11-b507-e393d0b372dd"},"vehicle_type_id":"4","last_reported":1740017438,"current_range_meters":4000,"station_id":"ce4bhn92rcd13ifvqgrg","pricing_plan_id":"cebpf4jnsgd1na2vs0mg"},{"bike_id":"989a1c05-c74a-4632-af21-81b3f55f7909","system_id":"levelo_inurba_marseille","lat":43.29219,"lon":5.36036,"is_reserved":false,"is_disabled":true,"rental_uris":{"android":"levelo://app?vid=989a1c05-c74a-4632-af21-81b3f55f7909","ios":"levelo://app?vid=989a1c05-c74a-4632-af21-81b3f55f7909"},"vehicle_type_id":"4","last_reported":1740017438,"current_range_meters":4000,"station_id":"","pricing_plan_id":"cebpf4jnsgd1na2vs0mg"},{"bike_id":"2999c74e-b590-4f4f-a2c2-1447f1cb0387","system_id":"levelo_inurba_marseille","lat":43.30888,"lon":5.39635,"is_reserved":false,"is_disabled":false,"rental_uris":{"android":"levelo://app?vid=2999c74e-b590-4f4f-a2c2-1447f1cb0387","ios":"levelo://app?vid=2999c74e-b590-4f4f-a2c2-1447f1cb0387"},"vehicle_type_id":"4","last_reported":1740017438,"current_range_meters":4400,"station_id":"ce4bh012rcd13ifvqcv0","pricing_plan_id":"cebpf4jnsgd1na2vs0mg"},{"bike_id":"c8bff7f5-022b-4061-a576-d78392106ff9","system_id":"levelo_inurba_marseille","lat":43.27942,"lon":5.41042,"is_reserved":false,"is_disabled":false,"rental_uris":{"android":"levelo://app?vid=c8bff7f5-022b-4061-a576-d78392106ff9","ios":"levelo://app?vid=c8bff7f5-022b-4061-a576-d78392106ff9"},"vehicle_type_id":"4","last_reported":1740017438,"current_range_meters":4800,"station_id":"","pricing_plan_id":"cebpf4jnsgd1na2vs0mg"},{"bike_id":"1e050dc4-e43f-4926-a4c4-05801e1b94da","system_id":"levelo_inurba_marseille","lat":43.32063,"lon":5.3713,"is_reserved":false,"is_disabled":false,"rental_uris":{"android":"levelo://app?vid=1e050dc4-e43f-4926-a4c4-05801e1b94da","ios":"levelo://app?vid=1e050dc4-e43f-4926-a4c4-05801e1b94da"},"vehicle_type_id":"4","last_reported":1740017438,"current_range_meters":6000,"station_id":"","pricing_plan_id":"cebpf4jnsgd1na2vs0mg"},{"bike_id":"c650b050-c841-4aa6-8008-6f3087c8fbdb","system_id":"levelo_inurba_marseille","lat":43.30933,"lon":5.37911,"is_reserved":false,"is_disabled":false,"rental_uris":{"android":"levelo://app?vid=c650b050-c841-4aa6-8008-6f3087c8fbdb","ios":"levelo://app?vid=c650b050-c841-4aa6-8008-6f3087c8fbdb"},"vehicle_type_id":"4","last_reported":1740017438,"current_range_meters":6000,"station_id":"","pricing_plan_id":"cebpf4jnsgd1na2vs0mg"},{"bike_id":"21793639-8b7b-4809-9f17-a61c4a5fd1d5","system_id":"levelo_inurba_marseille","lat":43.28647,"lon":5.35076,"is_reserved":false,"is_disabled":false,"rental_uris":{"android":"levelo://app?vid=21793639-8b7b-4809-9f17-a61c4a5fd1d5","ios":"levelo://app?vid=21793639-8b7b-4809-9f17-a61c4a5fd1d5"},"vehicle_type_id":"4","last_reported":1740017438,"current_range_meters":6000,"station_id":"ce4bhch2rcd13ifvqeug","pricing_plan_id":"cebpf4jnsgd1na2vs0mg"},{"bike_id":"4089f1a0-cd12-42d3-a6c3-01d445970a86","system_id":"levelo_inurba_marseille","lat":43.31289,"lon":5.37422,"is_reserved":false,"is_disabled":false,"rental_uris":{"android":"levelo://app?vid=4089f1a0-cd12-42d3-a6c3-01d445970a86","ios":"levelo://app?vid=4089f1a0-cd12-42d3-a6c3-01d445970a86"},"vehicle_type_id":"4","last_reported":1740017438,"current_range_meters":6000,"station_id":"","pricing_plan_id":"cebpf4jnsgd1na2vs0mg"},{"bike_id":"bb852df7-dd74-43f4-8582-0650a376dfcb","system_id":"levelo_inurba_marseille","lat":43.27501,"lon":5.42465,"is_reserved":false,"is_disabled":false,"rental_uris":{"android":"levelo://app?vid=bb852df7-dd74-43f4-8582-0650a376dfcb","ios":"levelo://app?vid=bb852df7-dd74-43f4-8582-0650a376dfcb"},"vehicle_type_id":"4","last_reported":1740017438,"current_range_meters":6000,"station_id":"ce4bhn92rcd13ifvqgrg","pricing_plan_id":"cebpf4jnsgd1na2vs0mg"},{"bike_id":"050dccc5-6110-4bdb-a613-69fb6f31a6f4","system_id":"levelo_inurba_marseille","lat":43.28991,"lon":5.37715,"is_reserved":false,"is_disabled":false,"rental_uris":{"android":"levelo://app?vid=050dccc5-6110-4bdb-a613-69fb6f31a6f4","ios":"levelo://app?vid=050dccc5-6110-4bdb-a613-69fb6f31a6f4"},"vehicle_type_id":"4","last_reported":1740017438,"current_range_meters":6000,"station_id":"","pricing_plan_id":"cebpf4jnsgd1na2vs0mg"},{"bike_id":"adb3d6df-7149-4295-84c9-8f4cb47f9c0e","system_id":"levelo_inurba_marseille","lat":43.27259,"lon":5.40699,"is_reserved":false,"is_disabled":true,"rental_uris":{"android":"levelo://app?vid=adb3d6df-7149-4295-84c9-8f4cb47f9c0e","ios":"levelo://app?vid=adb3d6df-7149-4295-84c9-8f4cb47f9c0e"},"vehicle_type_id":"4","last_reported":1740017438,"current_range_meters":6000,"station_id":"","pricing_plan_id":"cebpf4jnsgd1na2vs0mg"},{"bike_id":"7afea90d-b205-4cb1-9dd2-d1bb7026825d","system_id":"levelo_inurba_marseille","lat":43.28151,"lon":5.42648,"is_reserved":false,"is_disabled":false,"rental_uris":{"android":"levelo://app?vid=7afea90d-b205-4cb1-9dd2-d1bb7026825d","ios":"levelo://app?vid=7afea90d-b205-4cb1-9dd2-d1bb7026825d"},"vehicle_type_id":"4","last_reported":1740017438,"current_range_meters":6000,"station_id":"","pricing_plan_id":"cebpf4jnsgd1na2vs0mg"},{"bike_id":"d08d77e0-da4d-4425-a05f-fab4f75ab593","system_id":"levelo_inurba_marseille","lat":43.25008,"lon":5.38944,"is_reserved":false,"is_disabled":false,"rental_uris":{"android":"levelo://app?vid=d08d77e0-da4d-4425-a05f-fab4f75ab593","ios":"levelo://app?vid=d08d77e0-da4d-4425-a05f-fab4f75ab593"},"vehicle_type_id":"4","last_reported":1740017438,"current_range_meters":6400,"station_id":"ce4bhgp2rcd13ifvqfd0","pricing_plan_id":"cebpf4jnsgd1na2vs0mg"},{"bike_id":"2dbc71c4-caa4-43c9-be0f-62f3ed4d514f","system_id":"levelo_inurba_marseille","lat":43.23959,"lon":5.36644,"is_reserved":false,"is_disabled":false,"rental_uris":{"android":"levelo://app?vid=2dbc71c4-caa4-43c9-be0f-62f3ed4d514f","ios":"levelo://app?vid=2dbc71c4-caa4-43c9-be0f-62f3ed4d514f"},"vehicle_type_id":"4","last_reported":1740017438,"current_range_meters":6800,"station_id":"ce4bhi12rcd13ifvqfp0","pricing_plan_id":"cebpf4jnsgd1na2vs0mg"},{"bike_id":"81b56bef-84bf-4224-afe4-772001018859","system_id":"levelo_inurba_marseille","lat":43.25097,"lon":5.3955,"is_reserved":false,"is_disabled":false,"rental_uris":{"android":"levelo://app?vid=81b56bef-84bf-4224-afe4-772001018859","ios":"levelo://app?vid=81b56bef-84bf-4224-afe4-772001018859"},"vehicle_type_id":"4","last_reported":1740017438,"current_range_meters":6800,"station_id":"ce4bhm12rcd13ifvqgkg","pricing_plan_id":"cebpf4jnsgd1na2vs0mg"},{"bike_id":"cf64b7cd-4626-4d79-afac-2611db88ce28","system_id":"levelo_inurba_marseille","lat":43.27931,"lon":5.41693,"is_reserved":false,"is_disabled":false,"rental_uris":{"android":"levelo://app?vid=cf64b7cd-4626-4d79-afac-2611db88ce28","ios":"levelo://app?vid=cf64b7cd-4626-4d79-afac-2611db88ce28"},"vehicle_type_id":"4","last_reported":1740017438,"current_range_meters":6800,"station_id":"ce4bho12rcd13ifvqh1g","pricing_plan_id":"cebpf4jnsgd1na2vs0mg"},{"bike_id":"ed356dd8-0353-427c-9cf0-284ca7b500d9","system_id":"levelo_inurba_marseille","lat":43.23194,"lon":5.39987,"is_reserved":false,"is_disabled":false,"rental_uris":{"android":"levelo://app?vid=ed356dd8-0353-427c-9cf0-284ca7b500d9","ios":"levelo://app?vid=ed356dd8-0353-427c-9cf0-284ca7b500d9"},"vehicle_type_id":"4","last_reported":1740017438,"current_range_meters":6800,"station_id":"","pricing_plan_id":"cebpf4jnsgd1na2vs0mg"},{"bike_id":"f0f61fdf-e262-479f-a259-1997ef9b3f40","system_id":"levelo_inurba_marseille","lat":43.28157,"lon":5.42643,"is_reserved":false,"is_disabled":false,"rental_uris":{"android":"levelo://app?vid=f0f61fdf-e262-479f-a259-1997ef9b3f40","ios":"levelo://app?vid=f0f61fdf-e262-479f-a259-1997ef9b3f40"},"vehicle_type_id":"4","last_reported":1740017438,"current_range_meters":6800,"station_id":"","pricing_plan_id":"cebpf4jnsgd1na2vs0mg"},{"bike_id":"ab1ce62f-cd53-4538-8786-54bb890ac072","system_id":"levelo_inurba_marseille","lat":43.30091,"lon":5.39083,"is_reserved":false,"is_disabled":false,"rental_uris":{"android":"levelo://app?vid=ab1ce62f-cd53-4538-8786-54bb890ac072","ios":"levelo://app?vid=ab1ce62f-cd53-4538-8786-54bb890ac072"},"vehicle_type_id":"4","last_reported":1740017438,"current_range_meters":6800,"station_id":"ce4bh192rcd13ifvqdb0","pricing_plan_id":"cebpf4jnsgd1na2vs0mg"},{"bike_id":"e79d1c03-ea93-4ee5-8cb2-ecdeca48b0aa","system_id":"levelo_inurba_marseille","lat":43.23165,"lon":5.4369,"is_reserved":false,"is_disabled":true,"rental_uris":{"android":"levelo://app?vid=e79d1c03-ea93-4ee5-8cb2-ecdeca48b0aa","ios":"levelo://app?vid=e79d1c03-ea93-4ee5-8cb2-ecdeca48b0aa"},"vehicle_type_id":"4","last_reported":1740017438,"current_range_meters":6800,"station_id":"ce4bhmp2rcd13ifvqgog","pricing_plan_id":"cebpf4jnsgd1na2vs0mg"},{"bike_id":"18fe3d06-df15-4747-b0a1-d25df88e009c","system_id":"levelo_inurba_marseille","lat":43.2815,"lon":5.42641,"is_reserved":false,"is_disabled":false,"rental_uris":{"android":"levelo://app?vid=18fe3d06-df15-4747-b0a1-d25df88e009c","ios":"levelo://app?vid=18fe3d06-df15-4747-b0a1-d25df88e009c"},"vehicle_type_id":"4","last_reported":1740017438,"current_range_meters":6800,"station_id":"ce4bhnh2rcd13ifvqgug","pricing_plan_id":"cebpf4jnsgd1na2vs0mg"},{"bike_id":"ddedcb69-0246-4b05-888b-0a67c9296519","system_id":"levelo_inurba_marseille","lat":43.28428,"lon":5.37522,"is_reserved":false,"is_disabled":false,"rental_uris":{"android":"levelo://app?vid=ddedcb69-0246-4b05-888b-0a67c9296519","ios":"levelo://app?vid=ddedcb69-0246-4b05-888b-0a67c9296519"},"vehicle_type_id":"4","last_reported":1740017438,"current_range_meters":6800,"station_id":"","pricing_plan_id":"cebpf4jnsgd1na2vs0mg"},{"bike_id":"5f624f12-c92f-4447-87ae-fcd565c83c76","system_id":"levelo_inurba_marseille","lat":43.25011,"lon":5.38922,"is_reserved":false,"is_disabled":false,"rental_uris":{"android":"levelo://app?vid=5f624f12-c92f-4447-87ae-fcd565c83c76","ios":"levelo://app?vid=5f624f12-c92f-4447-87ae-fcd565c83c76"},"vehicle_type_id":"4","last_reported":1740017438,"current_range_meters":7200,"station_id":"ce4bhgp2rcd13ifvqfd0","pricing_plan_id":"cebpf4jnsgd1na2vs0mg"},{"bike_id":"51ab539e-1825-4cf2-9196-1daa14daedf6","system_id":"levelo_inurba_marseille","lat":43.25009,"lon":5.38945,"is_reserved":false,"is_disabled":false,"rental_uris":{"android":"levelo://app?vid=51ab539e-1825-4cf2-9196-1daa14daedf6","ios":"levelo://app?vid=51ab539e-1825-4cf2-9196-1daa14daedf6"},"vehicle_type_id":"4","last_reported":1740017438,"current_range_meters":7200,"station_id":"ce4bhgp2rcd13ifvqfd0","pricing_plan_id":"cebpf4jnsgd1na2vs0mg"},{"bike_id":"5b993150-8199-423a-8f3d-bba99fc7ef76","system_id":"levelo_inurba_marseille","lat":43.25752,"lon":5.41057,"is_reserved":false,"is_disabled":false,"rental_uris":{"android":"levelo://app?vid=5b993150-8199-423a-8f3d-bba99fc7ef76","ios":"levelo://app?vid=5b993150-8199-423a-8f3d-bba99fc7ef76"},"vehicle_type_id":"4","last_reported":1740017438,"current_range_meters":7200,"station_id":"ce4bhkp2rcd13ifvqgd0","pricing_plan_id":"cebpf4jnsgd1na2vs0mg"},{"bike_id":"9198c6ef-bd5b-45d9-bd7b-e058d791d44b","system_id":"levelo_inurba_marseille","lat":43.24811,"lon":5.37464,"is_reserved":false,"is_disabled":false,"rental_uris":{"android":"levelo://app?vid=9198c6ef-bd5b-45d9-bd7b-e058d791d44b","ios":"levelo://app?vid=9198c6ef-bd5b-45d9-bd7b-e058d791d44b"},"vehicle_type_id":"4","last_reported":1740017438,"current_range_meters":7200,"station_id":"ce4bhgh2rcd13ifvqfb0","pricing_plan_id":"cebpf4jnsgd1na2vs0mg"},{"bike_id":"ec2a2a80-692c-4e61-b758-ee418e5968e4","system_id":"levelo_inurba_marseille","lat":43.23949,"lon":5.36646,"is_reserved":false,"is_disabled":false,"rental_uris":{"android":"levelo://app?vid=ec2a2a80-692c-4e61-b758-ee418e5968e4","ios":"levelo://app?vid=ec2a2a80-692c-4e61-b758-ee418e5968e4"},"vehicle_type_id":"4","last_reported":1740017438,"current_range_meters":7200,"station_id":"ce4bhi12rcd13ifvqfp0","pricing_plan_id":"cebpf4jnsgd1na2vs0mg"},{"bike_id":"aadf2096-fdc1-4f2d-8a46-86259f1f9107","system_id":"levelo_inurba_marseille","lat":43.29177,"lon":5.39334,"is_reserved":false,"is_disabled":false,"rental_uris":{"android":"levelo://app?vid=aadf2096-fdc1-4f2d-8a46-86259f1f9107","ios":"levelo://app?vid=aadf2096-fdc1-4f2d-8a46-86259f1f9107"},"vehicle_type_id":"4","last_reported":1740017438,"current_range_meters":8000,"station_id":"ce4bh192rcd13ifvqdd0","pricing_plan_id":"cebpf4jnsgd1na2vs0mg"},{"bike_id":"77ff30b5-11e0-40c3-9e15-db9294287ac2","system_id":"levelo_inurba_marseille","lat":43.28493,"lon":5.38518,"is_reserved":false,"is_disabled":false,"rental_uris":{"android":"levelo://app?vid=77ff30b5-11e0-40c3-9e15-db9294287ac2","ios":"levelo://app?vid=77ff30b5-11e0-40c3-9e15-db9294287ac2"},"vehicle_type_id":"4","last_reported":1740017438,"current_range_meters":8000,"station_id":"ce4bh8p2rcd13ifvqeb0","pricing_plan_id":"cebpf4jnsgd1na2vs0mg"},{"bike_id":"78d4f304-8f9b-44f9-8ceb-5ec9999fcbd8","system_id":"levelo_inurba_marseille","lat":43.26572,"lon":5.39029,"is_reserved":false,"is_disabled":false,"rental_uris":{"android":"levelo://app?vid=78d4f304-8f9b-44f9-8ceb-5ec9999fcbd8","ios":"levelo://app?vid=78d4f304-8f9b-44f9-8ceb-5ec9999fcbd8"},"vehicle_type_id":"4","last_reported":1740017438,"current_range_meters":8000,"station_id":"ce4bhe12rcd13ifvqf30","pricing_plan_id":"cebpf4jnsgd1na2vs0mg"},{"bike_id":"4537e94c-2a1d-45f4-9cf5-e5e9b497ae21","system_id":"levelo_inurba_marseille","lat":43.29567,"lon":5.39988,"is_reserved":false,"is_disabled":false,"rental_uris":{"android":"levelo://app?vid=4537e94c-2a1d-45f4-9cf5-e5e9b497ae21","ios":"levelo://app?vid=4537e94c-2a1d-45f4-9cf5-e5e9b497ae21"},"vehicle_type_id":"4","last_reported":1740017438,"current_range_meters":8000,"station_id":"ce4bh312rcd13ifvqdj0","pricing_plan_id":"cebpf4jnsgd1na2vs0mg"},{"bike_id":"196cc152-eb7c-4b0b-8396-3617945c01db","system_id":"levelo_inurba_marseille","lat":43.287001,"lon":5.399906,"is_reserved":false,"is_disabled":false,"rental_uris":{"android":"levelo://app?vid=196cc152-eb7c-4b0b-8396-3617945c01db","ios":"levelo://app?vid=196cc152-eb7c-4b0b-8396-3617945c01db"},"vehicle_type_id":"4","last_reported":1740017438,"current_range_meters":8000,"station_id":"ce4bho92rcd13ifvqh3g","pricing_plan_id":"cebpf4jnsgd1na2vs0mg"},{"bike_id":"c2896a85-bd03-44af-9ec9-88cf4b2c2bef","system_id":"levelo_inurba_marseille","lat":43.27372,"lon":5.36257,"is_reserved":false,"is_disabled":false,"rental_uris":{"android":"levelo://app?vid=c2896a85-bd03-44af-9ec9-88cf4b2c2bef","ios":"levelo://app?vid=c2896a85-bd03-44af-9ec9-88cf4b2c2bef"},"vehicle_type_id":"4","last_reported":1740017438,"current_range_meters":8000,"station_id":"","pricing_plan_id":"cebpf4jnsgd1na2vs0mg"},{"bike_id":"698aaa2b-08a8-4cef-ae7d-66edb1d27d16","system_id":"levelo_inurba_marseille","lat":43.27079,"lon":5.42291,"is_reserved":false,"is_disabled":false,"rental_uris":{"android":"levelo://app?vid=698aaa2b-08a8-4cef-ae7d-66edb1d27d16","ios":"levelo://app?vid=698aaa2b-08a8-4cef-ae7d-66edb1d27d16"},"vehicle_type_id":"4","last_reported":1740017438,"current_range_meters":8000,"station_id":"ce4bhk92rcd13ifvqgb0","pricing_plan_id":"cebpf4jnsgd1na2vs0mg"},{"bike_id":"7f2b235d-b54a-4ba7-9884-b541f6dd74e7","system_id":"levelo_inurba_marseille","lat":43.27186,"lon":5.41002,"is_reserved":false,"is_disabled":false,"rental_uris":{"android":"levelo://app?vid=7f2b235d-b54a-4ba7-9884-b541f6dd74e7","ios":"levelo://app?vid=7f2b235d-b54a-4ba7-9884-b541f6dd74e7"},"vehicle_type_id":"4","last_reported":1740017438,"current_range_meters":8000,"station_id":"","pricing_plan_id":"cebpf4jnsgd1na2vs0mg"},{"bike_id":"e376680d-709a-43e7-98bb-4eb0992ed8df","system_id":"levelo_inurba_marseille","lat":43.30911,"lon":5.36843,"is_reserved":false,"is_disabled":false,"rental_uris":{"android":"levelo://app?vid=e376680d-709a-43e7-98bb-4eb0992ed8df","ios":"levelo://app?vid=e376680d-709a-43e7-98bb-4eb0992ed8df"},"vehicle_type_id":"4","last_reported":1740017438,"current_range_meters":8400,"station_id":"ce4bgn92rcd13ifvqbvg","pricing_plan_id":"cebpf4jnsgd1na2vs0mg"},{"bike_id":"aba81f03-66c2-41ff-9ed7-dc0fca16f322","system_id":"levelo_inurba_marseille","lat":43.28707,"lon":5.39974,"is_reserved":false,"is_disabled":false,"rental_uris":{"android":"levelo://app?vid=aba81f03-66c2-41ff-9ed7-dc0fca16f322","ios":"levelo://app?vid=aba81f03-66c2-41ff-9ed7-dc0fca16f322"},"vehicle_type_id":"4","last_reported":1740017438,"current_range_meters":8400,"station_id":"ce4bho92rcd13ifvqh3g","pricing_plan_id":"cebpf4jnsgd1na2vs0mg"},{"bike_id":"1913ef47-7de4-47b7-bc13-20a7e4a2ac98","system_id":"levelo_inurba_marseille","lat":43.27957,"lon":5.41034,"is_reserved":false,"is_disabled":false,"rental_uris":{"android":"levelo://app?vid=1913ef47-7de4-47b7-bc13-20a7e4a2ac98","ios":"levelo://app?vid=1913ef47-7de4-47b7-bc13-20a7e4a2ac98"},"vehicle_type_id":"4","last_reported":1740017438,"current_range_meters":8400,"station_id":"ce4bhnp2rcd13ifvqh0g","pricing_plan_id":"cebpf4jnsgd1na2vs0mg"},{"bike_id":"1fc4eb74-d232-4c23-9827-95f8bc004b53","system_id":"levelo_inurba_marseille","lat":43.26696,"lon":5.38304,"is_reserved":false,"is_disabled":true,"rental_uris":{"android":"levelo://app?vid=1fc4eb74-d232-4c23-9827-95f8bc004b53","ios":"levelo://app?vid=1fc4eb74-d232-4c23-9827-95f8bc004b53"},"vehicle_type_id":"4","last_reported":1740017438,"current_range_meters":8400,"station_id":"ce4bhg92rcd13ifvqf90","pricing_plan_id":"cebpf4jnsgd1na2vs0mg"},{"bike_id":"97da2850-30e4-49a9-aed9-3fabc78dad21","system_id":"levelo_inurba_marseille","lat":43.3377,"lon":5.37474,"is_reserved":false,"is_disabled":false,"rental_uris":{"android":"levelo://app?vid=97da2850-30e4-49a9-aed9-3fabc78dad21","ios":"levelo://app?vid=97da2850-30e4-49a9-aed9-3fabc78dad21"},"vehicle_type_id":"4","last_reported":1740017438,"current_range_meters":8400,"station_id":"","pricing_plan_id":"cebpf4jnsgd1na2vs0mg"},{"bike_id":"404e0a61-25bc-4d30-b8b8-7859584559e0","system_id":"levelo_inurba_marseille","lat":43.28464,"lon":5.35889,"is_reserved":false,"is_disabled":false,"rental_uris":{"android":"levelo://app?vid=404e0a61-25bc-4d30-b8b8-7859584559e0","ios":"levelo://app?vid=404e0a61-25bc-4d30-b8b8-7859584559e0"},"vehicle_type_id":"4","last_reported":1740017438,"current_range_meters":8400,"station_id":"ce4bhah2rcd13ifvqei0","pricing_plan_id":"cebpf4jnsgd1na2vs0mg"},{"bike_id":"cd51358a-28c4-49c8-8577-da058fdce59c","system_id":"levelo_inurba_marseille","lat":43.27958,"lon":5.3861,"is_reserved":false,"is_disabled":false,"rental_uris":{"android":"levelo://app?vid=cd51358a-28c4-49c8-8577-da058fdce59c","ios":"levelo://app?vid=cd51358a-28c4-49c8-8577-da058fdce59c"},"vehicle_type_id":"4","last_reported":1740017438,"current_range_meters":8400,"station_id":"","pricing_plan_id":"cebpf4jnsgd1na2vs0mg"},{"bike_id":"90de8971-db22-4d27-8c08-4575a12860f9","system_id":"levelo_inurba_marseille","lat":43.27184,"lon":5.40998,"is_reserved":false,"is_disabled":false,"rental_uris":{"android":"levelo://app?vid=90de8971-db22-4d27-8c08-4575a12860f9","ios":"levelo://app?vid=90de8971-db22-4d27-8c08-4575a12860f9"},"vehicle_type_id":"4","last_reported":1740017438,"current_range_meters":8400,"station_id":"ce4bhl12rcd13ifvqgf0","pricing_plan_id":"cebpf4jnsgd1na2vs0mg"},{"bike_id":"a64377e3-1679-4e45-a8a6-4b5646b01204","system_id":"levelo_inurba_marseille","lat":43.26508,"lon":5.39547,"is_reserved":false,"is_disabled":true,"rental_uris":{"android":"levelo://app?vid=a64377e3-1679-4e45-a8a6-4b5646b01204","ios":"levelo://app?vid=a64377e3-1679-4e45-a8a6-4b5646b01204"},"vehicle_type_id":"4","last_reported":1740017438,"current_range_meters":8400,"station_id":"ce4bhi12rcd13ifvqfq0","pricing_plan_id":"cebpf4jnsgd1na2vs0mg"},{"bike_id":"065fe6dc-045b-44ea-b19d-dc7780f853f5","system_id":"levelo_inurba_marseille","lat":43.26225,"lon":5.40445,"is_reserved":false,"is_disabled":false,"rental_uris":{"android":"levelo://app?vid=065fe6dc-045b-44ea-b19d-dc7780f853f5","ios":"levelo://app?vid=065fe6dc-045b-44ea-b19d-dc7780f853f5"},"vehicle_type_id":"4","last_reported":1740017438,"current_range_meters":8400,"station_id":"ce4bhmh2rcd13ifvqgmg","pricing_plan_id":"cebpf4jnsgd1na2vs0mg"},{"bike_id":"d4ee82b3-f7c7-40bb-b1cf-bb1c744fd08f","system_id":"levelo_inurba_marseille","lat":43.31127,"lon":5.37771,"is_reserved":false,"is_disabled":false,"rental_uris":{"android":"levelo://app?vid=d4ee82b3-f7c7-40bb-b1cf-bb1c744fd08f","ios":"levelo://app?vid=d4ee82b3-f7c7-40bb-b1cf-bb1c744fd08f"},"vehicle_type_id":"4","last_reported":1740017438,"current_range_meters":8400,"station_id":"ce4bgt92rcd13ifvqcg0","pricing_plan_id":"cebpf4jnsgd1na2vs0mg"},{"bike_id":"ea1519e7-b5fe-42ac-aa41-a04f66c121d4","system_id":"levelo_inurba_marseille","lat":43.24084,"lon":5.37741,"is_reserved":false,"is_disabled":false,"rental_uris":{"android":"levelo://app?vid=ea1519e7-b5fe-42ac-aa41-a04f66c121d4","ios":"levelo://app?vid=ea1519e7-b5fe-42ac-aa41-a04f66c121d4"},"vehicle_type_id":"4","last_reported":1740017438,"current_range_meters":8400,"station_id":"ce4bhnp2rcd13ifvqgvg","pricing_plan_id":"cebpf4jnsgd1na2vs0mg"},{"bike_id":"0b1a3b32-459a-4ff9-a388-d16482304482","system_id":"levelo_inurba_marseille","lat":43.28,"lon":5.40021,"is_reserved":false,"is_disabled":false,"rental_uris":{"android":"levelo://app?vid=0b1a3b32-459a-4ff9-a388-d16482304482","ios":"levelo://app?vid=0b1a3b32-459a-4ff9-a388-d16482304482"},"vehicle_type_id":"4","last_reported":1740017438,"current_range_meters":8800,"station_id":"","pricing_plan_id":"cebpf4jnsgd1na2vs0mg"},{"bike_id":"30b02e23-1cd1-4e35-9d1e-9c3d3d84f816","system_id":"levelo_inurba_marseille","lat":43.28104,"lon":5.38875,"is_reserved":false,"is_disabled":false,"rental_uris":{"android":"levelo://app?vid=30b02e23-1cd1-4e35-9d1e-9c3d3d84f816","ios":"levelo://app?vid=30b02e23-1cd1-4e35-9d1e-9c3d3d84f816"},"vehicle_type_id":"4","last_reported":1740017438,"current_range_meters":12000,"station_id":"","pricing_plan_id":"cebpf4jnsgd1na2vs0mg"},{"bike_id":"2cfbf476-e456-45cf-ab5c-423b46256bf3","system_id":"levelo_inurba_marseille","lat":43.30312,"lon":5.36869,"is_reserved":false,"is_disabled":false,"rental_uris":{"android":"levelo://app?vid=2cfbf476-e456-45cf-ab5c-423b46256bf3","ios":"levelo://app?vid=2cfbf476-e456-45cf-ab5c-423b46256bf3"},"vehicle_type_id":"4","last_reported":1740017438,"current_range_meters":8800,"station_id":"ce4bgqh2rcd13ifvqc5g","pricing_plan_id":"cebpf4jnsgd1na2vs0mg"},{"bike_id":"c11baf7e-266a-44c5-b2d6-4bb02e6be79a","system_id":"levelo_inurba_marseille","lat":43.29198,"lon":5.39327,"is_reserved":false,"is_disabled":false,"rental_uris":{"android":"levelo://app?vid=c11baf7e-266a-44c5-b2d6-4bb02e6be79a","ios":"levelo://app?vid=c11baf7e-266a-44c5-b2d6-4bb02e6be79a"},"vehicle_type_id":"4","last_reported":1740017438,"current_range_meters":8800,"station_id":"ce4bh192rcd13ifvqdd0","pricing_plan_id":"cebpf4jnsgd1na2vs0mg"},{"bike_id":"2ee39e60-c79a-42a7-83e9-c5bccdd9cb32","system_id":"levelo_inurba_marseille","lat":43.28345,"lon":5.3811,"is_reserved":false,"is_disabled":false,"rental_uris":{"android":"levelo://app?vid=2ee39e60-c79a-42a7-83e9-c5bccdd9cb32","ios":"levelo://app?vid=2ee39e60-c79a-42a7-83e9-c5bccdd9cb32"},"vehicle_type_id":"4","last_reported":1740017438,"current_range_meters":8800,"station_id":"ce4bh412rcd13ifvqdr0","pricing_plan_id":"cebpf4jnsgd1na2vs0mg"},{"bike_id":"f8a1eefe-5190-4327-95c3-8138f343fe57","system_id":"levelo_inurba_marseille","lat":43.31164,"lon":5.39384,"is_reserved":false,"is_disabled":false,"rental_uris":{"android":"levelo://app?vid=f8a1eefe-5190-4327-95c3-8138f343fe57","ios":"levelo://app?vid=f8a1eefe-5190-4327-95c3-8138f343fe57"},"vehicle_type_id":"4","last_reported":1740017438,"current_range_meters":8800,"station_id":"ce4bgqh2rcd13ifvqc4g","pricing_plan_id":"cebpf4jnsgd1na2vs0mg"},{"bike_id":"43e72be5-b6fd-441f-b32f-d064dfa11fc3","system_id":"levelo_inurba_marseille","lat":43.29931,"lon":5.36538,"is_reserved":false,"is_disabled":false,"rental_uris":{"android":"levelo://app?vid=43e72be5-b6fd-441f-b32f-d064dfa11fc3","ios":"levelo://app?vid=43e72be5-b6fd-441f-b32f-d064dfa11fc3"},"vehicle_type_id":"4","last_reported":1740017438,"current_range_meters":9200,"station_id":"ce4bgm92rcd13ifvqbr0","pricing_plan_id":"cebpf4jnsgd1na2vs0mg"},{"bike_id":"b3857fa5-3c0e-43f5-bf34-61bce87c5e63","system_id":"levelo_inurba_marseille","lat":43.30801,"lon":5.38158,"is_reserved":false,"is_disabled":false,"rental_uris":{"android":"levelo://app?vid=b3857fa5-3c0e-43f5-bf34-61bce87c5e63","ios":"levelo://app?vid=b3857fa5-3c0e-43f5-bf34-61bce87c5e63"},"vehicle_type_id":"4","last_reported":1740017438,"current_range_meters":9200,"station_id":"ce4bgt12rcd13ifvqce0","pricing_plan_id":"cebpf4jnsgd1na2vs0mg"},{"bike_id":"0caa86c9-275f-45b3-9a12-c32b83479c40","system_id":"levelo_inurba_marseille","lat":43.29053,"lon":5.3996,"is_reserved":false,"is_disabled":true,"rental_uris":{"android":"levelo://app?vid=0caa86c9-275f-45b3-9a12-c32b83479c40","ios":"levelo://app?vid=0caa86c9-275f-45b3-9a12-c32b83479c40"},"vehicle_type_id":"4","last_reported":1740017438,"current_range_meters":9200,"station_id":"","pricing_plan_id":"cebpf4jnsgd1na2vs0mg"},{"bike_id":"f0b88713-2139-4e97-b426-2bd0f67d9c2a","system_id":"levelo_inurba_marseille","lat":43.24824,"lon":5.37429,"is_reserved":false,"is_disabled":false,"rental_uris":{"android":"levelo://app?vid=f0b88713-2139-4e97-b426-2bd0f67d9c2a","ios":"levelo://app?vid=f0b88713-2139-4e97-b426-2bd0f67d9c2a"},"vehicle_type_id":"4","last_reported":1740017438,"current_range_meters":9200,"station_id":"ce4bhgh2rcd13ifvqfb0","pricing_plan_id":"cebpf4jnsgd1na2vs0mg"},{"bike_id":"ba0a4dbe-d370-492e-a789-44c6ef69c02b","system_id":"levelo_inurba_marseille","lat":43.28614,"lon":5.35102,"is_reserved":false,"is_disabled":true,"rental_uris":{"android":"levelo://app?vid=ba0a4dbe-d370-492e-a789-44c6ef69c02b","ios":"levelo://app?vid=ba0a4dbe-d370-492e-a789-44c6ef69c02b"},"vehicle_type_id":"4","last_reported":1740017438,"current_range_meters":9200,"station_id":"ce4bhch2rcd13ifvqeug","pricing_plan_id":"cebpf4jnsgd1na2vs0mg"},{"bike_id":"618a1c1d-31f2-4954-b93b-7c897b1dbc93","system_id":"levelo_inurba_marseille","lat":43.28968,"lon":5.37822,"is_reserved":false,"is_disabled":false,"rental_uris":{"android":"levelo://app?vid=618a1c1d-31f2-4954-b93b-7c897b1dbc93","ios":"levelo://app?vid=618a1c1d-31f2-4954-b93b-7c897b1dbc93"},"vehicle_type_id":"4","last_reported":1740017438,"current_range_meters":9200,"station_id":"","pricing_plan_id":"cebpf4jnsgd1na2vs0mg"},{"bike_id":"f027fe38-3f5d-42fa-b16a-68ca60104c09","system_id":"levelo_inurba_marseille","lat":43.24164,"lon":5.36409,"is_reserved":false,"is_disabled":false,"rental_uris":{"android":"levelo://app?vid=f027fe38-3f5d-42fa-b16a-68ca60104c09","ios":"levelo://app?vid=f027fe38-3f5d-42fa-b16a-68ca60104c09"},"vehicle_type_id":"4","last_reported":1740017438,"current_range_meters":9200,"station_id":"","pricing_plan_id":"cebpf4jnsgd1na2vs0mg"},{"bike_id":"4aee0adb-8047-40e3-9130-b2479be5edeb","system_id":"levelo_inurba_marseille","lat":43.28931,"lon":5.36421,"is_reserved":false,"is_disabled":false,"rental_uris":{"android":"levelo://app?vid=4aee0adb-8047-40e3-9130-b2479be5edeb","ios":"levelo://app?vid=4aee0adb-8047-40e3-9130-b2479be5edeb"},"vehicle_type_id":"4","last_reported":1740017438,"current_range_meters":9200,"station_id":"","pricing_plan_id":"cebpf4jnsgd1na2vs0mg"},{"bike_id":"fad51a75-47cd-43d1-ad7e-3416a083e693","system_id":"levelo_inurba_marseille","lat":43.28465,"lon":5.35909,"is_reserved":false,"is_disabled":false,"rental_uris":{"android":"levelo://app?vid=fad51a75-47cd-43d1-ad7e-3416a083e693","ios":"levelo://app?vid=fad51a75-47cd-43d1-ad7e-3416a083e693"},"vehicle_type_id":"4","last_reported":1740017438,"current_range_meters":9600,"station_id":"ce4bhah2rcd13ifvqei0","pricing_plan_id":"cebpf4jnsgd1na2vs0mg"},{"bike_id":"0a78716a-6503-4f46-9ad5-1d04dddb08ab","system_id":"levelo_inurba_marseille","lat":43.3042,"lon":5.41279,"is_reserved":false,"is_disabled":false,"rental_uris":{"android":"levelo://app?vid=0a78716a-6503-4f46-9ad5-1d04dddb08ab","ios":"levelo://app?vid=0a78716a-6503-4f46-9ad5-1d04dddb08ab"},"vehicle_type_id":"4","last_reported":1740017438,"current_range_meters":9600,"station_id":"ce4bhop2rcd13ifvqh8g","pricing_plan_id":"cebpf4jnsgd1na2vs0mg"},{"bike_id":"c8a53107-ae25-4a68-b38d-8c59dce22215","system_id":"levelo_inurba_marseille","lat":43.28805,"lon":5.43864,"is_reserved":false,"is_disabled":false,"rental_uris":{"android":"levelo://app?vid=c8a53107-ae25-4a68-b38d-8c59dce22215","ios":"levelo://app?vid=c8a53107-ae25-4a68-b38d-8c59dce22215"},"vehicle_type_id":"4","last_reported":1740017438,"current_range_meters":9600,"station_id":"","pricing_plan_id":"cebpf4jnsgd1na2vs0mg"},{"bike_id":"63c4cf47-dbff-4d5e-a88a-080b99df99de","system_id":"levelo_inurba_marseille","lat":43.29526,"lon":5.38878,"is_reserved":false,"is_disabled":true,"rental_uris":{"android":"levelo://app?vid=63c4cf47-dbff-4d5e-a88a-080b99df99de","ios":"levelo://app?vid=63c4cf47-dbff-4d5e-a88a-080b99df99de"},"vehicle_type_id":"4","last_reported":1740017438,"current_range_meters":9600,"station_id":"","pricing_plan_id":"cebpf4jnsgd1na2vs0mg"},{"bike_id":"8476250d-32b3-45ae-a68f-2cc762df006e","system_id":"levelo_inurba_marseille","lat":43.25722,"lon":5.41095,"is_reserved":false,"is_disabled":false,"rental_uris":{"android":"levelo://app?vid=8476250d-32b3-45ae-a68f-2cc762df006e","ios":"levelo://app?vid=8476250d-32b3-45ae-a68f-2cc762df006e"},"vehicle_type_id":"4","last_reported":1740017438,"current_range_meters":9600,"station_id":"ce4bhkp2rcd13ifvqgd0","pricing_plan_id":"cebpf4jnsgd1na2vs0mg"},{"bike_id":"34d14ec0-9a1d-4d07-8158-52ff5d0c0371","system_id":"levelo_inurba_marseille","lat":43.2944,"lon":5.38037,"is_reserved":false,"is_disabled":false,"rental_uris":{"android":"levelo://app?vid=34d14ec0-9a1d-4d07-8158-52ff5d0c0371","ios":"levelo://app?vid=34d14ec0-9a1d-4d07-8158-52ff5d0c0371"},"vehicle_type_id":"4","last_reported":1740017438,"current_range_meters":9600,"station_id":"","pricing_plan_id":"cebpf4jnsgd1na2vs0mg"},{"bike_id":"1d63a175-89ef-49ff-9ead-dfe9ed6c22cf","system_id":"levelo_inurba_marseille","lat":43.24677,"lon":5.3944,"is_reserved":false,"is_disabled":false,"rental_uris":{"android":"levelo://app?vid=1d63a175-89ef-49ff-9ead-dfe9ed6c22cf","ios":"levelo://app?vid=1d63a175-89ef-49ff-9ead-dfe9ed6c22cf"},"vehicle_type_id":"4","last_reported":1740017438,"current_range_meters":9600,"station_id":"","pricing_plan_id":"cebpf4jnsgd1na2vs0mg"},{"bike_id":"c67fb496-8441-458a-af2d-8f07c087bdd0","system_id":"levelo_inurba_marseille","lat":43.24169,"lon":5.36415,"is_reserved":false,"is_disabled":true,"rental_uris":{"android":"levelo://app?vid=c67fb496-8441-458a-af2d-8f07c087bdd0","ios":"levelo://app?vid=c67fb496-8441-458a-af2d-8f07c087bdd0"},"vehicle_type_id":"4","last_reported":1740017438,"current_range_meters":9600,"station_id":"","pricing_plan_id":"cebpf4jnsgd1na2vs0mg"},{"bike_id":"b5ccd101-da50-49c2-a47d-23d6bbe0a25f","system_id":"levelo_inurba_marseille","lat":43.28265,"lon":5.35058,"is_reserved":false,"is_disabled":false,"rental_uris":{"android":"levelo://app?vid=b5ccd101-da50-49c2-a47d-23d6bbe0a25f","ios":"levelo://app?vid=b5ccd101-da50-49c2-a47d-23d6bbe0a25f"},"vehicle_type_id":"4","last_reported":1740017438,"current_range_meters":9600,"station_id":"ce4bhbp2rcd13ifvqerg","pricing_plan_id":"cebpf4jnsgd1na2vs0mg"},{"bike_id":"a57f9e02-b8e2-4fd7-8b9c-848e6af50f65","system_id":"levelo_inurba_marseille","lat":43.308905,"lon":5.37205,"is_reserved":false,"is_disabled":false,"rental_uris":{"android":"levelo://app?vid=a57f9e02-b8e2-4fd7-8b9c-848e6af50f65","ios":"levelo://app?vid=a57f9e02-b8e2-4fd7-8b9c-848e6af50f65"},"vehicle_type_id":"4","last_reported":1740017438,"current_range_meters":9600,"station_id":"ce4bguh2rcd13ifvqckg","pricing_plan_id":"cebpf4jnsgd1na2vs0mg"},{"bike_id":"6185c2e4-7673-4720-b504-b4401db122bf","system_id":"levelo_inurba_marseille","lat":43.24809,"lon":5.37458,"is_reserved":false,"is_disabled":false,"rental_uris":{"android":"levelo://app?vid=6185c2e4-7673-4720-b504-b4401db122bf","ios":"levelo://app?vid=6185c2e4-7673-4720-b504-b4401db122bf"},"vehicle_type_id":"4","last_reported":1740017438,"current_range_meters":9600,"station_id":"ce4bhgh2rcd13ifvqfb0","pricing_plan_id":"cebpf4jnsgd1na2vs0mg"},{"bike_id":"b64778c2-2434-4409-b125-e965a1fd469a","system_id":"levelo_inurba_marseille","lat":43.30326,"lon":5.36674,"is_reserved":false,"is_disabled":false,"rental_uris":{"android":"levelo://app?vid=b64778c2-2434-4409-b125-e965a1fd469a","ios":"levelo://app?vid=b64778c2-2434-4409-b125-e965a1fd469a"},"vehicle_type_id":"4","last_reported":1740017438,"current_range_meters":9600,"station_id":"ce4bgs12rcd13ifvqcag","pricing_plan_id":"cebpf4jnsgd1na2vs0mg"},{"bike_id":"4e2b468f-8f4a-4d73-8517-62fa28d3fb4c","system_id":"levelo_inurba_marseille","lat":43.24812,"lon":5.3746,"is_reserved":false,"is_disabled":false,"rental_uris":{"android":"levelo://app?vid=4e2b468f-8f4a-4d73-8517-62fa28d3fb4c","ios":"levelo://app?vid=4e2b468f-8f4a-4d73-8517-62fa28d3fb4c"},"vehicle_type_id":"4","last_reported":1740017438,"current_range_meters":10000,"station_id":"ce4bhgh2rcd13ifvqfb0","pricing_plan_id":"cebpf4jnsgd1na2vs0mg"},{"bike_id":"c323e2ff-640f-47b0-bbfe-fac4271a621c","system_id":"levelo_inurba_marseille","lat":43.28424,"lon":5.34983,"is_reserved":false,"is_disabled":true,"rental_uris":{"android":"levelo://app?vid=c323e2ff-640f-47b0-bbfe-fac4271a621c","ios":"levelo://app?vid=c323e2ff-640f-47b0-bbfe-fac4271a621c"},"vehicle_type_id":"4","last_reported":1740017438,"current_range_meters":10000,"station_id":"ce4bhbh2rcd13ifvqepg","pricing_plan_id":"cebpf4jnsgd1na2vs0mg"},{"bike_id":"c413082d-d7ab-46ec-ac19-9a490bf5af21","system_id":"levelo_inurba_marseille","lat":43.28334,"lon":5.38106,"is_reserved":false,"is_disabled":false,"rental_uris":{"android":"levelo://app?vid=c413082d-d7ab-46ec-ac19-9a490bf5af21","ios":"levelo://app?vid=c413082d-d7ab-46ec-ac19-9a490bf5af21"},"vehicle_type_id":"4","last_reported":1740017438,"current_range_meters":10000,"station_id":"ce4bh412rcd13ifvqdr0","pricing_plan_id":"cebpf4jnsgd1na2vs0mg"},{"bike_id":"3fa131c8-d3bf-4fb9-b400-1daf371dcaa7","system_id":"levelo_inurba_marseille","lat":43.27181,"lon":5.40983,"is_reserved":false,"is_disabled":false,"rental_uris":{"android":"levelo://app?vid=3fa131c8-d3bf-4fb9-b400-1daf371dcaa7","ios":"levelo://app?vid=3fa131c8-d3bf-4fb9-b400-1daf371dcaa7"},"vehicle_type_id":"4","last_reported":1740017438,"current_range_meters":10000,"station_id":"ce4bhl12rcd13ifvqgf0","pricing_plan_id":"cebpf4jnsgd1na2vs0mg"},{"bike_id":"a00fb5cd-e0d2-4f96-befb-5275c0df0c87","system_id":"levelo_inurba_marseille","lat":43.27992,"lon":5.41668,"is_reserved":false,"is_disabled":false,"rental_uris":{"android":"levelo://app?vid=a00fb5cd-e0d2-4f96-befb-5275c0df0c87","ios":"levelo://app?vid=a00fb5cd-e0d2-4f96-befb-5275c0df0c87"},"vehicle_type_id":"4","last_reported":1740017438,"current_range_meters":10000,"station_id":"ce4bho12rcd13ifvqh1g","pricing_plan_id":"cebpf4jnsgd1na2vs0mg"},{"bike_id":"5d5742dd-c885-41c1-b435-6cad3810ede3","system_id":"levelo_inurba_marseille","lat":43.29203,"lon":5.39326,"is_reserved":false,"is_disabled":false,"rental_uris":{"android":"levelo://app?vid=5d5742dd-c885-41c1-b435-6cad3810ede3","ios":"levelo://app?vid=5d5742dd-c885-41c1-b435-6cad3810ede3"},"vehicle_type_id":"4","last_reported":1740017438,"current_range_meters":10000,"station_id":"ce4bh192rcd13ifvqdd0","pricing_plan_id":"cebpf4jnsgd1na2vs0mg"},{"bike_id":"24dd12c1-4d8a-40c0-b521-a98d2d462c41","system_id":"levelo_inurba_marseille","lat":43.24175,"lon":5.36396,"is_reserved":false,"is_disabled":false,"rental_uris":{"android":"levelo://app?vid=24dd12c1-4d8a-40c0-b521-a98d2d462c41","ios":"levelo://app?vid=24dd12c1-4d8a-40c0-b521-a98d2d462c41"},"vehicle_type_id":"4","last_reported":1740017438,"current_range_meters":10000,"station_id":"","pricing_plan_id":"cebpf4jnsgd1na2vs0mg"},{"bike_id":"d770c566-7273-4c27-a365-ab1c1d7a5fd0","system_id":"levelo_inurba_marseille","lat":43.2885,"lon":5.35843,"is_reserved":false,"is_disabled":false,"rental_uris":{"android":"levelo://app?vid=d770c566-7273-4c27-a365-ab1c1d7a5fd0","ios":"levelo://app?vid=d770c566-7273-4c27-a365-ab1c1d7a5fd0"},"vehicle_type_id":"4","last_reported":1740017438,"current_range_meters":10000,"station_id":"ce4bhb12rcd13ifvqem0","pricing_plan_id":"cebpf4jnsgd1na2vs0mg"},{"bike_id":"5089bb88-a0cd-4434-a1a9-f3d5b67361c6","system_id":"levelo_inurba_marseille","lat":43.24373,"lon":5.38746,"is_reserved":false,"is_disabled":false,"rental_uris":{"android":"levelo://app?vid=5089bb88-a0cd-4434-a1a9-f3d5b67361c6","ios":"levelo://app?vid=5089bb88-a0cd-4434-a1a9-f3d5b67361c6"},"vehicle_type_id":"4","last_reported":1740017438,"current_range_meters":10800,"station_id":"","pricing_plan_id":"cebpf4jnsgd1na2vs0mg"},{"bike_id":"e2596add-e568-49b6-a063-b6868f5c61f8","system_id":"levelo_inurba_marseille","lat":43.248092,"lon":5.37456,"is_reserved":false,"is_disabled":false,"rental_uris":{"android":"levelo://app?vid=e2596add-e568-49b6-a063-b6868f5c61f8","ios":"levelo://app?vid=e2596add-e568-49b6-a063-b6868f5c61f8"},"vehicle_type_id":"4","last_reported":1740017438,"current_range_meters":10800,"station_id":"ce4bhgh2rcd13ifvqfb0","pricing_plan_id":"cebpf4jnsgd1na2vs0mg"},{"bike_id":"26779595-c177-40e8-a988-d5570ab1009d","system_id":"levelo_inurba_marseille","lat":43.29177,"lon":5.39759,"is_reserved":false,"is_disabled":false,"rental_uris":{"android":"levelo://app?vid=26779595-c177-40e8-a988-d5570ab1009d","ios":"levelo://app?vid=26779595-c177-40e8-a988-d5570ab1009d"},"vehicle_type_id":"4","last_reported":1740017438,"current_range_meters":10800,"station_id":"","pricing_plan_id":"cebpf4jnsgd1na2vs0mg"},{"bike_id":"e1635589-a58b-4a69-a272-7bcd776fbb53","system_id":"levelo_inurba_marseille","lat":43.25933,"lon":5.40869,"is_reserved":false,"is_disabled":false,"rental_uris":{"android":"levelo://app?vid=e1635589-a58b-4a69-a272-7bcd776fbb53","ios":"levelo://app?vid=e1635589-a58b-4a69-a272-7bcd776fbb53"},"vehicle_type_id":"4","last_reported":1740017438,"current_range_meters":10800,"station_id":"ce4bhm92rcd13ifvqglg","pricing_plan_id":"cebpf4jnsgd1na2vs0mg"},{"bike_id":"2f8fe4c8-801d-4f59-a740-86a5d229b635","system_id":"levelo_inurba_marseille","lat":43.28668,"lon":5.36345,"is_reserved":false,"is_disabled":false,"rental_uris":{"android":"levelo://app?vid=2f8fe4c8-801d-4f59-a740-86a5d229b635","ios":"levelo://app?vid=2f8fe4c8-801d-4f59-a740-86a5d229b635"},"vehicle_type_id":"4","last_reported":1740017438,"current_range_meters":10800,"station_id":"ce4bhah2rcd13ifvqej0","pricing_plan_id":"cebpf4jnsgd1na2vs0mg"},{"bike_id":"9e645de9-efc1-428b-aa00-d954e1d57897","system_id":"levelo_inurba_marseille","lat":43.26562,"lon":5.39037,"is_reserved":false,"is_disabled":false,"rental_uris":{"android":"levelo://app?vid=9e645de9-efc1-428b-aa00-d954e1d57897","ios":"levelo://app?vid=9e645de9-efc1-428b-aa00-d954e1d57897"},"vehicle_type_id":"4","last_reported":1740017438,"current_range_meters":10800,"station_id":"","pricing_plan_id":"cebpf4jnsgd1na2vs0mg"},{"bike_id":"efb58bf1-4403-4b9f-b67d-a8970e8c3a7f","system_id":"levelo_inurba_marseille","lat":43.25004,"lon":5.38916,"is_reserved":false,"is_disabled":false,"rental_uris":{"android":"levelo://app?vid=efb58bf1-4403-4b9f-b67d-a8970e8c3a7f","ios":"levelo://app?vid=efb58bf1-4403-4b9f-b67d-a8970e8c3a7f"},"vehicle_type_id":"4","last_reported":1740017438,"current_range_meters":10800,"station_id":"ce4bhgp2rcd13ifvqfd0","pricing_plan_id":"cebpf4jnsgd1na2vs0mg"},{"bike_id":"9c1a2cc5-824b-41f9-be9b-e3a617e1ad6b","system_id":"levelo_inurba_marseille","lat":43.28343,"lon":5.38098,"is_reserved":false,"is_disabled":false,"rental_uris":{"android":"levelo://app?vid=9c1a2cc5-824b-41f9-be9b-e3a617e1ad6b","ios":"levelo://app?vid=9c1a2cc5-824b-41f9-be9b-e3a617e1ad6b"},"vehicle_type_id":"4","last_reported":1740017438,"current_range_meters":10800,"station_id":"ce4bh412rcd13ifvqdr0","pricing_plan_id":"cebpf4jnsgd1na2vs0mg"},{"bike_id":"5180f318-4948-4085-aaf1-5f3160b57dbe","system_id":"levelo_inurba_marseille","lat":43.27605,"lon":5.36124,"is_reserved":false,"is_disabled":true,"rental_uris":{"android":"levelo://app?vid=5180f318-4948-4085-aaf1-5f3160b57dbe","ios":"levelo://app?vid=5180f318-4948-4085-aaf1-5f3160b57dbe"},"vehicle_type_id":"4","last_reported":1740017438,"current_range_meters":10800,"station_id":"","pricing_plan_id":"cebpf4jnsgd1na2vs0mg"},{"bike_id":"0de96281-79a3-43c6-98a9-a80c48527662","system_id":"levelo_inurba_marseille","lat":43.30429,"lon":5.3889,"is_reserved":false,"is_disabled":false,"rental_uris":{"android":"levelo://app?vid=0de96281-79a3-43c6-98a9-a80c48527662","ios":"levelo://app?vid=0de96281-79a3-43c6-98a9-a80c48527662"},"vehicle_type_id":"4","last_reported":1740017438,"current_range_meters":11200,"station_id":"","pricing_plan_id":"cebpf4jnsgd1na2vs0mg"},{"bike_id":"9d50ece6-439c-4b6b-9a52-9ada67236abc","system_id":"levelo_inurba_marseille","lat":43.2926,"lon":5.40898,"is_reserved":false,"is_disabled":false,"rental_uris":{"android":"levelo://app?vid=9d50ece6-439c-4b6b-9a52-9ada67236abc","ios":"levelo://app?vid=9d50ece6-439c-4b6b-9a52-9ada67236abc"},"vehicle_type_id":"4","last_reported":1740017438,"current_range_meters":11200,"station_id":"","pricing_plan_id":"cebpf4jnsgd1na2vs0mg"},{"bike_id":"748d0ef5-1097-4811-b3cd-92a1ccaeacda","system_id":"levelo_inurba_marseille","lat":43.30312,"lon":5.40439,"is_reserved":false,"is_disabled":false,"rental_uris":{"android":"levelo://app?vid=748d0ef5-1097-4811-b3cd-92a1ccaeacda","ios":"levelo://app?vid=748d0ef5-1097-4811-b3cd-92a1ccaeacda"},"vehicle_type_id":"4","last_reported":1740017438,"current_range_meters":11200,"station_id":"ce4bh012rcd13ifvqd10","pricing_plan_id":"cebpf4jnsgd1na2vs0mg"},{"bike_id":"fc971b16-bef3-4b6d-813c-ffc8ffa48842","system_id":"levelo_inurba_marseille","lat":43.2841,"lon":5.34986,"is_reserved":false,"is_disabled":true,"rental_uris":{"android":"levelo://app?vid=fc971b16-bef3-4b6d-813c-ffc8ffa48842","ios":"levelo://app?vid=fc971b16-bef3-4b6d-813c-ffc8ffa48842"},"vehicle_type_id":"4","last_reported":1740017438,"current_range_meters":11200,"station_id":"","pricing_plan_id":"cebpf4jnsgd1na2vs0mg"},{"bike_id":"86043f9c-83bc-4b7d-9dfe-e501f8817a8c","system_id":"levelo_inurba_marseille","lat":43.280308,"lon":5.369378,"is_reserved":false,"is_disabled":false,"rental_uris":{"android":"levelo://app?vid=86043f9c-83bc-4b7d-9dfe-e501f8817a8c","ios":"levelo://app?vid=86043f9c-83bc-4b7d-9dfe-e501f8817a8c"},"vehicle_type_id":"4","last_reported":1740017438,"current_range_meters":11200,"station_id":"ce4bha12rcd13ifvqef0","pricing_plan_id":"cebpf4jnsgd1na2vs0mg"},{"bike_id":"a0af3547-0f5a-4ee7-a39d-23ed992db956","system_id":"levelo_inurba_marseille","lat":43.23437,"lon":5.40443,"is_reserved":false,"is_disabled":false,"rental_uris":{"android":"levelo://app?vid=a0af3547-0f5a-4ee7-a39d-23ed992db956","ios":"levelo://app?vid=a0af3547-0f5a-4ee7-a39d-23ed992db956"},"vehicle_type_id":"4","last_reported":1740017438,"current_range_meters":11600,"station_id":"","pricing_plan_id":"cebpf4jnsgd1na2vs0mg"},{"bike_id":"2b69c3ed-cf4c-424f-9f25-3523c37d2e64","system_id":"levelo_inurba_marseille","lat":43.28339,"lon":5.38099,"is_reserved":false,"is_disabled":false,"rental_uris":{"android":"levelo://app?vid=2b69c3ed-cf4c-424f-9f25-3523c37d2e64","ios":"levelo://app?vid=2b69c3ed-cf4c-424f-9f25-3523c37d2e64"},"vehicle_type_id":"4","last_reported":1740017438,"current_range_meters":11600,"station_id":"ce4bh412rcd13ifvqdr0","pricing_plan_id":"cebpf4jnsgd1na2vs0mg"},{"bike_id":"ce4cd0ce-5fd6-4e5d-ba79-bc97ce0635bf","system_id":"levelo_inurba_marseille","lat":43.32334,"lon":5.40775,"is_reserved":false,"is_disabled":false,"rental_uris":{"android":"levelo://app?vid=ce4cd0ce-5fd6-4e5d-ba79-bc97ce0635bf","ios":"levelo://app?vid=ce4cd0ce-5fd6-4e5d-ba79-bc97ce0635bf"},"vehicle_type_id":"4","last_reported":1740017438,"current_range_meters":11600,"station_id":"","pricing_plan_id":"cebpf4jnsgd1na2vs0mg"},{"bike_id":"0686e433-82b6-4ced-b364-39b66b6a0983","system_id":"levelo_inurba_marseille","lat":43.255799,"lon":5.382359,"is_reserved":false,"is_disabled":false,"rental_uris":{"android":"levelo://app?vid=0686e433-82b6-4ced-b364-39b66b6a0983","ios":"levelo://app?vid=0686e433-82b6-4ced-b364-39b66b6a0983"},"vehicle_type_id":"4","last_reported":1740017438,"current_range_meters":11600,"station_id":"ce4bhih2rcd13ifvqfs0","pricing_plan_id":"cebpf4jnsgd1na2vs0mg"},{"bike_id":"fafca7bb-fea8-4adb-b2e0-93ccb49b1a5f","system_id":"levelo_inurba_marseille","lat":43.28099,"lon":5.37854,"is_reserved":false,"is_disabled":false,"rental_uris":{"android":"levelo://app?vid=fafca7bb-fea8-4adb-b2e0-93ccb49b1a5f","ios":"levelo://app?vid=fafca7bb-fea8-4adb-b2e0-93ccb49b1a5f"},"vehicle_type_id":"4","last_reported":1740017438,"current_range_meters":11600,"station_id":"ce4bha12rcd13ifvqee0","pricing_plan_id":"cebpf4jnsgd1na2vs0mg"},{"bike_id":"058213af-b61b-486b-8e0a-0a8fd78595de","system_id":"levelo_inurba_marseille","lat":43.2318,"lon":5.39991,"is_reserved":false,"is_disabled":false,"rental_uris":{"android":"levelo://app?vid=058213af-b61b-486b-8e0a-0a8fd78595de","ios":"levelo://app?vid=058213af-b61b-486b-8e0a-0a8fd78595de"},"vehicle_type_id":"4","last_reported":1740017438,"current_range_meters":11600,"station_id":"ce4bhn12rcd13ifvqgqg","pricing_plan_id":"cebpf4jnsgd1na2vs0mg"},{"bike_id":"af72143b-a143-4215-86cf-9bea4afd2976","system_id":"levelo_inurba_marseille","lat":43.32276,"lon":5.38286,"is_reserved":false,"is_disabled":false,"rental_uris":{"android":"levelo://app?vid=af72143b-a143-4215-86cf-9bea4afd2976","ios":"levelo://app?vid=af72143b-a143-4215-86cf-9bea4afd2976"},"vehicle_type_id":"4","last_reported":1740017438,"current_range_meters":11600,"station_id":"ce4bhr12rcd13ifvqhqg","pricing_plan_id":"cebpf4jnsgd1na2vs0mg"},{"bike_id":"274ea2a1-3f84-4a80-9e0a-ad5839b63c74","system_id":"levelo_inurba_marseille","lat":43.28029,"lon":5.36931,"is_reserved":false,"is_disabled":false,"rental_uris":{"android":"levelo://app?vid=274ea2a1-3f84-4a80-9e0a-ad5839b63c74","ios":"levelo://app?vid=274ea2a1-3f84-4a80-9e0a-ad5839b63c74"},"vehicle_type_id":"4","last_reported":1740017438,"current_range_meters":12000,"station_id":"ce4bha12rcd13ifvqef0","pricing_plan_id":"cebpf4jnsgd1na2vs0mg"},{"bike_id":"3443a155-0132-4d5d-98df-3afe17fa4d3b","system_id":"levelo_inurba_marseille","lat":43.29259,"lon":5.40904,"is_reserved":false,"is_disabled":false,"rental_uris":{"android":"levelo://app?vid=3443a155-0132-4d5d-98df-3afe17fa4d3b","ios":"levelo://app?vid=3443a155-0132-4d5d-98df-3afe17fa4d3b"},"vehicle_type_id":"4","last_reported":1740017438,"current_range_meters":12000,"station_id":"ce4bh192rcd13ifvqdc0","pricing_plan_id":"cebpf4jnsgd1na2vs0mg"},{"bike_id":"9f2c0ce7-d99e-4d9a-95b0-74d0ac389513","system_id":"levelo_inurba_marseille","lat":43.28674,"lon":5.38657,"is_reserved":false,"is_disabled":false,"rental_uris":{"android":"levelo://app?vid=9f2c0ce7-d99e-4d9a-95b0-74d0ac389513","ios":"levelo://app?vid=9f2c0ce7-d99e-4d9a-95b0-74d0ac389513"},"vehicle_type_id":"4","last_reported":1740017438,"current_range_meters":12000,"station_id":"ce4bh492rcd13ifvqdug","pricing_plan_id":"cebpf4jnsgd1na2vs0mg"},{"bike_id":"f5f7c6b1-ac7b-4c52-8fac-fd91ff08ab83","system_id":"levelo_inurba_marseille","lat":43.2926,"lon":5.38445,"is_reserved":false,"is_disabled":true,"rental_uris":{"android":"levelo://app?vid=f5f7c6b1-ac7b-4c52-8fac-fd91ff08ab83","ios":"levelo://app?vid=f5f7c6b1-ac7b-4c52-8fac-fd91ff08ab83"},"vehicle_type_id":"4","last_reported":1740017438,"current_range_meters":12000,"station_id":"ce4bh692rcd13ifvqea0","pricing_plan_id":"cebpf4jnsgd1na2vs0mg"},{"bike_id":"c932361a-000a-4cbb-98fe-c3aff11b2a5f","system_id":"levelo_inurba_marseille","lat":43.287,"lon":5.37402,"is_reserved":false,"is_disabled":false,"rental_uris":{"android":"levelo://app?vid=c932361a-000a-4cbb-98fe-c3aff11b2a5f","ios":"levelo://app?vid=c932361a-000a-4cbb-98fe-c3aff11b2a5f"},"vehicle_type_id":"4","last_reported":1740017438,"current_range_meters":12000,"station_id":"ce4bh3p2rcd13ifvqdq0","pricing_plan_id":"cebpf4jnsgd1na2vs0mg"},{"bike_id":"d8c915d8-4783-4ebb-a64b-10db7e9bf0f1","system_id":"levelo_inurba_marseille","lat":43.28583,"lon":5.35131,"is_reserved":false,"is_disabled":false,"rental_uris":{"android":"levelo://app?vid=d8c915d8-4783-4ebb-a64b-10db7e9bf0f1","ios":"levelo://app?vid=d8c915d8-4783-4ebb-a64b-10db7e9bf0f1"},"vehicle_type_id":"4","last_reported":1740017438,"current_range_meters":12000,"station_id":"","pricing_plan_id":"cebpf4jnsgd1na2vs0mg"},{"bike_id":"46e9f51e-b9ef-4a2b-b954-42af97c9998e","system_id":"levelo_inurba_marseille","lat":43.31707,"lon":5.43703,"is_reserved":false,"is_disabled":false,"rental_uris":{"android":"levelo://app?vid=46e9f51e-b9ef-4a2b-b954-42af97c9998e","ios":"levelo://app?vid=46e9f51e-b9ef-4a2b-b954-42af97c9998e"},"vehicle_type_id":"4","last_reported":1740017438,"current_range_meters":12000,"station_id":"","pricing_plan_id":"cebpf4jnsgd1na2vs0mg"},{"bike_id":"5428c4a6-2268-45c5-aff9-a5f8e308d92b","system_id":"levelo_inurba_marseille","lat":43.30923,"lon":5.37276,"is_reserved":false,"is_disabled":false,"rental_uris":{"android":"levelo://app?vid=5428c4a6-2268-45c5-aff9-a5f8e308d92b","ios":"levelo://app?vid=5428c4a6-2268-45c5-aff9-a5f8e308d92b"},"vehicle_type_id":"4","last_reported":1740017438,"current_range_meters":12400,"station_id":"ce4bguh2rcd13ifvqckg","pricing_plan_id":"cebpf4jnsgd1na2vs0mg"},{"bike_id":"5f9ede52-c720-4107-a864-980fb2608395","system_id":"levelo_inurba_marseille","lat":43.24072,"lon":5.38715,"is_reserved":false,"is_disabled":false,"rental_uris":{"android":"levelo://app?vid=5f9ede52-c720-4107-a864-980fb2608395","ios":"levelo://app?vid=5f9ede52-c720-4107-a864-980fb2608395"},"vehicle_type_id":"4","last_reported":1740017438,"current_range_meters":12400,"station_id":"ce4bhb92rcd13ifvqen0","pricing_plan_id":"cebpf4jnsgd1na2vs0mg"},{"bike_id":"ef5d60e6-3793-4724-bd6b-5af65d1d3f37","system_id":"levelo_inurba_marseille","lat":43.2871,"lon":5.39979,"is_reserved":false,"is_disabled":false,"rental_uris":{"android":"levelo://app?vid=ef5d60e6-3793-4724-bd6b-5af65d1d3f37","ios":"levelo://app?vid=ef5d60e6-3793-4724-bd6b-5af65d1d3f37"},"vehicle_type_id":"4","last_reported":1740017438,"current_range_meters":12400,"station_id":"ce4bho92rcd13ifvqh3g","pricing_plan_id":"cebpf4jnsgd1na2vs0mg"},{"bike_id":"2e9660a6-fe7d-4761-97c2-cc78f2558e79","system_id":"levelo_inurba_marseille","lat":43.2513,"lon":5.40326,"is_reserved":false,"is_disabled":false,"rental_uris":{"android":"levelo://app?vid=2e9660a6-fe7d-4761-97c2-cc78f2558e79","ios":"levelo://app?vid=2e9660a6-fe7d-4761-97c2-cc78f2558e79"},"vehicle_type_id":"4","last_reported":1740017438,"current_range_meters":12400,"station_id":"ce4bhlh2rcd13ifvqgig","pricing_plan_id":"cebpf4jnsgd1na2vs0mg"},{"bike_id":"ae8ac144-48ae-4416-ac22-bea20bc3a68a","system_id":"levelo_inurba_marseille","lat":43.30904,"lon":5.36841,"is_reserved":false,"is_disabled":false,"rental_uris":{"android":"levelo://app?vid=ae8ac144-48ae-4416-ac22-bea20bc3a68a","ios":"levelo://app?vid=ae8ac144-48ae-4416-ac22-bea20bc3a68a"},"vehicle_type_id":"4","last_reported":1740017438,"current_range_meters":12400,"station_id":"ce4bgn92rcd13ifvqbvg","pricing_plan_id":"cebpf4jnsgd1na2vs0mg"},{"bike_id":"4da6cc22-4d46-4a7c-8914-7b17d72dd95a","system_id":"levelo_inurba_marseille","lat":43.27175,"lon":5.4099,"is_reserved":false,"is_disabled":false,"rental_uris":{"android":"levelo://app?vid=4da6cc22-4d46-4a7c-8914-7b17d72dd95a","ios":"levelo://app?vid=4da6cc22-4d46-4a7c-8914-7b17d72dd95a"},"vehicle_type_id":"4","last_reported":1740017438,"current_range_meters":12400,"station_id":"ce4bhl12rcd13ifvqgf0","pricing_plan_id":"cebpf4jnsgd1na2vs0mg"},{"bike_id":"521c07ee-8f56-418c-9167-93791e255dc4","system_id":"levelo_inurba_marseille","lat":43.28726,"lon":5.37952,"is_reserved":false,"is_disabled":false,"rental_uris":{"android":"levelo://app?vid=521c07ee-8f56-418c-9167-93791e255dc4","ios":"levelo://app?vid=521c07ee-8f56-418c-9167-93791e255dc4"},"vehicle_type_id":"4","last_reported":1740017438,"current_range_meters":12800,"station_id":"ce4bh9p2rcd13ifvqec0","pricing_plan_id":"cebpf4jnsgd1na2vs0mg"},{"bike_id":"4cfd339f-08c0-4c27-afde-bac90a328a1b","system_id":"levelo_inurba_marseille","lat":43.27042,"lon":5.40281,"is_reserved":false,"is_disabled":false,"rental_uris":{"android":"levelo://app?vid=4cfd339f-08c0-4c27-afde-bac90a328a1b","ios":"levelo://app?vid=4cfd339f-08c0-4c27-afde-bac90a328a1b"},"vehicle_type_id":"4","last_reported":1740017438,"current_range_meters":13600,"station_id":"ce4bhk92rcd13ifvqgc0","pricing_plan_id":"cebpf4jnsgd1na2vs0mg"},{"bike_id":"ba379239-9216-4e46-a96c-a73988d910ff","system_id":"levelo_inurba_marseille","lat":43.26489,"lon":5.37146,"is_reserved":false,"is_disabled":false,"rental_uris":{"android":"levelo://app?vid=ba379239-9216-4e46-a96c-a73988d910ff","ios":"levelo://app?vid=ba379239-9216-4e46-a96c-a73988d910ff"},"vehicle_type_id":"4","last_reported":1740017438,"current_range_meters":13600,"station_id":"","pricing_plan_id":"cebpf4jnsgd1na2vs0mg"},{"bike_id":"7da3d885-2031-4dfc-9946-af2e1dd8ce85","system_id":"levelo_inurba_marseille","lat":43.28701,"lon":5.39982,"is_reserved":false,"is_disabled":false,"rental_uris":{"android":"levelo://app?vid=7da3d885-2031-4dfc-9946-af2e1dd8ce85","ios":"levelo://app?vid=7da3d885-2031-4dfc-9946-af2e1dd8ce85"},"vehicle_type_id":"4","last_reported":1740017438,"current_range_meters":13600,"station_id":"","pricing_plan_id":"cebpf4jnsgd1na2vs0mg"},{"bike_id":"477ac2db-8f8c-4cbc-8427-0ab644b57a7a","system_id":"levelo_inurba_marseille","lat":43.25067,"lon":5.38981,"is_reserved":false,"is_disabled":false,"rental_uris":{"android":"levelo://app?vid=477ac2db-8f8c-4cbc-8427-0ab644b57a7a","ios":"levelo://app?vid=477ac2db-8f8c-4cbc-8427-0ab644b57a7a"},"vehicle_type_id":"4","last_reported":1740017438,"current_range_meters":13600,"station_id":"ce4bhgp2rcd13ifvqfd0","pricing_plan_id":"cebpf4jnsgd1na2vs0mg"},{"bike_id":"fe322b84-57c4-482f-a58b-1f046617c90d","system_id":"levelo_inurba_marseille","lat":43.232,"lon":5.35548,"is_reserved":false,"is_disabled":false,"rental_uris":{"android":"levelo://app?vid=fe322b84-57c4-482f-a58b-1f046617c90d","ios":"levelo://app?vid=fe322b84-57c4-482f-a58b-1f046617c90d"},"vehicle_type_id":"4","last_reported":1740017438,"current_range_meters":14000,"station_id":"ce4bhu92rcd13ifvqi70","pricing_plan_id":"cebpf4jnsgd1na2vs0mg"},{"bike_id":"f6f2eebd-afe0-42c6-83aa-e630ce003429","system_id":"levelo_inurba_marseille","lat":43.28718,"lon":5.3874,"is_reserved":false,"is_disabled":true,"rental_uris":{"android":"levelo://app?vid=f6f2eebd-afe0-42c6-83aa-e630ce003429","ios":"levelo://app?vid=f6f2eebd-afe0-42c6-83aa-e630ce003429"},"vehicle_type_id":"4","last_reported":1740017438,"current_range_meters":14000,"station_id":"","pricing_plan_id":"cebpf4jnsgd1na2vs0mg"},{"bike_id":"94ce4c1f-b676-43e1-9e28-ed9f6f6c8e2b","system_id":"levelo_inurba_marseille","lat":43.23615,"lon":5.39186,"is_reserved":false,"is_disabled":false,"rental_uris":{"android":"levelo://app?vid=94ce4c1f-b676-43e1-9e28-ed9f6f6c8e2b","ios":"levelo://app?vid=94ce4c1f-b676-43e1-9e28-ed9f6f6c8e2b"},"vehicle_type_id":"4","last_reported":1740017438,"current_range_meters":14400,"station_id":"","pricing_plan_id":"cebpf4jnsgd1na2vs0mg"},{"bike_id":"dbb0ddeb-4144-4e0a-a5de-588418d0c7fc","system_id":"levelo_inurba_marseille","lat":43.23988,"lon":5.36585,"is_reserved":false,"is_disabled":false,"rental_uris":{"android":"levelo://app?vid=dbb0ddeb-4144-4e0a-a5de-588418d0c7fc","ios":"levelo://app?vid=dbb0ddeb-4144-4e0a-a5de-588418d0c7fc"},"vehicle_type_id":"4","last_reported":1740017438,"current_range_meters":14400,"station_id":"ce4bhi12rcd13ifvqfp0","pricing_plan_id":"cebpf4jnsgd1na2vs0mg"},{"bike_id":"4018f37e-14af-45ac-94c2-465493b49f53","system_id":"levelo_inurba_marseille","lat":43.28824,"lon":5.39349,"is_reserved":false,"is_disabled":false,"rental_uris":{"android":"levelo://app?vid=4018f37e-14af-45ac-94c2-465493b49f53","ios":"levelo://app?vid=4018f37e-14af-45ac-94c2-465493b49f53"},"vehicle_type_id":"4","last_reported":1740017438,"current_range_meters":14400,"station_id":"ce4bh2p2rcd13ifvqdi0","pricing_plan_id":"cebpf4jnsgd1na2vs0mg"},{"bike_id":"6a061f58-53b1-43c0-a8fc-80115a0b271f","system_id":"levelo_inurba_marseille","lat":43.3089,"lon":5.39632,"is_reserved":false,"is_disabled":false,"rental_uris":{"android":"levelo://app?vid=6a061f58-53b1-43c0-a8fc-80115a0b271f","ios":"levelo://app?vid=6a061f58-53b1-43c0-a8fc-80115a0b271f"},"vehicle_type_id":"4","last_reported":1740017438,"current_range_meters":14800,"station_id":"ce4bh012rcd13ifvqcv0","pricing_plan_id":"cebpf4jnsgd1na2vs0mg"},{"bike_id":"a868aca5-7dba-425f-8a5d-780d0cd0bb97","system_id":"levelo_inurba_marseille","lat":43.30609,"lon":5.37204,"is_reserved":false,"is_disabled":false,"rental_uris":{"android":"levelo://app?vid=a868aca5-7dba-425f-8a5d-780d0cd0bb97","ios":"levelo://app?vid=a868aca5-7dba-425f-8a5d-780d0cd0bb97"},"vehicle_type_id":"4","last_reported":1740017438,"current_range_meters":14800,"station_id":"ce4bgqh2rcd13ifvqc4g","pricing_plan_id":"cebpf4jnsgd1na2vs0mg"},{"bike_id":"853b6bed-6752-447d-b6d3-2a10771c2996","system_id":"levelo_inurba_marseille","lat":43.2895,"lon":5.36384,"is_reserved":false,"is_disabled":false,"rental_uris":{"android":"levelo://app?vid=853b6bed-6752-447d-b6d3-2a10771c2996","ios":"levelo://app?vid=853b6bed-6752-447d-b6d3-2a10771c2996"},"vehicle_type_id":"4","last_reported":1740017438,"current_range_meters":14800,"station_id":"ce4bhc92rcd13ifvqetg","pricing_plan_id":"cebpf4jnsgd1na2vs0mg"},{"bike_id":"3e87622a-1095-4557-8fa8-7d6695ab8102","system_id":"levelo_inurba_marseille","lat":43.25857,"lon":5.39896,"is_reserved":false,"is_disabled":false,"rental_uris":{"android":"levelo://app?vid=3e87622a-1095-4557-8fa8-7d6695ab8102","ios":"levelo://app?vid=3e87622a-1095-4557-8fa8-7d6695ab8102"},"vehicle_type_id":"4","last_reported":1740017438,"current_range_meters":14800,"station_id":"ce4bhl92rcd13ifvqghg","pricing_plan_id":"cebpf4jnsgd1na2vs0mg"},{"bike_id":"e74c5985-908d-45b5-9f77-be4291dbd13a","system_id":"levelo_inurba_marseille","lat":43.25873,"lon":5.39902,"is_reserved":false,"is_disabled":false,"rental_uris":{"android":"levelo://app?vid=e74c5985-908d-45b5-9f77-be4291dbd13a","ios":"levelo://app?vid=e74c5985-908d-45b5-9f77-be4291dbd13a"},"vehicle_type_id":"4","last_reported":1740017438,"current_range_meters":14800,"station_id":"ce4bhl92rcd13ifvqghg","pricing_plan_id":"cebpf4jnsgd1na2vs0mg"},{"bike_id":"35938de5-ce32-4d46-ba2e-b3412310931e","system_id":"levelo_inurba_marseille","lat":43.28858,"lon":5.3932,"is_reserved":false,"is_disabled":false,"rental_uris":{"android":"levelo://app?vid=35938de5-ce32-4d46-ba2e-b3412310931e","ios":"levelo://app?vid=35938de5-ce32-4d46-ba2e-b3412310931e"},"vehicle_type_id":"4","last_reported":1740017438,"current_range_meters":14800,"station_id":"ce4bh2p2rcd13ifvqdi0","pricing_plan_id":"cebpf4jnsgd1na2vs0mg"},{"bike_id":"ad83c156-1bc9-4559-81c1-13cc14a8fb0b","system_id":"levelo_inurba_marseille","lat":43.2794,"lon":5.41055,"is_reserved":false,"is_disabled":false,"rental_uris":{"android":"levelo://app?vid=ad83c156-1bc9-4559-81c1-13cc14a8fb0b","ios":"levelo://app?vid=ad83c156-1bc9-4559-81c1-13cc14a8fb0b"},"vehicle_type_id":"4","last_reported":1740017438,"current_range_meters":14800,"station_id":"ce4bhnp2rcd13ifvqh0g","pricing_plan_id":"cebpf4jnsgd1na2vs0mg"},{"bike_id":"ea2d0d4f-a971-4bd3-9a80-f05f4e768ceb","system_id":"levelo_inurba_marseille","lat":43.2794,"lon":5.41035,"is_reserved":false,"is_disabled":false,"rental_uris":{"android":"levelo://app?vid=ea2d0d4f-a971-4bd3-9a80-f05f4e768ceb","ios":"levelo://app?vid=ea2d0d4f-a971-4bd3-9a80-f05f4e768ceb"},"vehicle_type_id":"4","last_reported":1740017438,"current_range_meters":14800,"station_id":"","pricing_plan_id":"cebpf4jnsgd1na2vs0mg"},{"bike_id":"635050f9-a2c9-4910-8267-ff5a32e2982d","system_id":"levelo_inurba_marseille","lat":43.24809,"lon":5.37457,"is_reserved":false,"is_disabled":false,"rental_uris":{"android":"levelo://app?vid=635050f9-a2c9-4910-8267-ff5a32e2982d","ios":"levelo://app?vid=635050f9-a2c9-4910-8267-ff5a32e2982d"},"vehicle_type_id":"4","last_reported":1740017438,"current_range_meters":14800,"station_id":"ce4bhgh2rcd13ifvqfb0","pricing_plan_id":"cebpf4jnsgd1na2vs0mg"},{"bike_id":"d9102e21-6294-472e-8da2-16dfb746ec2b","system_id":"levelo_inurba_marseille","lat":43.28205,"lon":5.44695,"is_reserved":false,"is_disabled":false,"rental_uris":{"android":"levelo://app?vid=d9102e21-6294-472e-8da2-16dfb746ec2b","ios":"levelo://app?vid=d9102e21-6294-472e-8da2-16dfb746ec2b"},"vehicle_type_id":"4","last_reported":1740017438,"current_range_meters":14800,"station_id":"ce4bhnh2rcd13ifvqgtg","pricing_plan_id":"cebpf4jnsgd1na2vs0mg"},{"bike_id":"8becd64c-893d-4a08-8876-b1598e031c70","system_id":"levelo_inurba_marseille","lat":43.27963,"lon":5.38691,"is_reserved":false,"is_disabled":true,"rental_uris":{"android":"levelo://app?vid=8becd64c-893d-4a08-8876-b1598e031c70","ios":"levelo://app?vid=8becd64c-893d-4a08-8876-b1598e031c70"},"vehicle_type_id":"4","last_reported":1740017438,"current_range_meters":15200,"station_id":"","pricing_plan_id":"cebpf4jnsgd1na2vs0mg"},{"bike_id":"fc18ab60-c9b0-46c3-b6ec-88f5f1d4cc4f","system_id":"levelo_inurba_marseille","lat":43.27173,"lon":5.40993,"is_reserved":false,"is_disabled":false,"rental_uris":{"android":"levelo://app?vid=fc18ab60-c9b0-46c3-b6ec-88f5f1d4cc4f","ios":"levelo://app?vid=fc18ab60-c9b0-46c3-b6ec-88f5f1d4cc4f"},"vehicle_type_id":"4","last_reported":1740017438,"current_range_meters":15200,"station_id":"ce4bhl12rcd13ifvqgf0","pricing_plan_id":"cebpf4jnsgd1na2vs0mg"},{"bike_id":"987de0c2-b9bd-4bef-ba52-5ce350e4cb1b","system_id":"levelo_inurba_marseille","lat":43.27993,"lon":5.4166,"is_reserved":false,"is_disabled":false,"rental_uris":{"android":"levelo://app?vid=987de0c2-b9bd-4bef-ba52-5ce350e4cb1b","ios":"levelo://app?vid=987de0c2-b9bd-4bef-ba52-5ce350e4cb1b"},"vehicle_type_id":"4","last_reported":1740017438,"current_range_meters":15200,"station_id":"ce4bho12rcd13ifvqh1g","pricing_plan_id":"cebpf4jnsgd1na2vs0mg"},{"bike_id":"b992f9c6-8cd4-4847-bf21-0b493529cfb3","system_id":"levelo_inurba_marseille","lat":43.27502,"lon":5.42441,"is_reserved":false,"is_disabled":false,"rental_uris":{"android":"levelo://app?vid=b992f9c6-8cd4-4847-bf21-0b493529cfb3","ios":"levelo://app?vid=b992f9c6-8cd4-4847-bf21-0b493529cfb3"},"vehicle_type_id":"4","last_reported":1740017438,"current_range_meters":16000,"station_id":"ce4bhn92rcd13ifvqgrg","pricing_plan_id":"cebpf4jnsgd1na2vs0mg"},{"bike_id":"d779a4ab-2eb2-411b-85a8-84b90e294887","system_id":"levelo_inurba_marseille","lat":43.29198,"lon":5.39328,"is_reserved":false,"is_disabled":false,"rental_uris":{"android":"levelo://app?vid=d779a4ab-2eb2-411b-85a8-84b90e294887","ios":"levelo://app?vid=d779a4ab-2eb2-411b-85a8-84b90e294887"},"vehicle_type_id":"4","last_reported":1740017438,"current_range_meters":16000,"station_id":"ce4bh192rcd13ifvqdd0","pricing_plan_id":"cebpf4jnsgd1na2vs0mg"},{"bike_id":"02294ecb-63f1-466c-86e6-f94378485dff","system_id":"levelo_inurba_marseille","lat":43.28156,"lon":5.42652,"is_reserved":false,"is_disabled":false,"rental_uris":{"android":"levelo://app?vid=02294ecb-63f1-466c-86e6-f94378485dff","ios":"levelo://app?vid=02294ecb-63f1-466c-86e6-f94378485dff"},"vehicle_type_id":"4","last_reported":1740017438,"current_range_meters":16000,"station_id":"ce4bhnh2rcd13ifvqgug","pricing_plan_id":"cebpf4jnsgd1na2vs0mg"},{"bike_id":"66b5a43e-2798-4c72-8acc-33d23152963b","system_id":"levelo_inurba_marseille","lat":43.27181,"lon":5.40999,"is_reserved":false,"is_disabled":false,"rental_uris":{"android":"levelo://app?vid=66b5a43e-2798-4c72-8acc-33d23152963b","ios":"levelo://app?vid=66b5a43e-2798-4c72-8acc-33d23152963b"},"vehicle_type_id":"4","last_reported":1740017438,"current_range_meters":16000,"station_id":"ce4bhl12rcd13ifvqgf0","pricing_plan_id":"cebpf4jnsgd1na2vs0mg"},{"bike_id":"9bf11bc1-2243-4e9e-9ce0-b38a91e3c6e6","system_id":"levelo_inurba_marseille","lat":43.25583,"lon":5.38245,"is_reserved":false,"is_disabled":false,"rental_uris":{"android":"levelo://app?vid=9bf11bc1-2243-4e9e-9ce0-b38a91e3c6e6","ios":"levelo://app?vid=9bf11bc1-2243-4e9e-9ce0-b38a91e3c6e6"},"vehicle_type_id":"4","last_reported":1740017438,"current_range_meters":16000,"station_id":"ce4bhih2rcd13ifvqfs0","pricing_plan_id":"cebpf4jnsgd1na2vs0mg"},{"bike_id":"15c0537e-a2c6-4ee0-bede-feeab24fea71","system_id":"levelo_inurba_marseille","lat":43.30782,"lon":5.37635,"is_reserved":false,"is_disabled":false,"rental_uris":{"android":"levelo://app?vid=15c0537e-a2c6-4ee0-bede-feeab24fea71","ios":"levelo://app?vid=15c0537e-a2c6-4ee0-bede-feeab24fea71"},"vehicle_type_id":"4","last_reported":1740017438,"current_range_meters":16000,"station_id":"ce4bgv92rcd13ifvqcq0","pricing_plan_id":"cebpf4jnsgd1na2vs0mg"},{"bike_id":"1ea0a8ce-232e-4a91-9b73-91d0e5e7efd3","system_id":"levelo_inurba_marseille","lat":43.25509,"lon":5.37661,"is_reserved":false,"is_disabled":false,"rental_uris":{"android":"levelo://app?vid=1ea0a8ce-232e-4a91-9b73-91d0e5e7efd3","ios":"levelo://app?vid=1ea0a8ce-232e-4a91-9b73-91d0e5e7efd3"},"vehicle_type_id":"4","last_reported":1740017438,"current_range_meters":16000,"station_id":"","pricing_plan_id":"cebpf4jnsgd1na2vs0mg"},{"bike_id":"c753badb-c861-454d-80ee-67cc6c99086f","system_id":"levelo_inurba_marseille","lat":43.28417,"lon":5.37535,"is_reserved":false,"is_disabled":false,"rental_uris":{"android":"levelo://app?vid=c753badb-c861-454d-80ee-67cc6c99086f","ios":"levelo://app?vid=c753badb-c861-454d-80ee-67cc6c99086f"},"vehicle_type_id":"4","last_reported":1740017438,"current_range_meters":16000,"station_id":"ce4bh412rcd13ifvqds0","pricing_plan_id":"cebpf4jnsgd1na2vs0mg"},{"bike_id":"870a5fb1-fa7b-448a-84d8-5e44c70c7def","system_id":"levelo_inurba_marseille","lat":43.29037,"lon":5.35894,"is_reserved":false,"is_disabled":false,"rental_uris":{"android":"levelo://app?vid=870a5fb1-fa7b-448a-84d8-5e44c70c7def","ios":"levelo://app?vid=870a5fb1-fa7b-448a-84d8-5e44c70c7def"},"vehicle_type_id":"4","last_reported":1740017438,"current_range_meters":16000,"station_id":"ce4bha92rcd13ifvqeg0","pricing_plan_id":"cebpf4jnsgd1na2vs0mg"},{"bike_id":"a1a2b460-b478-43af-913b-5e3f11e44138","system_id":"levelo_inurba_marseille","lat":43.27183,"lon":5.38273,"is_reserved":false,"is_disabled":false,"rental_uris":{"android":"levelo://app?vid=a1a2b460-b478-43af-913b-5e3f11e44138","ios":"levelo://app?vid=a1a2b460-b478-43af-913b-5e3f11e44138"},"vehicle_type_id":"4","last_reported":1740017438,"current_range_meters":16000,"station_id":"","pricing_plan_id":"cebpf4jnsgd1na2vs0mg"},{"bike_id":"ecfc5560-250d-4da8-ad2a-55235f90618e","system_id":"levelo_inurba_marseille","lat":43.28726,"lon":5.36079,"is_reserved":false,"is_disabled":false,"rental_uris":{"android":"levelo://app?vid=ecfc5560-250d-4da8-ad2a-55235f90618e","ios":"levelo://app?vid=ecfc5560-250d-4da8-ad2a-55235f90618e"},"vehicle_type_id":"4","last_reported":1740017438,"current_range_meters":16000,"station_id":"cki0cbj6b192h4jlfktg","pricing_plan_id":"cebpf4jnsgd1na2vs0mg"},{"bike_id":"370ba8b3-e74b-4f4c-9513-48a4dd93c48e","system_id":"levelo_inurba_marseille","lat":43.2894,"lon":5.36633,"is_reserved":false,"is_disabled":false,"rental_uris":{"android":"levelo://app?vid=370ba8b3-e74b-4f4c-9513-48a4dd93c48e","ios":"levelo://app?vid=370ba8b3-e74b-4f4c-9513-48a4dd93c48e"},"vehicle_type_id":"4","last_reported":1740017438,"current_range_meters":16000,"station_id":"ce4bhap2rcd13ifvqek0","pricing_plan_id":"cebpf4jnsgd1na2vs0mg"},{"bike_id":"4be223db-6d37-41cb-a4f6-bc1db137e77a","system_id":"levelo_inurba_marseille","lat":43.29407,"lon":5.38632,"is_reserved":false,"is_disabled":true,"rental_uris":{"android":"levelo://app?vid=4be223db-6d37-41cb-a4f6-bc1db137e77a","ios":"levelo://app?vid=4be223db-6d37-41cb-a4f6-bc1db137e77a"},"vehicle_type_id":"4","last_reported":1740017438,"current_range_meters":16000,"station_id":"ce4bh2h2rcd13ifvqdh0","pricing_plan_id":"cebpf4jnsgd1na2vs0mg"},{"bike_id":"3bad0b07-fa7a-4cc7-9650-b1214bfaef19","system_id":"levelo_inurba_marseille","lat":43.28152,"lon":5.4264,"is_reserved":false,"is_disabled":false,"rental_uris":{"android":"levelo://app?vid=3bad0b07-fa7a-4cc7-9650-b1214bfaef19","ios":"levelo://app?vid=3bad0b07-fa7a-4cc7-9650-b1214bfaef19"},"vehicle_type_id":"4","last_reported":1740017438,"current_range_meters":16400,"station_id":"ce4bhnh2rcd13ifvqgug","pricing_plan_id":"cebpf4jnsgd1na2vs0mg"},{"bike_id":"378a21a7-b1ec-4051-850d-b470f3510d96","system_id":"levelo_inurba_marseille","lat":43.26803,"lon":5.40249,"is_reserved":false,"is_disabled":true,"rental_uris":{"android":"levelo://app?vid=378a21a7-b1ec-4051-850d-b470f3510d96","ios":"levelo://app?vid=378a21a7-b1ec-4051-850d-b470f3510d96"},"vehicle_type_id":"4","last_reported":1740017438,"current_range_meters":16400,"station_id":"ce501612rcd8frsf0b60","pricing_plan_id":"cebpf4jnsgd1na2vs0mg"},{"bike_id":"c78ac6f3-5b0a-4e30-aeae-3d56a961b3f3","system_id":"levelo_inurba_marseille","lat":43.23191,"lon":5.39992,"is_reserved":false,"is_disabled":false,"rental_uris":{"android":"levelo://app?vid=c78ac6f3-5b0a-4e30-aeae-3d56a961b3f3","ios":"levelo://app?vid=c78ac6f3-5b0a-4e30-aeae-3d56a961b3f3"},"vehicle_type_id":"4","last_reported":1740017438,"current_range_meters":16400,"station_id":"ce4bhn12rcd13ifvqgqg","pricing_plan_id":"cebpf4jnsgd1na2vs0mg"},{"bike_id":"867e49ca-1fcf-4c4a-b641-c20eee771353","system_id":"levelo_inurba_marseille","lat":43.28151,"lon":5.42668,"is_reserved":false,"is_disabled":false,"rental_uris":{"android":"levelo://app?vid=867e49ca-1fcf-4c4a-b641-c20eee771353","ios":"levelo://app?vid=867e49ca-1fcf-4c4a-b641-c20eee771353"},"vehicle_type_id":"4","last_reported":1740017438,"current_range_meters":16400,"station_id":"","pricing_plan_id":"cebpf4jnsgd1na2vs0mg"},{"bike_id":"d65786a3-a4ae-4301-b660-6989a8905bb8","system_id":"levelo_inurba_marseille","lat":43.24061,"lon":5.37737,"is_reserved":false,"is_disabled":false,"rental_uris":{"android":"levelo://app?vid=d65786a3-a4ae-4301-b660-6989a8905bb8","ios":"levelo://app?vid=d65786a3-a4ae-4301-b660-6989a8905bb8"},"vehicle_type_id":"4","last_reported":1740017438,"current_range_meters":16400,"station_id":"ce4bhnp2rcd13ifvqgvg","pricing_plan_id":"cebpf4jnsgd1na2vs0mg"},{"bike_id":"39443639-4e57-4267-a4d1-5e7cafc20d85","system_id":"levelo_inurba_marseille","lat":43.30317,"lon":5.36894,"is_reserved":false,"is_disabled":false,"rental_uris":{"android":"levelo://app?vid=39443639-4e57-4267-a4d1-5e7cafc20d85","ios":"levelo://app?vid=39443639-4e57-4267-a4d1-5e7cafc20d85"},"vehicle_type_id":"4","last_reported":1740017438,"current_range_meters":16400,"station_id":"ce4bgqh2rcd13ifvqc5g","pricing_plan_id":"cebpf4jnsgd1na2vs0mg"},{"bike_id":"53324156-0b5f-4ee4-beb8-65d71f0308f4","system_id":"levelo_inurba_marseille","lat":43.26548,"lon":5.39073,"is_reserved":false,"is_disabled":true,"rental_uris":{"android":"levelo://app?vid=53324156-0b5f-4ee4-beb8-65d71f0308f4","ios":"levelo://app?vid=53324156-0b5f-4ee4-beb8-65d71f0308f4"},"vehicle_type_id":"4","last_reported":1740017438,"current_range_meters":16400,"station_id":"","pricing_plan_id":"cebpf4jnsgd1na2vs0mg"},{"bike_id":"367487e7-2b4b-4651-a00c-56774d09d459","system_id":"levelo_inurba_marseille","lat":43.25004,"lon":5.38932,"is_reserved":false,"is_disabled":false,"rental_uris":{"android":"levelo://app?vid=367487e7-2b4b-4651-a00c-56774d09d459","ios":"levelo://app?vid=367487e7-2b4b-4651-a00c-56774d09d459"},"vehicle_type_id":"4","last_reported":1740017438,"current_range_meters":16400,"station_id":"ce4bhgp2rcd13ifvqfd0","pricing_plan_id":"cebpf4jnsgd1na2vs0mg"},{"bike_id":"3addd8d2-327f-4e60-8639-267e28d7c956","system_id":"levelo_inurba_marseille","lat":43.28682,"lon":5.38661,"is_reserved":false,"is_disabled":true,"rental_uris":{"android":"levelo://app?vid=3addd8d2-327f-4e60-8639-267e28d7c956","ios":"levelo://app?vid=3addd8d2-327f-4e60-8639-267e28d7c956"},"vehicle_type_id":"4","last_reported":1740017438,"current_range_meters":16400,"station_id":"","pricing_plan_id":"cebpf4jnsgd1na2vs0mg"},{"bike_id":"0f119bb9-42f5-484d-a273-90a601312646","system_id":"levelo_inurba_marseille","lat":43.27072,"lon":5.42302,"is_reserved":false,"is_disabled":false,"rental_uris":{"android":"levelo://app?vid=0f119bb9-42f5-484d-a273-90a601312646","ios":"levelo://app?vid=0f119bb9-42f5-484d-a273-90a601312646"},"vehicle_type_id":"4","last_reported":1740017438,"current_range_meters":16400,"station_id":"ce4bhk92rcd13ifvqgb0","pricing_plan_id":"cebpf4jnsgd1na2vs0mg"},{"bike_id":"35cdc792-a7d5-4315-be5b-8aec986c50f8","system_id":"levelo_inurba_marseille","lat":43.29572,"lon":5.3998,"is_reserved":false,"is_disabled":true,"rental_uris":{"android":"levelo://app?vid=35cdc792-a7d5-4315-be5b-8aec986c50f8","ios":"levelo://app?vid=35cdc792-a7d5-4315-be5b-8aec986c50f8"},"vehicle_type_id":"4","last_reported":1740017438,"current_range_meters":16800,"station_id":"ce4bh312rcd13ifvqdj0","pricing_plan_id":"cebpf4jnsgd1na2vs0mg"},{"bike_id":"9baceca5-80a8-4220-93d7-7a524912e6fd","system_id":"levelo_inurba_marseille","lat":43.30595,"lon":5.37192,"is_reserved":false,"is_disabled":false,"rental_uris":{"android":"levelo://app?vid=9baceca5-80a8-4220-93d7-7a524912e6fd","ios":"levelo://app?vid=9baceca5-80a8-4220-93d7-7a524912e6fd"},"vehicle_type_id":"4","last_reported":1740017438,"current_range_meters":16800,"station_id":"ce4bgqh2rcd13ifvqc4g","pricing_plan_id":"cebpf4jnsgd1na2vs0mg"},{"bike_id":"3cbc0114-9f1d-4b05-9831-56adc347b198","system_id":"levelo_inurba_marseille","lat":43.29269,"lon":5.37609,"is_reserved":false,"is_disabled":false,"rental_uris":{"android":"levelo://app?vid=3cbc0114-9f1d-4b05-9831-56adc347b198","ios":"levelo://app?vid=3cbc0114-9f1d-4b05-9831-56adc347b198"},"vehicle_type_id":"4","last_reported":1740017438,"current_range_meters":16800,"station_id":"ce4bgi12rcd13ifvqb80","pricing_plan_id":"cebpf4jnsgd1na2vs0mg"},{"bike_id":"5a733203-2c6c-48e7-990e-5ead30555fdd","system_id":"levelo_inurba_marseille","lat":43.3093,"lon":5.40133,"is_reserved":false,"is_disabled":false,"rental_uris":{"android":"levelo://app?vid=5a733203-2c6c-48e7-990e-5ead30555fdd","ios":"levelo://app?vid=5a733203-2c6c-48e7-990e-5ead30555fdd"},"vehicle_type_id":"4","last_reported":1740017438,"current_range_meters":16800,"station_id":"ce4bgvp2rcd13ifvqct0","pricing_plan_id":"cebpf4jnsgd1na2vs0mg"},{"bike_id":"91b65d6c-4a0d-4f72-adf3-7b0efceda63d","system_id":"levelo_inurba_marseille","lat":43.28154,"lon":5.42644,"is_reserved":false,"is_disabled":false,"rental_uris":{"android":"levelo://app?vid=91b65d6c-4a0d-4f72-adf3-7b0efceda63d","ios":"levelo://app?vid=91b65d6c-4a0d-4f72-adf3-7b0efceda63d"},"vehicle_type_id":"4","last_reported":1740017438,"current_range_meters":16800,"station_id":"ce4bhnh2rcd13ifvqgug","pricing_plan_id":"cebpf4jnsgd1na2vs0mg"},{"bike_id":"8be1c008-112f-4957-9458-91ebf4839778","system_id":"levelo_inurba_marseille","lat":43.28437,"lon":5.39179,"is_reserved":false,"is_disabled":false,"rental_uris":{"android":"levelo://app?vid=8be1c008-112f-4957-9458-91ebf4839778","ios":"levelo://app?vid=8be1c008-112f-4957-9458-91ebf4839778"},"vehicle_type_id":"4","last_reported":1740017438,"current_range_meters":16800,"station_id":"ce4bhoh2rcd13ifvqh5g","pricing_plan_id":"cebpf4jnsgd1na2vs0mg"},{"bike_id":"d67d55c4-38d1-4058-9843-19640cc25359","system_id":"levelo_inurba_marseille","lat":43.32391,"lon":5.36994,"is_reserved":false,"is_disabled":false,"rental_uris":{"android":"levelo://app?vid=d67d55c4-38d1-4058-9843-19640cc25359","ios":"levelo://app?vid=d67d55c4-38d1-4058-9843-19640cc25359"},"vehicle_type_id":"4","last_reported":1740017438,"current_range_meters":16800,"station_id":"","pricing_plan_id":"cebpf4jnsgd1na2vs0mg"},{"bike_id":"03bb80d2-2d58-477e-8d77-d8a9b94a8f21","system_id":"levelo_inurba_marseille","lat":43.23759,"lon":5.40332,"is_reserved":false,"is_disabled":false,"rental_uris":{"android":"levelo://app?vid=03bb80d2-2d58-477e-8d77-d8a9b94a8f21","ios":"levelo://app?vid=03bb80d2-2d58-477e-8d77-d8a9b94a8f21"},"vehicle_type_id":"4","last_reported":1740017438,"current_range_meters":16800,"station_id":"","pricing_plan_id":"cebpf4jnsgd1na2vs0mg"},{"bike_id":"8a17b797-6718-4976-92ef-a1a4b202a435","system_id":"levelo_inurba_marseille","lat":43.287073,"lon":5.399867,"is_reserved":false,"is_disabled":false,"rental_uris":{"android":"levelo://app?vid=8a17b797-6718-4976-92ef-a1a4b202a435","ios":"levelo://app?vid=8a17b797-6718-4976-92ef-a1a4b202a435"},"vehicle_type_id":"4","last_reported":1740017438,"current_range_meters":16800,"station_id":"ce4bho92rcd13ifvqh3g","pricing_plan_id":"cebpf4jnsgd1na2vs0mg"},{"bike_id":"c798b1f1-24c7-4922-ba1f-d0543ec78d87","system_id":"levelo_inurba_marseille","lat":43.28297,"lon":5.43227,"is_reserved":false,"is_disabled":false,"rental_uris":{"android":"levelo://app?vid=c798b1f1-24c7-4922-ba1f-d0543ec78d87","ios":"levelo://app?vid=c798b1f1-24c7-4922-ba1f-d0543ec78d87"},"vehicle_type_id":"4","last_reported":1740017438,"current_range_meters":16800,"station_id":"ce4bhnp2rcd13ifvqh0g","pricing_plan_id":"cebpf4jnsgd1na2vs0mg"},{"bike_id":"81192873-4d38-4061-82a0-70521ec3ade0","system_id":"levelo_inurba_marseille","lat":43.29416,"lon":5.38615,"is_reserved":false,"is_disabled":true,"rental_uris":{"android":"levelo://app?vid=81192873-4d38-4061-82a0-70521ec3ade0","ios":"levelo://app?vid=81192873-4d38-4061-82a0-70521ec3ade0"},"vehicle_type_id":"4","last_reported":1740017438,"current_range_meters":16800,"station_id":"","pricing_plan_id":"cebpf4jnsgd1na2vs0mg"},{"bike_id":"24b034ae-81d8-4b0e-9d7b-9309f18a47ae","system_id":"levelo_inurba_marseille","lat":43.29133,"lon":5.37209,"is_reserved":false,"is_disabled":false,"rental_uris":{"android":"levelo://app?vid=24b034ae-81d8-4b0e-9d7b-9309f18a47ae","ios":"levelo://app?vid=24b034ae-81d8-4b0e-9d7b-9309f18a47ae"},"vehicle_type_id":"4","last_reported":1740017438,"current_range_meters":17200,"station_id":"","pricing_plan_id":"cebpf4jnsgd1na2vs0mg"},{"bike_id":"834704e8-34ed-4ba2-a886-e9cfe5836af3","system_id":"levelo_inurba_marseille","lat":43.28429,"lon":5.34983,"is_reserved":false,"is_disabled":false,"rental_uris":{"android":"levelo://app?vid=834704e8-34ed-4ba2-a886-e9cfe5836af3","ios":"levelo://app?vid=834704e8-34ed-4ba2-a886-e9cfe5836af3"},"vehicle_type_id":"4","last_reported":1740017438,"current_range_meters":17200,"station_id":"ce4bhbh2rcd13ifvqepg","pricing_plan_id":"cebpf4jnsgd1na2vs0mg"},{"bike_id":"7d538134-1a3e-4c6e-ab5b-4d985c54776c","system_id":"levelo_inurba_marseille","lat":43.26074,"lon":5.3936,"is_reserved":false,"is_disabled":false,"rental_uris":{"android":"levelo://app?vid=7d538134-1a3e-4c6e-ab5b-4d985c54776c","ios":"levelo://app?vid=7d538134-1a3e-4c6e-ab5b-4d985c54776c"},"vehicle_type_id":"4","last_reported":1740017438,"current_range_meters":17200,"station_id":"ce4bhh92rcd13ifvqfj0","pricing_plan_id":"cebpf4jnsgd1na2vs0mg"},{"bike_id":"fe85977b-a22e-4193-a152-c3144029e068","system_id":"levelo_inurba_marseille","lat":43.23976,"lon":5.36625,"is_reserved":false,"is_disabled":false,"rental_uris":{"android":"levelo://app?vid=fe85977b-a22e-4193-a152-c3144029e068","ios":"levelo://app?vid=fe85977b-a22e-4193-a152-c3144029e068"},"vehicle_type_id":"4","last_reported":1740017438,"current_range_meters":17200,"station_id":"ce4bhi12rcd13ifvqfp0","pricing_plan_id":"cebpf4jnsgd1na2vs0mg"},{"bike_id":"2248a686-da6b-4ef8-880e-8db6a1c23aab","system_id":"levelo_inurba_marseille","lat":43.27375,"lon":5.36259,"is_reserved":false,"is_disabled":false,"rental_uris":{"android":"levelo://app?vid=2248a686-da6b-4ef8-880e-8db6a1c23aab","ios":"levelo://app?vid=2248a686-da6b-4ef8-880e-8db6a1c23aab"},"vehicle_type_id":"4","last_reported":1740017438,"current_range_meters":17200,"station_id":"","pricing_plan_id":"cebpf4jnsgd1na2vs0mg"},{"bike_id":"715be46d-367b-4ff5-ba86-55b6f642df98","system_id":"levelo_inurba_marseille","lat":43.33611,"lon":5.41037,"is_reserved":false,"is_disabled":false,"rental_uris":{"android":"levelo://app?vid=715be46d-367b-4ff5-ba86-55b6f642df98","ios":"levelo://app?vid=715be46d-367b-4ff5-ba86-55b6f642df98"},"vehicle_type_id":"4","last_reported":1740017438,"current_range_meters":17200,"station_id":"ce4bhqh2rcd13ifvqhmg","pricing_plan_id":"cebpf4jnsgd1na2vs0mg"},{"bike_id":"351aecb8-5fcc-40b8-b3ed-8952699480fc","system_id":"levelo_inurba_marseille","lat":43.281,"lon":5.37841,"is_reserved":false,"is_disabled":false,"rental_uris":{"android":"levelo://app?vid=351aecb8-5fcc-40b8-b3ed-8952699480fc","ios":"levelo://app?vid=351aecb8-5fcc-40b8-b3ed-8952699480fc"},"vehicle_type_id":"4","last_reported":1740017438,"current_range_meters":17200,"station_id":"ce4bha12rcd13ifvqee0","pricing_plan_id":"cebpf4jnsgd1na2vs0mg"},{"bike_id":"3cc2abf7-bf05-49c1-801e-352d0d8d78e1","system_id":"levelo_inurba_marseille","lat":43.30804,"lon":5.3817,"is_reserved":false,"is_disabled":false,"rental_uris":{"android":"levelo://app?vid=3cc2abf7-bf05-49c1-801e-352d0d8d78e1","ios":"levelo://app?vid=3cc2abf7-bf05-49c1-801e-352d0d8d78e1"},"vehicle_type_id":"4","last_reported":1740017438,"current_range_meters":17200,"station_id":"ce4bgt12rcd13ifvqce0","pricing_plan_id":"cebpf4jnsgd1na2vs0mg"},{"bike_id":"30c39dd0-d3e9-40d2-9655-1e9528432739","system_id":"levelo_inurba_marseille","lat":43.2794,"lon":5.41049,"is_reserved":false,"is_disabled":false,"rental_uris":{"android":"levelo://app?vid=30c39dd0-d3e9-40d2-9655-1e9528432739","ios":"levelo://app?vid=30c39dd0-d3e9-40d2-9655-1e9528432739"},"vehicle_type_id":"4","last_reported":1740017438,"current_range_meters":17200,"station_id":"","pricing_plan_id":"cebpf4jnsgd1na2vs0mg"},{"bike_id":"ec9b79b6-b712-4a75-b45c-0b550587adf7","system_id":"levelo_inurba_marseille","lat":43.24662,"lon":5.38163,"is_reserved":false,"is_disabled":false,"rental_uris":{"android":"levelo://app?vid=ec9b79b6-b712-4a75-b45c-0b550587adf7","ios":"levelo://app?vid=ec9b79b6-b712-4a75-b45c-0b550587adf7"},"vehicle_type_id":"4","last_reported":1740017438,"current_range_meters":17200,"station_id":"","pricing_plan_id":"cebpf4jnsgd1na2vs0mg"},{"bike_id":"61a1a093-4006-4a7f-b81b-06786d83c3c8","system_id":"levelo_inurba_marseille","lat":43.28728,"lon":5.37935,"is_reserved":false,"is_disabled":false,"rental_uris":{"android":"levelo://app?vid=61a1a093-4006-4a7f-b81b-06786d83c3c8","ios":"levelo://app?vid=61a1a093-4006-4a7f-b81b-06786d83c3c8"},"vehicle_type_id":"4","last_reported":1740017438,"current_range_meters":17200,"station_id":"ce4bh9p2rcd13ifvqec0","pricing_plan_id":"cebpf4jnsgd1na2vs0mg"},{"bike_id":"6b1f70f9-add8-4a50-9959-0d4b6395d098","system_id":"levelo_inurba_marseille","lat":43.28724,"lon":5.37937,"is_reserved":false,"is_disabled":false,"rental_uris":{"android":"levelo://app?vid=6b1f70f9-add8-4a50-9959-0d4b6395d098","ios":"levelo://app?vid=6b1f70f9-add8-4a50-9959-0d4b6395d098"},"vehicle_type_id":"4","last_reported":1740017438,"current_range_meters":17600,"station_id":"ce4bh9p2rcd13ifvqec0","pricing_plan_id":"cebpf4jnsgd1na2vs0mg"},{"bike_id":"264f76d8-5221-4f90-8fd0-e3b407a67a5b","system_id":"levelo_inurba_marseille","lat":43.28267,"lon":5.35043,"is_reserved":false,"is_disabled":false,"rental_uris":{"android":"levelo://app?vid=264f76d8-5221-4f90-8fd0-e3b407a67a5b","ios":"levelo://app?vid=264f76d8-5221-4f90-8fd0-e3b407a67a5b"},"vehicle_type_id":"4","last_reported":1740017438,"current_range_meters":17600,"station_id":"ce4bhbp2rcd13ifvqerg","pricing_plan_id":"cebpf4jnsgd1na2vs0mg"},{"bike_id":"7fc111de-39e1-4671-a4d6-23dd0620cebf","system_id":"levelo_inurba_marseille","lat":43.30647,"lon":5.40081,"is_reserved":false,"is_disabled":false,"rental_uris":{"android":"levelo://app?vid=7fc111de-39e1-4671-a4d6-23dd0620cebf","ios":"levelo://app?vid=7fc111de-39e1-4671-a4d6-23dd0620cebf"},"vehicle_type_id":"4","last_reported":1740017438,"current_range_meters":17600,"station_id":"ce4bh112rcd13ifvqda0","pricing_plan_id":"cebpf4jnsgd1na2vs0mg"},{"bike_id":"1f0cc0dc-8ded-4598-962e-b44230e315d6","system_id":"levelo_inurba_marseille","lat":43.25561,"lon":5.38235,"is_reserved":false,"is_disabled":false,"rental_uris":{"android":"levelo://app?vid=1f0cc0dc-8ded-4598-962e-b44230e315d6","ios":"levelo://app?vid=1f0cc0dc-8ded-4598-962e-b44230e315d6"},"vehicle_type_id":"4","last_reported":1740017438,"current_range_meters":17600,"station_id":"ce4bhih2rcd13ifvqfs0","pricing_plan_id":"cebpf4jnsgd1na2vs0mg"},{"bike_id":"ce0caea6-6d1c-48ef-b0eb-fae6199eb4e1","system_id":"levelo_inurba_marseille","lat":43.23066,"lon":5.35508,"is_reserved":false,"is_disabled":false,"rental_uris":{"android":"levelo://app?vid=ce0caea6-6d1c-48ef-b0eb-fae6199eb4e1","ios":"levelo://app?vid=ce0caea6-6d1c-48ef-b0eb-fae6199eb4e1"},"vehicle_type_id":"4","last_reported":1740017438,"current_range_meters":17600,"station_id":"cpo3342slgdg3j2ifvpg","pricing_plan_id":"cebpf4jnsgd1na2vs0mg"},{"bike_id":"751d2cf4-fa99-4a3f-9556-3ff54793f80a","system_id":"levelo_inurba_marseille","lat":43.25827,"lon":5.39431,"is_reserved":false,"is_disabled":false,"rental_uris":{"android":"levelo://app?vid=751d2cf4-fa99-4a3f-9556-3ff54793f80a","ios":"levelo://app?vid=751d2cf4-fa99-4a3f-9556-3ff54793f80a"},"vehicle_type_id":"4","last_reported":1740017438,"current_range_meters":17600,"station_id":"ce4bhip2rcd13ifvqft0","pricing_plan_id":"cebpf4jnsgd1na2vs0mg"},{"bike_id":"8f4323a1-8437-4166-91ba-307e41781b12","system_id":"levelo_inurba_marseille","lat":43.28421,"lon":5.37517,"is_reserved":false,"is_disabled":false,"rental_uris":{"android":"levelo://app?vid=8f4323a1-8437-4166-91ba-307e41781b12","ios":"levelo://app?vid=8f4323a1-8437-4166-91ba-307e41781b12"},"vehicle_type_id":"4","last_reported":1740017438,"current_range_meters":17600,"station_id":"ce4bh412rcd13ifvqds0","pricing_plan_id":"cebpf4jnsgd1na2vs0mg"},{"bike_id":"6a55c6ee-78d8-4afe-ba54-055b848809fc","system_id":"levelo_inurba_marseille","lat":43.30599,"lon":5.37225,"is_reserved":false,"is_disabled":false,"rental_uris":{"android":"levelo://app?vid=6a55c6ee-78d8-4afe-ba54-055b848809fc","ios":"levelo://app?vid=6a55c6ee-78d8-4afe-ba54-055b848809fc"},"vehicle_type_id":"4","last_reported":1740017438,"current_range_meters":17600,"station_id":"ce4bgqh2rcd13ifvqc4g","pricing_plan_id":"cebpf4jnsgd1na2vs0mg"},{"bike_id":"916e517f-2545-4ae6-a491-1cbc1f359d35","system_id":"levelo_inurba_marseille","lat":43.2794,"lon":5.41038,"is_reserved":false,"is_disabled":false,"rental_uris":{"android":"levelo://app?vid=916e517f-2545-4ae6-a491-1cbc1f359d35","ios":"levelo://app?vid=916e517f-2545-4ae6-a491-1cbc1f359d35"},"vehicle_type_id":"4","last_reported":1740017438,"current_range_meters":17600,"station_id":"ce4bhnp2rcd13ifvqh0g","pricing_plan_id":"cebpf4jnsgd1na2vs0mg"},{"bike_id":"b5bfed89-5cd9-4bb2-bf58-7f2c35c5ab83","system_id":"levelo_inurba_marseille","lat":43.29261,"lon":5.40921,"is_reserved":false,"is_disabled":false,"rental_uris":{"android":"levelo://app?vid=b5bfed89-5cd9-4bb2-bf58-7f2c35c5ab83","ios":"levelo://app?vid=b5bfed89-5cd9-4bb2-bf58-7f2c35c5ab83"},"vehicle_type_id":"4","last_reported":1740017438,"current_range_meters":18000,"station_id":"ce4bh192rcd13ifvqdc0","pricing_plan_id":"cebpf4jnsgd1na2vs0mg"},{"bike_id":"94890505-428b-40ab-8c9c-833c55b471f5","system_id":"levelo_inurba_marseille","lat":43.30802,"lon":5.38171,"is_reserved":false,"is_disabled":false,"rental_uris":{"android":"levelo://app?vid=94890505-428b-40ab-8c9c-833c55b471f5","ios":"levelo://app?vid=94890505-428b-40ab-8c9c-833c55b471f5"},"vehicle_type_id":"4","last_reported":1740017438,"current_range_meters":18000,"station_id":"","pricing_plan_id":"cebpf4jnsgd1na2vs0mg"},{"bike_id":"def62d11-1330-40c7-b340-80a48c859a30","system_id":"levelo_inurba_marseille","lat":43.27195,"lon":5.41002,"is_reserved":false,"is_disabled":false,"rental_uris":{"android":"levelo://app?vid=def62d11-1330-40c7-b340-80a48c859a30","ios":"levelo://app?vid=def62d11-1330-40c7-b340-80a48c859a30"},"vehicle_type_id":"4","last_reported":1740017438,"current_range_meters":18000,"station_id":"ce4bhl12rcd13ifvqgf0","pricing_plan_id":"cebpf4jnsgd1na2vs0mg"},{"bike_id":"50287f9f-4e32-48e1-8cf8-5ca0aa18af6e","system_id":"levelo_inurba_marseille","lat":43.28355,"lon":5.3811,"is_reserved":false,"is_disabled":false,"rental_uris":{"android":"levelo://app?vid=50287f9f-4e32-48e1-8cf8-5ca0aa18af6e","ios":"levelo://app?vid=50287f9f-4e32-48e1-8cf8-5ca0aa18af6e"},"vehicle_type_id":"4","last_reported":1740017438,"current_range_meters":18000,"station_id":"ce4bh412rcd13ifvqdr0","pricing_plan_id":"cebpf4jnsgd1na2vs0mg"},{"bike_id":"69d83863-ba3f-44d3-b444-b2034cf1c759","system_id":"levelo_inurba_marseille","lat":43.2873,"lon":5.37951,"is_reserved":false,"is_disabled":false,"rental_uris":{"android":"levelo://app?vid=69d83863-ba3f-44d3-b444-b2034cf1c759","ios":"levelo://app?vid=69d83863-ba3f-44d3-b444-b2034cf1c759"},"vehicle_type_id":"4","last_reported":1740017438,"current_range_meters":18000,"station_id":"ce4bh9p2rcd13ifvqec0","pricing_plan_id":"cebpf4jnsgd1na2vs0mg"},{"bike_id":"16761823-de9b-442b-b379-37e36900779e","system_id":"levelo_inurba_marseille","lat":43.23195,"lon":5.39984,"is_reserved":false,"is_disabled":false,"rental_uris":{"android":"levelo://app?vid=16761823-de9b-442b-b379-37e36900779e","ios":"levelo://app?vid=16761823-de9b-442b-b379-37e36900779e"},"vehicle_type_id":"4","last_reported":1740017438,"current_range_meters":18000,"station_id":"","pricing_plan_id":"cebpf4jnsgd1na2vs0mg"},{"bike_id":"98d2871f-b9f3-4d90-8727-7d9ed16a978a","system_id":"levelo_inurba_marseille","lat":43.30021,"lon":5.38263,"is_reserved":false,"is_disabled":true,"rental_uris":{"android":"levelo://app?vid=98d2871f-b9f3-4d90-8727-7d9ed16a978a","ios":"levelo://app?vid=98d2871f-b9f3-4d90-8727-7d9ed16a978a"},"vehicle_type_id":"4","last_reported":1740017438,"current_range_meters":18000,"station_id":"","pricing_plan_id":"cebpf4jnsgd1na2vs0mg"},{"bike_id":"d9561bc1-d262-4a87-8bf6-2ec326e81586","system_id":"levelo_inurba_marseille","lat":43.29185,"lon":5.39324,"is_reserved":false,"is_disabled":false,"rental_uris":{"android":"levelo://app?vid=d9561bc1-d262-4a87-8bf6-2ec326e81586","ios":"levelo://app?vid=d9561bc1-d262-4a87-8bf6-2ec326e81586"},"vehicle_type_id":"4","last_reported":1740017438,"current_range_meters":18800,"station_id":"ce4bh192rcd13ifvqdd0","pricing_plan_id":"cebpf4jnsgd1na2vs0mg"},{"bike_id":"3ce48c00-6fb4-447c-96c7-b85feefeb26c","system_id":"levelo_inurba_marseille","lat":43.25583,"lon":5.38243,"is_reserved":false,"is_disabled":false,"rental_uris":{"android":"levelo://app?vid=3ce48c00-6fb4-447c-96c7-b85feefeb26c","ios":"levelo://app?vid=3ce48c00-6fb4-447c-96c7-b85feefeb26c"},"vehicle_type_id":"4","last_reported":1740017438,"current_range_meters":18800,"station_id":"ce4bhih2rcd13ifvqfs0","pricing_plan_id":"cebpf4jnsgd1na2vs0mg"},{"bike_id":"8964b4b3-3110-4eb5-9d4f-736aeb55a9e7","system_id":"levelo_inurba_marseille","lat":43.28829,"lon":5.35878,"is_reserved":false,"is_disabled":false,"rental_uris":{"android":"levelo://app?vid=8964b4b3-3110-4eb5-9d4f-736aeb55a9e7","ios":"levelo://app?vid=8964b4b3-3110-4eb5-9d4f-736aeb55a9e7"},"vehicle_type_id":"4","last_reported":1740017438,"current_range_meters":18800,"station_id":"ce4bhb12rcd13ifvqem0","pricing_plan_id":"cebpf4jnsgd1na2vs0mg"},{"bike_id":"b02d7f8e-9bf2-4203-bdc8-c6ce1c1079e7","system_id":"levelo_inurba_marseille","lat":43.23195,"lon":5.39969,"is_reserved":false,"is_disabled":false,"rental_uris":{"android":"levelo://app?vid=b02d7f8e-9bf2-4203-bdc8-c6ce1c1079e7","ios":"levelo://app?vid=b02d7f8e-9bf2-4203-bdc8-c6ce1c1079e7"},"vehicle_type_id":"4","last_reported":1740017438,"current_range_meters":18800,"station_id":"","pricing_plan_id":"cebpf4jnsgd1na2vs0mg"},{"bike_id":"6106393f-3645-48aa-b132-3d2def6b4674","system_id":"levelo_inurba_marseille","lat":43.304566,"lon":5.380988,"is_reserved":false,"is_disabled":false,"rental_uris":{"android":"levelo://app?vid=6106393f-3645-48aa-b132-3d2def6b4674","ios":"levelo://app?vid=6106393f-3645-48aa-b132-3d2def6b4674"},"vehicle_type_id":"4","last_reported":1740017438,"current_range_meters":18800,"station_id":"ce4bgv92rcd13ifvqcq0","pricing_plan_id":"cebpf4jnsgd1na2vs0mg"},{"bike_id":"0e2d629a-7fe3-4890-8c06-91bbdbd5fabc","system_id":"levelo_inurba_marseille","lat":43.29518,"lon":5.39029,"is_reserved":false,"is_disabled":false,"rental_uris":{"android":"levelo://app?vid=0e2d629a-7fe3-4890-8c06-91bbdbd5fabc","ios":"levelo://app?vid=0e2d629a-7fe3-4890-8c06-91bbdbd5fabc"},"vehicle_type_id":"4","last_reported":1740017438,"current_range_meters":18800,"station_id":"ce4bh3p2rcd13ifvqdp0","pricing_plan_id":"cebpf4jnsgd1na2vs0mg"},{"bike_id":"b253065d-1074-4a51-bc2b-4e15dba86004","system_id":"levelo_inurba_marseille","lat":43.23086,"lon":5.35502,"is_reserved":false,"is_disabled":false,"rental_uris":{"android":"levelo://app?vid=b253065d-1074-4a51-bc2b-4e15dba86004","ios":"levelo://app?vid=b253065d-1074-4a51-bc2b-4e15dba86004"},"vehicle_type_id":"4","last_reported":1740017438,"current_range_meters":18800,"station_id":"cpo3342slgdg3j2ifvpg","pricing_plan_id":"cebpf4jnsgd1na2vs0mg"},{"bike_id":"5a001ab7-5813-41f4-b1cb-bc211d4e2327","system_id":"levelo_inurba_marseille","lat":43.27999,"lon":5.39998,"is_reserved":false,"is_disabled":false,"rental_uris":{"android":"levelo://app?vid=5a001ab7-5813-41f4-b1cb-bc211d4e2327","ios":"levelo://app?vid=5a001ab7-5813-41f4-b1cb-bc211d4e2327"},"vehicle_type_id":"4","last_reported":1740017438,"current_range_meters":18800,"station_id":"ce4bho92rcd13ifvqh4g","pricing_plan_id":"cebpf4jnsgd1na2vs0mg"},{"bike_id":"196e18f4-035f-4301-ae96-ed281bb20acf","system_id":"levelo_inurba_marseille","lat":43.28335,"lon":5.38122,"is_reserved":false,"is_disabled":false,"rental_uris":{"android":"levelo://app?vid=196e18f4-035f-4301-ae96-ed281bb20acf","ios":"levelo://app?vid=196e18f4-035f-4301-ae96-ed281bb20acf"},"vehicle_type_id":"4","last_reported":1740017438,"current_range_meters":19200,"station_id":"ce4bh412rcd13ifvqdr0","pricing_plan_id":"cebpf4jnsgd1na2vs0mg"},{"bike_id":"c553d44f-d793-4d64-a657-5a6642225c5e","system_id":"levelo_inurba_marseille","lat":43.30916,"lon":5.40142,"is_reserved":false,"is_disabled":true,"rental_uris":{"android":"levelo://app?vid=c553d44f-d793-4d64-a657-5a6642225c5e","ios":"levelo://app?vid=c553d44f-d793-4d64-a657-5a6642225c5e"},"vehicle_type_id":"4","last_reported":1740017438,"current_range_meters":19200,"station_id":"ce4bgvp2rcd13ifvqct0","pricing_plan_id":"cebpf4jnsgd1na2vs0mg"},{"bike_id":"56834599-2949-4368-8c7c-ea0cffd718b2","system_id":"levelo_inurba_marseille","lat":43.270679,"lon":5.422784,"is_reserved":false,"is_disabled":false,"rental_uris":{"android":"levelo://app?vid=56834599-2949-4368-8c7c-ea0cffd718b2","ios":"levelo://app?vid=56834599-2949-4368-8c7c-ea0cffd718b2"},"vehicle_type_id":"4","last_reported":1740017438,"current_range_meters":19200,"station_id":"ce4bhk92rcd13ifvqgb0","pricing_plan_id":"cebpf4jnsgd1na2vs0mg"},{"bike_id":"4de2b4e0-3d0f-4730-bcd9-ebcbfbe722ce","system_id":"levelo_inurba_marseille","lat":43.28629,"lon":5.35112,"is_reserved":false,"is_disabled":false,"rental_uris":{"android":"levelo://app?vid=4de2b4e0-3d0f-4730-bcd9-ebcbfbe722ce","ios":"levelo://app?vid=4de2b4e0-3d0f-4730-bcd9-ebcbfbe722ce"},"vehicle_type_id":"4","last_reported":1740017438,"current_range_meters":19200,"station_id":"","pricing_plan_id":"cebpf4jnsgd1na2vs0mg"},{"bike_id":"1736bdf7-065e-458a-8be8-137efe82e48a","system_id":"levelo_inurba_marseille","lat":43.33097,"lon":5.39055,"is_reserved":false,"is_disabled":false,"rental_uris":{"android":"levelo://app?vid=1736bdf7-065e-458a-8be8-137efe82e48a","ios":"levelo://app?vid=1736bdf7-065e-458a-8be8-137efe82e48a"},"vehicle_type_id":"4","last_reported":1740017438,"current_range_meters":19200,"station_id":"ce4bhqp2rcd13ifvqhog","pricing_plan_id":"cebpf4jnsgd1na2vs0mg"},{"bike_id":"b5599697-e1bb-4dc1-8d29-75db65d5ac6b","system_id":"levelo_inurba_marseille","lat":43.27623,"lon":5.36109,"is_reserved":false,"is_disabled":false,"rental_uris":{"android":"levelo://app?vid=b5599697-e1bb-4dc1-8d29-75db65d5ac6b","ios":"levelo://app?vid=b5599697-e1bb-4dc1-8d29-75db65d5ac6b"},"vehicle_type_id":"4","last_reported":1740017438,"current_range_meters":19200,"station_id":"ce4bgj92rcd13ifvqbe0","pricing_plan_id":"cebpf4jnsgd1na2vs0mg"},{"bike_id":"790b0ff7-55c5-4c35-9f2a-78c4076d7d17","system_id":"levelo_inurba_marseille","lat":43.27968,"lon":5.38507,"is_reserved":false,"is_disabled":false,"rental_uris":{"android":"levelo://app?vid=790b0ff7-55c5-4c35-9f2a-78c4076d7d17","ios":"levelo://app?vid=790b0ff7-55c5-4c35-9f2a-78c4076d7d17"},"vehicle_type_id":"4","last_reported":1740017438,"current_range_meters":19200,"station_id":"","pricing_plan_id":"cebpf4jnsgd1na2vs0mg"},{"bike_id":"8565daea-baa6-4321-894c-509f6e4e988a","system_id":"levelo_inurba_marseille","lat":43.289448,"lon":5.366274,"is_reserved":false,"is_disabled":true,"rental_uris":{"android":"levelo://app?vid=8565daea-baa6-4321-894c-509f6e4e988a","ios":"levelo://app?vid=8565daea-baa6-4321-894c-509f6e4e988a"},"vehicle_type_id":"4","last_reported":1740017438,"current_range_meters":19200,"station_id":"ce4bhap2rcd13ifvqek0","pricing_plan_id":"cebpf4jnsgd1na2vs0mg"},{"bike_id":"e535759a-b908-46f6-a050-9bf8b29360a7","system_id":"levelo_inurba_marseille","lat":43.27632,"lon":5.42629,"is_reserved":false,"is_disabled":false,"rental_uris":{"android":"levelo://app?vid=e535759a-b908-46f6-a050-9bf8b29360a7","ios":"levelo://app?vid=e535759a-b908-46f6-a050-9bf8b29360a7"},"vehicle_type_id":"4","last_reported":1740017438,"current_range_meters":19200,"station_id":"","pricing_plan_id":"cebpf4jnsgd1na2vs0mg"},{"bike_id":"a7fc0748-d07b-4fc0-8116-9a24274e544d","system_id":"levelo_inurba_marseille","lat":43.31175,"lon":5.38717,"is_reserved":false,"is_disabled":false,"rental_uris":{"android":"levelo://app?vid=a7fc0748-d07b-4fc0-8116-9a24274e544d","ios":"levelo://app?vid=a7fc0748-d07b-4fc0-8116-9a24274e544d"},"vehicle_type_id":"4","last_reported":1740017438,"current_range_meters":19600,"station_id":"ce4bgv12rcd13ifvqcp0","pricing_plan_id":"cebpf4jnsgd1na2vs0mg"},{"bike_id":"b5751d10-f446-4fd3-8acc-9605d58a1bfa","system_id":"levelo_inurba_marseille","lat":43.33063,"lon":5.40814,"is_reserved":false,"is_disabled":false,"rental_uris":{"android":"levelo://app?vid=b5751d10-f446-4fd3-8acc-9605d58a1bfa","ios":"levelo://app?vid=b5751d10-f446-4fd3-8acc-9605d58a1bfa"},"vehicle_type_id":"4","last_reported":1740017438,"current_range_meters":19600,"station_id":"","pricing_plan_id":"cebpf4jnsgd1na2vs0mg"},{"bike_id":"c67c3830-6343-4728-87fc-f8803c094be3","system_id":"levelo_inurba_marseille","lat":43.28925,"lon":5.36641,"is_reserved":false,"is_disabled":false,"rental_uris":{"android":"levelo://app?vid=c67c3830-6343-4728-87fc-f8803c094be3","ios":"levelo://app?vid=c67c3830-6343-4728-87fc-f8803c094be3"},