{"last_updated":1730830335,"ttl":60,"version":"2.2","data":{"bikes":[{"bike_id":"2f303e9d-7400-40a4-a59c-f412d183bbe2","system_id":"levelo_inurba_marseille","lat":43.32339,"lon":5.38889,"is_reserved":false,"is_disabled":false,"rental_uris":{"android":"levelo://app?vid=2f303e9d-7400-40a4-a59c-f412d183bbe2","ios":"levelo://app?vid=2f303e9d-7400-40a4-a59c-f412d183bbe2"},"vehicle_type_id":"4","last_reported":1730830335,"current_range_meters":38800,"station_id":"ce4bhqp2rcd13ifvqhog","pricing_plan_id":"cebpf4jnsgd1na2vs0mg"},{"bike_id":"e983a3a2-b468-48ef-a374-a54128068ac7","system_id":"levelo_inurba_marseille","lat":43.33019,"lon":5.39037,"is_reserved":false,"is_disabled":false,"rental_uris":{"android":"levelo://app?vid=e983a3a2-b468-48ef-a374-a54128068ac7","ios":"levelo://app?vid=e983a3a2-b468-48ef-a374-a54128068ac7"},"vehicle_type_id":"4","last_reported":1730830335,"current_range_meters":28800,"station_id":"ce4bhr92rcd13ifvqhrg","pricing_plan_id":"cebpf4jnsgd1na2vs0mg"},{"bike_id":"4b68fe2f-046e-4f4f-9c5d-267a10ce49f5","system_id":"levelo_inurba_marseille","lat":43.27903,"lon":5.38018,"is_reserved":false,"is_disabled":false,"rental_uris":{"android":"levelo://app?vid=4b68fe2f-046e-4f4f-9c5d-267a10ce49f5","ios":"levelo://app?vid=4b68fe2f-046e-4f4f-9c5d-267a10ce49f5"},"vehicle_type_id":"4","last_reported":1730830335,"current_range_meters":24400,"station_id":"ce4bhf92rcd13ifvqf50","pricing_plan_id":"cebpf4jnsgd1na2vs0mg"},{"bike_id":"d43d5285-f672-442b-81bf-c6b155099aef","system_id":"levelo_inurba_marseille","lat":43.29186,"lon":5.35804,"is_reserved":false,"is_disabled":false,"rental_uris":{"android":"levelo://app?vid=d43d5285-f672-442b-81bf-c6b155099aef","ios":"levelo://app?vid=d43d5285-f672-442b-81bf-c6b155099aef"},"vehicle_type_id":"4","last_reported":1730830335,"current_range_meters":16400,"station_id":"ce4bhb12rcd13ifvqel0","pricing_plan_id":"cebpf4jnsgd1na2vs0mg"},{"bike_id":"c921f73c-3c3c-46ec-b792-13e774cbebce","system_id":"levelo_inurba_marseille","lat":43.29529,"lon":5.38549,"is_reserved":false,"is_disabled":false,"rental_uris":{"android":"levelo://app?vid=c921f73c-3c3c-46ec-b792-13e774cbebce","ios":"levelo://app?vid=c921f73c-3c3c-46ec-b792-13e774cbebce"},"vehicle_type_id":"4","last_reported":1730830335,"current_range_meters":6800,"station_id":"ce4bgih2rcd13ifvqba0","pricing_plan_id":"cebpf4jnsgd1na2vs0mg"},{"bike_id":"b4c650b5-6936-47fb-a31c-00e6733df71f","system_id":"levelo_inurba_marseille","lat":43.28406,"lon":5.37524,"is_reserved":false,"is_disabled":false,"rental_uris":{"android":"levelo://app?vid=b4c650b5-6936-47fb-a31c-00e6733df71f","ios":"levelo://app?vid=b4c650b5-6936-47fb-a31c-00e6733df71f"},"vehicle_type_id":"4","last_reported":1730830335,"current_range_meters":12000,"station_id":"ce4bh412rcd13ifvqds0","pricing_plan_id":"cebpf4jnsgd1na2vs0mg"},{"bike_id":"fad94354-c786-416f-8f02-372cce8e30f4","system_id":"levelo_inurba_marseille","lat":43.31528,"lon":5.3803,"is_reserved":false,"is_disabled":false,"rental_uris":{"android":"levelo://app?vid=fad94354-c786-416f-8f02-372cce8e30f4","ios":"levelo://app?vid=fad94354-c786-416f-8f02-372cce8e30f4"},"vehicle_type_id":"4","last_reported":1730830335,"current_range_meters":32000,"station_id":"ce4bhsp2rcd13ifvqi50","pricing_plan_id":"cebpf4jnsgd1na2vs0mg"},{"bike_id":"c4c19a0c-8d82-42b0-9ed3-22a2537291ef","system_id":"levelo_inurba_marseille","lat":43.28846,"lon":5.3586,"is_reserved":false,"is_disabled":false,"rental_uris":{"android":"levelo://app?vid=c4c19a0c-8d82-42b0-9ed3-22a2537291ef","ios":"levelo://app?vid=c4c19a0c-8d82-42b0-9ed3-22a2537291ef"},"vehicle_type_id":"4","last_reported":1730830335,"current_range_meters":6800,"station_id":"ce4bhb12rcd13ifvqem0","pricing_plan_id":"cebpf4jnsgd1na2vs0mg"},{"bike_id":"1a24a378-5270-4a4c-8337-be1c87cefc6d","system_id":"levelo_inurba_marseille","lat":43.29629,"lon":5.40604,"is_reserved":false,"is_disabled":false,"rental_uris":{"android":"levelo://app?vid=1a24a378-5270-4a4c-8337-be1c87cefc6d","ios":"levelo://app?vid=1a24a378-5270-4a4c-8337-be1c87cefc6d"},"vehicle_type_id":"4","last_reported":1730830335,"current_range_meters":38800,"station_id":"ce4bh0h2rcd13ifvqd60","pricing_plan_id":"cebpf4jnsgd1na2vs0mg"},{"bike_id":"ec0f7d26-00e6-48c5-b9ab-eeec758927a4","system_id":"levelo_inurba_marseille","lat":43.301245,"lon":5.398615,"is_reserved":false,"is_disabled":false,"rental_uris":{"android":"levelo://app?vid=ec0f7d26-00e6-48c5-b9ab-eeec758927a4","ios":"levelo://app?vid=ec0f7d26-00e6-48c5-b9ab-eeec758927a4"},"vehicle_type_id":"4","last_reported":1730830335,"current_range_meters":39200,"station_id":"ce4bh0h2rcd13ifvqd40","pricing_plan_id":"cebpf4jnsgd1na2vs0mg"},{"bike_id":"4147bbfb-4b14-4aca-b782-8ec6c0473609","system_id":"levelo_inurba_marseille","lat":43.23595,"lon":5.40353,"is_reserved":false,"is_disabled":false,"rental_uris":{"android":"levelo://app?vid=4147bbfb-4b14-4aca-b782-8ec6c0473609","ios":"levelo://app?vid=4147bbfb-4b14-4aca-b782-8ec6c0473609"},"vehicle_type_id":"4","last_reported":1730830335,"current_range_meters":7200,"station_id":"","pricing_plan_id":"cebpf4jnsgd1na2vs0mg"},{"bike_id":"2d8dcc4e-17af-449c-9243-bee750e42c70","system_id":"levelo_inurba_marseille","lat":43.30326,"lon":5.40437,"is_reserved":false,"is_disabled":false,"rental_uris":{"android":"levelo://app?vid=2d8dcc4e-17af-449c-9243-bee750e42c70","ios":"levelo://app?vid=2d8dcc4e-17af-449c-9243-bee750e42c70"},"vehicle_type_id":"4","last_reported":1730830335,"current_range_meters":27600,"station_id":"ce4bh012rcd13ifvqd10","pricing_plan_id":"cebpf4jnsgd1na2vs0mg"},{"bike_id":"995614c1-6b9e-4ccc-b150-40127e658471","system_id":"levelo_inurba_marseille","lat":43.3171,"lon":5.4371,"is_reserved":false,"is_disabled":false,"rental_uris":{"android":"levelo://app?vid=995614c1-6b9e-4ccc-b150-40127e658471","ios":"levelo://app?vid=995614c1-6b9e-4ccc-b150-40127e658471"},"vehicle_type_id":"4","last_reported":1730830335,"current_range_meters":16000,"station_id":"ce4bhp92rcd13ifvqhcg","pricing_plan_id":"cebpf4jnsgd1na2vs0mg"},{"bike_id":"747a8bee-f299-4cee-94cf-9599905b72c4","system_id":"levelo_inurba_marseille","lat":43.29039,"lon":5.38654,"is_reserved":false,"is_disabled":false,"rental_uris":{"android":"levelo://app?vid=747a8bee-f299-4cee-94cf-9599905b72c4","ios":"levelo://app?vid=747a8bee-f299-4cee-94cf-9599905b72c4"},"vehicle_type_id":"4","last_reported":1730830335,"current_range_meters":6400,"station_id":"ce4bh4p2rcd13ifvqe0g","pricing_plan_id":"cebpf4jnsgd1na2vs0mg"},{"bike_id":"24b66645-9384-4cfd-ac68-80c142afe965","system_id":"levelo_inurba_marseille","lat":43.31325,"lon":5.39694,"is_reserved":false,"is_disabled":false,"rental_uris":{"android":"levelo://app?vid=24b66645-9384-4cfd-ac68-80c142afe965","ios":"levelo://app?vid=24b66645-9384-4cfd-ac68-80c142afe965"},"vehicle_type_id":"4","last_reported":1730830335,"current_range_meters":6800,"station_id":"ce4bgvp2rcd13ifvqcu0","pricing_plan_id":"cebpf4jnsgd1na2vs0mg"},{"bike_id":"eafa0418-2c3b-4557-a8f0-88707996587d","system_id":"levelo_inurba_marseille","lat":43.31711,"lon":5.37751,"is_reserved":false,"is_disabled":false,"rental_uris":{"android":"levelo://app?vid=eafa0418-2c3b-4557-a8f0-88707996587d","ios":"levelo://app?vid=eafa0418-2c3b-4557-a8f0-88707996587d"},"vehicle_type_id":"4","last_reported":1730830335,"current_range_meters":33600,"station_id":"ce4bgth2rcd13ifvqch0","pricing_plan_id":"cebpf4jnsgd1na2vs0mg"},{"bike_id":"35d46972-faca-4525-a2d2-3f928f24f16c","system_id":"levelo_inurba_marseille","lat":43.241733,"lon":5.363945,"is_reserved":false,"is_disabled":false,"rental_uris":{"android":"levelo://app?vid=35d46972-faca-4525-a2d2-3f928f24f16c","ios":"levelo://app?vid=35d46972-faca-4525-a2d2-3f928f24f16c"},"vehicle_type_id":"4","last_reported":1730830335,"current_range_meters":36800,"station_id":"cpo36qri1sfpv3e86is0","pricing_plan_id":"cebpf4jnsgd1na2vs0mg"},{"bike_id":"1b358c2a-4546-44d6-8702-db48f79b8243","system_id":"levelo_inurba_marseille","lat":43.30252,"lon":5.40071,"is_reserved":false,"is_disabled":false,"rental_uris":{"android":"levelo://app?vid=1b358c2a-4546-44d6-8702-db48f79b8243","ios":"levelo://app?vid=1b358c2a-4546-44d6-8702-db48f79b8243"},"vehicle_type_id":"4","last_reported":1730830335,"current_range_meters":28000,"station_id":"ce4bgvh2rcd13ifvqcs0","pricing_plan_id":"cebpf4jnsgd1na2vs0mg"},{"bike_id":"699ea73b-095f-450a-ac3c-0c3aaf67eebb","system_id":"levelo_inurba_marseille","lat":43.30945,"lon":5.40144,"is_reserved":false,"is_disabled":false,"rental_uris":{"android":"levelo://app?vid=699ea73b-095f-450a-ac3c-0c3aaf67eebb","ios":"levelo://app?vid=699ea73b-095f-450a-ac3c-0c3aaf67eebb"},"vehicle_type_id":"4","last_reported":1730830335,"current_range_meters":30000,"station_id":"ce4bgvp2rcd13ifvqct0","pricing_plan_id":"cebpf4jnsgd1na2vs0mg"},{"bike_id":"7021e8bb-c072-4c45-b1a1-aef6b0f34d2a","system_id":"levelo_inurba_marseille","lat":43.28465,"lon":5.35889,"is_reserved":false,"is_disabled":false,"rental_uris":{"android":"levelo://app?vid=7021e8bb-c072-4c45-b1a1-aef6b0f34d2a","ios":"levelo://app?vid=7021e8bb-c072-4c45-b1a1-aef6b0f34d2a"},"vehicle_type_id":"4","last_reported":1730830335,"current_range_meters":6400,"station_id":"ce4bhah2rcd13ifvqei0","pricing_plan_id":"cebpf4jnsgd1na2vs0mg"},{"bike_id":"eea545c0-1370-44bd-ac8e-c1ac99acf7fe","system_id":"levelo_inurba_marseille","lat":43.2957,"lon":5.39974,"is_reserved":false,"is_disabled":false,"rental_uris":{"android":"levelo://app?vid=eea545c0-1370-44bd-ac8e-c1ac99acf7fe","ios":"levelo://app?vid=eea545c0-1370-44bd-ac8e-c1ac99acf7fe"},"vehicle_type_id":"4","last_reported":1730830335,"current_range_meters":2800,"station_id":"ce4bh312rcd13ifvqdj0","pricing_plan_id":"cebpf4jnsgd1na2vs0mg"},{"bike_id":"11bb0316-f5b5-4bb9-a8a5-eec281a9aa9d","system_id":"levelo_inurba_marseille","lat":43.30308,"lon":5.3921,"is_reserved":false,"is_disabled":false,"rental_uris":{"android":"levelo://app?vid=11bb0316-f5b5-4bb9-a8a5-eec281a9aa9d","ios":"levelo://app?vid=11bb0316-f5b5-4bb9-a8a5-eec281a9aa9d"},"vehicle_type_id":"4","last_reported":1730830335,"current_range_meters":2800,"station_id":"ce4bgkh2rcd13ifvqbk0","pricing_plan_id":"cebpf4jnsgd1na2vs0mg"},{"bike_id":"ecae18f9-95bb-4ec1-b8a7-5b5297b6d945","system_id":"levelo_inurba_marseille","lat":43.284759,"lon":5.385718,"is_reserved":false,"is_disabled":false,"rental_uris":{"android":"levelo://app?vid=ecae18f9-95bb-4ec1-b8a7-5b5297b6d945","ios":"levelo://app?vid=ecae18f9-95bb-4ec1-b8a7-5b5297b6d945"},"vehicle_type_id":"4","last_reported":1730830335,"current_range_meters":30000,"station_id":"ce4bh8p2rcd13ifvqeb0","pricing_plan_id":"cebpf4jnsgd1na2vs0mg"},{"bike_id":"b7714781-d668-438d-8d4e-7166167a7e37","system_id":"levelo_inurba_marseille","lat":43.23182,"lon":5.39981,"is_reserved":false,"is_disabled":false,"rental_uris":{"android":"levelo://app?vid=b7714781-d668-438d-8d4e-7166167a7e37","ios":"levelo://app?vid=b7714781-d668-438d-8d4e-7166167a7e37"},"vehicle_type_id":"4","last_reported":1730830335,"current_range_meters":25200,"station_id":"ce4bhn12rcd13ifvqgqg","pricing_plan_id":"cebpf4jnsgd1na2vs0mg"},{"bike_id":"f72093f2-97f2-4cac-8fd7-7ce0df12fbcf","system_id":"levelo_inurba_marseille","lat":43.30784,"lon":5.38175,"is_reserved":false,"is_disabled":false,"rental_uris":{"android":"levelo://app?vid=f72093f2-97f2-4cac-8fd7-7ce0df12fbcf","ios":"levelo://app?vid=f72093f2-97f2-4cac-8fd7-7ce0df12fbcf"},"vehicle_type_id":"4","last_reported":1730830335,"current_range_meters":18800,"station_id":"ce4bgt12rcd13ifvqce0","pricing_plan_id":"cebpf4jnsgd1na2vs0mg"},{"bike_id":"b5d825e3-d9e6-4725-a98c-61171117818a","system_id":"levelo_inurba_marseille","lat":43.28651,"lon":5.36361,"is_reserved":false,"is_disabled":false,"rental_uris":{"android":"levelo://app?vid=b5d825e3-d9e6-4725-a98c-61171117818a","ios":"levelo://app?vid=b5d825e3-d9e6-4725-a98c-61171117818a"},"vehicle_type_id":"4","last_reported":1730830335,"current_range_meters":28400,"station_id":"ce4bhah2rcd13ifvqej0","pricing_plan_id":"cebpf4jnsgd1na2vs0mg"},{"bike_id":"30eb9235-2b25-441f-aa71-5f4c675a078c","system_id":"levelo_inurba_marseille","lat":43.24647,"lon":5.38902,"is_reserved":false,"is_disabled":false,"rental_uris":{"android":"levelo://app?vid=30eb9235-2b25-441f-aa71-5f4c675a078c","ios":"levelo://app?vid=30eb9235-2b25-441f-aa71-5f4c675a078c"},"vehicle_type_id":"4","last_reported":1730830335,"current_range_meters":8800,"station_id":"ce4bhg12rcd13ifvqf60","pricing_plan_id":"cebpf4jnsgd1na2vs0mg"},{"bike_id":"ebffee7c-cae5-47c5-9bdb-6d314ad8c91e","system_id":"levelo_inurba_marseille","lat":43.330282,"lon":5.390407,"is_reserved":false,"is_disabled":false,"rental_uris":{"android":"levelo://app?vid=ebffee7c-cae5-47c5-9bdb-6d314ad8c91e","ios":"levelo://app?vid=ebffee7c-cae5-47c5-9bdb-6d314ad8c91e"},"vehicle_type_id":"4","last_reported":1730830335,"current_range_meters":38800,"station_id":"ce4bhr92rcd13ifvqhrg","pricing_plan_id":"cebpf4jnsgd1na2vs0mg"},{"bike_id":"42163e3e-5009-401f-a1ce-f09eb7e2a510","system_id":"levelo_inurba_marseille","lat":43.31323,"lon":5.39699,"is_reserved":false,"is_disabled":false,"rental_uris":{"android":"levelo://app?vid=42163e3e-5009-401f-a1ce-f09eb7e2a510","ios":"levelo://app?vid=42163e3e-5009-401f-a1ce-f09eb7e2a510"},"vehicle_type_id":"4","last_reported":1730830335,"current_range_meters":40000,"station_id":"ce4bgvp2rcd13ifvqcu0","pricing_plan_id":"cebpf4jnsgd1na2vs0mg"},{"bike_id":"88a49092-a5f1-4e42-bf11-c6f7341b0e37","system_id":"levelo_inurba_marseille","lat":43.23966,"lon":5.36642,"is_reserved":false,"is_disabled":false,"rental_uris":{"android":"levelo://app?vid=88a49092-a5f1-4e42-bf11-c6f7341b0e37","ios":"levelo://app?vid=88a49092-a5f1-4e42-bf11-c6f7341b0e37"},"vehicle_type_id":"4","last_reported":1730830335,"current_range_meters":36800,"station_id":"ce4bhi12rcd13ifvqfp0","pricing_plan_id":"cebpf4jnsgd1na2vs0mg"},{"bike_id":"df47f081-8cb3-4255-bac1-feff1f9e7521","system_id":"levelo_inurba_marseille","lat":43.27909,"lon":5.39582,"is_reserved":false,"is_disabled":false,"rental_uris":{"android":"levelo://app?vid=df47f081-8cb3-4255-bac1-feff1f9e7521","ios":"levelo://app?vid=df47f081-8cb3-4255-bac1-feff1f9e7521"},"vehicle_type_id":"4","last_reported":1730830335,"current_range_meters":33200,"station_id":"ce4bhf92rcd13ifvqf40","pricing_plan_id":"cebpf4jnsgd1na2vs0mg"},{"bike_id":"975c9234-f477-4849-a4e3-e3d7d0b25fab","system_id":"levelo_inurba_marseille","lat":43.31322,"lon":5.39693,"is_reserved":false,"is_disabled":false,"rental_uris":{"android":"levelo://app?vid=975c9234-f477-4849-a4e3-e3d7d0b25fab","ios":"levelo://app?vid=975c9234-f477-4849-a4e3-e3d7d0b25fab"},"vehicle_type_id":"4","last_reported":1730830335,"current_range_meters":34000,"station_id":"ce4bgvp2rcd13ifvqcu0","pricing_plan_id":"cebpf4jnsgd1na2vs0mg"},{"bike_id":"777994d5-1679-4ca7-b557-c528db6a7640","system_id":"levelo_inurba_marseille","lat":43.30953,"lon":5.39042,"is_reserved":false,"is_disabled":false,"rental_uris":{"android":"levelo://app?vid=777994d5-1679-4ca7-b557-c528db6a7640","ios":"levelo://app?vid=777994d5-1679-4ca7-b557-c528db6a7640"},"vehicle_type_id":"4","last_reported":1730830335,"current_range_meters":27600,"station_id":"ce4bgup2rcd13ifvqco0","pricing_plan_id":"cebpf4jnsgd1na2vs0mg"},{"bike_id":"a5e4d8bd-082a-4f3f-8cd9-3bbfcba43cf0","system_id":"levelo_inurba_marseille","lat":43.311523,"lon":5.424872,"is_reserved":false,"is_disabled":false,"rental_uris":{"android":"levelo://app?vid=a5e4d8bd-082a-4f3f-8cd9-3bbfcba43cf0","ios":"levelo://app?vid=a5e4d8bd-082a-4f3f-8cd9-3bbfcba43cf0"},"vehicle_type_id":"4","last_reported":1730830335,"current_range_meters":28800,"station_id":"ce4bhp92rcd13ifvqhbg","pricing_plan_id":"cebpf4jnsgd1na2vs0mg"},{"bike_id":"194d5323-696f-433c-b13a-1b92bd87f265","system_id":"levelo_inurba_marseille","lat":43.24661,"lon":5.38168,"is_reserved":false,"is_disabled":false,"rental_uris":{"android":"levelo://app?vid=194d5323-696f-433c-b13a-1b92bd87f265","ios":"levelo://app?vid=194d5323-696f-433c-b13a-1b92bd87f265"},"vehicle_type_id":"4","last_reported":1730830335,"current_range_meters":28000,"station_id":"ce4bhih2rcd13ifvqfr0","pricing_plan_id":"cebpf4jnsgd1na2vs0mg"},{"bike_id":"b9f49a4a-4f9e-4ec8-822c-62bd6c8cf186","system_id":"levelo_inurba_marseille","lat":43.31711,"lon":5.43711,"is_reserved":false,"is_disabled":false,"rental_uris":{"android":"levelo://app?vid=b9f49a4a-4f9e-4ec8-822c-62bd6c8cf186","ios":"levelo://app?vid=b9f49a4a-4f9e-4ec8-822c-62bd6c8cf186"},"vehicle_type_id":"4","last_reported":1730830335,"current_range_meters":23200,"station_id":"ce4bhp92rcd13ifvqhcg","pricing_plan_id":"cebpf4jnsgd1na2vs0mg"},{"bike_id":"741d2691-66c1-4f95-8d58-b1864605c1f6","system_id":"levelo_inurba_marseille","lat":43.28461,"lon":5.35894,"is_reserved":false,"is_disabled":false,"rental_uris":{"android":"levelo://app?vid=741d2691-66c1-4f95-8d58-b1864605c1f6","ios":"levelo://app?vid=741d2691-66c1-4f95-8d58-b1864605c1f6"},"vehicle_type_id":"4","last_reported":1730830335,"current_range_meters":17200,"station_id":"ce4bhah2rcd13ifvqei0","pricing_plan_id":"cebpf4jnsgd1na2vs0mg"},{"bike_id":"b4e9e3e6-8a40-45e8-920b-0e433ef0bb38","system_id":"levelo_inurba_marseille","lat":43.29255,"lon":5.38438,"is_reserved":false,"is_disabled":false,"rental_uris":{"android":"levelo://app?vid=b4e9e3e6-8a40-45e8-920b-0e433ef0bb38","ios":"levelo://app?vid=b4e9e3e6-8a40-45e8-920b-0e433ef0bb38"},"vehicle_type_id":"4","last_reported":1730830335,"current_range_meters":25600,"station_id":"ce4bh692rcd13ifvqea0","pricing_plan_id":"cebpf4jnsgd1na2vs0mg"},{"bike_id":"cf206386-68fa-4745-8fbe-adaeeaecb821","system_id":"levelo_inurba_marseille","lat":43.28455,"lon":5.35899,"is_reserved":false,"is_disabled":false,"rental_uris":{"android":"levelo://app?vid=cf206386-68fa-4745-8fbe-adaeeaecb821","ios":"levelo://app?vid=cf206386-68fa-4745-8fbe-adaeeaecb821"},"vehicle_type_id":"4","last_reported":1730830335,"current_range_meters":20000,"station_id":"ce4bhah2rcd13ifvqei0","pricing_plan_id":"cebpf4jnsgd1na2vs0mg"},{"bike_id":"f29f4159-c3d5-48e8-b13d-cd8d49ba56d0","system_id":"levelo_inurba_marseille","lat":43.29033,"lon":5.38649,"is_reserved":false,"is_disabled":false,"rental_uris":{"android":"levelo://app?vid=f29f4159-c3d5-48e8-b13d-cd8d49ba56d0","ios":"levelo://app?vid=f29f4159-c3d5-48e8-b13d-cd8d49ba56d0"},"vehicle_type_id":"4","last_reported":1730830335,"current_range_meters":27600,"station_id":"ce4bh4p2rcd13ifvqe0g","pricing_plan_id":"cebpf4jnsgd1na2vs0mg"},{"bike_id":"f694330b-a17f-4267-9f9b-2d045e9a87aa","system_id":"levelo_inurba_marseille","lat":43.31121,"lon":5.37783,"is_reserved":false,"is_disabled":false,"rental_uris":{"android":"levelo://app?vid=f694330b-a17f-4267-9f9b-2d045e9a87aa","ios":"levelo://app?vid=f694330b-a17f-4267-9f9b-2d045e9a87aa"},"vehicle_type_id":"4","last_reported":1730830335,"current_range_meters":39200,"station_id":"ce4bgt92rcd13ifvqcg0","pricing_plan_id":"cebpf4jnsgd1na2vs0mg"},{"bike_id":"6edcb5d2-dbf0-49f4-9f8b-5d93ccae943e","system_id":"levelo_inurba_marseille","lat":43.279121,"lon":5.380154,"is_reserved":false,"is_disabled":false,"rental_uris":{"android":"levelo://app?vid=6edcb5d2-dbf0-49f4-9f8b-5d93ccae943e","ios":"levelo://app?vid=6edcb5d2-dbf0-49f4-9f8b-5d93ccae943e"},"vehicle_type_id":"4","last_reported":1730830335,"current_range_meters":27600,"station_id":"ce4bhf92rcd13ifvqf50","pricing_plan_id":"cebpf4jnsgd1na2vs0mg"},{"bike_id":"003ce93f-a012-401e-baec-44db9013f6bd","system_id":"levelo_inurba_marseille","lat":43.30087,"lon":5.390717,"is_reserved":false,"is_disabled":false,"rental_uris":{"android":"levelo://app?vid=003ce93f-a012-401e-baec-44db9013f6bd","ios":"levelo://app?vid=003ce93f-a012-401e-baec-44db9013f6bd"},"vehicle_type_id":"4","last_reported":1730830335,"current_range_meters":18800,"station_id":"ce4bh192rcd13ifvqdb0","pricing_plan_id":"cebpf4jnsgd1na2vs0mg"},{"bike_id":"340ee037-c5f9-4ff6-a16b-0e0f3098fa79","system_id":"levelo_inurba_marseille","lat":43.30469,"lon":5.40212,"is_reserved":false,"is_disabled":false,"rental_uris":{"android":"levelo://app?vid=340ee037-c5f9-4ff6-a16b-0e0f3098fa79","ios":"levelo://app?vid=340ee037-c5f9-4ff6-a16b-0e0f3098fa79"},"vehicle_type_id":"4","last_reported":1730830335,"current_range_meters":29600,"station_id":"","pricing_plan_id":"cebpf4jnsgd1na2vs0mg"},{"bike_id":"a4180ebb-2d74-4401-8862-5cd87553e128","system_id":"levelo_inurba_marseille","lat":43.296079,"lon":5.405755,"is_reserved":false,"is_disabled":false,"rental_uris":{"android":"levelo://app?vid=a4180ebb-2d74-4401-8862-5cd87553e128","ios":"levelo://app?vid=a4180ebb-2d74-4401-8862-5cd87553e128"},"vehicle_type_id":"4","last_reported":1730830335,"current_range_meters":23200,"station_id":"ce4bh0h2rcd13ifvqd60","pricing_plan_id":"cebpf4jnsgd1na2vs0mg"},{"bike_id":"5ae4a98f-3b42-4383-9f98-381be1e2447e","system_id":"levelo_inurba_marseille","lat":43.31365,"lon":5.38491,"is_reserved":false,"is_disabled":false,"rental_uris":{"android":"levelo://app?vid=5ae4a98f-3b42-4383-9f98-381be1e2447e","ios":"levelo://app?vid=5ae4a98f-3b42-4383-9f98-381be1e2447e"},"vehicle_type_id":"4","last_reported":1730830335,"current_range_meters":30000,"station_id":"ce4bgt92rcd13ifvqcf0","pricing_plan_id":"cebpf4jnsgd1na2vs0mg"},{"bike_id":"fb6e0097-609c-4a31-a37d-72d195a0407b","system_id":"levelo_inurba_marseille","lat":43.29859,"lon":5.39738,"is_reserved":false,"is_disabled":false,"rental_uris":{"android":"levelo://app?vid=fb6e0097-609c-4a31-a37d-72d195a0407b","ios":"levelo://app?vid=fb6e0097-609c-4a31-a37d-72d195a0407b"},"vehicle_type_id":"4","last_reported":1730830335,"current_range_meters":11600,"station_id":"ce4bh0h2rcd13ifvqd50","pricing_plan_id":"cebpf4jnsgd1na2vs0mg"},{"bike_id":"6025b22c-cc70-4829-8bb8-d8ee07a71061","system_id":"levelo_inurba_marseille","lat":43.28621,"lon":5.35101,"is_reserved":false,"is_disabled":false,"rental_uris":{"android":"levelo://app?vid=6025b22c-cc70-4829-8bb8-d8ee07a71061","ios":"levelo://app?vid=6025b22c-cc70-4829-8bb8-d8ee07a71061"},"vehicle_type_id":"4","last_reported":1730830335,"current_range_meters":32800,"station_id":"ce4bhch2rcd13ifvqeug","pricing_plan_id":"cebpf4jnsgd1na2vs0mg"},{"bike_id":"4d642ac2-a241-4ad5-8d70-e7a903766d29","system_id":"levelo_inurba_marseille","lat":43.29261,"lon":5.38436,"is_reserved":false,"is_disabled":false,"rental_uris":{"android":"levelo://app?vid=4d642ac2-a241-4ad5-8d70-e7a903766d29","ios":"levelo://app?vid=4d642ac2-a241-4ad5-8d70-e7a903766d29"},"vehicle_type_id":"4","last_reported":1730830335,"current_range_meters":17600,"station_id":"ce4bh692rcd13ifvqea0","pricing_plan_id":"cebpf4jnsgd1na2vs0mg"},{"bike_id":"f8053fae-19d6-4f46-93ab-8115c6e86f07","system_id":"levelo_inurba_marseille","lat":43.30907,"lon":5.36848,"is_reserved":false,"is_disabled":false,"rental_uris":{"android":"levelo://app?vid=f8053fae-19d6-4f46-93ab-8115c6e86f07","ios":"levelo://app?vid=f8053fae-19d6-4f46-93ab-8115c6e86f07"},"vehicle_type_id":"4","last_reported":1730830335,"current_range_meters":35600,"station_id":"ce4bgn92rcd13ifvqbvg","pricing_plan_id":"cebpf4jnsgd1na2vs0mg"},{"bike_id":"5a64c707-8953-41a6-a27e-a888565df268","system_id":"levelo_inurba_marseille","lat":43.31325,"lon":5.39692,"is_reserved":false,"is_disabled":false,"rental_uris":{"android":"levelo://app?vid=5a64c707-8953-41a6-a27e-a888565df268","ios":"levelo://app?vid=5a64c707-8953-41a6-a27e-a888565df268"},"vehicle_type_id":"4","last_reported":1730830335,"current_range_meters":31200,"station_id":"ce4bgvp2rcd13ifvqcu0","pricing_plan_id":"cebpf4jnsgd1na2vs0mg"},{"bike_id":"4d70c23b-ad31-4cb8-986c-d48c613d35bf","system_id":"levelo_inurba_marseille","lat":43.24648,"lon":5.3889,"is_reserved":false,"is_disabled":false,"rental_uris":{"android":"levelo://app?vid=4d70c23b-ad31-4cb8-986c-d48c613d35bf","ios":"levelo://app?vid=4d70c23b-ad31-4cb8-986c-d48c613d35bf"},"vehicle_type_id":"4","last_reported":1730830335,"current_range_meters":18800,"station_id":"ce4bhg12rcd13ifvqf60","pricing_plan_id":"cebpf4jnsgd1na2vs0mg"},{"bike_id":"1f9427b0-5fa1-48cb-9b31-8a0b0ffec652","system_id":"levelo_inurba_marseille","lat":43.29193,"lon":5.39312,"is_reserved":false,"is_disabled":false,"rental_uris":{"android":"levelo://app?vid=1f9427b0-5fa1-48cb-9b31-8a0b0ffec652","ios":"levelo://app?vid=1f9427b0-5fa1-48cb-9b31-8a0b0ffec652"},"vehicle_type_id":"4","last_reported":1730830335,"current_range_meters":10800,"station_id":"ce4bh192rcd13ifvqdd0","pricing_plan_id":"cebpf4jnsgd1na2vs0mg"},{"bike_id":"c54b8133-7a03-458c-922a-bd247355efb0","system_id":"levelo_inurba_marseille","lat":43.30882,"lon":5.39647,"is_reserved":false,"is_disabled":false,"rental_uris":{"android":"levelo://app?vid=c54b8133-7a03-458c-922a-bd247355efb0","ios":"levelo://app?vid=c54b8133-7a03-458c-922a-bd247355efb0"},"vehicle_type_id":"4","last_reported":1730830335,"current_range_meters":27200,"station_id":"ce4bh012rcd13ifvqcv0","pricing_plan_id":"cebpf4jnsgd1na2vs0mg"},{"bike_id":"00db643c-5868-4206-be55-7a08f1b86e96","system_id":"levelo_inurba_marseille","lat":43.23185,"lon":5.3998,"is_reserved":false,"is_disabled":false,"rental_uris":{"android":"levelo://app?vid=00db643c-5868-4206-be55-7a08f1b86e96","ios":"levelo://app?vid=00db643c-5868-4206-be55-7a08f1b86e96"},"vehicle_type_id":"4","last_reported":1730830335,"current_range_meters":18800,"station_id":"ce4bhn12rcd13ifvqgqg","pricing_plan_id":"cebpf4jnsgd1na2vs0mg"},{"bike_id":"c238a23c-b959-4ba2-8a66-f2d8ab674380","system_id":"levelo_inurba_marseille","lat":43.30396,"lon":5.3891,"is_reserved":false,"is_disabled":false,"rental_uris":{"android":"levelo://app?vid=c238a23c-b959-4ba2-8a66-f2d8ab674380","ios":"levelo://app?vid=c238a23c-b959-4ba2-8a66-f2d8ab674380"},"vehicle_type_id":"4","last_reported":1730830335,"current_range_meters":14000,"station_id":"","pricing_plan_id":"cebpf4jnsgd1na2vs0mg"},{"bike_id":"b99a0606-62a2-4ff2-9a2e-184041fba205","system_id":"levelo_inurba_marseille","lat":43.2952,"lon":5.39048,"is_reserved":false,"is_disabled":false,"rental_uris":{"android":"levelo://app?vid=b99a0606-62a2-4ff2-9a2e-184041fba205","ios":"levelo://app?vid=b99a0606-62a2-4ff2-9a2e-184041fba205"},"vehicle_type_id":"4","last_reported":1730830335,"current_range_meters":28000,"station_id":"ce4bh3p2rcd13ifvqdp0","pricing_plan_id":"cebpf4jnsgd1na2vs0mg"},{"bike_id":"09ae89aa-d8fd-468f-94dc-9a05a884115a","system_id":"levelo_inurba_marseille","lat":43.2407,"lon":5.37768,"is_reserved":false,"is_disabled":false,"rental_uris":{"android":"levelo://app?vid=09ae89aa-d8fd-468f-94dc-9a05a884115a","ios":"levelo://app?vid=09ae89aa-d8fd-468f-94dc-9a05a884115a"},"vehicle_type_id":"4","last_reported":1730830335,"current_range_meters":23200,"station_id":"ce4bhnp2rcd13ifvqgvg","pricing_plan_id":"cebpf4jnsgd1na2vs0mg"},{"bike_id":"fd133990-2027-4415-9562-27fa75a43a41","system_id":"levelo_inurba_marseille","lat":43.29559,"lon":5.42286,"is_reserved":false,"is_disabled":false,"rental_uris":{"android":"levelo://app?vid=fd133990-2027-4415-9562-27fa75a43a41","ios":"levelo://app?vid=fd133990-2027-4415-9562-27fa75a43a41"},"vehicle_type_id":"4","last_reported":1730830335,"current_range_meters":19200,"station_id":"ce4bhph2rcd13ifvqhdg","pricing_plan_id":"cebpf4jnsgd1na2vs0mg"},{"bike_id":"aad86cd7-3214-497d-989d-393b931f9747","system_id":"levelo_inurba_marseille","lat":43.27497,"lon":5.42451,"is_reserved":false,"is_disabled":false,"rental_uris":{"android":"levelo://app?vid=aad86cd7-3214-497d-989d-393b931f9747","ios":"levelo://app?vid=aad86cd7-3214-497d-989d-393b931f9747"},"vehicle_type_id":"4","last_reported":1730830335,"current_range_meters":24800,"station_id":"ce4bhn92rcd13ifvqgrg","pricing_plan_id":"cebpf4jnsgd1na2vs0mg"},{"bike_id":"b44b0b48-9a85-405c-b983-dc9cb4802105","system_id":"levelo_inurba_marseille","lat":43.28562,"lon":5.39499,"is_reserved":false,"is_disabled":false,"rental_uris":{"android":"levelo://app?vid=b44b0b48-9a85-405c-b983-dc9cb4802105","ios":"levelo://app?vid=b44b0b48-9a85-405c-b983-dc9cb4802105"},"vehicle_type_id":"4","last_reported":1730830335,"current_range_meters":8400,"station_id":"ce4bh292rcd13ifvqdg0","pricing_plan_id":"cebpf4jnsgd1na2vs0mg"},{"bike_id":"814f224b-377e-4923-a420-cdcd4718352f","system_id":"levelo_inurba_marseille","lat":43.330317,"lon":5.390367,"is_reserved":false,"is_disabled":false,"rental_uris":{"android":"levelo://app?vid=814f224b-377e-4923-a420-cdcd4718352f","ios":"levelo://app?vid=814f224b-377e-4923-a420-cdcd4718352f"},"vehicle_type_id":"4","last_reported":1730830335,"current_range_meters":38800,"station_id":"ce4bhr92rcd13ifvqhrg","pricing_plan_id":"cebpf4jnsgd1na2vs0mg"},{"bike_id":"c37b77c7-0309-47c9-adea-e6583d2943ee","system_id":"levelo_inurba_marseille","lat":43.30126,"lon":5.39858,"is_reserved":false,"is_disabled":false,"rental_uris":{"android":"levelo://app?vid=c37b77c7-0309-47c9-adea-e6583d2943ee","ios":"levelo://app?vid=c37b77c7-0309-47c9-adea-e6583d2943ee"},"vehicle_type_id":"4","last_reported":1730830335,"current_range_meters":8000,"station_id":"ce4bh0h2rcd13ifvqd40","pricing_plan_id":"cebpf4jnsgd1na2vs0mg"},{"bike_id":"3c5ac311-90c7-4d2b-b377-c2b12c17ace3","system_id":"levelo_inurba_marseille","lat":43.32109,"lon":5.36774,"is_reserved":false,"is_disabled":false,"rental_uris":{"android":"levelo://app?vid=3c5ac311-90c7-4d2b-b377-c2b12c17ace3","ios":"levelo://app?vid=3c5ac311-90c7-4d2b-b377-c2b12c17ace3"},"vehicle_type_id":"4","last_reported":1730830335,"current_range_meters":13600,"station_id":"ce4bhrh2rcd13ifvqhug","pricing_plan_id":"cebpf4jnsgd1na2vs0mg"},{"bike_id":"38526b2a-8697-4aef-a174-e0c1be19b7a7","system_id":"levelo_inurba_marseille","lat":43.28843,"lon":5.35886,"is_reserved":false,"is_disabled":false,"rental_uris":{"android":"levelo://app?vid=38526b2a-8697-4aef-a174-e0c1be19b7a7","ios":"levelo://app?vid=38526b2a-8697-4aef-a174-e0c1be19b7a7"},"vehicle_type_id":"4","last_reported":1730830335,"current_range_meters":16000,"station_id":"ce4bhb12rcd13ifvqem0","pricing_plan_id":"cebpf4jnsgd1na2vs0mg"},{"bike_id":"bb10a7e5-28ee-4ce5-959a-fb4e69a519f8","system_id":"levelo_inurba_marseille","lat":43.28155,"lon":5.42645,"is_reserved":false,"is_disabled":false,"rental_uris":{"android":"levelo://app?vid=bb10a7e5-28ee-4ce5-959a-fb4e69a519f8","ios":"levelo://app?vid=bb10a7e5-28ee-4ce5-959a-fb4e69a519f8"},"vehicle_type_id":"4","last_reported":1730830335,"current_range_meters":26000,"station_id":"ce4bhnh2rcd13ifvqgug","pricing_plan_id":"cebpf4jnsgd1na2vs0mg"},{"bike_id":"ca5b1379-b844-45e5-9f68-84f8a48462b3","system_id":"levelo_inurba_marseille","lat":43.29526,"lon":5.39401,"is_reserved":false,"is_disabled":false,"rental_uris":{"android":"levelo://app?vid=ca5b1379-b844-45e5-9f68-84f8a48462b3","ios":"levelo://app?vid=ca5b1379-b844-45e5-9f68-84f8a48462b3"},"vehicle_type_id":"4","last_reported":1730830335,"current_range_meters":25200,"station_id":"ce4bh292rcd13ifvqdf0","pricing_plan_id":"cebpf4jnsgd1na2vs0mg"},{"bike_id":"64034af2-67ea-4876-bcba-e9667f90eda7","system_id":"levelo_inurba_marseille","lat":43.33735,"lon":5.39193,"is_reserved":false,"is_disabled":false,"rental_uris":{"android":"levelo://app?vid=64034af2-67ea-4876-bcba-e9667f90eda7","ios":"levelo://app?vid=64034af2-67ea-4876-bcba-e9667f90eda7"},"vehicle_type_id":"4","last_reported":1730830335,"current_range_meters":38800,"station_id":"ce4bhr92rcd13ifvqhsg","pricing_plan_id":"cebpf4jnsgd1na2vs0mg"},{"bike_id":"67af6ed4-bdd3-44c6-9a7d-cf193a0dd908","system_id":"levelo_inurba_marseille","lat":43.28344,"lon":5.38112,"is_reserved":false,"is_disabled":false,"rental_uris":{"android":"levelo://app?vid=67af6ed4-bdd3-44c6-9a7d-cf193a0dd908","ios":"levelo://app?vid=67af6ed4-bdd3-44c6-9a7d-cf193a0dd908"},"vehicle_type_id":"4","last_reported":1730830335,"current_range_meters":12800,"station_id":"ce4bh412rcd13ifvqdr0","pricing_plan_id":"cebpf4jnsgd1na2vs0mg"},{"bike_id":"77f0f942-cc19-4114-9693-f96851c5cf8b","system_id":"levelo_inurba_marseille","lat":43.31073,"lon":5.38352,"is_reserved":false,"is_disabled":false,"rental_uris":{"android":"levelo://app?vid=77f0f942-cc19-4114-9693-f96851c5cf8b","ios":"levelo://app?vid=77f0f942-cc19-4114-9693-f96851c5cf8b"},"vehicle_type_id":"4","last_reported":1730830335,"current_range_meters":16000,"station_id":"ce4bgv92rcd13ifvqcr0","pricing_plan_id":"cebpf4jnsgd1na2vs0mg"},{"bike_id":"22f830bf-04ce-4e8e-810d-e95b062642c5","system_id":"levelo_inurba_marseille","lat":43.30413,"lon":5.41292,"is_reserved":false,"is_disabled":false,"rental_uris":{"android":"levelo://app?vid=22f830bf-04ce-4e8e-810d-e95b062642c5","ios":"levelo://app?vid=22f830bf-04ce-4e8e-810d-e95b062642c5"},"vehicle_type_id":"4","last_reported":1730830335,"current_range_meters":10800,"station_id":"ce4bhop2rcd13ifvqh8g","pricing_plan_id":"cebpf4jnsgd1na2vs0mg"},{"bike_id":"3848f8b0-da28-4a46-a74c-63793e1aaedb","system_id":"levelo_inurba_marseille","lat":43.2917,"lon":5.37166,"is_reserved":false,"is_disabled":false,"rental_uris":{"android":"levelo://app?vid=3848f8b0-da28-4a46-a74c-63793e1aaedb","ios":"levelo://app?vid=3848f8b0-da28-4a46-a74c-63793e1aaedb"},"vehicle_type_id":"4","last_reported":1730830335,"current_range_meters":12000,"station_id":"ce4bha92rcd13ifvqeh0","pricing_plan_id":"cebpf4jnsgd1na2vs0mg"},{"bike_id":"f80ff310-6070-4bbc-8952-b9e1846ab14c","system_id":"levelo_inurba_marseille","lat":43.31458,"lon":5.38005,"is_reserved":false,"is_disabled":false,"rental_uris":{"android":"levelo://app?vid=f80ff310-6070-4bbc-8952-b9e1846ab14c","ios":"levelo://app?vid=f80ff310-6070-4bbc-8952-b9e1846ab14c"},"vehicle_type_id":"4","last_reported":1730830335,"current_range_meters":10000,"station_id":"ce4bhb12rcd13ifvqem0","pricing_plan_id":"cebpf4jnsgd1na2vs0mg"},{"bike_id":"115faa9b-d432-4765-b4c8-112a3cb07d60","system_id":"levelo_inurba_marseille","lat":43.31079,"lon":5.42433,"is_reserved":false,"is_disabled":false,"rental_uris":{"android":"levelo://app?vid=115faa9b-d432-4765-b4c8-112a3cb07d60","ios":"levelo://app?vid=115faa9b-d432-4765-b4c8-112a3cb07d60"},"vehicle_type_id":"4","last_reported":1730830335,"current_range_meters":3600,"station_id":"ce4bhp92rcd13ifvqhag","pricing_plan_id":"cebpf4jnsgd1na2vs0mg"},{"bike_id":"9a68e9d7-b735-48eb-a3f7-958fd0b4cbb1","system_id":"levelo_inurba_marseille","lat":43.27941,"lon":5.41056,"is_reserved":false,"is_disabled":false,"rental_uris":{"android":"levelo://app?vid=9a68e9d7-b735-48eb-a3f7-958fd0b4cbb1","ios":"levelo://app?vid=9a68e9d7-b735-48eb-a3f7-958fd0b4cbb1"},"vehicle_type_id":"4","last_reported":1730830335,"current_range_meters":11200,"station_id":"ce4bhnp2rcd13ifvqh0g","pricing_plan_id":"cebpf4jnsgd1na2vs0mg"},{"bike_id":"71ab47da-bfae-4dbc-83e1-967e92288ca2","system_id":"levelo_inurba_marseille","lat":43.29032,"lon":5.38649,"is_reserved":false,"is_disabled":false,"rental_uris":{"android":"levelo://app?vid=71ab47da-bfae-4dbc-83e1-967e92288ca2","ios":"levelo://app?vid=71ab47da-bfae-4dbc-83e1-967e92288ca2"},"vehicle_type_id":"4","last_reported":1730830335,"current_range_meters":11200,"station_id":"ce4bh4p2rcd13ifvqe0g","pricing_plan_id":"cebpf4jnsgd1na2vs0mg"},{"bike_id":"81dd6118-902d-445f-b072-0156814e491e","system_id":"levelo_inurba_marseille","lat":43.27611,"lon":5.36113,"is_reserved":false,"is_disabled":false,"rental_uris":{"android":"levelo://app?vid=81dd6118-902d-445f-b072-0156814e491e","ios":"levelo://app?vid=81dd6118-902d-445f-b072-0156814e491e"},"vehicle_type_id":"4","last_reported":1730830335,"current_range_meters":9200,"station_id":"ce4bgj92rcd13ifvqbe0","pricing_plan_id":"cebpf4jnsgd1na2vs0mg"},{"bike_id":"c18b774f-74f8-4877-a330-2e0d19de47dd","system_id":"levelo_inurba_marseille","lat":43.29512,"lon":5.3941,"is_reserved":false,"is_disabled":false,"rental_uris":{"android":"levelo://app?vid=c18b774f-74f8-4877-a330-2e0d19de47dd","ios":"levelo://app?vid=c18b774f-74f8-4877-a330-2e0d19de47dd"},"vehicle_type_id":"4","last_reported":1730830335,"current_range_meters":36400,"station_id":"ce4bh292rcd13ifvqdf0","pricing_plan_id":"cebpf4jnsgd1na2vs0mg"},{"bike_id":"44179ee3-aa41-452c-9603-895438cd38bb","system_id":"levelo_inurba_marseille","lat":43.30142,"lon":5.37422,"is_reserved":false,"is_disabled":false,"rental_uris":{"android":"levelo://app?vid=44179ee3-aa41-452c-9603-895438cd38bb","ios":"levelo://app?vid=44179ee3-aa41-452c-9603-895438cd38bb"},"vehicle_type_id":"4","last_reported":1730830335,"current_range_meters":6800,"station_id":"ce4bgs92rcd13ifvqcc0","pricing_plan_id":"cebpf4jnsgd1na2vs0mg"},{"bike_id":"c3cc4d3c-939d-4f3c-b1cc-4aa798cb58cc","system_id":"levelo_inurba_marseille","lat":43.28857,"lon":5.35863,"is_reserved":false,"is_disabled":false,"rental_uris":{"android":"levelo://app?vid=c3cc4d3c-939d-4f3c-b1cc-4aa798cb58cc","ios":"levelo://app?vid=c3cc4d3c-939d-4f3c-b1cc-4aa798cb58cc"},"vehicle_type_id":"4","last_reported":1730830335,"current_range_meters":3200,"station_id":"ce4bhb12rcd13ifvqem0","pricing_plan_id":"cebpf4jnsgd1na2vs0mg"},{"bike_id":"c8e44e12-42ed-4575-8f4a-3e0634530372","system_id":"levelo_inurba_marseille","lat":43.28462,"lon":5.35885,"is_reserved":false,"is_disabled":false,"rental_uris":{"android":"levelo://app?vid=c8e44e12-42ed-4575-8f4a-3e0634530372","ios":"levelo://app?vid=c8e44e12-42ed-4575-8f4a-3e0634530372"},"vehicle_type_id":"4","last_reported":1730830335,"current_range_meters":13600,"station_id":"ce4bhah2rcd13ifvqei0","pricing_plan_id":"cebpf4jnsgd1na2vs0mg"},{"bike_id":"7c367b9c-f541-4032-93ae-2fadf98cefc7","system_id":"levelo_inurba_marseille","lat":43.29007,"lon":5.35627,"is_reserved":false,"is_disabled":false,"rental_uris":{"android":"levelo://app?vid=7c367b9c-f541-4032-93ae-2fadf98cefc7","ios":"levelo://app?vid=7c367b9c-f541-4032-93ae-2fadf98cefc7"},"vehicle_type_id":"4","last_reported":1730830335,"current_range_meters":24400,"station_id":"ce4bhb92rcd13ifvqen0","pricing_plan_id":"cebpf4jnsgd1na2vs0mg"},{"bike_id":"990c4cc6-4f2c-4a0b-bf77-1f6a3f106100","system_id":"levelo_inurba_marseille","lat":43.33024,"lon":5.39042,"is_reserved":false,"is_disabled":false,"rental_uris":{"android":"levelo://app?vid=990c4cc6-4f2c-4a0b-bf77-1f6a3f106100","ios":"levelo://app?vid=990c4cc6-4f2c-4a0b-bf77-1f6a3f106100"},"vehicle_type_id":"4","last_reported":1730830335,"current_range_meters":11200,"station_id":"ce4bhr92rcd13ifvqhrg","pricing_plan_id":"cebpf4jnsgd1na2vs0mg"},{"bike_id":"0a3c1a6b-eadc-4e53-adb5-ce60bbc39060","system_id":"levelo_inurba_marseille","lat":43.33023,"lon":5.39039,"is_reserved":false,"is_disabled":false,"rental_uris":{"android":"levelo://app?vid=0a3c1a6b-eadc-4e53-adb5-ce60bbc39060","ios":"levelo://app?vid=0a3c1a6b-eadc-4e53-adb5-ce60bbc39060"},"vehicle_type_id":"4","last_reported":1730830335,"current_range_meters":38800,"station_id":"ce4bhr92rcd13ifvqhrg","pricing_plan_id":"cebpf4jnsgd1na2vs0mg"},{"bike_id":"f3e45c5c-029c-43bf-853a-7a5820c48051","system_id":"levelo_inurba_marseille","lat":43.2511,"lon":5.40327,"is_reserved":false,"is_disabled":false,"rental_uris":{"android":"levelo://app?vid=f3e45c5c-029c-43bf-853a-7a5820c48051","ios":"levelo://app?vid=f3e45c5c-029c-43bf-853a-7a5820c48051"},"vehicle_type_id":"4","last_reported":1730830335,"current_range_meters":11600,"station_id":"ce4bhlh2rcd13ifvqgig","pricing_plan_id":"cebpf4jnsgd1na2vs0mg"},{"bike_id":"137a2fcc-ba97-4cf6-993e-b970a732a3e8","system_id":"levelo_inurba_marseille","lat":43.280792,"lon":5.396571,"is_reserved":false,"is_disabled":false,"rental_uris":{"android":"levelo://app?vid=137a2fcc-ba97-4cf6-993e-b970a732a3e8","ios":"levelo://app?vid=137a2fcc-ba97-4cf6-993e-b970a732a3e8"},"vehicle_type_id":"4","last_reported":1730830335,"current_range_meters":16000,"station_id":"ce4bho12rcd13ifvqh2g","pricing_plan_id":"cebpf4jnsgd1na2vs0mg"},{"bike_id":"55bca261-064a-4426-a1ae-562e63924915","system_id":"levelo_inurba_marseille","lat":43.23157,"lon":5.43716,"is_reserved":false,"is_disabled":false,"rental_uris":{"android":"levelo://app?vid=55bca261-064a-4426-a1ae-562e63924915","ios":"levelo://app?vid=55bca261-064a-4426-a1ae-562e63924915"},"vehicle_type_id":"4","last_reported":1730830335,"current_range_meters":14800,"station_id":"ce4bhmp2rcd13ifvqgog","pricing_plan_id":"cebpf4jnsgd1na2vs0mg"},{"bike_id":"671ee801-ed83-4222-b723-723fea4dce62","system_id":"levelo_inurba_marseille","lat":43.278425,"lon":5.407183,"is_reserved":false,"is_disabled":false,"rental_uris":{"android":"levelo://app?vid=671ee801-ed83-4222-b723-723fea4dce62","ios":"levelo://app?vid=671ee801-ed83-4222-b723-723fea4dce62"},"vehicle_type_id":"4","last_reported":1730830335,"current_range_meters":34000,"station_id":"ce4bhnh2rcd13ifvqgtg","pricing_plan_id":"cebpf4jnsgd1na2vs0mg"},{"bike_id":"465c01c3-73c5-4472-ae53-7df0a73388c4","system_id":"levelo_inurba_marseille","lat":43.24666,"lon":5.38155,"is_reserved":false,"is_disabled":false,"rental_uris":{"android":"levelo://app?vid=465c01c3-73c5-4472-ae53-7df0a73388c4","ios":"levelo://app?vid=465c01c3-73c5-4472-ae53-7df0a73388c4"},"vehicle_type_id":"4","last_reported":1730830335,"current_range_meters":25200,"station_id":"ce4bhih2rcd13ifvqfr0","pricing_plan_id":"cebpf4jnsgd1na2vs0mg"},{"bike_id":"5d1b0053-67ee-432b-a497-7805f538e41e","system_id":"levelo_inurba_marseille","lat":43.30786,"lon":5.37649,"is_reserved":false,"is_disabled":false,"rental_uris":{"android":"levelo://app?vid=5d1b0053-67ee-432b-a497-7805f538e41e","ios":"levelo://app?vid=5d1b0053-67ee-432b-a497-7805f538e41e"},"vehicle_type_id":"4","last_reported":1730830335,"current_range_meters":39200,"station_id":"ce4bgv92rcd13ifvqcq0","pricing_plan_id":"cebpf4jnsgd1na2vs0mg"},{"bike_id":"f8432d9c-1eef-45f4-a51a-54e7eb8027ab","system_id":"levelo_inurba_marseille","lat":43.28352,"lon":5.3811,"is_reserved":false,"is_disabled":false,"rental_uris":{"android":"levelo://app?vid=f8432d9c-1eef-45f4-a51a-54e7eb8027ab","ios":"levelo://app?vid=f8432d9c-1eef-45f4-a51a-54e7eb8027ab"},"vehicle_type_id":"4","last_reported":1730830335,"current_range_meters":39200,"station_id":"ce4bh412rcd13ifvqdr0","pricing_plan_id":"cebpf4jnsgd1na2vs0mg"},{"bike_id":"e0d5c209-70f8-47fa-88dc-432ec91d15b3","system_id":"levelo_inurba_marseille","lat":43.28416,"lon":5.34983,"is_reserved":false,"is_disabled":false,"rental_uris":{"android":"levelo://app?vid=e0d5c209-70f8-47fa-88dc-432ec91d15b3","ios":"levelo://app?vid=e0d5c209-70f8-47fa-88dc-432ec91d15b3"},"vehicle_type_id":"4","last_reported":1730830335,"current_range_meters":32000,"station_id":"ce4bhbh2rcd13ifvqepg","pricing_plan_id":"cebpf4jnsgd1na2vs0mg"},{"bike_id":"3af6f239-a92f-4ff9-8395-3100ad9370c2","system_id":"levelo_inurba_marseille","lat":43.28928,"lon":5.384,"is_reserved":false,"is_disabled":false,"rental_uris":{"android":"levelo://app?vid=3af6f239-a92f-4ff9-8395-3100ad9370c2","ios":"levelo://app?vid=3af6f239-a92f-4ff9-8395-3100ad9370c2"},"vehicle_type_id":"4","last_reported":1730830335,"current_range_meters":23200,"station_id":"ce4bh612rcd13ifvqe6g","pricing_plan_id":"cebpf4jnsgd1na2vs0mg"},{"bike_id":"f3f92ce8-1cc2-4130-b4a0-7da88eca1b39","system_id":"levelo_inurba_marseille","lat":43.28938,"lon":5.36644,"is_reserved":false,"is_disabled":false,"rental_uris":{"android":"levelo://app?vid=f3f92ce8-1cc2-4130-b4a0-7da88eca1b39","ios":"levelo://app?vid=f3f92ce8-1cc2-4130-b4a0-7da88eca1b39"},"vehicle_type_id":"4","last_reported":1730830335,"current_range_meters":7200,"station_id":"ce4bhap2rcd13ifvqek0","pricing_plan_id":"cebpf4jnsgd1na2vs0mg"},{"bike_id":"fac798d2-c9b9-4d2d-b78c-c2735922f57f","system_id":"levelo_inurba_marseille","lat":43.28354,"lon":5.38108,"is_reserved":false,"is_disabled":false,"rental_uris":{"android":"levelo://app?vid=fac798d2-c9b9-4d2d-b78c-c2735922f57f","ios":"levelo://app?vid=fac798d2-c9b9-4d2d-b78c-c2735922f57f"},"vehicle_type_id":"4","last_reported":1730830335,"current_range_meters":39200,"station_id":"ce4bh412rcd13ifvqdr0","pricing_plan_id":"cebpf4jnsgd1na2vs0mg"},{"bike_id":"9048ebe6-0239-470a-af7d-c5634530ba1b","system_id":"levelo_inurba_marseille","lat":43.33024,"lon":5.39042,"is_reserved":false,"is_disabled":false,"rental_uris":{"android":"levelo://app?vid=9048ebe6-0239-470a-af7d-c5634530ba1b","ios":"levelo://app?vid=9048ebe6-0239-470a-af7d-c5634530ba1b"},"vehicle_type_id":"4","last_reported":1730830335,"current_range_meters":24800,"station_id":"ce4bhr92rcd13ifvqhrg","pricing_plan_id":"cebpf4jnsgd1na2vs0mg"},{"bike_id":"10e2d582-7a70-4bd2-be93-9125bb96da1e","system_id":"levelo_inurba_marseille","lat":43.2942,"lon":5.38629,"is_reserved":false,"is_disabled":false,"rental_uris":{"android":"levelo://app?vid=10e2d582-7a70-4bd2-be93-9125bb96da1e","ios":"levelo://app?vid=10e2d582-7a70-4bd2-be93-9125bb96da1e"},"vehicle_type_id":"4","last_reported":1730830335,"current_range_meters":39200,"station_id":"ce4bh2h2rcd13ifvqdh0","pricing_plan_id":"cebpf4jnsgd1na2vs0mg"},{"bike_id":"1d27b3a1-f13e-4920-8c40-27faf2c97a48","system_id":"levelo_inurba_marseille","lat":43.23194,"lon":5.35552,"is_reserved":false,"is_disabled":false,"rental_uris":{"android":"levelo://app?vid=1d27b3a1-f13e-4920-8c40-27faf2c97a48","ios":"levelo://app?vid=1d27b3a1-f13e-4920-8c40-27faf2c97a48"},"vehicle_type_id":"4","last_reported":1730830335,"current_range_meters":39200,"station_id":"ce4bhu92rcd13ifvqi70","pricing_plan_id":"cebpf4jnsgd1na2vs0mg"},{"bike_id":"89ae484b-81f4-410b-9871-73df13a1d6bf","system_id":"levelo_inurba_marseille","lat":43.30543,"lon":5.36554,"is_reserved":false,"is_disabled":false,"rental_uris":{"android":"levelo://app?vid=89ae484b-81f4-410b-9871-73df13a1d6bf","ios":"levelo://app?vid=89ae484b-81f4-410b-9871-73df13a1d6bf"},"vehicle_type_id":"4","last_reported":1730830335,"current_range_meters":5600,"station_id":"ce4bgs12rcd13ifvqcag","pricing_plan_id":"cebpf4jnsgd1na2vs0mg"},{"bike_id":"0e6adf64-635e-40e8-93e1-b384407d876d","system_id":"levelo_inurba_marseille","lat":43.29557,"lon":5.42293,"is_reserved":false,"is_disabled":false,"rental_uris":{"android":"levelo://app?vid=0e6adf64-635e-40e8-93e1-b384407d876d","ios":"levelo://app?vid=0e6adf64-635e-40e8-93e1-b384407d876d"},"vehicle_type_id":"4","last_reported":1730830335,"current_range_meters":38800,"station_id":"ce4bhph2rcd13ifvqhdg","pricing_plan_id":"cebpf4jnsgd1na2vs0mg"},{"bike_id":"685937f2-7c6a-43c0-8cf6-5ea70e71cfad","system_id":"levelo_inurba_marseille","lat":43.29023,"lon":5.38655,"is_reserved":false,"is_disabled":false,"rental_uris":{"android":"levelo://app?vid=685937f2-7c6a-43c0-8cf6-5ea70e71cfad","ios":"levelo://app?vid=685937f2-7c6a-43c0-8cf6-5ea70e71cfad"},"vehicle_type_id":"4","last_reported":1730830335,"current_range_meters":18000,"station_id":"ce4bh4p2rcd13ifvqe0g","pricing_plan_id":"cebpf4jnsgd1na2vs0mg"},{"bike_id":"49e275f2-bad0-424c-978e-65e679fd432f","system_id":"levelo_inurba_marseille","lat":43.29005,"lon":5.35621,"is_reserved":false,"is_disabled":false,"rental_uris":{"android":"levelo://app?vid=49e275f2-bad0-424c-978e-65e679fd432f","ios":"levelo://app?vid=49e275f2-bad0-424c-978e-65e679fd432f"},"vehicle_type_id":"4","last_reported":1730830335,"current_range_meters":31200,"station_id":"ce4bhb92rcd13ifvqen0","pricing_plan_id":"cebpf4jnsgd1na2vs0mg"},{"bike_id":"02dfbd59-52ed-44f7-9c67-53d6653455dd","system_id":"levelo_inurba_marseille","lat":43.31752,"lon":5.39028,"is_reserved":false,"is_disabled":false,"rental_uris":{"android":"levelo://app?vid=02dfbd59-52ed-44f7-9c67-53d6653455dd","ios":"levelo://app?vid=02dfbd59-52ed-44f7-9c67-53d6653455dd"},"vehicle_type_id":"4","last_reported":1730830335,"current_range_meters":15200,"station_id":"ce4bhqp2rcd13ifvqhng","pricing_plan_id":"cebpf4jnsgd1na2vs0mg"},{"bike_id":"f5033d83-6147-47c4-a75d-061db81f2568","system_id":"levelo_inurba_marseille","lat":43.30134,"lon":5.39877,"is_reserved":false,"is_disabled":false,"rental_uris":{"android":"levelo://app?vid=f5033d83-6147-47c4-a75d-061db81f2568","ios":"levelo://app?vid=f5033d83-6147-47c4-a75d-061db81f2568"},"vehicle_type_id":"4","last_reported":1730830335,"current_range_meters":9200,"station_id":"ce4bh0h2rcd13ifvqd40","pricing_plan_id":"cebpf4jnsgd1na2vs0mg"},{"bike_id":"dda0ab10-f2a2-45f5-9271-e032dbc6687a","system_id":"levelo_inurba_marseille","lat":43.30788,"lon":5.37663,"is_reserved":false,"is_disabled":false,"rental_uris":{"android":"levelo://app?vid=dda0ab10-f2a2-45f5-9271-e032dbc6687a","ios":"levelo://app?vid=dda0ab10-f2a2-45f5-9271-e032dbc6687a"},"vehicle_type_id":"4","last_reported":1730830335,"current_range_meters":38800,"station_id":"ce4bgv92rcd13ifvqcq0","pricing_plan_id":"cebpf4jnsgd1na2vs0mg"},{"bike_id":"e7874ce2-f692-46c5-87b4-56890b100158","system_id":"levelo_inurba_marseille","lat":43.23064,"lon":5.35496,"is_reserved":false,"is_disabled":false,"rental_uris":{"android":"levelo://app?vid=e7874ce2-f692-46c5-87b4-56890b100158","ios":"levelo://app?vid=e7874ce2-f692-46c5-87b4-56890b100158"},"vehicle_type_id":"4","last_reported":1730830335,"current_range_meters":38800,"station_id":"cpo3342slgdg3j2ifvpg","pricing_plan_id":"cebpf4jnsgd1na2vs0mg"},{"bike_id":"4908b93b-b8f7-4c9c-90ac-e0b6fe0f0158","system_id":"levelo_inurba_marseille","lat":43.25582,"lon":5.38234,"is_reserved":false,"is_disabled":false,"rental_uris":{"android":"levelo://app?vid=4908b93b-b8f7-4c9c-90ac-e0b6fe0f0158","ios":"levelo://app?vid=4908b93b-b8f7-4c9c-90ac-e0b6fe0f0158"},"vehicle_type_id":"4","last_reported":1730830335,"current_range_meters":7200,"station_id":"ce4bhih2rcd13ifvqfs0","pricing_plan_id":"cebpf4jnsgd1na2vs0mg"},{"bike_id":"9e92e0a4-32ca-4ccb-b90a-82e082d60445","system_id":"levelo_inurba_marseille","lat":43.30791,"lon":5.38172,"is_reserved":false,"is_disabled":false,"rental_uris":{"android":"levelo://app?vid=9e92e0a4-32ca-4ccb-b90a-82e082d60445","ios":"levelo://app?vid=9e92e0a4-32ca-4ccb-b90a-82e082d60445"},"vehicle_type_id":"4","last_reported":1730830335,"current_range_meters":36400,"station_id":"ce4bgt12rcd13ifvqce0","pricing_plan_id":"cebpf4jnsgd1na2vs0mg"},{"bike_id":"fd1abb3d-d57e-4f4d-baed-e182ae4f3057","system_id":"levelo_inurba_marseille","lat":43.28459,"lon":5.35886,"is_reserved":false,"is_disabled":false,"rental_uris":{"android":"levelo://app?vid=fd1abb3d-d57e-4f4d-baed-e182ae4f3057","ios":"levelo://app?vid=fd1abb3d-d57e-4f4d-baed-e182ae4f3057"},"vehicle_type_id":"4","last_reported":1730830335,"current_range_meters":11600,"station_id":"ce4bhah2rcd13ifvqei0","pricing_plan_id":"cebpf4jnsgd1na2vs0mg"},{"bike_id":"eddde41b-d951-429b-8451-a8c01c9e5dd6","system_id":"levelo_inurba_marseille","lat":43.30782,"lon":5.37659,"is_reserved":false,"is_disabled":false,"rental_uris":{"android":"levelo://app?vid=eddde41b-d951-429b-8451-a8c01c9e5dd6","ios":"levelo://app?vid=eddde41b-d951-429b-8451-a8c01c9e5dd6"},"vehicle_type_id":"4","last_reported":1730830335,"current_range_meters":38800,"station_id":"","pricing_plan_id":"cebpf4jnsgd1na2vs0mg"},{"bike_id":"bb34b8ac-ec1f-46cd-bf7c-f5d3194c7b8b","system_id":"levelo_inurba_marseille","lat":43.30342,"lon":5.378995,"is_reserved":false,"is_disabled":false,"rental_uris":{"android":"levelo://app?vid=bb34b8ac-ec1f-46cd-bf7c-f5d3194c7b8b","ios":"levelo://app?vid=bb34b8ac-ec1f-46cd-bf7c-f5d3194c7b8b"},"vehicle_type_id":"4","last_reported":1730830335,"current_range_meters":36800,"station_id":"ce4bguh2rcd13ifvqcj0","pricing_plan_id":"cebpf4jnsgd1na2vs0mg"},{"bike_id":"eab47ed5-f83a-4939-80d1-ff052743bdd1","system_id":"levelo_inurba_marseille","lat":43.32104,"lon":5.36781,"is_reserved":false,"is_disabled":false,"rental_uris":{"android":"levelo://app?vid=eab47ed5-f83a-4939-80d1-ff052743bdd1","ios":"levelo://app?vid=eab47ed5-f83a-4939-80d1-ff052743bdd1"},"vehicle_type_id":"4","last_reported":1730830335,"current_range_meters":30000,"station_id":"ce4bhrh2rcd13ifvqhug","pricing_plan_id":"cebpf4jnsgd1na2vs0mg"},{"bike_id":"e1cbc38d-9a3d-40cc-afc5-73933d53d4de","system_id":"levelo_inurba_marseille","lat":43.26955,"lon":5.3864,"is_reserved":false,"is_disabled":false,"rental_uris":{"android":"levelo://app?vid=e1cbc38d-9a3d-40cc-afc5-73933d53d4de","ios":"levelo://app?vid=e1cbc38d-9a3d-40cc-afc5-73933d53d4de"},"vehicle_type_id":"4","last_reported":1730830335,"current_range_meters":4800,"station_id":"ce4bhh92rcd13ifvqfh0","pricing_plan_id":"cebpf4jnsgd1na2vs0mg"},{"bike_id":"2fac616e-c10f-4b93-9777-09eb2ba8f7e5","system_id":"levelo_inurba_marseille","lat":43.32482,"lon":5.36577,"is_reserved":false,"is_disabled":false,"rental_uris":{"android":"levelo://app?vid=2fac616e-c10f-4b93-9777-09eb2ba8f7e5","ios":"levelo://app?vid=2fac616e-c10f-4b93-9777-09eb2ba8f7e5"},"vehicle_type_id":"4","last_reported":1730830335,"current_range_meters":38800,"station_id":"ce4bhs12rcd13ifvqhvg","pricing_plan_id":"cebpf4jnsgd1na2vs0mg"},{"bike_id":"e0c43649-0759-4203-a82c-c0bcd301cdf7","system_id":"levelo_inurba_marseille","lat":43.28951,"lon":5.3641,"is_reserved":false,"is_disabled":false,"rental_uris":{"android":"levelo://app?vid=e0c43649-0759-4203-a82c-c0bcd301cdf7","ios":"levelo://app?vid=e0c43649-0759-4203-a82c-c0bcd301cdf7"},"vehicle_type_id":"4","last_reported":1730830335,"current_range_meters":22400,"station_id":"ce4bhc92rcd13ifvqetg","pricing_plan_id":"cebpf4jnsgd1na2vs0mg"},{"bike_id":"f5e26065-e52c-42f7-853b-be84294d1a9b","system_id":"levelo_inurba_marseille","lat":43.28861,"lon":5.35862,"is_reserved":false,"is_disabled":false,"rental_uris":{"android":"levelo://app?vid=f5e26065-e52c-42f7-853b-be84294d1a9b","ios":"levelo://app?vid=f5e26065-e52c-42f7-853b-be84294d1a9b"},"vehicle_type_id":"4","last_reported":1730830335,"current_range_meters":3600,"station_id":"ce4bhb12rcd13ifvqem0","pricing_plan_id":"cebpf4jnsgd1na2vs0mg"},{"bike_id":"25542e75-adb5-4a18-9ebe-1248e9872f76","system_id":"levelo_inurba_marseille","lat":43.30401,"lon":5.41152,"is_reserved":false,"is_disabled":false,"rental_uris":{"android":"levelo://app?vid=25542e75-adb5-4a18-9ebe-1248e9872f76","ios":"levelo://app?vid=25542e75-adb5-4a18-9ebe-1248e9872f76"},"vehicle_type_id":"4","last_reported":1730830335,"current_range_meters":32800,"station_id":"ce4bhph2rcd13ifvqheg","pricing_plan_id":"cebpf4jnsgd1na2vs0mg"},{"bike_id":"2d169b9d-983f-4f06-a164-81f0ea0b163d","system_id":"levelo_inurba_marseille","lat":43.26204,"lon":5.37931,"is_reserved":false,"is_disabled":false,"rental_uris":{"android":"levelo://app?vid=2d169b9d-983f-4f06-a164-81f0ea0b163d","ios":"levelo://app?vid=2d169b9d-983f-4f06-a164-81f0ea0b163d"},"vehicle_type_id":"4","last_reported":1730830335,"current_range_meters":16000,"station_id":"ce4bhjp2rcd13ifvqg90","pricing_plan_id":"cebpf4jnsgd1na2vs0mg"},{"bike_id":"87644b22-76f7-4cdd-83a8-ec540b0bd8c6","system_id":"levelo_inurba_marseille","lat":43.29599,"lon":5.38102,"is_reserved":false,"is_disabled":false,"rental_uris":{"android":"levelo://app?vid=87644b22-76f7-4cdd-83a8-ec540b0bd8c6","ios":"levelo://app?vid=87644b22-76f7-4cdd-83a8-ec540b0bd8c6"},"vehicle_type_id":"4","last_reported":1730830335,"current_range_meters":2000,"station_id":"ce4bgl12rcd13ifvqbo0","pricing_plan_id":"cebpf4jnsgd1na2vs0mg"},{"bike_id":"0f6d12a9-175f-47aa-8f4c-feb57a1064a3","system_id":"levelo_inurba_marseille","lat":43.25577,"lon":5.3824,"is_reserved":false,"is_disabled":false,"rental_uris":{"android":"levelo://app?vid=0f6d12a9-175f-47aa-8f4c-feb57a1064a3","ios":"levelo://app?vid=0f6d12a9-175f-47aa-8f4c-feb57a1064a3"},"vehicle_type_id":"4","last_reported":1730830335,"current_range_meters":23200,"station_id":"ce4bhih2rcd13ifvqfs0","pricing_plan_id":"cebpf4jnsgd1na2vs0mg"},{"bike_id":"98cef258-eb9e-4ec9-9913-db8f1dbd9527","system_id":"levelo_inurba_marseille","lat":43.31323,"lon":5.39694,"is_reserved":false,"is_disabled":false,"rental_uris":{"android":"levelo://app?vid=98cef258-eb9e-4ec9-9913-db8f1dbd9527","ios":"levelo://app?vid=98cef258-eb9e-4ec9-9913-db8f1dbd9527"},"vehicle_type_id":"4","last_reported":1730830335,"current_range_meters":9200,"station_id":"ce4bgvp2rcd13ifvqcu0","pricing_plan_id":"cebpf4jnsgd1na2vs0mg"},{"bike_id":"ce22ecb4-987f-4e6b-93ed-35ee6f8e82a8","system_id":"levelo_inurba_marseille","lat":43.2657,"lon":5.39012,"is_reserved":false,"is_disabled":false,"rental_uris":{"android":"levelo://app?vid=ce22ecb4-987f-4e6b-93ed-35ee6f8e82a8","ios":"levelo://app?vid=ce22ecb4-987f-4e6b-93ed-35ee6f8e82a8"},"vehicle_type_id":"4","last_reported":1730830335,"current_range_meters":10000,"station_id":"ce4bhe12rcd13ifvqf30","pricing_plan_id":"cebpf4jnsgd1na2vs0mg"},{"bike_id":"88338970-6fd3-491d-b31a-a93eacb1e7c2","system_id":"levelo_inurba_marseille","lat":43.30649,"lon":5.40085,"is_reserved":false,"is_disabled":false,"rental_uris":{"android":"levelo://app?vid=88338970-6fd3-491d-b31a-a93eacb1e7c2","ios":"levelo://app?vid=88338970-6fd3-491d-b31a-a93eacb1e7c2"},"vehicle_type_id":"4","last_reported":1730830335,"current_range_meters":38800,"station_id":"ce4bh112rcd13ifvqda0","pricing_plan_id":"cebpf4jnsgd1na2vs0mg"},{"bike_id":"fbe3f7e4-d7c4-444d-9f29-57814bee6bc7","system_id":"levelo_inurba_marseille","lat":43.28616,"lon":5.35106,"is_reserved":false,"is_disabled":false,"rental_uris":{"android":"levelo://app?vid=fbe3f7e4-d7c4-444d-9f29-57814bee6bc7","ios":"levelo://app?vid=fbe3f7e4-d7c4-444d-9f29-57814bee6bc7"},"vehicle_type_id":"4","last_reported":1730830335,"current_range_meters":7200,"station_id":"ce4bhch2rcd13ifvqeug","pricing_plan_id":"cebpf4jnsgd1na2vs0mg"},{"bike_id":"93a83a5c-0d3d-43a2-be24-e99a92c3575d","system_id":"levelo_inurba_marseille","lat":43.30841,"lon":5.37107,"is_reserved":false,"is_disabled":false,"rental_uris":{"android":"levelo://app?vid=93a83a5c-0d3d-43a2-be24-e99a92c3575d","ios":"levelo://app?vid=93a83a5c-0d3d-43a2-be24-e99a92c3575d"},"vehicle_type_id":"4","last_reported":1730830335,"current_range_meters":11600,"station_id":"ce4bguh2rcd13ifvqckg","pricing_plan_id":"cebpf4jnsgd1na2vs0mg"},{"bike_id":"6889b108-5c02-448f-a9f4-d65743d9eda9","system_id":"levelo_inurba_marseille","lat":43.29262,"lon":5.3844,"is_reserved":false,"is_disabled":false,"rental_uris":{"android":"levelo://app?vid=6889b108-5c02-448f-a9f4-d65743d9eda9","ios":"levelo://app?vid=6889b108-5c02-448f-a9f4-d65743d9eda9"},"vehicle_type_id":"4","last_reported":1730830335,"current_range_meters":18800,"station_id":"ce4bh692rcd13ifvqea0","pricing_plan_id":"cebpf4jnsgd1na2vs0mg"},{"bike_id":"61fdf647-d58a-4fbd-bfc7-2b1b808d286c","system_id":"levelo_inurba_marseille","lat":43.33021,"lon":5.39045,"is_reserved":false,"is_disabled":false,"rental_uris":{"android":"levelo://app?vid=61fdf647-d58a-4fbd-bfc7-2b1b808d286c","ios":"levelo://app?vid=61fdf647-d58a-4fbd-bfc7-2b1b808d286c"},"vehicle_type_id":"4","last_reported":1730830335,"current_range_meters":28000,"station_id":"ce4bhr92rcd13ifvqhrg","pricing_plan_id":"cebpf4jnsgd1na2vs0mg"},{"bike_id":"641d4339-0b38-4c1e-8ba8-407fce4f7775","system_id":"levelo_inurba_marseille","lat":43.23153,"lon":5.43706,"is_reserved":false,"is_disabled":false,"rental_uris":{"android":"levelo://app?vid=641d4339-0b38-4c1e-8ba8-407fce4f7775","ios":"levelo://app?vid=641d4339-0b38-4c1e-8ba8-407fce4f7775"},"vehicle_type_id":"4","last_reported":1730830335,"current_range_meters":5600,"station_id":"ce4bhmp2rcd13ifvqgog","pricing_plan_id":"cebpf4jnsgd1na2vs0mg"},{"bike_id":"9baafc20-eb9b-4933-8ebc-71eff2213a16","system_id":"levelo_inurba_marseille","lat":43.32365,"lon":5.38887,"is_reserved":false,"is_disabled":false,"rental_uris":{"android":"levelo://app?vid=9baafc20-eb9b-4933-8ebc-71eff2213a16","ios":"levelo://app?vid=9baafc20-eb9b-4933-8ebc-71eff2213a16"},"vehicle_type_id":"4","last_reported":1730830335,"current_range_meters":21600,"station_id":"ce4bhqp2rcd13ifvqhog","pricing_plan_id":"cebpf4jnsgd1na2vs0mg"},{"bike_id":"11d3eadb-31e4-4c0b-9661-0df41629177c","system_id":"levelo_inurba_marseille","lat":43.29867,"lon":5.39745,"is_reserved":false,"is_disabled":false,"rental_uris":{"android":"levelo://app?vid=11d3eadb-31e4-4c0b-9661-0df41629177c","ios":"levelo://app?vid=11d3eadb-31e4-4c0b-9661-0df41629177c"},"vehicle_type_id":"4","last_reported":1730830335,"current_range_meters":38800,"station_id":"ce4bh0h2rcd13ifvqd50","pricing_plan_id":"cebpf4jnsgd1na2vs0mg"},{"bike_id":"fbcdc7b2-b30c-480b-8f1c-b0fd37e951db","system_id":"levelo_inurba_marseille","lat":43.2465,"lon":5.38897,"is_reserved":false,"is_disabled":false,"rental_uris":{"android":"levelo://app?vid=fbcdc7b2-b30c-480b-8f1c-b0fd37e951db","ios":"levelo://app?vid=fbcdc7b2-b30c-480b-8f1c-b0fd37e951db"},"vehicle_type_id":"4","last_reported":1730830335,"current_range_meters":38800,"station_id":"ce4bhg12rcd13ifvqf60","pricing_plan_id":"cebpf4jnsgd1na2vs0mg"},{"bike_id":"948160dd-bdb2-4a10-a11c-20ead003ef64","system_id":"levelo_inurba_marseille","lat":43.28154,"lon":5.42646,"is_reserved":false,"is_disabled":false,"rental_uris":{"android":"levelo://app?vid=948160dd-bdb2-4a10-a11c-20ead003ef64","ios":"levelo://app?vid=948160dd-bdb2-4a10-a11c-20ead003ef64"},"vehicle_type_id":"4","last_reported":1730830335,"current_range_meters":27600,"station_id":"ce4bhnh2rcd13ifvqgug","pricing_plan_id":"cebpf4jnsgd1na2vs0mg"},{"bike_id":"f6b43df0-fe7d-468a-9bd7-2c5d08ec64ae","system_id":"levelo_inurba_marseille","lat":43.29004,"lon":5.35617,"is_reserved":false,"is_disabled":false,"rental_uris":{"android":"levelo://app?vid=f6b43df0-fe7d-468a-9bd7-2c5d08ec64ae","ios":"levelo://app?vid=f6b43df0-fe7d-468a-9bd7-2c5d08ec64ae"},"vehicle_type_id":"4","last_reported":1730830335,"current_range_meters":36000,"station_id":"ce4bhb92rcd13ifvqen0","pricing_plan_id":"cebpf4jnsgd1na2vs0mg"},{"bike_id":"9e0583b8-b6f3-4cc3-b5fc-5ab1a220e9e3","system_id":"levelo_inurba_marseille","lat":43.28904,"lon":5.38191,"is_reserved":false,"is_disabled":false,"rental_uris":{"android":"levelo://app?vid=9e0583b8-b6f3-4cc3-b5fc-5ab1a220e9e3","ios":"levelo://app?vid=9e0583b8-b6f3-4cc3-b5fc-5ab1a220e9e3"},"vehicle_type_id":"4","last_reported":1730830335,"current_range_meters":10000,"station_id":"","pricing_plan_id":"cebpf4jnsgd1na2vs0mg"},{"bike_id":"cd27d9bd-260b-4bdd-86a7-47a43e192be8","system_id":"levelo_inurba_marseille","lat":43.336097,"lon":5.410263,"is_reserved":false,"is_disabled":false,"rental_uris":{"android":"levelo://app?vid=cd27d9bd-260b-4bdd-86a7-47a43e192be8","ios":"levelo://app?vid=cd27d9bd-260b-4bdd-86a7-47a43e192be8"},"vehicle_type_id":"4","last_reported":1730830335,"current_range_meters":14400,"station_id":"ce4bhqh2rcd13ifvqhmg","pricing_plan_id":"cebpf4jnsgd1na2vs0mg"},{"bike_id":"ae0b390c-a9c9-4b2a-8f82-406c4e21cdcd","system_id":"levelo_inurba_marseille","lat":43.29736,"lon":5.35951,"is_reserved":false,"is_disabled":false,"rental_uris":{"android":"levelo://app?vid=ae0b390c-a9c9-4b2a-8f82-406c4e21cdcd","ios":"levelo://app?vid=ae0b390c-a9c9-4b2a-8f82-406c4e21cdcd"},"vehicle_type_id":"4","last_reported":1730830335,"current_range_meters":17200,"station_id":"","pricing_plan_id":"cebpf4jnsgd1na2vs0mg"},{"bike_id":"fcdde22a-60f3-414c-845f-84914f17a6f5","system_id":"levelo_inurba_marseille","lat":43.29541,"lon":5.38559,"is_reserved":false,"is_disabled":false,"rental_uris":{"android":"levelo://app?vid=fcdde22a-60f3-414c-845f-84914f17a6f5","ios":"levelo://app?vid=fcdde22a-60f3-414c-845f-84914f17a6f5"},"vehicle_type_id":"4","last_reported":1730830335,"current_range_meters":7200,"station_id":"ce4bgih2rcd13ifvqba0","pricing_plan_id":"cebpf4jnsgd1na2vs0mg"},{"bike_id":"d74360a7-cce2-4782-982b-e9593aa5d07d","system_id":"levelo_inurba_marseille","lat":43.31321,"lon":5.39695,"is_reserved":false,"is_disabled":false,"rental_uris":{"android":"levelo://app?vid=d74360a7-cce2-4782-982b-e9593aa5d07d","ios":"levelo://app?vid=d74360a7-cce2-4782-982b-e9593aa5d07d"},"vehicle_type_id":"4","last_reported":1730830335,"current_range_meters":36400,"station_id":"ce4bgvp2rcd13ifvqcu0","pricing_plan_id":"cebpf4jnsgd1na2vs0mg"},{"bike_id":"178fe328-80af-4d1e-acb2-a832849dd19a","system_id":"levelo_inurba_marseille","lat":43.29005,"lon":5.3562,"is_reserved":false,"is_disabled":false,"rental_uris":{"android":"levelo://app?vid=178fe328-80af-4d1e-acb2-a832849dd19a","ios":"levelo://app?vid=178fe328-80af-4d1e-acb2-a832849dd19a"},"vehicle_type_id":"4","last_reported":1730830335,"current_range_meters":10800,"station_id":"ce4bhb92rcd13ifvqen0","pricing_plan_id":"cebpf4jnsgd1na2vs0mg"},{"bike_id":"ee3dd233-0660-4e6d-9713-86e3cd8ee2a1","system_id":"levelo_inurba_marseille","lat":43.330379,"lon":5.390356,"is_reserved":false,"is_disabled":false,"rental_uris":{"android":"levelo://app?vid=ee3dd233-0660-4e6d-9713-86e3cd8ee2a1","ios":"levelo://app?vid=ee3dd233-0660-4e6d-9713-86e3cd8ee2a1"},"vehicle_type_id":"4","last_reported":1730830335,"current_range_meters":38800,"station_id":"ce4bhr92rcd13ifvqhrg","pricing_plan_id":"cebpf4jnsgd1na2vs0mg"},{"bike_id":"3e7b020f-1a1c-4d8f-b51a-584b91b69cb2","system_id":"levelo_inurba_marseille","lat":43.3111,"lon":5.37785,"is_reserved":false,"is_disabled":false,"rental_uris":{"android":"levelo://app?vid=3e7b020f-1a1c-4d8f-b51a-584b91b69cb2","ios":"levelo://app?vid=3e7b020f-1a1c-4d8f-b51a-584b91b69cb2"},"vehicle_type_id":"4","last_reported":1730830335,"current_range_meters":39200,"station_id":"ce4bgt92rcd13ifvqcg0","pricing_plan_id":"cebpf4jnsgd1na2vs0mg"},{"bike_id":"4fd336fb-ec63-4d09-84d4-45cf143f4508","system_id":"levelo_inurba_marseille","lat":43.3133,"lon":5.39705,"is_reserved":false,"is_disabled":false,"rental_uris":{"android":"levelo://app?vid=4fd336fb-ec63-4d09-84d4-45cf143f4508","ios":"levelo://app?vid=4fd336fb-ec63-4d09-84d4-45cf143f4508"},"vehicle_type_id":"4","last_reported":1730830335,"current_range_meters":37600,"station_id":"ce4bgvp2rcd13ifvqcu0","pricing_plan_id":"cebpf4jnsgd1na2vs0mg"},{"bike_id":"365c5040-7d1d-4eb1-babe-52fab0f58c0f","system_id":"levelo_inurba_marseille","lat":43.28267,"lon":5.35077,"is_reserved":false,"is_disabled":false,"rental_uris":{"android":"levelo://app?vid=365c5040-7d1d-4eb1-babe-52fab0f58c0f","ios":"levelo://app?vid=365c5040-7d1d-4eb1-babe-52fab0f58c0f"},"vehicle_type_id":"4","last_reported":1730830335,"current_range_meters":9200,"station_id":"ce4bhbp2rcd13ifvqerg","pricing_plan_id":"cebpf4jnsgd1na2vs0mg"},{"bike_id":"e8c99fc2-ad9b-4645-a939-c10d252f1e66","system_id":"levelo_inurba_marseille","lat":43.2842,"lon":5.34976,"is_reserved":false,"is_disabled":false,"rental_uris":{"android":"levelo://app?vid=e8c99fc2-ad9b-4645-a939-c10d252f1e66","ios":"levelo://app?vid=e8c99fc2-ad9b-4645-a939-c10d252f1e66"},"vehicle_type_id":"4","last_reported":1730830335,"current_range_meters":19600,"station_id":"ce4bhbh2rcd13ifvqepg","pricing_plan_id":"cebpf4jnsgd1na2vs0mg"},{"bike_id":"f649428b-98b1-435f-ba5e-682e5b3a98c9","system_id":"levelo_inurba_marseille","lat":43.30319,"lon":5.4044,"is_reserved":false,"is_disabled":false,"rental_uris":{"android":"levelo://app?vid=f649428b-98b1-435f-ba5e-682e5b3a98c9","ios":"levelo://app?vid=f649428b-98b1-435f-ba5e-682e5b3a98c9"},"vehicle_type_id":"4","last_reported":1730830335,"current_range_meters":9600,"station_id":"ce4bh012rcd13ifvqd10","pricing_plan_id":"cebpf4jnsgd1na2vs0mg"},{"bike_id":"ef0a1b7c-9107-49ba-80d7-e4f1cb43f1e9","system_id":"levelo_inurba_marseille","lat":43.3056,"lon":5.36569,"is_reserved":false,"is_disabled":false,"rental_uris":{"android":"levelo://app?vid=ef0a1b7c-9107-49ba-80d7-e4f1cb43f1e9","ios":"levelo://app?vid=ef0a1b7c-9107-49ba-80d7-e4f1cb43f1e9"},"vehicle_type_id":"4","last_reported":1730830335,"current_range_meters":37600,"station_id":"ce4bgs12rcd13ifvqcag","pricing_plan_id":"cebpf4jnsgd1na2vs0mg"},{"bike_id":"6522f60b-5a28-4f1b-aa41-d3621d440e80","system_id":"levelo_inurba_marseille","lat":43.23175,"lon":5.39989,"is_reserved":false,"is_disabled":false,"rental_uris":{"android":"levelo://app?vid=6522f60b-5a28-4f1b-aa41-d3621d440e80","ios":"levelo://app?vid=6522f60b-5a28-4f1b-aa41-d3621d440e80"},"vehicle_type_id":"4","last_reported":1730830335,"current_range_meters":33600,"station_id":"ce4bhn12rcd13ifvqgqg","pricing_plan_id":"cebpf4jnsgd1na2vs0mg"},{"bike_id":"fb3dfc3d-c52f-4831-a711-d169d8978519","system_id":"levelo_inurba_marseille","lat":43.2861,"lon":5.3707,"is_reserved":false,"is_disabled":false,"rental_uris":{"android":"levelo://app?vid=fb3dfc3d-c52f-4831-a711-d169d8978519","ios":"levelo://app?vid=fb3dfc3d-c52f-4831-a711-d169d8978519"},"vehicle_type_id":"4","last_reported":1730830335,"current_range_meters":16000,"station_id":"ce4bht12rcd13ifvqi60","pricing_plan_id":"cebpf4jnsgd1na2vs0mg"},{"bike_id":"d8ae0ddd-b6b6-4115-8ca9-406f76ab8048","system_id":"levelo_inurba_marseille","lat":43.30777,"lon":5.37655,"is_reserved":false,"is_disabled":false,"rental_uris":{"android":"levelo://app?vid=d8ae0ddd-b6b6-4115-8ca9-406f76ab8048","ios":"levelo://app?vid=d8ae0ddd-b6b6-4115-8ca9-406f76ab8048"},"vehicle_type_id":"4","last_reported":1730830335,"current_range_meters":38800,"station_id":"ce4bgv92rcd13ifvqcq0","pricing_plan_id":"cebpf4jnsgd1na2vs0mg"},{"bike_id":"20adb70f-a73a-4b0d-8148-3fe9fdf08539","system_id":"levelo_inurba_marseille","lat":43.32361,"lon":5.38887,"is_reserved":false,"is_disabled":false,"rental_uris":{"android":"levelo://app?vid=20adb70f-a73a-4b0d-8148-3fe9fdf08539","ios":"levelo://app?vid=20adb70f-a73a-4b0d-8148-3fe9fdf08539"},"vehicle_type_id":"4","last_reported":1730830335,"current_range_meters":24000,"station_id":"ce4bhqp2rcd13ifvqhog","pricing_plan_id":"cebpf4jnsgd1na2vs0mg"},{"bike_id":"6ac9de7d-e5be-4c5e-85b2-c763290dc61e","system_id":"levelo_inurba_marseille","lat":43.28151,"lon":5.42647,"is_reserved":false,"is_disabled":false,"rental_uris":{"android":"levelo://app?vid=6ac9de7d-e5be-4c5e-85b2-c763290dc61e","ios":"levelo://app?vid=6ac9de7d-e5be-4c5e-85b2-c763290dc61e"},"vehicle_type_id":"4","last_reported":1730830335,"current_range_meters":30000,"station_id":"ce4bhnh2rcd13ifvqgug","pricing_plan_id":"cebpf4jnsgd1na2vs0mg"},{"bike_id":"1a8c5844-8cbe-4fd1-a7f4-7b0efe210728","system_id":"levelo_inurba_marseille","lat":43.29177,"lon":5.42687,"is_reserved":false,"is_disabled":false,"rental_uris":{"android":"levelo://app?vid=1a8c5844-8cbe-4fd1-a7f4-7b0efe210728","ios":"levelo://app?vid=1a8c5844-8cbe-4fd1-a7f4-7b0efe210728"},"vehicle_type_id":"4","last_reported":1730830335,"current_range_meters":16800,"station_id":"","pricing_plan_id":"cebpf4jnsgd1na2vs0mg"},{"bike_id":"372fd802-8756-4c03-8ab2-c727df0de424","system_id":"levelo_inurba_marseille","lat":43.30211,"lon":5.39471,"is_reserved":false,"is_disabled":false,"rental_uris":{"android":"levelo://app?vid=372fd802-8756-4c03-8ab2-c727df0de424","ios":"levelo://app?vid=372fd802-8756-4c03-8ab2-c727df0de424"},"vehicle_type_id":"4","last_reported":1730830335,"current_range_meters":38800,"station_id":"ce4bh0p2rcd13ifvqd70","pricing_plan_id":"cebpf4jnsgd1na2vs0mg"},{"bike_id":"72d07826-bc57-47d8-9762-792b2e4964a6","system_id":"levelo_inurba_marseille","lat":43.26941,"lon":5.38643,"is_reserved":false,"is_disabled":false,"rental_uris":{"android":"levelo://app?vid=72d07826-bc57-47d8-9762-792b2e4964a6","ios":"levelo://app?vid=72d07826-bc57-47d8-9762-792b2e4964a6"},"vehicle_type_id":"4","last_reported":1730830335,"current_range_meters":24000,"station_id":"ce4bhh92rcd13ifvqfh0","pricing_plan_id":"cebpf4jnsgd1na2vs0mg"},{"bike_id":"d446a74b-d15f-471d-82a9-94d59c60d410","system_id":"levelo_inurba_marseille","lat":43.29417,"lon":5.38621,"is_reserved":false,"is_disabled":false,"rental_uris":{"android":"levelo://app?vid=d446a74b-d15f-471d-82a9-94d59c60d410","ios":"levelo://app?vid=d446a74b-d15f-471d-82a9-94d59c60d410"},"vehicle_type_id":"4","last_reported":1730830335,"current_range_meters":25600,"station_id":"ce4bh2h2rcd13ifvqdh0","pricing_plan_id":"cebpf4jnsgd1na2vs0mg"},{"bike_id":"76130abd-5071-49d9-8daf-2fb68f61953a","system_id":"levelo_inurba_marseille","lat":43.25578,"lon":5.38231,"is_reserved":false,"is_disabled":false,"rental_uris":{"android":"levelo://app?vid=76130abd-5071-49d9-8daf-2fb68f61953a","ios":"levelo://app?vid=76130abd-5071-49d9-8daf-2fb68f61953a"},"vehicle_type_id":"4","last_reported":1730830335,"current_range_meters":8400,"station_id":"ce4bhih2rcd13ifvqfs0","pricing_plan_id":"cebpf4jnsgd1na2vs0mg"},{"bike_id":"8ff88794-cacf-4a53-9e45-df7b08a65929","system_id":"levelo_inurba_marseille","lat":43.31327,"lon":5.39703,"is_reserved":false,"is_disabled":false,"rental_uris":{"android":"levelo://app?vid=8ff88794-cacf-4a53-9e45-df7b08a65929","ios":"levelo://app?vid=8ff88794-cacf-4a53-9e45-df7b08a65929"},"vehicle_type_id":"4","last_reported":1730830335,"current_range_meters":37600,"station_id":"ce4bgvp2rcd13ifvqcu0","pricing_plan_id":"cebpf4jnsgd1na2vs0mg"},{"bike_id":"117a9406-128e-4323-b245-b2932b759e2b","system_id":"levelo_inurba_marseille","lat":43.33019,"lon":5.39042,"is_reserved":false,"is_disabled":false,"rental_uris":{"android":"levelo://app?vid=117a9406-128e-4323-b245-b2932b759e2b","ios":"levelo://app?vid=117a9406-128e-4323-b245-b2932b759e2b"},"vehicle_type_id":"4","last_reported":1730830335,"current_range_meters":38800,"station_id":"ce4bhr92rcd13ifvqhrg","pricing_plan_id":"cebpf4jnsgd1na2vs0mg"},{"bike_id":"a1d27b1f-28fb-46cf-88f0-0568850d7a30","system_id":"levelo_inurba_marseille","lat":43.29093,"lon":5.38342,"is_reserved":false,"is_disabled":false,"rental_uris":{"android":"levelo://app?vid=a1d27b1f-28fb-46cf-88f0-0568850d7a30","ios":"levelo://app?vid=a1d27b1f-28fb-46cf-88f0-0568850d7a30"},"vehicle_type_id":"4","last_reported":1730830335,"current_range_meters":22000,"station_id":"","pricing_plan_id":"cebpf4jnsgd1na2vs0mg"},{"bike_id":"9118edac-8444-4e40-8519-c94a1afed855","system_id":"levelo_inurba_marseille","lat":43.23152,"lon":5.43719,"is_reserved":false,"is_disabled":false,"rental_uris":{"android":"levelo://app?vid=9118edac-8444-4e40-8519-c94a1afed855","ios":"levelo://app?vid=9118edac-8444-4e40-8519-c94a1afed855"},"vehicle_type_id":"4","last_reported":1730830335,"current_range_meters":20400,"station_id":"ce4bhmp2rcd13ifvqgog","pricing_plan_id":"cebpf4jnsgd1na2vs0mg"},{"bike_id":"a0725e72-ae31-4a27-aabc-fcd4a320aae2","system_id":"levelo_inurba_marseille","lat":43.292633,"lon":5.384414,"is_reserved":false,"is_disabled":false,"rental_uris":{"android":"levelo://app?vid=a0725e72-ae31-4a27-aabc-fcd4a320aae2","ios":"levelo://app?vid=a0725e72-ae31-4a27-aabc-fcd4a320aae2"},"vehicle_type_id":"4","last_reported":1730830335,"current_range_meters":20000,"station_id":"ce4bhbp2rcd13ifvqerg","pricing_plan_id":"cebpf4jnsgd1na2vs0mg"},{"bike_id":"8a443bb1-7437-46dc-8108-c3fb0a654bea","system_id":"levelo_inurba_marseille","lat":43.29528,"lon":5.38546,"is_reserved":false,"is_disabled":false,"rental_uris":{"android":"levelo://app?vid=8a443bb1-7437-46dc-8108-c3fb0a654bea","ios":"levelo://app?vid=8a443bb1-7437-46dc-8108-c3fb0a654bea"},"vehicle_type_id":"4","last_reported":1730830335,"current_range_meters":24800,"station_id":"ce4bgih2rcd13ifvqba0","pricing_plan_id":"cebpf4jnsgd1na2vs0mg"},{"bike_id":"81d3d91f-2dde-47fd-8f5b-654db6cc700c","system_id":"levelo_inurba_marseille","lat":43.2707,"lon":5.42283,"is_reserved":false,"is_disabled":false,"rental_uris":{"android":"levelo://app?vid=81d3d91f-2dde-47fd-8f5b-654db6cc700c","ios":"levelo://app?vid=81d3d91f-2dde-47fd-8f5b-654db6cc700c"},"vehicle_type_id":"4","last_reported":1730830335,"current_range_meters":28400,"station_id":"ce4bhk92rcd13ifvqgb0","pricing_plan_id":"cebpf4jnsgd1na2vs0mg"},{"bike_id":"01978691-ca06-400e-85ba-49359961d220","system_id":"levelo_inurba_marseille","lat":43.28362,"lon":5.38105,"is_reserved":false,"is_disabled":false,"rental_uris":{"android":"levelo://app?vid=01978691-ca06-400e-85ba-49359961d220","ios":"levelo://app?vid=01978691-ca06-400e-85ba-49359961d220"},"vehicle_type_id":"4","last_reported":1730830335,"current_range_meters":3600,"station_id":"ce4bh412rcd13ifvqdr0","pricing_plan_id":"cebpf4jnsgd1na2vs0mg"},{"bike_id":"9cdc99c7-0e5e-4788-9ac2-58733b722173","system_id":"levelo_inurba_marseille","lat":43.28348,"lon":5.38109,"is_reserved":false,"is_disabled":false,"rental_uris":{"android":"levelo://app?vid=9cdc99c7-0e5e-4788-9ac2-58733b722173","ios":"levelo://app?vid=9cdc99c7-0e5e-4788-9ac2-58733b722173"},"vehicle_type_id":"4","last_reported":1730830335,"current_range_meters":8000,"station_id":"ce4bh412rcd13ifvqdr0","pricing_plan_id":"cebpf4jnsgd1na2vs0mg"},{"bike_id":"6b3e9c27-d216-4dd1-821f-8fef3ddccc5e","system_id":"levelo_inurba_marseille","lat":43.31327,"lon":5.39697,"is_reserved":false,"is_disabled":false,"rental_uris":{"android":"levelo://app?vid=6b3e9c27-d216-4dd1-821f-8fef3ddccc5e","ios":"levelo://app?vid=6b3e9c27-d216-4dd1-821f-8fef3ddccc5e"},"vehicle_type_id":"4","last_reported":1730830335,"current_range_meters":37600,"station_id":"ce4bgvp2rcd13ifvqcu0","pricing_plan_id":"cebpf4jnsgd1na2vs0mg"},{"bike_id":"bef8d01f-98a3-44ab-ad9a-7de80eb48746","system_id":"levelo_inurba_marseille","lat":43.28776,"lon":5.38477,"is_reserved":false,"is_disabled":false,"rental_uris":{"android":"levelo://app?vid=bef8d01f-98a3-44ab-ad9a-7de80eb48746","ios":"levelo://app?vid=bef8d01f-98a3-44ab-ad9a-7de80eb48746"},"vehicle_type_id":"4","last_reported":1730830335,"current_range_meters":19200,"station_id":"ce4bgih2rcd13ifvqba0","pricing_plan_id":"cebpf4jnsgd1na2vs0mg"},{"bike_id":"a46e9747-f73d-452d-b054-3d4e2540656c","system_id":"levelo_inurba_marseille","lat":43.29531,"lon":5.38545,"is_reserved":false,"is_disabled":false,"rental_uris":{"android":"levelo://app?vid=a46e9747-f73d-452d-b054-3d4e2540656c","ios":"levelo://app?vid=a46e9747-f73d-452d-b054-3d4e2540656c"},"vehicle_type_id":"4","last_reported":1730830335,"current_range_meters":26800,"station_id":"ce4bgih2rcd13ifvqba0","pricing_plan_id":"cebpf4jnsgd1na2vs0mg"},{"bike_id":"fad21b98-4cf4-4eed-b682-c861c72dffc1","system_id":"levelo_inurba_marseille","lat":43.24645,"lon":5.38893,"is_reserved":false,"is_disabled":false,"rental_uris":{"android":"levelo://app?vid=fad21b98-4cf4-4eed-b682-c861c72dffc1","ios":"levelo://app?vid=fad21b98-4cf4-4eed-b682-c861c72dffc1"},"vehicle_type_id":"4","last_reported":1730830335,"current_range_meters":35600,"station_id":"ce4bhg12rcd13ifvqf60","pricing_plan_id":"cebpf4jnsgd1na2vs0mg"},{"bike_id":"0903b032-8294-4df3-8559-3bcc9639e961","system_id":"levelo_inurba_marseille","lat":43.28156,"lon":5.42649,"is_reserved":false,"is_disabled":false,"rental_uris":{"android":"levelo://app?vid=0903b032-8294-4df3-8559-3bcc9639e961","ios":"levelo://app?vid=0903b032-8294-4df3-8559-3bcc9639e961"},"vehicle_type_id":"4","last_reported":1730830335,"current_range_meters":23200,"station_id":"ce4bhnh2rcd13ifvqgug","pricing_plan_id":"cebpf4jnsgd1na2vs0mg"},{"bike_id":"b5830c1f-0836-43b2-bad3-8dc10ae8eb7c","system_id":"levelo_inurba_marseille","lat":43.3376,"lon":5.37458,"is_reserved":false,"is_disabled":false,"rental_uris":{"android":"levelo://app?vid=b5830c1f-0836-43b2-bad3-8dc10ae8eb7c","ios":"levelo://app?vid=b5830c1f-0836-43b2-bad3-8dc10ae8eb7c"},"vehicle_type_id":"4","last_reported":1730830335,"current_range_meters":37600,"station_id":"","pricing_plan_id":"cebpf4jnsgd1na2vs0mg"},{"bike_id":"83fb9575-770d-48dc-bf7d-7c77ac5c8232","system_id":"levelo_inurba_marseille","lat":43.2843,"lon":5.39185,"is_reserved":false,"is_disabled":false,"rental_uris":{"android":"levelo://app?vid=83fb9575-770d-48dc-bf7d-7c77ac5c8232","ios":"levelo://app?vid=83fb9575-770d-48dc-bf7d-7c77ac5c8232"},"vehicle_type_id":"4","last_reported":1730830335,"current_range_meters":18000,"station_id":"ce4bhoh2rcd13ifvqh5g","pricing_plan_id":"cebpf4jnsgd1na2vs0mg"},{"bike_id":"c0c29d4d-e653-4bf8-a00e-1fbbc466925d","system_id":"levelo_inurba_marseille","lat":43.29511,"lon":5.39405,"is_reserved":false,"is_disabled":false,"rental_uris":{"android":"levelo://app?vid=c0c29d4d-e653-4bf8-a00e-1fbbc466925d","ios":"levelo://app?vid=c0c29d4d-e653-4bf8-a00e-1fbbc466925d"},"vehicle_type_id":"4","last_reported":1730830335,"current_range_meters":28000,"station_id":"ce4bh292rcd13ifvqdf0","pricing_plan_id":"cebpf4jnsgd1na2vs0mg"},{"bike_id":"321e434c-d7d6-44d4-8d83-3391eaa2db1c","system_id":"levelo_inurba_marseille","lat":43.21252,"lon":5.3537,"is_reserved":false,"is_disabled":false,"rental_uris":{"android":"levelo://app?vid=321e434c-d7d6-44d4-8d83-3391eaa2db1c","ios":"levelo://app?vid=321e434c-d7d6-44d4-8d83-3391eaa2db1c"},"vehicle_type_id":"4","last_reported":1730830335,"current_range_meters":16000,"station_id":"","pricing_plan_id":"cebpf4jnsgd1na2vs0mg"},{"bike_id":"106ecb85-b008-4043-bb39-19a90b8e3719","system_id":"levelo_inurba_marseille","lat":43.2803,"lon":5.36952,"is_reserved":false,"is_disabled":false,"rental_uris":{"android":"levelo://app?vid=106ecb85-b008-4043-bb39-19a90b8e3719","ios":"levelo://app?vid=106ecb85-b008-4043-bb39-19a90b8e3719"},"vehicle_type_id":"4","last_reported":1730830335,"current_range_meters":38000,"station_id":"ce4bha12rcd13ifvqef0","pricing_plan_id":"cebpf4jnsgd1na2vs0mg"},{"bike_id":"2b1928cf-3c93-49bc-8bde-c43ed09ed4c1","system_id":"levelo_inurba_marseille","lat":43.31705,"lon":5.37729,"is_reserved":false,"is_disabled":false,"rental_uris":{"android":"levelo://app?vid=2b1928cf-3c93-49bc-8bde-c43ed09ed4c1","ios":"levelo://app?vid=2b1928cf-3c93-49bc-8bde-c43ed09ed4c1"},"vehicle_type_id":"4","last_reported":1730830335,"current_range_meters":8000,"station_id":"ce4bgth2rcd13ifvqch0","pricing_plan_id":"cebpf4jnsgd1na2vs0mg"},{"bike_id":"9b59d6da-0c86-4620-9b90-0ca3da584fde","system_id":"levelo_inurba_marseille","lat":43.28699,"lon":5.37396,"is_reserved":false,"is_disabled":false,"rental_uris":{"android":"levelo://app?vid=9b59d6da-0c86-4620-9b90-0ca3da584fde","ios":"levelo://app?vid=9b59d6da-0c86-4620-9b90-0ca3da584fde"},"vehicle_type_id":"4","last_reported":1730830335,"current_range_meters":25200,"station_id":"ce4bh3p2rcd13ifvqdq0","pricing_plan_id":"cebpf4jnsgd1na2vs0mg"},{"bike_id":"6be2ee82-fbff-480b-9fc5-222b33e58bf1","system_id":"levelo_inurba_marseille","lat":43.29025,"lon":5.38652,"is_reserved":false,"is_disabled":false,"rental_uris":{"android":"levelo://app?vid=6be2ee82-fbff-480b-9fc5-222b33e58bf1","ios":"levelo://app?vid=6be2ee82-fbff-480b-9fc5-222b33e58bf1"},"vehicle_type_id":"4","last_reported":1730830335,"current_range_meters":16000,"station_id":"ce4bh4p2rcd13ifvqe0g","pricing_plan_id":"cebpf4jnsgd1na2vs0mg"},{"bike_id":"bbc7d7c7-2bdc-4993-ad40-2885d2dda5e9","system_id":"levelo_inurba_marseille","lat":43.23178,"lon":5.39988,"is_reserved":false,"is_disabled":false,"rental_uris":{"android":"levelo://app?vid=bbc7d7c7-2bdc-4993-ad40-2885d2dda5e9","ios":"levelo://app?vid=bbc7d7c7-2bdc-4993-ad40-2885d2dda5e9"},"vehicle_type_id":"4","last_reported":1730830335,"current_range_meters":16000,"station_id":"ce4bhn12rcd13ifvqgqg","pricing_plan_id":"cebpf4jnsgd1na2vs0mg"},{"bike_id":"c136cff0-dafb-428e-8ff0-fa4f96c6c36f","system_id":"levelo_inurba_marseille","lat":43.2844,"lon":5.39184,"is_reserved":false,"is_disabled":false,"rental_uris":{"android":"levelo://app?vid=c136cff0-dafb-428e-8ff0-fa4f96c6c36f","ios":"levelo://app?vid=c136cff0-dafb-428e-8ff0-fa4f96c6c36f"},"vehicle_type_id":"4","last_reported":1730830335,"current_range_meters":32400,"station_id":"ce4bhoh2rcd13ifvqh5g","pricing_plan_id":"cebpf4jnsgd1na2vs0mg"},{"bike_id":"33c32440-9fcd-4ca4-b3f0-310aed4b3c9c","system_id":"levelo_inurba_marseille","lat":43.23959,"lon":5.36639,"is_reserved":false,"is_disabled":false,"rental_uris":{"android":"levelo://app?vid=33c32440-9fcd-4ca4-b3f0-310aed4b3c9c","ios":"levelo://app?vid=33c32440-9fcd-4ca4-b3f0-310aed4b3c9c"},"vehicle_type_id":"4","last_reported":1730830335,"current_range_meters":36400,"station_id":"ce4bhi12rcd13ifvqfp0","pricing_plan_id":"cebpf4jnsgd1na2vs0mg"},{"bike_id":"091c9e87-e4a4-4f37-a4a1-0009846593a5","system_id":"levelo_inurba_marseille","lat":43.29032,"lon":5.38647,"is_reserved":false,"is_disabled":false,"rental_uris":{"android":"levelo://app?vid=091c9e87-e4a4-4f37-a4a1-0009846593a5","ios":"levelo://app?vid=091c9e87-e4a4-4f37-a4a1-0009846593a5"},"vehicle_type_id":"4","last_reported":1730830335,"current_range_meters":4400,"station_id":"ce4bh4p2rcd13ifvqe0g","pricing_plan_id":"cebpf4jnsgd1na2vs0mg"},{"bike_id":"4514f5d9-9d66-4a2c-a556-2abecce17131","system_id":"levelo_inurba_marseille","lat":43.31759,"lon":5.3902,"is_reserved":false,"is_disabled":false,"rental_uris":{"android":"levelo://app?vid=4514f5d9-9d66-4a2c-a556-2abecce17131","ios":"levelo://app?vid=4514f5d9-9d66-4a2c-a556-2abecce17131"},"vehicle_type_id":"4","last_reported":1730830335,"current_range_meters":34800,"station_id":"ce4bhqp2rcd13ifvqhng","pricing_plan_id":"cebpf4jnsgd1na2vs0mg"},{"bike_id":"0f79c661-41f1-4c25-9980-80273be4ccf3","system_id":"levelo_inurba_marseille","lat":43.29861,"lon":5.39739,"is_reserved":false,"is_disabled":false,"rental_uris":{"android":"levelo://app?vid=0f79c661-41f1-4c25-9980-80273be4ccf3","ios":"levelo://app?vid=0f79c661-41f1-4c25-9980-80273be4ccf3"},"vehicle_type_id":"4","last_reported":1730830335,"current_range_meters":32800,"station_id":"ce4bh0h2rcd13ifvqd50","pricing_plan_id":"cebpf4jnsgd1na2vs0mg"},{"bike_id":"3a801cbb-1e2e-46c3-bc85-0c5198b9902c","system_id":"levelo_inurba_marseille","lat":43.265323,"lon":5.388412,"is_reserved":false,"is_disabled":false,"rental_uris":{"android":"levelo://app?vid=3a801cbb-1e2e-46c3-bc85-0c5198b9902c","ios":"levelo://app?vid=3a801cbb-1e2e-46c3-bc85-0c5198b9902c"},"vehicle_type_id":"4","last_reported":1730830335,"current_range_meters":18800,"station_id":"","pricing_plan_id":"cebpf4jnsgd1na2vs0mg"},{"bike_id":"f20cfecf-a992-4464-a384-bad778375481","system_id":"levelo_inurba_marseille","lat":43.29521,"lon":5.44242,"is_reserved":false,"is_disabled":false,"rental_uris":{"android":"levelo://app?vid=f20cfecf-a992-4464-a384-bad778375481","ios":"levelo://app?vid=f20cfecf-a992-4464-a384-bad778375481"},"vehicle_type_id":"4","last_reported":1730830335,"current_range_meters":6400,"station_id":"","pricing_plan_id":"cebpf4jnsgd1na2vs0mg"},{"bike_id":"804f49e0-d695-4898-9280-c773dbef917a","system_id":"levelo_inurba_marseille","lat":43.31714,"lon":5.43707,"is_reserved":false,"is_disabled":false,"rental_uris":{"android":"levelo://app?vid=804f49e0-d695-4898-9280-c773dbef917a","ios":"levelo://app?vid=804f49e0-d695-4898-9280-c773dbef917a"},"vehicle_type_id":"4","last_reported":1730830335,"current_range_meters":9600,"station_id":"ce4bhp92rcd13ifvqhcg","pricing_plan_id":"cebpf4jnsgd1na2vs0mg"},{"bike_id":"816fd540-3b14-4e94-9418-ffac8526163b","system_id":"levelo_inurba_marseille","lat":43.29566,"lon":5.39967,"is_reserved":false,"is_disabled":false,"rental_uris":{"android":"levelo://app?vid=816fd540-3b14-4e94-9418-ffac8526163b","ios":"levelo://app?vid=816fd540-3b14-4e94-9418-ffac8526163b"},"vehicle_type_id":"4","last_reported":1730830335,"current_range_meters":9600,"station_id":"ce4bh312rcd13ifvqdj0","pricing_plan_id":"cebpf4jnsgd1na2vs0mg"},{"bike_id":"9d6777bd-b5e7-4ee9-b33c-c8e785447340","system_id":"levelo_inurba_marseille","lat":43.28351,"lon":5.38118,"is_reserved":false,"is_disabled":false,"rental_uris":{"android":"levelo://app?vid=9d6777bd-b5e7-4ee9-b33c-c8e785447340","ios":"levelo://app?vid=9d6777bd-b5e7-4ee9-b33c-c8e785447340"},"vehicle_type_id":"4","last_reported":1730830335,"current_range_meters":30000,"station_id":"ce4bh412rcd13ifvqdr0","pricing_plan_id":"cebpf4jnsgd1na2vs0mg"},{"bike_id":"0ad4d9f0-5cfb-456e-98d1-4eb95ab7d61c","system_id":"levelo_inurba_marseille","lat":43.31706,"lon":5.37742,"is_reserved":false,"is_disabled":false,"rental_uris":{"android":"levelo://app?vid=0ad4d9f0-5cfb-456e-98d1-4eb95ab7d61c","ios":"levelo://app?vid=0ad4d9f0-5cfb-456e-98d1-4eb95ab7d61c"},"vehicle_type_id":"4","last_reported":1730830335,"current_range_meters":13600,"station_id":"ce4bgth2rcd13ifvqch0","pricing_plan_id":"cebpf4jnsgd1na2vs0mg"},{"bike_id":"b55df53c-aa91-4965-8cee-a3cdccaadd43","system_id":"levelo_inurba_marseille","lat":43.32359,"lon":5.38884,"is_reserved":false,"is_disabled":false,"rental_uris":{"android":"levelo://app?vid=b55df53c-aa91-4965-8cee-a3cdccaadd43","ios":"levelo://app?vid=b55df53c-aa91-4965-8cee-a3cdccaadd43"},"vehicle_type_id":"4","last_reported":1730830335,"current_range_meters":33600,"station_id":"ce4bhqp2rcd13ifvqhog","pricing_plan_id":"cebpf4jnsgd1na2vs0mg"},{"bike_id":"01e1a240-47da-4e13-a4fd-cfc0d52ab45e","system_id":"levelo_inurba_marseille","lat":43.30131,"lon":5.39857,"is_reserved":false,"is_disabled":false,"rental_uris":{"android":"levelo://app?vid=01e1a240-47da-4e13-a4fd-cfc0d52ab45e","ios":"levelo://app?vid=01e1a240-47da-4e13-a4fd-cfc0d52ab45e"},"vehicle_type_id":"4","last_reported":1730830335,"current_range_meters":24400,"station_id":"ce4bh0h2rcd13ifvqd40","pricing_plan_id":"cebpf4jnsgd1na2vs0mg"},{"bike_id":"a88ce35d-ebd9-4974-8850-d6e582776579","system_id":"levelo_inurba_marseille","lat":43.32291,"lon":5.38269,"is_reserved":false,"is_disabled":false,"rental_uris":{"android":"levelo://app?vid=a88ce35d-ebd9-4974-8850-d6e582776579","ios":"levelo://app?vid=a88ce35d-ebd9-4974-8850-d6e582776579"},"vehicle_type_id":"4","last_reported":1730830335,"current_range_meters":14800,"station_id":"ce4bhr12rcd13ifvqhqg","pricing_plan_id":"cebpf4jnsgd1na2vs0mg"},{"bike_id":"0a989068-3c99-4913-9bb9-a59b213e0f93","system_id":"levelo_inurba_marseille","lat":43.30123,"lon":5.3984,"is_reserved":false,"is_disabled":false,"rental_uris":{"android":"levelo://app?vid=0a989068-3c99-4913-9bb9-a59b213e0f93","ios":"levelo://app?vid=0a989068-3c99-4913-9bb9-a59b213e0f93"},"vehicle_type_id":"4","last_reported":1730830335,"current_range_meters":10800,"station_id":"ce4bh0h2rcd13ifvqd40","pricing_plan_id":"cebpf4jnsgd1na2vs0mg"},{"bike_id":"f6ac1b57-434f-4fcb-a5b0-8863ab745a5f","system_id":"levelo_inurba_marseille","lat":43.30328,"lon":5.40439,"is_reserved":false,"is_disabled":false,"rental_uris":{"android":"levelo://app?vid=f6ac1b57-434f-4fcb-a5b0-8863ab745a5f","ios":"levelo://app?vid=f6ac1b57-434f-4fcb-a5b0-8863ab745a5f"},"vehicle_type_id":"4","last_reported":1730830335,"current_range_meters":28400,"station_id":"ce4bh012rcd13ifvqd10","pricing_plan_id":"cebpf4jnsgd1na2vs0mg"},{"bike_id":"085f8d5f-ecee-4242-83e4-d5e880278dd0","system_id":"levelo_inurba_marseille","lat":43.28938,"lon":5.36397,"is_reserved":false,"is_disabled":false,"rental_uris":{"android":"levelo://app?vid=085f8d5f-ecee-4242-83e4-d5e880278dd0","ios":"levelo://app?vid=085f8d5f-ecee-4242-83e4-d5e880278dd0"},"vehicle_type_id":"4","last_reported":1730830335,"current_range_meters":16400,"station_id":"ce4bhc92rcd13ifvqetg","pricing_plan_id":"cebpf4jnsgd1na2vs0mg"},{"bike_id":"a284cb67-4f3a-45d7-b442-66b808c7523d","system_id":"levelo_inurba_marseille","lat":43.28476,"lon":5.38415,"is_reserved":false,"is_disabled":false,"rental_uris":{"android":"levelo://app?vid=a284cb67-4f3a-45d7-b442-66b808c7523d","ios":"levelo://app?vid=a284cb67-4f3a-45d7-b442-66b808c7523d"},"vehicle_type_id":"4","last_reported":1730830335,"current_range_meters":10000,"station_id":"ce4bh512rcd13ifvqe3g","pricing_plan_id":"cebpf4jnsgd1na2vs0mg"},{"bike_id":"0e7af979-e5af-4441-9ce0-da70f9ba912a","system_id":"levelo_inurba_marseille","lat":43.2885,"lon":5.35845,"is_reserved":false,"is_disabled":false,"rental_uris":{"android":"levelo://app?vid=0e7af979-e5af-4441-9ce0-da70f9ba912a","ios":"levelo://app?vid=0e7af979-e5af-4441-9ce0-da70f9ba912a"},"vehicle_type_id":"4","last_reported":1730830335,"current_range_meters":33600,"station_id":"ce4bhb12rcd13ifvqem0","pricing_plan_id":"cebpf4jnsgd1na2vs0mg"},{"bike_id":"737a89d9-ee40-46fb-9f48-6b5681bcb859","system_id":"levelo_inurba_marseille","lat":43.27946,"lon":5.41046,"is_reserved":false,"is_disabled":false,"rental_uris":{"android":"levelo://app?vid=737a89d9-ee40-46fb-9f48-6b5681bcb859","ios":"levelo://app?vid=737a89d9-ee40-46fb-9f48-6b5681bcb859"},"vehicle_type_id":"4","last_reported":1730830335,"current_range_meters":32400,"station_id":"ce4bhnp2rcd13ifvqh0g","pricing_plan_id":"cebpf4jnsgd1na2vs0mg"},{"bike_id":"1c749a00-9871-4f75-8617-0eed5417ca86","system_id":"levelo_inurba_marseille","lat":43.33719,"lon":5.39193,"is_reserved":false,"is_disabled":false,"rental_uris":{"android":"levelo://app?vid=1c749a00-9871-4f75-8617-0eed5417ca86","ios":"levelo://app?vid=1c749a00-9871-4f75-8617-0eed5417ca86"},"vehicle_type_id":"4","last_reported":1730830335,"current_range_meters":37600,"station_id":"ce4bhr92rcd13ifvqhsg","pricing_plan_id":"cebpf4jnsgd1na2vs0mg"},{"bike_id":"2edc15f9-c8b0-4177-9144-507eb21041dc","system_id":"levelo_inurba_marseille","lat":43.290405,"lon":5.399584,"is_reserved":false,"is_disabled":false,"rental_uris":{"android":"levelo://app?vid=2edc15f9-c8b0-4177-9144-507eb21041dc","ios":"levelo://app?vid=2edc15f9-c8b0-4177-9144-507eb21041dc"},"vehicle_type_id":"4","last_reported":1730830335,"current_range_meters":8800,"station_id":"ce4bh392rcd13ifvqdm0","pricing_plan_id":"cebpf4jnsgd1na2vs0mg"},{"bike_id":"2fe9a1c7-cc25-46b0-add3-5f5b3412d194","system_id":"levelo_inurba_marseille","lat":43.31168,"lon":5.38717,"is_reserved":false,"is_disabled":false,"rental_uris":{"android":"levelo://app?vid=2fe9a1c7-cc25-46b0-add3-5f5b3412d194","ios":"levelo://app?vid=2fe9a1c7-cc25-46b0-add3-5f5b3412d194"},"vehicle_type_id":"4","last_reported":1730830335,"current_range_meters":38800,"station_id":"ce4bgv12rcd13ifvqcp0","pricing_plan_id":"cebpf4jnsgd1na2vs0mg"},{"bike_id":"d6550fcd-6ff9-434c-b6c8-d98de1a6c4e5","system_id":"levelo_inurba_marseille","lat":43.23187,"lon":5.39982,"is_reserved":false,"is_disabled":false,"rental_uris":{"android":"levelo://app?vid=d6550fcd-6ff9-434c-b6c8-d98de1a6c4e5","ios":"levelo://app?vid=d6550fcd-6ff9-434c-b6c8-d98de1a6c4e5"},"vehicle_type_id":"4","last_reported":1730830335,"current_range_meters":3600,"station_id":"ce4bhn12rcd13ifvqgqg","pricing_plan_id":"cebpf4jnsgd1na2vs0mg"},{"bike_id":"a1a128f1-11a7-4afa-a160-7a5c9687e421","system_id":"levelo_inurba_marseille","lat":43.29038,"lon":5.38653,"is_reserved":false,"is_disabled":false,"rental_uris":{"android":"levelo://app?vid=a1a128f1-11a7-4afa-a160-7a5c9687e421","ios":"levelo://app?vid=a1a128f1-11a7-4afa-a160-7a5c9687e421"},"vehicle_type_id":"4","last_reported":1730830335,"current_range_meters":22800,"station_id":"ce4bh4p2rcd13ifvqe0g","pricing_plan_id":"cebpf4jnsgd1na2vs0mg"},{"bike_id":"09a26775-38ad-4e82-8f1c-a856bae39dda","system_id":"levelo_inurba_marseille","lat":43.30432,"lon":5.38892,"is_reserved":false,"is_disabled":false,"rental_uris":{"android":"levelo://app?vid=09a26775-38ad-4e82-8f1c-a856bae39dda","ios":"levelo://app?vid=09a26775-38ad-4e82-8f1c-a856bae39dda"},"vehicle_type_id":"4","last_reported":1730830335,"current_range_meters":39200,"station_id":"ce4bgk12rcd13ifvqbi0","pricing_plan_id":"cebpf4jnsgd1na2vs0mg"},{"bike_id":"2e0ef105-bb98-4736-8372-72c4c50acf2b","system_id":"levelo_inurba_marseille","lat":43.31314,"lon":5.3753,"is_reserved":false,"is_disabled":false,"rental_uris":{"android":"levelo://app?vid=2e0ef105-bb98-4736-8372-72c4c50acf2b","ios":"levelo://app?vid=2e0ef105-bb98-4736-8372-72c4c50acf2b"},"vehicle_type_id":"4","last_reported":1730830335,"current_range_meters":22400,"station_id":"","pricing_plan_id":"cebpf4jnsgd1na2vs0mg"},{"bike_id":"712b12a7-2e00-41d6-a5da-ed49b339c043","system_id":"levelo_inurba_marseille","lat":43.28262,"lon":5.35073,"is_reserved":false,"is_disabled":false,"rental_uris":{"android":"levelo://app?vid=712b12a7-2e00-41d6-a5da-ed49b339c043","ios":"levelo://app?vid=712b12a7-2e00-41d6-a5da-ed49b339c043"},"vehicle_type_id":"4","last_reported":1730830335,"current_range_meters":27600,"station_id":"ce4bhbp2rcd13ifvqerg","pricing_plan_id":"cebpf4jnsgd1na2vs0mg"},{"bike_id":"69698503-9db4-45ae-b4d7-19af4aa5201c","system_id":"levelo_inurba_marseille","lat":43.27922,"lon":5.44326,"is_reserved":false,"is_disabled":false,"rental_uris":{"android":"levelo://app?vid=69698503-9db4-45ae-b4d7-19af4aa5201c","ios":"levelo://app?vid=69698503-9db4-45ae-b4d7-19af4aa5201c"},"vehicle_type_id":"4","last_reported":1730830335,"current_range_meters":33600,"station_id":"","pricing_plan_id":"cebpf4jnsgd1na2vs0mg"},{"bike_id":"7fb97a1e-4ca0-40d9-a665-23815946ca7e","system_id":"levelo_inurba_marseille","lat":43.30779,"lon":5.37654,"is_reserved":false,"is_disabled":false,"rental_uris":{"android":"levelo://app?vid=7fb97a1e-4ca0-40d9-a665-23815946ca7e","ios":"levelo://app?vid=7fb97a1e-4ca0-40d9-a665-23815946ca7e"},"vehicle_type_id":"4","last_reported":1730830335,"current_range_meters":37600,"station_id":"ce4bgv92rcd13ifvqcq0","pricing_plan_id":"cebpf4jnsgd1na2vs0mg"},{"bike_id":"2f9d1361-c316-4f13-a12f-bb87ba74f44c","system_id":"levelo_inurba_marseille","lat":43.3189,"lon":5.40742,"is_reserved":false,"is_disabled":false,"rental_uris":{"android":"levelo://app?vid=2f9d1361-c316-4f13-a12f-bb87ba74f44c","ios":"levelo://app?vid=2f9d1361-c316-4f13-a12f-bb87ba74f44c"},"vehicle_type_id":"4","last_reported":1730830335,"current_range_meters":17200,"station_id":"ce4bhq12rcd13ifvqhig","pricing_plan_id":"cebpf4jnsgd1na2vs0mg"},{"bike_id":"64173263-566e-4837-86e2-027a8f76cb63","system_id":"levelo_inurba_marseille","lat":43.29875,"lon":5.39743,"is_reserved":false,"is_disabled":false,"rental_uris":{"android":"levelo://app?vid=64173263-566e-4837-86e2-027a8f76cb63","ios":"levelo://app?vid=64173263-566e-4837-86e2-027a8f76cb63"},"vehicle_type_id":"4","last_reported":1730830335,"current_range_meters":32800,"station_id":"ce4bh0h2rcd13ifvqd50","pricing_plan_id":"cebpf4jnsgd1na2vs0mg"},{"bike_id":"513ff91c-ae2c-4ecd-b8ca-79ed4c5d7e7d","system_id":"levelo_inurba_marseille","lat":43.28724,"lon":5.36087,"is_reserved":false,"is_disabled":false,"rental_uris":{"android":"levelo://app?vid=513ff91c-ae2c-4ecd-b8ca-79ed4c5d7e7d","ios":"levelo://app?vid=513ff91c-ae2c-4ecd-b8ca-79ed4c5d7e7d"},"vehicle_type_id":"4","last_reported":1730830335,"current_range_meters":12400,"station_id":"cki0cbj6b192h4jlfktg","pricing_plan_id":"cebpf4jnsgd1na2vs0mg"},{"bike_id":"fb8712db-3cc5-4666-ab9f-bffd59e09b36","system_id":"levelo_inurba_marseille","lat":43.29549,"lon":5.42296,"is_reserved":false,"is_disabled":false,"rental_uris":{"android":"levelo://app?vid=fb8712db-3cc5-4666-ab9f-bffd59e09b36","ios":"levelo://app?vid=fb8712db-3cc5-4666-ab9f-bffd59e09b36"},"vehicle_type_id":"4","last_reported":1730830335,"current_range_meters":29600,"station_id":"ce4bhph2rcd13ifvqhdg","pricing_plan_id":"cebpf4jnsgd1na2vs0mg"},{"bike_id":"79c4280d-a753-442e-bc65-a8a29c81e745","system_id":"levelo_inurba_marseille","lat":43.30128,"lon":5.39852,"is_reserved":false,"is_disabled":false,"rental_uris":{"android":"levelo://app?vid=79c4280d-a753-442e-bc65-a8a29c81e745","ios":"levelo://app?vid=79c4280d-a753-442e-bc65-a8a29c81e745"},"vehicle_type_id":"4","last_reported":1730830335,"current_range_meters":28000,"station_id":"ce4bh0h2rcd13ifvqd40","pricing_plan_id":"cebpf4jnsgd1na2vs0mg"},{"bike_id":"032ad0f1-4052-406d-8bf5-8e8e29eeb0be","system_id":"levelo_inurba_marseille","lat":43.27124,"lon":5.362871,"is_reserved":false,"is_disabled":false,"rental_uris":{"android":"levelo://app?vid=032ad0f1-4052-406d-8bf5-8e8e29eeb0be","ios":"levelo://app?vid=032ad0f1-4052-406d-8bf5-8e8e29eeb0be"},"vehicle_type_id":"4","last_reported":1730830335,"current_range_meters":19200,"station_id":"ce4bh2h2rcd13ifvqdh0","pricing_plan_id":"cebpf4jnsgd1na2vs0mg"},{"bike_id":"e5e2b11f-f6e1-4b49-be55-182d34fb362a","system_id":"levelo_inurba_marseille","lat":43.25113,"lon":5.40326,"is_reserved":false,"is_disabled":false,"rental_uris":{"android":"levelo://app?vid=e5e2b11f-f6e1-4b49-be55-182d34fb362a","ios":"levelo://app?vid=e5e2b11f-f6e1-4b49-be55-182d34fb362a"},"vehicle_type_id":"4","last_reported":1730830335,"current_range_meters":8400,"station_id":"ce4bhlh2rcd13ifvqgig","pricing_plan_id":"cebpf4jnsgd1na2vs0mg"},{"bike_id":"918f536c-9308-4957-960b-ee187eaf6851","system_id":"levelo_inurba_marseille","lat":43.30102,"lon":5.39074,"is_reserved":false,"is_disabled":false,"rental_uris":{"android":"levelo://app?vid=918f536c-9308-4957-960b-ee187eaf6851","ios":"levelo://app?vid=918f536c-9308-4957-960b-ee187eaf6851"},"vehicle_type_id":"4","last_reported":1730830335,"current_range_meters":9200,"station_id":"ce4bh192rcd13ifvqdb0","pricing_plan_id":"cebpf4jnsgd1na2vs0mg"},{"bike_id":"ec55ce05-54d8-46a5-97a6-a9aab6319734","system_id":"levelo_inurba_marseille","lat":43.2884,"lon":5.39325,"is_reserved":false,"is_disabled":false,"rental_uris":{"android":"levelo://app?vid=ec55ce05-54d8-46a5-97a6-a9aab6319734","ios":"levelo://app?vid=ec55ce05-54d8-46a5-97a6-a9aab6319734"},"vehicle_type_id":"4","last_reported":1730830335,"current_range_meters":28400,"station_id":"ce4bh2p2rcd13ifvqdi0","pricing_plan_id":"cebpf4jnsgd1na2vs0mg"},{"bike_id":"f69bb25b-4cd4-4151-b2c3-82d5e6141ebd","system_id":"levelo_inurba_marseille","lat":43.29864,"lon":5.39734,"is_reserved":false,"is_disabled":false,"rental_uris":{"android":"levelo://app?vid=f69bb25b-4cd4-4151-b2c3-82d5e6141ebd","ios":"levelo://app?vid=f69bb25b-4cd4-4151-b2c3-82d5e6141ebd"},"vehicle_type_id":"4","last_reported":1730830335,"current_range_meters":38800,"station_id":"ce4bh0h2rcd13ifvqd50","pricing_plan_id":"cebpf4jnsgd1na2vs0mg"},