{"last_updated":1702803976,"ttl":30,"version":"2.2","data":{"bikes":[{"bike_id":"4392e721-d809-4bf5-a4a0-42bc62edcb80","system_id":"levelo_inurba_marseille","lat":43.314811,"lon":5.373104,"is_reserved":false,"is_disabled":false,"rental_uris":{"android":"levelo://app?vid=4392e721-d809-4bf5-a4a0-42bc62edcb80","ios":"levelo://app?vid=4392e721-d809-4bf5-a4a0-42bc62edcb80"},"vehicle_type_id":"4","last_reported":1702803976,"current_range_meters":22400,"station_id":"ce4bgt12rcd13ifvqcd0","pricing_plan_id":"free"},{"bike_id":"60553901-d3a3-4c19-9aa2-52b9b2491bcb","system_id":"levelo_inurba_marseille","lat":43.314811,"lon":5.373104,"is_reserved":false,"is_disabled":false,"rental_uris":{"android":"levelo://app?vid=60553901-d3a3-4c19-9aa2-52b9b2491bcb","ios":"levelo://app?vid=60553901-d3a3-4c19-9aa2-52b9b2491bcb"},"vehicle_type_id":"4","last_reported":1702803976,"current_range_meters":28000,"station_id":"ce4bgt12rcd13ifvqcd0","pricing_plan_id":"free"},{"bike_id":"3f8b821f-e430-4a35-bf14-f8b6e777ea11","system_id":"levelo_inurba_marseille","lat":43.313939,"lon":5.375306,"is_reserved":false,"is_disabled":false,"rental_uris":{"android":"levelo://app?vid=3f8b821f-e430-4a35-bf14-f8b6e777ea11","ios":"levelo://app?vid=3f8b821f-e430-4a35-bf14-f8b6e777ea11"},"vehicle_type_id":"4","last_reported":1702803976,"current_range_meters":0,"station_id":"","pricing_plan_id":"free"},{"bike_id":"21467138-e523-4a2e-8406-806945ec5830","system_id":"levelo_inurba_marseille","lat":43.30545,"lon":5.36705,"is_reserved":false,"is_disabled":false,"rental_uris":{"android":"levelo://app?vid=21467138-e523-4a2e-8406-806945ec5830","ios":"levelo://app?vid=21467138-e523-4a2e-8406-806945ec5830"},"vehicle_type_id":"4","last_reported":1702803976,"current_range_meters":30000,"station_id":"ce4bgrp2rcd13ifvqc9g","pricing_plan_id":"free"},{"bike_id":"5113165c-de22-42ee-a775-4f7d8ab69b8c","system_id":"levelo_inurba_marseille","lat":43.305714,"lon":5.365633,"is_reserved":false,"is_disabled":false,"rental_uris":{"android":"levelo://app?vid=5113165c-de22-42ee-a775-4f7d8ab69b8c","ios":"levelo://app?vid=5113165c-de22-42ee-a775-4f7d8ab69b8c"},"vehicle_type_id":"4","last_reported":1702803976,"current_range_meters":26400,"station_id":"ce4bgs12rcd13ifvqcag","pricing_plan_id":"free"},{"bike_id":"955e4ab2-16e5-44e8-a986-a2f50ff96c06","system_id":"levelo_inurba_marseille","lat":43.305382,"lon":5.365389,"is_reserved":false,"is_disabled":false,"rental_uris":{"android":"levelo://app?vid=955e4ab2-16e5-44e8-a986-a2f50ff96c06","ios":"levelo://app?vid=955e4ab2-16e5-44e8-a986-a2f50ff96c06"},"vehicle_type_id":"4","last_reported":1702803976,"current_range_meters":12400,"station_id":"","pricing_plan_id":"free"},{"bike_id":"2fd4b5fc-2586-4619-95eb-eb38a22ae3ba","system_id":"levelo_inurba_marseille","lat":43.317075,"lon":5.377367,"is_reserved":false,"is_disabled":false,"rental_uris":{"android":"levelo://app?vid=2fd4b5fc-2586-4619-95eb-eb38a22ae3ba","ios":"levelo://app?vid=2fd4b5fc-2586-4619-95eb-eb38a22ae3ba"},"vehicle_type_id":"4","last_reported":1702803976,"current_range_meters":28400,"station_id":"ce4bgth2rcd13ifvqch0","pricing_plan_id":"free"},{"bike_id":"75c2516a-2148-49bc-8795-143af02329f1","system_id":"levelo_inurba_marseille","lat":43.30309,"lon":5.36887,"is_reserved":false,"is_disabled":false,"rental_uris":{"android":"levelo://app?vid=75c2516a-2148-49bc-8795-143af02329f1","ios":"levelo://app?vid=75c2516a-2148-49bc-8795-143af02329f1"},"vehicle_type_id":"4","last_reported":1702803976,"current_range_meters":3200,"station_id":"ce4bgqh2rcd13ifvqc5g","pricing_plan_id":"free"},{"bike_id":"888507e7-17ce-46f4-9980-3ac32e008b4e","system_id":"levelo_inurba_marseille","lat":43.315359,"lon":5.380302,"is_reserved":false,"is_disabled":false,"rental_uris":{"android":"levelo://app?vid=888507e7-17ce-46f4-9980-3ac32e008b4e","ios":"levelo://app?vid=888507e7-17ce-46f4-9980-3ac32e008b4e"},"vehicle_type_id":"4","last_reported":1702803976,"current_range_meters":28800,"station_id":"ce4bhsp2rcd13ifvqi50","pricing_plan_id":"free"},{"bike_id":"4f96b997-b58b-476a-9af3-ef3ebf042c82","system_id":"levelo_inurba_marseille","lat":43.308084,"lon":5.381519,"is_reserved":false,"is_disabled":false,"rental_uris":{"android":"levelo://app?vid=4f96b997-b58b-476a-9af3-ef3ebf042c82","ios":"levelo://app?vid=4f96b997-b58b-476a-9af3-ef3ebf042c82"},"vehicle_type_id":"4","last_reported":1702803976,"current_range_meters":28800,"station_id":"ce4bgt12rcd13ifvqce0","pricing_plan_id":"free"},{"bike_id":"77372c41-6944-4e09-aaa7-e8402809a066","system_id":"levelo_inurba_marseille","lat":43.304606,"lon":5.379026,"is_reserved":false,"is_disabled":false,"rental_uris":{"android":"levelo://app?vid=77372c41-6944-4e09-aaa7-e8402809a066","ios":"levelo://app?vid=77372c41-6944-4e09-aaa7-e8402809a066"},"vehicle_type_id":"4","last_reported":1702803976,"current_range_meters":19200,"station_id":"ce4bgup2rcd13ifvqcn0","pricing_plan_id":"free"},{"bike_id":"ef46cf43-bf8d-4ce0-81ab-2a701df5a859","system_id":"levelo_inurba_marseille","lat":43.304606,"lon":5.379026,"is_reserved":false,"is_disabled":false,"rental_uris":{"android":"levelo://app?vid=ef46cf43-bf8d-4ce0-81ab-2a701df5a859","ios":"levelo://app?vid=ef46cf43-bf8d-4ce0-81ab-2a701df5a859"},"vehicle_type_id":"4","last_reported":1702803976,"current_range_meters":26000,"station_id":"ce4bgup2rcd13ifvqcn0","pricing_plan_id":"free"},{"bike_id":"e8103131-65e0-4ced-9702-0bf8ac1b6748","system_id":"levelo_inurba_marseille","lat":43.304606,"lon":5.379026,"is_reserved":false,"is_disabled":false,"rental_uris":{"android":"levelo://app?vid=e8103131-65e0-4ced-9702-0bf8ac1b6748","ios":"levelo://app?vid=e8103131-65e0-4ced-9702-0bf8ac1b6748"},"vehicle_type_id":"4","last_reported":1702803976,"current_range_meters":11200,"station_id":"ce4bgup2rcd13ifvqcn0","pricing_plan_id":"free"},{"bike_id":"d1e8bc4d-74c9-4c8d-bac1-81d702753e19","system_id":"levelo_inurba_marseille","lat":43.304606,"lon":5.379026,"is_reserved":false,"is_disabled":false,"rental_uris":{"android":"levelo://app?vid=d1e8bc4d-74c9-4c8d-bac1-81d702753e19","ios":"levelo://app?vid=d1e8bc4d-74c9-4c8d-bac1-81d702753e19"},"vehicle_type_id":"4","last_reported":1702803976,"current_range_meters":31200,"station_id":"ce4bgup2rcd13ifvqcn0","pricing_plan_id":"free"},{"bike_id":"b5d25608-ac0d-4e93-8743-12baac034124","system_id":"levelo_inurba_marseille","lat":43.304606,"lon":5.379026,"is_reserved":false,"is_disabled":false,"rental_uris":{"android":"levelo://app?vid=b5d25608-ac0d-4e93-8743-12baac034124","ios":"levelo://app?vid=b5d25608-ac0d-4e93-8743-12baac034124"},"vehicle_type_id":"4","last_reported":1702803976,"current_range_meters":23200,"station_id":"ce4bgup2rcd13ifvqcn0","pricing_plan_id":"free"},{"bike_id":"88f7ea2a-62f7-4a88-9e9d-900940b4d7e5","system_id":"levelo_inurba_marseille","lat":43.324771,"lon":5.36557,"is_reserved":false,"is_disabled":false,"rental_uris":{"android":"levelo://app?vid=88f7ea2a-62f7-4a88-9e9d-900940b4d7e5","ios":"levelo://app?vid=88f7ea2a-62f7-4a88-9e9d-900940b4d7e5"},"vehicle_type_id":"4","last_reported":1702803976,"current_range_meters":29600,"station_id":"ce4bhs12rcd13ifvqhvg","pricing_plan_id":"free"},{"bike_id":"fdfd9b0f-e1a6-4c43-8b05-220857b47488","system_id":"levelo_inurba_marseille","lat":43.301429,"lon":5.37413,"is_reserved":false,"is_disabled":false,"rental_uris":{"android":"levelo://app?vid=fdfd9b0f-e1a6-4c43-8b05-220857b47488","ios":"levelo://app?vid=fdfd9b0f-e1a6-4c43-8b05-220857b47488"},"vehicle_type_id":"4","last_reported":1702803976,"current_range_meters":7200,"station_id":"ce4bgs92rcd13ifvqcc0","pricing_plan_id":"free"},{"bike_id":"dd62cb3a-3f08-44cf-8561-0c89ff17ac35","system_id":"levelo_inurba_marseille","lat":43.313614,"lon":5.384756,"is_reserved":false,"is_disabled":false,"rental_uris":{"android":"levelo://app?vid=dd62cb3a-3f08-44cf-8561-0c89ff17ac35","ios":"levelo://app?vid=dd62cb3a-3f08-44cf-8561-0c89ff17ac35"},"vehicle_type_id":"4","last_reported":1702803976,"current_range_meters":17600,"station_id":"ce4bgt92rcd13ifvqcf0","pricing_plan_id":"free"},{"bike_id":"cac0808f-1cc1-4047-93d7-41f5fd5ae8b7","system_id":"levelo_inurba_marseille","lat":43.313571,"lon":5.384829,"is_reserved":false,"is_disabled":false,"rental_uris":{"android":"levelo://app?vid=cac0808f-1cc1-4047-93d7-41f5fd5ae8b7","ios":"levelo://app?vid=cac0808f-1cc1-4047-93d7-41f5fd5ae8b7"},"vehicle_type_id":"4","last_reported":1702803976,"current_range_meters":29600,"station_id":"ce4bgt92rcd13ifvqcf0","pricing_plan_id":"free"},{"bike_id":"7f06e891-96e8-4d04-8132-92e169a26543","system_id":"levelo_inurba_marseille","lat":43.29941,"lon":5.36554,"is_reserved":false,"is_disabled":false,"rental_uris":{"android":"levelo://app?vid=7f06e891-96e8-4d04-8132-92e169a26543","ios":"levelo://app?vid=7f06e891-96e8-4d04-8132-92e169a26543"},"vehicle_type_id":"4","last_reported":1702803976,"current_range_meters":25600,"station_id":"ce4bgm92rcd13ifvqbr0","pricing_plan_id":"free"},{"bike_id":"c4e77394-aef9-4077-b745-e99148625344","system_id":"levelo_inurba_marseille","lat":43.32733,"lon":5.36707,"is_reserved":false,"is_disabled":false,"rental_uris":{"android":"levelo://app?vid=c4e77394-aef9-4077-b745-e99148625344","ios":"levelo://app?vid=c4e77394-aef9-4077-b745-e99148625344"},"vehicle_type_id":"4","last_reported":1702803976,"current_range_meters":19600,"station_id":"","pricing_plan_id":"free"},{"bike_id":"819cb438-2e9c-4e0b-902b-5e19ef554d5c","system_id":"levelo_inurba_marseille","lat":43.305518,"lon":5.384353,"is_reserved":false,"is_disabled":false,"rental_uris":{"android":"levelo://app?vid=819cb438-2e9c-4e0b-902b-5e19ef554d5c","ios":"levelo://app?vid=819cb438-2e9c-4e0b-902b-5e19ef554d5c"},"vehicle_type_id":"4","last_reported":1702803976,"current_range_meters":12400,"station_id":"ce4bgg92rcd13ifvqb30","pricing_plan_id":"free"},{"bike_id":"1cf66990-ec77-4925-a25e-8d9b2cd24333","system_id":"levelo_inurba_marseille","lat":43.298433,"lon":5.362774,"is_reserved":false,"is_disabled":false,"rental_uris":{"android":"levelo://app?vid=1cf66990-ec77-4925-a25e-8d9b2cd24333","ios":"levelo://app?vid=1cf66990-ec77-4925-a25e-8d9b2cd24333"},"vehicle_type_id":"4","last_reported":1702803976,"current_range_meters":26800,"station_id":"ce4bgpp2rcd13ifvqc3g","pricing_plan_id":"free"},{"bike_id":"edc8767d-a247-4450-b7c9-97f5c7722ecc","system_id":"levelo_inurba_marseille","lat":43.3117,"lon":5.38711,"is_reserved":false,"is_disabled":false,"rental_uris":{"android":"levelo://app?vid=edc8767d-a247-4450-b7c9-97f5c7722ecc","ios":"levelo://app?vid=edc8767d-a247-4450-b7c9-97f5c7722ecc"},"vehicle_type_id":"4","last_reported":1702803976,"current_range_meters":30800,"station_id":"ce4bgv12rcd13ifvqcp0","pricing_plan_id":"free"},{"bike_id":"6132e363-6fc3-45e3-87bf-fc40337a0436","system_id":"levelo_inurba_marseille","lat":43.322872,"lon":5.382756,"is_reserved":false,"is_disabled":false,"rental_uris":{"android":"levelo://app?vid=6132e363-6fc3-45e3-87bf-fc40337a0436","ios":"levelo://app?vid=6132e363-6fc3-45e3-87bf-fc40337a0436"},"vehicle_type_id":"4","last_reported":1702803976,"current_range_meters":28800,"station_id":"ce4bhr12rcd13ifvqhqg","pricing_plan_id":"free"},{"bike_id":"f1491da4-2f54-4445-8640-37b7b5e9b0bd","system_id":"levelo_inurba_marseille","lat":43.328298,"lon":5.366754,"is_reserved":false,"is_disabled":false,"rental_uris":{"android":"levelo://app?vid=f1491da4-2f54-4445-8640-37b7b5e9b0bd","ios":"levelo://app?vid=f1491da4-2f54-4445-8640-37b7b5e9b0bd"},"vehicle_type_id":"4","last_reported":1702803976,"current_range_meters":30400,"station_id":"ce4bhs92rcd13ifvqi0g","pricing_plan_id":"free"},{"bike_id":"d552ebbe-3535-4233-b783-27841fdde344","system_id":"levelo_inurba_marseille","lat":43.3283,"lon":5.36678,"is_reserved":false,"is_disabled":false,"rental_uris":{"android":"levelo://app?vid=d552ebbe-3535-4233-b783-27841fdde344","ios":"levelo://app?vid=d552ebbe-3535-4233-b783-27841fdde344"},"vehicle_type_id":"4","last_reported":1702803976,"current_range_meters":31200,"station_id":"ce4bhs92rcd13ifvqi0g","pricing_plan_id":"free"},{"bike_id":"257e2c60-5deb-4d9a-9e2e-c2fc09067537","system_id":"levelo_inurba_marseille","lat":43.328307,"lon":5.366705,"is_reserved":false,"is_disabled":false,"rental_uris":{"android":"levelo://app?vid=257e2c60-5deb-4d9a-9e2e-c2fc09067537","ios":"levelo://app?vid=257e2c60-5deb-4d9a-9e2e-c2fc09067537"},"vehicle_type_id":"4","last_reported":1702803976,"current_range_meters":15200,"station_id":"ce4bhs92rcd13ifvqi0g","pricing_plan_id":"free"},{"bike_id":"0b6fb5a2-1b9a-4bda-a5d8-b4f3e6bb0e61","system_id":"levelo_inurba_marseille","lat":43.297163,"lon":5.365866,"is_reserved":false,"is_disabled":false,"rental_uris":{"android":"levelo://app?vid=0b6fb5a2-1b9a-4bda-a5d8-b4f3e6bb0e61","ios":"levelo://app?vid=0b6fb5a2-1b9a-4bda-a5d8-b4f3e6bb0e61"},"vehicle_type_id":"4","last_reported":1702803976,"current_range_meters":25200,"station_id":"ce4bgn12rcd13ifvqbt0","pricing_plan_id":"free"},{"bike_id":"f1ae8b73-ba64-4a47-8c3d-90e47434b3a8","system_id":"levelo_inurba_marseille","lat":43.297163,"lon":5.365866,"is_reserved":false,"is_disabled":false,"rental_uris":{"android":"levelo://app?vid=f1ae8b73-ba64-4a47-8c3d-90e47434b3a8","ios":"levelo://app?vid=f1ae8b73-ba64-4a47-8c3d-90e47434b3a8"},"vehicle_type_id":"4","last_reported":1702803976,"current_range_meters":400,"station_id":"ce4bgn12rcd13ifvqbt0","pricing_plan_id":"free"},{"bike_id":"0195673d-2f1b-47dc-8b37-d0d0bfe169e4","system_id":"levelo_inurba_marseille","lat":43.2968,"lon":5.37291,"is_reserved":false,"is_disabled":false,"rental_uris":{"android":"levelo://app?vid=0195673d-2f1b-47dc-8b37-d0d0bfe169e4","ios":"levelo://app?vid=0195673d-2f1b-47dc-8b37-d0d0bfe169e4"},"vehicle_type_id":"4","last_reported":1702803976,"current_range_meters":20400,"station_id":"ce4bgk12rcd13ifvqbj0","pricing_plan_id":"free"},{"bike_id":"a049c940-69b3-4d11-a328-91e0c4c454c5","system_id":"levelo_inurba_marseille","lat":43.296935,"lon":5.376544,"is_reserved":false,"is_disabled":false,"rental_uris":{"android":"levelo://app?vid=a049c940-69b3-4d11-a328-91e0c4c454c5","ios":"levelo://app?vid=a049c940-69b3-4d11-a328-91e0c4c454c5"},"vehicle_type_id":"4","last_reported":1702803976,"current_range_meters":23200,"station_id":"ce4bgkh2rcd13ifvqbl0","pricing_plan_id":"free"},{"bike_id":"516832ec-6eb1-4c35-a4eb-02399fd1b463","system_id":"levelo_inurba_marseille","lat":43.296921,"lon":5.376579,"is_reserved":false,"is_disabled":false,"rental_uris":{"android":"levelo://app?vid=516832ec-6eb1-4c35-a4eb-02399fd1b463","ios":"levelo://app?vid=516832ec-6eb1-4c35-a4eb-02399fd1b463"},"vehicle_type_id":"4","last_reported":1702803976,"current_range_meters":29600,"station_id":"ce4bgkh2rcd13ifvqbl0","pricing_plan_id":"free"},{"bike_id":"729c1c1f-ef5d-4c7e-8367-862d949ec8b3","system_id":"levelo_inurba_marseille","lat":43.30973,"lon":5.39035,"is_reserved":false,"is_disabled":false,"rental_uris":{"android":"levelo://app?vid=729c1c1f-ef5d-4c7e-8367-862d949ec8b3","ios":"levelo://app?vid=729c1c1f-ef5d-4c7e-8367-862d949ec8b3"},"vehicle_type_id":"4","last_reported":1702803976,"current_range_meters":24800,"station_id":"ce4bgup2rcd13ifvqco0","pricing_plan_id":"free"},{"bike_id":"4786b58a-2bab-4f9d-a1d2-acb81c1abfae","system_id":"levelo_inurba_marseille","lat":43.299028,"lon":5.381509,"is_reserved":false,"is_disabled":false,"rental_uris":{"android":"levelo://app?vid=4786b58a-2bab-4f9d-a1d2-acb81c1abfae","ios":"levelo://app?vid=4786b58a-2bab-4f9d-a1d2-acb81c1abfae"},"vehicle_type_id":"4","last_reported":1702803976,"current_range_meters":22000,"station_id":"ce4bgj12rcd13ifvqbc0","pricing_plan_id":"free"},{"bike_id":"4fe68cb0-ef05-4f1c-919b-7a2b0e3c1f89","system_id":"levelo_inurba_marseille","lat":43.317557,"lon":5.390173,"is_reserved":false,"is_disabled":false,"rental_uris":{"android":"levelo://app?vid=4fe68cb0-ef05-4f1c-919b-7a2b0e3c1f89","ios":"levelo://app?vid=4fe68cb0-ef05-4f1c-919b-7a2b0e3c1f89"},"vehicle_type_id":"4","last_reported":1702803976,"current_range_meters":31600,"station_id":"ce4bhqp2rcd13ifvqhng","pricing_plan_id":"free"},{"bike_id":"d6044d44-46f6-46c2-bcb2-8e3a6e06c707","system_id":"levelo_inurba_marseille","lat":43.317557,"lon":5.390173,"is_reserved":false,"is_disabled":false,"rental_uris":{"android":"levelo://app?vid=d6044d44-46f6-46c2-bcb2-8e3a6e06c707","ios":"levelo://app?vid=d6044d44-46f6-46c2-bcb2-8e3a6e06c707"},"vehicle_type_id":"4","last_reported":1702803976,"current_range_meters":30400,"station_id":"ce4bhqp2rcd13ifvqhng","pricing_plan_id":"free"},{"bike_id":"410233e4-b225-4b2a-baec-4ca3969b54bf","system_id":"levelo_inurba_marseille","lat":43.317557,"lon":5.390173,"is_reserved":false,"is_disabled":false,"rental_uris":{"android":"levelo://app?vid=410233e4-b225-4b2a-baec-4ca3969b54bf","ios":"levelo://app?vid=410233e4-b225-4b2a-baec-4ca3969b54bf"},"vehicle_type_id":"4","last_reported":1702803976,"current_range_meters":3200,"station_id":"ce4bhqp2rcd13ifvqhng","pricing_plan_id":"free"},{"bike_id":"2e4327a4-5c68-42c9-a75e-2a5f9b2ba77b","system_id":"levelo_inurba_marseille","lat":43.317557,"lon":5.390173,"is_reserved":false,"is_disabled":false,"rental_uris":{"android":"levelo://app?vid=2e4327a4-5c68-42c9-a75e-2a5f9b2ba77b","ios":"levelo://app?vid=2e4327a4-5c68-42c9-a75e-2a5f9b2ba77b"},"vehicle_type_id":"4","last_reported":1702803976,"current_range_meters":31600,"station_id":"ce4bhqp2rcd13ifvqhng","pricing_plan_id":"free"},{"bike_id":"d002ee22-f5d5-450f-9053-19b01fa56945","system_id":"levelo_inurba_marseille","lat":43.29801,"lon":5.38099,"is_reserved":false,"is_disabled":false,"rental_uris":{"android":"levelo://app?vid=d002ee22-f5d5-450f-9053-19b01fa56945","ios":"levelo://app?vid=d002ee22-f5d5-450f-9053-19b01fa56945"},"vehicle_type_id":"4","last_reported":1702803976,"current_range_meters":20400,"station_id":"ce4bgip2rcd13ifvqbb0","pricing_plan_id":"free"},{"bike_id":"4978515e-1c4e-4dbc-a000-36164a9c8cf6","system_id":"levelo_inurba_marseille","lat":43.304274,"lon":5.388873,"is_reserved":false,"is_disabled":false,"rental_uris":{"android":"levelo://app?vid=4978515e-1c4e-4dbc-a000-36164a9c8cf6","ios":"levelo://app?vid=4978515e-1c4e-4dbc-a000-36164a9c8cf6"},"vehicle_type_id":"4","last_reported":1702803976,"current_range_meters":31600,"station_id":"ce4bgk12rcd13ifvqbi0","pricing_plan_id":"free"},{"bike_id":"fee9b8c2-3044-4784-aa2c-4d38d96cf677","system_id":"levelo_inurba_marseille","lat":43.295748,"lon":5.37522,"is_reserved":false,"is_disabled":false,"rental_uris":{"android":"levelo://app?vid=fee9b8c2-3044-4784-aa2c-4d38d96cf677","ios":"levelo://app?vid=fee9b8c2-3044-4784-aa2c-4d38d96cf677"},"vehicle_type_id":"4","last_reported":1702803976,"current_range_meters":27200,"station_id":"ce4bgh92rcd13ifvqb50","pricing_plan_id":"free"},{"bike_id":"e61c0c56-679d-4a08-8ee6-3b4b01142da0","system_id":"levelo_inurba_marseille","lat":43.295748,"lon":5.37522,"is_reserved":false,"is_disabled":false,"rental_uris":{"android":"levelo://app?vid=e61c0c56-679d-4a08-8ee6-3b4b01142da0","ios":"levelo://app?vid=e61c0c56-679d-4a08-8ee6-3b4b01142da0"},"vehicle_type_id":"4","last_reported":1702803976,"current_range_meters":24400,"station_id":"ce4bgh92rcd13ifvqb50","pricing_plan_id":"free"},{"bike_id":"0f9dd902-5d34-4a35-ade3-5537d3c650e3","system_id":"levelo_inurba_marseille","lat":43.304278,"lon":5.388868,"is_reserved":false,"is_disabled":false,"rental_uris":{"android":"levelo://app?vid=0f9dd902-5d34-4a35-ade3-5537d3c650e3","ios":"levelo://app?vid=0f9dd902-5d34-4a35-ade3-5537d3c650e3"},"vehicle_type_id":"4","last_reported":1702803976,"current_range_meters":28000,"station_id":"ce4bgk12rcd13ifvqbi0","pricing_plan_id":"free"},{"bike_id":"e65fc8fa-1d9f-4b3c-8008-bcd9839fef80","system_id":"levelo_inurba_marseille","lat":43.295748,"lon":5.37522,"is_reserved":false,"is_disabled":false,"rental_uris":{"android":"levelo://app?vid=e65fc8fa-1d9f-4b3c-8008-bcd9839fef80","ios":"levelo://app?vid=e65fc8fa-1d9f-4b3c-8008-bcd9839fef80"},"vehicle_type_id":"4","last_reported":1702803976,"current_range_meters":25200,"station_id":"ce4bgh92rcd13ifvqb50","pricing_plan_id":"free"},{"bike_id":"9cd666f6-e9e1-40d8-b00c-8efe6eb77938","system_id":"levelo_inurba_marseille","lat":43.296277,"lon":5.377108,"is_reserved":false,"is_disabled":false,"rental_uris":{"android":"levelo://app?vid=9cd666f6-e9e1-40d8-b00c-8efe6eb77938","ios":"levelo://app?vid=9cd666f6-e9e1-40d8-b00c-8efe6eb77938"},"vehicle_type_id":"4","last_reported":1702803976,"current_range_meters":22800,"station_id":"ce4bgi92rcd13ifvqb90","pricing_plan_id":"free"},{"bike_id":"22bfe4a9-f880-4290-8042-19dff59966a6","system_id":"levelo_inurba_marseille","lat":43.304274,"lon":5.388873,"is_reserved":false,"is_disabled":false,"rental_uris":{"android":"levelo://app?vid=22bfe4a9-f880-4290-8042-19dff59966a6","ios":"levelo://app?vid=22bfe4a9-f880-4290-8042-19dff59966a6"},"vehicle_type_id":"4","last_reported":1702803976,"current_range_meters":28000,"station_id":"ce4bgk12rcd13ifvqbi0","pricing_plan_id":"free"},{"bike_id":"d32c89f8-d2c2-47ba-93c5-d9aa3f9be2fe","system_id":"levelo_inurba_marseille","lat":43.295748,"lon":5.37522,"is_reserved":false,"is_disabled":false,"rental_uris":{"android":"levelo://app?vid=d32c89f8-d2c2-47ba-93c5-d9aa3f9be2fe","ios":"levelo://app?vid=d32c89f8-d2c2-47ba-93c5-d9aa3f9be2fe"},"vehicle_type_id":"4","last_reported":1702803976,"current_range_meters":22000,"station_id":"ce4bgh92rcd13ifvqb50","pricing_plan_id":"free"},{"bike_id":"bf17742b-9954-430f-aab7-17452f7220fa","system_id":"levelo_inurba_marseille","lat":43.296277,"lon":5.377108,"is_reserved":false,"is_disabled":false,"rental_uris":{"android":"levelo://app?vid=bf17742b-9954-430f-aab7-17452f7220fa","ios":"levelo://app?vid=bf17742b-9954-430f-aab7-17452f7220fa"},"vehicle_type_id":"4","last_reported":1702803976,"current_range_meters":25600,"station_id":"ce4bgi92rcd13ifvqb90","pricing_plan_id":"free"},{"bike_id":"ca6b0258-a748-4c6a-9aee-d4b8050bcaff","system_id":"levelo_inurba_marseille","lat":43.296277,"lon":5.377108,"is_reserved":false,"is_disabled":false,"rental_uris":{"android":"levelo://app?vid=ca6b0258-a748-4c6a-9aee-d4b8050bcaff","ios":"levelo://app?vid=ca6b0258-a748-4c6a-9aee-d4b8050bcaff"},"vehicle_type_id":"4","last_reported":1702803976,"current_range_meters":31200,"station_id":"ce4bgi92rcd13ifvqb90","pricing_plan_id":"free"},{"bike_id":"6a5f0b41-0fd9-4832-8aa1-aa0a52b92c26","system_id":"levelo_inurba_marseille","lat":43.296277,"lon":5.377108,"is_reserved":false,"is_disabled":false,"rental_uris":{"android":"levelo://app?vid=6a5f0b41-0fd9-4832-8aa1-aa0a52b92c26","ios":"levelo://app?vid=6a5f0b41-0fd9-4832-8aa1-aa0a52b92c26"},"vehicle_type_id":"4","last_reported":1702803976,"current_range_meters":17600,"station_id":"ce4bgi92rcd13ifvqb90","pricing_plan_id":"free"},{"bike_id":"33550639-6507-4236-af9c-87d30e7dc472","system_id":"levelo_inurba_marseille","lat":43.295279,"lon":5.375048,"is_reserved":false,"is_disabled":false,"rental_uris":{"android":"levelo://app?vid=33550639-6507-4236-af9c-87d30e7dc472","ios":"levelo://app?vid=33550639-6507-4236-af9c-87d30e7dc472"},"vehicle_type_id":"4","last_reported":1702803976,"current_range_meters":25200,"station_id":"ce4bgkp2rcd13ifvqbmg","pricing_plan_id":"free"},{"bike_id":"4427346c-5f35-44f4-acb0-db5186307bf9","system_id":"levelo_inurba_marseille","lat":43.295279,"lon":5.375048,"is_reserved":false,"is_disabled":false,"rental_uris":{"android":"levelo://app?vid=4427346c-5f35-44f4-acb0-db5186307bf9","ios":"levelo://app?vid=4427346c-5f35-44f4-acb0-db5186307bf9"},"vehicle_type_id":"4","last_reported":1702803976,"current_range_meters":23600,"station_id":"ce4bgkp2rcd13ifvqbmg","pricing_plan_id":"free"},{"bike_id":"da2bf830-8371-4987-8296-d78e324a9b5b","system_id":"levelo_inurba_marseille","lat":43.29645,"lon":5.379427,"is_reserved":false,"is_disabled":false,"rental_uris":{"android":"levelo://app?vid=da2bf830-8371-4987-8296-d78e324a9b5b","ios":"levelo://app?vid=da2bf830-8371-4987-8296-d78e324a9b5b"},"vehicle_type_id":"4","last_reported":1702803976,"current_range_meters":800,"station_id":"","pricing_plan_id":"free"},{"bike_id":"d15249d3-1655-45fd-9868-ed8714e39df4","system_id":"levelo_inurba_marseille","lat":43.295279,"lon":5.375048,"is_reserved":false,"is_disabled":false,"rental_uris":{"android":"levelo://app?vid=d15249d3-1655-45fd-9868-ed8714e39df4","ios":"levelo://app?vid=d15249d3-1655-45fd-9868-ed8714e39df4"},"vehicle_type_id":"4","last_reported":1702803976,"current_range_meters":29200,"station_id":"ce4bgkp2rcd13ifvqbmg","pricing_plan_id":"free"},{"bike_id":"2d339ccb-9fe7-4132-b39e-b9bd4a932749","system_id":"levelo_inurba_marseille","lat":43.323629,"lon":5.388729,"is_reserved":false,"is_disabled":false,"rental_uris":{"android":"levelo://app?vid=2d339ccb-9fe7-4132-b39e-b9bd4a932749","ios":"levelo://app?vid=2d339ccb-9fe7-4132-b39e-b9bd4a932749"},"vehicle_type_id":"4","last_reported":1702803976,"current_range_meters":12400,"station_id":"ce4bhqp2rcd13ifvqhog","pricing_plan_id":"free"},{"bike_id":"31954c81-37ea-46a3-a087-7d824ac76191","system_id":"levelo_inurba_marseille","lat":43.323644,"lon":5.388768,"is_reserved":false,"is_disabled":false,"rental_uris":{"android":"levelo://app?vid=31954c81-37ea-46a3-a087-7d824ac76191","ios":"levelo://app?vid=31954c81-37ea-46a3-a087-7d824ac76191"},"vehicle_type_id":"4","last_reported":1702803976,"current_range_meters":31200,"station_id":"ce4bhqp2rcd13ifvqhog","pricing_plan_id":"free"},{"bike_id":"7ff21894-2f32-4658-85e2-91c4f4d495d4","system_id":"levelo_inurba_marseille","lat":43.32365,"lon":5.388792,"is_reserved":false,"is_disabled":false,"rental_uris":{"android":"levelo://app?vid=7ff21894-2f32-4658-85e2-91c4f4d495d4","ios":"levelo://app?vid=7ff21894-2f32-4658-85e2-91c4f4d495d4"},"vehicle_type_id":"4","last_reported":1702803976,"current_range_meters":31200,"station_id":"ce4bhqp2rcd13ifvqhog","pricing_plan_id":"free"},{"bike_id":"5d6ee3ce-3dc9-4d0e-ae17-2c93259fed6d","system_id":"levelo_inurba_marseille","lat":43.29271,"lon":5.36839,"is_reserved":false,"is_disabled":false,"rental_uris":{"android":"levelo://app?vid=5d6ee3ce-3dc9-4d0e-ae17-2c93259fed6d","ios":"levelo://app?vid=5d6ee3ce-3dc9-4d0e-ae17-2c93259fed6d"},"vehicle_type_id":"4","last_reported":1702803976,"current_range_meters":26000,"station_id":"ce4bhbp2rcd13ifvqesg","pricing_plan_id":"free"},{"bike_id":"8fa36d19-437d-49dc-b888-98ee829e2c27","system_id":"levelo_inurba_marseille","lat":43.293009,"lon":5.374584,"is_reserved":false,"is_disabled":false,"rental_uris":{"android":"levelo://app?vid=8fa36d19-437d-49dc-b888-98ee829e2c27","ios":"levelo://app?vid=8fa36d19-437d-49dc-b888-98ee829e2c27"},"vehicle_type_id":"4","last_reported":1702803976,"current_range_meters":15600,"station_id":"ce4bgi12rcd13ifvqb70","pricing_plan_id":"free"},{"bike_id":"4c62c507-3399-4eb3-9d02-b437eae59f51","system_id":"levelo_inurba_marseille","lat":43.30591,"lon":5.39352,"is_reserved":false,"is_disabled":false,"rental_uris":{"android":"levelo://app?vid=4c62c507-3399-4eb3-9d02-b437eae59f51","ios":"levelo://app?vid=4c62c507-3399-4eb3-9d02-b437eae59f51"},"vehicle_type_id":"4","last_reported":1702803976,"current_range_meters":6800,"station_id":"ce4bh0p2rcd13ifvqd80","pricing_plan_id":"free"},{"bike_id":"d587091c-9f22-4a97-8ac3-682e7fb8d771","system_id":"levelo_inurba_marseille","lat":43.292311,"lon":5.360731,"is_reserved":false,"is_disabled":false,"rental_uris":{"android":"levelo://app?vid=d587091c-9f22-4a97-8ac3-682e7fb8d771","ios":"levelo://app?vid=d587091c-9f22-4a97-8ac3-682e7fb8d771"},"vehicle_type_id":"4","last_reported":1702803976,"current_range_meters":28800,"station_id":"ce4bhbh2rcd13ifvqeqg","pricing_plan_id":"free"},{"bike_id":"0e165c18-f0b9-4a0b-82e3-700389851414","system_id":"levelo_inurba_marseille","lat":43.30085,"lon":5.390856,"is_reserved":false,"is_disabled":false,"rental_uris":{"android":"levelo://app?vid=0e165c18-f0b9-4a0b-82e3-700389851414","ios":"levelo://app?vid=0e165c18-f0b9-4a0b-82e3-700389851414"},"vehicle_type_id":"4","last_reported":1702803976,"current_range_meters":25600,"station_id":"ce4bh192rcd13ifvqdb0","pricing_plan_id":"free"},{"bike_id":"7ed22226-fac5-4877-b7e4-afb6e44e5a35","system_id":"levelo_inurba_marseille","lat":43.309038,"lon":5.396546,"is_reserved":false,"is_disabled":false,"rental_uris":{"android":"levelo://app?vid=7ed22226-fac5-4877-b7e4-afb6e44e5a35","ios":"levelo://app?vid=7ed22226-fac5-4877-b7e4-afb6e44e5a35"},"vehicle_type_id":"4","last_reported":1702803976,"current_range_meters":31200,"station_id":"ce4bh012rcd13ifvqcv0","pricing_plan_id":"free"},{"bike_id":"1127c8f7-e1ed-4061-bac1-0a461aca95fe","system_id":"levelo_inurba_marseille","lat":43.309038,"lon":5.396546,"is_reserved":false,"is_disabled":false,"rental_uris":{"android":"levelo://app?vid=1127c8f7-e1ed-4061-bac1-0a461aca95fe","ios":"levelo://app?vid=1127c8f7-e1ed-4061-bac1-0a461aca95fe"},"vehicle_type_id":"4","last_reported":1702803976,"current_range_meters":31200,"station_id":"ce4bh012rcd13ifvqcv0","pricing_plan_id":"free"},{"bike_id":"5e511c56-0260-4ddb-a305-0bfd326caa29","system_id":"levelo_inurba_marseille","lat":43.291994,"lon":5.357886,"is_reserved":false,"is_disabled":false,"rental_uris":{"android":"levelo://app?vid=5e511c56-0260-4ddb-a305-0bfd326caa29","ios":"levelo://app?vid=5e511c56-0260-4ddb-a305-0bfd326caa29"},"vehicle_type_id":"4","last_reported":1702803976,"current_range_meters":31200,"station_id":"ce4bhb12rcd13ifvqel0","pricing_plan_id":"free"},{"bike_id":"605e32fe-2721-40a0-adc4-985c1fa585d7","system_id":"levelo_inurba_marseille","lat":43.313291,"lon":5.396838,"is_reserved":false,"is_disabled":false,"rental_uris":{"android":"levelo://app?vid=605e32fe-2721-40a0-adc4-985c1fa585d7","ios":"levelo://app?vid=605e32fe-2721-40a0-adc4-985c1fa585d7"},"vehicle_type_id":"4","last_reported":1702803976,"current_range_meters":28800,"station_id":"ce4bgvp2rcd13ifvqcu0","pricing_plan_id":"free"},{"bike_id":"ba64abcd-bdad-4230-ae7f-05ba313254cc","system_id":"levelo_inurba_marseille","lat":43.302008,"lon":5.394694,"is_reserved":false,"is_disabled":false,"rental_uris":{"android":"levelo://app?vid=ba64abcd-bdad-4230-ae7f-05ba313254cc","ios":"levelo://app?vid=ba64abcd-bdad-4230-ae7f-05ba313254cc"},"vehicle_type_id":"4","last_reported":1702803976,"current_range_meters":28400,"station_id":"ce4bh0p2rcd13ifvqd70","pricing_plan_id":"free"},{"bike_id":"c00a7200-74ba-473b-80f1-bade7bafd513","system_id":"levelo_inurba_marseille","lat":43.30207,"lon":5.39463,"is_reserved":false,"is_disabled":false,"rental_uris":{"android":"levelo://app?vid=c00a7200-74ba-473b-80f1-bade7bafd513","ios":"levelo://app?vid=c00a7200-74ba-473b-80f1-bade7bafd513"},"vehicle_type_id":"4","last_reported":1702803976,"current_range_meters":22800,"station_id":"ce4bh0p2rcd13ifvqd70","pricing_plan_id":"free"},{"bike_id":"0e02cd82-420c-4930-9588-bb0ef265132a","system_id":"levelo_inurba_marseille","lat":43.290624,"lon":5.359245,"is_reserved":false,"is_disabled":false,"rental_uris":{"android":"levelo://app?vid=0e02cd82-420c-4930-9588-bb0ef265132a","ios":"levelo://app?vid=0e02cd82-420c-4930-9588-bb0ef265132a"},"vehicle_type_id":"4","last_reported":1702803976,"current_range_meters":29600,"station_id":"ce4bha92rcd13ifvqeg0","pricing_plan_id":"free"},{"bike_id":"ca3af477-5c44-491d-84d9-8a230bd4e5fb","system_id":"levelo_inurba_marseille","lat":43.290631,"lon":5.359244,"is_reserved":false,"is_disabled":false,"rental_uris":{"android":"levelo://app?vid=ca3af477-5c44-491d-84d9-8a230bd4e5fb","ios":"levelo://app?vid=ca3af477-5c44-491d-84d9-8a230bd4e5fb"},"vehicle_type_id":"4","last_reported":1702803976,"current_range_meters":26800,"station_id":"ce4bha92rcd13ifvqeg0","pricing_plan_id":"free"},{"bike_id":"ffbcfc66-d656-4c73-ab66-d4a209a4ae16","system_id":"levelo_inurba_marseille","lat":43.30425,"lon":5.39746,"is_reserved":false,"is_disabled":false,"rental_uris":{"android":"levelo://app?vid=ffbcfc66-d656-4c73-ab66-d4a209a4ae16","ios":"levelo://app?vid=ffbcfc66-d656-4c73-ab66-d4a209a4ae16"},"vehicle_type_id":"4","last_reported":1702803976,"current_range_meters":14000,"station_id":"ce4bh092rcd13ifvqd20","pricing_plan_id":"free"},{"bike_id":"a70a0821-41c1-4712-b50d-8ec6dc6ba870","system_id":"levelo_inurba_marseille","lat":43.3042,"lon":5.39752,"is_reserved":false,"is_disabled":false,"rental_uris":{"android":"levelo://app?vid=a70a0821-41c1-4712-b50d-8ec6dc6ba870","ios":"levelo://app?vid=a70a0821-41c1-4712-b50d-8ec6dc6ba870"},"vehicle_type_id":"4","last_reported":1702803976,"current_range_meters":28000,"station_id":"ce4bh092rcd13ifvqd20","pricing_plan_id":"free"},{"bike_id":"13bc9080-4d2f-437e-9ec0-0786a0b0176f","system_id":"levelo_inurba_marseille","lat":43.330442,"lon":5.389148,"is_reserved":false,"is_disabled":false,"rental_uris":{"android":"levelo://app?vid=13bc9080-4d2f-437e-9ec0-0786a0b0176f","ios":"levelo://app?vid=13bc9080-4d2f-437e-9ec0-0786a0b0176f"},"vehicle_type_id":"4","last_reported":1702803976,"current_range_meters":25200,"station_id":"ce4bhr92rcd13ifvqhrg","pricing_plan_id":"free"},{"bike_id":"0019cc72-50a3-4298-937a-c3025a814462","system_id":"levelo_inurba_marseille","lat":43.33047,"lon":5.38924,"is_reserved":false,"is_disabled":false,"rental_uris":{"android":"levelo://app?vid=0019cc72-50a3-4298-937a-c3025a814462","ios":"levelo://app?vid=0019cc72-50a3-4298-937a-c3025a814462"},"vehicle_type_id":"4","last_reported":1702803976,"current_range_meters":4800,"station_id":"ce4bhr92rcd13ifvqhrg","pricing_plan_id":"free"},{"bike_id":"fc2a4bee-79a1-4ef6-8f14-1d21acce61f5","system_id":"levelo_inurba_marseille","lat":43.290103,"lon":5.356114,"is_reserved":false,"is_disabled":false,"rental_uris":{"android":"levelo://app?vid=fc2a4bee-79a1-4ef6-8f14-1d21acce61f5","ios":"levelo://app?vid=fc2a4bee-79a1-4ef6-8f14-1d21acce61f5"},"vehicle_type_id":"4","last_reported":1702803976,"current_range_meters":2400,"station_id":"ce4bhb92rcd13ifvqen0","pricing_plan_id":"free"},{"bike_id":"4ec70c49-3410-4336-b1a9-d91e57f8efec","system_id":"levelo_inurba_marseille","lat":43.295169,"lon":5.390426,"is_reserved":false,"is_disabled":false,"rental_uris":{"android":"levelo://app?vid=4ec70c49-3410-4336-b1a9-d91e57f8efec","ios":"levelo://app?vid=4ec70c49-3410-4336-b1a9-d91e57f8efec"},"vehicle_type_id":"4","last_reported":1702803976,"current_range_meters":26000,"station_id":"ce4bh3p2rcd13ifvqdp0","pricing_plan_id":"free"},{"bike_id":"ad0f6538-ba65-40b7-bd35-329a98101cc1","system_id":"levelo_inurba_marseille","lat":43.28984,"lon":5.354844,"is_reserved":false,"is_disabled":false,"rental_uris":{"android":"levelo://app?vid=ad0f6538-ba65-40b7-bd35-329a98101cc1","ios":"levelo://app?vid=ad0f6538-ba65-40b7-bd35-329a98101cc1"},"vehicle_type_id":"4","last_reported":1702803976,"current_range_meters":7600,"station_id":"","pricing_plan_id":"free"},{"bike_id":"5a228bb2-f7a3-4ca8-b607-a53bfe34d6fa","system_id":"levelo_inurba_marseille","lat":43.312609,"lon":5.401662,"is_reserved":false,"is_disabled":false,"rental_uris":{"android":"levelo://app?vid=5a228bb2-f7a3-4ca8-b607-a53bfe34d6fa","ios":"levelo://app?vid=5a228bb2-f7a3-4ca8-b607-a53bfe34d6fa"},"vehicle_type_id":"4","last_reported":1702803976,"current_range_meters":30400,"station_id":"ce4bh092rcd13ifvqd30","pricing_plan_id":"free"},{"bike_id":"f0cd831c-cfb9-44c7-9487-103b6df223ca","system_id":"levelo_inurba_marseille","lat":43.337445,"lon":5.374592,"is_reserved":false,"is_disabled":false,"rental_uris":{"android":"levelo://app?vid=f0cd831c-cfb9-44c7-9487-103b6df223ca","ios":"levelo://app?vid=f0cd831c-cfb9-44c7-9487-103b6df223ca"},"vehicle_type_id":"4","last_reported":1702803976,"current_range_meters":26000,"station_id":"","pricing_plan_id":"free"},{"bike_id":"ce33c0c1-2bfe-4ba6-9e7e-c6751eefe870","system_id":"levelo_inurba_marseille","lat":43.3127,"lon":5.40174,"is_reserved":false,"is_disabled":false,"rental_uris":{"android":"levelo://app?vid=ce33c0c1-2bfe-4ba6-9e7e-c6751eefe870","ios":"levelo://app?vid=ce33c0c1-2bfe-4ba6-9e7e-c6751eefe870"},"vehicle_type_id":"4","last_reported":1702803976,"current_range_meters":30000,"station_id":"ce4bh092rcd13ifvqd30","pricing_plan_id":"free"},{"bike_id":"ef80ceab-dc9f-4b6c-8f52-707d5177f481","system_id":"levelo_inurba_marseille","lat":43.33752,"lon":5.37466,"is_reserved":false,"is_disabled":false,"rental_uris":{"android":"levelo://app?vid=ef80ceab-dc9f-4b6c-8f52-707d5177f481","ios":"levelo://app?vid=ef80ceab-dc9f-4b6c-8f52-707d5177f481"},"vehicle_type_id":"4","last_reported":1702803976,"current_range_meters":25600,"station_id":"","pricing_plan_id":"free"},{"bike_id":"6e166816-2d5a-4fa5-ac9b-53214dfd07de","system_id":"levelo_inurba_marseille","lat":43.301117,"lon":5.398795,"is_reserved":false,"is_disabled":false,"rental_uris":{"android":"levelo://app?vid=6e166816-2d5a-4fa5-ac9b-53214dfd07de","ios":"levelo://app?vid=6e166816-2d5a-4fa5-ac9b-53214dfd07de"},"vehicle_type_id":"4","last_reported":1702803976,"current_range_meters":24800,"station_id":"ce4bh0h2rcd13ifvqd40","pricing_plan_id":"free"},{"bike_id":"5ef7cba9-3151-4a85-8d97-3660cba3e8b4","system_id":"levelo_inurba_marseille","lat":43.28727,"lon":5.36078,"is_reserved":false,"is_disabled":false,"rental_uris":{"android":"levelo://app?vid=5ef7cba9-3151-4a85-8d97-3660cba3e8b4","ios":"levelo://app?vid=5ef7cba9-3151-4a85-8d97-3660cba3e8b4"},"vehicle_type_id":"4","last_reported":1702803976,"current_range_meters":29600,"station_id":"cki0cbj6b192h4jlfktg","pricing_plan_id":"free"},{"bike_id":"c148ee90-7e96-45a2-abe8-da7f1c9dbb79","system_id":"levelo_inurba_marseille","lat":43.289307,"lon":5.38406,"is_reserved":false,"is_disabled":false,"rental_uris":{"android":"levelo://app?vid=c148ee90-7e96-45a2-abe8-da7f1c9dbb79","ios":"levelo://app?vid=c148ee90-7e96-45a2-abe8-da7f1c9dbb79"},"vehicle_type_id":"4","last_reported":1702803976,"current_range_meters":25600,"station_id":"ce4bh612rcd13ifvqe6g","pricing_plan_id":"free"},{"bike_id":"cfe6e19c-437f-4506-824a-73c0a449afbd","system_id":"levelo_inurba_marseille","lat":43.290345,"lon":5.38646,"is_reserved":false,"is_disabled":false,"rental_uris":{"android":"levelo://app?vid=cfe6e19c-437f-4506-824a-73c0a449afbd","ios":"levelo://app?vid=cfe6e19c-437f-4506-824a-73c0a449afbd"},"vehicle_type_id":"4","last_reported":1702803976,"current_range_meters":26000,"station_id":"ce4bh4p2rcd13ifvqe0g","pricing_plan_id":"free"},{"bike_id":"b02fb099-f7ee-4b70-bbcf-73575aabc4c8","system_id":"levelo_inurba_marseille","lat":43.289307,"lon":5.38406,"is_reserved":false,"is_disabled":false,"rental_uris":{"android":"levelo://app?vid=b02fb099-f7ee-4b70-bbcf-73575aabc4c8","ios":"levelo://app?vid=b02fb099-f7ee-4b70-bbcf-73575aabc4c8"},"vehicle_type_id":"4","last_reported":1702803976,"current_range_meters":30400,"station_id":"ce4bh612rcd13ifvqe6g","pricing_plan_id":"free"},{"bike_id":"43c06f02-0bad-4f5b-9de3-7dfda67c33bc","system_id":"levelo_inurba_marseille","lat":43.302759,"lon":5.400793,"is_reserved":false,"is_disabled":false,"rental_uris":{"android":"levelo://app?vid=43c06f02-0bad-4f5b-9de3-7dfda67c33bc","ios":"levelo://app?vid=43c06f02-0bad-4f5b-9de3-7dfda67c33bc"},"vehicle_type_id":"4","last_reported":1702803976,"current_range_meters":22800,"station_id":"ce4bgvh2rcd13ifvqcs0","pricing_plan_id":"free"},{"bike_id":"1303dab8-d0c2-446f-82cc-02d6a3539152","system_id":"levelo_inurba_marseille","lat":43.291994,"lon":5.392907,"is_reserved":false,"is_disabled":false,"rental_uris":{"android":"levelo://app?vid=1303dab8-d0c2-446f-82cc-02d6a3539152","ios":"levelo://app?vid=1303dab8-d0c2-446f-82cc-02d6a3539152"},"vehicle_type_id":"4","last_reported":1702803976,"current_range_meters":26800,"station_id":"ce4bh192rcd13ifvqdd0","pricing_plan_id":"free"},{"bike_id":"c9a4fa87-3e53-476a-9d7b-164810c4cdd6","system_id":"levelo_inurba_marseille","lat":43.294314,"lon":5.397498,"is_reserved":false,"is_disabled":false,"rental_uris":{"android":"levelo://app?vid=c9a4fa87-3e53-476a-9d7b-164810c4cdd6","ios":"levelo://app?vid=c9a4fa87-3e53-476a-9d7b-164810c4cdd6"},"vehicle_type_id":"4","last_reported":1702803976,"current_range_meters":26800,"station_id":"ce4bh3h2rcd13ifvqdo0","pricing_plan_id":"free"},{"bike_id":"2dfa5049-0e1b-4839-b5c3-156910a65dbd","system_id":"levelo_inurba_marseille","lat":43.331811,"lon":5.398331,"is_reserved":false,"is_disabled":false,"rental_uris":{"android":"levelo://app?vid=2dfa5049-0e1b-4839-b5c3-156910a65dbd","ios":"levelo://app?vid=2dfa5049-0e1b-4839-b5c3-156910a65dbd"},"vehicle_type_id":"4","last_reported":1702803976,"current_range_meters":7200,"station_id":"","pricing_plan_id":"free"},{"bike_id":"5ec0f8ba-b798-496f-806f-deb4ce3500de","system_id":"levelo_inurba_marseille","lat":43.319179,"lon":5.407725,"is_reserved":false,"is_disabled":false,"rental_uris":{"android":"levelo://app?vid=5ec0f8ba-b798-496f-806f-deb4ce3500de","ios":"levelo://app?vid=5ec0f8ba-b798-496f-806f-deb4ce3500de"},"vehicle_type_id":"4","last_reported":1702803976,"current_range_meters":30000,"station_id":"ce4bhq12rcd13ifvqhig","pricing_plan_id":"free"},{"bike_id":"b1bba2b6-372d-49dd-b13b-1b4d710db23d","system_id":"levelo_inurba_marseille","lat":43.323464,"lon":5.406297,"is_reserved":false,"is_disabled":false,"rental_uris":{"android":"levelo://app?vid=b1bba2b6-372d-49dd-b13b-1b4d710db23d","ios":"levelo://app?vid=b1bba2b6-372d-49dd-b13b-1b4d710db23d"},"vehicle_type_id":"4","last_reported":1702803976,"current_range_meters":31600,"station_id":"ce4bhq92rcd13ifvqhjg","pricing_plan_id":"free"},{"bike_id":"c5bcbd66-e759-41bb-99c2-6ae0677b51af","system_id":"levelo_inurba_marseille","lat":43.323464,"lon":5.406297,"is_reserved":false,"is_disabled":false,"rental_uris":{"android":"levelo://app?vid=c5bcbd66-e759-41bb-99c2-6ae0677b51af","ios":"levelo://app?vid=c5bcbd66-e759-41bb-99c2-6ae0677b51af"},"vehicle_type_id":"4","last_reported":1702803976,"current_range_meters":12800,"station_id":"ce4bhq92rcd13ifvqhjg","pricing_plan_id":"free"},{"bike_id":"a8c4246c-8b22-44a6-af13-0443491dc2b7","system_id":"levelo_inurba_marseille","lat":43.323464,"lon":5.406297,"is_reserved":false,"is_disabled":false,"rental_uris":{"android":"levelo://app?vid=a8c4246c-8b22-44a6-af13-0443491dc2b7","ios":"levelo://app?vid=a8c4246c-8b22-44a6-af13-0443491dc2b7"},"vehicle_type_id":"4","last_reported":1702803976,"current_range_meters":23200,"station_id":"ce4bhq92rcd13ifvqhjg","pricing_plan_id":"free"},{"bike_id":"2727c664-bd75-4b2f-b8dd-f20bae895db9","system_id":"levelo_inurba_marseille","lat":43.323464,"lon":5.406297,"is_reserved":false,"is_disabled":false,"rental_uris":{"android":"levelo://app?vid=2727c664-bd75-4b2f-b8dd-f20bae895db9","ios":"levelo://app?vid=2727c664-bd75-4b2f-b8dd-f20bae895db9"},"vehicle_type_id":"4","last_reported":1702803976,"current_range_meters":24000,"station_id":"ce4bhq92rcd13ifvqhjg","pricing_plan_id":"free"},{"bike_id":"c33bf906-5727-4acf-bd3a-c9e3a35e41c1","system_id":"levelo_inurba_marseille","lat":43.288501,"lon":5.393087,"is_reserved":false,"is_disabled":false,"rental_uris":{"android":"levelo://app?vid=c33bf906-5727-4acf-bd3a-c9e3a35e41c1","ios":"levelo://app?vid=c33bf906-5727-4acf-bd3a-c9e3a35e41c1"},"vehicle_type_id":"4","last_reported":1702803976,"current_range_meters":18800,"station_id":"ce4bh2p2rcd13ifvqdi0","pricing_plan_id":"free"},{"bike_id":"9ca3c75a-7331-4a46-af97-2582d88c7c6a","system_id":"levelo_inurba_marseille","lat":43.288501,"lon":5.393087,"is_reserved":false,"is_disabled":false,"rental_uris":{"android":"levelo://app?vid=9ca3c75a-7331-4a46-af97-2582d88c7c6a","ios":"levelo://app?vid=9ca3c75a-7331-4a46-af97-2582d88c7c6a"},"vehicle_type_id":"4","last_reported":1702803976,"current_range_meters":30800,"station_id":"ce4bh2p2rcd13ifvqdi0","pricing_plan_id":"free"},{"bike_id":"9ea78c1c-8a68-4aa5-885c-a9aa671f3176","system_id":"levelo_inurba_marseille","lat":43.288501,"lon":5.393087,"is_reserved":false,"is_disabled":false,"rental_uris":{"android":"levelo://app?vid=9ea78c1c-8a68-4aa5-885c-a9aa671f3176","ios":"levelo://app?vid=9ea78c1c-8a68-4aa5-885c-a9aa671f3176"},"vehicle_type_id":"4","last_reported":1702803976,"current_range_meters":21200,"station_id":"ce4bh2p2rcd13ifvqdi0","pricing_plan_id":"free"},{"bike_id":"6c952d3d-d0d4-4267-9078-1171ff191713","system_id":"levelo_inurba_marseille","lat":43.289363,"lon":5.396322,"is_reserved":false,"is_disabled":false,"rental_uris":{"android":"levelo://app?vid=6c952d3d-d0d4-4267-9078-1171ff191713","ios":"levelo://app?vid=6c952d3d-d0d4-4267-9078-1171ff191713"},"vehicle_type_id":"4","last_reported":1702803976,"current_range_meters":30000,"station_id":"ce4bh3h2rcd13ifvqdn0","pricing_plan_id":"free"},{"bike_id":"ad1dbb6c-01e9-4c51-aa00-1bea8bfbdd8c","system_id":"levelo_inurba_marseille","lat":43.283502,"lon":5.386471,"is_reserved":false,"is_disabled":false,"rental_uris":{"android":"levelo://app?vid=ad1dbb6c-01e9-4c51-aa00-1bea8bfbdd8c","ios":"levelo://app?vid=ad1dbb6c-01e9-4c51-aa00-1bea8bfbdd8c"},"vehicle_type_id":"4","last_reported":1702803976,"current_range_meters":31200,"station_id":"ce4bh492rcd13ifvqdvg","pricing_plan_id":"free"},{"bike_id":"bae7d605-8391-4217-92a3-5ad1cd64cdec","system_id":"levelo_inurba_marseille","lat":43.283502,"lon":5.386471,"is_reserved":false,"is_disabled":false,"rental_uris":{"android":"levelo://app?vid=bae7d605-8391-4217-92a3-5ad1cd64cdec","ios":"levelo://app?vid=bae7d605-8391-4217-92a3-5ad1cd64cdec"},"vehicle_type_id":"4","last_reported":1702803976,"current_range_meters":400,"station_id":"ce4bh492rcd13ifvqdvg","pricing_plan_id":"free"},{"bike_id":"2d0a3722-ebef-49ca-af28-78072aacc5b5","system_id":"levelo_inurba_marseille","lat":43.282754,"lon":5.350519,"is_reserved":false,"is_disabled":false,"rental_uris":{"android":"levelo://app?vid=2d0a3722-ebef-49ca-af28-78072aacc5b5","ios":"levelo://app?vid=2d0a3722-ebef-49ca-af28-78072aacc5b5"},"vehicle_type_id":"4","last_reported":1702803976,"current_range_meters":4800,"station_id":"ce4bhbp2rcd13ifvqerg","pricing_plan_id":"free"},{"bike_id":"c48ac4ac-f1f9-410e-bca0-01df2c8dc181","system_id":"levelo_inurba_marseille","lat":43.28036,"lon":5.36942,"is_reserved":false,"is_disabled":false,"rental_uris":{"android":"levelo://app?vid=c48ac4ac-f1f9-410e-bca0-01df2c8dc181","ios":"levelo://app?vid=c48ac4ac-f1f9-410e-bca0-01df2c8dc181"},"vehicle_type_id":"4","last_reported":1702803976,"current_range_meters":28800,"station_id":"ce4bha12rcd13ifvqef0","pricing_plan_id":"free"},{"bike_id":"a162e9e5-09c8-4a32-8d6c-59d300013a15","system_id":"levelo_inurba_marseille","lat":43.29041,"lon":5.399634,"is_reserved":false,"is_disabled":false,"rental_uris":{"android":"levelo://app?vid=a162e9e5-09c8-4a32-8d6c-59d300013a15","ios":"levelo://app?vid=a162e9e5-09c8-4a32-8d6c-59d300013a15"},"vehicle_type_id":"4","last_reported":1702803976,"current_range_meters":12400,"station_id":"ce4bh392rcd13ifvqdm0","pricing_plan_id":"free"},{"bike_id":"242603c3-fa3b-4a18-b7cf-e6b1710f532a","system_id":"levelo_inurba_marseille","lat":43.281044,"lon":5.378308,"is_reserved":false,"is_disabled":false,"rental_uris":{"android":"levelo://app?vid=242603c3-fa3b-4a18-b7cf-e6b1710f532a","ios":"levelo://app?vid=242603c3-fa3b-4a18-b7cf-e6b1710f532a"},"vehicle_type_id":"4","last_reported":1702803976,"current_range_meters":24400,"station_id":"ce4bha12rcd13ifvqee0","pricing_plan_id":"free"},{"bike_id":"4f449caa-dd60-473b-8d41-901c75e8244e","system_id":"levelo_inurba_marseille","lat":43.296263,"lon":5.40601,"is_reserved":false,"is_disabled":false,"rental_uris":{"android":"levelo://app?vid=4f449caa-dd60-473b-8d41-901c75e8244e","ios":"levelo://app?vid=4f449caa-dd60-473b-8d41-901c75e8244e"},"vehicle_type_id":"4","last_reported":1702803976,"current_range_meters":20800,"station_id":"ce4bh0h2rcd13ifvqd60","pricing_plan_id":"free"},{"bike_id":"f4b5a001-c304-489d-ab56-e59dc260493c","system_id":"levelo_inurba_marseille","lat":43.284462,"lon":5.392121,"is_reserved":false,"is_disabled":false,"rental_uris":{"android":"levelo://app?vid=f4b5a001-c304-489d-ab56-e59dc260493c","ios":"levelo://app?vid=f4b5a001-c304-489d-ab56-e59dc260493c"},"vehicle_type_id":"4","last_reported":1702803976,"current_range_meters":4000,"station_id":"ce4bhoh2rcd13ifvqh5g","pricing_plan_id":"free"},{"bike_id":"76a36863-7530-44dc-9556-68afe2a30b7b","system_id":"levelo_inurba_marseille","lat":43.28573,"lon":5.394992,"is_reserved":false,"is_disabled":false,"rental_uris":{"android":"levelo://app?vid=76a36863-7530-44dc-9556-68afe2a30b7b","ios":"levelo://app?vid=76a36863-7530-44dc-9556-68afe2a30b7b"},"vehicle_type_id":"4","last_reported":1702803976,"current_range_meters":17200,"station_id":"ce4bh292rcd13ifvqdg0","pricing_plan_id":"free"},{"bike_id":"050ecf85-14e0-4001-9e17-62b649ceaa00","system_id":"levelo_inurba_marseille","lat":43.326605,"lon":5.409903,"is_reserved":false,"is_disabled":false,"rental_uris":{"android":"levelo://app?vid=050ecf85-14e0-4001-9e17-62b649ceaa00","ios":"levelo://app?vid=050ecf85-14e0-4001-9e17-62b649ceaa00"},"vehicle_type_id":"4","last_reported":1702803976,"current_range_meters":30400,"station_id":"ce4bhpp2rcd13ifvqhgg","pricing_plan_id":"free"},{"bike_id":"d6660c0e-fff4-41b5-afc0-1509571bafab","system_id":"levelo_inurba_marseille","lat":43.304188,"lon":5.412904,"is_reserved":false,"is_disabled":false,"rental_uris":{"android":"levelo://app?vid=d6660c0e-fff4-41b5-afc0-1509571bafab","ios":"levelo://app?vid=d6660c0e-fff4-41b5-afc0-1509571bafab"},"vehicle_type_id":"4","last_reported":1702803976,"current_range_meters":27200,"station_id":"ce4bhop2rcd13ifvqh8g","pricing_plan_id":"free"},{"bike_id":"d0c6333c-68f6-4734-a98c-c84d6d8571a2","system_id":"levelo_inurba_marseille","lat":43.279087,"lon":5.380114,"is_reserved":false,"is_disabled":false,"rental_uris":{"android":"levelo://app?vid=d0c6333c-68f6-4734-a98c-c84d6d8571a2","ios":"levelo://app?vid=d0c6333c-68f6-4734-a98c-c84d6d8571a2"},"vehicle_type_id":"4","last_reported":1702803976,"current_range_meters":10000,"station_id":"ce4bhf92rcd13ifvqf50","pricing_plan_id":"free"},{"bike_id":"b20b997c-e71c-4908-ab85-2e82e1ac7d9c","system_id":"levelo_inurba_marseille","lat":43.299579,"lon":5.413255,"is_reserved":false,"is_disabled":false,"rental_uris":{"android":"levelo://app?vid=b20b997c-e71c-4908-ab85-2e82e1ac7d9c","ios":"levelo://app?vid=b20b997c-e71c-4908-ab85-2e82e1ac7d9c"},"vehicle_type_id":"4","last_reported":1702803976,"current_range_meters":25200,"station_id":"ce4bhp12rcd13ifvqh9g","pricing_plan_id":"free"},{"bike_id":"a7b1eb7c-8b56-4ce0-9a19-9bbd545239d9","system_id":"levelo_inurba_marseille","lat":43.279742,"lon":5.38744,"is_reserved":false,"is_disabled":false,"rental_uris":{"android":"levelo://app?vid=a7b1eb7c-8b56-4ce0-9a19-9bbd545239d9","ios":"levelo://app?vid=a7b1eb7c-8b56-4ce0-9a19-9bbd545239d9"},"vehicle_type_id":"4","last_reported":1702803976,"current_range_meters":14800,"station_id":"ce4bhg12rcd13ifvqf80","pricing_plan_id":"free"},{"bike_id":"9d198ed0-faf2-411a-ba88-2e58e2e7c1c5","system_id":"levelo_inurba_marseille","lat":43.279742,"lon":5.38744,"is_reserved":false,"is_disabled":false,"rental_uris":{"android":"levelo://app?vid=9d198ed0-faf2-411a-ba88-2e58e2e7c1c5","ios":"levelo://app?vid=9d198ed0-faf2-411a-ba88-2e58e2e7c1c5"},"vehicle_type_id":"4","last_reported":1702803976,"current_range_meters":17200,"station_id":"ce4bhg12rcd13ifvqf80","pricing_plan_id":"free"},{"bike_id":"098ef3a4-d16b-491f-871a-c34d513ee50d","system_id":"levelo_inurba_marseille","lat":43.292569,"lon":5.409107,"is_reserved":false,"is_disabled":false,"rental_uris":{"android":"levelo://app?vid=098ef3a4-d16b-491f-871a-c34d513ee50d","ios":"levelo://app?vid=098ef3a4-d16b-491f-871a-c34d513ee50d"},"vehicle_type_id":"4","last_reported":1702803976,"current_range_meters":0,"station_id":"ce4bh192rcd13ifvqdc0","pricing_plan_id":"free"},{"bike_id":"e9ebc997-d7ce-4423-9613-ece8b9ec12de","system_id":"levelo_inurba_marseille","lat":43.27621,"lon":5.36112,"is_reserved":false,"is_disabled":false,"rental_uris":{"android":"levelo://app?vid=e9ebc997-d7ce-4423-9613-ece8b9ec12de","ios":"levelo://app?vid=e9ebc997-d7ce-4423-9613-ece8b9ec12de"},"vehicle_type_id":"4","last_reported":1702803976,"current_range_meters":28000,"station_id":"ce4bgj92rcd13ifvqbe0","pricing_plan_id":"free"},{"bike_id":"ef4ebfe6-544f-427a-ab41-4e8fcd066bd6","system_id":"levelo_inurba_marseille","lat":43.276147,"lon":5.361014,"is_reserved":false,"is_disabled":false,"rental_uris":{"android":"levelo://app?vid=ef4ebfe6-544f-427a-ab41-4e8fcd066bd6","ios":"levelo://app?vid=ef4ebfe6-544f-427a-ab41-4e8fcd066bd6"},"vehicle_type_id":"4","last_reported":1702803976,"current_range_meters":30800,"station_id":"ce4bgj92rcd13ifvqbe0","pricing_plan_id":"free"},{"bike_id":"3337a375-1c8b-4100-9c1e-7370b07e559b","system_id":"levelo_inurba_marseille","lat":43.280784,"lon":5.396622,"is_reserved":false,"is_disabled":false,"rental_uris":{"android":"levelo://app?vid=3337a375-1c8b-4100-9c1e-7370b07e559b","ios":"levelo://app?vid=3337a375-1c8b-4100-9c1e-7370b07e559b"},"vehicle_type_id":"4","last_reported":1702803976,"current_range_meters":18000,"station_id":"ce4bho12rcd13ifvqh2g","pricing_plan_id":"free"},{"bike_id":"153a6003-68b0-4148-93df-a4eed5e7ff0e","system_id":"levelo_inurba_marseille","lat":43.27379,"lon":5.36257,"is_reserved":false,"is_disabled":false,"rental_uris":{"android":"levelo://app?vid=153a6003-68b0-4148-93df-a4eed5e7ff0e","ios":"levelo://app?vid=153a6003-68b0-4148-93df-a4eed5e7ff0e"},"vehicle_type_id":"4","last_reported":1702803976,"current_range_meters":18800,"station_id":"ce4bhbh2rcd13ifvqeo0","pricing_plan_id":"free"},{"bike_id":"baa9d9f5-ea7f-446d-91e3-8a1abca5df6c","system_id":"levelo_inurba_marseille","lat":43.275625,"lon":5.384392,"is_reserved":false,"is_disabled":false,"rental_uris":{"android":"levelo://app?vid=baa9d9f5-ea7f-446d-91e3-8a1abca5df6c","ios":"levelo://app?vid=baa9d9f5-ea7f-446d-91e3-8a1abca5df6c"},"vehicle_type_id":"4","last_reported":1702803976,"current_range_meters":11200,"station_id":"ce4bhh92rcd13ifvqfi0","pricing_plan_id":"free"},{"bike_id":"005e71b8-6df4-4728-86bc-e04d447edd38","system_id":"levelo_inurba_marseille","lat":43.273613,"lon":5.362705,"is_reserved":false,"is_disabled":false,"rental_uris":{"android":"levelo://app?vid=005e71b8-6df4-4728-86bc-e04d447edd38","ios":"levelo://app?vid=005e71b8-6df4-4728-86bc-e04d447edd38"},"vehicle_type_id":"4","last_reported":1702803976,"current_range_meters":27600,"station_id":"ce4bhbh2rcd13ifvqeo0","pricing_plan_id":"free"},{"bike_id":"d0bb7847-2900-4109-94f9-d2f412bc15a0","system_id":"levelo_inurba_marseille","lat":43.275625,"lon":5.384392,"is_reserved":false,"is_disabled":false,"rental_uris":{"android":"levelo://app?vid=d0bb7847-2900-4109-94f9-d2f412bc15a0","ios":"levelo://app?vid=d0bb7847-2900-4109-94f9-d2f412bc15a0"},"vehicle_type_id":"4","last_reported":1702803976,"current_range_meters":22800,"station_id":"ce4bhh92rcd13ifvqfi0","pricing_plan_id":"free"},{"bike_id":"2bed3501-fcea-4a7a-8a65-1bedf3ad5bdc","system_id":"levelo_inurba_marseille","lat":43.336134,"lon":5.410341,"is_reserved":false,"is_disabled":false,"rental_uris":{"android":"levelo://app?vid=2bed3501-fcea-4a7a-8a65-1bedf3ad5bdc","ios":"levelo://app?vid=2bed3501-fcea-4a7a-8a65-1bedf3ad5bdc"},"vehicle_type_id":"4","last_reported":1702803976,"current_range_meters":31600,"station_id":"ce4bhqh2rcd13ifvqhmg","pricing_plan_id":"free"},{"bike_id":"748568ba-a9a7-4552-b14d-0829f18a4133","system_id":"levelo_inurba_marseille","lat":43.336148,"lon":5.410349,"is_reserved":false,"is_disabled":false,"rental_uris":{"android":"levelo://app?vid=748568ba-a9a7-4552-b14d-0829f18a4133","ios":"levelo://app?vid=748568ba-a9a7-4552-b14d-0829f18a4133"},"vehicle_type_id":"4","last_reported":1702803976,"current_range_meters":29600,"station_id":"ce4bhqh2rcd13ifvqhmg","pricing_plan_id":"free"},{"bike_id":"e15426ac-43b1-46a3-bfa0-5e340802bdee","system_id":"levelo_inurba_marseille","lat":43.336134,"lon":5.410341,"is_reserved":false,"is_disabled":false,"rental_uris":{"android":"levelo://app?vid=e15426ac-43b1-46a3-bfa0-5e340802bdee","ios":"levelo://app?vid=e15426ac-43b1-46a3-bfa0-5e340802bdee"},"vehicle_type_id":"4","last_reported":1702803976,"current_range_meters":24000,"station_id":"ce4bhqh2rcd13ifvqhmg","pricing_plan_id":"free"},{"bike_id":"ea3d35f6-b07e-4308-ae51-5376e9d8e7cc","system_id":"levelo_inurba_marseille","lat":43.273447,"lon":5.364509,"is_reserved":false,"is_disabled":false,"rental_uris":{"android":"levelo://app?vid=ea3d35f6-b07e-4308-ae51-5376e9d8e7cc","ios":"levelo://app?vid=ea3d35f6-b07e-4308-ae51-5376e9d8e7cc"},"vehicle_type_id":"4","last_reported":1702803976,"current_range_meters":12800,"station_id":"","pricing_plan_id":"free"},{"bike_id":"16e97540-d6c9-41cc-9f14-a93eca663b8b","system_id":"levelo_inurba_marseille","lat":43.317121,"lon":5.423936,"is_reserved":false,"is_disabled":false,"rental_uris":{"android":"levelo://app?vid=16e97540-d6c9-41cc-9f14-a93eca663b8b","ios":"levelo://app?vid=16e97540-d6c9-41cc-9f14-a93eca663b8b"},"vehicle_type_id":"4","last_reported":1702803976,"current_range_meters":27200,"station_id":"ce4bhp92rcd13ifvqhbg","pricing_plan_id":"free"},{"bike_id":"6cb0c20f-91c9-4fdd-920d-ba0bd7960208","system_id":"levelo_inurba_marseille","lat":43.310785,"lon":5.424305,"is_reserved":false,"is_disabled":false,"rental_uris":{"android":"levelo://app?vid=6cb0c20f-91c9-4fdd-920d-ba0bd7960208","ios":"levelo://app?vid=6cb0c20f-91c9-4fdd-920d-ba0bd7960208"},"vehicle_type_id":"4","last_reported":1702803976,"current_range_meters":22000,"station_id":"ce4bhp92rcd13ifvqhag","pricing_plan_id":"free"},{"bike_id":"f97f3ae3-0746-4a73-8a97-072f8aa9cb10","system_id":"levelo_inurba_marseille","lat":43.310785,"lon":5.424305,"is_reserved":false,"is_disabled":false,"rental_uris":{"android":"levelo://app?vid=f97f3ae3-0746-4a73-8a97-072f8aa9cb10","ios":"levelo://app?vid=f97f3ae3-0746-4a73-8a97-072f8aa9cb10"},"vehicle_type_id":"4","last_reported":1702803976,"current_range_meters":31200,"station_id":"ce4bhp92rcd13ifvqhag","pricing_plan_id":"free"},{"bike_id":"87cc8c4f-8ecf-420c-bac2-ed05f14f8c04","system_id":"levelo_inurba_marseille","lat":43.276263,"lon":5.39493,"is_reserved":false,"is_disabled":false,"rental_uris":{"android":"levelo://app?vid=87cc8c4f-8ecf-420c-bac2-ed05f14f8c04","ios":"levelo://app?vid=87cc8c4f-8ecf-420c-bac2-ed05f14f8c04"},"vehicle_type_id":"4","last_reported":1702803976,"current_range_meters":11200,"station_id":"","pricing_plan_id":"free"},{"bike_id":"251de0dc-299e-4a18-abf1-eec4ea9c23e2","system_id":"levelo_inurba_marseille","lat":43.310785,"lon":5.424305,"is_reserved":false,"is_disabled":false,"rental_uris":{"android":"levelo://app?vid=251de0dc-299e-4a18-abf1-eec4ea9c23e2","ios":"levelo://app?vid=251de0dc-299e-4a18-abf1-eec4ea9c23e2"},"vehicle_type_id":"4","last_reported":1702803976,"current_range_meters":30000,"station_id":"ce4bhp92rcd13ifvqhag","pricing_plan_id":"free"},{"bike_id":"a3776f53-cea4-49f3-8100-19e61a426b19","system_id":"levelo_inurba_marseille","lat":43.310785,"lon":5.424305,"is_reserved":false,"is_disabled":false,"rental_uris":{"android":"levelo://app?vid=a3776f53-cea4-49f3-8100-19e61a426b19","ios":"levelo://app?vid=a3776f53-cea4-49f3-8100-19e61a426b19"},"vehicle_type_id":"4","last_reported":1702803976,"current_range_meters":18400,"station_id":"ce4bhp92rcd13ifvqhag","pricing_plan_id":"free"},{"bike_id":"6cafcd50-5756-4ad3-b29b-b85e323da656","system_id":"levelo_inurba_marseille","lat":43.310785,"lon":5.424305,"is_reserved":false,"is_disabled":false,"rental_uris":{"android":"levelo://app?vid=6cafcd50-5756-4ad3-b29b-b85e323da656","ios":"levelo://app?vid=6cafcd50-5756-4ad3-b29b-b85e323da656"},"vehicle_type_id":"4","last_reported":1702803976,"current_range_meters":25200,"station_id":"ce4bhp92rcd13ifvqhag","pricing_plan_id":"free"},{"bike_id":"16aab86d-d31d-4a4a-8644-d8799245d8e9","system_id":"levelo_inurba_marseille","lat":43.310785,"lon":5.424305,"is_reserved":false,"is_disabled":false,"rental_uris":{"android":"levelo://app?vid=16aab86d-d31d-4a4a-8644-d8799245d8e9","ios":"levelo://app?vid=16aab86d-d31d-4a4a-8644-d8799245d8e9"},"vehicle_type_id":"4","last_reported":1702803976,"current_range_meters":29600,"station_id":"ce4bhp92rcd13ifvqhag","pricing_plan_id":"free"},{"bike_id":"43844db9-0392-4da0-9a6e-40bbf1d336e6","system_id":"levelo_inurba_marseille","lat":43.340804,"lon":5.410219,"is_reserved":false,"is_disabled":false,"rental_uris":{"android":"levelo://app?vid=43844db9-0392-4da0-9a6e-40bbf1d336e6","ios":"levelo://app?vid=43844db9-0392-4da0-9a6e-40bbf1d336e6"},"vehicle_type_id":"4","last_reported":1702803976,"current_range_meters":29200,"station_id":"ce4bhqh2rcd13ifvqhlg","pricing_plan_id":"free"},{"bike_id":"cb8657c1-f91a-4cfd-a573-28533970bdba","system_id":"levelo_inurba_marseille","lat":43.340804,"lon":5.410219,"is_reserved":false,"is_disabled":false,"rental_uris":{"android":"levelo://app?vid=cb8657c1-f91a-4cfd-a573-28533970bdba","ios":"levelo://app?vid=cb8657c1-f91a-4cfd-a573-28533970bdba"},"vehicle_type_id":"4","last_reported":1702803976,"current_range_meters":28000,"station_id":"ce4bhqh2rcd13ifvqhlg","pricing_plan_id":"free"},{"bike_id":"3ca2c2d2-99b0-4aa6-a05d-e30f02e6a7fb","system_id":"levelo_inurba_marseille","lat":43.276092,"lon":5.395289,"is_reserved":false,"is_disabled":false,"rental_uris":{"android":"levelo://app?vid=3ca2c2d2-99b0-4aa6-a05d-e30f02e6a7fb","ios":"levelo://app?vid=3ca2c2d2-99b0-4aa6-a05d-e30f02e6a7fb"},"vehicle_type_id":"4","last_reported":1702803976,"current_range_meters":19200,"station_id":"","pricing_plan_id":"free"},{"bike_id":"e6ec9af3-0d1f-4d24-8ddf-f17b8db61ea7","system_id":"levelo_inurba_marseille","lat":43.273125,"lon":5.390731,"is_reserved":false,"is_disabled":false,"rental_uris":{"android":"levelo://app?vid=e6ec9af3-0d1f-4d24-8ddf-f17b8db61ea7","ios":"levelo://app?vid=e6ec9af3-0d1f-4d24-8ddf-f17b8db61ea7"},"vehicle_type_id":"4","last_reported":1702803976,"current_range_meters":28000,"station_id":"ce4bhgp2rcd13ifvqfe0","pricing_plan_id":"free"},{"bike_id":"40849b3b-99ce-4242-a2ef-f40b90d48e14","system_id":"levelo_inurba_marseille","lat":43.274099,"lon":5.394019,"is_reserved":false,"is_disabled":false,"rental_uris":{"android":"levelo://app?vid=40849b3b-99ce-4242-a2ef-f40b90d48e14","ios":"levelo://app?vid=40849b3b-99ce-4242-a2ef-f40b90d48e14"},"vehicle_type_id":"4","last_reported":1702803976,"current_range_meters":23200,"station_id":"ce4bhdp2rcd13ifvqf20","pricing_plan_id":"free"},{"bike_id":"c98ae2e2-3360-4f66-943c-994a40f81f94","system_id":"levelo_inurba_marseille","lat":43.30414,"lon":5.42538,"is_reserved":false,"is_disabled":false,"rental_uris":{"android":"levelo://app?vid=c98ae2e2-3360-4f66-943c-994a40f81f94","ios":"levelo://app?vid=c98ae2e2-3360-4f66-943c-994a40f81f94"},"vehicle_type_id":"4","last_reported":1702803976,"current_range_meters":26400,"station_id":"ce4bhoh2rcd13ifvqh6g","pricing_plan_id":"free"},{"bike_id":"826939a9-21e4-4a40-8aaf-a253527a8bfa","system_id":"levelo_inurba_marseille","lat":43.3041,"lon":5.42544,"is_reserved":false,"is_disabled":false,"rental_uris":{"android":"levelo://app?vid=826939a9-21e4-4a40-8aaf-a253527a8bfa","ios":"levelo://app?vid=826939a9-21e4-4a40-8aaf-a253527a8bfa"},"vehicle_type_id":"4","last_reported":1702803976,"current_range_meters":4000,"station_id":"ce4bhoh2rcd13ifvqh6g","pricing_plan_id":"free"},{"bike_id":"cfecc0c1-ba3f-4c33-aeb1-402f6238fc7a","system_id":"levelo_inurba_marseille","lat":43.272124,"lon":5.391768,"is_reserved":false,"is_disabled":false,"rental_uris":{"android":"levelo://app?vid=cfecc0c1-ba3f-4c33-aeb1-402f6238fc7a","ios":"levelo://app?vid=cfecc0c1-ba3f-4c33-aeb1-402f6238fc7a"},"vehicle_type_id":"4","last_reported":1702803976,"current_range_meters":18000,"station_id":"ce4bhhp2rcd13ifvqfm0","pricing_plan_id":"free"},{"bike_id":"95ff8b80-13fb-43b4-acb5-5e7eb6a6d2db","system_id":"levelo_inurba_marseille","lat":43.272118,"lon":5.391758,"is_reserved":false,"is_disabled":false,"rental_uris":{"android":"levelo://app?vid=95ff8b80-13fb-43b4-acb5-5e7eb6a6d2db","ios":"levelo://app?vid=95ff8b80-13fb-43b4-acb5-5e7eb6a6d2db"},"vehicle_type_id":"4","last_reported":1702803976,"current_range_meters":17600,"station_id":"ce4bhhp2rcd13ifvqfm0","pricing_plan_id":"free"},{"bike_id":"fda74a3c-f04d-4797-8bbe-17f4e7aed4ff","system_id":"levelo_inurba_marseille","lat":43.272116,"lon":5.391747,"is_reserved":false,"is_disabled":false,"rental_uris":{"android":"levelo://app?vid=fda74a3c-f04d-4797-8bbe-17f4e7aed4ff","ios":"levelo://app?vid=fda74a3c-f04d-4797-8bbe-17f4e7aed4ff"},"vehicle_type_id":"4","last_reported":1702803976,"current_range_meters":25600,"station_id":"ce4bhhp2rcd13ifvqfm0","pricing_plan_id":"free"},{"bike_id":"7c5e5a9a-9f39-4a14-9573-d5b8ab599dd5","system_id":"levelo_inurba_marseille","lat":43.27188,"lon":5.39224,"is_reserved":false,"is_disabled":false,"rental_uris":{"android":"levelo://app?vid=7c5e5a9a-9f39-4a14-9573-d5b8ab599dd5","ios":"levelo://app?vid=7c5e5a9a-9f39-4a14-9573-d5b8ab599dd5"},"vehicle_type_id":"4","last_reported":1702803976,"current_range_meters":18800,"station_id":"ce4bhhp2rcd13ifvqfm0","pricing_plan_id":"free"},{"bike_id":"cb903856-b21f-4d10-84dc-58e41fac55bd","system_id":"levelo_inurba_marseille","lat":43.278128,"lon":5.407195,"is_reserved":false,"is_disabled":false,"rental_uris":{"android":"levelo://app?vid=cb903856-b21f-4d10-84dc-58e41fac55bd","ios":"levelo://app?vid=cb903856-b21f-4d10-84dc-58e41fac55bd"},"vehicle_type_id":"4","last_reported":1702803976,"current_range_meters":20800,"station_id":"ce4bhnh2rcd13ifvqgtg","pricing_plan_id":"free"},{"bike_id":"3e5a97a0-3ac1-434f-8196-b193e573d443","system_id":"levelo_inurba_marseille","lat":43.269467,"lon":5.386439,"is_reserved":false,"is_disabled":false,"rental_uris":{"android":"levelo://app?vid=3e5a97a0-3ac1-434f-8196-b193e573d443","ios":"levelo://app?vid=3e5a97a0-3ac1-434f-8196-b193e573d443"},"vehicle_type_id":"4","last_reported":1702803976,"current_range_meters":26800,"station_id":"ce4bhh92rcd13ifvqfh0","pricing_plan_id":"free"},{"bike_id":"c0d4131f-8d8d-4750-bf09-aa224f883954","system_id":"levelo_inurba_marseille","lat":43.27948,"lon":5.41045,"is_reserved":false,"is_disabled":false,"rental_uris":{"android":"levelo://app?vid=c0d4131f-8d8d-4750-bf09-aa224f883954","ios":"levelo://app?vid=c0d4131f-8d8d-4750-bf09-aa224f883954"},"vehicle_type_id":"4","last_reported":1702803976,"current_range_meters":0,"station_id":"ce4bhnp2rcd13ifvqh0g","pricing_plan_id":"free"},{"bike_id":"9354f645-844b-4ce9-b058-5c01353fdffa","system_id":"levelo_inurba_marseille","lat":43.269319,"lon":5.389397,"is_reserved":false,"is_disabled":false,"rental_uris":{"android":"levelo://app?vid=9354f645-844b-4ce9-b058-5c01353fdffa","ios":"levelo://app?vid=9354f645-844b-4ce9-b058-5c01353fdffa"},"vehicle_type_id":"4","last_reported":1702803976,"current_range_meters":19600,"station_id":"ce4bhhh2rcd13ifvqfl0","pricing_plan_id":"free"},{"bike_id":"db774753-4382-453e-a138-c32d538f9839","system_id":"levelo_inurba_marseille","lat":43.358672,"lon":5.356739,"is_reserved":false,"is_disabled":false,"rental_uris":{"android":"levelo://app?vid=db774753-4382-453e-a138-c32d538f9839","ios":"levelo://app?vid=db774753-4382-453e-a138-c32d538f9839"},"vehicle_type_id":"4","last_reported":1702803976,"current_range_meters":11600,"station_id":"","pricing_plan_id":"free"},{"bike_id":"22a06de4-5066-4c36-b94f-1589b81b3263","system_id":"levelo_inurba_marseille","lat":43.26681,"lon":5.382694,"is_reserved":false,"is_disabled":false,"rental_uris":{"android":"levelo://app?vid=22a06de4-5066-4c36-b94f-1589b81b3263","ios":"levelo://app?vid=22a06de4-5066-4c36-b94f-1589b81b3263"},"vehicle_type_id":"4","last_reported":1702803976,"current_range_meters":28400,"station_id":"ce4bhg92rcd13ifvqf90","pricing_plan_id":"free"},{"bike_id":"53a2bfc0-947b-4e03-9286-ff84c823336d","system_id":"levelo_inurba_marseille","lat":43.26561,"lon":5.37281,"is_reserved":false,"is_disabled":false,"rental_uris":{"android":"levelo://app?vid=53a2bfc0-947b-4e03-9286-ff84c823336d","ios":"levelo://app?vid=53a2bfc0-947b-4e03-9286-ff84c823336d"},"vehicle_type_id":"4","last_reported":1702803976,"current_range_meters":24000,"station_id":"ce4bhg12rcd13ifvqf70","pricing_plan_id":"free"},{"bike_id":"4ea10955-89eb-465e-ba82-d9d699c66533","system_id":"levelo_inurba_marseille","lat":43.26549,"lon":5.37285,"is_reserved":false,"is_disabled":false,"rental_uris":{"android":"levelo://app?vid=4ea10955-89eb-465e-ba82-d9d699c66533","ios":"levelo://app?vid=4ea10955-89eb-465e-ba82-d9d699c66533"},"vehicle_type_id":"4","last_reported":1702803976,"current_range_meters":20000,"station_id":"ce4bhg12rcd13ifvqf70","pricing_plan_id":"free"},{"bike_id":"3ec397f0-b8da-4e84-be43-f4abb20ebecf","system_id":"levelo_inurba_marseille","lat":43.27664,"lon":5.41177,"is_reserved":false,"is_disabled":false,"rental_uris":{"android":"levelo://app?vid=3ec397f0-b8da-4e84-be43-f4abb20ebecf","ios":"levelo://app?vid=3ec397f0-b8da-4e84-be43-f4abb20ebecf"},"vehicle_type_id":"4","last_reported":1702803976,"current_range_meters":28400,"station_id":"","pricing_plan_id":"free"},{"bike_id":"8a74afc9-c8ee-428c-95f4-83fc1e519239","system_id":"levelo_inurba_marseille","lat":43.28004,"lon":5.41662,"is_reserved":false,"is_disabled":false,"rental_uris":{"android":"levelo://app?vid=8a74afc9-c8ee-428c-95f4-83fc1e519239","ios":"levelo://app?vid=8a74afc9-c8ee-428c-95f4-83fc1e519239"},"vehicle_type_id":"4","last_reported":1702803976,"current_range_meters":0,"station_id":"ce4bho12rcd13ifvqh1g","pricing_plan_id":"free"},{"bike_id":"a6c98b33-2386-4031-a5f1-05e5dc9f9383","system_id":"levelo_inurba_marseille","lat":43.27996,"lon":5.416624,"is_reserved":false,"is_disabled":false,"rental_uris":{"android":"levelo://app?vid=a6c98b33-2386-4031-a5f1-05e5dc9f9383","ios":"levelo://app?vid=a6c98b33-2386-4031-a5f1-05e5dc9f9383"},"vehicle_type_id":"4","last_reported":1702803976,"current_range_meters":28800,"station_id":"ce4bho12rcd13ifvqh1g","pricing_plan_id":"free"},{"bike_id":"f0777057-4272-42ef-93ac-cc8482f179b1","system_id":"levelo_inurba_marseille","lat":43.279988,"lon":5.416651,"is_reserved":false,"is_disabled":false,"rental_uris":{"android":"levelo://app?vid=f0777057-4272-42ef-93ac-cc8482f179b1","ios":"levelo://app?vid=f0777057-4272-42ef-93ac-cc8482f179b1"},"vehicle_type_id":"4","last_reported":1702803976,"current_range_meters":23600,"station_id":"ce4bho12rcd13ifvqh1g","pricing_plan_id":"free"},{"bike_id":"4e980ddc-7118-4eaa-995f-0c2f94f3a9c2","system_id":"levelo_inurba_marseille","lat":43.267966,"lon":5.393976,"is_reserved":false,"is_disabled":false,"rental_uris":{"android":"levelo://app?vid=4e980ddc-7118-4eaa-995f-0c2f94f3a9c2","ios":"levelo://app?vid=4e980ddc-7118-4eaa-995f-0c2f94f3a9c2"},"vehicle_type_id":"4","last_reported":1702803976,"current_range_meters":28000,"station_id":"ce4bhh12rcd13ifvqfg0","pricing_plan_id":"free"},{"bike_id":"e59fea8e-2d7e-4e72-905f-be4237251977","system_id":"levelo_inurba_marseille","lat":43.267966,"lon":5.393976,"is_reserved":false,"is_disabled":false,"rental_uris":{"android":"levelo://app?vid=e59fea8e-2d7e-4e72-905f-be4237251977","ios":"levelo://app?vid=e59fea8e-2d7e-4e72-905f-be4237251977"},"vehicle_type_id":"4","last_reported":1702803976,"current_range_meters":28400,"station_id":"ce4bhh12rcd13ifvqfg0","pricing_plan_id":"free"},{"bike_id":"a9d6c772-6107-4b1c-aca7-c146eb2ab9be","system_id":"levelo_inurba_marseille","lat":43.267966,"lon":5.393976,"is_reserved":false,"is_disabled":false,"rental_uris":{"android":"levelo://app?vid=a9d6c772-6107-4b1c-aca7-c146eb2ab9be","ios":"levelo://app?vid=a9d6c772-6107-4b1c-aca7-c146eb2ab9be"},"vehicle_type_id":"4","last_reported":1702803976,"current_range_meters":30800,"station_id":"ce4bhh12rcd13ifvqfg0","pricing_plan_id":"free"},{"bike_id":"eac30910-ab10-4c05-a5e7-5c28fa43dc43","system_id":"levelo_inurba_marseille","lat":43.267966,"lon":5.393976,"is_reserved":false,"is_disabled":false,"rental_uris":{"android":"levelo://app?vid=eac30910-ab10-4c05-a5e7-5c28fa43dc43","ios":"levelo://app?vid=eac30910-ab10-4c05-a5e7-5c28fa43dc43"},"vehicle_type_id":"4","last_reported":1702803976,"current_range_meters":26000,"station_id":"ce4bhh12rcd13ifvqfg0","pricing_plan_id":"free"},{"bike_id":"f1a09b5f-2645-408c-974f-6eee22e210b0","system_id":"levelo_inurba_marseille","lat":43.262012,"lon":5.379307,"is_reserved":false,"is_disabled":false,"rental_uris":{"android":"levelo://app?vid=f1a09b5f-2645-408c-974f-6eee22e210b0","ios":"levelo://app?vid=f1a09b5f-2645-408c-974f-6eee22e210b0"},"vehicle_type_id":"4","last_reported":1702803976,"current_range_meters":16800,"station_id":"ce4bhjp2rcd13ifvqg90","pricing_plan_id":"free"},{"bike_id":"2746844a-95dc-45fd-8935-6ea3c65c9d0a","system_id":"levelo_inurba_marseille","lat":43.267966,"lon":5.393976,"is_reserved":false,"is_disabled":false,"rental_uris":{"android":"levelo://app?vid=2746844a-95dc-45fd-8935-6ea3c65c9d0a","ios":"levelo://app?vid=2746844a-95dc-45fd-8935-6ea3c65c9d0a"},"vehicle_type_id":"4","last_reported":1702803976,"current_range_meters":28000,"station_id":"ce4bhh12rcd13ifvqfg0","pricing_plan_id":"free"},{"bike_id":"078285eb-c504-40c3-9f45-0bc3f974818f","system_id":"levelo_inurba_marseille","lat":43.267966,"lon":5.393976,"is_reserved":false,"is_disabled":false,"rental_uris":{"android":"levelo://app?vid=078285eb-c504-40c3-9f45-0bc3f974818f","ios":"levelo://app?vid=078285eb-c504-40c3-9f45-0bc3f974818f"},"vehicle_type_id":"4","last_reported":1702803976,"current_range_meters":30400,"station_id":"ce4bhh12rcd13ifvqfg0","pricing_plan_id":"free"},{"bike_id":"fbe429f5-4501-4e84-9577-fe09170ebcff","system_id":"levelo_inurba_marseille","lat":43.26564,"lon":5.39005,"is_reserved":false,"is_disabled":false,"rental_uris":{"android":"levelo://app?vid=fbe429f5-4501-4e84-9577-fe09170ebcff","ios":"levelo://app?vid=fbe429f5-4501-4e84-9577-fe09170ebcff"},"vehicle_type_id":"4","last_reported":1702803976,"current_range_meters":30000,"station_id":"ce4bhe12rcd13ifvqf30","pricing_plan_id":"free"},{"bike_id":"2eb7ee5a-6ade-4720-807c-b56bb99a2743","system_id":"levelo_inurba_marseille","lat":43.265569,"lon":5.390047,"is_reserved":false,"is_disabled":false,"rental_uris":{"android":"levelo://app?vid=2eb7ee5a-6ade-4720-807c-b56bb99a2743","ios":"levelo://app?vid=2eb7ee5a-6ade-4720-807c-b56bb99a2743"},"vehicle_type_id":"4","last_reported":1702803976,"current_range_meters":31200,"station_id":"ce4bhe12rcd13ifvqf30","pricing_plan_id":"free"},{"bike_id":"e90d09a2-a2bf-4b0e-95c0-4f6d9442c1ac","system_id":"levelo_inurba_marseille","lat":43.26556,"lon":5.39009,"is_reserved":false,"is_disabled":false,"rental_uris":{"android":"levelo://app?vid=e90d09a2-a2bf-4b0e-95c0-4f6d9442c1ac","ios":"levelo://app?vid=e90d09a2-a2bf-4b0e-95c0-4f6d9442c1ac"},"vehicle_type_id":"4","last_reported":1702803976,"current_range_meters":22000,"station_id":"ce4bhe12rcd13ifvqf30","pricing_plan_id":"free"},{"bike_id":"76104bab-a490-470c-8b89-c87b7bc95e45","system_id":"levelo_inurba_marseille","lat":43.26943,"lon":5.40253,"is_reserved":false,"is_disabled":false,"rental_uris":{"android":"levelo://app?vid=76104bab-a490-470c-8b89-c87b7bc95e45","ios":"levelo://app?vid=76104bab-a490-470c-8b89-c87b7bc95e45"},"vehicle_type_id":"4","last_reported":1702803976,"current_range_meters":25200,"station_id":"cjm6bp8fraef2m0cb0m0","pricing_plan_id":"free"},{"bike_id":"9e5d42f9-0fce-4624-94c2-fbd69681a455","system_id":"levelo_inurba_marseille","lat":43.261955,"lon":5.374435,"is_reserved":false,"is_disabled":false,"rental_uris":{"android":"levelo://app?vid=9e5d42f9-0fce-4624-94c2-fbd69681a455","ios":"levelo://app?vid=9e5d42f9-0fce-4624-94c2-fbd69681a455"},"vehicle_type_id":"4","last_reported":1702803976,"current_range_meters":16400,"station_id":"ce4bhgp2rcd13ifvqfc0","pricing_plan_id":"free"},{"bike_id":"e4e56fa6-e1c2-4f94-a5dc-6910e93ba9ad","system_id":"levelo_inurba_marseille","lat":43.26188,"lon":5.37443,"is_reserved":false,"is_disabled":false,"rental_uris":{"android":"levelo://app?vid=e4e56fa6-e1c2-4f94-a5dc-6910e93ba9ad","ios":"levelo://app?vid=e4e56fa6-e1c2-4f94-a5dc-6910e93ba9ad"},"vehicle_type_id":"4","last_reported":1702803976,"current_range_meters":25600,"station_id":"","pricing_plan_id":"free"},{"bike_id":"c8433c5d-bdf5-44e8-a4d9-04bc080fd051","system_id":"levelo_inurba_marseille","lat":43.26188,"lon":5.37444,"is_reserved":false,"is_disabled":false,"rental_uris":{"android":"levelo://app?vid=c8433c5d-bdf5-44e8-a4d9-04bc080fd051","ios":"levelo://app?vid=c8433c5d-bdf5-44e8-a4d9-04bc080fd051"},"vehicle_type_id":"4","last_reported":1702803976,"current_range_meters":27600,"station_id":"ce4bhgp2rcd13ifvqfc0","pricing_plan_id":"free"},{"bike_id":"48c1e2a6-058d-4a3d-a13d-0f741c6fd1fe","system_id":"levelo_inurba_marseille","lat":43.261782,"lon":5.374515,"is_reserved":false,"is_disabled":false,"rental_uris":{"android":"levelo://app?vid=48c1e2a6-058d-4a3d-a13d-0f741c6fd1fe","ios":"levelo://app?vid=48c1e2a6-058d-4a3d-a13d-0f741c6fd1fe"},"vehicle_type_id":"4","last_reported":1702803976,"current_range_meters":31200,"station_id":"ce4bhgp2rcd13ifvqfc0","pricing_plan_id":"free"},{"bike_id":"65e77bcc-99d8-43c5-ae10-151bafc43501","system_id":"levelo_inurba_marseille","lat":43.26187,"lon":5.37444,"is_reserved":false,"is_disabled":false,"rental_uris":{"android":"levelo://app?vid=65e77bcc-99d8-43c5-ae10-151bafc43501","ios":"levelo://app?vid=65e77bcc-99d8-43c5-ae10-151bafc43501"},"vehicle_type_id":"4","last_reported":1702803976,"current_range_meters":31200,"station_id":"ce4bhgp2rcd13ifvqfc0","pricing_plan_id":"free"},{"bike_id":"c2190701-ca78-4a61-ab0f-35e0e94c194f","system_id":"levelo_inurba_marseille","lat":43.317104,"lon":5.436818,"is_reserved":false,"is_disabled":false,"rental_uris":{"android":"levelo://app?vid=c2190701-ca78-4a61-ab0f-35e0e94c194f","ios":"levelo://app?vid=c2190701-ca78-4a61-ab0f-35e0e94c194f"},"vehicle_type_id":"4","last_reported":1702803976,"current_range_meters":23600,"station_id":"ce4bhp92rcd13ifvqhcg","pricing_plan_id":"free"},{"bike_id":"8f1b56dd-ca7e-4fb4-ab8e-d35e6d8bfafa","system_id":"levelo_inurba_marseille","lat":43.262012,"lon":5.379307,"is_reserved":false,"is_disabled":false,"rental_uris":{"android":"levelo://app?vid=8f1b56dd-ca7e-4fb4-ab8e-d35e6d8bfafa","ios":"levelo://app?vid=8f1b56dd-ca7e-4fb4-ab8e-d35e6d8bfafa"},"vehicle_type_id":"4","last_reported":1702803976,"current_range_meters":27600,"station_id":"ce4bhjp2rcd13ifvqg90","pricing_plan_id":"free"},{"bike_id":"bc4a64cd-ca4f-4b99-88e7-cef6ecb8fc58","system_id":"levelo_inurba_marseille","lat":43.267959,"lon":5.402685,"is_reserved":false,"is_disabled":false,"rental_uris":{"android":"levelo://app?vid=bc4a64cd-ca4f-4b99-88e7-cef6ecb8fc58","ios":"levelo://app?vid=bc4a64cd-ca4f-4b99-88e7-cef6ecb8fc58"},"vehicle_type_id":"4","last_reported":1702803976,"current_range_meters":30400,"station_id":"ce501612rcd8frsf0b60","pricing_plan_id":"free"},{"bike_id":"edeb8585-7e4c-437b-a3a0-e9512b6936a8","system_id":"levelo_inurba_marseille","lat":43.267959,"lon":5.402687,"is_reserved":false,"is_disabled":false,"rental_uris":{"android":"levelo://app?vid=edeb8585-7e4c-437b-a3a0-e9512b6936a8","ios":"levelo://app?vid=edeb8585-7e4c-437b-a3a0-e9512b6936a8"},"vehicle_type_id":"4","last_reported":1702803976,"current_range_meters":15200,"station_id":"ce501612rcd8frsf0b60","pricing_plan_id":"free"},{"bike_id":"f2318a53-9471-42dc-8d4f-a7730a7a36c8","system_id":"levelo_inurba_marseille","lat":43.265007,"lon":5.395444,"is_reserved":false,"is_disabled":false,"rental_uris":{"android":"levelo://app?vid=f2318a53-9471-42dc-8d4f-a7730a7a36c8","ios":"levelo://app?vid=f2318a53-9471-42dc-8d4f-a7730a7a36c8"},"vehicle_type_id":"4","last_reported":1702803976,"current_range_meters":2800,"station_id":"","pricing_plan_id":"free"},{"bike_id":"b6518228-12c3-4225-894a-5f7dce8e8e5d","system_id":"levelo_inurba_marseille","lat":43.26497,"lon":5.39535,"is_reserved":false,"is_disabled":false,"rental_uris":{"android":"levelo://app?vid=b6518228-12c3-4225-894a-5f7dce8e8e5d","ios":"levelo://app?vid=b6518228-12c3-4225-894a-5f7dce8e8e5d"},"vehicle_type_id":"4","last_reported":1702803976,"current_range_meters":0,"station_id":"","pricing_plan_id":"free"},{"bike_id":"4c30ab0b-cc54-4ba6-ae72-a8fb812c2d2c","system_id":"levelo_inurba_marseille","lat":43.264962,"lon":5.395426,"is_reserved":false,"is_disabled":false,"rental_uris":{"android":"levelo://app?vid=4c30ab0b-cc54-4ba6-ae72-a8fb812c2d2c","ios":"levelo://app?vid=4c30ab0b-cc54-4ba6-ae72-a8fb812c2d2c"},"vehicle_type_id":"4","last_reported":1702803976,"current_range_meters":24800,"station_id":"","pricing_plan_id":"free"},{"bike_id":"1027c1c2-ba39-4720-b00d-2c56da016646","system_id":"levelo_inurba_marseille","lat":43.264977,"lon":5.395474,"is_reserved":false,"is_disabled":false,"rental_uris":{"android":"levelo://app?vid=1027c1c2-ba39-4720-b00d-2c56da016646","ios":"levelo://app?vid=1027c1c2-ba39-4720-b00d-2c56da016646"},"vehicle_type_id":"4","last_reported":1702803976,"current_range_meters":28800,"station_id":"","pricing_plan_id":"free"},{"bike_id":"7743d713-d033-44f0-9919-d35e21ec4494","system_id":"levelo_inurba_marseille","lat":43.26493,"lon":5.39539,"is_reserved":false,"is_disabled":false,"rental_uris":{"android":"levelo://app?vid=7743d713-d033-44f0-9919-d35e21ec4494","ios":"levelo://app?vid=7743d713-d033-44f0-9919-d35e21ec4494"},"vehicle_type_id":"4","last_reported":1702803976,"current_range_meters":18400,"station_id":"","pricing_plan_id":"free"},{"bike_id":"1765264f-1e74-4ce5-841e-c97748fde2f9","system_id":"levelo_inurba_marseille","lat":43.26495,"lon":5.39555,"is_reserved":false,"is_disabled":false,"rental_uris":{"android":"levelo://app?vid=1765264f-1e74-4ce5-841e-c97748fde2f9","ios":"levelo://app?vid=1765264f-1e74-4ce5-841e-c97748fde2f9"},"vehicle_type_id":"4","last_reported":1702803976,"current_range_meters":23200,"station_id":"","pricing_plan_id":"free"},{"bike_id":"84d23a6b-18c6-4e12-abea-edef63349583","system_id":"levelo_inurba_marseille","lat":43.298768,"lon":5.43643,"is_reserved":false,"is_disabled":false,"rental_uris":{"android":"levelo://app?vid=84d23a6b-18c6-4e12-abea-edef63349583","ios":"levelo://app?vid=84d23a6b-18c6-4e12-abea-edef63349583"},"vehicle_type_id":"4","last_reported":1702803976,"current_range_meters":22400,"station_id":"ce4bhpp2rcd13ifvqhfg","pricing_plan_id":"free"},{"bike_id":"d084d587-4b27-4e47-8734-14f6d302ab83","system_id":"levelo_inurba_marseille","lat":43.298768,"lon":5.43643,"is_reserved":false,"is_disabled":false,"rental_uris":{"android":"levelo://app?vid=d084d587-4b27-4e47-8734-14f6d302ab83","ios":"levelo://app?vid=d084d587-4b27-4e47-8734-14f6d302ab83"},"vehicle_type_id":"4","last_reported":1702803976,"current_range_meters":31200,"station_id":"ce4bhpp2rcd13ifvqhfg","pricing_plan_id":"free"},{"bike_id":"56d120e9-7f5f-4477-97bf-8dfa3b542850","system_id":"levelo_inurba_marseille","lat":43.281548,"lon":5.42643,"is_reserved":false,"is_disabled":false,"rental_uris":{"android":"levelo://app?vid=56d120e9-7f5f-4477-97bf-8dfa3b542850","ios":"levelo://app?vid=56d120e9-7f5f-4477-97bf-8dfa3b542850"},"vehicle_type_id":"4","last_reported":1702803976,"current_range_meters":20800,"station_id":"ce4bhnh2rcd13ifvqgug","pricing_plan_id":"free"},{"bike_id":"1d3dc963-dada-4257-8490-86427255d67c","system_id":"levelo_inurba_marseille","lat":43.281548,"lon":5.42643,"is_reserved":false,"is_disabled":false,"rental_uris":{"android":"levelo://app?vid=1d3dc963-dada-4257-8490-86427255d67c","ios":"levelo://app?vid=1d3dc963-dada-4257-8490-86427255d67c"},"vehicle_type_id":"4","last_reported":1702803976,"current_range_meters":26000,"station_id":"ce4bhnh2rcd13ifvqgug","pricing_plan_id":"free"},{"bike_id":"22afafb4-509d-4c4f-87d3-f4844f631844","system_id":"levelo_inurba_marseille","lat":43.281548,"lon":5.42643,"is_reserved":false,"is_disabled":false,"rental_uris":{"android":"levelo://app?vid=22afafb4-509d-4c4f-87d3-f4844f631844","ios":"levelo://app?vid=22afafb4-509d-4c4f-87d3-f4844f631844"},"vehicle_type_id":"4","last_reported":1702803976,"current_range_meters":26400,"station_id":"ce4bhnh2rcd13ifvqgug","pricing_plan_id":"free"},{"bike_id":"cb1dcb41-80e1-4183-a32a-eec2f4e17970","system_id":"levelo_inurba_marseille","lat":43.281548,"lon":5.42643,"is_reserved":false,"is_disabled":false,"rental_uris":{"android":"levelo://app?vid=cb1dcb41-80e1-4183-a32a-eec2f4e17970","ios":"levelo://app?vid=cb1dcb41-80e1-4183-a32a-eec2f4e17970"},"vehicle_type_id":"4","last_reported":1702803976,"current_range_meters":17600,"station_id":"ce4bhnh2rcd13ifvqgug","pricing_plan_id":"free"},{"bike_id":"71252ba5-5619-4f36-b490-0c5903f0700e","system_id":"levelo_inurba_marseille","lat":43.281548,"lon":5.42643,"is_reserved":false,"is_disabled":false,"rental_uris":{"android":"levelo://app?vid=71252ba5-5619-4f36-b490-0c5903f0700e","ios":"levelo://app?vid=71252ba5-5619-4f36-b490-0c5903f0700e"},"vehicle_type_id":"4","last_reported":1702803976,"current_range_meters":3600,"station_id":"ce4bhnh2rcd13ifvqgug","pricing_plan_id":"free"},{"bike_id":"0fbb9982-628a-458e-8599-3a52f552df95","system_id":"levelo_inurba_marseille","lat":43.281548,"lon":5.42643,"is_reserved":false,"is_disabled":false,"rental_uris":{"android":"levelo://app?vid=0fbb9982-628a-458e-8599-3a52f552df95","ios":"levelo://app?vid=0fbb9982-628a-458e-8599-3a52f552df95"},"vehicle_type_id":"4","last_reported":1702803976,"current_range_meters":26000,"station_id":"ce4bhnh2rcd13ifvqgug","pricing_plan_id":"free"},{"bike_id":"4dd764f6-774c-4512-8b0e-1beb34d8f863","system_id":"levelo_inurba_marseille","lat":43.281548,"lon":5.42643,"is_reserved":false,"is_disabled":false,"rental_uris":{"android":"levelo://app?vid=4dd764f6-774c-4512-8b0e-1beb34d8f863","ios":"levelo://app?vid=4dd764f6-774c-4512-8b0e-1beb34d8f863"},"vehicle_type_id":"4","last_reported":1702803976,"current_range_meters":31200,"station_id":"ce4bhnh2rcd13ifvqgug","pricing_plan_id":"free"},{"bike_id":"d179c498-6590-4265-ba74-db4d632b80df","system_id":"levelo_inurba_marseille","lat":43.281548,"lon":5.42643,"is_reserved":false,"is_disabled":false,"rental_uris":{"android":"levelo://app?vid=d179c498-6590-4265-ba74-db4d632b80df","ios":"levelo://app?vid=d179c498-6590-4265-ba74-db4d632b80df"},"vehicle_type_id":"4","last_reported":1702803976,"current_range_meters":31200,"station_id":"ce4bhnh2rcd13ifvqgug","pricing_plan_id":"free"},{"bike_id":"c15ae3b7-8e97-4a88-a9b4-a63f88042490","system_id":"levelo_inurba_marseille","lat":43.281548,"lon":5.42643,"is_reserved":false,"is_disabled":false,"rental_uris":{"android":"levelo://app?vid=c15ae3b7-8e97-4a88-a9b4-a63f88042490","ios":"levelo://app?vid=c15ae3b7-8e97-4a88-a9b4-a63f88042490"},"vehicle_type_id":"4","last_reported":1702803976,"current_range_meters":2400,"station_id":"ce4bhnh2rcd13ifvqgug","pricing_plan_id":"free"},{"bike_id":"e67adb0b-4217-4b03-8657-2f9486792d7e","system_id":"levelo_inurba_marseille","lat":43.2607,"lon":5.393983,"is_reserved":false,"is_disabled":false,"rental_uris":{"android":"levelo://app?vid=e67adb0b-4217-4b03-8657-2f9486792d7e","ios":"levelo://app?vid=e67adb0b-4217-4b03-8657-2f9486792d7e"},"vehicle_type_id":"4","last_reported":1702803976,"current_range_meters":30000,"station_id":"ce4bhh92rcd13ifvqfj0","pricing_plan_id":"free"},{"bike_id":"eb72cf00-5b74-4aac-948c-e470339f3e4d","system_id":"levelo_inurba_marseille","lat":43.26061,"lon":5.39393,"is_reserved":false,"is_disabled":false,"rental_uris":{"android":"levelo://app?vid=eb72cf00-5b74-4aac-948c-e470339f3e4d","ios":"levelo://app?vid=eb72cf00-5b74-4aac-948c-e470339f3e4d"},"vehicle_type_id":"4","last_reported":1702803976,"current_range_meters":20400,"station_id":"ce4bhh92rcd13ifvqfj0","pricing_plan_id":"free"},{"bike_id":"df0c2b68-5f22-4e6f-a906-3333db78c829","system_id":"levelo_inurba_marseille","lat":43.2607,"lon":5.393983,"is_reserved":false,"is_disabled":false,"rental_uris":{"android":"levelo://app?vid=df0c2b68-5f22-4e6f-a906-3333db78c829","ios":"levelo://app?vid=df0c2b68-5f22-4e6f-a906-3333db78c829"},"vehicle_type_id":"4","last_reported":1702803976,"current_range_meters":16800,"station_id":"ce4bhh92rcd13ifvqfj0","pricing_plan_id":"free"},{"bike_id":"caf84ca6-1851-44a5-94da-5df011de0272","system_id":"levelo_inurba_marseille","lat":43.2607,"lon":5.393983,"is_reserved":false,"is_disabled":false,"rental_uris":{"android":"levelo://app?vid=caf84ca6-1851-44a5-94da-5df011de0272","ios":"levelo://app?vid=caf84ca6-1851-44a5-94da-5df011de0272"},"vehicle_type_id":"4","last_reported":1702803976,"current_range_meters":20000,"station_id":"ce4bhh92rcd13ifvqfj0","pricing_plan_id":"free"},{"bike_id":"86e8efcc-9a9d-4657-8fc4-7b76fe514acc","system_id":"levelo_inurba_marseille","lat":43.275028,"lon":5.424534,"is_reserved":false,"is_disabled":false,"rental_uris":{"android":"levelo://app?vid=86e8efcc-9a9d-4657-8fc4-7b76fe514acc","ios":"levelo://app?vid=86e8efcc-9a9d-4657-8fc4-7b76fe514acc"},"vehicle_type_id":"4","last_reported":1702803976,"current_range_meters":11200,"station_id":"ce4bhn92rcd13ifvqgrg","pricing_plan_id":"free"},{"bike_id":"41bc15f8-3b1d-4ccf-944e-034bbcc08f91","system_id":"levelo_inurba_marseille","lat":43.275028,"lon":5.424534,"is_reserved":false,"is_disabled":false,"rental_uris":{"android":"levelo://app?vid=41bc15f8-3b1d-4ccf-944e-034bbcc08f91","ios":"levelo://app?vid=41bc15f8-3b1d-4ccf-944e-034bbcc08f91"},"vehicle_type_id":"4","last_reported":1702803976,"current_range_meters":30000,"station_id":"ce4bhn92rcd13ifvqgrg","pricing_plan_id":"free"},{"bike_id":"26edb7e5-1cc5-434c-a417-271b88181037","system_id":"levelo_inurba_marseille","lat":43.275028,"lon":5.424534,"is_reserved":false,"is_disabled":false,"rental_uris":{"android":"levelo://app?vid=26edb7e5-1cc5-434c-a417-271b88181037","ios":"levelo://app?vid=26edb7e5-1cc5-434c-a417-271b88181037"},"vehicle_type_id":"4","last_reported":1702803976,"current_range_meters":27600,"station_id":"ce4bhn92rcd13ifvqgrg","pricing_plan_id":"free"},{"bike_id":"b6836b5c-bf87-43d1-afcb-477e491235ab","system_id":"levelo_inurba_marseille","lat":43.26087,"lon":5.39766,"is_reserved":false,"is_disabled":false,"rental_uris":{"android":"levelo://app?vid=b6836b5c-bf87-43d1-afcb-477e491235ab","ios":"levelo://app?vid=b6836b5c-bf87-43d1-afcb-477e491235ab"},"vehicle_type_id":"4","last_reported":1702803976,"current_range_meters":1600,"station_id":"","pricing_plan_id":"free"},{"bike_id":"cb4aa066-0acd-450f-a854-69855bd4d7ee","system_id":"levelo_inurba_marseille","lat":43.25828,"lon":5.39431,"is_reserved":false,"is_disabled":false,"rental_uris":{"android":"levelo://app?vid=cb4aa066-0acd-450f-a854-69855bd4d7ee","ios":"levelo://app?vid=cb4aa066-0acd-450f-a854-69855bd4d7ee"},"vehicle_type_id":"4","last_reported":1702803976,"current_range_meters":26000,"station_id":"ce4bhip2rcd13ifvqft0","pricing_plan_id":"free"},{"bike_id":"2acb0db4-d2b7-4f74-a872-0c2246105d42","system_id":"levelo_inurba_marseille","lat":43.25828,"lon":5.39438,"is_reserved":false,"is_disabled":false,"rental_uris":{"android":"levelo://app?vid=2acb0db4-d2b7-4f74-a872-0c2246105d42","ios":"levelo://app?vid=2acb0db4-d2b7-4f74-a872-0c2246105d42"},"vehicle_type_id":"4","last_reported":1702803976,"current_range_meters":22000,"station_id":"ce4bhip2rcd13ifvqft0","pricing_plan_id":"free"},{"bike_id":"77ac79d5-c24d-4edd-95f5-261a49d22ea1","system_id":"levelo_inurba_marseille","lat":43.255824,"lon":5.382336,"is_reserved":false,"is_disabled":false,"rental_uris":{"android":"levelo://app?vid=77ac79d5-c24d-4edd-95f5-261a49d22ea1","ios":"levelo://app?vid=77ac79d5-c24d-4edd-95f5-261a49d22ea1"},"vehicle_type_id":"4","last_reported":1702803976,"current_range_meters":12800,"station_id":"ce4bhih2rcd13ifvqfs0","pricing_plan_id":"free"},{"bike_id":"4a14eb90-0bcc-46d5-a7ef-68f7a4f98435","system_id":"levelo_inurba_marseille","lat":43.25576,"lon":5.38235,"is_reserved":false,"is_disabled":false,"rental_uris":{"android":"levelo://app?vid=4a14eb90-0bcc-46d5-a7ef-68f7a4f98435","ios":"levelo://app?vid=4a14eb90-0bcc-46d5-a7ef-68f7a4f98435"},"vehicle_type_id":"4","last_reported":1702803976,"current_range_meters":30000,"station_id":"ce4bhih2rcd13ifvqfs0","pricing_plan_id":"free"},{"bike_id":"7a582b40-2371-4bb6-b6c9-3eebc8b67da8","system_id":"levelo_inurba_marseille","lat":43.25499,"lon":5.37649,"is_reserved":false,"is_disabled":false,"rental_uris":{"android":"levelo://app?vid=7a582b40-2371-4bb6-b6c9-3eebc8b67da8","ios":"levelo://app?vid=7a582b40-2371-4bb6-b6c9-3eebc8b67da8"},"vehicle_type_id":"4","last_reported":1702803976,"current_range_meters":15600,"station_id":"ce4bhh12rcd13ifvqff0","pricing_plan_id":"free"},{"bike_id":"ca09182d-f85e-490e-8b5c-94486064e272","system_id":"levelo_inurba_marseille","lat":43.254947,"lon":5.376454,"is_reserved":false,"is_disabled":false,"rental_uris":{"android":"levelo://app?vid=ca09182d-f85e-490e-8b5c-94486064e272","ios":"levelo://app?vid=ca09182d-f85e-490e-8b5c-94486064e272"},"vehicle_type_id":"4","last_reported":1702803976,"current_range_meters":28000,"station_id":"ce4bhh12rcd13ifvqff0","pricing_plan_id":"free"},{"bike_id":"e650bb41-64fd-4d3c-b646-23c994a756b9","system_id":"levelo_inurba_marseille","lat":43.25497,"lon":5.37648,"is_reserved":false,"is_disabled":false,"rental_uris":{"android":"levelo://app?vid=e650bb41-64fd-4d3c-b646-23c994a756b9","ios":"levelo://app?vid=e650bb41-64fd-4d3c-b646-23c994a756b9"},"vehicle_type_id":"4","last_reported":1702803976,"current_range_meters":22800,"station_id":"ce4bhh12rcd13ifvqff0","pricing_plan_id":"free"},{"bike_id":"1ace9c64-be15-4225-91cc-d1d5e2234176","system_id":"levelo_inurba_marseille","lat":43.254947,"lon":5.376454,"is_reserved":false,"is_disabled":false,"rental_uris":{"android":"levelo://app?vid=1ace9c64-be15-4225-91cc-d1d5e2234176","ios":"levelo://app?vid=1ace9c64-be15-4225-91cc-d1d5e2234176"},"vehicle_type_id":"4","last_reported":1702803976,"current_range_meters":26400,"station_id":"ce4bhh12rcd13ifvqff0","pricing_plan_id":"free"},{"bike_id":"04827576-03c1-4517-8c81-dbcc995a56ae","system_id":"levelo_inurba_marseille","lat":43.254947,"lon":5.376454,"is_reserved":false,"is_disabled":false,"rental_uris":{"android":"levelo://app?vid=04827576-03c1-4517-8c81-dbcc995a56ae","ios":"levelo://app?vid=04827576-03c1-4517-8c81-dbcc995a56ae"},"vehicle_type_id":"4","last_reported":1702803976,"current_range_meters":18000,"station_id":"ce4bhh12rcd13ifvqff0","pricing_plan_id":"free"},{"bike_id":"afbd7ab2-095b-4084-b983-42214e614bfd","system_id":"levelo_inurba_marseille","lat":43.254947,"lon":5.376454,"is_reserved":false,"is_disabled":false,"rental_uris":{"android":"levelo://app?vid=afbd7ab2-095b-4084-b983-42214e614bfd","ios":"levelo://app?vid=afbd7ab2-095b-4084-b983-42214e614bfd"},"vehicle_type_id":"4","last_reported":1702803976,"current_range_meters":24400,"station_id":"ce4bhh12rcd13ifvqff0","pricing_plan_id":"free"},{"bike_id":"40763a8d-8cd3-4705-9421-3aa9f3bd9401","system_id":"levelo_inurba_marseille","lat":43.270721,"lon":5.422764,"is_reserved":false,"is_disabled":false,"rental_uris":{"android":"levelo://app?vid=40763a8d-8cd3-4705-9421-3aa9f3bd9401","ios":"levelo://app?vid=40763a8d-8cd3-4705-9421-3aa9f3bd9401"},"vehicle_type_id":"4","last_reported":1702803976,"current_range_meters":29600,"station_id":"ce4bhk92rcd13ifvqgb0","pricing_plan_id":"free"},{"bike_id":"a7c679f4-aee4-4156-a9a5-69e3da159837","system_id":"levelo_inurba_marseille","lat":43.25861,"lon":5.39908,"is_reserved":false,"is_disabled":false,"rental_uris":{"android":"levelo://app?vid=a7c679f4-aee4-4156-a9a5-69e3da159837","ios":"levelo://app?vid=a7c679f4-aee4-4156-a9a5-69e3da159837"},"vehicle_type_id":"4","last_reported":1702803976,"current_range_meters":24000,"station_id":"ce4bhl92rcd13ifvqghg","pricing_plan_id":"free"},{"bike_id":"c7226a43-d231-428e-8d45-d36ac12c06d7","system_id":"levelo_inurba_marseille","lat":43.25859,"lon":5.39909,"is_reserved":false,"is_disabled":false,"rental_uris":{"android":"levelo://app?vid=c7226a43-d231-428e-8d45-d36ac12c06d7","ios":"levelo://app?vid=c7226a43-d231-428e-8d45-d36ac12c06d7"},"vehicle_type_id":"4","last_reported":1702803976,"current_range_meters":10400,"station_id":"ce4bhl92rcd13ifvqghg","pricing_plan_id":"free"},{"bike_id":"790f0c85-435e-464f-af9f-df0afa087a9d","system_id":"levelo_inurba_marseille","lat":43.25929,"lon":5.40911,"is_reserved":false,"is_disabled":false,"rental_uris":{"android":"levelo://app?vid=790f0c85-435e-464f-af9f-df0afa087a9d","ios":"levelo://app?vid=790f0c85-435e-464f-af9f-df0afa087a9d"},"vehicle_type_id":"4","last_reported":1702803976,"current_range_meters":31200,"station_id":"ce4bhm92rcd13ifvqglg","pricing_plan_id":"free"},{"bike_id":"486de631-4303-438d-8a28-45c67f8e2772","system_id":"levelo_inurba_marseille","lat":43.25932,"lon":5.40919,"is_reserved":false,"is_disabled":false,"rental_uris":{"android":"levelo://app?vid=486de631-4303-438d-8a28-45c67f8e2772","ios":"levelo://app?vid=486de631-4303-438d-8a28-45c67f8e2772"},"vehicle_type_id":"4","last_reported":1702803976,"current_range_meters":18800,"station_id":"ce4bhm92rcd13ifvqglg","pricing_plan_id":"free"},{"bike_id":"c42c8265-a87f-4db6-b8a4-696660579129","system_id":"levelo_inurba_marseille","lat":43.257079,"lon":5.411051,"is_reserved":false,"is_disabled":false,"rental_uris":{"android":"levelo://app?vid=c42c8265-a87f-4db6-b8a4-696660579129","ios":"levelo://app?vid=c42c8265-a87f-4db6-b8a4-696660579129"},"vehicle_type_id":"4","last_reported":1702803976,"current_range_meters":29600,"station_id":"ce4bhkp2rcd13ifvqgd0","pricing_plan_id":"free"},{"bike_id":"ec80f2ee-d212-4255-95b5-c8ee4797f8bd","system_id":"levelo_inurba_marseille","lat":43.25725,"lon":5.4111,"is_reserved":false,"is_disabled":false,"rental_uris":{"android":"levelo://app?vid=ec80f2ee-d212-4255-95b5-c8ee4797f8bd","ios":"levelo://app?vid=ec80f2ee-d212-4255-95b5-c8ee4797f8bd"},"vehicle_type_id":"4","last_reported":1702803976,"current_range_meters":0,"station_id":"ce4bhkp2rcd13ifvqgd0","pricing_plan_id":"free"},{"bike_id":"5af8f612-79c1-484d-b89d-d8d1f1fecd60","system_id":"levelo_inurba_marseille","lat":43.257079,"lon":5.411051,"is_reserved":false,"is_disabled":false,"rental_uris":{"android":"levelo://app?vid=5af8f612-79c1-484d-b89d-d8d1f1fecd60","ios":"levelo://app?vid=5af8f612-79c1-484d-b89d-d8d1f1fecd60"},"vehicle_type_id":"4","last_reported":1702803976,"current_range_meters":30000,"station_id":"ce4bhkp2rcd13ifvqgd0","pricing_plan_id":"free"},{"bike_id":"d3af0231-a43d-4c65-8a87-68dd56a6d43b","system_id":"levelo_inurba_marseille","lat":43.250009,"lon":5.389195,"is_reserved":false,"is_disabled":false,"rental_uris":{"android":"levelo://app?vid=d3af0231-a43d-4c65-8a87-68dd56a6d43b","ios":"levelo://app?vid=d3af0231-a43d-4c65-8a87-68dd56a6d43b"},"vehicle_type_id":"4","last_reported":1702803976,"current_range_meters":26400,"station_id":"ce4bhgp2rcd13ifvqfd0","pricing_plan_id":"free"},{"bike_id":"639c2119-0628-4038-9bfc-0f2d42541bd5","system_id":"levelo_inurba_marseille","lat":43.2479,"lon":5.374457,"is_reserved":false,"is_disabled":false,"rental_uris":{"android":"levelo://app?vid=639c2119-0628-4038-9bfc-0f2d42541bd5","ios":"levelo://app?vid=639c2119-0628-4038-9bfc-0f2d42541bd5"},"vehicle_type_id":"4","last_reported":1702803976,"current_range_meters":17200,"station_id":"ce4bhgh2rcd13ifvqfb0","pricing_plan_id":"free"},{"bike_id":"c1564c0d-27af-4334-8ea6-b96bafc9ec9f","system_id":"levelo_inurba_marseille","lat":43.2479,"lon":5.374457,"is_reserved":false,"is_disabled":false,"rental_uris":{"android":"levelo://app?vid=c1564c0d-27af-4334-8ea6-b96bafc9ec9f","ios":"levelo://app?vid=c1564c0d-27af-4334-8ea6-b96bafc9ec9f"},"vehicle_type_id":"4","last_reported":1702803976,"current_range_meters":30400,"station_id":"ce4bhgh2rcd13ifvqfb0","pricing_plan_id":"free"},{"bike_id":"94831cca-2d72-4df5-a4c3-ec10f794d54a","system_id":"levelo_inurba_marseille","lat":43.25102,"lon":5.403214,"is_reserved":false,"is_disabled":false,"rental_uris":{"android":"levelo://app?vid=94831cca-2d72-4df5-a4c3-ec10f794d54a","ios":"levelo://app?vid=94831cca-2d72-4df5-a4c3-ec10f794d54a"},"vehicle_type_id":"4","last_reported":1702803976,"current_range_meters":30400,"station_id":"ce4bhlh2rcd13ifvqgig","pricing_plan_id":"free"},{"bike_id":"d9ba70e8-18ac-4761-9308-1a5971009a5f","system_id":"levelo_inurba_marseille","lat":43.25102,"lon":5.403214,"is_reserved":false,"is_disabled":false,"rental_uris":{"android":"levelo://app?vid=d9ba70e8-18ac-4761-9308-1a5971009a5f","ios":"levelo://app?vid=d9ba70e8-18ac-4761-9308-1a5971009a5f"},"vehicle_type_id":"4","last_reported":1702803976,"current_range_meters":30400,"station_id":"ce4bhlh2rcd13ifvqgig","pricing_plan_id":"free"},{"bike_id":"cda151f2-9ad2-46c9-9115-b73ba9a06619","system_id":"levelo_inurba_marseille","lat":43.25221,"lon":5.406409,"is_reserved":false,"is_disabled":false,"rental_uris":{"android":"levelo://app?vid=cda151f2-9ad2-46c9-9115-b73ba9a06619","ios":"levelo://app?vid=cda151f2-9ad2-46c9-9115-b73ba9a06619"},"vehicle_type_id":"4","last_reported":1702803976,"current_range_meters":0,"station_id":"","pricing_plan_id":"free"},