{"last_updated":1734016205,"ttl":60,"version":"2.2","data":{"bikes":[{"bike_id":"f273d2db-9d28-4c2f-99d9-9f030249d630","system_id":"levelo_inurba_marseille","lat":43.24064,"lon":5.37738,"is_reserved":false,"is_disabled":false,"rental_uris":{"android":"levelo://app?vid=f273d2db-9d28-4c2f-99d9-9f030249d630","ios":"levelo://app?vid=f273d2db-9d28-4c2f-99d9-9f030249d630"},"vehicle_type_id":"4","last_reported":1734016205,"current_range_meters":28000,"station_id":"ce4bhnp2rcd13ifvqgvg","pricing_plan_id":"cebpf4jnsgd1na2vs0mg"},{"bike_id":"907fec12-a848-4864-ae30-c2b590a6dd5f","system_id":"levelo_inurba_marseille","lat":43.26235,"lon":5.37428,"is_reserved":false,"is_disabled":true,"rental_uris":{"android":"levelo://app?vid=907fec12-a848-4864-ae30-c2b590a6dd5f","ios":"levelo://app?vid=907fec12-a848-4864-ae30-c2b590a6dd5f"},"vehicle_type_id":"4","last_reported":1734016205,"current_range_meters":800,"station_id":"","pricing_plan_id":"cebpf4jnsgd1na2vs0mg"},{"bike_id":"60e9ed68-c2d5-4fcc-b1fe-df98992a2ea5","system_id":"levelo_inurba_marseille","lat":43.30764,"lon":5.36837,"is_reserved":false,"is_disabled":true,"rental_uris":{"android":"levelo://app?vid=60e9ed68-c2d5-4fcc-b1fe-df98992a2ea5","ios":"levelo://app?vid=60e9ed68-c2d5-4fcc-b1fe-df98992a2ea5"},"vehicle_type_id":"4","last_reported":1734016205,"current_range_meters":0,"station_id":"","pricing_plan_id":"cebpf4jnsgd1na2vs0mg"},{"bike_id":"70264841-f3db-4034-846f-0a3a10327c9a","system_id":"levelo_inurba_marseille","lat":43.25558,"lon":5.38255,"is_reserved":false,"is_disabled":false,"rental_uris":{"android":"levelo://app?vid=70264841-f3db-4034-846f-0a3a10327c9a","ios":"levelo://app?vid=70264841-f3db-4034-846f-0a3a10327c9a"},"vehicle_type_id":"4","last_reported":1734016205,"current_range_meters":17200,"station_id":"ce4bhih2rcd13ifvqfs0","pricing_plan_id":"cebpf4jnsgd1na2vs0mg"},{"bike_id":"b266efff-3a14-4d1a-a25a-c68ad062a1f4","system_id":"levelo_inurba_marseille","lat":43.24167,"lon":5.36407,"is_reserved":false,"is_disabled":false,"rental_uris":{"android":"levelo://app?vid=b266efff-3a14-4d1a-a25a-c68ad062a1f4","ios":"levelo://app?vid=b266efff-3a14-4d1a-a25a-c68ad062a1f4"},"vehicle_type_id":"4","last_reported":1734016205,"current_range_meters":38400,"station_id":"cpo36qri1sfpv3e86is0","pricing_plan_id":"cebpf4jnsgd1na2vs0mg"},{"bike_id":"46be3b8e-d7f9-47cb-9a03-2992870ad06d","system_id":"levelo_inurba_marseille","lat":43.27985,"lon":5.40019,"is_reserved":false,"is_disabled":false,"rental_uris":{"android":"levelo://app?vid=46be3b8e-d7f9-47cb-9a03-2992870ad06d","ios":"levelo://app?vid=46be3b8e-d7f9-47cb-9a03-2992870ad06d"},"vehicle_type_id":"4","last_reported":1734016205,"current_range_meters":31200,"station_id":"ce4bho92rcd13ifvqh4g","pricing_plan_id":"cebpf4jnsgd1na2vs0mg"},{"bike_id":"ee809fb4-97d8-45c4-b3ab-6d232db6f90d","system_id":"levelo_inurba_marseille","lat":43.31757,"lon":5.39019,"is_reserved":false,"is_disabled":false,"rental_uris":{"android":"levelo://app?vid=ee809fb4-97d8-45c4-b3ab-6d232db6f90d","ios":"levelo://app?vid=ee809fb4-97d8-45c4-b3ab-6d232db6f90d"},"vehicle_type_id":"4","last_reported":1734016205,"current_range_meters":23200,"station_id":"ce4bhqp2rcd13ifvqhng","pricing_plan_id":"cebpf4jnsgd1na2vs0mg"},{"bike_id":"b10cb830-a23f-4995-89fc-bf25ecf89b39","system_id":"levelo_inurba_marseille","lat":43.24662,"lon":5.3816,"is_reserved":false,"is_disabled":false,"rental_uris":{"android":"levelo://app?vid=b10cb830-a23f-4995-89fc-bf25ecf89b39","ios":"levelo://app?vid=b10cb830-a23f-4995-89fc-bf25ecf89b39"},"vehicle_type_id":"4","last_reported":1734016205,"current_range_meters":7200,"station_id":"ce4bhih2rcd13ifvqfr0","pricing_plan_id":"cebpf4jnsgd1na2vs0mg"},{"bike_id":"1976abd9-14eb-4bed-bcb1-bf300e29757b","system_id":"levelo_inurba_marseille","lat":43.323324,"lon":5.406294,"is_reserved":false,"is_disabled":false,"rental_uris":{"android":"levelo://app?vid=1976abd9-14eb-4bed-bcb1-bf300e29757b","ios":"levelo://app?vid=1976abd9-14eb-4bed-bcb1-bf300e29757b"},"vehicle_type_id":"4","last_reported":1734016205,"current_range_meters":12400,"station_id":"ce4bhq92rcd13ifvqhjg","pricing_plan_id":"cebpf4jnsgd1na2vs0mg"},{"bike_id":"fb886c68-9c54-4ccd-b964-6489edb35b3a","system_id":"levelo_inurba_marseille","lat":43.26937,"lon":5.38904,"is_reserved":false,"is_disabled":false,"rental_uris":{"android":"levelo://app?vid=fb886c68-9c54-4ccd-b964-6489edb35b3a","ios":"levelo://app?vid=fb886c68-9c54-4ccd-b964-6489edb35b3a"},"vehicle_type_id":"4","last_reported":1734016205,"current_range_meters":38800,"station_id":"ce4bhhh2rcd13ifvqfl0","pricing_plan_id":"cebpf4jnsgd1na2vs0mg"},{"bike_id":"499ad53a-89f6-4eca-8c40-b3c3c7ae4551","system_id":"levelo_inurba_marseille","lat":43.26939,"lon":5.38919,"is_reserved":false,"is_disabled":false,"rental_uris":{"android":"levelo://app?vid=499ad53a-89f6-4eca-8c40-b3c3c7ae4551","ios":"levelo://app?vid=499ad53a-89f6-4eca-8c40-b3c3c7ae4551"},"vehicle_type_id":"4","last_reported":1734016205,"current_range_meters":38800,"station_id":"ce4bhhh2rcd13ifvqfl0","pricing_plan_id":"cebpf4jnsgd1na2vs0mg"},{"bike_id":"980f96eb-32c9-4906-98f6-c44dbf4c84a1","system_id":"levelo_inurba_marseille","lat":43.27455,"lon":5.40073,"is_reserved":false,"is_disabled":true,"rental_uris":{"android":"levelo://app?vid=980f96eb-32c9-4906-98f6-c44dbf4c84a1","ios":"levelo://app?vid=980f96eb-32c9-4906-98f6-c44dbf4c84a1"},"vehicle_type_id":"4","last_reported":1734016205,"current_range_meters":0,"station_id":"","pricing_plan_id":"cebpf4jnsgd1na2vs0mg"},{"bike_id":"a613553c-efb6-433b-b7bd-c31f0310c5f4","system_id":"levelo_inurba_marseille","lat":43.26788,"lon":5.39416,"is_reserved":false,"is_disabled":false,"rental_uris":{"android":"levelo://app?vid=a613553c-efb6-433b-b7bd-c31f0310c5f4","ios":"levelo://app?vid=a613553c-efb6-433b-b7bd-c31f0310c5f4"},"vehicle_type_id":"4","last_reported":1734016205,"current_range_meters":35600,"station_id":"ce4bhh12rcd13ifvqfg0","pricing_plan_id":"cebpf4jnsgd1na2vs0mg"},{"bike_id":"12ca9e5b-af41-40e1-9bf7-7e470781b9b1","system_id":"levelo_inurba_marseille","lat":43.31683,"lon":5.40478,"is_reserved":false,"is_disabled":false,"rental_uris":{"android":"levelo://app?vid=12ca9e5b-af41-40e1-9bf7-7e470781b9b1","ios":"levelo://app?vid=12ca9e5b-af41-40e1-9bf7-7e470781b9b1"},"vehicle_type_id":"4","last_reported":1734016205,"current_range_meters":3600,"station_id":"ce4bh012rcd13ifvqd00","pricing_plan_id":"cebpf4jnsgd1na2vs0mg"},{"bike_id":"81820bb2-e728-4cc8-8d20-36a7cafa25cc","system_id":"levelo_inurba_marseille","lat":43.30561,"lon":5.36568,"is_reserved":false,"is_disabled":false,"rental_uris":{"android":"levelo://app?vid=81820bb2-e728-4cc8-8d20-36a7cafa25cc","ios":"levelo://app?vid=81820bb2-e728-4cc8-8d20-36a7cafa25cc"},"vehicle_type_id":"4","last_reported":1734016205,"current_range_meters":36000,"station_id":"ce4bgs12rcd13ifvqcag","pricing_plan_id":"cebpf4jnsgd1na2vs0mg"},{"bike_id":"ef19f8b5-b60b-46bc-bfd1-c11da63b03b1","system_id":"levelo_inurba_marseille","lat":43.3135,"lon":5.36717,"is_reserved":false,"is_disabled":false,"rental_uris":{"android":"levelo://app?vid=ef19f8b5-b60b-46bc-bfd1-c11da63b03b1","ios":"levelo://app?vid=ef19f8b5-b60b-46bc-bfd1-c11da63b03b1"},"vehicle_type_id":"4","last_reported":1734016205,"current_range_meters":35600,"station_id":"ce4bgr92rcd13ifvqc6g","pricing_plan_id":"cebpf4jnsgd1na2vs0mg"},{"bike_id":"9515ac74-8ee0-4fdd-92a4-3de1b675edab","system_id":"levelo_inurba_marseille","lat":43.288483,"lon":5.358726,"is_reserved":false,"is_disabled":false,"rental_uris":{"android":"levelo://app?vid=9515ac74-8ee0-4fdd-92a4-3de1b675edab","ios":"levelo://app?vid=9515ac74-8ee0-4fdd-92a4-3de1b675edab"},"vehicle_type_id":"4","last_reported":1734016205,"current_range_meters":36400,"station_id":"ce4bhb12rcd13ifvqem0","pricing_plan_id":"cebpf4jnsgd1na2vs0mg"},{"bike_id":"62c1474a-61f3-4dca-9592-618e79e1d0f8","system_id":"levelo_inurba_marseille","lat":43.28614,"lon":5.35102,"is_reserved":false,"is_disabled":true,"rental_uris":{"android":"levelo://app?vid=62c1474a-61f3-4dca-9592-618e79e1d0f8","ios":"levelo://app?vid=62c1474a-61f3-4dca-9592-618e79e1d0f8"},"vehicle_type_id":"4","last_reported":1734016205,"current_range_meters":0,"station_id":"ce4bhch2rcd13ifvqeug","pricing_plan_id":"cebpf4jnsgd1na2vs0mg"},{"bike_id":"976e1536-7249-425f-8cfa-22b5b9a9e0e3","system_id":"levelo_inurba_marseille","lat":43.28075,"lon":5.39662,"is_reserved":false,"is_disabled":true,"rental_uris":{"android":"levelo://app?vid=976e1536-7249-425f-8cfa-22b5b9a9e0e3","ios":"levelo://app?vid=976e1536-7249-425f-8cfa-22b5b9a9e0e3"},"vehicle_type_id":"4","last_reported":1734016205,"current_range_meters":1600,"station_id":"ce4bho12rcd13ifvqh2g","pricing_plan_id":"cebpf4jnsgd1na2vs0mg"},{"bike_id":"fe87f8f2-6e97-4611-93da-1318a830eb3c","system_id":"levelo_inurba_marseille","lat":43.27993,"lon":5.41661,"is_reserved":false,"is_disabled":true,"rental_uris":{"android":"levelo://app?vid=fe87f8f2-6e97-4611-93da-1318a830eb3c","ios":"levelo://app?vid=fe87f8f2-6e97-4611-93da-1318a830eb3c"},"vehicle_type_id":"4","last_reported":1734016205,"current_range_meters":39200,"station_id":"ce4bho12rcd13ifvqh1g","pricing_plan_id":"cebpf4jnsgd1na2vs0mg"},{"bike_id":"a118724e-099d-4517-9529-bc6e47cefa3a","system_id":"levelo_inurba_marseille","lat":43.30952,"lon":5.37934,"is_reserved":false,"is_disabled":false,"rental_uris":{"android":"levelo://app?vid=a118724e-099d-4517-9529-bc6e47cefa3a","ios":"levelo://app?vid=a118724e-099d-4517-9529-bc6e47cefa3a"},"vehicle_type_id":"4","last_reported":1734016205,"current_range_meters":22800,"station_id":"","pricing_plan_id":"cebpf4jnsgd1na2vs0mg"},{"bike_id":"749148f5-8155-4ceb-b60e-13b266645973","system_id":"levelo_inurba_marseille","lat":43.28718,"lon":5.36094,"is_reserved":false,"is_disabled":false,"rental_uris":{"android":"levelo://app?vid=749148f5-8155-4ceb-b60e-13b266645973","ios":"levelo://app?vid=749148f5-8155-4ceb-b60e-13b266645973"},"vehicle_type_id":"4","last_reported":1734016205,"current_range_meters":38800,"station_id":"cki0cbj6b192h4jlfktg","pricing_plan_id":"cebpf4jnsgd1na2vs0mg"},{"bike_id":"a31355b6-12ac-43b5-8e5a-e8fbb308373c","system_id":"levelo_inurba_marseille","lat":43.28938,"lon":5.36636,"is_reserved":false,"is_disabled":false,"rental_uris":{"android":"levelo://app?vid=a31355b6-12ac-43b5-8e5a-e8fbb308373c","ios":"levelo://app?vid=a31355b6-12ac-43b5-8e5a-e8fbb308373c"},"vehicle_type_id":"4","last_reported":1734016205,"current_range_meters":4800,"station_id":"ce4bhap2rcd13ifvqek0","pricing_plan_id":"cebpf4jnsgd1na2vs0mg"},{"bike_id":"1301c2fd-c7ff-4e18-9e0a-494e4e9bcdd5","system_id":"levelo_inurba_marseille","lat":43.30527,"lon":5.36551,"is_reserved":false,"is_disabled":false,"rental_uris":{"android":"levelo://app?vid=1301c2fd-c7ff-4e18-9e0a-494e4e9bcdd5","ios":"levelo://app?vid=1301c2fd-c7ff-4e18-9e0a-494e4e9bcdd5"},"vehicle_type_id":"4","last_reported":1734016205,"current_range_meters":38800,"station_id":"ce4bgs12rcd13ifvqcag","pricing_plan_id":"cebpf4jnsgd1na2vs0mg"},{"bike_id":"22f21191-cce5-4516-884a-9e96aae593a0","system_id":"levelo_inurba_marseille","lat":43.28158,"lon":5.42643,"is_reserved":false,"is_disabled":false,"rental_uris":{"android":"levelo://app?vid=22f21191-cce5-4516-884a-9e96aae593a0","ios":"levelo://app?vid=22f21191-cce5-4516-884a-9e96aae593a0"},"vehicle_type_id":"4","last_reported":1734016205,"current_range_meters":28000,"station_id":"ce4bhnh2rcd13ifvqgug","pricing_plan_id":"cebpf4jnsgd1na2vs0mg"},{"bike_id":"664c9696-737d-49bf-8130-42ead64e83d8","system_id":"levelo_inurba_marseille","lat":43.2985,"lon":5.36287,"is_reserved":false,"is_disabled":false,"rental_uris":{"android":"levelo://app?vid=664c9696-737d-49bf-8130-42ead64e83d8","ios":"levelo://app?vid=664c9696-737d-49bf-8130-42ead64e83d8"},"vehicle_type_id":"4","last_reported":1734016205,"current_range_meters":8400,"station_id":"ce4bgpp2rcd13ifvqc3g","pricing_plan_id":"cebpf4jnsgd1na2vs0mg"},{"bike_id":"0c3dd50b-c3e5-4af5-9cb3-0d200d12a110","system_id":"levelo_inurba_marseille","lat":43.23179,"lon":5.39987,"is_reserved":false,"is_disabled":false,"rental_uris":{"android":"levelo://app?vid=0c3dd50b-c3e5-4af5-9cb3-0d200d12a110","ios":"levelo://app?vid=0c3dd50b-c3e5-4af5-9cb3-0d200d12a110"},"vehicle_type_id":"4","last_reported":1734016205,"current_range_meters":20400,"station_id":"ce4bhn12rcd13ifvqgqg","pricing_plan_id":"cebpf4jnsgd1na2vs0mg"},{"bike_id":"889820bf-4afd-4c2d-aa86-7a33e41a8aa7","system_id":"levelo_inurba_marseille","lat":43.27441,"lon":5.39406,"is_reserved":false,"is_disabled":false,"rental_uris":{"android":"levelo://app?vid=889820bf-4afd-4c2d-aa86-7a33e41a8aa7","ios":"levelo://app?vid=889820bf-4afd-4c2d-aa86-7a33e41a8aa7"},"vehicle_type_id":"4","last_reported":1734016205,"current_range_meters":38800,"station_id":"ce4bhdp2rcd13ifvqf20","pricing_plan_id":"cebpf4jnsgd1na2vs0mg"},{"bike_id":"80f66b82-54aa-4843-b64e-91d3afce4948","system_id":"levelo_inurba_marseille","lat":43.31195,"lon":5.36902,"is_reserved":false,"is_disabled":true,"rental_uris":{"android":"levelo://app?vid=80f66b82-54aa-4843-b64e-91d3afce4948","ios":"levelo://app?vid=80f66b82-54aa-4843-b64e-91d3afce4948"},"vehicle_type_id":"4","last_reported":1734016205,"current_range_meters":31200,"station_id":"","pricing_plan_id":"cebpf4jnsgd1na2vs0mg"},{"bike_id":"adb1fe97-7479-46ae-a77e-a2be1c3526c6","system_id":"levelo_inurba_marseille","lat":43.28155,"lon":5.42651,"is_reserved":false,"is_disabled":false,"rental_uris":{"android":"levelo://app?vid=adb1fe97-7479-46ae-a77e-a2be1c3526c6","ios":"levelo://app?vid=adb1fe97-7479-46ae-a77e-a2be1c3526c6"},"vehicle_type_id":"4","last_reported":1734016205,"current_range_meters":26000,"station_id":"ce4bhnh2rcd13ifvqgug","pricing_plan_id":"cebpf4jnsgd1na2vs0mg"},{"bike_id":"3a56946e-b571-4f0a-89c3-228266a44430","system_id":"levelo_inurba_marseille","lat":43.26597,"lon":5.38971,"is_reserved":false,"is_disabled":true,"rental_uris":{"android":"levelo://app?vid=3a56946e-b571-4f0a-89c3-228266a44430","ios":"levelo://app?vid=3a56946e-b571-4f0a-89c3-228266a44430"},"vehicle_type_id":"4","last_reported":1734016205,"current_range_meters":3200,"station_id":"","pricing_plan_id":"cebpf4jnsgd1na2vs0mg"},{"bike_id":"0964331d-9ceb-4879-b064-f7b0ea9e6e8c","system_id":"levelo_inurba_marseille","lat":43.27815,"lon":5.40715,"is_reserved":false,"is_disabled":false,"rental_uris":{"android":"levelo://app?vid=0964331d-9ceb-4879-b064-f7b0ea9e6e8c","ios":"levelo://app?vid=0964331d-9ceb-4879-b064-f7b0ea9e6e8c"},"vehicle_type_id":"4","last_reported":1734016205,"current_range_meters":32400,"station_id":"ce4bhnh2rcd13ifvqgtg","pricing_plan_id":"cebpf4jnsgd1na2vs0mg"},{"bike_id":"f50718db-b686-4b85-98ab-c99f497924e8","system_id":"levelo_inurba_marseille","lat":43.318932,"lon":5.407393,"is_reserved":false,"is_disabled":false,"rental_uris":{"android":"levelo://app?vid=f50718db-b686-4b85-98ab-c99f497924e8","ios":"levelo://app?vid=f50718db-b686-4b85-98ab-c99f497924e8"},"vehicle_type_id":"4","last_reported":1734016205,"current_range_meters":2000,"station_id":"ce4bhq12rcd13ifvqhig","pricing_plan_id":"cebpf4jnsgd1na2vs0mg"},{"bike_id":"e14977e1-f577-4ad0-b4ee-4770451da960","system_id":"levelo_inurba_marseille","lat":43.27568,"lon":5.38429,"is_reserved":false,"is_disabled":false,"rental_uris":{"android":"levelo://app?vid=e14977e1-f577-4ad0-b4ee-4770451da960","ios":"levelo://app?vid=e14977e1-f577-4ad0-b4ee-4770451da960"},"vehicle_type_id":"4","last_reported":1734016205,"current_range_meters":32800,"station_id":"ce4bhh92rcd13ifvqfi0","pricing_plan_id":"cebpf4jnsgd1na2vs0mg"},{"bike_id":"a26c0977-afbe-417a-bd99-0ae3d92576ba","system_id":"levelo_inurba_marseille","lat":43.27176,"lon":5.40999,"is_reserved":false,"is_disabled":true,"rental_uris":{"android":"levelo://app?vid=a26c0977-afbe-417a-bd99-0ae3d92576ba","ios":"levelo://app?vid=a26c0977-afbe-417a-bd99-0ae3d92576ba"},"vehicle_type_id":"4","last_reported":1734016205,"current_range_meters":0,"station_id":"ce4bhl12rcd13ifvqgf0","pricing_plan_id":"cebpf4jnsgd1na2vs0mg"},{"bike_id":"9d33df79-8956-4132-8227-afcef411117c","system_id":"levelo_inurba_marseille","lat":43.28727,"lon":5.37939,"is_reserved":false,"is_disabled":false,"rental_uris":{"android":"levelo://app?vid=9d33df79-8956-4132-8227-afcef411117c","ios":"levelo://app?vid=9d33df79-8956-4132-8227-afcef411117c"},"vehicle_type_id":"4","last_reported":1734016205,"current_range_meters":28400,"station_id":"ce4bh9p2rcd13ifvqec0","pricing_plan_id":"cebpf4jnsgd1na2vs0mg"},{"bike_id":"b13f7988-892d-489e-89d4-b900be8b8ffb","system_id":"levelo_inurba_marseille","lat":43.29716,"lon":5.37281,"is_reserved":false,"is_disabled":true,"rental_uris":{"android":"levelo://app?vid=b13f7988-892d-489e-89d4-b900be8b8ffb","ios":"levelo://app?vid=b13f7988-892d-489e-89d4-b900be8b8ffb"},"vehicle_type_id":"4","last_reported":1734016205,"current_range_meters":38800,"station_id":"ce4bgk12rcd13ifvqbj0","pricing_plan_id":"cebpf4jnsgd1na2vs0mg"},{"bike_id":"b5375f5f-ac2a-4bfb-acb5-a3d0dd19bcf2","system_id":"levelo_inurba_marseille","lat":43.29915,"lon":5.38143,"is_reserved":false,"is_disabled":false,"rental_uris":{"android":"levelo://app?vid=b5375f5f-ac2a-4bfb-acb5-a3d0dd19bcf2","ios":"levelo://app?vid=b5375f5f-ac2a-4bfb-acb5-a3d0dd19bcf2"},"vehicle_type_id":"4","last_reported":1734016205,"current_range_meters":38000,"station_id":"ce4bgj12rcd13ifvqbc0","pricing_plan_id":"cebpf4jnsgd1na2vs0mg"},{"bike_id":"fcaa85c8-310d-4f7f-90a2-f4e86135f1e9","system_id":"levelo_inurba_marseille","lat":43.26498,"lon":5.39538,"is_reserved":false,"is_disabled":false,"rental_uris":{"android":"levelo://app?vid=fcaa85c8-310d-4f7f-90a2-f4e86135f1e9","ios":"levelo://app?vid=fcaa85c8-310d-4f7f-90a2-f4e86135f1e9"},"vehicle_type_id":"4","last_reported":1734016205,"current_range_meters":36800,"station_id":"ce4bhi12rcd13ifvqfq0","pricing_plan_id":"cebpf4jnsgd1na2vs0mg"},{"bike_id":"4552534d-00b9-4142-9baa-7b817acd308f","system_id":"levelo_inurba_marseille","lat":43.32479,"lon":5.3658,"is_reserved":false,"is_disabled":false,"rental_uris":{"android":"levelo://app?vid=4552534d-00b9-4142-9baa-7b817acd308f","ios":"levelo://app?vid=4552534d-00b9-4142-9baa-7b817acd308f"},"vehicle_type_id":"4","last_reported":1734016205,"current_range_meters":28000,"station_id":"ce4bhs12rcd13ifvqhvg","pricing_plan_id":"cebpf4jnsgd1na2vs0mg"},{"bike_id":"11933e04-d81a-4d25-aa83-cc295172b3a1","system_id":"levelo_inurba_marseille","lat":43.25417,"lon":5.38274,"is_reserved":false,"is_disabled":true,"rental_uris":{"android":"levelo://app?vid=11933e04-d81a-4d25-aa83-cc295172b3a1","ios":"levelo://app?vid=11933e04-d81a-4d25-aa83-cc295172b3a1"},"vehicle_type_id":"4","last_reported":1734016205,"current_range_meters":29600,"station_id":"","pricing_plan_id":"cebpf4jnsgd1na2vs0mg"},{"bike_id":"97c5cdf1-5409-48ef-b0e2-df7f208e5c46","system_id":"levelo_inurba_marseille","lat":43.27057,"lon":5.40267,"is_reserved":false,"is_disabled":false,"rental_uris":{"android":"levelo://app?vid=97c5cdf1-5409-48ef-b0e2-df7f208e5c46","ios":"levelo://app?vid=97c5cdf1-5409-48ef-b0e2-df7f208e5c46"},"vehicle_type_id":"4","last_reported":1734016205,"current_range_meters":27600,"station_id":"ce4bhk92rcd13ifvqgc0","pricing_plan_id":"cebpf4jnsgd1na2vs0mg"},{"bike_id":"48a6c33c-dab6-4d69-87c7-df728a4c767a","system_id":"levelo_inurba_marseille","lat":43.33925,"lon":5.37254,"is_reserved":false,"is_disabled":false,"rental_uris":{"android":"levelo://app?vid=48a6c33c-dab6-4d69-87c7-df728a4c767a","ios":"levelo://app?vid=48a6c33c-dab6-4d69-87c7-df728a4c767a"},"vehicle_type_id":"4","last_reported":1734016205,"current_range_meters":26000,"station_id":"","pricing_plan_id":"cebpf4jnsgd1na2vs0mg"},{"bike_id":"c4412eb7-fc32-4912-a812-6e15b96bb2e2","system_id":"levelo_inurba_marseille","lat":43.27893,"lon":5.38017,"is_reserved":false,"is_disabled":false,"rental_uris":{"android":"levelo://app?vid=c4412eb7-fc32-4912-a812-6e15b96bb2e2","ios":"levelo://app?vid=c4412eb7-fc32-4912-a812-6e15b96bb2e2"},"vehicle_type_id":"4","last_reported":1734016205,"current_range_meters":39200,"station_id":"ce4bhf92rcd13ifvqf50","pricing_plan_id":"cebpf4jnsgd1na2vs0mg"},{"bike_id":"21559104-aa95-4db5-8345-263c9f7c3638","system_id":"levelo_inurba_marseille","lat":43.27207,"lon":5.39178,"is_reserved":false,"is_disabled":false,"rental_uris":{"android":"levelo://app?vid=21559104-aa95-4db5-8345-263c9f7c3638","ios":"levelo://app?vid=21559104-aa95-4db5-8345-263c9f7c3638"},"vehicle_type_id":"4","last_reported":1734016205,"current_range_meters":36400,"station_id":"ce4bhhp2rcd13ifvqfm0","pricing_plan_id":"cebpf4jnsgd1na2vs0mg"},{"bike_id":"30b7f7b0-cffb-44e8-9e23-86428fe1183d","system_id":"levelo_inurba_marseille","lat":43.23068,"lon":5.35505,"is_reserved":false,"is_disabled":false,"rental_uris":{"android":"levelo://app?vid=30b7f7b0-cffb-44e8-9e23-86428fe1183d","ios":"levelo://app?vid=30b7f7b0-cffb-44e8-9e23-86428fe1183d"},"vehicle_type_id":"4","last_reported":1734016205,"current_range_meters":8000,"station_id":"cpo3342slgdg3j2ifvpg","pricing_plan_id":"cebpf4jnsgd1na2vs0mg"},{"bike_id":"2307a060-88d0-4f12-a7dd-28c108d3e5aa","system_id":"levelo_inurba_marseille","lat":43.27057,"lon":5.40262,"is_reserved":false,"is_disabled":false,"rental_uris":{"android":"levelo://app?vid=2307a060-88d0-4f12-a7dd-28c108d3e5aa","ios":"levelo://app?vid=2307a060-88d0-4f12-a7dd-28c108d3e5aa"},"vehicle_type_id":"4","last_reported":1734016205,"current_range_meters":24800,"station_id":"ce4bhk92rcd13ifvqgc0","pricing_plan_id":"cebpf4jnsgd1na2vs0mg"},{"bike_id":"c962957d-ec10-4997-96e1-a869343f922e","system_id":"levelo_inurba_marseille","lat":43.30776,"lon":5.37251,"is_reserved":false,"is_disabled":true,"rental_uris":{"android":"levelo://app?vid=c962957d-ec10-4997-96e1-a869343f922e","ios":"levelo://app?vid=c962957d-ec10-4997-96e1-a869343f922e"},"vehicle_type_id":"4","last_reported":1734016205,"current_range_meters":0,"station_id":"","pricing_plan_id":"cebpf4jnsgd1na2vs0mg"},{"bike_id":"de8a29ec-927d-4344-b072-779700f97fd0","system_id":"levelo_inurba_marseille","lat":43.32979,"lon":5.39987,"is_reserved":false,"is_disabled":false,"rental_uris":{"android":"levelo://app?vid=de8a29ec-927d-4344-b072-779700f97fd0","ios":"levelo://app?vid=de8a29ec-927d-4344-b072-779700f97fd0"},"vehicle_type_id":"4","last_reported":1734016205,"current_range_meters":28400,"station_id":"ce4bhqp2rcd13ifvqhog","pricing_plan_id":"cebpf4jnsgd1na2vs0mg"},{"bike_id":"b3578bf6-9848-4132-a4c4-aa3029f69f38","system_id":"levelo_inurba_marseille","lat":43.25088,"lon":5.39526,"is_reserved":false,"is_disabled":false,"rental_uris":{"android":"levelo://app?vid=b3578bf6-9848-4132-a4c4-aa3029f69f38","ios":"levelo://app?vid=b3578bf6-9848-4132-a4c4-aa3029f69f38"},"vehicle_type_id":"4","last_reported":1734016205,"current_range_meters":38800,"station_id":"ce4bhm12rcd13ifvqgkg","pricing_plan_id":"cebpf4jnsgd1na2vs0mg"},{"bike_id":"80e7d90a-8050-4fc6-8802-63867dac5ff2","system_id":"levelo_inurba_marseille","lat":43.28699,"lon":5.37395,"is_reserved":false,"is_disabled":true,"rental_uris":{"android":"levelo://app?vid=80e7d90a-8050-4fc6-8802-63867dac5ff2","ios":"levelo://app?vid=80e7d90a-8050-4fc6-8802-63867dac5ff2"},"vehicle_type_id":"4","last_reported":1734016205,"current_range_meters":36800,"station_id":"ce4bh3p2rcd13ifvqdq0","pricing_plan_id":"cebpf4jnsgd1na2vs0mg"},{"bike_id":"dd28bc87-aedf-45fd-b982-6aee62487677","system_id":"levelo_inurba_marseille","lat":43.26554,"lon":5.37286,"is_reserved":false,"is_disabled":false,"rental_uris":{"android":"levelo://app?vid=dd28bc87-aedf-45fd-b982-6aee62487677","ios":"levelo://app?vid=dd28bc87-aedf-45fd-b982-6aee62487677"},"vehicle_type_id":"4","last_reported":1734016205,"current_range_meters":10000,"station_id":"ce4bhg12rcd13ifvqf70","pricing_plan_id":"cebpf4jnsgd1na2vs0mg"},{"bike_id":"496ed935-7ebb-4dc2-9c42-30aa84f534c1","system_id":"levelo_inurba_marseille","lat":43.29916,"lon":5.37471,"is_reserved":false,"is_disabled":false,"rental_uris":{"android":"levelo://app?vid=496ed935-7ebb-4dc2-9c42-30aa84f534c1","ios":"levelo://app?vid=496ed935-7ebb-4dc2-9c42-30aa84f534c1"},"vehicle_type_id":"4","last_reported":1734016205,"current_range_meters":14400,"station_id":"ce4bgjh2rcd13ifvqbg0","pricing_plan_id":"cebpf4jnsgd1na2vs0mg"},{"bike_id":"3cc49aec-0146-4bd6-8ced-13dc2b354f47","system_id":"levelo_inurba_marseille","lat":43.23187,"lon":5.39988,"is_reserved":false,"is_disabled":true,"rental_uris":{"android":"levelo://app?vid=3cc49aec-0146-4bd6-8ced-13dc2b354f47","ios":"levelo://app?vid=3cc49aec-0146-4bd6-8ced-13dc2b354f47"},"vehicle_type_id":"4","last_reported":1734016205,"current_range_meters":2000,"station_id":"ce4bhn12rcd13ifvqgqg","pricing_plan_id":"cebpf4jnsgd1na2vs0mg"},{"bike_id":"b2aa9b51-d785-4500-9054-bf686e7a6974","system_id":"levelo_inurba_marseille","lat":43.29967,"lon":5.37164,"is_reserved":false,"is_disabled":false,"rental_uris":{"android":"levelo://app?vid=b2aa9b51-d785-4500-9054-bf686e7a6974","ios":"levelo://app?vid=b2aa9b51-d785-4500-9054-bf686e7a6974"},"vehicle_type_id":"4","last_reported":1734016205,"current_range_meters":30800,"station_id":"ce4bgr92rcd13ifvqc7g","pricing_plan_id":"cebpf4jnsgd1na2vs0mg"},{"bike_id":"aa4a32db-4df7-4d25-96ce-7f0e481204fc","system_id":"levelo_inurba_marseille","lat":43.28067,"lon":5.39654,"is_reserved":false,"is_disabled":false,"rental_uris":{"android":"levelo://app?vid=aa4a32db-4df7-4d25-96ce-7f0e481204fc","ios":"levelo://app?vid=aa4a32db-4df7-4d25-96ce-7f0e481204fc"},"vehicle_type_id":"4","last_reported":1734016205,"current_range_meters":38800,"station_id":"ce4bho12rcd13ifvqh2g","pricing_plan_id":"cebpf4jnsgd1na2vs0mg"},{"bike_id":"b4790356-98e5-4f77-8215-30f0e726e820","system_id":"levelo_inurba_marseille","lat":43.29261,"lon":5.40911,"is_reserved":false,"is_disabled":false,"rental_uris":{"android":"levelo://app?vid=b4790356-98e5-4f77-8215-30f0e726e820","ios":"levelo://app?vid=b4790356-98e5-4f77-8215-30f0e726e820"},"vehicle_type_id":"4","last_reported":1734016205,"current_range_meters":20800,"station_id":"ce4bh192rcd13ifvqdc0","pricing_plan_id":"cebpf4jnsgd1na2vs0mg"},{"bike_id":"4c9a48f7-763e-4e96-a176-c382227dbe96","system_id":"levelo_inurba_marseille","lat":43.29084,"lon":5.38139,"is_reserved":false,"is_disabled":true,"rental_uris":{"android":"levelo://app?vid=4c9a48f7-763e-4e96-a176-c382227dbe96","ios":"levelo://app?vid=4c9a48f7-763e-4e96-a176-c382227dbe96"},"vehicle_type_id":"4","last_reported":1734016205,"current_range_meters":0,"station_id":"ce4bh512rcd13ifvqe2g","pricing_plan_id":"cebpf4jnsgd1na2vs0mg"},{"bike_id":"272c2d2a-06b8-4db1-8117-380ae3afde1d","system_id":"levelo_inurba_marseille","lat":43.27607,"lon":5.36112,"is_reserved":false,"is_disabled":false,"rental_uris":{"android":"levelo://app?vid=272c2d2a-06b8-4db1-8117-380ae3afde1d","ios":"levelo://app?vid=272c2d2a-06b8-4db1-8117-380ae3afde1d"},"vehicle_type_id":"4","last_reported":1734016205,"current_range_meters":3200,"station_id":"ce4bgj92rcd13ifvqbe0","pricing_plan_id":"cebpf4jnsgd1na2vs0mg"},{"bike_id":"6b7da9da-7ed8-4376-8377-8274a75ba481","system_id":"levelo_inurba_marseille","lat":43.27326,"lon":5.39931,"is_reserved":false,"is_disabled":true,"rental_uris":{"android":"levelo://app?vid=6b7da9da-7ed8-4376-8377-8274a75ba481","ios":"levelo://app?vid=6b7da9da-7ed8-4376-8377-8274a75ba481"},"vehicle_type_id":"4","last_reported":1734016205,"current_range_meters":36400,"station_id":"","pricing_plan_id":"cebpf4jnsgd1na2vs0mg"},{"bike_id":"077dfc5a-f606-4502-8c4b-f0d497b0826a","system_id":"levelo_inurba_marseille","lat":43.29434,"lon":5.39765,"is_reserved":false,"is_disabled":false,"rental_uris":{"android":"levelo://app?vid=077dfc5a-f606-4502-8c4b-f0d497b0826a","ios":"levelo://app?vid=077dfc5a-f606-4502-8c4b-f0d497b0826a"},"vehicle_type_id":"4","last_reported":1734016205,"current_range_meters":27200,"station_id":"ce4bh3h2rcd13ifvqdo0","pricing_plan_id":"cebpf4jnsgd1na2vs0mg"},{"bike_id":"af67ac53-ba21-4ff0-8334-95679e9ff2cc","system_id":"levelo_inurba_marseille","lat":43.278805,"lon":5.388003,"is_reserved":false,"is_disabled":true,"rental_uris":{"android":"levelo://app?vid=af67ac53-ba21-4ff0-8334-95679e9ff2cc","ios":"levelo://app?vid=af67ac53-ba21-4ff0-8334-95679e9ff2cc"},"vehicle_type_id":"4","last_reported":1734016205,"current_range_meters":0,"station_id":"","pricing_plan_id":"cebpf4jnsgd1na2vs0mg"},{"bike_id":"d75d047d-3f18-4f42-926d-5793de16cb5d","system_id":"levelo_inurba_marseille","lat":43.24648,"lon":5.38911,"is_reserved":false,"is_disabled":false,"rental_uris":{"android":"levelo://app?vid=d75d047d-3f18-4f42-926d-5793de16cb5d","ios":"levelo://app?vid=d75d047d-3f18-4f42-926d-5793de16cb5d"},"vehicle_type_id":"4","last_reported":1734016205,"current_range_meters":28800,"station_id":"ce4bhg12rcd13ifvqf60","pricing_plan_id":"cebpf4jnsgd1na2vs0mg"},{"bike_id":"a8952a43-ed45-4b45-98c8-1bb60ae3ae5a","system_id":"levelo_inurba_marseille","lat":43.30759,"lon":5.37634,"is_reserved":false,"is_disabled":true,"rental_uris":{"android":"levelo://app?vid=a8952a43-ed45-4b45-98c8-1bb60ae3ae5a","ios":"levelo://app?vid=a8952a43-ed45-4b45-98c8-1bb60ae3ae5a"},"vehicle_type_id":"4","last_reported":1734016205,"current_range_meters":3600,"station_id":"ce4bgv92rcd13ifvqcq0","pricing_plan_id":"cebpf4jnsgd1na2vs0mg"},{"bike_id":"10c5ff6b-2913-4e28-b76b-6b7b1e4f67ab","system_id":"levelo_inurba_marseille","lat":43.31753,"lon":5.39017,"is_reserved":false,"is_disabled":false,"rental_uris":{"android":"levelo://app?vid=10c5ff6b-2913-4e28-b76b-6b7b1e4f67ab","ios":"levelo://app?vid=10c5ff6b-2913-4e28-b76b-6b7b1e4f67ab"},"vehicle_type_id":"4","last_reported":1734016205,"current_range_meters":36000,"station_id":"ce4bhqp2rcd13ifvqhng","pricing_plan_id":"cebpf4jnsgd1na2vs0mg"},{"bike_id":"f8a2bd8e-0796-445d-a525-a55268d4e958","system_id":"levelo_inurba_marseille","lat":43.2706,"lon":5.40262,"is_reserved":false,"is_disabled":false,"rental_uris":{"android":"levelo://app?vid=f8a2bd8e-0796-445d-a525-a55268d4e958","ios":"levelo://app?vid=f8a2bd8e-0796-445d-a525-a55268d4e958"},"vehicle_type_id":"4","last_reported":1734016205,"current_range_meters":18000,"station_id":"ce4bhk92rcd13ifvqgc0","pricing_plan_id":"cebpf4jnsgd1na2vs0mg"},{"bike_id":"ccdf300d-ce60-4c2d-ac06-413514944f19","system_id":"levelo_inurba_marseille","lat":43.30543,"lon":5.36563,"is_reserved":false,"is_disabled":false,"rental_uris":{"android":"levelo://app?vid=ccdf300d-ce60-4c2d-ac06-413514944f19","ios":"levelo://app?vid=ccdf300d-ce60-4c2d-ac06-413514944f19"},"vehicle_type_id":"4","last_reported":1734016205,"current_range_meters":36800,"station_id":"ce4bgs12rcd13ifvqcag","pricing_plan_id":"cebpf4jnsgd1na2vs0mg"},{"bike_id":"b232edb0-7e43-4bcb-b30d-af8de1242aa7","system_id":"levelo_inurba_marseille","lat":43.29692,"lon":5.37699,"is_reserved":false,"is_disabled":false,"rental_uris":{"android":"levelo://app?vid=b232edb0-7e43-4bcb-b30d-af8de1242aa7","ios":"levelo://app?vid=b232edb0-7e43-4bcb-b30d-af8de1242aa7"},"vehicle_type_id":"4","last_reported":1734016205,"current_range_meters":8000,"station_id":"ce4bgkh2rcd13ifvqbl0","pricing_plan_id":"cebpf4jnsgd1na2vs0mg"},{"bike_id":"b637629c-ea85-469f-94f8-41cd4bf4ab16","system_id":"levelo_inurba_marseille","lat":43.30422,"lon":5.41294,"is_reserved":false,"is_disabled":false,"rental_uris":{"android":"levelo://app?vid=b637629c-ea85-469f-94f8-41cd4bf4ab16","ios":"levelo://app?vid=b637629c-ea85-469f-94f8-41cd4bf4ab16"},"vehicle_type_id":"4","last_reported":1734016205,"current_range_meters":6800,"station_id":"ce4bhop2rcd13ifvqh8g","pricing_plan_id":"cebpf4jnsgd1na2vs0mg"},{"bike_id":"870e6636-b21e-471c-863d-86dd369d4305","system_id":"levelo_inurba_marseille","lat":43.26942,"lon":5.40258,"is_reserved":false,"is_disabled":false,"rental_uris":{"android":"levelo://app?vid=870e6636-b21e-471c-863d-86dd369d4305","ios":"levelo://app?vid=870e6636-b21e-471c-863d-86dd369d4305"},"vehicle_type_id":"4","last_reported":1734016205,"current_range_meters":39200,"station_id":"cjm6bp8fraef2m0cb0m0","pricing_plan_id":"cebpf4jnsgd1na2vs0mg"},{"bike_id":"4873c46e-cb28-4a7f-a38b-62bd40ae6e70","system_id":"levelo_inurba_marseille","lat":43.27922,"lon":5.39573,"is_reserved":false,"is_disabled":true,"rental_uris":{"android":"levelo://app?vid=4873c46e-cb28-4a7f-a38b-62bd40ae6e70","ios":"levelo://app?vid=4873c46e-cb28-4a7f-a38b-62bd40ae6e70"},"vehicle_type_id":"4","last_reported":1734016205,"current_range_meters":30800,"station_id":"ce4bhf92rcd13ifvqf40","pricing_plan_id":"cebpf4jnsgd1na2vs0mg"},{"bike_id":"ad89b88b-6a1a-481c-801b-62d674877912","system_id":"levelo_inurba_marseille","lat":43.24805,"lon":5.37451,"is_reserved":false,"is_disabled":false,"rental_uris":{"android":"levelo://app?vid=ad89b88b-6a1a-481c-801b-62d674877912","ios":"levelo://app?vid=ad89b88b-6a1a-481c-801b-62d674877912"},"vehicle_type_id":"4","last_reported":1734016205,"current_range_meters":20800,"station_id":"ce4bhgh2rcd13ifvqfb0","pricing_plan_id":"cebpf4jnsgd1na2vs0mg"},{"bike_id":"e6187720-14fa-4c24-bbf0-a74c7fd46990","system_id":"levelo_inurba_marseille","lat":43.27556,"lon":5.38424,"is_reserved":false,"is_disabled":false,"rental_uris":{"android":"levelo://app?vid=e6187720-14fa-4c24-bbf0-a74c7fd46990","ios":"levelo://app?vid=e6187720-14fa-4c24-bbf0-a74c7fd46990"},"vehicle_type_id":"4","last_reported":1734016205,"current_range_meters":26800,"station_id":"ce4bhh92rcd13ifvqfi0","pricing_plan_id":"cebpf4jnsgd1na2vs0mg"},{"bike_id":"43e01d4c-1523-4020-83af-9009220e6e46","system_id":"levelo_inurba_marseille","lat":43.29259,"lon":5.3844,"is_reserved":false,"is_disabled":true,"rental_uris":{"android":"levelo://app?vid=43e01d4c-1523-4020-83af-9009220e6e46","ios":"levelo://app?vid=43e01d4c-1523-4020-83af-9009220e6e46"},"vehicle_type_id":"4","last_reported":1734016205,"current_range_meters":0,"station_id":"ce4bh692rcd13ifvqea0","pricing_plan_id":"cebpf4jnsgd1na2vs0mg"},{"bike_id":"a3bef463-7922-406f-acf0-bb6fcba9eb0e","system_id":"levelo_inurba_marseille","lat":43.30209,"lon":5.39474,"is_reserved":false,"is_disabled":false,"rental_uris":{"android":"levelo://app?vid=a3bef463-7922-406f-acf0-bb6fcba9eb0e","ios":"levelo://app?vid=a3bef463-7922-406f-acf0-bb6fcba9eb0e"},"vehicle_type_id":"4","last_reported":1734016205,"current_range_meters":36400,"station_id":"ce4bh0p2rcd13ifvqd70","pricing_plan_id":"cebpf4jnsgd1na2vs0mg"},{"bike_id":"e1c4092d-7afb-447e-904a-caf651e36ce2","system_id":"levelo_inurba_marseille","lat":43.31269,"lon":5.37412,"is_reserved":false,"is_disabled":true,"rental_uris":{"android":"levelo://app?vid=e1c4092d-7afb-447e-904a-caf651e36ce2","ios":"levelo://app?vid=e1c4092d-7afb-447e-904a-caf651e36ce2"},"vehicle_type_id":"4","last_reported":1734016205,"current_range_meters":400,"station_id":"","pricing_plan_id":"cebpf4jnsgd1na2vs0mg"},{"bike_id":"88fd6081-e8a1-4b8c-a88f-ce6e40a6b4bf","system_id":"levelo_inurba_marseille","lat":43.26809,"lon":5.40275,"is_reserved":false,"is_disabled":true,"rental_uris":{"android":"levelo://app?vid=88fd6081-e8a1-4b8c-a88f-ce6e40a6b4bf","ios":"levelo://app?vid=88fd6081-e8a1-4b8c-a88f-ce6e40a6b4bf"},"vehicle_type_id":"4","last_reported":1734016205,"current_range_meters":0,"station_id":"ce501612rcd8frsf0b60","pricing_plan_id":"cebpf4jnsgd1na2vs0mg"},{"bike_id":"0fad1fa1-4b40-42cb-873a-c0e41b1edfbd","system_id":"levelo_inurba_marseille","lat":43.262116,"lon":5.374437,"is_reserved":false,"is_disabled":false,"rental_uris":{"android":"levelo://app?vid=0fad1fa1-4b40-42cb-873a-c0e41b1edfbd","ios":"levelo://app?vid=0fad1fa1-4b40-42cb-873a-c0e41b1edfbd"},"vehicle_type_id":"4","last_reported":1734016205,"current_range_meters":18000,"station_id":"ce4bhgp2rcd13ifvqfc0","pricing_plan_id":"cebpf4jnsgd1na2vs0mg"},{"bike_id":"cb290ba2-164f-46ba-ab9f-4dc9f90ba225","system_id":"levelo_inurba_marseille","lat":43.26546,"lon":5.39025,"is_reserved":false,"is_disabled":false,"rental_uris":{"android":"levelo://app?vid=cb290ba2-164f-46ba-ab9f-4dc9f90ba225","ios":"levelo://app?vid=cb290ba2-164f-46ba-ab9f-4dc9f90ba225"},"vehicle_type_id":"4","last_reported":1734016205,"current_range_meters":9200,"station_id":"ce4bhe12rcd13ifvqf30","pricing_plan_id":"cebpf4jnsgd1na2vs0mg"},{"bike_id":"18449eca-7cd4-4637-aad8-d740a9109818","system_id":"levelo_inurba_marseille","lat":43.26798,"lon":5.40273,"is_reserved":false,"is_disabled":false,"rental_uris":{"android":"levelo://app?vid=18449eca-7cd4-4637-aad8-d740a9109818","ios":"levelo://app?vid=18449eca-7cd4-4637-aad8-d740a9109818"},"vehicle_type_id":"4","last_reported":1734016205,"current_range_meters":38800,"station_id":"ce501612rcd8frsf0b60","pricing_plan_id":"cebpf4jnsgd1na2vs0mg"},{"bike_id":"36a0f318-ffb4-458a-894f-e9900d7ffdd6","system_id":"levelo_inurba_marseille","lat":43.26556,"lon":5.37285,"is_reserved":false,"is_disabled":false,"rental_uris":{"android":"levelo://app?vid=36a0f318-ffb4-458a-894f-e9900d7ffdd6","ios":"levelo://app?vid=36a0f318-ffb4-458a-894f-e9900d7ffdd6"},"vehicle_type_id":"4","last_reported":1734016205,"current_range_meters":38800,"station_id":"ce4bhg12rcd13ifvqf70","pricing_plan_id":"cebpf4jnsgd1na2vs0mg"},{"bike_id":"71b910f6-f352-49bc-9af4-0c37e0b104d8","system_id":"levelo_inurba_marseille","lat":43.33716,"lon":5.39182,"is_reserved":false,"is_disabled":false,"rental_uris":{"android":"levelo://app?vid=71b910f6-f352-49bc-9af4-0c37e0b104d8","ios":"levelo://app?vid=71b910f6-f352-49bc-9af4-0c37e0b104d8"},"vehicle_type_id":"4","last_reported":1734016205,"current_range_meters":36800,"station_id":"ce4bhr92rcd13ifvqhsg","pricing_plan_id":"cebpf4jnsgd1na2vs0mg"},{"bike_id":"3d91e3c5-7cef-4a6b-b72c-1f72f9823e2d","system_id":"levelo_inurba_marseille","lat":43.29742,"lon":5.36147,"is_reserved":false,"is_disabled":true,"rental_uris":{"android":"levelo://app?vid=3d91e3c5-7cef-4a6b-b72c-1f72f9823e2d","ios":"levelo://app?vid=3d91e3c5-7cef-4a6b-b72c-1f72f9823e2d"},"vehicle_type_id":"4","last_reported":1734016205,"current_range_meters":1200,"station_id":"","pricing_plan_id":"cebpf4jnsgd1na2vs0mg"},{"bike_id":"1344a52c-f7c6-4cc2-abe0-2e816ae45891","system_id":"levelo_inurba_marseille","lat":43.30131,"lon":5.37414,"is_reserved":false,"is_disabled":false,"rental_uris":{"android":"levelo://app?vid=1344a52c-f7c6-4cc2-abe0-2e816ae45891","ios":"levelo://app?vid=1344a52c-f7c6-4cc2-abe0-2e816ae45891"},"vehicle_type_id":"4","last_reported":1734016205,"current_range_meters":14800,"station_id":"ce4bgs92rcd13ifvqcc0","pricing_plan_id":"cebpf4jnsgd1na2vs0mg"},{"bike_id":"828b3ca8-5877-4dd8-98c0-ea68515e229b","system_id":"levelo_inurba_marseille","lat":43.25092,"lon":5.39527,"is_reserved":false,"is_disabled":false,"rental_uris":{"android":"levelo://app?vid=828b3ca8-5877-4dd8-98c0-ea68515e229b","ios":"levelo://app?vid=828b3ca8-5877-4dd8-98c0-ea68515e229b"},"vehicle_type_id":"4","last_reported":1734016205,"current_range_meters":6000,"station_id":"ce4bhm12rcd13ifvqgkg","pricing_plan_id":"cebpf4jnsgd1na2vs0mg"},{"bike_id":"53e14b4a-061d-47e0-9d41-ff9b1a6d0a08","system_id":"levelo_inurba_marseille","lat":43.29821,"lon":5.3629,"is_reserved":false,"is_disabled":false,"rental_uris":{"android":"levelo://app?vid=53e14b4a-061d-47e0-9d41-ff9b1a6d0a08","ios":"levelo://app?vid=53e14b4a-061d-47e0-9d41-ff9b1a6d0a08"},"vehicle_type_id":"4","last_reported":1734016205,"current_range_meters":26800,"station_id":"ce4bgpp2rcd13ifvqc3g","pricing_plan_id":"cebpf4jnsgd1na2vs0mg"},{"bike_id":"3c34b185-bebc-4eb0-b376-5a9b2b4ef3ba","system_id":"levelo_inurba_marseille","lat":43.30862,"lon":5.36843,"is_reserved":false,"is_disabled":false,"rental_uris":{"android":"levelo://app?vid=3c34b185-bebc-4eb0-b376-5a9b2b4ef3ba","ios":"levelo://app?vid=3c34b185-bebc-4eb0-b376-5a9b2b4ef3ba"},"vehicle_type_id":"4","last_reported":1734016205,"current_range_meters":38000,"station_id":"","pricing_plan_id":"cebpf4jnsgd1na2vs0mg"},{"bike_id":"abf73e39-830d-480c-aa4d-d87029b519b0","system_id":"levelo_inurba_marseille","lat":43.24811,"lon":5.37448,"is_reserved":false,"is_disabled":false,"rental_uris":{"android":"levelo://app?vid=abf73e39-830d-480c-aa4d-d87029b519b0","ios":"levelo://app?vid=abf73e39-830d-480c-aa4d-d87029b519b0"},"vehicle_type_id":"4","last_reported":1734016205,"current_range_meters":38800,"station_id":"ce4bhgh2rcd13ifvqfb0","pricing_plan_id":"cebpf4jnsgd1na2vs0mg"},{"bike_id":"12573b39-e104-403f-ae5c-c6b5a11490e7","system_id":"levelo_inurba_marseille","lat":43.28915,"lon":5.3841,"is_reserved":false,"is_disabled":false,"rental_uris":{"android":"levelo://app?vid=12573b39-e104-403f-ae5c-c6b5a11490e7","ios":"levelo://app?vid=12573b39-e104-403f-ae5c-c6b5a11490e7"},"vehicle_type_id":"4","last_reported":1734016205,"current_range_meters":35600,"station_id":"ce4bh612rcd13ifvqe6g","pricing_plan_id":"cebpf4jnsgd1na2vs0mg"},{"bike_id":"55b90ab8-ad6e-4330-b578-7b6440304b5c","system_id":"levelo_inurba_marseille","lat":43.26211,"lon":5.37446,"is_reserved":false,"is_disabled":false,"rental_uris":{"android":"levelo://app?vid=55b90ab8-ad6e-4330-b578-7b6440304b5c","ios":"levelo://app?vid=55b90ab8-ad6e-4330-b578-7b6440304b5c"},"vehicle_type_id":"4","last_reported":1734016205,"current_range_meters":38800,"station_id":"ce4bhgp2rcd13ifvqfc0","pricing_plan_id":"cebpf4jnsgd1na2vs0mg"},{"bike_id":"5713cdfe-6cfc-45fb-8129-00aa87471564","system_id":"levelo_inurba_marseille","lat":43.32485,"lon":5.36609,"is_reserved":false,"is_disabled":false,"rental_uris":{"android":"levelo://app?vid=5713cdfe-6cfc-45fb-8129-00aa87471564","ios":"levelo://app?vid=5713cdfe-6cfc-45fb-8129-00aa87471564"},"vehicle_type_id":"4","last_reported":1734016205,"current_range_meters":8000,"station_id":"ce4bhs12rcd13ifvqhvg","pricing_plan_id":"cebpf4jnsgd1na2vs0mg"},{"bike_id":"5e0528c5-b2a9-4098-9b26-b74ba14e976c","system_id":"levelo_inurba_marseille","lat":43.29962,"lon":5.41319,"is_reserved":false,"is_disabled":false,"rental_uris":{"android":"levelo://app?vid=5e0528c5-b2a9-4098-9b26-b74ba14e976c","ios":"levelo://app?vid=5e0528c5-b2a9-4098-9b26-b74ba14e976c"},"vehicle_type_id":"4","last_reported":1734016205,"current_range_meters":10800,"station_id":"ce4bhp12rcd13ifvqh9g","pricing_plan_id":"cebpf4jnsgd1na2vs0mg"},{"bike_id":"fcea60ef-5fcb-4c66-ba5c-346d7dafd09d","system_id":"levelo_inurba_marseille","lat":43.25575,"lon":5.38235,"is_reserved":false,"is_disabled":false,"rental_uris":{"android":"levelo://app?vid=fcea60ef-5fcb-4c66-ba5c-346d7dafd09d","ios":"levelo://app?vid=fcea60ef-5fcb-4c66-ba5c-346d7dafd09d"},"vehicle_type_id":"4","last_reported":1734016205,"current_range_meters":17200,"station_id":"ce4bhih2rcd13ifvqfs0","pricing_plan_id":"cebpf4jnsgd1na2vs0mg"},{"bike_id":"85fc7ebc-e1ee-4e0e-81f6-502ecea0cb12","system_id":"levelo_inurba_marseille","lat":43.32995,"lon":5.39054,"is_reserved":false,"is_disabled":false,"rental_uris":{"android":"levelo://app?vid=85fc7ebc-e1ee-4e0e-81f6-502ecea0cb12","ios":"levelo://app?vid=85fc7ebc-e1ee-4e0e-81f6-502ecea0cb12"},"vehicle_type_id":"4","last_reported":1734016205,"current_range_meters":39200,"station_id":"ce4bhr92rcd13ifvqhrg","pricing_plan_id":"cebpf4jnsgd1na2vs0mg"},{"bike_id":"e966d2c7-c9e1-4cb1-9a39-6325607b0be4","system_id":"levelo_inurba_marseille","lat":43.337444,"lon":5.374475,"is_reserved":false,"is_disabled":true,"rental_uris":{"android":"levelo://app?vid=e966d2c7-c9e1-4cb1-9a39-6325607b0be4","ios":"levelo://app?vid=e966d2c7-c9e1-4cb1-9a39-6325607b0be4"},"vehicle_type_id":"4","last_reported":1734016205,"current_range_meters":0,"station_id":"","pricing_plan_id":"cebpf4jnsgd1na2vs0mg"},{"bike_id":"28c060d5-4641-42c8-93ce-0f524a2f307a","system_id":"levelo_inurba_marseille","lat":43.29929,"lon":5.36546,"is_reserved":false,"is_disabled":false,"rental_uris":{"android":"levelo://app?vid=28c060d5-4641-42c8-93ce-0f524a2f307a","ios":"levelo://app?vid=28c060d5-4641-42c8-93ce-0f524a2f307a"},"vehicle_type_id":"4","last_reported":1734016205,"current_range_meters":22400,"station_id":"ce4bgm92rcd13ifvqbr0","pricing_plan_id":"cebpf4jnsgd1na2vs0mg"},{"bike_id":"08f6dfd2-5a55-4565-9eb0-3f7235020a27","system_id":"levelo_inurba_marseille","lat":43.245471,"lon":5.395387,"is_reserved":false,"is_disabled":false,"rental_uris":{"android":"levelo://app?vid=08f6dfd2-5a55-4565-9eb0-3f7235020a27","ios":"levelo://app?vid=08f6dfd2-5a55-4565-9eb0-3f7235020a27"},"vehicle_type_id":"4","last_reported":1734016205,"current_range_meters":26800,"station_id":"ce4bhlp2rcd13ifvqgjg","pricing_plan_id":"cebpf4jnsgd1na2vs0mg"},{"bike_id":"6bc7401a-ad66-4e4d-bfd6-a954bc5b40c0","system_id":"levelo_inurba_marseille","lat":43.337527,"lon":5.37441,"is_reserved":false,"is_disabled":false,"rental_uris":{"android":"levelo://app?vid=6bc7401a-ad66-4e4d-bfd6-a954bc5b40c0","ios":"levelo://app?vid=6bc7401a-ad66-4e4d-bfd6-a954bc5b40c0"},"vehicle_type_id":"4","last_reported":1734016205,"current_range_meters":34000,"station_id":"","pricing_plan_id":"cebpf4jnsgd1na2vs0mg"},{"bike_id":"7a0c7b41-8e30-4863-aec8-72b38eb82b71","system_id":"levelo_inurba_marseille","lat":43.28846,"lon":5.35867,"is_reserved":false,"is_disabled":false,"rental_uris":{"android":"levelo://app?vid=7a0c7b41-8e30-4863-aec8-72b38eb82b71","ios":"levelo://app?vid=7a0c7b41-8e30-4863-aec8-72b38eb82b71"},"vehicle_type_id":"4","last_reported":1734016205,"current_range_meters":35600,"station_id":"ce4bhb12rcd13ifvqem0","pricing_plan_id":"cebpf4jnsgd1na2vs0mg"},{"bike_id":"f0a4f587-2333-4a7a-8819-09121e495e1b","system_id":"levelo_inurba_marseille","lat":43.2292,"lon":5.35373,"is_reserved":false,"is_disabled":false,"rental_uris":{"android":"levelo://app?vid=f0a4f587-2333-4a7a-8819-09121e495e1b","ios":"levelo://app?vid=f0a4f587-2333-4a7a-8819-09121e495e1b"},"vehicle_type_id":"4","last_reported":1734016205,"current_range_meters":8400,"station_id":"cpo3532slgdg3j2ikp40","pricing_plan_id":"cebpf4jnsgd1na2vs0mg"},{"bike_id":"72b9f679-11cd-4090-a28b-e16a16551a9e","system_id":"levelo_inurba_marseille","lat":43.2861,"lon":5.37067,"is_reserved":false,"is_disabled":false,"rental_uris":{"android":"levelo://app?vid=72b9f679-11cd-4090-a28b-e16a16551a9e","ios":"levelo://app?vid=72b9f679-11cd-4090-a28b-e16a16551a9e"},"vehicle_type_id":"4","last_reported":1734016205,"current_range_meters":13600,"station_id":"ce4bht12rcd13ifvqi60","pricing_plan_id":"cebpf4jnsgd1na2vs0mg"},{"bike_id":"6627a6b0-b54a-493f-b59c-b268f0686379","system_id":"levelo_inurba_marseille","lat":43.29908,"lon":5.38148,"is_reserved":false,"is_disabled":false,"rental_uris":{"android":"levelo://app?vid=6627a6b0-b54a-493f-b59c-b268f0686379","ios":"levelo://app?vid=6627a6b0-b54a-493f-b59c-b268f0686379"},"vehicle_type_id":"4","last_reported":1734016205,"current_range_meters":28800,"station_id":"ce4bgj12rcd13ifvqbc0","pricing_plan_id":"cebpf4jnsgd1na2vs0mg"},{"bike_id":"c0ac8c32-1e35-489c-9ada-c98ba4d09509","system_id":"levelo_inurba_marseille","lat":43.27306,"lon":5.39116,"is_reserved":false,"is_disabled":false,"rental_uris":{"android":"levelo://app?vid=c0ac8c32-1e35-489c-9ada-c98ba4d09509","ios":"levelo://app?vid=c0ac8c32-1e35-489c-9ada-c98ba4d09509"},"vehicle_type_id":"4","last_reported":1734016205,"current_range_meters":38800,"station_id":"ce4bhgp2rcd13ifvqfe0","pricing_plan_id":"cebpf4jnsgd1na2vs0mg"},{"bike_id":"e2b090ff-7c7f-4d4a-8f5b-c317e750043e","system_id":"levelo_inurba_marseille","lat":43.27066,"lon":5.42274,"is_reserved":false,"is_disabled":true,"rental_uris":{"android":"levelo://app?vid=e2b090ff-7c7f-4d4a-8f5b-c317e750043e","ios":"levelo://app?vid=e2b090ff-7c7f-4d4a-8f5b-c317e750043e"},"vehicle_type_id":"4","last_reported":1734016205,"current_range_meters":0,"station_id":"ce4bhk92rcd13ifvqgb0","pricing_plan_id":"cebpf4jnsgd1na2vs0mg"},{"bike_id":"1802c294-deb8-4890-b7ca-3e995fd26543","system_id":"levelo_inurba_marseille","lat":43.27063,"lon":5.42269,"is_reserved":false,"is_disabled":false,"rental_uris":{"android":"levelo://app?vid=1802c294-deb8-4890-b7ca-3e995fd26543","ios":"levelo://app?vid=1802c294-deb8-4890-b7ca-3e995fd26543"},"vehicle_type_id":"4","last_reported":1734016205,"current_range_meters":31200,"station_id":"ce4bhk92rcd13ifvqgb0","pricing_plan_id":"cebpf4jnsgd1na2vs0mg"},{"bike_id":"fc27be0d-d334-496f-b0a9-39770c866018","system_id":"levelo_inurba_marseille","lat":43.26782,"lon":5.39416,"is_reserved":false,"is_disabled":false,"rental_uris":{"android":"levelo://app?vid=fc27be0d-d334-496f-b0a9-39770c866018","ios":"levelo://app?vid=fc27be0d-d334-496f-b0a9-39770c866018"},"vehicle_type_id":"4","last_reported":1734016205,"current_range_meters":18800,"station_id":"ce4bhh12rcd13ifvqfg0","pricing_plan_id":"cebpf4jnsgd1na2vs0mg"},{"bike_id":"321e42a7-76fc-4376-b036-ac5cbbf1ff37","system_id":"levelo_inurba_marseille","lat":43.27214,"lon":5.39181,"is_reserved":false,"is_disabled":false,"rental_uris":{"android":"levelo://app?vid=321e42a7-76fc-4376-b036-ac5cbbf1ff37","ios":"levelo://app?vid=321e42a7-76fc-4376-b036-ac5cbbf1ff37"},"vehicle_type_id":"4","last_reported":1734016205,"current_range_meters":9200,"station_id":"ce4bhhp2rcd13ifvqfm0","pricing_plan_id":"cebpf4jnsgd1na2vs0mg"},{"bike_id":"ce15b1c5-c620-468b-993e-e2cd83e3eea6","system_id":"levelo_inurba_marseille","lat":43.28419,"lon":5.34982,"is_reserved":false,"is_disabled":false,"rental_uris":{"android":"levelo://app?vid=ce15b1c5-c620-468b-993e-e2cd83e3eea6","ios":"levelo://app?vid=ce15b1c5-c620-468b-993e-e2cd83e3eea6"},"vehicle_type_id":"4","last_reported":1734016205,"current_range_meters":11200,"station_id":"ce4bhbh2rcd13ifvqepg","pricing_plan_id":"cebpf4jnsgd1na2vs0mg"},{"bike_id":"468c58c5-5827-4bfd-bc9e-6c81460e547c","system_id":"levelo_inurba_marseille","lat":43.28952,"lon":5.36408,"is_reserved":false,"is_disabled":false,"rental_uris":{"android":"levelo://app?vid=468c58c5-5827-4bfd-bc9e-6c81460e547c","ios":"levelo://app?vid=468c58c5-5827-4bfd-bc9e-6c81460e547c"},"vehicle_type_id":"4","last_reported":1734016205,"current_range_meters":26800,"station_id":"ce4bhc92rcd13ifvqetg","pricing_plan_id":"cebpf4jnsgd1na2vs0mg"},{"bike_id":"8bce4d14-97e1-4732-8b97-92aecbbe2473","system_id":"levelo_inurba_marseille","lat":43.24057,"lon":5.37713,"is_reserved":false,"is_disabled":false,"rental_uris":{"android":"levelo://app?vid=8bce4d14-97e1-4732-8b97-92aecbbe2473","ios":"levelo://app?vid=8bce4d14-97e1-4732-8b97-92aecbbe2473"},"vehicle_type_id":"4","last_reported":1734016205,"current_range_meters":5600,"station_id":"ce4bhnp2rcd13ifvqgvg","pricing_plan_id":"cebpf4jnsgd1na2vs0mg"},{"bike_id":"886c6ddd-f2db-4f1d-a04c-6128017a69e9","system_id":"levelo_inurba_marseille","lat":43.27823,"lon":5.39207,"is_reserved":false,"is_disabled":false,"rental_uris":{"android":"levelo://app?vid=886c6ddd-f2db-4f1d-a04c-6128017a69e9","ios":"levelo://app?vid=886c6ddd-f2db-4f1d-a04c-6128017a69e9"},"vehicle_type_id":"4","last_reported":1734016205,"current_range_meters":34800,"station_id":"ce4bhjp2rcd13ifvqga0","pricing_plan_id":"cebpf4jnsgd1na2vs0mg"},{"bike_id":"097a41bf-6635-41a6-b7a7-1173cae29ada","system_id":"levelo_inurba_marseille","lat":43.22931,"lon":5.35375,"is_reserved":false,"is_disabled":false,"rental_uris":{"android":"levelo://app?vid=097a41bf-6635-41a6-b7a7-1173cae29ada","ios":"levelo://app?vid=097a41bf-6635-41a6-b7a7-1173cae29ada"},"vehicle_type_id":"4","last_reported":1734016205,"current_range_meters":38800,"station_id":"cpo3532slgdg3j2ikp40","pricing_plan_id":"cebpf4jnsgd1na2vs0mg"},{"bike_id":"4d5881bc-1b66-4424-9cca-37b7d62f3c7f","system_id":"levelo_inurba_marseille","lat":43.29933,"lon":5.38487,"is_reserved":false,"is_disabled":false,"rental_uris":{"android":"levelo://app?vid=4d5881bc-1b66-4424-9cca-37b7d62f3c7f","ios":"levelo://app?vid=4d5881bc-1b66-4424-9cca-37b7d62f3c7f"},"vehicle_type_id":"4","last_reported":1734016205,"current_range_meters":38000,"station_id":"ce4bgj92rcd13ifvqbd0","pricing_plan_id":"cebpf4jnsgd1na2vs0mg"},{"bike_id":"f1079e56-5ff6-4659-8eb4-c6d46f073646","system_id":"levelo_inurba_marseille","lat":43.28273,"lon":5.35072,"is_reserved":false,"is_disabled":false,"rental_uris":{"android":"levelo://app?vid=f1079e56-5ff6-4659-8eb4-c6d46f073646","ios":"levelo://app?vid=f1079e56-5ff6-4659-8eb4-c6d46f073646"},"vehicle_type_id":"4","last_reported":1734016205,"current_range_meters":4400,"station_id":"ce4bhbp2rcd13ifvqerg","pricing_plan_id":"cebpf4jnsgd1na2vs0mg"},{"bike_id":"73c649f1-573c-4ef2-b7fd-0a6363ea8204","system_id":"levelo_inurba_marseille","lat":43.25083,"lon":5.39515,"is_reserved":false,"is_disabled":false,"rental_uris":{"android":"levelo://app?vid=73c649f1-573c-4ef2-b7fd-0a6363ea8204","ios":"levelo://app?vid=73c649f1-573c-4ef2-b7fd-0a6363ea8204"},"vehicle_type_id":"4","last_reported":1734016205,"current_range_meters":21600,"station_id":"ce4bhm12rcd13ifvqgkg","pricing_plan_id":"cebpf4jnsgd1na2vs0mg"},{"bike_id":"81eec379-75bf-44af-8d2f-71c820881d81","system_id":"levelo_inurba_marseille","lat":43.30963,"lon":5.39058,"is_reserved":false,"is_disabled":false,"rental_uris":{"android":"levelo://app?vid=81eec379-75bf-44af-8d2f-71c820881d81","ios":"levelo://app?vid=81eec379-75bf-44af-8d2f-71c820881d81"},"vehicle_type_id":"4","last_reported":1734016205,"current_range_meters":7200,"station_id":"ce4bgup2rcd13ifvqco0","pricing_plan_id":"cebpf4jnsgd1na2vs0mg"},{"bike_id":"ed505735-6c91-4c82-a0ba-ed71c37d3bae","system_id":"levelo_inurba_marseille","lat":43.29977,"lon":5.37174,"is_reserved":false,"is_disabled":false,"rental_uris":{"android":"levelo://app?vid=ed505735-6c91-4c82-a0ba-ed71c37d3bae","ios":"levelo://app?vid=ed505735-6c91-4c82-a0ba-ed71c37d3bae"},"vehicle_type_id":"4","last_reported":1734016205,"current_range_meters":38800,"station_id":"ce4bgr92rcd13ifvqc7g","pricing_plan_id":"cebpf4jnsgd1na2vs0mg"},{"bike_id":"784a293f-2e5e-42aa-869d-5c6f2d45c286","system_id":"levelo_inurba_marseille","lat":43.28851,"lon":5.3937,"is_reserved":false,"is_disabled":false,"rental_uris":{"android":"levelo://app?vid=784a293f-2e5e-42aa-869d-5c6f2d45c286","ios":"levelo://app?vid=784a293f-2e5e-42aa-869d-5c6f2d45c286"},"vehicle_type_id":"4","last_reported":1734016205,"current_range_meters":28800,"station_id":"ce4bh2p2rcd13ifvqdi0","pricing_plan_id":"cebpf4jnsgd1na2vs0mg"},{"bike_id":"dbf212a4-5c61-42a2-9fb0-64e326737fba","system_id":"levelo_inurba_marseille","lat":43.25576,"lon":5.38226,"is_reserved":false,"is_disabled":false,"rental_uris":{"android":"levelo://app?vid=dbf212a4-5c61-42a2-9fb0-64e326737fba","ios":"levelo://app?vid=dbf212a4-5c61-42a2-9fb0-64e326737fba"},"vehicle_type_id":"4","last_reported":1734016205,"current_range_meters":33600,"station_id":"ce4bhih2rcd13ifvqfs0","pricing_plan_id":"cebpf4jnsgd1na2vs0mg"},{"bike_id":"a752ac89-ee2b-4a27-a5e3-0a121e94d42b","system_id":"levelo_inurba_marseille","lat":43.2866,"lon":5.36353,"is_reserved":false,"is_disabled":false,"rental_uris":{"android":"levelo://app?vid=a752ac89-ee2b-4a27-a5e3-0a121e94d42b","ios":"levelo://app?vid=a752ac89-ee2b-4a27-a5e3-0a121e94d42b"},"vehicle_type_id":"4","last_reported":1734016205,"current_range_meters":38000,"station_id":"ce4bhah2rcd13ifvqej0","pricing_plan_id":"cebpf4jnsgd1na2vs0mg"},{"bike_id":"477804f5-d8f7-435e-9d3a-9ce31793b638","system_id":"levelo_inurba_marseille","lat":43.25579,"lon":5.38246,"is_reserved":false,"is_disabled":false,"rental_uris":{"android":"levelo://app?vid=477804f5-d8f7-435e-9d3a-9ce31793b638","ios":"levelo://app?vid=477804f5-d8f7-435e-9d3a-9ce31793b638"},"vehicle_type_id":"4","last_reported":1734016205,"current_range_meters":16400,"station_id":"ce4bhih2rcd13ifvqfs0","pricing_plan_id":"cebpf4jnsgd1na2vs0mg"},{"bike_id":"77bf6216-ce86-437f-9485-369650d4a2a9","system_id":"levelo_inurba_marseille","lat":43.30107,"lon":5.39086,"is_reserved":false,"is_disabled":false,"rental_uris":{"android":"levelo://app?vid=77bf6216-ce86-437f-9485-369650d4a2a9","ios":"levelo://app?vid=77bf6216-ce86-437f-9485-369650d4a2a9"},"vehicle_type_id":"4","last_reported":1734016205,"current_range_meters":37600,"station_id":"ce4bh192rcd13ifvqdb0","pricing_plan_id":"cebpf4jnsgd1na2vs0mg"},{"bike_id":"af77a2c4-4f01-4eac-8bd5-698508bacd7c","system_id":"levelo_inurba_marseille","lat":43.27181,"lon":5.41001,"is_reserved":false,"is_disabled":false,"rental_uris":{"android":"levelo://app?vid=af77a2c4-4f01-4eac-8bd5-698508bacd7c","ios":"levelo://app?vid=af77a2c4-4f01-4eac-8bd5-698508bacd7c"},"vehicle_type_id":"4","last_reported":1734016205,"current_range_meters":18000,"station_id":"ce4bhl12rcd13ifvqgf0","pricing_plan_id":"cebpf4jnsgd1na2vs0mg"},{"bike_id":"00166f48-a7fb-41db-975d-4510d6e81fa7","system_id":"levelo_inurba_marseille","lat":43.27662,"lon":5.38914,"is_reserved":false,"is_disabled":false,"rental_uris":{"android":"levelo://app?vid=00166f48-a7fb-41db-975d-4510d6e81fa7","ios":"levelo://app?vid=00166f48-a7fb-41db-975d-4510d6e81fa7"},"vehicle_type_id":"4","last_reported":1734016205,"current_range_meters":38400,"station_id":"ce4bhi12rcd13ifvqfo0","pricing_plan_id":"cebpf4jnsgd1na2vs0mg"},{"bike_id":"47a9af4c-2512-4d89-9360-dec45b2618dd","system_id":"levelo_inurba_marseille","lat":43.27314,"lon":5.39087,"is_reserved":false,"is_disabled":false,"rental_uris":{"android":"levelo://app?vid=47a9af4c-2512-4d89-9360-dec45b2618dd","ios":"levelo://app?vid=47a9af4c-2512-4d89-9360-dec45b2618dd"},"vehicle_type_id":"4","last_reported":1734016205,"current_range_meters":38800,"station_id":"ce4bhgp2rcd13ifvqfe0","pricing_plan_id":"cebpf4jnsgd1na2vs0mg"},{"bike_id":"42f97b2b-e887-443f-80bd-7de6dc66a12e","system_id":"levelo_inurba_marseille","lat":43.290952,"lon":5.381125,"is_reserved":false,"is_disabled":false,"rental_uris":{"android":"levelo://app?vid=42f97b2b-e887-443f-80bd-7de6dc66a12e","ios":"levelo://app?vid=42f97b2b-e887-443f-80bd-7de6dc66a12e"},"vehicle_type_id":"4","last_reported":1734016205,"current_range_meters":23200,"station_id":"ce4bh512rcd13ifvqe2g","pricing_plan_id":"cebpf4jnsgd1na2vs0mg"},{"bike_id":"33fe738d-075a-40fd-ac04-45ebdab870ee","system_id":"levelo_inurba_marseille","lat":43.30869,"lon":5.39645,"is_reserved":false,"is_disabled":false,"rental_uris":{"android":"levelo://app?vid=33fe738d-075a-40fd-ac04-45ebdab870ee","ios":"levelo://app?vid=33fe738d-075a-40fd-ac04-45ebdab870ee"},"vehicle_type_id":"4","last_reported":1734016205,"current_range_meters":38800,"station_id":"ce4bh012rcd13ifvqcv0","pricing_plan_id":"cebpf4jnsgd1na2vs0mg"},{"bike_id":"36aafc34-8146-43a0-a38b-a54250609eee","system_id":"levelo_inurba_marseille","lat":43.31765,"lon":5.39005,"is_reserved":false,"is_disabled":false,"rental_uris":{"android":"levelo://app?vid=36aafc34-8146-43a0-a38b-a54250609eee","ios":"levelo://app?vid=36aafc34-8146-43a0-a38b-a54250609eee"},"vehicle_type_id":"4","last_reported":1734016205,"current_range_meters":29600,"station_id":"ce4bhqp2rcd13ifvqhng","pricing_plan_id":"cebpf4jnsgd1na2vs0mg"},{"bike_id":"3dad1ce6-57e2-41f9-b114-876fdbb15ace","system_id":"levelo_inurba_marseille","lat":43.29791,"lon":5.38103,"is_reserved":false,"is_disabled":true,"rental_uris":{"android":"levelo://app?vid=3dad1ce6-57e2-41f9-b114-876fdbb15ace","ios":"levelo://app?vid=3dad1ce6-57e2-41f9-b114-876fdbb15ace"},"vehicle_type_id":"4","last_reported":1734016205,"current_range_meters":1600,"station_id":"ce4bgip2rcd13ifvqbb0","pricing_plan_id":"cebpf4jnsgd1na2vs0mg"},{"bike_id":"a66c4b95-337e-4b9a-950c-e8c8d8e7a3a1","system_id":"levelo_inurba_marseille","lat":43.324799,"lon":5.365716,"is_reserved":false,"is_disabled":true,"rental_uris":{"android":"levelo://app?vid=a66c4b95-337e-4b9a-950c-e8c8d8e7a3a1","ios":"levelo://app?vid=a66c4b95-337e-4b9a-950c-e8c8d8e7a3a1"},"vehicle_type_id":"4","last_reported":1734016205,"current_range_meters":0,"station_id":"","pricing_plan_id":"cebpf4jnsgd1na2vs0mg"},{"bike_id":"6842f8a7-cf79-4732-b7fa-972aa05d9ad0","system_id":"levelo_inurba_marseille","lat":43.30317,"lon":5.36888,"is_reserved":false,"is_disabled":false,"rental_uris":{"android":"levelo://app?vid=6842f8a7-cf79-4732-b7fa-972aa05d9ad0","ios":"levelo://app?vid=6842f8a7-cf79-4732-b7fa-972aa05d9ad0"},"vehicle_type_id":"4","last_reported":1734016205,"current_range_meters":39200,"station_id":"ce4bgqh2rcd13ifvqc5g","pricing_plan_id":"cebpf4jnsgd1na2vs0mg"},{"bike_id":"3aa675bf-e140-4eb0-a03c-90dc1dbcecc3","system_id":"levelo_inurba_marseille","lat":43.31324,"lon":5.39691,"is_reserved":false,"is_disabled":false,"rental_uris":{"android":"levelo://app?vid=3aa675bf-e140-4eb0-a03c-90dc1dbcecc3","ios":"levelo://app?vid=3aa675bf-e140-4eb0-a03c-90dc1dbcecc3"},"vehicle_type_id":"4","last_reported":1734016205,"current_range_meters":39200,"station_id":"ce4bgvp2rcd13ifvqcu0","pricing_plan_id":"cebpf4jnsgd1na2vs0mg"},{"bike_id":"cbd182fe-9b43-44af-bd61-dada126d4d29","system_id":"levelo_inurba_marseille","lat":43.24805,"lon":5.37454,"is_reserved":false,"is_disabled":false,"rental_uris":{"android":"levelo://app?vid=cbd182fe-9b43-44af-bd61-dada126d4d29","ios":"levelo://app?vid=cbd182fe-9b43-44af-bd61-dada126d4d29"},"vehicle_type_id":"4","last_reported":1734016205,"current_range_meters":38800,"station_id":"ce4bhgh2rcd13ifvqfb0","pricing_plan_id":"cebpf4jnsgd1na2vs0mg"},{"bike_id":"ca27f90d-04a5-455e-bfff-ce4a3e392a8b","system_id":"levelo_inurba_marseille","lat":43.30416,"lon":5.36796,"is_reserved":false,"is_disabled":false,"rental_uris":{"android":"levelo://app?vid=ca27f90d-04a5-455e-bfff-ce4a3e392a8b","ios":"levelo://app?vid=ca27f90d-04a5-455e-bfff-ce4a3e392a8b"},"vehicle_type_id":"4","last_reported":1734016205,"current_range_meters":36800,"station_id":"","pricing_plan_id":"cebpf4jnsgd1na2vs0mg"},{"bike_id":"413f0194-fdad-4f08-8e39-d30546d16c89","system_id":"levelo_inurba_marseille","lat":43.29035,"lon":5.3815,"is_reserved":false,"is_disabled":false,"rental_uris":{"android":"levelo://app?vid=413f0194-fdad-4f08-8e39-d30546d16c89","ios":"levelo://app?vid=413f0194-fdad-4f08-8e39-d30546d16c89"},"vehicle_type_id":"4","last_reported":1734016205,"current_range_meters":36800,"station_id":"ce4bh4p2rcd13ifvqe1g","pricing_plan_id":"cebpf4jnsgd1na2vs0mg"},{"bike_id":"1e09aea1-6592-4606-838e-01c5295332d1","system_id":"levelo_inurba_marseille","lat":43.32662,"lon":5.40984,"is_reserved":false,"is_disabled":true,"rental_uris":{"android":"levelo://app?vid=1e09aea1-6592-4606-838e-01c5295332d1","ios":"levelo://app?vid=1e09aea1-6592-4606-838e-01c5295332d1"},"vehicle_type_id":"4","last_reported":1734016205,"current_range_meters":36000,"station_id":"ce4bhpp2rcd13ifvqhgg","pricing_plan_id":"cebpf4jnsgd1na2vs0mg"},{"bike_id":"cc66f151-2460-4bd1-9c55-81df03cdad0d","system_id":"levelo_inurba_marseille","lat":43.30513,"lon":5.36887,"is_reserved":false,"is_disabled":true,"rental_uris":{"android":"levelo://app?vid=cc66f151-2460-4bd1-9c55-81df03cdad0d","ios":"levelo://app?vid=cc66f151-2460-4bd1-9c55-81df03cdad0d"},"vehicle_type_id":"4","last_reported":1734016205,"current_range_meters":1200,"station_id":"","pricing_plan_id":"cebpf4jnsgd1na2vs0mg"},{"bike_id":"fe5fa85c-2ea3-49ac-af1a-e80468897c6d","system_id":"levelo_inurba_marseille","lat":43.26069,"lon":5.39409,"is_reserved":false,"is_disabled":false,"rental_uris":{"android":"levelo://app?vid=fe5fa85c-2ea3-49ac-af1a-e80468897c6d","ios":"levelo://app?vid=fe5fa85c-2ea3-49ac-af1a-e80468897c6d"},"vehicle_type_id":"4","last_reported":1734016205,"current_range_meters":38800,"station_id":"ce4bhh92rcd13ifvqfj0","pricing_plan_id":"cebpf4jnsgd1na2vs0mg"},{"bike_id":"d3148480-0118-4460-90b5-07f095843da8","system_id":"levelo_inurba_marseille","lat":43.24654,"lon":5.38165,"is_reserved":false,"is_disabled":false,"rental_uris":{"android":"levelo://app?vid=d3148480-0118-4460-90b5-07f095843da8","ios":"levelo://app?vid=d3148480-0118-4460-90b5-07f095843da8"},"vehicle_type_id":"4","last_reported":1734016205,"current_range_meters":39200,"station_id":"ce4bhih2rcd13ifvqfr0","pricing_plan_id":"cebpf4jnsgd1na2vs0mg"},{"bike_id":"9a419732-7fbf-4e47-920c-025073396f19","system_id":"levelo_inurba_marseille","lat":43.27433,"lon":5.39411,"is_reserved":false,"is_disabled":false,"rental_uris":{"android":"levelo://app?vid=9a419732-7fbf-4e47-920c-025073396f19","ios":"levelo://app?vid=9a419732-7fbf-4e47-920c-025073396f19"},"vehicle_type_id":"4","last_reported":1734016205,"current_range_meters":38000,"station_id":"ce4bhdp2rcd13ifvqf20","pricing_plan_id":"cebpf4jnsgd1na2vs0mg"},{"bike_id":"37a52849-c0e1-48b4-8940-e569590ca71d","system_id":"levelo_inurba_marseille","lat":43.24071,"lon":5.37753,"is_reserved":false,"is_disabled":false,"rental_uris":{"android":"levelo://app?vid=37a52849-c0e1-48b4-8940-e569590ca71d","ios":"levelo://app?vid=37a52849-c0e1-48b4-8940-e569590ca71d"},"vehicle_type_id":"4","last_reported":1734016205,"current_range_meters":14000,"station_id":"ce4bhnp2rcd13ifvqgvg","pricing_plan_id":"cebpf4jnsgd1na2vs0mg"},{"bike_id":"3b5a2490-91a8-4930-bdb7-53407ec2f1ac","system_id":"levelo_inurba_marseille","lat":43.33751,"lon":5.37438,"is_reserved":false,"is_disabled":false,"rental_uris":{"android":"levelo://app?vid=3b5a2490-91a8-4930-bdb7-53407ec2f1ac","ios":"levelo://app?vid=3b5a2490-91a8-4930-bdb7-53407ec2f1ac"},"vehicle_type_id":"4","last_reported":1734016205,"current_range_meters":38400,"station_id":"","pricing_plan_id":"cebpf4jnsgd1na2vs0mg"},{"bike_id":"c7d60411-682a-4c3d-8aea-0c0b8fc638f1","system_id":"levelo_inurba_marseille","lat":43.32467,"lon":5.36569,"is_reserved":false,"is_disabled":false,"rental_uris":{"android":"levelo://app?vid=c7d60411-682a-4c3d-8aea-0c0b8fc638f1","ios":"levelo://app?vid=c7d60411-682a-4c3d-8aea-0c0b8fc638f1"},"vehicle_type_id":"4","last_reported":1734016205,"current_range_meters":8400,"station_id":"ce4bhs12rcd13ifvqhvg","pricing_plan_id":"cebpf4jnsgd1na2vs0mg"},{"bike_id":"14d70d04-fbf2-4d5d-b9d3-4d381d8aa643","system_id":"levelo_inurba_marseille","lat":43.2396,"lon":5.36618,"is_reserved":false,"is_disabled":false,"rental_uris":{"android":"levelo://app?vid=14d70d04-fbf2-4d5d-b9d3-4d381d8aa643","ios":"levelo://app?vid=14d70d04-fbf2-4d5d-b9d3-4d381d8aa643"},"vehicle_type_id":"4","last_reported":1734016205,"current_range_meters":16800,"station_id":"ce4bhi12rcd13ifvqfp0","pricing_plan_id":"cebpf4jnsgd1na2vs0mg"},{"bike_id":"797ab029-48a7-413b-96da-25691c662e7b","system_id":"levelo_inurba_marseille","lat":43.30608,"lon":5.39359,"is_reserved":false,"is_disabled":true,"rental_uris":{"android":"levelo://app?vid=797ab029-48a7-413b-96da-25691c662e7b","ios":"levelo://app?vid=797ab029-48a7-413b-96da-25691c662e7b"},"vehicle_type_id":"4","last_reported":1734016205,"current_range_meters":16800,"station_id":"ce4bh0p2rcd13ifvqd80","pricing_plan_id":"cebpf4jnsgd1na2vs0mg"},{"bike_id":"e20ea645-1359-425e-9c1f-65ca808a8e39","system_id":"levelo_inurba_marseille","lat":43.2951,"lon":5.39033,"is_reserved":false,"is_disabled":false,"rental_uris":{"android":"levelo://app?vid=e20ea645-1359-425e-9c1f-65ca808a8e39","ios":"levelo://app?vid=e20ea645-1359-425e-9c1f-65ca808a8e39"},"vehicle_type_id":"4","last_reported":1734016205,"current_range_meters":31200,"station_id":"ce4bh3p2rcd13ifvqdp0","pricing_plan_id":"cebpf4jnsgd1na2vs0mg"},{"bike_id":"bbd8fa05-a068-4ba3-9ee1-d409945460ae","system_id":"levelo_inurba_marseille","lat":43.31749,"lon":5.39013,"is_reserved":false,"is_disabled":false,"rental_uris":{"android":"levelo://app?vid=bbd8fa05-a068-4ba3-9ee1-d409945460ae","ios":"levelo://app?vid=bbd8fa05-a068-4ba3-9ee1-d409945460ae"},"vehicle_type_id":"4","last_reported":1734016205,"current_range_meters":39200,"station_id":"ce4bhqp2rcd13ifvqhng","pricing_plan_id":"cebpf4jnsgd1na2vs0mg"},{"bike_id":"a8942e43-f3d6-46fd-8576-2cc6b2787f3e","system_id":"levelo_inurba_marseille","lat":43.33,"lon":5.39051,"is_reserved":false,"is_disabled":false,"rental_uris":{"android":"levelo://app?vid=a8942e43-f3d6-46fd-8576-2cc6b2787f3e","ios":"levelo://app?vid=a8942e43-f3d6-46fd-8576-2cc6b2787f3e"},"vehicle_type_id":"4","last_reported":1734016205,"current_range_meters":24400,"station_id":"ce4bhr92rcd13ifvqhrg","pricing_plan_id":"cebpf4jnsgd1na2vs0mg"},{"bike_id":"9a51b2d0-c725-4bb3-9dd2-d7c11f6a28cd","system_id":"levelo_inurba_marseille","lat":43.29797,"lon":5.37108,"is_reserved":false,"is_disabled":false,"rental_uris":{"android":"levelo://app?vid=9a51b2d0-c725-4bb3-9dd2-d7c11f6a28cd","ios":"levelo://app?vid=9a51b2d0-c725-4bb3-9dd2-d7c11f6a28cd"},"vehicle_type_id":"4","last_reported":1734016205,"current_range_meters":38000,"station_id":"ce4bgop2rcd13ifvqc1g","pricing_plan_id":"cebpf4jnsgd1na2vs0mg"},{"bike_id":"fcbe1a45-62ef-4798-a96a-86068998a082","system_id":"levelo_inurba_marseille","lat":43.24551,"lon":5.39526,"is_reserved":false,"is_disabled":false,"rental_uris":{"android":"levelo://app?vid=fcbe1a45-62ef-4798-a96a-86068998a082","ios":"levelo://app?vid=fcbe1a45-62ef-4798-a96a-86068998a082"},"vehicle_type_id":"4","last_reported":1734016205,"current_range_meters":30400,"station_id":"ce4bhlp2rcd13ifvqgjg","pricing_plan_id":"cebpf4jnsgd1na2vs0mg"},{"bike_id":"547ee225-3bb9-4420-a73c-bc355b21e705","system_id":"levelo_inurba_marseille","lat":43.31332,"lon":5.39692,"is_reserved":false,"is_disabled":false,"rental_uris":{"android":"levelo://app?vid=547ee225-3bb9-4420-a73c-bc355b21e705","ios":"levelo://app?vid=547ee225-3bb9-4420-a73c-bc355b21e705"},"vehicle_type_id":"4","last_reported":1734016205,"current_range_meters":39200,"station_id":"ce4bgvp2rcd13ifvqcu0","pricing_plan_id":"cebpf4jnsgd1na2vs0mg"},{"bike_id":"f863fcde-4fea-4148-8d3f-13819c7d9cf2","system_id":"levelo_inurba_marseille","lat":43.27209,"lon":5.3918,"is_reserved":false,"is_disabled":false,"rental_uris":{"android":"levelo://app?vid=f863fcde-4fea-4148-8d3f-13819c7d9cf2","ios":"levelo://app?vid=f863fcde-4fea-4148-8d3f-13819c7d9cf2"},"vehicle_type_id":"4","last_reported":1734016205,"current_range_meters":14800,"station_id":"ce4bhhp2rcd13ifvqfm0","pricing_plan_id":"cebpf4jnsgd1na2vs0mg"},{"bike_id":"354c236b-7cf9-4151-8f12-acabe55641f2","system_id":"levelo_inurba_marseille","lat":43.28451,"lon":5.39183,"is_reserved":false,"is_disabled":false,"rental_uris":{"android":"levelo://app?vid=354c236b-7cf9-4151-8f12-acabe55641f2","ios":"levelo://app?vid=354c236b-7cf9-4151-8f12-acabe55641f2"},"vehicle_type_id":"4","last_reported":1734016205,"current_range_meters":32400,"station_id":"ce4bhoh2rcd13ifvqh5g","pricing_plan_id":"cebpf4jnsgd1na2vs0mg"},{"bike_id":"2550e924-6d29-4077-b6a3-b6486420d3ac","system_id":"levelo_inurba_marseille","lat":43.26954,"lon":5.3863,"is_reserved":false,"is_disabled":true,"rental_uris":{"android":"levelo://app?vid=2550e924-6d29-4077-b6a3-b6486420d3ac","ios":"levelo://app?vid=2550e924-6d29-4077-b6a3-b6486420d3ac"},"vehicle_type_id":"4","last_reported":1734016205,"current_range_meters":0,"station_id":"ce4bhh92rcd13ifvqfh0","pricing_plan_id":"cebpf4jnsgd1na2vs0mg"},{"bike_id":"06f66dfc-67e3-46bb-8e23-90ef22aa2f49","system_id":"levelo_inurba_marseille","lat":43.33007,"lon":5.39026,"is_reserved":false,"is_disabled":false,"rental_uris":{"android":"levelo://app?vid=06f66dfc-67e3-46bb-8e23-90ef22aa2f49","ios":"levelo://app?vid=06f66dfc-67e3-46bb-8e23-90ef22aa2f49"},"vehicle_type_id":"4","last_reported":1734016205,"current_range_meters":28000,"station_id":"ce4bhr92rcd13ifvqhrg","pricing_plan_id":"cebpf4jnsgd1na2vs0mg"},{"bike_id":"4bcae6e0-4e8d-48df-89b7-64497d3c9f2f","system_id":"levelo_inurba_marseille","lat":43.28042,"lon":5.36952,"is_reserved":false,"is_disabled":false,"rental_uris":{"android":"levelo://app?vid=4bcae6e0-4e8d-48df-89b7-64497d3c9f2f","ios":"levelo://app?vid=4bcae6e0-4e8d-48df-89b7-64497d3c9f2f"},"vehicle_type_id":"4","last_reported":1734016205,"current_range_meters":38400,"station_id":"ce4bha12rcd13ifvqef0","pricing_plan_id":"cebpf4jnsgd1na2vs0mg"},{"bike_id":"4d3a41f5-959c-4dbb-9d11-8fbbf2d6345c","system_id":"levelo_inurba_marseille","lat":43.26931,"lon":5.38923,"is_reserved":false,"is_disabled":false,"rental_uris":{"android":"levelo://app?vid=4d3a41f5-959c-4dbb-9d11-8fbbf2d6345c","ios":"levelo://app?vid=4d3a41f5-959c-4dbb-9d11-8fbbf2d6345c"},"vehicle_type_id":"4","last_reported":1734016205,"current_range_meters":26800,"station_id":"ce4bhhh2rcd13ifvqfl0","pricing_plan_id":"cebpf4jnsgd1na2vs0mg"},{"bike_id":"0b95e5ee-1011-4a71-be2b-de57b5edad02","system_id":"levelo_inurba_marseille","lat":43.29903,"lon":5.37477,"is_reserved":false,"is_disabled":false,"rental_uris":{"android":"levelo://app?vid=0b95e5ee-1011-4a71-be2b-de57b5edad02","ios":"levelo://app?vid=0b95e5ee-1011-4a71-be2b-de57b5edad02"},"vehicle_type_id":"4","last_reported":1734016205,"current_range_meters":17600,"station_id":"ce4bgjh2rcd13ifvqbg0","pricing_plan_id":"cebpf4jnsgd1na2vs0mg"},{"bike_id":"a648cb11-d201-472f-985c-1caebce50f76","system_id":"levelo_inurba_marseille","lat":43.29374,"lon":5.37837,"is_reserved":false,"is_disabled":true,"rental_uris":{"android":"levelo://app?vid=a648cb11-d201-472f-985c-1caebce50f76","ios":"levelo://app?vid=a648cb11-d201-472f-985c-1caebce50f76"},"vehicle_type_id":"4","last_reported":1734016205,"current_range_meters":0,"station_id":"ce4bgjh2rcd13ifvqbf0","pricing_plan_id":"cebpf4jnsgd1na2vs0mg"},{"bike_id":"dd643bc6-5b37-42ec-9cd1-25f6f7772e52","system_id":"levelo_inurba_marseille","lat":43.31752,"lon":5.39025,"is_reserved":false,"is_disabled":true,"rental_uris":{"android":"levelo://app?vid=dd643bc6-5b37-42ec-9cd1-25f6f7772e52","ios":"levelo://app?vid=dd643bc6-5b37-42ec-9cd1-25f6f7772e52"},"vehicle_type_id":"4","last_reported":1734016205,"current_range_meters":37600,"station_id":"ce4bhqp2rcd13ifvqhng","pricing_plan_id":"cebpf4jnsgd1na2vs0mg"},{"bike_id":"f5a328d6-5258-4762-bac6-bf1eb3656810","system_id":"levelo_inurba_marseille","lat":43.26031,"lon":5.37541,"is_reserved":false,"is_disabled":false,"rental_uris":{"android":"levelo://app?vid=f5a328d6-5258-4762-bac6-bf1eb3656810","ios":"levelo://app?vid=f5a328d6-5258-4762-bac6-bf1eb3656810"},"vehicle_type_id":"4","last_reported":1734016205,"current_range_meters":38800,"station_id":"ce4bhgh2rcd13ifvqfa0","pricing_plan_id":"cebpf4jnsgd1na2vs0mg"},{"bike_id":"f8cdd376-9b16-419e-bd13-982ff1a2b0ee","system_id":"levelo_inurba_marseille","lat":43.28746,"lon":5.37945,"is_reserved":false,"is_disabled":false,"rental_uris":{"android":"levelo://app?vid=f8cdd376-9b16-419e-bd13-982ff1a2b0ee","ios":"levelo://app?vid=f8cdd376-9b16-419e-bd13-982ff1a2b0ee"},"vehicle_type_id":"4","last_reported":1734016205,"current_range_meters":32400,"station_id":"ce4bh9p2rcd13ifvqec0","pricing_plan_id":"cebpf4jnsgd1na2vs0mg"},{"bike_id":"e738fcc8-c725-46f1-b7fe-8f522bd56ad4","system_id":"levelo_inurba_marseille","lat":43.22935,"lon":5.35382,"is_reserved":false,"is_disabled":false,"rental_uris":{"android":"levelo://app?vid=e738fcc8-c725-46f1-b7fe-8f522bd56ad4","ios":"levelo://app?vid=e738fcc8-c725-46f1-b7fe-8f522bd56ad4"},"vehicle_type_id":"4","last_reported":1734016205,"current_range_meters":9600,"station_id":"cpo3532slgdg3j2ikp40","pricing_plan_id":"cebpf4jnsgd1na2vs0mg"},{"bike_id":"5b23d32e-83d8-481d-be86-61949176e32b","system_id":"levelo_inurba_marseille","lat":43.26538,"lon":5.39019,"is_reserved":false,"is_disabled":false,"rental_uris":{"android":"levelo://app?vid=5b23d32e-83d8-481d-be86-61949176e32b","ios":"levelo://app?vid=5b23d32e-83d8-481d-be86-61949176e32b"},"vehicle_type_id":"4","last_reported":1734016205,"current_range_meters":38800,"station_id":"ce4bhe12rcd13ifvqf30","pricing_plan_id":"cebpf4jnsgd1na2vs0mg"},{"bike_id":"7965bd8b-65b9-4460-9e65-36f253ebc53b","system_id":"levelo_inurba_marseille","lat":43.320487,"lon":5.415103,"is_reserved":false,"is_disabled":false,"rental_uris":{"android":"levelo://app?vid=7965bd8b-65b9-4460-9e65-36f253ebc53b","ios":"levelo://app?vid=7965bd8b-65b9-4460-9e65-36f253ebc53b"},"vehicle_type_id":"4","last_reported":1734016205,"current_range_meters":27200,"station_id":"ce4bhq92rcd13ifvqhkg","pricing_plan_id":"cebpf4jnsgd1na2vs0mg"},{"bike_id":"8a939789-b594-464c-87bc-cdbd1182be3b","system_id":"levelo_inurba_marseille","lat":43.24544,"lon":5.39532,"is_reserved":false,"is_disabled":false,"rental_uris":{"android":"levelo://app?vid=8a939789-b594-464c-87bc-cdbd1182be3b","ios":"levelo://app?vid=8a939789-b594-464c-87bc-cdbd1182be3b"},"vehicle_type_id":"4","last_reported":1734016205,"current_range_meters":14400,"station_id":"ce4bhlp2rcd13ifvqgjg","pricing_plan_id":"cebpf4jnsgd1na2vs0mg"},{"bike_id":"467a8ed9-8f9d-4f9c-a7a2-b2a4bc21bd4a","system_id":"levelo_inurba_marseille","lat":43.24657,"lon":5.38908,"is_reserved":false,"is_disabled":false,"rental_uris":{"android":"levelo://app?vid=467a8ed9-8f9d-4f9c-a7a2-b2a4bc21bd4a","ios":"levelo://app?vid=467a8ed9-8f9d-4f9c-a7a2-b2a4bc21bd4a"},"vehicle_type_id":"4","last_reported":1734016205,"current_range_meters":35600,"station_id":"ce4bhg12rcd13ifvqf60","pricing_plan_id":"cebpf4jnsgd1na2vs0mg"},{"bike_id":"3f376398-b9b7-4419-aed9-9595c8c18ff6","system_id":"levelo_inurba_marseille","lat":43.29553,"lon":5.42282,"is_reserved":false,"is_disabled":false,"rental_uris":{"android":"levelo://app?vid=3f376398-b9b7-4419-aed9-9595c8c18ff6","ios":"levelo://app?vid=3f376398-b9b7-4419-aed9-9595c8c18ff6"},"vehicle_type_id":"4","last_reported":1734016205,"current_range_meters":38000,"station_id":"ce4bhph2rcd13ifvqhdg","pricing_plan_id":"cebpf4jnsgd1na2vs0mg"},{"bike_id":"b3efb9e6-7c78-49e9-8953-2b580fb6d57e","system_id":"levelo_inurba_marseille","lat":43.27618,"lon":5.36119,"is_reserved":false,"is_disabled":true,"rental_uris":{"android":"levelo://app?vid=b3efb9e6-7c78-49e9-8953-2b580fb6d57e","ios":"levelo://app?vid=b3efb9e6-7c78-49e9-8953-2b580fb6d57e"},"vehicle_type_id":"4","last_reported":1734016205,"current_range_meters":0,"station_id":"ce4bgj92rcd13ifvqbe0","pricing_plan_id":"cebpf4jnsgd1na2vs0mg"},{"bike_id":"60ed54ba-43e0-41ed-b186-fdbd36f5a347","system_id":"levelo_inurba_marseille","lat":43.29534,"lon":5.3854,"is_reserved":false,"is_disabled":false,"rental_uris":{"android":"levelo://app?vid=60ed54ba-43e0-41ed-b186-fdbd36f5a347","ios":"levelo://app?vid=60ed54ba-43e0-41ed-b186-fdbd36f5a347"},"vehicle_type_id":"4","last_reported":1734016205,"current_range_meters":32800,"station_id":"ce4bgih2rcd13ifvqba0","pricing_plan_id":"cebpf4jnsgd1na2vs0mg"},{"bike_id":"a5589391-a7e4-412b-9a87-f917b2322580","system_id":"levelo_inurba_marseille","lat":43.23065,"lon":5.35489,"is_reserved":false,"is_disabled":false,"rental_uris":{"android":"levelo://app?vid=a5589391-a7e4-412b-9a87-f917b2322580","ios":"levelo://app?vid=a5589391-a7e4-412b-9a87-f917b2322580"},"vehicle_type_id":"4","last_reported":1734016205,"current_range_meters":13600,"station_id":"cpo3342slgdg3j2ifvpg","pricing_plan_id":"cebpf4jnsgd1na2vs0mg"},{"bike_id":"e7c5ebc6-1cf2-4fd2-8bf4-fb4ee6e3eec1","system_id":"levelo_inurba_marseille","lat":43.24996,"lon":5.38932,"is_reserved":false,"is_disabled":false,"rental_uris":{"android":"levelo://app?vid=e7c5ebc6-1cf2-4fd2-8bf4-fb4ee6e3eec1","ios":"levelo://app?vid=e7c5ebc6-1cf2-4fd2-8bf4-fb4ee6e3eec1"},"vehicle_type_id":"4","last_reported":1734016205,"current_range_meters":28800,"station_id":"ce4bhgp2rcd13ifvqfd0","pricing_plan_id":"cebpf4jnsgd1na2vs0mg"},{"bike_id":"aa60642f-40b0-4281-8adc-f4984940a0e2","system_id":"levelo_inurba_marseille","lat":43.29046,"lon":5.39976,"is_reserved":false,"is_disabled":true,"rental_uris":{"android":"levelo://app?vid=aa60642f-40b0-4281-8adc-f4984940a0e2","ios":"levelo://app?vid=aa60642f-40b0-4281-8adc-f4984940a0e2"},"vehicle_type_id":"4","last_reported":1734016205,"current_range_meters":0,"station_id":"ce4bh392rcd13ifvqdm0","pricing_plan_id":"cebpf4jnsgd1na2vs0mg"},{"bike_id":"4adbefe7-e022-4183-953c-b8d94d86066c","system_id":"levelo_inurba_marseille","lat":43.29849,"lon":5.36265,"is_reserved":false,"is_disabled":false,"rental_uris":{"android":"levelo://app?vid=4adbefe7-e022-4183-953c-b8d94d86066c","ios":"levelo://app?vid=4adbefe7-e022-4183-953c-b8d94d86066c"},"vehicle_type_id":"4","last_reported":1734016205,"current_range_meters":34000,"station_id":"ce4bgpp2rcd13ifvqc3g","pricing_plan_id":"cebpf4jnsgd1na2vs0mg"},{"bike_id":"2df61507-a3ef-4d4b-a61f-8ce75f8c82e0","system_id":"levelo_inurba_marseille","lat":43.32461,"lon":5.3656,"is_reserved":false,"is_disabled":false,"rental_uris":{"android":"levelo://app?vid=2df61507-a3ef-4d4b-a61f-8ce75f8c82e0","ios":"levelo://app?vid=2df61507-a3ef-4d4b-a61f-8ce75f8c82e0"},"vehicle_type_id":"4","last_reported":1734016205,"current_range_meters":36800,"station_id":"ce4bhs12rcd13ifvqhvg","pricing_plan_id":"cebpf4jnsgd1na2vs0mg"},{"bike_id":"7f218b15-e3fc-43c4-8703-acd68250579b","system_id":"levelo_inurba_marseille","lat":43.337444,"lon":5.374475,"is_reserved":false,"is_disabled":false,"rental_uris":{"android":"levelo://app?vid=7f218b15-e3fc-43c4-8703-acd68250579b","ios":"levelo://app?vid=7f218b15-e3fc-43c4-8703-acd68250579b"},"vehicle_type_id":"4","last_reported":1734016205,"current_range_meters":33200,"station_id":"","pricing_plan_id":"cebpf4jnsgd1na2vs0mg"},{"bike_id":"5cd0227d-828f-4635-a4e6-90752f4b4e94","system_id":"levelo_inurba_marseille","lat":43.29196,"lon":5.35798,"is_reserved":false,"is_disabled":true,"rental_uris":{"android":"levelo://app?vid=5cd0227d-828f-4635-a4e6-90752f4b4e94","ios":"levelo://app?vid=5cd0227d-828f-4635-a4e6-90752f4b4e94"},"vehicle_type_id":"4","last_reported":1734016205,"current_range_meters":38800,"station_id":"ce4bhb12rcd13ifvqel0","pricing_plan_id":"cebpf4jnsgd1na2vs0mg"},{"bike_id":"bf26ba67-e67a-47f2-aeb5-22efb7770553","system_id":"levelo_inurba_marseille","lat":43.28611,"lon":5.35103,"is_reserved":false,"is_disabled":false,"rental_uris":{"android":"levelo://app?vid=bf26ba67-e67a-47f2-aeb5-22efb7770553","ios":"levelo://app?vid=bf26ba67-e67a-47f2-aeb5-22efb7770553"},"vehicle_type_id":"4","last_reported":1734016205,"current_range_meters":32800,"station_id":"ce4bhch2rcd13ifvqeug","pricing_plan_id":"cebpf4jnsgd1na2vs0mg"},{"bike_id":"1edcb435-be97-41f8-aa8c-4a20808cef7c","system_id":"levelo_inurba_marseille","lat":43.26815,"lon":5.40293,"is_reserved":false,"is_disabled":false,"rental_uris":{"android":"levelo://app?vid=1edcb435-be97-41f8-aa8c-4a20808cef7c","ios":"levelo://app?vid=1edcb435-be97-41f8-aa8c-4a20808cef7c"},"vehicle_type_id":"4","last_reported":1734016205,"current_range_meters":8800,"station_id":"ce501612rcd8frsf0b60","pricing_plan_id":"cebpf4jnsgd1na2vs0mg"},{"bike_id":"b9730f47-b015-4da1-b7b7-738d3f4b9f44","system_id":"levelo_inurba_marseille","lat":43.28453,"lon":5.3589,"is_reserved":false,"is_disabled":false,"rental_uris":{"android":"levelo://app?vid=b9730f47-b015-4da1-b7b7-738d3f4b9f44","ios":"levelo://app?vid=b9730f47-b015-4da1-b7b7-738d3f4b9f44"},"vehicle_type_id":"4","last_reported":1734016205,"current_range_meters":4800,"station_id":"ce4bhah2rcd13ifvqei0","pricing_plan_id":"cebpf4jnsgd1na2vs0mg"},{"bike_id":"505bd5f7-e105-4a00-ad04-987c6dcc7479","system_id":"levelo_inurba_marseille","lat":43.309448,"lon":5.390361,"is_reserved":false,"is_disabled":true,"rental_uris":{"android":"levelo://app?vid=505bd5f7-e105-4a00-ad04-987c6dcc7479","ios":"levelo://app?vid=505bd5f7-e105-4a00-ad04-987c6dcc7479"},"vehicle_type_id":"4","last_reported":1734016205,"current_range_meters":2000,"station_id":"ce4bgup2rcd13ifvqco0","pricing_plan_id":"cebpf4jnsgd1na2vs0mg"},{"bike_id":"54238831-b2f8-4803-a465-8faa1bf52ffc","system_id":"levelo_inurba_marseille","lat":43.24079,"lon":5.37723,"is_reserved":false,"is_disabled":false,"rental_uris":{"android":"levelo://app?vid=54238831-b2f8-4803-a465-8faa1bf52ffc","ios":"levelo://app?vid=54238831-b2f8-4803-a465-8faa1bf52ffc"},"vehicle_type_id":"4","last_reported":1734016205,"current_range_meters":36800,"station_id":"ce4bhnp2rcd13ifvqgvg","pricing_plan_id":"cebpf4jnsgd1na2vs0mg"},{"bike_id":"61df4582-7c9f-489e-b7da-d6a0cfdcd7c7","system_id":"levelo_inurba_marseille","lat":43.28664,"lon":5.36348,"is_reserved":false,"is_disabled":true,"rental_uris":{"android":"levelo://app?vid=61df4582-7c9f-489e-b7da-d6a0cfdcd7c7","ios":"levelo://app?vid=61df4582-7c9f-489e-b7da-d6a0cfdcd7c7"},"vehicle_type_id":"4","last_reported":1734016205,"current_range_meters":0,"station_id":"ce4bhah2rcd13ifvqej0","pricing_plan_id":"cebpf4jnsgd1na2vs0mg"},{"bike_id":"e4bce108-895c-4ef1-b04e-0750bd932070","system_id":"levelo_inurba_marseille","lat":43.28661,"lon":5.3636,"is_reserved":false,"is_disabled":false,"rental_uris":{"android":"levelo://app?vid=e4bce108-895c-4ef1-b04e-0750bd932070","ios":"levelo://app?vid=e4bce108-895c-4ef1-b04e-0750bd932070"},"vehicle_type_id":"4","last_reported":1734016205,"current_range_meters":8400,"station_id":"ce4bhah2rcd13ifvqej0","pricing_plan_id":"cebpf4jnsgd1na2vs0mg"},{"bike_id":"c3a7ecdd-5659-4915-847f-1af1fee194ca","system_id":"levelo_inurba_marseille","lat":43.29841,"lon":5.3627,"is_reserved":false,"is_disabled":false,"rental_uris":{"android":"levelo://app?vid=c3a7ecdd-5659-4915-847f-1af1fee194ca","ios":"levelo://app?vid=c3a7ecdd-5659-4915-847f-1af1fee194ca"},"vehicle_type_id":"4","last_reported":1734016205,"current_range_meters":38800,"station_id":"ce4bgpp2rcd13ifvqc3g","pricing_plan_id":"cebpf4jnsgd1na2vs0mg"},{"bike_id":"ca3bf6a0-806c-4046-b219-bbea4c2ba646","system_id":"levelo_inurba_marseille","lat":43.23201,"lon":5.35549,"is_reserved":false,"is_disabled":false,"rental_uris":{"android":"levelo://app?vid=ca3bf6a0-806c-4046-b219-bbea4c2ba646","ios":"levelo://app?vid=ca3bf6a0-806c-4046-b219-bbea4c2ba646"},"vehicle_type_id":"4","last_reported":1734016205,"current_range_meters":38800,"station_id":"ce4bhu92rcd13ifvqi70","pricing_plan_id":"cebpf4jnsgd1na2vs0mg"},{"bike_id":"29b3b4dd-8c69-4303-a35c-538289e4df89","system_id":"levelo_inurba_marseille","lat":43.27947,"lon":5.4105,"is_reserved":false,"is_disabled":false,"rental_uris":{"android":"levelo://app?vid=29b3b4dd-8c69-4303-a35c-538289e4df89","ios":"levelo://app?vid=29b3b4dd-8c69-4303-a35c-538289e4df89"},"vehicle_type_id":"4","last_reported":1734016205,"current_range_meters":13600,"station_id":"ce4bhnp2rcd13ifvqh0g","pricing_plan_id":"cebpf4jnsgd1na2vs0mg"},{"bike_id":"da88eb33-42f7-4259-87f0-28899729ee6e","system_id":"levelo_inurba_marseille","lat":43.24648,"lon":5.38893,"is_reserved":false,"is_disabled":false,"rental_uris":{"android":"levelo://app?vid=da88eb33-42f7-4259-87f0-28899729ee6e","ios":"levelo://app?vid=da88eb33-42f7-4259-87f0-28899729ee6e"},"vehicle_type_id":"4","last_reported":1734016205,"current_range_meters":8000,"station_id":"ce4bhg12rcd13ifvqf60","pricing_plan_id":"cebpf4jnsgd1na2vs0mg"},{"bike_id":"46b2fdec-0870-4ae2-84dc-b1f57512351e","system_id":"levelo_inurba_marseille","lat":43.337444,"lon":5.374475,"is_reserved":false,"is_disabled":true,"rental_uris":{"android":"levelo://app?vid=46b2fdec-0870-4ae2-84dc-b1f57512351e","ios":"levelo://app?vid=46b2fdec-0870-4ae2-84dc-b1f57512351e"},"vehicle_type_id":"4","last_reported":1734016205,"current_range_meters":0,"station_id":"","pricing_plan_id":"cebpf4jnsgd1na2vs0mg"},{"bike_id":"ad8a8566-76f1-486f-a5c3-1b919241c9cc","system_id":"levelo_inurba_marseille","lat":43.30798,"lon":5.43523,"is_reserved":false,"is_disabled":true,"rental_uris":{"android":"levelo://app?vid=ad8a8566-76f1-486f-a5c3-1b919241c9cc","ios":"levelo://app?vid=ad8a8566-76f1-486f-a5c3-1b919241c9cc"},"vehicle_type_id":"4","last_reported":1734016205,"current_range_meters":1600,"station_id":"ce4bhph2rcd13ifvqheg","pricing_plan_id":"cebpf4jnsgd1na2vs0mg"},{"bike_id":"c477561f-a4bf-41f1-82f8-246fb2e9fd43","system_id":"levelo_inurba_marseille","lat":43.2969,"lon":5.36629,"is_reserved":false,"is_disabled":false,"rental_uris":{"android":"levelo://app?vid=c477561f-a4bf-41f1-82f8-246fb2e9fd43","ios":"levelo://app?vid=c477561f-a4bf-41f1-82f8-246fb2e9fd43"},"vehicle_type_id":"4","last_reported":1734016205,"current_range_meters":24800,"station_id":"ce4bgn12rcd13ifvqbt0","pricing_plan_id":"cebpf4jnsgd1na2vs0mg"},{"bike_id":"ecf2be5e-1ccd-4595-8b48-deb0a4ad0510","system_id":"levelo_inurba_marseille","lat":43.25578,"lon":5.38239,"is_reserved":false,"is_disabled":true,"rental_uris":{"android":"levelo://app?vid=ecf2be5e-1ccd-4595-8b48-deb0a4ad0510","ios":"levelo://app?vid=ecf2be5e-1ccd-4595-8b48-deb0a4ad0510"},"vehicle_type_id":"4","last_reported":1734016205,"current_range_meters":1600,"station_id":"ce4bhih2rcd13ifvqfs0","pricing_plan_id":"cebpf4jnsgd1na2vs0mg"},{"bike_id":"2868e028-329c-4801-a38a-9a47d24bd970","system_id":"levelo_inurba_marseille","lat":43.27373,"lon":5.36261,"is_reserved":false,"is_disabled":false,"rental_uris":{"android":"levelo://app?vid=2868e028-329c-4801-a38a-9a47d24bd970","ios":"levelo://app?vid=2868e028-329c-4801-a38a-9a47d24bd970"},"vehicle_type_id":"4","last_reported":1734016205,"current_range_meters":23200,"station_id":"ce4bhbh2rcd13ifvqeo0","pricing_plan_id":"cebpf4jnsgd1na2vs0mg"},{"bike_id":"b5cb506c-d5a2-40ca-8d90-ebc1337fb446","system_id":"levelo_inurba_marseille","lat":43.32464,"lon":5.36577,"is_reserved":false,"is_disabled":false,"rental_uris":{"android":"levelo://app?vid=b5cb506c-d5a2-40ca-8d90-ebc1337fb446","ios":"levelo://app?vid=b5cb506c-d5a2-40ca-8d90-ebc1337fb446"},"vehicle_type_id":"4","last_reported":1734016205,"current_range_meters":13600,"station_id":"ce4bhs12rcd13ifvqhvg","pricing_plan_id":"cebpf4jnsgd1na2vs0mg"},{"bike_id":"89689c13-bc4f-4ce0-ad6c-7c7345bf2b6b","system_id":"levelo_inurba_marseille","lat":43.27498,"lon":5.42454,"is_reserved":false,"is_disabled":true,"rental_uris":{"android":"levelo://app?vid=89689c13-bc4f-4ce0-ad6c-7c7345bf2b6b","ios":"levelo://app?vid=89689c13-bc4f-4ce0-ad6c-7c7345bf2b6b"},"vehicle_type_id":"4","last_reported":1734016205,"current_range_meters":1600,"station_id":"ce4bhn92rcd13ifvqgrg","pricing_plan_id":"cebpf4jnsgd1na2vs0mg"},{"bike_id":"7bb3889b-bb87-4d9a-9217-5eb5d9d5fd44","system_id":"levelo_inurba_marseille","lat":43.30306,"lon":5.36901,"is_reserved":false,"is_disabled":false,"rental_uris":{"android":"levelo://app?vid=7bb3889b-bb87-4d9a-9217-5eb5d9d5fd44","ios":"levelo://app?vid=7bb3889b-bb87-4d9a-9217-5eb5d9d5fd44"},"vehicle_type_id":"4","last_reported":1734016205,"current_range_meters":36000,"station_id":"ce4bgqh2rcd13ifvqc5g","pricing_plan_id":"cebpf4jnsgd1na2vs0mg"},{"bike_id":"f0385955-b302-4dd5-8fa2-b704d1cf74df","system_id":"levelo_inurba_marseille","lat":43.240666,"lon":5.3776,"is_reserved":false,"is_disabled":false,"rental_uris":{"android":"levelo://app?vid=f0385955-b302-4dd5-8fa2-b704d1cf74df","ios":"levelo://app?vid=f0385955-b302-4dd5-8fa2-b704d1cf74df"},"vehicle_type_id":"4","last_reported":1734016205,"current_range_meters":38800,"station_id":"ce4bhnp2rcd13ifvqgvg","pricing_plan_id":"cebpf4jnsgd1na2vs0mg"},{"bike_id":"faced428-b841-46c1-aa04-0179f3009f19","system_id":"levelo_inurba_marseille","lat":43.29918,"lon":5.37478,"is_reserved":false,"is_disabled":false,"rental_uris":{"android":"levelo://app?vid=faced428-b841-46c1-aa04-0179f3009f19","ios":"levelo://app?vid=faced428-b841-46c1-aa04-0179f3009f19"},"vehicle_type_id":"4","last_reported":1734016205,"current_range_meters":12400,"station_id":"ce4bgjh2rcd13ifvqbg0","pricing_plan_id":"cebpf4jnsgd1na2vs0mg"},{"bike_id":"2448f112-093b-44a4-8c49-c482af2ba024","system_id":"levelo_inurba_marseille","lat":43.23061,"lon":5.35494,"is_reserved":false,"is_disabled":false,"rental_uris":{"android":"levelo://app?vid=2448f112-093b-44a4-8c49-c482af2ba024","ios":"levelo://app?vid=2448f112-093b-44a4-8c49-c482af2ba024"},"vehicle_type_id":"4","last_reported":1734016205,"current_range_meters":30800,"station_id":"cpo3342slgdg3j2ifvpg","pricing_plan_id":"cebpf4jnsgd1na2vs0mg"},{"bike_id":"dedcfdb0-6537-4a9d-bc26-22b9e221661e","system_id":"levelo_inurba_marseille","lat":43.30139,"lon":5.37396,"is_reserved":false,"is_disabled":true,"rental_uris":{"android":"levelo://app?vid=dedcfdb0-6537-4a9d-bc26-22b9e221661e","ios":"levelo://app?vid=dedcfdb0-6537-4a9d-bc26-22b9e221661e"},"vehicle_type_id":"4","last_reported":1734016205,"current_range_meters":26800,"station_id":"ce4bgs92rcd13ifvqcc0","pricing_plan_id":"cebpf4jnsgd1na2vs0mg"},{"bike_id":"056765cc-98c1-4591-b855-2e27f1184c8b","system_id":"levelo_inurba_marseille","lat":43.29889,"lon":5.38916,"is_reserved":false,"is_disabled":false,"rental_uris":{"android":"levelo://app?vid=056765cc-98c1-4591-b855-2e27f1184c8b","ios":"levelo://app?vid=056765cc-98c1-4591-b855-2e27f1184c8b"},"vehicle_type_id":"4","last_reported":1734016205,"current_range_meters":7200,"station_id":"ce4bh392rcd13ifvqdl0","pricing_plan_id":"cebpf4jnsgd1na2vs0mg"},{"bike_id":"489ca354-9b79-4366-8398-0f3d41e32067","system_id":"levelo_inurba_marseille","lat":43.26054,"lon":5.39401,"is_reserved":false,"is_disabled":true,"rental_uris":{"android":"levelo://app?vid=489ca354-9b79-4366-8398-0f3d41e32067","ios":"levelo://app?vid=489ca354-9b79-4366-8398-0f3d41e32067"},"vehicle_type_id":"4","last_reported":1734016205,"current_range_meters":0,"station_id":"ce4bhh92rcd13ifvqfj0","pricing_plan_id":"cebpf4jnsgd1na2vs0mg"},{"bike_id":"9763c34f-c931-449c-a245-dfe0c63b961a","system_id":"levelo_inurba_marseille","lat":43.29853,"lon":5.36275,"is_reserved":false,"is_disabled":false,"rental_uris":{"android":"levelo://app?vid=9763c34f-c931-449c-a245-dfe0c63b961a","ios":"levelo://app?vid=9763c34f-c931-449c-a245-dfe0c63b961a"},"vehicle_type_id":"4","last_reported":1734016205,"current_range_meters":36800,"station_id":"ce4bgpp2rcd13ifvqc3g","pricing_plan_id":"cebpf4jnsgd1na2vs0mg"},{"bike_id":"55693d4a-607e-4d6b-ab21-bb32f188328f","system_id":"levelo_inurba_marseille","lat":43.295508,"lon":5.422938,"is_reserved":false,"is_disabled":false,"rental_uris":{"android":"levelo://app?vid=55693d4a-607e-4d6b-ab21-bb32f188328f","ios":"levelo://app?vid=55693d4a-607e-4d6b-ab21-bb32f188328f"},"vehicle_type_id":"4","last_reported":1734016205,"current_range_meters":38400,"station_id":"ce4bhph2rcd13ifvqhdg","pricing_plan_id":"cebpf4jnsgd1na2vs0mg"},{"bike_id":"6d05f7ba-808a-4403-b1f3-f8483fec843c","system_id":"levelo_inurba_marseille","lat":43.23193,"lon":5.35561,"is_reserved":false,"is_disabled":false,"rental_uris":{"android":"levelo://app?vid=6d05f7ba-808a-4403-b1f3-f8483fec843c","ios":"levelo://app?vid=6d05f7ba-808a-4403-b1f3-f8483fec843c"},"vehicle_type_id":"4","last_reported":1734016205,"current_range_meters":30800,"station_id":"ce4bhu92rcd13ifvqi70","pricing_plan_id":"cebpf4jnsgd1na2vs0mg"},{"bike_id":"46c7a1c4-0161-440f-8b97-301f0e738b32","system_id":"levelo_inurba_marseille","lat":43.32496,"lon":5.36568,"is_reserved":false,"is_disabled":false,"rental_uris":{"android":"levelo://app?vid=46c7a1c4-0161-440f-8b97-301f0e738b32","ios":"levelo://app?vid=46c7a1c4-0161-440f-8b97-301f0e738b32"},"vehicle_type_id":"4","last_reported":1734016205,"current_range_meters":32400,"station_id":"ce4bhs12rcd13ifvqhvg","pricing_plan_id":"cebpf4jnsgd1na2vs0mg"},{"bike_id":"5b216ce0-5fe7-4327-a32a-feac1a44ddf5","system_id":"levelo_inurba_marseille","lat":43.27949,"lon":5.38708,"is_reserved":false,"is_disabled":true,"rental_uris":{"android":"levelo://app?vid=5b216ce0-5fe7-4327-a32a-feac1a44ddf5","ios":"levelo://app?vid=5b216ce0-5fe7-4327-a32a-feac1a44ddf5"},"vehicle_type_id":"4","last_reported":1734016205,"current_range_meters":27600,"station_id":"ce4bhg12rcd13ifvqf80","pricing_plan_id":"cebpf4jnsgd1na2vs0mg"},{"bike_id":"69de31ad-86e8-45f1-a472-e6b57cadab4f","system_id":"levelo_inurba_marseille","lat":43.257178,"lon":5.411072,"is_reserved":false,"is_disabled":false,"rental_uris":{"android":"levelo://app?vid=69de31ad-86e8-45f1-a472-e6b57cadab4f","ios":"levelo://app?vid=69de31ad-86e8-45f1-a472-e6b57cadab4f"},"vehicle_type_id":"4","last_reported":1734016205,"current_range_meters":20400,"station_id":"ce4bhkp2rcd13ifvqgd0","pricing_plan_id":"cebpf4jnsgd1na2vs0mg"},{"bike_id":"f5089d46-fd84-4b59-947f-734dfd999fac","system_id":"levelo_inurba_marseille","lat":43.279,"lon":5.38014,"is_reserved":false,"is_disabled":false,"rental_uris":{"android":"levelo://app?vid=f5089d46-fd84-4b59-947f-734dfd999fac","ios":"levelo://app?vid=f5089d46-fd84-4b59-947f-734dfd999fac"},"vehicle_type_id":"4","last_reported":1734016205,"current_range_meters":37600,"station_id":"ce4bhf92rcd13ifvqf50","pricing_plan_id":"cebpf4jnsgd1na2vs0mg"},{"bike_id":"975c8998-8848-43f9-ab61-fd825e1d3481","system_id":"levelo_inurba_marseille","lat":43.2417,"lon":5.39723,"is_reserved":false,"is_disabled":false,"rental_uris":{"android":"levelo://app?vid=975c8998-8848-43f9-ab61-fd825e1d3481","ios":"levelo://app?vid=975c8998-8848-43f9-ab61-fd825e1d3481"},"vehicle_type_id":"4","last_reported":1734016205,"current_range_meters":22800,"station_id":"ce4bhn12rcd13ifvqgpg","pricing_plan_id":"cebpf4jnsgd1na2vs0mg"},{"bike_id":"9d5fa22f-b349-42f6-abc1-dcec0a7eafbf","system_id":"levelo_inurba_marseille","lat":43.30604,"lon":5.37221,"is_reserved":false,"is_disabled":false,"rental_uris":{"android":"levelo://app?vid=9d5fa22f-b349-42f6-abc1-dcec0a7eafbf","ios":"levelo://app?vid=9d5fa22f-b349-42f6-abc1-dcec0a7eafbf"},"vehicle_type_id":"4","last_reported":1734016205,"current_range_meters":38400,"station_id":"ce4bgqh2rcd13ifvqc4g","pricing_plan_id":"cebpf4jnsgd1na2vs0mg"},{"bike_id":"9c8c1480-9ffa-4086-913c-c2125a6eb848","system_id":"levelo_inurba_marseille","lat":43.22933,"lon":5.35378,"is_reserved":false,"is_disabled":false,"rental_uris":{"android":"levelo://app?vid=9c8c1480-9ffa-4086-913c-c2125a6eb848","ios":"levelo://app?vid=9c8c1480-9ffa-4086-913c-c2125a6eb848"},"vehicle_type_id":"4","last_reported":1734016205,"current_range_meters":36800,"station_id":"cpo3532slgdg3j2ikp40","pricing_plan_id":"cebpf4jnsgd1na2vs0mg"},{"bike_id":"60a40178-9b28-4f9e-b59c-c92deb30d52d","system_id":"levelo_inurba_marseille","lat":43.2693,"lon":5.38922,"is_reserved":false,"is_disabled":false,"rental_uris":{"android":"levelo://app?vid=60a40178-9b28-4f9e-b59c-c92deb30d52d","ios":"levelo://app?vid=60a40178-9b28-4f9e-b59c-c92deb30d52d"},"vehicle_type_id":"4","last_reported":1734016205,"current_range_meters":24400,"station_id":"ce4bhhh2rcd13ifvqfl0","pricing_plan_id":"cebpf4jnsgd1na2vs0mg"},{"bike_id":"ea6aa267-0cdb-457c-bef6-7092205ed262","system_id":"levelo_inurba_marseille","lat":43.31339,"lon":5.36721,"is_reserved":false,"is_disabled":false,"rental_uris":{"android":"levelo://app?vid=ea6aa267-0cdb-457c-bef6-7092205ed262","ios":"levelo://app?vid=ea6aa267-0cdb-457c-bef6-7092205ed262"},"vehicle_type_id":"4","last_reported":1734016205,"current_range_meters":34800,"station_id":"ce4bgr92rcd13ifvqc6g","pricing_plan_id":"cebpf4jnsgd1na2vs0mg"},{"bike_id":"ffd070af-ab63-42ad-b7b7-6dc51f77c7f6","system_id":"levelo_inurba_marseille","lat":43.32537,"lon":5.41448,"is_reserved":false,"is_disabled":true,"rental_uris":{"android":"levelo://app?vid=ffd070af-ab63-42ad-b7b7-6dc51f77c7f6","ios":"levelo://app?vid=ffd070af-ab63-42ad-b7b7-6dc51f77c7f6"},"vehicle_type_id":"4","last_reported":1734016205,"current_range_meters":0,"station_id":"ce4bhq12rcd13ifvqhhg","pricing_plan_id":"cebpf4jnsgd1na2vs0mg"},{"bike_id":"d99747d8-26ac-47d9-af9f-66b021fd63ac","system_id":"levelo_inurba_marseille","lat":43.30591,"lon":5.36538,"is_reserved":false,"is_disabled":false,"rental_uris":{"android":"levelo://app?vid=d99747d8-26ac-47d9-af9f-66b021fd63ac","ios":"levelo://app?vid=d99747d8-26ac-47d9-af9f-66b021fd63ac"},"vehicle_type_id":"4","last_reported":1734016205,"current_range_meters":27600,"station_id":"ce4bgs12rcd13ifvqcag","pricing_plan_id":"cebpf4jnsgd1na2vs0mg"},{"bike_id":"385166cc-c724-4143-a5c1-0a44b937c46b","system_id":"levelo_inurba_marseille","lat":43.29048,"lon":5.3592,"is_reserved":false,"is_disabled":false,"rental_uris":{"android":"levelo://app?vid=385166cc-c724-4143-a5c1-0a44b937c46b","ios":"levelo://app?vid=385166cc-c724-4143-a5c1-0a44b937c46b"},"vehicle_type_id":"4","last_reported":1734016205,"current_range_meters":36400,"station_id":"ce4bha92rcd13ifvqeg0","pricing_plan_id":"cebpf4jnsgd1na2vs0mg"},{"bike_id":"ef1186b7-9a16-4b73-9a50-ad2027db610c","system_id":"levelo_inurba_marseille","lat":43.30545,"lon":5.36572,"is_reserved":false,"is_disabled":false,"rental_uris":{"android":"levelo://app?vid=ef1186b7-9a16-4b73-9a50-ad2027db610c","ios":"levelo://app?vid=ef1186b7-9a16-4b73-9a50-ad2027db610c"},"vehicle_type_id":"4","last_reported":1734016205,"current_range_meters":27600,"station_id":"ce4bgs12rcd13ifvqcag","pricing_plan_id":"cebpf4jnsgd1na2vs0mg"},{"bike_id":"9ac7fa6e-2578-4832-8168-ade341fdc585","system_id":"levelo_inurba_marseille","lat":43.2841,"lon":5.428961,"is_reserved":false,"is_disabled":true,"rental_uris":{"android":"levelo://app?vid=9ac7fa6e-2578-4832-8168-ade341fdc585","ios":"levelo://app?vid=9ac7fa6e-2578-4832-8168-ade341fdc585"},"vehicle_type_id":"4","last_reported":1734016205,"current_range_meters":0,"station_id":"","pricing_plan_id":"cebpf4jnsgd1na2vs0mg"},{"bike_id":"eff5f409-116f-417e-ab8e-dcb95347ab06","system_id":"levelo_inurba_marseille","lat":43.301495,"lon":5.37423,"is_reserved":false,"is_disabled":false,"rental_uris":{"android":"levelo://app?vid=eff5f409-116f-417e-ab8e-dcb95347ab06","ios":"levelo://app?vid=eff5f409-116f-417e-ab8e-dcb95347ab06"},"vehicle_type_id":"4","last_reported":1734016205,"current_range_meters":38800,"station_id":"ce4bgs92rcd13ifvqcc0","pricing_plan_id":"cebpf4jnsgd1na2vs0mg"},