{"last_updated":1751058546,"ttl":60,"version":"2.2","data":{"bikes":[{"bike_id":"3da29fb8-fc97-44c6-b9ac-31dd456b2fd4","system_id":"levelo_inurba_marseille","lat":43.33771,"lon":5.37424,"is_reserved":false,"is_disabled":true,"rental_uris":{"android":"levelo://app?vid=3da29fb8-fc97-44c6-b9ac-31dd456b2fd4","ios":"levelo://app?vid=3da29fb8-fc97-44c6-b9ac-31dd456b2fd4"},"vehicle_type_id":"4","last_reported":1751058547,"current_range_meters":0,"station_id":"","pricing_plan_id":"cebpf4jnsgd1na2vs0mg"},{"bike_id":"01861ad8-a8d7-4be6-816e-651927c87584","system_id":"levelo_inurba_marseille","lat":43.33751,"lon":5.37456,"is_reserved":false,"is_disabled":true,"rental_uris":{"android":"levelo://app?vid=01861ad8-a8d7-4be6-816e-651927c87584","ios":"levelo://app?vid=01861ad8-a8d7-4be6-816e-651927c87584"},"vehicle_type_id":"4","last_reported":1751058547,"current_range_meters":0,"station_id":"","pricing_plan_id":"cebpf4jnsgd1na2vs0mg"},{"bike_id":"d527aaef-dd77-4d55-8a3e-faf748ebc665","system_id":"levelo_inurba_marseille","lat":43.26077,"lon":5.41749,"is_reserved":false,"is_disabled":true,"rental_uris":{"android":"levelo://app?vid=d527aaef-dd77-4d55-8a3e-faf748ebc665","ios":"levelo://app?vid=d527aaef-dd77-4d55-8a3e-faf748ebc665"},"vehicle_type_id":"4","last_reported":1751058547,"current_range_meters":0,"station_id":"","pricing_plan_id":"cebpf4jnsgd1na2vs0mg"},{"bike_id":"a147e67d-e0b1-425e-bbda-ae9524df353e","system_id":"levelo_inurba_marseille","lat":43.337541,"lon":5.374577,"is_reserved":false,"is_disabled":true,"rental_uris":{"android":"levelo://app?vid=a147e67d-e0b1-425e-bbda-ae9524df353e","ios":"levelo://app?vid=a147e67d-e0b1-425e-bbda-ae9524df353e"},"vehicle_type_id":"4","last_reported":1751058547,"current_range_meters":0,"station_id":"","pricing_plan_id":"cebpf4jnsgd1na2vs0mg"},{"bike_id":"2c5ab5ef-6e3c-47bf-9405-4e96ff645858","system_id":"levelo_inurba_marseille","lat":43.34049,"lon":5.42876,"is_reserved":false,"is_disabled":true,"rental_uris":{"android":"levelo://app?vid=2c5ab5ef-6e3c-47bf-9405-4e96ff645858","ios":"levelo://app?vid=2c5ab5ef-6e3c-47bf-9405-4e96ff645858"},"vehicle_type_id":"4","last_reported":1751058547,"current_range_meters":0,"station_id":"","pricing_plan_id":"cebpf4jnsgd1na2vs0mg"},{"bike_id":"67a5051a-b32e-408a-8389-c22b54eb81f6","system_id":"levelo_inurba_marseille","lat":43.33041,"lon":5.45601,"is_reserved":false,"is_disabled":true,"rental_uris":{"android":"levelo://app?vid=67a5051a-b32e-408a-8389-c22b54eb81f6","ios":"levelo://app?vid=67a5051a-b32e-408a-8389-c22b54eb81f6"},"vehicle_type_id":"4","last_reported":1751058547,"current_range_meters":0,"station_id":"","pricing_plan_id":"cebpf4jnsgd1na2vs0mg"},{"bike_id":"4d064f95-6dcb-4234-9e98-7c70fbb74351","system_id":"levelo_inurba_marseille","lat":43.337444,"lon":5.374475,"is_reserved":false,"is_disabled":true,"rental_uris":{"android":"levelo://app?vid=4d064f95-6dcb-4234-9e98-7c70fbb74351","ios":"levelo://app?vid=4d064f95-6dcb-4234-9e98-7c70fbb74351"},"vehicle_type_id":"4","last_reported":1751058547,"current_range_meters":0,"station_id":"","pricing_plan_id":"cebpf4jnsgd1na2vs0mg"},{"bike_id":"446c66be-a677-44c2-9116-79a23398a824","system_id":"levelo_inurba_marseille","lat":43.276563,"lon":5.431317,"is_reserved":false,"is_disabled":true,"rental_uris":{"android":"levelo://app?vid=446c66be-a677-44c2-9116-79a23398a824","ios":"levelo://app?vid=446c66be-a677-44c2-9116-79a23398a824"},"vehicle_type_id":"4","last_reported":1751058547,"current_range_meters":0,"station_id":"","pricing_plan_id":"cebpf4jnsgd1na2vs0mg"},{"bike_id":"a86d2f9f-83d8-4f17-8422-d08e982c4a2a","system_id":"levelo_inurba_marseille","lat":43.29799,"lon":5.44839,"is_reserved":false,"is_disabled":true,"rental_uris":{"android":"levelo://app?vid=a86d2f9f-83d8-4f17-8422-d08e982c4a2a","ios":"levelo://app?vid=a86d2f9f-83d8-4f17-8422-d08e982c4a2a"},"vehicle_type_id":"4","last_reported":1751058547,"current_range_meters":0,"station_id":"","pricing_plan_id":"cebpf4jnsgd1na2vs0mg"},{"bike_id":"2315c627-494e-41a8-a12f-403d40de57ef","system_id":"levelo_inurba_marseille","lat":43.30126,"lon":5.40332,"is_reserved":false,"is_disabled":true,"rental_uris":{"android":"levelo://app?vid=2315c627-494e-41a8-a12f-403d40de57ef","ios":"levelo://app?vid=2315c627-494e-41a8-a12f-403d40de57ef"},"vehicle_type_id":"4","last_reported":1751058547,"current_range_meters":0,"station_id":"","pricing_plan_id":"cebpf4jnsgd1na2vs0mg"},{"bike_id":"a1ae4fee-cbeb-43dc-a969-5827f87e448d","system_id":"levelo_inurba_marseille","lat":43.38392,"lon":5.36538,"is_reserved":false,"is_disabled":true,"rental_uris":{"android":"levelo://app?vid=a1ae4fee-cbeb-43dc-a969-5827f87e448d","ios":"levelo://app?vid=a1ae4fee-cbeb-43dc-a969-5827f87e448d"},"vehicle_type_id":"4","last_reported":1751058547,"current_range_meters":0,"station_id":"","pricing_plan_id":"cebpf4jnsgd1na2vs0mg"},{"bike_id":"d6609b4f-333b-43c1-9ebe-8726f5e76e88","system_id":"levelo_inurba_marseille","lat":43.337444,"lon":5.374475,"is_reserved":false,"is_disabled":true,"rental_uris":{"android":"levelo://app?vid=d6609b4f-333b-43c1-9ebe-8726f5e76e88","ios":"levelo://app?vid=d6609b4f-333b-43c1-9ebe-8726f5e76e88"},"vehicle_type_id":"4","last_reported":1751058547,"current_range_meters":0,"station_id":"","pricing_plan_id":"cebpf4jnsgd1na2vs0mg"},{"bike_id":"b17b6606-336a-4606-9b65-af139c49de26","system_id":"levelo_inurba_marseille","lat":43.25721,"lon":5.42696,"is_reserved":false,"is_disabled":true,"rental_uris":{"android":"levelo://app?vid=b17b6606-336a-4606-9b65-af139c49de26","ios":"levelo://app?vid=b17b6606-336a-4606-9b65-af139c49de26"},"vehicle_type_id":"4","last_reported":1751058547,"current_range_meters":0,"station_id":"","pricing_plan_id":"cebpf4jnsgd1na2vs0mg"},{"bike_id":"9d3724b1-0dc8-4689-9d6a-55005a9503cb","system_id":"levelo_inurba_marseille","lat":43.28609,"lon":5.42823,"is_reserved":false,"is_disabled":true,"rental_uris":{"android":"levelo://app?vid=9d3724b1-0dc8-4689-9d6a-55005a9503cb","ios":"levelo://app?vid=9d3724b1-0dc8-4689-9d6a-55005a9503cb"},"vehicle_type_id":"4","last_reported":1751058547,"current_range_meters":0,"station_id":"","pricing_plan_id":"cebpf4jnsgd1na2vs0mg"},{"bike_id":"5ab4bfb4-0762-4532-8de0-8294babf9dea","system_id":"levelo_inurba_marseille","lat":43.29611,"lon":5.37725,"is_reserved":false,"is_disabled":true,"rental_uris":{"android":"levelo://app?vid=5ab4bfb4-0762-4532-8de0-8294babf9dea","ios":"levelo://app?vid=5ab4bfb4-0762-4532-8de0-8294babf9dea"},"vehicle_type_id":"4","last_reported":1751058547,"current_range_meters":0,"station_id":"ce4bgi92rcd13ifvqb90","pricing_plan_id":"cebpf4jnsgd1na2vs0mg"},{"bike_id":"745aad6a-5197-47c6-b499-b5dbc0f44a78","system_id":"levelo_inurba_marseille","lat":43.29034,"lon":5.38124,"is_reserved":false,"is_disabled":true,"rental_uris":{"android":"levelo://app?vid=745aad6a-5197-47c6-b499-b5dbc0f44a78","ios":"levelo://app?vid=745aad6a-5197-47c6-b499-b5dbc0f44a78"},"vehicle_type_id":"4","last_reported":1751058547,"current_range_meters":0,"station_id":"ce4bh4p2rcd13ifvqe1g","pricing_plan_id":"cebpf4jnsgd1na2vs0mg"},{"bike_id":"271a5da5-4035-470a-ba7c-aa58268e9930","system_id":"levelo_inurba_marseille","lat":43.21735,"lon":5.34644,"is_reserved":false,"is_disabled":true,"rental_uris":{"android":"levelo://app?vid=271a5da5-4035-470a-ba7c-aa58268e9930","ios":"levelo://app?vid=271a5da5-4035-470a-ba7c-aa58268e9930"},"vehicle_type_id":"4","last_reported":1751058547,"current_range_meters":0,"station_id":"ce4bhgh2rcd13ifvqfb0","pricing_plan_id":"cebpf4jnsgd1na2vs0mg"},{"bike_id":"da1e6884-52a0-4434-90ae-d1cc26673b6f","system_id":"levelo_inurba_marseille","lat":43.26786,"lon":5.39405,"is_reserved":false,"is_disabled":true,"rental_uris":{"android":"levelo://app?vid=da1e6884-52a0-4434-90ae-d1cc26673b6f","ios":"levelo://app?vid=da1e6884-52a0-4434-90ae-d1cc26673b6f"},"vehicle_type_id":"4","last_reported":1751058547,"current_range_meters":0,"station_id":"ce4bhh12rcd13ifvqfg0","pricing_plan_id":"cebpf4jnsgd1na2vs0mg"},{"bike_id":"c84d9c24-9628-4be0-8379-599086d784e7","system_id":"levelo_inurba_marseille","lat":43.317284,"lon":5.423937,"is_reserved":false,"is_disabled":true,"rental_uris":{"android":"levelo://app?vid=c84d9c24-9628-4be0-8379-599086d784e7","ios":"levelo://app?vid=c84d9c24-9628-4be0-8379-599086d784e7"},"vehicle_type_id":"4","last_reported":1751058547,"current_range_meters":0,"station_id":"ce4bhp92rcd13ifvqhbg","pricing_plan_id":"cebpf4jnsgd1na2vs0mg"},{"bike_id":"29ec4185-f87e-45a2-91e6-759a1d934b1c","system_id":"levelo_inurba_marseille","lat":43.21756,"lon":5.3462,"is_reserved":false,"is_disabled":true,"rental_uris":{"android":"levelo://app?vid=29ec4185-f87e-45a2-91e6-759a1d934b1c","ios":"levelo://app?vid=29ec4185-f87e-45a2-91e6-759a1d934b1c"},"vehicle_type_id":"4","last_reported":1751058547,"current_range_meters":0,"station_id":"st_cvj6r9ubvosntc0bgbag","pricing_plan_id":"cebpf4jnsgd1na2vs0mg"},{"bike_id":"116ee576-0cd1-44e0-a139-94ab887d7a93","system_id":"levelo_inurba_marseille","lat":43.29255,"lon":5.40911,"is_reserved":false,"is_disabled":true,"rental_uris":{"android":"levelo://app?vid=116ee576-0cd1-44e0-a139-94ab887d7a93","ios":"levelo://app?vid=116ee576-0cd1-44e0-a139-94ab887d7a93"},"vehicle_type_id":"4","last_reported":1751058547,"current_range_meters":400,"station_id":"ce4bh192rcd13ifvqdc0","pricing_plan_id":"cebpf4jnsgd1na2vs0mg"},{"bike_id":"7ad392d7-adaf-4e14-ad28-5b2be33b9d2d","system_id":"levelo_inurba_marseille","lat":43.30134,"lon":5.38755,"is_reserved":false,"is_disabled":true,"rental_uris":{"android":"levelo://app?vid=7ad392d7-adaf-4e14-ad28-5b2be33b9d2d","ios":"levelo://app?vid=7ad392d7-adaf-4e14-ad28-5b2be33b9d2d"},"vehicle_type_id":"4","last_reported":1751058547,"current_range_meters":800,"station_id":"ce4bghh2rcd13ifvqb60","pricing_plan_id":"cebpf4jnsgd1na2vs0mg"},{"bike_id":"1621b522-7cb1-4b03-8dfd-8b6a858e80e4","system_id":"levelo_inurba_marseille","lat":43.23144,"lon":5.43717,"is_reserved":false,"is_disabled":true,"rental_uris":{"android":"levelo://app?vid=1621b522-7cb1-4b03-8dfd-8b6a858e80e4","ios":"levelo://app?vid=1621b522-7cb1-4b03-8dfd-8b6a858e80e4"},"vehicle_type_id":"4","last_reported":1751058547,"current_range_meters":800,"station_id":"ce4bhmp2rcd13ifvqgog","pricing_plan_id":"cebpf4jnsgd1na2vs0mg"},{"bike_id":"6b044504-606b-4f8b-959e-3ac79d92c707","system_id":"levelo_inurba_marseille","lat":43.26765,"lon":5.40304,"is_reserved":false,"is_disabled":true,"rental_uris":{"android":"levelo://app?vid=6b044504-606b-4f8b-959e-3ac79d92c707","ios":"levelo://app?vid=6b044504-606b-4f8b-959e-3ac79d92c707"},"vehicle_type_id":"4","last_reported":1751058547,"current_range_meters":800,"station_id":"ce501612rcd8frsf0b60","pricing_plan_id":"cebpf4jnsgd1na2vs0mg"},{"bike_id":"f7458c08-0016-4c0a-87ab-e5383230060b","system_id":"levelo_inurba_marseille","lat":43.2804,"lon":5.35649,"is_reserved":false,"is_disabled":true,"rental_uris":{"android":"levelo://app?vid=f7458c08-0016-4c0a-87ab-e5383230060b","ios":"levelo://app?vid=f7458c08-0016-4c0a-87ab-e5383230060b"},"vehicle_type_id":"4","last_reported":1751058547,"current_range_meters":1200,"station_id":"","pricing_plan_id":"cebpf4jnsgd1na2vs0mg"},{"bike_id":"3e5d0ae7-bac3-40ea-95d2-50ef1aae7bc7","system_id":"levelo_inurba_marseille","lat":43.26836,"lon":5.41591,"is_reserved":false,"is_disabled":true,"rental_uris":{"android":"levelo://app?vid=3e5d0ae7-bac3-40ea-95d2-50ef1aae7bc7","ios":"levelo://app?vid=3e5d0ae7-bac3-40ea-95d2-50ef1aae7bc7"},"vehicle_type_id":"4","last_reported":1751058547,"current_range_meters":1200,"station_id":"","pricing_plan_id":"cebpf4jnsgd1na2vs0mg"},{"bike_id":"fbab1601-e584-4b82-a30c-69a2ed7fa1a5","system_id":"levelo_inurba_marseille","lat":43.29835,"lon":5.36292,"is_reserved":false,"is_disabled":true,"rental_uris":{"android":"levelo://app?vid=fbab1601-e584-4b82-a30c-69a2ed7fa1a5","ios":"levelo://app?vid=fbab1601-e584-4b82-a30c-69a2ed7fa1a5"},"vehicle_type_id":"4","last_reported":1751058547,"current_range_meters":1200,"station_id":"ce4bgpp2rcd13ifvqc3g","pricing_plan_id":"cebpf4jnsgd1na2vs0mg"},{"bike_id":"59bc2580-03b1-406f-a24a-bb6f300b97e1","system_id":"levelo_inurba_marseille","lat":43.30536,"lon":5.365535,"is_reserved":false,"is_disabled":true,"rental_uris":{"android":"levelo://app?vid=59bc2580-03b1-406f-a24a-bb6f300b97e1","ios":"levelo://app?vid=59bc2580-03b1-406f-a24a-bb6f300b97e1"},"vehicle_type_id":"4","last_reported":1751058547,"current_range_meters":2000,"station_id":"ce4bgs12rcd13ifvqcag","pricing_plan_id":"cebpf4jnsgd1na2vs0mg"},{"bike_id":"f58acfab-3581-478d-a4ac-f89540502c74","system_id":"levelo_inurba_marseille","lat":43.31116,"lon":5.37771,"is_reserved":false,"is_disabled":true,"rental_uris":{"android":"levelo://app?vid=f58acfab-3581-478d-a4ac-f89540502c74","ios":"levelo://app?vid=f58acfab-3581-478d-a4ac-f89540502c74"},"vehicle_type_id":"4","last_reported":1751058547,"current_range_meters":2000,"station_id":"ce4bgt92rcd13ifvqcg0","pricing_plan_id":"cebpf4jnsgd1na2vs0mg"},{"bike_id":"9ce852fe-9449-4c16-b29b-642a7abdbbbf","system_id":"levelo_inurba_marseille","lat":43.27403,"lon":5.36179,"is_reserved":false,"is_disabled":false,"rental_uris":{"android":"levelo://app?vid=9ce852fe-9449-4c16-b29b-642a7abdbbbf","ios":"levelo://app?vid=9ce852fe-9449-4c16-b29b-642a7abdbbbf"},"vehicle_type_id":"4","last_reported":1751058547,"current_range_meters":3200,"station_id":"","pricing_plan_id":"cebpf4jnsgd1na2vs0mg"},{"bike_id":"7c540d15-e78b-4971-8b34-16d2b069c7bc","system_id":"levelo_inurba_marseille","lat":43.26788,"lon":5.4133,"is_reserved":false,"is_disabled":false,"rental_uris":{"android":"levelo://app?vid=7c540d15-e78b-4971-8b34-16d2b069c7bc","ios":"levelo://app?vid=7c540d15-e78b-4971-8b34-16d2b069c7bc"},"vehicle_type_id":"4","last_reported":1751058547,"current_range_meters":3200,"station_id":"","pricing_plan_id":"cebpf4jnsgd1na2vs0mg"},{"bike_id":"7c539d14-7aaf-40ce-80a2-07d9601c9274","system_id":"levelo_inurba_marseille","lat":43.28071,"lon":5.39645,"is_reserved":false,"is_disabled":false,"rental_uris":{"android":"levelo://app?vid=7c539d14-7aaf-40ce-80a2-07d9601c9274","ios":"levelo://app?vid=7c539d14-7aaf-40ce-80a2-07d9601c9274"},"vehicle_type_id":"4","last_reported":1751058547,"current_range_meters":3200,"station_id":"ce4bho12rcd13ifvqh2g","pricing_plan_id":"cebpf4jnsgd1na2vs0mg"},{"bike_id":"0368570b-9152-4cb6-adbe-926572777e8c","system_id":"levelo_inurba_marseille","lat":43.2319,"lon":5.35557,"is_reserved":false,"is_disabled":false,"rental_uris":{"android":"levelo://app?vid=0368570b-9152-4cb6-adbe-926572777e8c","ios":"levelo://app?vid=0368570b-9152-4cb6-adbe-926572777e8c"},"vehicle_type_id":"4","last_reported":1751058547,"current_range_meters":3600,"station_id":"ce4bhu92rcd13ifvqi70","pricing_plan_id":"cebpf4jnsgd1na2vs0mg"},{"bike_id":"38b9baab-55a6-47a8-9b80-132ad5d1a3db","system_id":"levelo_inurba_marseille","lat":43.30138,"lon":5.38782,"is_reserved":false,"is_disabled":false,"rental_uris":{"android":"levelo://app?vid=38b9baab-55a6-47a8-9b80-132ad5d1a3db","ios":"levelo://app?vid=38b9baab-55a6-47a8-9b80-132ad5d1a3db"},"vehicle_type_id":"4","last_reported":1751058547,"current_range_meters":4000,"station_id":"ce4bghh2rcd13ifvqb60","pricing_plan_id":"cebpf4jnsgd1na2vs0mg"},{"bike_id":"3e6dd080-553b-4247-9e15-d60a5dad0290","system_id":"levelo_inurba_marseille","lat":43.30455,"lon":5.37906,"is_reserved":false,"is_disabled":false,"rental_uris":{"android":"levelo://app?vid=3e6dd080-553b-4247-9e15-d60a5dad0290","ios":"levelo://app?vid=3e6dd080-553b-4247-9e15-d60a5dad0290"},"vehicle_type_id":"4","last_reported":1751058547,"current_range_meters":4000,"station_id":"ce4bgup2rcd13ifvqcn0","pricing_plan_id":"cebpf4jnsgd1na2vs0mg"},{"bike_id":"28d22f08-512b-4ba4-84f1-b3f74b6e4bfb","system_id":"levelo_inurba_marseille","lat":43.2996,"lon":5.38496,"is_reserved":false,"is_disabled":false,"rental_uris":{"android":"levelo://app?vid=28d22f08-512b-4ba4-84f1-b3f74b6e4bfb","ios":"levelo://app?vid=28d22f08-512b-4ba4-84f1-b3f74b6e4bfb"},"vehicle_type_id":"4","last_reported":1751058547,"current_range_meters":4400,"station_id":"ce4bgj92rcd13ifvqbd0","pricing_plan_id":"cebpf4jnsgd1na2vs0mg"},{"bike_id":"8945dbcc-c83f-4d67-b09e-524d8b1ca93d","system_id":"levelo_inurba_marseille","lat":43.29971,"lon":5.38507,"is_reserved":false,"is_disabled":false,"rental_uris":{"android":"levelo://app?vid=8945dbcc-c83f-4d67-b09e-524d8b1ca93d","ios":"levelo://app?vid=8945dbcc-c83f-4d67-b09e-524d8b1ca93d"},"vehicle_type_id":"4","last_reported":1751058547,"current_range_meters":4800,"station_id":"ce4bgj92rcd13ifvqbd0","pricing_plan_id":"cebpf4jnsgd1na2vs0mg"},{"bike_id":"898c244d-4a29-40ec-877f-9bed928c1d19","system_id":"levelo_inurba_marseille","lat":43.28917,"lon":5.36648,"is_reserved":false,"is_disabled":false,"rental_uris":{"android":"levelo://app?vid=898c244d-4a29-40ec-877f-9bed928c1d19","ios":"levelo://app?vid=898c244d-4a29-40ec-877f-9bed928c1d19"},"vehicle_type_id":"4","last_reported":1751058547,"current_range_meters":4800,"station_id":"ce4bhap2rcd13ifvqek0","pricing_plan_id":"cebpf4jnsgd1na2vs0mg"},{"bike_id":"1f1e218d-b9ef-4eed-b055-b762a9e99884","system_id":"levelo_inurba_marseille","lat":43.289813,"lon":5.366215,"is_reserved":false,"is_disabled":false,"rental_uris":{"android":"levelo://app?vid=1f1e218d-b9ef-4eed-b055-b762a9e99884","ios":"levelo://app?vid=1f1e218d-b9ef-4eed-b055-b762a9e99884"},"vehicle_type_id":"4","last_reported":1751058547,"current_range_meters":4800,"station_id":"ce4bhap2rcd13ifvqek0","pricing_plan_id":"cebpf4jnsgd1na2vs0mg"},{"bike_id":"f47876d7-9c85-474e-92c5-7a242e08b67c","system_id":"levelo_inurba_marseille","lat":43.30554,"lon":5.37559,"is_reserved":false,"is_disabled":false,"rental_uris":{"android":"levelo://app?vid=f47876d7-9c85-474e-92c5-7a242e08b67c","ios":"levelo://app?vid=f47876d7-9c85-474e-92c5-7a242e08b67c"},"vehicle_type_id":"4","last_reported":1751058547,"current_range_meters":6000,"station_id":"","pricing_plan_id":"cebpf4jnsgd1na2vs0mg"},{"bike_id":"f64e035b-db0b-4657-8a15-2ae31c1ea0bf","system_id":"levelo_inurba_marseille","lat":43.286098,"lon":5.384867,"is_reserved":false,"is_disabled":false,"rental_uris":{"android":"levelo://app?vid=f64e035b-db0b-4657-8a15-2ae31c1ea0bf","ios":"levelo://app?vid=f64e035b-db0b-4657-8a15-2ae31c1ea0bf"},"vehicle_type_id":"4","last_reported":1751058547,"current_range_meters":6000,"station_id":"","pricing_plan_id":"cebpf4jnsgd1na2vs0mg"},{"bike_id":"68ff3656-c95f-4ee0-9dcb-aaae2daa76f0","system_id":"levelo_inurba_marseille","lat":43.28495,"lon":5.38424,"is_reserved":false,"is_disabled":false,"rental_uris":{"android":"levelo://app?vid=68ff3656-c95f-4ee0-9dcb-aaae2daa76f0","ios":"levelo://app?vid=68ff3656-c95f-4ee0-9dcb-aaae2daa76f0"},"vehicle_type_id":"4","last_reported":1751058547,"current_range_meters":6400,"station_id":"ce4bh512rcd13ifvqe3g","pricing_plan_id":"cebpf4jnsgd1na2vs0mg"},{"bike_id":"79a3f5ac-308c-4d25-be34-b3a7a9cbf034","system_id":"levelo_inurba_marseille","lat":43.23191,"lon":5.39989,"is_reserved":false,"is_disabled":false,"rental_uris":{"android":"levelo://app?vid=79a3f5ac-308c-4d25-be34-b3a7a9cbf034","ios":"levelo://app?vid=79a3f5ac-308c-4d25-be34-b3a7a9cbf034"},"vehicle_type_id":"4","last_reported":1751058547,"current_range_meters":6400,"station_id":"ce4bhn12rcd13ifvqgqg","pricing_plan_id":"cebpf4jnsgd1na2vs0mg"},{"bike_id":"fe1343c2-ce3f-4756-b972-03cb0a42519d","system_id":"levelo_inurba_marseille","lat":43.29551,"lon":5.42278,"is_reserved":false,"is_disabled":false,"rental_uris":{"android":"levelo://app?vid=fe1343c2-ce3f-4756-b972-03cb0a42519d","ios":"levelo://app?vid=fe1343c2-ce3f-4756-b972-03cb0a42519d"},"vehicle_type_id":"4","last_reported":1751058547,"current_range_meters":6400,"station_id":"ce4bhph2rcd13ifvqhdg","pricing_plan_id":"cebpf4jnsgd1na2vs0mg"},{"bike_id":"94e84186-d780-461a-b647-8d1cf3f036ad","system_id":"levelo_inurba_marseille","lat":43.31694,"lon":5.37807,"is_reserved":false,"is_disabled":false,"rental_uris":{"android":"levelo://app?vid=94e84186-d780-461a-b647-8d1cf3f036ad","ios":"levelo://app?vid=94e84186-d780-461a-b647-8d1cf3f036ad"},"vehicle_type_id":"4","last_reported":1751058547,"current_range_meters":6800,"station_id":"","pricing_plan_id":"cebpf4jnsgd1na2vs0mg"},{"bike_id":"929b7b04-ef36-4dbe-b731-1b248f023971","system_id":"levelo_inurba_marseille","lat":43.29783,"lon":5.38104,"is_reserved":false,"is_disabled":false,"rental_uris":{"android":"levelo://app?vid=929b7b04-ef36-4dbe-b731-1b248f023971","ios":"levelo://app?vid=929b7b04-ef36-4dbe-b731-1b248f023971"},"vehicle_type_id":"4","last_reported":1751058547,"current_range_meters":6800,"station_id":"ce4bgip2rcd13ifvqbb0","pricing_plan_id":"cebpf4jnsgd1na2vs0mg"},{"bike_id":"f883a117-31c4-4a88-b470-a52111befaca","system_id":"levelo_inurba_marseille","lat":43.31167,"lon":5.38719,"is_reserved":false,"is_disabled":false,"rental_uris":{"android":"levelo://app?vid=f883a117-31c4-4a88-b470-a52111befaca","ios":"levelo://app?vid=f883a117-31c4-4a88-b470-a52111befaca"},"vehicle_type_id":"4","last_reported":1751058547,"current_range_meters":6800,"station_id":"ce4bgv12rcd13ifvqcp0","pricing_plan_id":"cebpf4jnsgd1na2vs0mg"},{"bike_id":"a7923f1e-f8d3-44c1-8395-b7a9173bd097","system_id":"levelo_inurba_marseille","lat":43.29262,"lon":5.4091,"is_reserved":false,"is_disabled":false,"rental_uris":{"android":"levelo://app?vid=a7923f1e-f8d3-44c1-8395-b7a9173bd097","ios":"levelo://app?vid=a7923f1e-f8d3-44c1-8395-b7a9173bd097"},"vehicle_type_id":"4","last_reported":1751058547,"current_range_meters":6800,"station_id":"ce4bh192rcd13ifvqdc0","pricing_plan_id":"cebpf4jnsgd1na2vs0mg"},{"bike_id":"a59c1274-f953-4c25-8acd-c10ee0f002c8","system_id":"levelo_inurba_marseille","lat":43.231705,"lon":5.399665,"is_reserved":false,"is_disabled":false,"rental_uris":{"android":"levelo://app?vid=a59c1274-f953-4c25-8acd-c10ee0f002c8","ios":"levelo://app?vid=a59c1274-f953-4c25-8acd-c10ee0f002c8"},"vehicle_type_id":"4","last_reported":1751058547,"current_range_meters":6800,"station_id":"ce4bhn12rcd13ifvqgqg","pricing_plan_id":"cebpf4jnsgd1na2vs0mg"},{"bike_id":"946fd198-e3d2-48d4-b965-74b0e9e46145","system_id":"levelo_inurba_marseille","lat":43.29525,"lon":5.39034,"is_reserved":false,"is_disabled":false,"rental_uris":{"android":"levelo://app?vid=946fd198-e3d2-48d4-b965-74b0e9e46145","ios":"levelo://app?vid=946fd198-e3d2-48d4-b965-74b0e9e46145"},"vehicle_type_id":"4","last_reported":1751058547,"current_range_meters":7200,"station_id":"ce4bh3p2rcd13ifvqdp0","pricing_plan_id":"cebpf4jnsgd1na2vs0mg"},{"bike_id":"447a5c07-2605-49a1-ab80-decdc56f8c4f","system_id":"levelo_inurba_marseille","lat":43.27954,"lon":5.35323,"is_reserved":false,"is_disabled":false,"rental_uris":{"android":"levelo://app?vid=447a5c07-2605-49a1-ab80-decdc56f8c4f","ios":"levelo://app?vid=447a5c07-2605-49a1-ab80-decdc56f8c4f"},"vehicle_type_id":"4","last_reported":1751058547,"current_range_meters":8000,"station_id":"","pricing_plan_id":"cebpf4jnsgd1na2vs0mg"},{"bike_id":"ed1442d3-618e-4e1a-bd98-6f160e562bdf","system_id":"levelo_inurba_marseille","lat":43.31325,"lon":5.39693,"is_reserved":false,"is_disabled":false,"rental_uris":{"android":"levelo://app?vid=ed1442d3-618e-4e1a-bd98-6f160e562bdf","ios":"levelo://app?vid=ed1442d3-618e-4e1a-bd98-6f160e562bdf"},"vehicle_type_id":"4","last_reported":1751058547,"current_range_meters":8000,"station_id":"ce4bgvp2rcd13ifvqcu0","pricing_plan_id":"cebpf4jnsgd1na2vs0mg"},{"bike_id":"b2cdb4f4-0f91-48b5-9b0d-3181368bad03","system_id":"levelo_inurba_marseille","lat":43.29415,"lon":5.38627,"is_reserved":false,"is_disabled":false,"rental_uris":{"android":"levelo://app?vid=b2cdb4f4-0f91-48b5-9b0d-3181368bad03","ios":"levelo://app?vid=b2cdb4f4-0f91-48b5-9b0d-3181368bad03"},"vehicle_type_id":"4","last_reported":1751058547,"current_range_meters":8000,"station_id":"ce4bh2h2rcd13ifvqdh0","pricing_plan_id":"cebpf4jnsgd1na2vs0mg"},{"bike_id":"3a7a1b80-a358-41c2-97a2-ea649c55b30c","system_id":"levelo_inurba_marseille","lat":43.28491,"lon":5.385735,"is_reserved":false,"is_disabled":false,"rental_uris":{"android":"levelo://app?vid=3a7a1b80-a358-41c2-97a2-ea649c55b30c","ios":"levelo://app?vid=3a7a1b80-a358-41c2-97a2-ea649c55b30c"},"vehicle_type_id":"4","last_reported":1751058547,"current_range_meters":8000,"station_id":"ce4bh8p2rcd13ifvqeb0","pricing_plan_id":"cebpf4jnsgd1na2vs0mg"},{"bike_id":"40e3edc0-3f7f-4337-9abe-4c43118636ec","system_id":"levelo_inurba_marseille","lat":43.32641,"lon":5.41006,"is_reserved":false,"is_disabled":false,"rental_uris":{"android":"levelo://app?vid=40e3edc0-3f7f-4337-9abe-4c43118636ec","ios":"levelo://app?vid=40e3edc0-3f7f-4337-9abe-4c43118636ec"},"vehicle_type_id":"4","last_reported":1751058547,"current_range_meters":8000,"station_id":"ce4bhpp2rcd13ifvqhgg","pricing_plan_id":"cebpf4jnsgd1na2vs0mg"},{"bike_id":"73a03650-973e-42b0-bad4-545481e15f73","system_id":"levelo_inurba_marseille","lat":43.31245,"lon":5.39037,"is_reserved":false,"is_disabled":false,"rental_uris":{"android":"levelo://app?vid=73a03650-973e-42b0-bad4-545481e15f73","ios":"levelo://app?vid=73a03650-973e-42b0-bad4-545481e15f73"},"vehicle_type_id":"4","last_reported":1751058547,"current_range_meters":8400,"station_id":"","pricing_plan_id":"cebpf4jnsgd1na2vs0mg"},{"bike_id":"f8db18fc-bd17-4e1d-9b7a-eb28f2240ef2","system_id":"levelo_inurba_marseille","lat":43.29789,"lon":5.38085,"is_reserved":false,"is_disabled":false,"rental_uris":{"android":"levelo://app?vid=f8db18fc-bd17-4e1d-9b7a-eb28f2240ef2","ios":"levelo://app?vid=f8db18fc-bd17-4e1d-9b7a-eb28f2240ef2"},"vehicle_type_id":"4","last_reported":1751058547,"current_range_meters":8400,"station_id":"ce4bgip2rcd13ifvqbb0","pricing_plan_id":"cebpf4jnsgd1na2vs0mg"},{"bike_id":"38fdaa3f-458e-48d1-99fb-9f194c089b43","system_id":"levelo_inurba_marseille","lat":43.29026,"lon":5.38651,"is_reserved":false,"is_disabled":false,"rental_uris":{"android":"levelo://app?vid=38fdaa3f-458e-48d1-99fb-9f194c089b43","ios":"levelo://app?vid=38fdaa3f-458e-48d1-99fb-9f194c089b43"},"vehicle_type_id":"4","last_reported":1751058547,"current_range_meters":8400,"station_id":"ce4bh4p2rcd13ifvqe0g","pricing_plan_id":"cebpf4jnsgd1na2vs0mg"},{"bike_id":"cd9a5ecb-cdfb-4665-b028-107f45b245c0","system_id":"levelo_inurba_marseille","lat":43.291,"lon":5.3814,"is_reserved":false,"is_disabled":false,"rental_uris":{"android":"levelo://app?vid=cd9a5ecb-cdfb-4665-b028-107f45b245c0","ios":"levelo://app?vid=cd9a5ecb-cdfb-4665-b028-107f45b245c0"},"vehicle_type_id":"4","last_reported":1751058547,"current_range_meters":8400,"station_id":"ce4bh512rcd13ifvqe2g","pricing_plan_id":"cebpf4jnsgd1na2vs0mg"},{"bike_id":"f7fb9dc3-742c-4495-9f09-8711ad5c693d","system_id":"levelo_inurba_marseille","lat":43.28441,"lon":5.39202,"is_reserved":false,"is_disabled":false,"rental_uris":{"android":"levelo://app?vid=f7fb9dc3-742c-4495-9f09-8711ad5c693d","ios":"levelo://app?vid=f7fb9dc3-742c-4495-9f09-8711ad5c693d"},"vehicle_type_id":"4","last_reported":1751058547,"current_range_meters":8400,"station_id":"ce4bhoh2rcd13ifvqh5g","pricing_plan_id":"cebpf4jnsgd1na2vs0mg"},{"bike_id":"4b8da722-ee9e-48a4-a5e5-3a8a10364708","system_id":"levelo_inurba_marseille","lat":43.3123,"lon":5.37822,"is_reserved":false,"is_disabled":false,"rental_uris":{"android":"levelo://app?vid=4b8da722-ee9e-48a4-a5e5-3a8a10364708","ios":"levelo://app?vid=4b8da722-ee9e-48a4-a5e5-3a8a10364708"},"vehicle_type_id":"4","last_reported":1751058547,"current_range_meters":8800,"station_id":"","pricing_plan_id":"cebpf4jnsgd1na2vs0mg"},{"bike_id":"6aad43d7-1ece-4c7a-a90f-ea24a33b2ef8","system_id":"levelo_inurba_marseille","lat":43.30322,"lon":5.40438,"is_reserved":false,"is_disabled":false,"rental_uris":{"android":"levelo://app?vid=6aad43d7-1ece-4c7a-a90f-ea24a33b2ef8","ios":"levelo://app?vid=6aad43d7-1ece-4c7a-a90f-ea24a33b2ef8"},"vehicle_type_id":"4","last_reported":1751058547,"current_range_meters":8800,"station_id":"ce4bh012rcd13ifvqd10","pricing_plan_id":"cebpf4jnsgd1na2vs0mg"},{"bike_id":"1cb0f40e-8399-420e-8f55-db0c401cb3ee","system_id":"levelo_inurba_marseille","lat":43.29796,"lon":5.40403,"is_reserved":false,"is_disabled":false,"rental_uris":{"android":"levelo://app?vid=1cb0f40e-8399-420e-8f55-db0c401cb3ee","ios":"levelo://app?vid=1cb0f40e-8399-420e-8f55-db0c401cb3ee"},"vehicle_type_id":"4","last_reported":1751058547,"current_range_meters":8800,"station_id":"ce4bh112rcd13ifvqd90","pricing_plan_id":"cebpf4jnsgd1na2vs0mg"},{"bike_id":"a20d17a3-df4a-4fa5-9dbf-58476d464160","system_id":"levelo_inurba_marseille","lat":43.28671,"lon":5.38676,"is_reserved":false,"is_disabled":false,"rental_uris":{"android":"levelo://app?vid=a20d17a3-df4a-4fa5-9dbf-58476d464160","ios":"levelo://app?vid=a20d17a3-df4a-4fa5-9dbf-58476d464160"},"vehicle_type_id":"4","last_reported":1751058547,"current_range_meters":8800,"station_id":"ce4bh492rcd13ifvqdug","pricing_plan_id":"cebpf4jnsgd1na2vs0mg"},{"bike_id":"3d91dc7e-aa9d-46a6-9eb3-0c1804d0c3c4","system_id":"levelo_inurba_marseille","lat":43.29159,"lon":5.37163,"is_reserved":false,"is_disabled":false,"rental_uris":{"android":"levelo://app?vid=3d91dc7e-aa9d-46a6-9eb3-0c1804d0c3c4","ios":"levelo://app?vid=3d91dc7e-aa9d-46a6-9eb3-0c1804d0c3c4"},"vehicle_type_id":"4","last_reported":1751058547,"current_range_meters":8800,"station_id":"ce4bha92rcd13ifvqeh0","pricing_plan_id":"cebpf4jnsgd1na2vs0mg"},{"bike_id":"90b4d2ae-47a1-4744-8917-1491a5e2aea3","system_id":"levelo_inurba_marseille","lat":43.28752,"lon":5.44873,"is_reserved":false,"is_disabled":false,"rental_uris":{"android":"levelo://app?vid=90b4d2ae-47a1-4744-8917-1491a5e2aea3","ios":"levelo://app?vid=90b4d2ae-47a1-4744-8917-1491a5e2aea3"},"vehicle_type_id":"4","last_reported":1751058547,"current_range_meters":9200,"station_id":"","pricing_plan_id":"cebpf4jnsgd1na2vs0mg"},{"bike_id":"553e70ee-1cb5-47e1-986c-30a7286aff5b","system_id":"levelo_inurba_marseille","lat":43.29528,"lon":5.38538,"is_reserved":false,"is_disabled":false,"rental_uris":{"android":"levelo://app?vid=553e70ee-1cb5-47e1-986c-30a7286aff5b","ios":"levelo://app?vid=553e70ee-1cb5-47e1-986c-30a7286aff5b"},"vehicle_type_id":"4","last_reported":1751058547,"current_range_meters":9200,"station_id":"ce4bgih2rcd13ifvqba0","pricing_plan_id":"cebpf4jnsgd1na2vs0mg"},{"bike_id":"1f349563-9ab7-4873-b8dd-cf7431ceb2fd","system_id":"levelo_inurba_marseille","lat":43.30317,"lon":5.40438,"is_reserved":false,"is_disabled":false,"rental_uris":{"android":"levelo://app?vid=1f349563-9ab7-4873-b8dd-cf7431ceb2fd","ios":"levelo://app?vid=1f349563-9ab7-4873-b8dd-cf7431ceb2fd"},"vehicle_type_id":"4","last_reported":1751058547,"current_range_meters":9200,"station_id":"ce4bh012rcd13ifvqd10","pricing_plan_id":"cebpf4jnsgd1na2vs0mg"},{"bike_id":"4bc57688-a337-4037-b805-39ddd9379c4c","system_id":"levelo_inurba_marseille","lat":43.29278,"lon":5.36843,"is_reserved":false,"is_disabled":false,"rental_uris":{"android":"levelo://app?vid=4bc57688-a337-4037-b805-39ddd9379c4c","ios":"levelo://app?vid=4bc57688-a337-4037-b805-39ddd9379c4c"},"vehicle_type_id":"4","last_reported":1751058547,"current_range_meters":9200,"station_id":"ce4bhbp2rcd13ifvqesg","pricing_plan_id":"cebpf4jnsgd1na2vs0mg"},{"bike_id":"51c2bb9c-c6b3-43e0-8bf5-38d137059d30","system_id":"levelo_inurba_marseille","lat":43.32254,"lon":5.383,"is_reserved":false,"is_disabled":false,"rental_uris":{"android":"levelo://app?vid=51c2bb9c-c6b3-43e0-8bf5-38d137059d30","ios":"levelo://app?vid=51c2bb9c-c6b3-43e0-8bf5-38d137059d30"},"vehicle_type_id":"4","last_reported":1751058547,"current_range_meters":9200,"station_id":"ce4bhr12rcd13ifvqhqg","pricing_plan_id":"cebpf4jnsgd1na2vs0mg"},{"bike_id":"b7d0d8a1-c5dd-4278-8b3b-f5786872fe32","system_id":"levelo_inurba_marseille","lat":43.321132,"lon":5.367628,"is_reserved":false,"is_disabled":false,"rental_uris":{"android":"levelo://app?vid=b7d0d8a1-c5dd-4278-8b3b-f5786872fe32","ios":"levelo://app?vid=b7d0d8a1-c5dd-4278-8b3b-f5786872fe32"},"vehicle_type_id":"4","last_reported":1751058547,"current_range_meters":9200,"station_id":"ce4bhrh2rcd13ifvqhug","pricing_plan_id":"cebpf4jnsgd1na2vs0mg"},{"bike_id":"13b4c271-3888-4bff-b36d-fe690c247f7a","system_id":"levelo_inurba_marseille","lat":43.28714,"lon":5.36077,"is_reserved":false,"is_disabled":false,"rental_uris":{"android":"levelo://app?vid=13b4c271-3888-4bff-b36d-fe690c247f7a","ios":"levelo://app?vid=13b4c271-3888-4bff-b36d-fe690c247f7a"},"vehicle_type_id":"4","last_reported":1751058547,"current_range_meters":9200,"station_id":"cki0cbj6b192h4jlfktg","pricing_plan_id":"cebpf4jnsgd1na2vs0mg"},{"bike_id":"16b45c25-add7-455c-b7bf-172ccfadcd9d","system_id":"levelo_inurba_marseille","lat":43.2836,"lon":5.43256,"is_reserved":false,"is_disabled":false,"rental_uris":{"android":"levelo://app?vid=16b45c25-add7-455c-b7bf-172ccfadcd9d","ios":"levelo://app?vid=16b45c25-add7-455c-b7bf-172ccfadcd9d"},"vehicle_type_id":"4","last_reported":1751058547,"current_range_meters":9600,"station_id":"","pricing_plan_id":"cebpf4jnsgd1na2vs0mg"},{"bike_id":"f646b5b8-1af3-4305-ae41-2d01e3cdd1fb","system_id":"levelo_inurba_marseille","lat":43.301726,"lon":5.366135,"is_reserved":false,"is_disabled":false,"rental_uris":{"android":"levelo://app?vid=f646b5b8-1af3-4305-ae41-2d01e3cdd1fb","ios":"levelo://app?vid=f646b5b8-1af3-4305-ae41-2d01e3cdd1fb"},"vehicle_type_id":"4","last_reported":1751058547,"current_range_meters":9600,"station_id":"ce4bgrh2rcd13ifvqc8g","pricing_plan_id":"cebpf4jnsgd1na2vs0mg"},{"bike_id":"d93518a7-acea-49d1-8b1d-66917831e25a","system_id":"levelo_inurba_marseille","lat":43.28384,"lon":5.39522,"is_reserved":false,"is_disabled":false,"rental_uris":{"android":"levelo://app?vid=d93518a7-acea-49d1-8b1d-66917831e25a","ios":"levelo://app?vid=d93518a7-acea-49d1-8b1d-66917831e25a"},"vehicle_type_id":"4","last_reported":1751058547,"current_range_meters":10000,"station_id":"","pricing_plan_id":"cebpf4jnsgd1na2vs0mg"},{"bike_id":"93b61f9e-bea6-468a-b458-f980db556b39","system_id":"levelo_inurba_marseille","lat":43.2941,"lon":5.38624,"is_reserved":false,"is_disabled":false,"rental_uris":{"android":"levelo://app?vid=93b61f9e-bea6-468a-b458-f980db556b39","ios":"levelo://app?vid=93b61f9e-bea6-468a-b458-f980db556b39"},"vehicle_type_id":"4","last_reported":1751058547,"current_range_meters":10000,"station_id":"ce4bh2h2rcd13ifvqdh0","pricing_plan_id":"cebpf4jnsgd1na2vs0mg"},{"bike_id":"9e6e35af-b84e-47f2-b4d4-7404ec83bff1","system_id":"levelo_inurba_marseille","lat":43.283447,"lon":5.381027,"is_reserved":false,"is_disabled":false,"rental_uris":{"android":"levelo://app?vid=9e6e35af-b84e-47f2-b4d4-7404ec83bff1","ios":"levelo://app?vid=9e6e35af-b84e-47f2-b4d4-7404ec83bff1"},"vehicle_type_id":"4","last_reported":1751058547,"current_range_meters":10000,"station_id":"ce4bh412rcd13ifvqdr0","pricing_plan_id":"cebpf4jnsgd1na2vs0mg"},{"bike_id":"60b9f072-8261-43a3-abfa-f826862cb5d6","system_id":"levelo_inurba_marseille","lat":43.28693,"lon":5.39983,"is_reserved":false,"is_disabled":false,"rental_uris":{"android":"levelo://app?vid=60b9f072-8261-43a3-abfa-f826862cb5d6","ios":"levelo://app?vid=60b9f072-8261-43a3-abfa-f826862cb5d6"},"vehicle_type_id":"4","last_reported":1751058547,"current_range_meters":10000,"station_id":"ce4bho92rcd13ifvqh3g","pricing_plan_id":"cebpf4jnsgd1na2vs0mg"},{"bike_id":"a440f2f6-8cf8-4348-9ba1-e21002a18a07","system_id":"levelo_inurba_marseille","lat":43.32106,"lon":5.36764,"is_reserved":false,"is_disabled":false,"rental_uris":{"android":"levelo://app?vid=a440f2f6-8cf8-4348-9ba1-e21002a18a07","ios":"levelo://app?vid=a440f2f6-8cf8-4348-9ba1-e21002a18a07"},"vehicle_type_id":"4","last_reported":1751058547,"current_range_meters":10000,"station_id":"ce4bhrh2rcd13ifvqhug","pricing_plan_id":"cebpf4jnsgd1na2vs0mg"},{"bike_id":"475fa892-8b23-49ef-b498-8d808729a270","system_id":"levelo_inurba_marseille","lat":43.30599,"lon":5.37227,"is_reserved":false,"is_disabled":false,"rental_uris":{"android":"levelo://app?vid=475fa892-8b23-49ef-b498-8d808729a270","ios":"levelo://app?vid=475fa892-8b23-49ef-b498-8d808729a270"},"vehicle_type_id":"4","last_reported":1751058547,"current_range_meters":10800,"station_id":"ce4bgqh2rcd13ifvqc4g","pricing_plan_id":"cebpf4jnsgd1na2vs0mg"},{"bike_id":"9f002d48-329f-4b34-a392-0814ac59b560","system_id":"levelo_inurba_marseille","lat":43.30931,"lon":5.40113,"is_reserved":false,"is_disabled":false,"rental_uris":{"android":"levelo://app?vid=9f002d48-329f-4b34-a392-0814ac59b560","ios":"levelo://app?vid=9f002d48-329f-4b34-a392-0814ac59b560"},"vehicle_type_id":"4","last_reported":1751058547,"current_range_meters":10800,"station_id":"ce4bgvp2rcd13ifvqct0","pricing_plan_id":"cebpf4jnsgd1na2vs0mg"},{"bike_id":"3415a831-e4af-49fe-8443-f094ee83c44f","system_id":"levelo_inurba_marseille","lat":43.30317,"lon":5.40447,"is_reserved":false,"is_disabled":false,"rental_uris":{"android":"levelo://app?vid=3415a831-e4af-49fe-8443-f094ee83c44f","ios":"levelo://app?vid=3415a831-e4af-49fe-8443-f094ee83c44f"},"vehicle_type_id":"4","last_reported":1751058547,"current_range_meters":10800,"station_id":"ce4bh012rcd13ifvqd10","pricing_plan_id":"cebpf4jnsgd1na2vs0mg"},{"bike_id":"59642a1c-fc58-4918-a5f2-6f9082f0219b","system_id":"levelo_inurba_marseille","lat":43.29414,"lon":5.38629,"is_reserved":false,"is_disabled":false,"rental_uris":{"android":"levelo://app?vid=59642a1c-fc58-4918-a5f2-6f9082f0219b","ios":"levelo://app?vid=59642a1c-fc58-4918-a5f2-6f9082f0219b"},"vehicle_type_id":"4","last_reported":1751058547,"current_range_meters":10800,"station_id":"ce4bh2h2rcd13ifvqdh0","pricing_plan_id":"cebpf4jnsgd1na2vs0mg"},{"bike_id":"24edcf05-c81e-407d-9066-fcbabae89622","system_id":"levelo_inurba_marseille","lat":43.29552,"lon":5.42293,"is_reserved":false,"is_disabled":false,"rental_uris":{"android":"levelo://app?vid=24edcf05-c81e-407d-9066-fcbabae89622","ios":"levelo://app?vid=24edcf05-c81e-407d-9066-fcbabae89622"},"vehicle_type_id":"4","last_reported":1751058547,"current_range_meters":10800,"station_id":"ce4bhph2rcd13ifvqhdg","pricing_plan_id":"cebpf4jnsgd1na2vs0mg"},{"bike_id":"1c8ab180-05fd-405f-9922-b2b2c2d5142f","system_id":"levelo_inurba_marseille","lat":43.32099,"lon":5.36799,"is_reserved":false,"is_disabled":false,"rental_uris":{"android":"levelo://app?vid=1c8ab180-05fd-405f-9922-b2b2c2d5142f","ios":"levelo://app?vid=1c8ab180-05fd-405f-9922-b2b2c2d5142f"},"vehicle_type_id":"4","last_reported":1751058547,"current_range_meters":10800,"station_id":"ce4bhrh2rcd13ifvqhug","pricing_plan_id":"cebpf4jnsgd1na2vs0mg"},{"bike_id":"5d5e13a4-10cc-485c-a362-06d02242e666","system_id":"levelo_inurba_marseille","lat":43.211946,"lon":5.35069,"is_reserved":false,"is_disabled":false,"rental_uris":{"android":"levelo://app?vid=5d5e13a4-10cc-485c-a362-06d02242e666","ios":"levelo://app?vid=5d5e13a4-10cc-485c-a362-06d02242e666"},"vehicle_type_id":"4","last_reported":1751058547,"current_range_meters":10800,"station_id":"st_cvj6sg6p6f1abm77japg","pricing_plan_id":"cebpf4jnsgd1na2vs0mg"},{"bike_id":"3e82f598-9d1d-4257-8afa-a4dc7305de09","system_id":"levelo_inurba_marseille","lat":43.2117,"lon":5.35081,"is_reserved":false,"is_disabled":false,"rental_uris":{"android":"levelo://app?vid=3e82f598-9d1d-4257-8afa-a4dc7305de09","ios":"levelo://app?vid=3e82f598-9d1d-4257-8afa-a4dc7305de09"},"vehicle_type_id":"4","last_reported":1751058547,"current_range_meters":10800,"station_id":"st_cvj6sg6p6f1abm77japg","pricing_plan_id":"cebpf4jnsgd1na2vs0mg"},{"bike_id":"1afdbdc7-9d81-4e98-85e1-ee5984fde0af","system_id":"levelo_inurba_marseille","lat":43.29523,"lon":5.3825,"is_reserved":false,"is_disabled":false,"rental_uris":{"android":"levelo://app?vid=1afdbdc7-9d81-4e98-85e1-ee5984fde0af","ios":"levelo://app?vid=1afdbdc7-9d81-4e98-85e1-ee5984fde0af"},"vehicle_type_id":"4","last_reported":1751058547,"current_range_meters":11200,"station_id":"","pricing_plan_id":"cebpf4jnsgd1na2vs0mg"},{"bike_id":"5c1c5d4b-c1a7-4116-8691-1247df0117c3","system_id":"levelo_inurba_marseille","lat":43.295699,"lon":5.400214,"is_reserved":false,"is_disabled":false,"rental_uris":{"android":"levelo://app?vid=5c1c5d4b-c1a7-4116-8691-1247df0117c3","ios":"levelo://app?vid=5c1c5d4b-c1a7-4116-8691-1247df0117c3"},"vehicle_type_id":"4","last_reported":1751058547,"current_range_meters":11200,"station_id":"ce4bh312rcd13ifvqdj0","pricing_plan_id":"cebpf4jnsgd1na2vs0mg"},{"bike_id":"90a2ae9f-e487-477e-8d4f-747128f2e2ea","system_id":"levelo_inurba_marseille","lat":43.29036,"lon":5.37561,"is_reserved":false,"is_disabled":false,"rental_uris":{"android":"levelo://app?vid=90a2ae9f-e487-477e-8d4f-747128f2e2ea","ios":"levelo://app?vid=90a2ae9f-e487-477e-8d4f-747128f2e2ea"},"vehicle_type_id":"4","last_reported":1751058547,"current_range_meters":11200,"station_id":"ce4bh692rcd13ifvqe90","pricing_plan_id":"cebpf4jnsgd1na2vs0mg"},{"bike_id":"5a01ae6d-9064-484c-8d77-2d9e141e2313","system_id":"levelo_inurba_marseille","lat":43.24494,"lon":5.39015,"is_reserved":false,"is_disabled":false,"rental_uris":{"android":"levelo://app?vid=5a01ae6d-9064-484c-8d77-2d9e141e2313","ios":"levelo://app?vid=5a01ae6d-9064-484c-8d77-2d9e141e2313"},"vehicle_type_id":"4","last_reported":1751058547,"current_range_meters":11600,"station_id":"","pricing_plan_id":"cebpf4jnsgd1na2vs0mg"},{"bike_id":"f4d4a6af-7fb3-4bea-918e-3557b55d132b","system_id":"levelo_inurba_marseille","lat":43.2953,"lon":5.39029,"is_reserved":false,"is_disabled":false,"rental_uris":{"android":"levelo://app?vid=f4d4a6af-7fb3-4bea-918e-3557b55d132b","ios":"levelo://app?vid=f4d4a6af-7fb3-4bea-918e-3557b55d132b"},"vehicle_type_id":"4","last_reported":1751058547,"current_range_meters":11600,"station_id":"ce4bh3p2rcd13ifvqdp0","pricing_plan_id":"cebpf4jnsgd1na2vs0mg"},{"bike_id":"b6e0f4e6-8c69-4c4c-be1b-2a60aafe1f6b","system_id":"levelo_inurba_marseille","lat":43.27375,"lon":5.36259,"is_reserved":false,"is_disabled":false,"rental_uris":{"android":"levelo://app?vid=b6e0f4e6-8c69-4c4c-be1b-2a60aafe1f6b","ios":"levelo://app?vid=b6e0f4e6-8c69-4c4c-be1b-2a60aafe1f6b"},"vehicle_type_id":"4","last_reported":1751058547,"current_range_meters":11600,"station_id":"ce4bhbh2rcd13ifvqeo0","pricing_plan_id":"cebpf4jnsgd1na2vs0mg"},{"bike_id":"e5ae1fdd-ad1c-4e69-ac70-f715e6402e6b","system_id":"levelo_inurba_marseille","lat":43.277342,"lon":5.398714,"is_reserved":false,"is_disabled":false,"rental_uris":{"android":"levelo://app?vid=e5ae1fdd-ad1c-4e69-ac70-f715e6402e6b","ios":"levelo://app?vid=e5ae1fdd-ad1c-4e69-ac70-f715e6402e6b"},"vehicle_type_id":"4","last_reported":1751058547,"current_range_meters":12000,"station_id":"","pricing_plan_id":"cebpf4jnsgd1na2vs0mg"},{"bike_id":"63ede0cb-6d22-428d-a340-161fae5edf82","system_id":"levelo_inurba_marseille","lat":43.3132,"lon":5.39708,"is_reserved":false,"is_disabled":false,"rental_uris":{"android":"levelo://app?vid=63ede0cb-6d22-428d-a340-161fae5edf82","ios":"levelo://app?vid=63ede0cb-6d22-428d-a340-161fae5edf82"},"vehicle_type_id":"4","last_reported":1751058547,"current_range_meters":12000,"station_id":"ce4bgvp2rcd13ifvqcu0","pricing_plan_id":"cebpf4jnsgd1na2vs0mg"},{"bike_id":"aaafbe16-d7ef-492b-976b-75ae6af2cc62","system_id":"levelo_inurba_marseille","lat":43.28665,"lon":5.38679,"is_reserved":false,"is_disabled":false,"rental_uris":{"android":"levelo://app?vid=aaafbe16-d7ef-492b-976b-75ae6af2cc62","ios":"levelo://app?vid=aaafbe16-d7ef-492b-976b-75ae6af2cc62"},"vehicle_type_id":"4","last_reported":1751058547,"current_range_meters":12000,"station_id":"ce4bh492rcd13ifvqdug","pricing_plan_id":"cebpf4jnsgd1na2vs0mg"},{"bike_id":"9ae6266d-12f3-49ed-abe8-1d77e31a0a4d","system_id":"levelo_inurba_marseille","lat":43.26028,"lon":5.37547,"is_reserved":false,"is_disabled":false,"rental_uris":{"android":"levelo://app?vid=9ae6266d-12f3-49ed-abe8-1d77e31a0a4d","ios":"levelo://app?vid=9ae6266d-12f3-49ed-abe8-1d77e31a0a4d"},"vehicle_type_id":"4","last_reported":1751058547,"current_range_meters":12000,"station_id":"ce4bhgh2rcd13ifvqfa0","pricing_plan_id":"cebpf4jnsgd1na2vs0mg"},{"bike_id":"965dec3f-e306-4568-9140-e13b4ebb3f6c","system_id":"levelo_inurba_marseille","lat":43.24056,"lon":5.37778,"is_reserved":false,"is_disabled":false,"rental_uris":{"android":"levelo://app?vid=965dec3f-e306-4568-9140-e13b4ebb3f6c","ios":"levelo://app?vid=965dec3f-e306-4568-9140-e13b4ebb3f6c"},"vehicle_type_id":"4","last_reported":1751058547,"current_range_meters":12400,"station_id":"ce4bhnp2rcd13ifvqgvg","pricing_plan_id":"cebpf4jnsgd1na2vs0mg"},{"bike_id":"46fc1da8-b21e-49ec-9f51-bd3892d403d9","system_id":"levelo_inurba_marseille","lat":43.24149,"lon":5.36409,"is_reserved":false,"is_disabled":false,"rental_uris":{"android":"levelo://app?vid=46fc1da8-b21e-49ec-9f51-bd3892d403d9","ios":"levelo://app?vid=46fc1da8-b21e-49ec-9f51-bd3892d403d9"},"vehicle_type_id":"4","last_reported":1751058547,"current_range_meters":12400,"station_id":"cpo36qri1sfpv3e86is0","pricing_plan_id":"cebpf4jnsgd1na2vs0mg"},{"bike_id":"f0057ca2-de2d-4464-8902-068dc3677e00","system_id":"levelo_inurba_marseille","lat":43.211915,"lon":5.350687,"is_reserved":false,"is_disabled":false,"rental_uris":{"android":"levelo://app?vid=f0057ca2-de2d-4464-8902-068dc3677e00","ios":"levelo://app?vid=f0057ca2-de2d-4464-8902-068dc3677e00"},"vehicle_type_id":"4","last_reported":1751058547,"current_range_meters":12400,"station_id":"st_cvj6sg6p6f1abm77japg","pricing_plan_id":"cebpf4jnsgd1na2vs0mg"},{"bike_id":"bb69c1e1-7084-4be7-966a-57a7bcdfcb6c","system_id":"levelo_inurba_marseille","lat":43.2462,"lon":5.41612,"is_reserved":false,"is_disabled":false,"rental_uris":{"android":"levelo://app?vid=bb69c1e1-7084-4be7-966a-57a7bcdfcb6c","ios":"levelo://app?vid=bb69c1e1-7084-4be7-966a-57a7bcdfcb6c"},"vehicle_type_id":"4","last_reported":1751058547,"current_range_meters":12800,"station_id":"","pricing_plan_id":"cebpf4jnsgd1na2vs0mg"},{"bike_id":"651e4b85-9985-4435-bdec-75fffe293e40","system_id":"levelo_inurba_marseille","lat":43.29801,"lon":5.38104,"is_reserved":false,"is_disabled":false,"rental_uris":{"android":"levelo://app?vid=651e4b85-9985-4435-bdec-75fffe293e40","ios":"levelo://app?vid=651e4b85-9985-4435-bdec-75fffe293e40"},"vehicle_type_id":"4","last_reported":1751058547,"current_range_meters":12800,"station_id":"ce4bgip2rcd13ifvqbb0","pricing_plan_id":"cebpf4jnsgd1na2vs0mg"},{"bike_id":"a270ecb5-7da1-4487-969b-1a49e53195bf","system_id":"levelo_inurba_marseille","lat":43.29256,"lon":5.40907,"is_reserved":false,"is_disabled":false,"rental_uris":{"android":"levelo://app?vid=a270ecb5-7da1-4487-969b-1a49e53195bf","ios":"levelo://app?vid=a270ecb5-7da1-4487-969b-1a49e53195bf"},"vehicle_type_id":"4","last_reported":1751058547,"current_range_meters":12800,"station_id":"ce4bh192rcd13ifvqdc0","pricing_plan_id":"cebpf4jnsgd1na2vs0mg"},{"bike_id":"31fad2bc-bb24-43f9-a166-1abc4d2c4627","system_id":"levelo_inurba_marseille","lat":43.28841,"lon":5.39318,"is_reserved":false,"is_disabled":false,"rental_uris":{"android":"levelo://app?vid=31fad2bc-bb24-43f9-a166-1abc4d2c4627","ios":"levelo://app?vid=31fad2bc-bb24-43f9-a166-1abc4d2c4627"},"vehicle_type_id":"4","last_reported":1751058547,"current_range_meters":12800,"station_id":"ce4bh2p2rcd13ifvqdi0","pricing_plan_id":"cebpf4jnsgd1na2vs0mg"},{"bike_id":"af85ce29-2e64-4df4-bc85-96d991dd4e5a","system_id":"levelo_inurba_marseille","lat":43.29092,"lon":5.38151,"is_reserved":false,"is_disabled":false,"rental_uris":{"android":"levelo://app?vid=af85ce29-2e64-4df4-bc85-96d991dd4e5a","ios":"levelo://app?vid=af85ce29-2e64-4df4-bc85-96d991dd4e5a"},"vehicle_type_id":"4","last_reported":1751058547,"current_range_meters":12800,"station_id":"ce4bh512rcd13ifvqe2g","pricing_plan_id":"cebpf4jnsgd1na2vs0mg"},{"bike_id":"4cce5eb4-c193-4254-bc90-d091f1317860","system_id":"levelo_inurba_marseille","lat":43.28937,"lon":5.36627,"is_reserved":false,"is_disabled":false,"rental_uris":{"android":"levelo://app?vid=4cce5eb4-c193-4254-bc90-d091f1317860","ios":"levelo://app?vid=4cce5eb4-c193-4254-bc90-d091f1317860"},"vehicle_type_id":"4","last_reported":1751058547,"current_range_meters":12800,"station_id":"ce4bhap2rcd13ifvqek0","pricing_plan_id":"cebpf4jnsgd1na2vs0mg"},{"bike_id":"b4568e11-e10e-4dd7-bd2b-5fa8930c1dd6","system_id":"levelo_inurba_marseille","lat":43.26185,"lon":5.37462,"is_reserved":false,"is_disabled":false,"rental_uris":{"android":"levelo://app?vid=b4568e11-e10e-4dd7-bd2b-5fa8930c1dd6","ios":"levelo://app?vid=b4568e11-e10e-4dd7-bd2b-5fa8930c1dd6"},"vehicle_type_id":"4","last_reported":1751058547,"current_range_meters":12800,"station_id":"ce4bhgp2rcd13ifvqfc0","pricing_plan_id":"cebpf4jnsgd1na2vs0mg"},{"bike_id":"2a9a5366-8dad-42f1-bee6-ffb042c54776","system_id":"levelo_inurba_marseille","lat":43.21178,"lon":5.35079,"is_reserved":false,"is_disabled":false,"rental_uris":{"android":"levelo://app?vid=2a9a5366-8dad-42f1-bee6-ffb042c54776","ios":"levelo://app?vid=2a9a5366-8dad-42f1-bee6-ffb042c54776"},"vehicle_type_id":"4","last_reported":1751058547,"current_range_meters":12800,"station_id":"st_cvj6sg6p6f1abm77japg","pricing_plan_id":"cebpf4jnsgd1na2vs0mg"},{"bike_id":"c1bd42d2-3d77-48db-9015-5f88e08246cd","system_id":"levelo_inurba_marseille","lat":43.30302,"lon":5.36896,"is_reserved":false,"is_disabled":false,"rental_uris":{"android":"levelo://app?vid=c1bd42d2-3d77-48db-9015-5f88e08246cd","ios":"levelo://app?vid=c1bd42d2-3d77-48db-9015-5f88e08246cd"},"vehicle_type_id":"4","last_reported":1751058547,"current_range_meters":13600,"station_id":"ce4bgqh2rcd13ifvqc5g","pricing_plan_id":"cebpf4jnsgd1na2vs0mg"},{"bike_id":"747f0a84-9021-4a64-a214-280de058cb60","system_id":"levelo_inurba_marseille","lat":43.30142,"lon":5.39861,"is_reserved":false,"is_disabled":false,"rental_uris":{"android":"levelo://app?vid=747f0a84-9021-4a64-a214-280de058cb60","ios":"levelo://app?vid=747f0a84-9021-4a64-a214-280de058cb60"},"vehicle_type_id":"4","last_reported":1751058547,"current_range_meters":13600,"station_id":"ce4bh0h2rcd13ifvqd40","pricing_plan_id":"cebpf4jnsgd1na2vs0mg"},{"bike_id":"37aea54a-7651-443a-9664-011c7d638061","system_id":"levelo_inurba_marseille","lat":43.29528,"lon":5.39043,"is_reserved":false,"is_disabled":false,"rental_uris":{"android":"levelo://app?vid=37aea54a-7651-443a-9664-011c7d638061","ios":"levelo://app?vid=37aea54a-7651-443a-9664-011c7d638061"},"vehicle_type_id":"4","last_reported":1751058547,"current_range_meters":13600,"station_id":"ce4bh3p2rcd13ifvqdp0","pricing_plan_id":"cebpf4jnsgd1na2vs0mg"},{"bike_id":"b11318ce-21fb-475b-984e-78bfd7bbaf57","system_id":"levelo_inurba_marseille","lat":43.284607,"lon":5.380284,"is_reserved":false,"is_disabled":false,"rental_uris":{"android":"levelo://app?vid=b11318ce-21fb-475b-984e-78bfd7bbaf57","ios":"levelo://app?vid=b11318ce-21fb-475b-984e-78bfd7bbaf57"},"vehicle_type_id":"4","last_reported":1751058547,"current_range_meters":13600,"station_id":"ce4bh412rcd13ifvqdr0","pricing_plan_id":"cebpf4jnsgd1na2vs0mg"},{"bike_id":"6910b214-f4f8-4108-ba03-c3a5bc8e06b5","system_id":"levelo_inurba_marseille","lat":43.32296,"lon":5.38272,"is_reserved":false,"is_disabled":false,"rental_uris":{"android":"levelo://app?vid=6910b214-f4f8-4108-ba03-c3a5bc8e06b5","ios":"levelo://app?vid=6910b214-f4f8-4108-ba03-c3a5bc8e06b5"},"vehicle_type_id":"4","last_reported":1751058547,"current_range_meters":13600,"station_id":"ce4bhr12rcd13ifvqhqg","pricing_plan_id":"cebpf4jnsgd1na2vs0mg"},{"bike_id":"d5e70777-ad97-4594-91b6-43ede9611b14","system_id":"levelo_inurba_marseille","lat":43.321124,"lon":5.367423,"is_reserved":false,"is_disabled":false,"rental_uris":{"android":"levelo://app?vid=d5e70777-ad97-4594-91b6-43ede9611b14","ios":"levelo://app?vid=d5e70777-ad97-4594-91b6-43ede9611b14"},"vehicle_type_id":"4","last_reported":1751058547,"current_range_meters":13600,"station_id":"ce4bhrh2rcd13ifvqhug","pricing_plan_id":"cebpf4jnsgd1na2vs0mg"},{"bike_id":"7dfc5216-abd2-4eb0-aa98-27c7a95c769d","system_id":"levelo_inurba_marseille","lat":43.22918,"lon":5.35384,"is_reserved":false,"is_disabled":false,"rental_uris":{"android":"levelo://app?vid=7dfc5216-abd2-4eb0-aa98-27c7a95c769d","ios":"levelo://app?vid=7dfc5216-abd2-4eb0-aa98-27c7a95c769d"},"vehicle_type_id":"4","last_reported":1751058547,"current_range_meters":13600,"station_id":"cpo3532slgdg3j2ikp40","pricing_plan_id":"cebpf4jnsgd1na2vs0mg"},{"bike_id":"2c72c9b1-564b-478a-b039-4fb6c52967cc","system_id":"levelo_inurba_marseille","lat":43.27449,"lon":5.41137,"is_reserved":false,"is_disabled":false,"rental_uris":{"android":"levelo://app?vid=2c72c9b1-564b-478a-b039-4fb6c52967cc","ios":"levelo://app?vid=2c72c9b1-564b-478a-b039-4fb6c52967cc"},"vehicle_type_id":"4","last_reported":1751058547,"current_range_meters":14000,"station_id":"","pricing_plan_id":"cebpf4jnsgd1na2vs0mg"},{"bike_id":"4d83bcde-c879-4a93-8a86-c61ee6e9a886","system_id":"levelo_inurba_marseille","lat":43.30129,"lon":5.37425,"is_reserved":false,"is_disabled":false,"rental_uris":{"android":"levelo://app?vid=4d83bcde-c879-4a93-8a86-c61ee6e9a886","ios":"levelo://app?vid=4d83bcde-c879-4a93-8a86-c61ee6e9a886"},"vehicle_type_id":"4","last_reported":1751058547,"current_range_meters":14000,"station_id":"ce4bgs92rcd13ifvqcc0","pricing_plan_id":"cebpf4jnsgd1na2vs0mg"},{"bike_id":"cd1bc6c1-6b6c-49cc-81a7-97fdf0f3a681","system_id":"levelo_inurba_marseille","lat":43.24064,"lon":5.377985,"is_reserved":false,"is_disabled":false,"rental_uris":{"android":"levelo://app?vid=cd1bc6c1-6b6c-49cc-81a7-97fdf0f3a681","ios":"levelo://app?vid=cd1bc6c1-6b6c-49cc-81a7-97fdf0f3a681"},"vehicle_type_id":"4","last_reported":1751058547,"current_range_meters":14000,"station_id":"ce4bhnp2rcd13ifvqgvg","pricing_plan_id":"cebpf4jnsgd1na2vs0mg"},{"bike_id":"13726ea4-91b3-4b24-87ce-db653217d50c","system_id":"levelo_inurba_marseille","lat":43.3231,"lon":5.36721,"is_reserved":false,"is_disabled":false,"rental_uris":{"android":"levelo://app?vid=13726ea4-91b3-4b24-87ce-db653217d50c","ios":"levelo://app?vid=13726ea4-91b3-4b24-87ce-db653217d50c"},"vehicle_type_id":"4","last_reported":1751058547,"current_range_meters":14400,"station_id":"","pricing_plan_id":"cebpf4jnsgd1na2vs0mg"},{"bike_id":"11d87603-4772-44d5-a740-75e8d8aafba8","system_id":"levelo_inurba_marseille","lat":43.293,"lon":5.37181,"is_reserved":false,"is_disabled":false,"rental_uris":{"android":"levelo://app?vid=11d87603-4772-44d5-a740-75e8d8aafba8","ios":"levelo://app?vid=11d87603-4772-44d5-a740-75e8d8aafba8"},"vehicle_type_id":"4","last_reported":1751058547,"current_range_meters":14400,"station_id":"ce4bgh92rcd13ifvqb40","pricing_plan_id":"cebpf4jnsgd1na2vs0mg"},{"bike_id":"bbc4a376-bee7-4ad5-a49a-1022d27c1489","system_id":"levelo_inurba_marseille","lat":43.32096,"lon":5.36758,"is_reserved":false,"is_disabled":false,"rental_uris":{"android":"levelo://app?vid=bbc4a376-bee7-4ad5-a49a-1022d27c1489","ios":"levelo://app?vid=bbc4a376-bee7-4ad5-a49a-1022d27c1489"},"vehicle_type_id":"4","last_reported":1751058547,"current_range_meters":14400,"station_id":"ce4bhrh2rcd13ifvqhug","pricing_plan_id":"cebpf4jnsgd1na2vs0mg"},{"bike_id":"b2059454-34f9-4639-b91e-0f3e6ae72b4f","system_id":"levelo_inurba_marseille","lat":43.33589,"lon":5.42846,"is_reserved":false,"is_disabled":false,"rental_uris":{"android":"levelo://app?vid=b2059454-34f9-4639-b91e-0f3e6ae72b4f","ios":"levelo://app?vid=b2059454-34f9-4639-b91e-0f3e6ae72b4f"},"vehicle_type_id":"4","last_reported":1751058547,"current_range_meters":14800,"station_id":"","pricing_plan_id":"cebpf4jnsgd1na2vs0mg"},{"bike_id":"e6ce70f7-9138-485c-a4db-2c9174614cff","system_id":"levelo_inurba_marseille","lat":43.31801,"lon":5.36887,"is_reserved":false,"is_disabled":false,"rental_uris":{"android":"levelo://app?vid=e6ce70f7-9138-485c-a4db-2c9174614cff","ios":"levelo://app?vid=e6ce70f7-9138-485c-a4db-2c9174614cff"},"vehicle_type_id":"4","last_reported":1751058547,"current_range_meters":14800,"station_id":"","pricing_plan_id":"cebpf4jnsgd1na2vs0mg"},{"bike_id":"d5ec4b4d-f208-4184-bf0a-854d3ad6e1c4","system_id":"levelo_inurba_marseille","lat":43.30146,"lon":5.380962,"is_reserved":false,"is_disabled":false,"rental_uris":{"android":"levelo://app?vid=d5ec4b4d-f208-4184-bf0a-854d3ad6e1c4","ios":"levelo://app?vid=d5ec4b4d-f208-4184-bf0a-854d3ad6e1c4"},"vehicle_type_id":"4","last_reported":1751058547,"current_range_meters":14800,"station_id":"","pricing_plan_id":"cebpf4jnsgd1na2vs0mg"},{"bike_id":"dcea07ca-9323-4b9b-98f6-e1fc9b106559","system_id":"levelo_inurba_marseille","lat":43.30314,"lon":5.37647,"is_reserved":false,"is_disabled":false,"rental_uris":{"android":"levelo://app?vid=dcea07ca-9323-4b9b-98f6-e1fc9b106559","ios":"levelo://app?vid=dcea07ca-9323-4b9b-98f6-e1fc9b106559"},"vehicle_type_id":"4","last_reported":1751058547,"current_range_meters":14800,"station_id":"","pricing_plan_id":"cebpf4jnsgd1na2vs0mg"},{"bike_id":"3cf5fd93-bf47-4605-800c-98f7a6e2f6a6","system_id":"levelo_inurba_marseille","lat":43.2997,"lon":5.38489,"is_reserved":false,"is_disabled":false,"rental_uris":{"android":"levelo://app?vid=3cf5fd93-bf47-4605-800c-98f7a6e2f6a6","ios":"levelo://app?vid=3cf5fd93-bf47-4605-800c-98f7a6e2f6a6"},"vehicle_type_id":"4","last_reported":1751058547,"current_range_meters":14800,"station_id":"ce4bgj92rcd13ifvqbd0","pricing_plan_id":"cebpf4jnsgd1na2vs0mg"},{"bike_id":"2788717d-403a-4b00-93c8-5cf0695fa919","system_id":"levelo_inurba_marseille","lat":43.30241,"lon":5.40036,"is_reserved":false,"is_disabled":false,"rental_uris":{"android":"levelo://app?vid=2788717d-403a-4b00-93c8-5cf0695fa919","ios":"levelo://app?vid=2788717d-403a-4b00-93c8-5cf0695fa919"},"vehicle_type_id":"4","last_reported":1751058547,"current_range_meters":14800,"station_id":"ce4bgvh2rcd13ifvqcs0","pricing_plan_id":"cebpf4jnsgd1na2vs0mg"},{"bike_id":"2b75c009-ca84-46ba-b2eb-d76b9faabf7a","system_id":"levelo_inurba_marseille","lat":43.29275,"lon":5.36842,"is_reserved":false,"is_disabled":false,"rental_uris":{"android":"levelo://app?vid=2b75c009-ca84-46ba-b2eb-d76b9faabf7a","ios":"levelo://app?vid=2b75c009-ca84-46ba-b2eb-d76b9faabf7a"},"vehicle_type_id":"4","last_reported":1751058547,"current_range_meters":14800,"station_id":"ce4bhbp2rcd13ifvqesg","pricing_plan_id":"cebpf4jnsgd1na2vs0mg"},{"bike_id":"19dc3be5-f54e-42ad-85cb-87f2e08a1fb2","system_id":"levelo_inurba_marseille","lat":43.24697,"lon":5.38147,"is_reserved":false,"is_disabled":false,"rental_uris":{"android":"levelo://app?vid=19dc3be5-f54e-42ad-85cb-87f2e08a1fb2","ios":"levelo://app?vid=19dc3be5-f54e-42ad-85cb-87f2e08a1fb2"},"vehicle_type_id":"4","last_reported":1751058547,"current_range_meters":14800,"station_id":"ce4bhih2rcd13ifvqfr0","pricing_plan_id":"cebpf4jnsgd1na2vs0mg"},{"bike_id":"9bf8f1c5-9995-43ba-b576-53c67c8baf8d","system_id":"levelo_inurba_marseille","lat":43.32332,"lon":5.40622,"is_reserved":false,"is_disabled":false,"rental_uris":{"android":"levelo://app?vid=9bf8f1c5-9995-43ba-b576-53c67c8baf8d","ios":"levelo://app?vid=9bf8f1c5-9995-43ba-b576-53c67c8baf8d"},"vehicle_type_id":"4","last_reported":1751058547,"current_range_meters":14800,"station_id":"ce4bhq92rcd13ifvqhjg","pricing_plan_id":"cebpf4jnsgd1na2vs0mg"},{"bike_id":"815201a7-dbbe-4827-ab77-bd49f80ea5ee","system_id":"levelo_inurba_marseille","lat":43.297677,"lon":5.45993,"is_reserved":false,"is_disabled":false,"rental_uris":{"android":"levelo://app?vid=815201a7-dbbe-4827-ab77-bd49f80ea5ee","ios":"levelo://app?vid=815201a7-dbbe-4827-ab77-bd49f80ea5ee"},"vehicle_type_id":"4","last_reported":1751058547,"current_range_meters":15200,"station_id":"","pricing_plan_id":"cebpf4jnsgd1na2vs0mg"},{"bike_id":"cb0ce24a-7241-441c-92d0-ae484bca326d","system_id":"levelo_inurba_marseille","lat":43.31231,"lon":5.36857,"is_reserved":false,"is_disabled":false,"rental_uris":{"android":"levelo://app?vid=cb0ce24a-7241-441c-92d0-ae484bca326d","ios":"levelo://app?vid=cb0ce24a-7241-441c-92d0-ae484bca326d"},"vehicle_type_id":"4","last_reported":1751058547,"current_range_meters":15200,"station_id":"ce4bgl92rcd13ifvqbq0","pricing_plan_id":"cebpf4jnsgd1na2vs0mg"},{"bike_id":"fe499081-7ff4-4b0a-8352-f654eb79d844","system_id":"levelo_inurba_marseille","lat":43.31523,"lon":5.37277,"is_reserved":false,"is_disabled":false,"rental_uris":{"android":"levelo://app?vid=fe499081-7ff4-4b0a-8352-f654eb79d844","ios":"levelo://app?vid=fe499081-7ff4-4b0a-8352-f654eb79d844"},"vehicle_type_id":"4","last_reported":1751058547,"current_range_meters":15200,"station_id":"ce4bgt12rcd13ifvqcd0","pricing_plan_id":"cebpf4jnsgd1na2vs0mg"},{"bike_id":"d37324ff-e3f4-44db-9abb-d3a967a1fd9f","system_id":"levelo_inurba_marseille","lat":43.28834,"lon":5.39343,"is_reserved":false,"is_disabled":false,"rental_uris":{"android":"levelo://app?vid=d37324ff-e3f4-44db-9abb-d3a967a1fd9f","ios":"levelo://app?vid=d37324ff-e3f4-44db-9abb-d3a967a1fd9f"},"vehicle_type_id":"4","last_reported":1751058547,"current_range_meters":15200,"station_id":"ce4bh2p2rcd13ifvqdi0","pricing_plan_id":"cebpf4jnsgd1na2vs0mg"},{"bike_id":"b680a168-7e85-4fca-bea1-dd5815a4911a","system_id":"levelo_inurba_marseille","lat":43.34029,"lon":5.37482,"is_reserved":false,"is_disabled":false,"rental_uris":{"android":"levelo://app?vid=b680a168-7e85-4fca-bea1-dd5815a4911a","ios":"levelo://app?vid=b680a168-7e85-4fca-bea1-dd5815a4911a"},"vehicle_type_id":"4","last_reported":1751058547,"current_range_meters":16000,"station_id":"","pricing_plan_id":"cebpf4jnsgd1na2vs0mg"},{"bike_id":"d74d7be5-ba54-4d68-9cdb-a520d677c267","system_id":"levelo_inurba_marseille","lat":43.23222,"lon":5.35439,"is_reserved":false,"is_disabled":false,"rental_uris":{"android":"levelo://app?vid=d74d7be5-ba54-4d68-9cdb-a520d677c267","ios":"levelo://app?vid=d74d7be5-ba54-4d68-9cdb-a520d677c267"},"vehicle_type_id":"4","last_reported":1751058547,"current_range_meters":16000,"station_id":"","pricing_plan_id":"cebpf4jnsgd1na2vs0mg"},{"bike_id":"77673b0f-fa8d-4a5f-802e-e3125964cb45","system_id":"levelo_inurba_marseille","lat":43.27991,"lon":5.35165,"is_reserved":false,"is_disabled":false,"rental_uris":{"android":"levelo://app?vid=77673b0f-fa8d-4a5f-802e-e3125964cb45","ios":"levelo://app?vid=77673b0f-fa8d-4a5f-802e-e3125964cb45"},"vehicle_type_id":"4","last_reported":1751058547,"current_range_meters":16000,"station_id":"","pricing_plan_id":"cebpf4jnsgd1na2vs0mg"},{"bike_id":"20d83633-eea8-4481-876a-5ee61c66714d","system_id":"levelo_inurba_marseille","lat":43.29541,"lon":5.3855,"is_reserved":false,"is_disabled":false,"rental_uris":{"android":"levelo://app?vid=20d83633-eea8-4481-876a-5ee61c66714d","ios":"levelo://app?vid=20d83633-eea8-4481-876a-5ee61c66714d"},"vehicle_type_id":"4","last_reported":1751058547,"current_range_meters":16000,"station_id":"ce4bgih2rcd13ifvqba0","pricing_plan_id":"cebpf4jnsgd1na2vs0mg"},{"bike_id":"75478481-148c-40d5-be7f-3f99343084f8","system_id":"levelo_inurba_marseille","lat":43.29251,"lon":5.38446,"is_reserved":false,"is_disabled":false,"rental_uris":{"android":"levelo://app?vid=75478481-148c-40d5-be7f-3f99343084f8","ios":"levelo://app?vid=75478481-148c-40d5-be7f-3f99343084f8"},"vehicle_type_id":"4","last_reported":1751058547,"current_range_meters":16000,"station_id":"ce4bh692rcd13ifvqea0","pricing_plan_id":"cebpf4jnsgd1na2vs0mg"},{"bike_id":"66a06998-764e-4574-9336-21d12447656f","system_id":"levelo_inurba_marseille","lat":43.2893,"lon":5.36635,"is_reserved":false,"is_disabled":false,"rental_uris":{"android":"levelo://app?vid=66a06998-764e-4574-9336-21d12447656f","ios":"levelo://app?vid=66a06998-764e-4574-9336-21d12447656f"},"vehicle_type_id":"4","last_reported":1751058547,"current_range_meters":16000,"station_id":"ce4bhap2rcd13ifvqek0","pricing_plan_id":"cebpf4jnsgd1na2vs0mg"},{"bike_id":"17b4ba63-9e2d-4064-b7f0-711ac34330d7","system_id":"levelo_inurba_marseille","lat":43.248052,"lon":5.374594,"is_reserved":false,"is_disabled":false,"rental_uris":{"android":"levelo://app?vid=17b4ba63-9e2d-4064-b7f0-711ac34330d7","ios":"levelo://app?vid=17b4ba63-9e2d-4064-b7f0-711ac34330d7"},"vehicle_type_id":"4","last_reported":1751058547,"current_range_meters":16000,"station_id":"ce4bhgh2rcd13ifvqfb0","pricing_plan_id":"cebpf4jnsgd1na2vs0mg"},{"bike_id":"1eceba66-5276-4c21-a921-63d3f7f4cbaa","system_id":"levelo_inurba_marseille","lat":43.29532,"lon":5.38538,"is_reserved":false,"is_disabled":false,"rental_uris":{"android":"levelo://app?vid=1eceba66-5276-4c21-a921-63d3f7f4cbaa","ios":"levelo://app?vid=1eceba66-5276-4c21-a921-63d3f7f4cbaa"},"vehicle_type_id":"4","last_reported":1751058547,"current_range_meters":16400,"station_id":"ce4bgih2rcd13ifvqba0","pricing_plan_id":"cebpf4jnsgd1na2vs0mg"},{"bike_id":"2fef47f2-2d58-4d7c-acea-365ca586743a","system_id":"levelo_inurba_marseille","lat":43.29863,"lon":5.39728,"is_reserved":false,"is_disabled":false,"rental_uris":{"android":"levelo://app?vid=2fef47f2-2d58-4d7c-acea-365ca586743a","ios":"levelo://app?vid=2fef47f2-2d58-4d7c-acea-365ca586743a"},"vehicle_type_id":"4","last_reported":1751058547,"current_range_meters":16400,"station_id":"ce4bh0h2rcd13ifvqd50","pricing_plan_id":"cebpf4jnsgd1na2vs0mg"},{"bike_id":"19dd4f0b-354c-4cd9-aea4-77b049ba161e","system_id":"levelo_inurba_marseille","lat":43.28556,"lon":5.39493,"is_reserved":false,"is_disabled":false,"rental_uris":{"android":"levelo://app?vid=19dd4f0b-354c-4cd9-aea4-77b049ba161e","ios":"levelo://app?vid=19dd4f0b-354c-4cd9-aea4-77b049ba161e"},"vehicle_type_id":"4","last_reported":1751058547,"current_range_meters":16400,"station_id":"ce4bh292rcd13ifvqdg0","pricing_plan_id":"cebpf4jnsgd1na2vs0mg"},{"bike_id":"06053835-4a3b-421d-9906-d3866bfde971","system_id":"levelo_inurba_marseille","lat":43.28601,"lon":5.37081,"is_reserved":false,"is_disabled":false,"rental_uris":{"android":"levelo://app?vid=06053835-4a3b-421d-9906-d3866bfde971","ios":"levelo://app?vid=06053835-4a3b-421d-9906-d3866bfde971"},"vehicle_type_id":"4","last_reported":1751058547,"current_range_meters":16400,"station_id":"ce4bht12rcd13ifvqi60","pricing_plan_id":"cebpf4jnsgd1na2vs0mg"},{"bike_id":"721165c1-ef6f-40cc-8d33-af3a7999864b","system_id":"levelo_inurba_marseille","lat":43.32652,"lon":5.37863,"is_reserved":false,"is_disabled":false,"rental_uris":{"android":"levelo://app?vid=721165c1-ef6f-40cc-8d33-af3a7999864b","ios":"levelo://app?vid=721165c1-ef6f-40cc-8d33-af3a7999864b"},"vehicle_type_id":"4","last_reported":1751058547,"current_range_meters":16800,"station_id":"","pricing_plan_id":"cebpf4jnsgd1na2vs0mg"},{"bike_id":"dd8e249a-3d2d-4b04-9cc3-4de43feb86b3","system_id":"levelo_inurba_marseille","lat":43.29522,"lon":5.38551,"is_reserved":false,"is_disabled":false,"rental_uris":{"android":"levelo://app?vid=dd8e249a-3d2d-4b04-9cc3-4de43feb86b3","ios":"levelo://app?vid=dd8e249a-3d2d-4b04-9cc3-4de43feb86b3"},"vehicle_type_id":"4","last_reported":1751058547,"current_range_meters":16800,"station_id":"ce4bgih2rcd13ifvqba0","pricing_plan_id":"cebpf4jnsgd1na2vs0mg"},{"bike_id":"cce80842-d82c-4efd-934b-352a8f3896ea","system_id":"levelo_inurba_marseille","lat":43.31178,"lon":5.38712,"is_reserved":false,"is_disabled":false,"rental_uris":{"android":"levelo://app?vid=cce80842-d82c-4efd-934b-352a8f3896ea","ios":"levelo://app?vid=cce80842-d82c-4efd-934b-352a8f3896ea"},"vehicle_type_id":"4","last_reported":1751058547,"current_range_meters":16800,"station_id":"ce4bgv12rcd13ifvqcp0","pricing_plan_id":"cebpf4jnsgd1na2vs0mg"},{"bike_id":"3c7b081c-d1b5-4dbb-b5c7-1e23f1486f55","system_id":"levelo_inurba_marseille","lat":43.25722,"lon":5.41107,"is_reserved":false,"is_disabled":false,"rental_uris":{"android":"levelo://app?vid=3c7b081c-d1b5-4dbb-b5c7-1e23f1486f55","ios":"levelo://app?vid=3c7b081c-d1b5-4dbb-b5c7-1e23f1486f55"},"vehicle_type_id":"4","last_reported":1751058547,"current_range_meters":16800,"station_id":"ce4bhkp2rcd13ifvqgd0","pricing_plan_id":"cebpf4jnsgd1na2vs0mg"},{"bike_id":"81115363-d7ba-42ce-969b-a1d7ad97fa06","system_id":"levelo_inurba_marseille","lat":43.337271,"lon":5.39164,"is_reserved":false,"is_disabled":false,"rental_uris":{"android":"levelo://app?vid=81115363-d7ba-42ce-969b-a1d7ad97fa06","ios":"levelo://app?vid=81115363-d7ba-42ce-969b-a1d7ad97fa06"},"vehicle_type_id":"4","last_reported":1751058547,"current_range_meters":16800,"station_id":"ce4bhr92rcd13ifvqhsg","pricing_plan_id":"cebpf4jnsgd1na2vs0mg"},{"bike_id":"f1ff92a8-5c11-4ada-9288-1fbc0651bc7b","system_id":"levelo_inurba_marseille","lat":43.28815,"lon":5.43837,"is_reserved":false,"is_disabled":false,"rental_uris":{"android":"levelo://app?vid=f1ff92a8-5c11-4ada-9288-1fbc0651bc7b","ios":"levelo://app?vid=f1ff92a8-5c11-4ada-9288-1fbc0651bc7b"},"vehicle_type_id":"4","last_reported":1751058547,"current_range_meters":17200,"station_id":"","pricing_plan_id":"cebpf4jnsgd1na2vs0mg"},{"bike_id":"14e8ef37-e834-4d76-9946-e98f7a083a2f","system_id":"levelo_inurba_marseille","lat":43.21241,"lon":5.3509,"is_reserved":false,"is_disabled":false,"rental_uris":{"android":"levelo://app?vid=14e8ef37-e834-4d76-9946-e98f7a083a2f","ios":"levelo://app?vid=14e8ef37-e834-4d76-9946-e98f7a083a2f"},"vehicle_type_id":"4","last_reported":1751058547,"current_range_meters":17200,"station_id":"","pricing_plan_id":"cebpf4jnsgd1na2vs0mg"},{"bike_id":"12c7fc9f-7c7b-4185-9b2f-badd0c17e36b","system_id":"levelo_inurba_marseille","lat":43.24725,"lon":5.37441,"is_reserved":false,"is_disabled":false,"rental_uris":{"android":"levelo://app?vid=12c7fc9f-7c7b-4185-9b2f-badd0c17e36b","ios":"levelo://app?vid=12c7fc9f-7c7b-4185-9b2f-badd0c17e36b"},"vehicle_type_id":"4","last_reported":1751058547,"current_range_meters":17200,"station_id":"","pricing_plan_id":"cebpf4jnsgd1na2vs0mg"},{"bike_id":"27c3a297-e0d6-4b21-aee8-031609098db5","system_id":"levelo_inurba_marseille","lat":43.29969,"lon":5.38489,"is_reserved":false,"is_disabled":false,"rental_uris":{"android":"levelo://app?vid=27c3a297-e0d6-4b21-aee8-031609098db5","ios":"levelo://app?vid=27c3a297-e0d6-4b21-aee8-031609098db5"},"vehicle_type_id":"4","last_reported":1751058547,"current_range_meters":17200,"station_id":"ce4bgj92rcd13ifvqbd0","pricing_plan_id":"cebpf4jnsgd1na2vs0mg"},{"bike_id":"cd81c263-a371-4648-9d7b-d45290b170a4","system_id":"levelo_inurba_marseille","lat":43.30423,"lon":5.389,"is_reserved":false,"is_disabled":false,"rental_uris":{"android":"levelo://app?vid=cd81c263-a371-4648-9d7b-d45290b170a4","ios":"levelo://app?vid=cd81c263-a371-4648-9d7b-d45290b170a4"},"vehicle_type_id":"4","last_reported":1751058547,"current_range_meters":17200,"station_id":"ce4bgk12rcd13ifvqbi0","pricing_plan_id":"cebpf4jnsgd1na2vs0mg"},{"bike_id":"69b59070-a040-4f6c-b0de-ac91a2ff1c8f","system_id":"levelo_inurba_marseille","lat":43.29519,"lon":5.37512,"is_reserved":false,"is_disabled":false,"rental_uris":{"android":"levelo://app?vid=69b59070-a040-4f6c-b0de-ac91a2ff1c8f","ios":"levelo://app?vid=69b59070-a040-4f6c-b0de-ac91a2ff1c8f"},"vehicle_type_id":"4","last_reported":1751058547,"current_range_meters":17200,"station_id":"ce4bgkp2rcd13ifvqbmg","pricing_plan_id":"cebpf4jnsgd1na2vs0mg"},{"bike_id":"576289f8-cb8b-4fe0-b67f-84826d253af0","system_id":"levelo_inurba_marseille","lat":43.29591,"lon":5.38096,"is_reserved":false,"is_disabled":false,"rental_uris":{"android":"levelo://app?vid=576289f8-cb8b-4fe0-b67f-84826d253af0","ios":"levelo://app?vid=576289f8-cb8b-4fe0-b67f-84826d253af0"},"vehicle_type_id":"4","last_reported":1751058547,"current_range_meters":17200,"station_id":"ce4bgl12rcd13ifvqbo0","pricing_plan_id":"cebpf4jnsgd1na2vs0mg"},{"bike_id":"4fc5ae49-a76f-4b15-9d6d-3947c38e49e1","system_id":"levelo_inurba_marseille","lat":43.28833,"lon":5.3933,"is_reserved":false,"is_disabled":false,"rental_uris":{"android":"levelo://app?vid=4fc5ae49-a76f-4b15-9d6d-3947c38e49e1","ios":"levelo://app?vid=4fc5ae49-a76f-4b15-9d6d-3947c38e49e1"},"vehicle_type_id":"4","last_reported":1751058547,"current_range_meters":17200,"station_id":"ce4bh2p2rcd13ifvqdi0","pricing_plan_id":"cebpf4jnsgd1na2vs0mg"},{"bike_id":"5e21cd2a-39d4-4cd8-bdc5-a0684af5f922","system_id":"levelo_inurba_marseille","lat":43.27559,"lon":5.38421,"is_reserved":false,"is_disabled":false,"rental_uris":{"android":"levelo://app?vid=5e21cd2a-39d4-4cd8-bdc5-a0684af5f922","ios":"levelo://app?vid=5e21cd2a-39d4-4cd8-bdc5-a0684af5f922"},"vehicle_type_id":"4","last_reported":1751058547,"current_range_meters":17200,"station_id":"ce4bhh92rcd13ifvqfi0","pricing_plan_id":"cebpf4jnsgd1na2vs0mg"},{"bike_id":"1a20e0a7-ad53-446e-b075-0d7cf86547b6","system_id":"levelo_inurba_marseille","lat":43.28435,"lon":5.39186,"is_reserved":false,"is_disabled":false,"rental_uris":{"android":"levelo://app?vid=1a20e0a7-ad53-446e-b075-0d7cf86547b6","ios":"levelo://app?vid=1a20e0a7-ad53-446e-b075-0d7cf86547b6"},"vehicle_type_id":"4","last_reported":1751058547,"current_range_meters":17200,"station_id":"ce4bhoh2rcd13ifvqh5g","pricing_plan_id":"cebpf4jnsgd1na2vs0mg"},{"bike_id":"a7883090-0e10-4075-944b-a3cca54bc544","system_id":"levelo_inurba_marseille","lat":43.22519,"lon":5.34787,"is_reserved":false,"is_disabled":false,"rental_uris":{"android":"levelo://app?vid=a7883090-0e10-4075-944b-a3cca54bc544","ios":"levelo://app?vid=a7883090-0e10-4075-944b-a3cca54bc544"},"vehicle_type_id":"4","last_reported":1751058547,"current_range_meters":17200,"station_id":"st_cvj5dfep6f1abm77gieg","pricing_plan_id":"cebpf4jnsgd1na2vs0mg"},{"bike_id":"0c803610-f6e9-41d4-936d-0b433fa62796","system_id":"levelo_inurba_marseille","lat":43.30173,"lon":5.37828,"is_reserved":false,"is_disabled":false,"rental_uris":{"android":"levelo://app?vid=0c803610-f6e9-41d4-936d-0b433fa62796","ios":"levelo://app?vid=0c803610-f6e9-41d4-936d-0b433fa62796"},"vehicle_type_id":"4","last_reported":1751058547,"current_range_meters":17600,"station_id":"","pricing_plan_id":"cebpf4jnsgd1na2vs0mg"},{"bike_id":"7edd06ef-5300-4f31-b57f-0feaaa930583","system_id":"levelo_inurba_marseille","lat":43.30534,"lon":5.36708,"is_reserved":false,"is_disabled":false,"rental_uris":{"android":"levelo://app?vid=7edd06ef-5300-4f31-b57f-0feaaa930583","ios":"levelo://app?vid=7edd06ef-5300-4f31-b57f-0feaaa930583"},"vehicle_type_id":"4","last_reported":1751058547,"current_range_meters":17600,"station_id":"ce4bgrp2rcd13ifvqc9g","pricing_plan_id":"cebpf4jnsgd1na2vs0mg"},{"bike_id":"43b90f66-d6f9-4e4e-a32f-49c531e37b2d","system_id":"levelo_inurba_marseille","lat":43.26262,"lon":5.40186,"is_reserved":false,"is_disabled":false,"rental_uris":{"android":"levelo://app?vid=43b90f66-d6f9-4e4e-a32f-49c531e37b2d","ios":"levelo://app?vid=43b90f66-d6f9-4e4e-a32f-49c531e37b2d"},"vehicle_type_id":"4","last_reported":1751058547,"current_range_meters":18000,"station_id":"","pricing_plan_id":"cebpf4jnsgd1na2vs0mg"},{"bike_id":"6af79a00-84aa-4908-a347-34425e08c383","system_id":"levelo_inurba_marseille","lat":43.30287,"lon":5.37583,"is_reserved":false,"is_disabled":false,"rental_uris":{"android":"levelo://app?vid=6af79a00-84aa-4908-a347-34425e08c383","ios":"levelo://app?vid=6af79a00-84aa-4908-a347-34425e08c383"},"vehicle_type_id":"4","last_reported":1751058547,"current_range_meters":18000,"station_id":"","pricing_plan_id":"cebpf4jnsgd1na2vs0mg"},{"bike_id":"805073ca-85b9-42b0-9e57-7e7428595d04","system_id":"levelo_inurba_marseille","lat":43.28859,"lon":5.3846,"is_reserved":false,"is_disabled":false,"rental_uris":{"android":"levelo://app?vid=805073ca-85b9-42b0-9e57-7e7428595d04","ios":"levelo://app?vid=805073ca-85b9-42b0-9e57-7e7428595d04"},"vehicle_type_id":"4","last_reported":1751058547,"current_range_meters":18000,"station_id":"","pricing_plan_id":"cebpf4jnsgd1na2vs0mg"},{"bike_id":"962fb7a9-f330-4f21-b9c2-410fc2560e49","system_id":"levelo_inurba_marseille","lat":43.28702,"lon":5.37385,"is_reserved":false,"is_disabled":false,"rental_uris":{"android":"levelo://app?vid=962fb7a9-f330-4f21-b9c2-410fc2560e49","ios":"levelo://app?vid=962fb7a9-f330-4f21-b9c2-410fc2560e49"},"vehicle_type_id":"4","last_reported":1751058547,"current_range_meters":18000,"station_id":"ce4bh3p2rcd13ifvqdq0","pricing_plan_id":"cebpf4jnsgd1na2vs0mg"},{"bike_id":"64effe4a-0c9a-4b2c-984a-1bf97b5b695d","system_id":"levelo_inurba_marseille","lat":43.28337,"lon":5.38627,"is_reserved":false,"is_disabled":false,"rental_uris":{"android":"levelo://app?vid=64effe4a-0c9a-4b2c-984a-1bf97b5b695d","ios":"levelo://app?vid=64effe4a-0c9a-4b2c-984a-1bf97b5b695d"},"vehicle_type_id":"4","last_reported":1751058547,"current_range_meters":18000,"station_id":"ce4bh492rcd13ifvqdvg","pricing_plan_id":"cebpf4jnsgd1na2vs0mg"},{"bike_id":"6b4cec30-6f8c-4070-b381-df59368ed543","system_id":"levelo_inurba_marseille","lat":43.29032,"lon":5.38645,"is_reserved":false,"is_disabled":false,"rental_uris":{"android":"levelo://app?vid=6b4cec30-6f8c-4070-b381-df59368ed543","ios":"levelo://app?vid=6b4cec30-6f8c-4070-b381-df59368ed543"},"vehicle_type_id":"4","last_reported":1751058547,"current_range_meters":18000,"station_id":"ce4bh4p2rcd13ifvqe0g","pricing_plan_id":"cebpf4jnsgd1na2vs0mg"},{"bike_id":"27fc5a87-6293-4db0-831a-e4ce580b5c87","system_id":"levelo_inurba_marseille","lat":43.23147,"lon":5.43718,"is_reserved":false,"is_disabled":false,"rental_uris":{"android":"levelo://app?vid=27fc5a87-6293-4db0-831a-e4ce580b5c87","ios":"levelo://app?vid=27fc5a87-6293-4db0-831a-e4ce580b5c87"},"vehicle_type_id":"4","last_reported":1751058547,"current_range_meters":18000,"station_id":"ce4bhmp2rcd13ifvqgog","pricing_plan_id":"cebpf4jnsgd1na2vs0mg"},{"bike_id":"4043f5ed-1c71-456d-9c90-de5b8866cdaf","system_id":"levelo_inurba_marseille","lat":43.22923,"lon":5.3538,"is_reserved":false,"is_disabled":false,"rental_uris":{"android":"levelo://app?vid=4043f5ed-1c71-456d-9c90-de5b8866cdaf","ios":"levelo://app?vid=4043f5ed-1c71-456d-9c90-de5b8866cdaf"},"vehicle_type_id":"4","last_reported":1751058547,"current_range_meters":18000,"station_id":"cpo3532slgdg3j2ikp40","pricing_plan_id":"cebpf4jnsgd1na2vs0mg"},{"bike_id":"a66b4f1e-0ede-429c-bb89-81df1a70ff6f","system_id":"levelo_inurba_marseille","lat":43.27372,"lon":5.36256,"is_reserved":false,"is_disabled":false,"rental_uris":{"android":"levelo://app?vid=a66b4f1e-0ede-429c-bb89-81df1a70ff6f","ios":"levelo://app?vid=a66b4f1e-0ede-429c-bb89-81df1a70ff6f"},"vehicle_type_id":"4","last_reported":1751058547,"current_range_meters":18800,"station_id":"ce4bhbh2rcd13ifvqeo0","pricing_plan_id":"cebpf4jnsgd1na2vs0mg"},{"bike_id":"c13cc7fc-25ad-404a-8ab1-c28d5e93f103","system_id":"levelo_inurba_marseille","lat":43.24803,"lon":5.37457,"is_reserved":false,"is_disabled":false,"rental_uris":{"android":"levelo://app?vid=c13cc7fc-25ad-404a-8ab1-c28d5e93f103","ios":"levelo://app?vid=c13cc7fc-25ad-404a-8ab1-c28d5e93f103"},"vehicle_type_id":"4","last_reported":1751058547,"current_range_meters":18800,"station_id":"ce4bhgh2rcd13ifvqfb0","pricing_plan_id":"cebpf4jnsgd1na2vs0mg"},{"bike_id":"53790279-eb05-4e23-bb46-5627a2b51d23","system_id":"levelo_inurba_marseille","lat":43.25485,"lon":5.37645,"is_reserved":false,"is_disabled":false,"rental_uris":{"android":"levelo://app?vid=53790279-eb05-4e23-bb46-5627a2b51d23","ios":"levelo://app?vid=53790279-eb05-4e23-bb46-5627a2b51d23"},"vehicle_type_id":"4","last_reported":1751058547,"current_range_meters":18800,"station_id":"ce4bhh12rcd13ifvqff0","pricing_plan_id":"cebpf4jnsgd1na2vs0mg"},{"bike_id":"3b29bbc5-5364-48f3-aece-2db1baf3d1f0","system_id":"levelo_inurba_marseille","lat":43.27169,"lon":5.40991,"is_reserved":false,"is_disabled":false,"rental_uris":{"android":"levelo://app?vid=3b29bbc5-5364-48f3-aece-2db1baf3d1f0","ios":"levelo://app?vid=3b29bbc5-5364-48f3-aece-2db1baf3d1f0"},"vehicle_type_id":"4","last_reported":1751058547,"current_range_meters":18800,"station_id":"ce4bhl12rcd13ifvqgf0","pricing_plan_id":"cebpf4jnsgd1na2vs0mg"},{"bike_id":"f810be2a-3c00-446f-9ba1-1f3840ce349d","system_id":"levelo_inurba_marseille","lat":43.32105,"lon":5.36767,"is_reserved":false,"is_disabled":false,"rental_uris":{"android":"levelo://app?vid=f810be2a-3c00-446f-9ba1-1f3840ce349d","ios":"levelo://app?vid=f810be2a-3c00-446f-9ba1-1f3840ce349d"},"vehicle_type_id":"4","last_reported":1751058547,"current_range_meters":18800,"station_id":"ce4bhrh2rcd13ifvqhug","pricing_plan_id":"cebpf4jnsgd1na2vs0mg"},{"bike_id":"b334124c-c876-45e4-8b38-f47ede11b4b7","system_id":"levelo_inurba_marseille","lat":43.217604,"lon":5.345832,"is_reserved":false,"is_disabled":false,"rental_uris":{"android":"levelo://app?vid=b334124c-c876-45e4-8b38-f47ede11b4b7","ios":"levelo://app?vid=b334124c-c876-45e4-8b38-f47ede11b4b7"},"vehicle_type_id":"4","last_reported":1751058547,"current_range_meters":18800,"station_id":"st_cvj6r9ubvosntc0bgbag","pricing_plan_id":"cebpf4jnsgd1na2vs0mg"},{"bike_id":"19149b91-39fa-4447-a6d2-87f048aed867","system_id":"levelo_inurba_marseille","lat":43.29528,"lon":5.38548,"is_reserved":false,"is_disabled":false,"rental_uris":{"android":"levelo://app?vid=19149b91-39fa-4447-a6d2-87f048aed867","ios":"levelo://app?vid=19149b91-39fa-4447-a6d2-87f048aed867"},"vehicle_type_id":"4","last_reported":1751058547,"current_range_meters":19200,"station_id":"ce4bgih2rcd13ifvqba0","pricing_plan_id":"cebpf4jnsgd1na2vs0mg"},{"bike_id":"a49ac062-5b5d-45ce-a615-a8eb9898f673","system_id":"levelo_inurba_marseille","lat":43.29529,"lon":5.38549,"is_reserved":false,"is_disabled":false,"rental_uris":{"android":"levelo://app?vid=a49ac062-5b5d-45ce-a615-a8eb9898f673","ios":"levelo://app?vid=a49ac062-5b5d-45ce-a615-a8eb9898f673"},"vehicle_type_id":"4","last_reported":1751058547,"current_range_meters":19200,"station_id":"ce4bgih2rcd13ifvqba0","pricing_plan_id":"cebpf4jnsgd1na2vs0mg"},{"bike_id":"04beb7f7-80cb-44d6-ab40-b104ac001165","system_id":"levelo_inurba_marseille","lat":43.2979,"lon":5.38094,"is_reserved":false,"is_disabled":false,"rental_uris":{"android":"levelo://app?vid=04beb7f7-80cb-44d6-ab40-b104ac001165","ios":"levelo://app?vid=04beb7f7-80cb-44d6-ab40-b104ac001165"},"vehicle_type_id":"4","last_reported":1751058547,"current_range_meters":19200,"station_id":"ce4bgip2rcd13ifvqbb0","pricing_plan_id":"cebpf4jnsgd1na2vs0mg"},{"bike_id":"e2f100fc-6a18-4e68-a1ba-9090ef1f425d","system_id":"levelo_inurba_marseille","lat":43.29274,"lon":5.40131,"is_reserved":false,"is_disabled":false,"rental_uris":{"android":"levelo://app?vid=e2f100fc-6a18-4e68-a1ba-9090ef1f425d","ios":"levelo://app?vid=e2f100fc-6a18-4e68-a1ba-9090ef1f425d"},"vehicle_type_id":"4","last_reported":1751058547,"current_range_meters":19200,"station_id":"ce4bh312rcd13ifvqdk0","pricing_plan_id":"cebpf4jnsgd1na2vs0mg"},{"bike_id":"2287b753-3344-403e-a9e0-526651a52461","system_id":"levelo_inurba_marseille","lat":43.24068,"lon":5.37759,"is_reserved":false,"is_disabled":false,"rental_uris":{"android":"levelo://app?vid=2287b753-3344-403e-a9e0-526651a52461","ios":"levelo://app?vid=2287b753-3344-403e-a9e0-526651a52461"},"vehicle_type_id":"4","last_reported":1751058547,"current_range_meters":19200,"station_id":"ce4bhnp2rcd13ifvqgvg","pricing_plan_id":"cebpf4jnsgd1na2vs0mg"},{"bike_id":"298cd66e-5062-4f99-8488-0733fca9e931","system_id":"levelo_inurba_marseille","lat":43.24075,"lon":5.37763,"is_reserved":false,"is_disabled":false,"rental_uris":{"android":"levelo://app?vid=298cd66e-5062-4f99-8488-0733fca9e931","ios":"levelo://app?vid=298cd66e-5062-4f99-8488-0733fca9e931"},"vehicle_type_id":"4","last_reported":1751058547,"current_range_meters":19200,"station_id":"ce4bhnp2rcd13ifvqgvg","pricing_plan_id":"cebpf4jnsgd1na2vs0mg"},{"bike_id":"1d672514-ff10-42af-96ae-162d583dabae","system_id":"levelo_inurba_marseille","lat":43.31704,"lon":5.43718,"is_reserved":false,"is_disabled":false,"rental_uris":{"android":"levelo://app?vid=1d672514-ff10-42af-96ae-162d583dabae","ios":"levelo://app?vid=1d672514-ff10-42af-96ae-162d583dabae"},"vehicle_type_id":"4","last_reported":1751058547,"current_range_meters":19200,"station_id":"ce4bhp92rcd13ifvqhcg","pricing_plan_id":"cebpf4jnsgd1na2vs0mg"},{"bike_id":"73eae19d-5cc5-48fe-810c-85fc7175c6a0","system_id":"levelo_inurba_marseille","lat":43.23078,"lon":5.35517,"is_reserved":false,"is_disabled":false,"rental_uris":{"android":"levelo://app?vid=73eae19d-5cc5-48fe-810c-85fc7175c6a0","ios":"levelo://app?vid=73eae19d-5cc5-48fe-810c-85fc7175c6a0"},"vehicle_type_id":"4","last_reported":1751058547,"current_range_meters":19200,"station_id":"cpo3342slgdg3j2ifvpg","pricing_plan_id":"cebpf4jnsgd1na2vs0mg"},{"bike_id":"b13877a6-4825-4d82-b46b-67fa8ad66c5d","system_id":"levelo_inurba_marseille","lat":43.21198,"lon":5.35078,"is_reserved":false,"is_disabled":false,"rental_uris":{"android":"levelo://app?vid=b13877a6-4825-4d82-b46b-67fa8ad66c5d","ios":"levelo://app?vid=b13877a6-4825-4d82-b46b-67fa8ad66c5d"},"vehicle_type_id":"4","last_reported":1751058547,"current_range_meters":19200,"station_id":"st_cvj6sg6p6f1abm77japg","pricing_plan_id":"cebpf4jnsgd1na2vs0mg"},{"bike_id":"f342fe44-5d74-40e3-a0fa-5214bcb4d08c","system_id":"levelo_inurba_marseille","lat":43.31676,"lon":5.40461,"is_reserved":false,"is_disabled":false,"rental_uris":{"android":"levelo://app?vid=f342fe44-5d74-40e3-a0fa-5214bcb4d08c","ios":"levelo://app?vid=f342fe44-5d74-40e3-a0fa-5214bcb4d08c"},"vehicle_type_id":"4","last_reported":1751058547,"current_range_meters":19600,"station_id":"ce4bh012rcd13ifvqd00","pricing_plan_id":"cebpf4jnsgd1na2vs0mg"},{"bike_id":"c80d55cb-e374-44b8-9a86-d29374e4916d","system_id":"levelo_inurba_marseille","lat":43.29419,"lon":5.38624,"is_reserved":false,"is_disabled":false,"rental_uris":{"android":"levelo://app?vid=c80d55cb-e374-44b8-9a86-d29374e4916d","ios":"levelo://app?vid=c80d55cb-e374-44b8-9a86-d29374e4916d"},"vehicle_type_id":"4","last_reported":1751058547,"current_range_meters":19600,"station_id":"ce4bh2h2rcd13ifvqdh0","pricing_plan_id":"cebpf4jnsgd1na2vs0mg"},{"bike_id":"2319f758-8cc4-44be-a026-46a4638bdf6c","system_id":"levelo_inurba_marseille","lat":43.27904,"lon":5.39576,"is_reserved":false,"is_disabled":false,"rental_uris":{"android":"levelo://app?vid=2319f758-8cc4-44be-a026-46a4638bdf6c","ios":"levelo://app?vid=2319f758-8cc4-44be-a026-46a4638bdf6c"},"vehicle_type_id":"4","last_reported":1751058547,"current_range_meters":19600,"station_id":"ce4bhf92rcd13ifvqf40","pricing_plan_id":"cebpf4jnsgd1na2vs0mg"},{"bike_id":"7de6199c-be75-4198-b587-0b9314aee21f","system_id":"levelo_inurba_marseille","lat":43.27914,"lon":5.39576,"is_reserved":false,"is_disabled":false,"rental_uris":{"android":"levelo://app?vid=7de6199c-be75-4198-b587-0b9314aee21f","ios":"levelo://app?vid=7de6199c-be75-4198-b587-0b9314aee21f"},"vehicle_type_id":"4","last_reported":1751058547,"current_range_meters":19600,"station_id":"ce4bhf92rcd13ifvqf40","pricing_plan_id":"cebpf4jnsgd1na2vs0mg"},{"bike_id":"44b677c8-76ed-4eac-8888-58151f9d5d6e","system_id":"levelo_inurba_marseille","lat":43.31488,"lon":5.36937,"is_reserved":false,"is_disabled":false,"rental_uris":{"android":"levelo://app?vid=44b677c8-76ed-4eac-8888-58151f9d5d6e","ios":"levelo://app?vid=44b677c8-76ed-4eac-8888-58151f9d5d6e"},"vehicle_type_id":"4","last_reported":1751058547,"current_range_meters":20000,"station_id":"","pricing_plan_id":"cebpf4jnsgd1na2vs0mg"},{"bike_id":"d308c658-b19c-49c0-8014-5506ff26f69a","system_id":"levelo_inurba_marseille","lat":43.23073,"lon":5.40503,"is_reserved":false,"is_disabled":false,"rental_uris":{"android":"levelo://app?vid=d308c658-b19c-49c0-8014-5506ff26f69a","ios":"levelo://app?vid=d308c658-b19c-49c0-8014-5506ff26f69a"},"vehicle_type_id":"4","last_reported":1751058547,"current_range_meters":20000,"station_id":"","pricing_plan_id":"cebpf4jnsgd1na2vs0mg"},{"bike_id":"990831b3-bea7-4d9d-be24-88b2a56dd660","system_id":"levelo_inurba_marseille","lat":43.29586,"lon":5.37709,"is_reserved":false,"is_disabled":false,"rental_uris":{"android":"levelo://app?vid=990831b3-bea7-4d9d-be24-88b2a56dd660","ios":"levelo://app?vid=990831b3-bea7-4d9d-be24-88b2a56dd660"},"vehicle_type_id":"4","last_reported":1751058547,"current_range_meters":20000,"station_id":"ce4bgi92rcd13ifvqb90","pricing_plan_id":"cebpf4jnsgd1na2vs0mg"},{"bike_id":"0df125fa-c1e6-4005-8f46-b5c054eacd7b","system_id":"levelo_inurba_marseille","lat":43.29527,"lon":5.38542,"is_reserved":false,"is_disabled":false,"rental_uris":{"android":"levelo://app?vid=0df125fa-c1e6-4005-8f46-b5c054eacd7b","ios":"levelo://app?vid=0df125fa-c1e6-4005-8f46-b5c054eacd7b"},"vehicle_type_id":"4","last_reported":1751058547,"current_range_meters":20000,"station_id":"ce4bgih2rcd13ifvqba0","pricing_plan_id":"cebpf4jnsgd1na2vs0mg"},{"bike_id":"da4b597a-90f5-4754-9444-e5a1b6aa78d9","system_id":"levelo_inurba_marseille","lat":43.29527,"lon":5.38546,"is_reserved":false,"is_disabled":false,"rental_uris":{"android":"levelo://app?vid=da4b597a-90f5-4754-9444-e5a1b6aa78d9","ios":"levelo://app?vid=da4b597a-90f5-4754-9444-e5a1b6aa78d9"},"vehicle_type_id":"4","last_reported":1751058547,"current_range_meters":20000,"station_id":"ce4bgih2rcd13ifvqba0","pricing_plan_id":"cebpf4jnsgd1na2vs0mg"},{"bike_id":"77d3162c-fc96-4b68-bb5f-10c1afe59ceb","system_id":"levelo_inurba_marseille","lat":43.29784,"lon":5.38109,"is_reserved":false,"is_disabled":false,"rental_uris":{"android":"levelo://app?vid=77d3162c-fc96-4b68-bb5f-10c1afe59ceb","ios":"levelo://app?vid=77d3162c-fc96-4b68-bb5f-10c1afe59ceb"},"vehicle_type_id":"4","last_reported":1751058547,"current_range_meters":20000,"station_id":"ce4bgip2rcd13ifvqbb0","pricing_plan_id":"cebpf4jnsgd1na2vs0mg"},{"bike_id":"55af07b0-17d7-4073-895a-9fdc2ec46a1d","system_id":"levelo_inurba_marseille","lat":43.30207,"lon":5.39472,"is_reserved":false,"is_disabled":false,"rental_uris":{"android":"levelo://app?vid=55af07b0-17d7-4073-895a-9fdc2ec46a1d","ios":"levelo://app?vid=55af07b0-17d7-4073-895a-9fdc2ec46a1d"},"vehicle_type_id":"4","last_reported":1751058547,"current_range_meters":20000,"station_id":"ce4bh0p2rcd13ifvqd70","pricing_plan_id":"cebpf4jnsgd1na2vs0mg"},{"bike_id":"c0a2de0a-20e3-4e62-848e-f0dbd6b2e588","system_id":"levelo_inurba_marseille","lat":43.22512,"lon":5.34765,"is_reserved":false,"is_disabled":false,"rental_uris":{"android":"levelo://app?vid=c0a2de0a-20e3-4e62-848e-f0dbd6b2e588","ios":"levelo://app?vid=c0a2de0a-20e3-4e62-848e-f0dbd6b2e588"},"vehicle_type_id":"4","last_reported":1751058547,"current_range_meters":20000,"station_id":"st_cvj5dfep6f1abm77gieg","pricing_plan_id":"cebpf4jnsgd1na2vs0mg"},{"bike_id":"4f7da216-f811-4c57-9e64-cdee7467bddd","system_id":"levelo_inurba_marseille","lat":43.22503,"lon":5.347863,"is_reserved":false,"is_disabled":false,"rental_uris":{"android":"levelo://app?vid=4f7da216-f811-4c57-9e64-cdee7467bddd","ios":"levelo://app?vid=4f7da216-f811-4c57-9e64-cdee7467bddd"},"vehicle_type_id":"4","last_reported":1751058547,"current_range_meters":20000,"station_id":"st_cvj5dfep6f1abm77gieg","pricing_plan_id":"cebpf4jnsgd1na2vs0mg"},{"bike_id":"4fbaba89-3583-4c5a-8a03-5000d5dfebaf","system_id":"levelo_inurba_marseille","lat":43.30543,"lon":5.36559,"is_reserved":false,"is_disabled":false,"rental_uris":{"android":"levelo://app?vid=4fbaba89-3583-4c5a-8a03-5000d5dfebaf","ios":"levelo://app?vid=4fbaba89-3583-4c5a-8a03-5000d5dfebaf"},"vehicle_type_id":"4","last_reported":1751058547,"current_range_meters":20400,"station_id":"ce4bgs12rcd13ifvqcag","pricing_plan_id":"cebpf4jnsgd1na2vs0mg"},{"bike_id":"2e4ab194-830e-477d-8bfc-6200db4077af","system_id":"levelo_inurba_marseille","lat":43.29414,"lon":5.38621,"is_reserved":false,"is_disabled":false,"rental_uris":{"android":"levelo://app?vid=2e4ab194-830e-477d-8bfc-6200db4077af","ios":"levelo://app?vid=2e4ab194-830e-477d-8bfc-6200db4077af"},"vehicle_type_id":"4","last_reported":1751058547,"current_range_meters":20400,"station_id":"ce4bh2h2rcd13ifvqdh0","pricing_plan_id":"cebpf4jnsgd1na2vs0mg"},{"bike_id":"8a5f1ce8-c667-407c-bbea-a6e1b0d0c312","system_id":"levelo_inurba_marseille","lat":43.32474,"lon":5.36581,"is_reserved":false,"is_disabled":false,"rental_uris":{"android":"levelo://app?vid=8a5f1ce8-c667-407c-bbea-a6e1b0d0c312","ios":"levelo://app?vid=8a5f1ce8-c667-407c-bbea-a6e1b0d0c312"},"vehicle_type_id":"4","last_reported":1751058547,"current_range_meters":20400,"station_id":"ce4bhs12rcd13ifvqhvg","pricing_plan_id":"cebpf4jnsgd1na2vs0mg"},{"bike_id":"8938ae4b-572d-47fc-b025-02b05af60188","system_id":"levelo_inurba_marseille","lat":43.22527,"lon":5.34764,"is_reserved":false,"is_disabled":false,"rental_uris":{"android":"levelo://app?vid=8938ae4b-572d-47fc-b025-02b05af60188","ios":"levelo://app?vid=8938ae4b-572d-47fc-b025-02b05af60188"},"vehicle_type_id":"4","last_reported":1751058547,"current_range_meters":20400,"station_id":"st_cvj5dfep6f1abm77gieg","pricing_plan_id":"cebpf4jnsgd1na2vs0mg"},{"bike_id":"b7b58613-cdc6-4750-8137-2d44544d5e13","system_id":"levelo_inurba_marseille","lat":43.31485,"lon":5.36944,"is_reserved":false,"is_disabled":false,"rental_uris":{"android":"levelo://app?vid=b7b58613-cdc6-4750-8137-2d44544d5e13","ios":"levelo://app?vid=b7b58613-cdc6-4750-8137-2d44544d5e13"},"vehicle_type_id":"4","last_reported":1751058547,"current_range_meters":20800,"station_id":"","pricing_plan_id":"cebpf4jnsgd1na2vs0mg"},{"bike_id":"37fae773-c603-46e4-b3e1-610479914831","system_id":"levelo_inurba_marseille","lat":43.27236,"lon":5.38678,"is_reserved":false,"is_disabled":false,"rental_uris":{"android":"levelo://app?vid=37fae773-c603-46e4-b3e1-610479914831","ios":"levelo://app?vid=37fae773-c603-46e4-b3e1-610479914831"},"vehicle_type_id":"4","last_reported":1751058547,"current_range_meters":20800,"station_id":"","pricing_plan_id":"cebpf4jnsgd1na2vs0mg"},{"bike_id":"c387f519-5912-4196-ae29-1d2620f661e6","system_id":"levelo_inurba_marseille","lat":43.297914,"lon":5.381051,"is_reserved":false,"is_disabled":false,"rental_uris":{"android":"levelo://app?vid=c387f519-5912-4196-ae29-1d2620f661e6","ios":"levelo://app?vid=c387f519-5912-4196-ae29-1d2620f661e6"},"vehicle_type_id":"4","last_reported":1751058547,"current_range_meters":20800,"station_id":"ce4bgip2rcd13ifvqbb0","pricing_plan_id":"cebpf4jnsgd1na2vs0mg"},{"bike_id":"93fa22fc-f7cc-4c29-84fc-f4f30b866067","system_id":"levelo_inurba_marseille","lat":43.28704,"lon":5.3739,"is_reserved":false,"is_disabled":false,"rental_uris":{"android":"levelo://app?vid=93fa22fc-f7cc-4c29-84fc-f4f30b866067","ios":"levelo://app?vid=93fa22fc-f7cc-4c29-84fc-f4f30b866067"},"vehicle_type_id":"4","last_reported":1751058547,"current_range_meters":20800,"station_id":"ce4bh3p2rcd13ifvqdq0","pricing_plan_id":"cebpf4jnsgd1na2vs0mg"},{"bike_id":"a10cc646-0446-4b98-9b6c-d70d5bb7a093","system_id":"levelo_inurba_marseille","lat":43.2872,"lon":5.36091,"is_reserved":false,"is_disabled":false,"rental_uris":{"android":"levelo://app?vid=a10cc646-0446-4b98-9b6c-d70d5bb7a093","ios":"levelo://app?vid=a10cc646-0446-4b98-9b6c-d70d5bb7a093"},"vehicle_type_id":"4","last_reported":1751058547,"current_range_meters":20800,"station_id":"cki0cbj6b192h4jlfktg","pricing_plan_id":"cebpf4jnsgd1na2vs0mg"},{"bike_id":"6672828e-1144-4fd5-8b1c-123a3349e341","system_id":"levelo_inurba_marseille","lat":43.280379,"lon":5.408313,"is_reserved":false,"is_disabled":false,"rental_uris":{"android":"levelo://app?vid=6672828e-1144-4fd5-8b1c-123a3349e341","ios":"levelo://app?vid=6672828e-1144-4fd5-8b1c-123a3349e341"},"vehicle_type_id":"4","last_reported":1751058547,"current_range_meters":21600,"station_id":"","pricing_plan_id":"cebpf4jnsgd1na2vs0mg"},{"bike_id":"c595d0e1-c778-4abe-9c79-a9dd74f54e27","system_id":"levelo_inurba_marseille","lat":43.24454,"lon":5.37261,"is_reserved":false,"is_disabled":false,"rental_uris":{"android":"levelo://app?vid=c595d0e1-c778-4abe-9c79-a9dd74f54e27","ios":"levelo://app?vid=c595d0e1-c778-4abe-9c79-a9dd74f54e27"},"vehicle_type_id":"4","last_reported":1751058547,"current_range_meters":21600,"station_id":"","pricing_plan_id":"cebpf4jnsgd1na2vs0mg"},{"bike_id":"ddf14ad6-7714-43ed-873e-d9c0c040eb7f","system_id":"levelo_inurba_marseille","lat":43.265474,"lon":5.372869,"is_reserved":false,"is_disabled":false,"rental_uris":{"android":"levelo://app?vid=ddf14ad6-7714-43ed-873e-d9c0c040eb7f","ios":"levelo://app?vid=ddf14ad6-7714-43ed-873e-d9c0c040eb7f"},"vehicle_type_id":"4","last_reported":1751058547,"current_range_meters":21600,"station_id":"ce4bhg12rcd13ifvqf70","pricing_plan_id":"cebpf4jnsgd1na2vs0mg"},{"bike_id":"50ec48c0-d225-46f2-ba94-8777d234d58c","system_id":"levelo_inurba_marseille","lat":43.2548,"lon":5.37666,"is_reserved":false,"is_disabled":false,"rental_uris":{"android":"levelo://app?vid=50ec48c0-d225-46f2-ba94-8777d234d58c","ios":"levelo://app?vid=50ec48c0-d225-46f2-ba94-8777d234d58c"},"vehicle_type_id":"4","last_reported":1751058547,"current_range_meters":21600,"station_id":"ce4bhh12rcd13ifvqff0","pricing_plan_id":"cebpf4jnsgd1na2vs0mg"},{"bike_id":"7757c5d7-8597-4da8-bc28-0c6a39bb89b9","system_id":"levelo_inurba_marseille","lat":43.32292,"lon":5.38258,"is_reserved":false,"is_disabled":false,"rental_uris":{"android":"levelo://app?vid=7757c5d7-8597-4da8-bc28-0c6a39bb89b9","ios":"levelo://app?vid=7757c5d7-8597-4da8-bc28-0c6a39bb89b9"},"vehicle_type_id":"4","last_reported":1751058547,"current_range_meters":21600,"station_id":"ce4bhr12rcd13ifvqhqg","pricing_plan_id":"cebpf4jnsgd1na2vs0mg"},{"bike_id":"735fb3ec-51d3-42a0-b0e0-35a6ef148211","system_id":"levelo_inurba_marseille","lat":43.31285,"lon":5.37316,"is_reserved":false,"is_disabled":false,"rental_uris":{"android":"levelo://app?vid=735fb3ec-51d3-42a0-b0e0-35a6ef148211","ios":"levelo://app?vid=735fb3ec-51d3-42a0-b0e0-35a6ef148211"},"vehicle_type_id":"4","last_reported":1751058547,"current_range_meters":22000,"station_id":"","pricing_plan_id":"cebpf4jnsgd1na2vs0mg"},{"bike_id":"d5cad88f-3015-4569-bd80-d12afa88eeda","system_id":"levelo_inurba_marseille","lat":43.29523,"lon":5.38549,"is_reserved":false,"is_disabled":false,"rental_uris":{"android":"levelo://app?vid=d5cad88f-3015-4569-bd80-d12afa88eeda","ios":"levelo://app?vid=d5cad88f-3015-4569-bd80-d12afa88eeda"},"vehicle_type_id":"4","last_reported":1751058547,"current_range_meters":22000,"station_id":"ce4bgih2rcd13ifvqba0","pricing_plan_id":"cebpf4jnsgd1na2vs0mg"},{"bike_id":"934c0f1f-74e9-4dc3-964c-a90cf008b33b","system_id":"levelo_inurba_marseille","lat":43.295267,"lon":5.38529,"is_reserved":false,"is_disabled":false,"rental_uris":{"android":"levelo://app?vid=934c0f1f-74e9-4dc3-964c-a90cf008b33b","ios":"levelo://app?vid=934c0f1f-74e9-4dc3-964c-a90cf008b33b"},"vehicle_type_id":"4","last_reported":1751058547,"current_range_meters":22000,"station_id":"ce4bgih2rcd13ifvqba0","pricing_plan_id":"cebpf4jnsgd1na2vs0mg"},{"bike_id":"25424da7-f338-494c-8e79-15530f7fcdcb","system_id":"levelo_inurba_marseille","lat":43.29591,"lon":5.38097,"is_reserved":false,"is_disabled":false,"rental_uris":{"android":"levelo://app?vid=25424da7-f338-494c-8e79-15530f7fcdcb","ios":"levelo://app?vid=25424da7-f338-494c-8e79-15530f7fcdcb"},"vehicle_type_id":"4","last_reported":1751058547,"current_range_meters":22000,"station_id":"ce4bgl12rcd13ifvqbo0","pricing_plan_id":"cebpf4jnsgd1na2vs0mg"},{"bike_id":"addd3340-735c-4d2d-a3e2-2f25faa96ac1","system_id":"levelo_inurba_marseille","lat":43.29575,"lon":5.3997,"is_reserved":false,"is_disabled":false,"rental_uris":{"android":"levelo://app?vid=addd3340-735c-4d2d-a3e2-2f25faa96ac1","ios":"levelo://app?vid=addd3340-735c-4d2d-a3e2-2f25faa96ac1"},"vehicle_type_id":"4","last_reported":1751058547,"current_range_meters":22000,"station_id":"ce4bh312rcd13ifvqdj0","pricing_plan_id":"cebpf4jnsgd1na2vs0mg"},{"bike_id":"265dfc80-330a-4614-8e4b-d019669c32d2","system_id":"levelo_inurba_marseille","lat":43.28686,"lon":5.37397,"is_reserved":false,"is_disabled":false,"rental_uris":{"android":"levelo://app?vid=265dfc80-330a-4614-8e4b-d019669c32d2","ios":"levelo://app?vid=265dfc80-330a-4614-8e4b-d019669c32d2"},"vehicle_type_id":"4","last_reported":1751058547,"current_range_meters":22000,"station_id":"ce4bh3p2rcd13ifvqdq0","pricing_plan_id":"cebpf4jnsgd1na2vs0mg"},{"bike_id":"ca9c81fe-835b-457c-81e9-b93b6bd3a119","system_id":"levelo_inurba_marseille","lat":43.27909,"lon":5.39579,"is_reserved":false,"is_disabled":false,"rental_uris":{"android":"levelo://app?vid=ca9c81fe-835b-457c-81e9-b93b6bd3a119","ios":"levelo://app?vid=ca9c81fe-835b-457c-81e9-b93b6bd3a119"},"vehicle_type_id":"4","last_reported":1751058547,"current_range_meters":22000,"station_id":"ce4bhf92rcd13ifvqf40","pricing_plan_id":"cebpf4jnsgd1na2vs0mg"},{"bike_id":"67bdd638-741f-44b5-943b-d9a541814143","system_id":"levelo_inurba_marseille","lat":43.32337,"lon":5.40625,"is_reserved":false,"is_disabled":false,"rental_uris":{"android":"levelo://app?vid=67bdd638-741f-44b5-943b-d9a541814143","ios":"levelo://app?vid=67bdd638-741f-44b5-943b-d9a541814143"},"vehicle_type_id":"4","last_reported":1751058547,"current_range_meters":22000,"station_id":"ce4bhq92rcd13ifvqhjg","pricing_plan_id":"cebpf4jnsgd1na2vs0mg"},