{"last_updated":1726207996,"ttl":30,"version":"2.2","data":{"bikes":[{"bike_id":"2ca2fd52-6283-4397-ac7e-8db28b0c8f78","system_id":"levelo_inurba_marseille","lat":43.23196,"lon":5.35555,"is_reserved":false,"is_disabled":false,"rental_uris":{"android":"levelo://app?vid=2ca2fd52-6283-4397-ac7e-8db28b0c8f78","ios":"levelo://app?vid=2ca2fd52-6283-4397-ac7e-8db28b0c8f78"},"vehicle_type_id":"4","last_reported":1726207997,"current_range_meters":14400,"station_id":"ce4bhu92rcd13ifvqi70","pricing_plan_id":"cebpf4jnsgd1na2vs0mg"},{"bike_id":"ffa4feb4-40ea-4cc4-bd15-aebc7fc4c6af","system_id":"levelo_inurba_marseille","lat":43.289324,"lon":5.366488,"is_reserved":false,"is_disabled":false,"rental_uris":{"android":"levelo://app?vid=ffa4feb4-40ea-4cc4-bd15-aebc7fc4c6af","ios":"levelo://app?vid=ffa4feb4-40ea-4cc4-bd15-aebc7fc4c6af"},"vehicle_type_id":"4","last_reported":1726207997,"current_range_meters":38400,"station_id":"ce4bhap2rcd13ifvqek0","pricing_plan_id":"cebpf4jnsgd1na2vs0mg"},{"bike_id":"9b633d55-16bf-493b-aaf9-bf563c4bdace","system_id":"levelo_inurba_marseille","lat":43.28441,"lon":5.35906,"is_reserved":false,"is_disabled":false,"rental_uris":{"android":"levelo://app?vid=9b633d55-16bf-493b-aaf9-bf563c4bdace","ios":"levelo://app?vid=9b633d55-16bf-493b-aaf9-bf563c4bdace"},"vehicle_type_id":"4","last_reported":1726207997,"current_range_meters":38800,"station_id":"ce4bhah2rcd13ifvqei0","pricing_plan_id":"cebpf4jnsgd1na2vs0mg"},{"bike_id":"ad4e1c78-f0d7-492f-b728-5e388f9b88f9","system_id":"levelo_inurba_marseille","lat":43.26951,"lon":5.38621,"is_reserved":false,"is_disabled":false,"rental_uris":{"android":"levelo://app?vid=ad4e1c78-f0d7-492f-b728-5e388f9b88f9","ios":"levelo://app?vid=ad4e1c78-f0d7-492f-b728-5e388f9b88f9"},"vehicle_type_id":"4","last_reported":1726207997,"current_range_meters":19200,"station_id":"ce4bhh92rcd13ifvqfh0","pricing_plan_id":"cebpf4jnsgd1na2vs0mg"},{"bike_id":"17eaeb7a-22bf-4e92-bb7d-8f4c1ac5a7dd","system_id":"levelo_inurba_marseille","lat":43.27519,"lon":5.42441,"is_reserved":false,"is_disabled":false,"rental_uris":{"android":"levelo://app?vid=17eaeb7a-22bf-4e92-bb7d-8f4c1ac5a7dd","ios":"levelo://app?vid=17eaeb7a-22bf-4e92-bb7d-8f4c1ac5a7dd"},"vehicle_type_id":"4","last_reported":1726207997,"current_range_meters":36800,"station_id":"ce4bhn92rcd13ifvqgrg","pricing_plan_id":"cebpf4jnsgd1na2vs0mg"},{"bike_id":"ae8c7bd4-e320-4650-aaec-5acdea38c512","system_id":"levelo_inurba_marseille","lat":43.28041,"lon":5.3866,"is_reserved":false,"is_disabled":false,"rental_uris":{"android":"levelo://app?vid=ae8c7bd4-e320-4650-aaec-5acdea38c512","ios":"levelo://app?vid=ae8c7bd4-e320-4650-aaec-5acdea38c512"},"vehicle_type_id":"4","last_reported":1726207997,"current_range_meters":23200,"station_id":"","pricing_plan_id":"cebpf4jnsgd1na2vs0mg"},{"bike_id":"50ed249d-2582-4a40-a2d4-eb1fc25760e5","system_id":"levelo_inurba_marseille","lat":43.30303,"lon":5.39221,"is_reserved":false,"is_disabled":false,"rental_uris":{"android":"levelo://app?vid=50ed249d-2582-4a40-a2d4-eb1fc25760e5","ios":"levelo://app?vid=50ed249d-2582-4a40-a2d4-eb1fc25760e5"},"vehicle_type_id":"4","last_reported":1726207997,"current_range_meters":32800,"station_id":"ce4bgkh2rcd13ifvqbk0","pricing_plan_id":"cebpf4jnsgd1na2vs0mg"},{"bike_id":"0ac293a5-409b-4c77-9d1b-336bd09deec1","system_id":"levelo_inurba_marseille","lat":43.31511,"lon":5.3731,"is_reserved":false,"is_disabled":false,"rental_uris":{"android":"levelo://app?vid=0ac293a5-409b-4c77-9d1b-336bd09deec1","ios":"levelo://app?vid=0ac293a5-409b-4c77-9d1b-336bd09deec1"},"vehicle_type_id":"4","last_reported":1726207997,"current_range_meters":38000,"station_id":"ce4bgt12rcd13ifvqcd0","pricing_plan_id":"cebpf4jnsgd1na2vs0mg"},{"bike_id":"6857c5d1-5581-450d-a969-e54e4e134161","system_id":"levelo_inurba_marseille","lat":43.27564,"lon":5.38419,"is_reserved":false,"is_disabled":false,"rental_uris":{"android":"levelo://app?vid=6857c5d1-5581-450d-a969-e54e4e134161","ios":"levelo://app?vid=6857c5d1-5581-450d-a969-e54e4e134161"},"vehicle_type_id":"4","last_reported":1726207997,"current_range_meters":30400,"station_id":"ce4bhh92rcd13ifvqfi0","pricing_plan_id":"cebpf4jnsgd1na2vs0mg"},{"bike_id":"1c9df10b-5f8c-4fbe-a691-32d403952ff7","system_id":"levelo_inurba_marseille","lat":43.33607,"lon":5.41036,"is_reserved":false,"is_disabled":false,"rental_uris":{"android":"levelo://app?vid=1c9df10b-5f8c-4fbe-a691-32d403952ff7","ios":"levelo://app?vid=1c9df10b-5f8c-4fbe-a691-32d403952ff7"},"vehicle_type_id":"4","last_reported":1726207997,"current_range_meters":14800,"station_id":"ce4bhqh2rcd13ifvqhmg","pricing_plan_id":"cebpf4jnsgd1na2vs0mg"},{"bike_id":"5b79b7d3-339d-450b-98fd-9227d31a07f6","system_id":"levelo_inurba_marseille","lat":43.25506,"lon":5.37657,"is_reserved":false,"is_disabled":false,"rental_uris":{"android":"levelo://app?vid=5b79b7d3-339d-450b-98fd-9227d31a07f6","ios":"levelo://app?vid=5b79b7d3-339d-450b-98fd-9227d31a07f6"},"vehicle_type_id":"4","last_reported":1726207997,"current_range_meters":29600,"station_id":"ce4bhh12rcd13ifvqff0","pricing_plan_id":"cebpf4jnsgd1na2vs0mg"},{"bike_id":"b961dfeb-c89b-4953-8a6f-897cb13c41c1","system_id":"levelo_inurba_marseille","lat":43.33602,"lon":5.41032,"is_reserved":false,"is_disabled":false,"rental_uris":{"android":"levelo://app?vid=b961dfeb-c89b-4953-8a6f-897cb13c41c1","ios":"levelo://app?vid=b961dfeb-c89b-4953-8a6f-897cb13c41c1"},"vehicle_type_id":"4","last_reported":1726207997,"current_range_meters":27600,"station_id":"ce4bhqh2rcd13ifvqhmg","pricing_plan_id":"cebpf4jnsgd1na2vs0mg"},{"bike_id":"20a93905-b3a1-4ead-a861-f6bd36aa5b5e","system_id":"levelo_inurba_marseille","lat":43.23155,"lon":5.4371,"is_reserved":false,"is_disabled":false,"rental_uris":{"android":"levelo://app?vid=20a93905-b3a1-4ead-a861-f6bd36aa5b5e","ios":"levelo://app?vid=20a93905-b3a1-4ead-a861-f6bd36aa5b5e"},"vehicle_type_id":"4","last_reported":1726207997,"current_range_meters":16000,"station_id":"ce4bhmp2rcd13ifvqgog","pricing_plan_id":"cebpf4jnsgd1na2vs0mg"},{"bike_id":"5acc2cfe-a866-4897-9174-0395a94f269d","system_id":"levelo_inurba_marseille","lat":43.31707,"lon":5.37724,"is_reserved":false,"is_disabled":false,"rental_uris":{"android":"levelo://app?vid=5acc2cfe-a866-4897-9174-0395a94f269d","ios":"levelo://app?vid=5acc2cfe-a866-4897-9174-0395a94f269d"},"vehicle_type_id":"4","last_reported":1726207997,"current_range_meters":6800,"station_id":"ce4bgth2rcd13ifvqch0","pricing_plan_id":"cebpf4jnsgd1na2vs0mg"},{"bike_id":"118d8d6e-e982-4920-9eff-10d0a637c53e","system_id":"levelo_inurba_marseille","lat":43.24082,"lon":5.37757,"is_reserved":false,"is_disabled":false,"rental_uris":{"android":"levelo://app?vid=118d8d6e-e982-4920-9eff-10d0a637c53e","ios":"levelo://app?vid=118d8d6e-e982-4920-9eff-10d0a637c53e"},"vehicle_type_id":"4","last_reported":1726207997,"current_range_meters":8400,"station_id":"ce4bhnp2rcd13ifvqgvg","pricing_plan_id":"cebpf4jnsgd1na2vs0mg"},{"bike_id":"f8d0fba0-b375-496d-9fb6-aac6b8a7715f","system_id":"levelo_inurba_marseille","lat":43.3171,"lon":5.37745,"is_reserved":false,"is_disabled":false,"rental_uris":{"android":"levelo://app?vid=f8d0fba0-b375-496d-9fb6-aac6b8a7715f","ios":"levelo://app?vid=f8d0fba0-b375-496d-9fb6-aac6b8a7715f"},"vehicle_type_id":"4","last_reported":1726207997,"current_range_meters":10000,"station_id":"ce4bgth2rcd13ifvqch0","pricing_plan_id":"cebpf4jnsgd1na2vs0mg"},{"bike_id":"f45d9413-9a73-47f2-a10e-0dc762623601","system_id":"levelo_inurba_marseille","lat":43.23161,"lon":5.43703,"is_reserved":false,"is_disabled":false,"rental_uris":{"android":"levelo://app?vid=f45d9413-9a73-47f2-a10e-0dc762623601","ios":"levelo://app?vid=f45d9413-9a73-47f2-a10e-0dc762623601"},"vehicle_type_id":"4","last_reported":1726207997,"current_range_meters":36000,"station_id":"ce4bhmp2rcd13ifvqgog","pricing_plan_id":"cebpf4jnsgd1na2vs0mg"},{"bike_id":"13ec4916-f0ea-4897-8afc-596425b42c42","system_id":"levelo_inurba_marseille","lat":43.23193,"lon":5.35551,"is_reserved":false,"is_disabled":false,"rental_uris":{"android":"levelo://app?vid=13ec4916-f0ea-4897-8afc-596425b42c42","ios":"levelo://app?vid=13ec4916-f0ea-4897-8afc-596425b42c42"},"vehicle_type_id":"4","last_reported":1726207997,"current_range_meters":33600,"station_id":"ce4bhu92rcd13ifvqi70","pricing_plan_id":"cebpf4jnsgd1na2vs0mg"},{"bike_id":"b620d509-8da0-4979-9d23-fef6c70ac3cc","system_id":"levelo_inurba_marseille","lat":43.28398,"lon":5.37518,"is_reserved":false,"is_disabled":false,"rental_uris":{"android":"levelo://app?vid=b620d509-8da0-4979-9d23-fef6c70ac3cc","ios":"levelo://app?vid=b620d509-8da0-4979-9d23-fef6c70ac3cc"},"vehicle_type_id":"4","last_reported":1726207997,"current_range_meters":36800,"station_id":"ce4bh412rcd13ifvqds0","pricing_plan_id":"cebpf4jnsgd1na2vs0mg"},{"bike_id":"b6e3e73b-d583-48b5-980c-ef8c79d236fd","system_id":"levelo_inurba_marseille","lat":43.2408,"lon":5.37757,"is_reserved":false,"is_disabled":false,"rental_uris":{"android":"levelo://app?vid=b6e3e73b-d583-48b5-980c-ef8c79d236fd","ios":"levelo://app?vid=b6e3e73b-d583-48b5-980c-ef8c79d236fd"},"vehicle_type_id":"4","last_reported":1726207997,"current_range_meters":30400,"station_id":"ce4bhnp2rcd13ifvqgvg","pricing_plan_id":"cebpf4jnsgd1na2vs0mg"},{"bike_id":"d13844ac-d8d5-4630-a735-d14a8cd8cfc2","system_id":"levelo_inurba_marseille","lat":43.24667,"lon":5.38157,"is_reserved":false,"is_disabled":false,"rental_uris":{"android":"levelo://app?vid=d13844ac-d8d5-4630-a735-d14a8cd8cfc2","ios":"levelo://app?vid=d13844ac-d8d5-4630-a735-d14a8cd8cfc2"},"vehicle_type_id":"4","last_reported":1726207997,"current_range_meters":36400,"station_id":"ce4bhih2rcd13ifvqfr0","pricing_plan_id":"cebpf4jnsgd1na2vs0mg"},{"bike_id":"a59d64a6-0c90-478e-8726-6eda2f84c2f7","system_id":"levelo_inurba_marseille","lat":43.26026,"lon":5.3755,"is_reserved":false,"is_disabled":false,"rental_uris":{"android":"levelo://app?vid=a59d64a6-0c90-478e-8726-6eda2f84c2f7","ios":"levelo://app?vid=a59d64a6-0c90-478e-8726-6eda2f84c2f7"},"vehicle_type_id":"4","last_reported":1726207997,"current_range_meters":6400,"station_id":"ce4bhgh2rcd13ifvqfa0","pricing_plan_id":"cebpf4jnsgd1na2vs0mg"},{"bike_id":"d035d579-2e69-4a79-8e97-e3875f643f43","system_id":"levelo_inurba_marseille","lat":43.2582,"lon":5.39435,"is_reserved":false,"is_disabled":false,"rental_uris":{"android":"levelo://app?vid=d035d579-2e69-4a79-8e97-e3875f643f43","ios":"levelo://app?vid=d035d579-2e69-4a79-8e97-e3875f643f43"},"vehicle_type_id":"4","last_reported":1726207997,"current_range_meters":38800,"station_id":"ce4bhip2rcd13ifvqft0","pricing_plan_id":"cebpf4jnsgd1na2vs0mg"},{"bike_id":"acd8a3d5-a9db-4ea3-b234-2a790cfd605a","system_id":"levelo_inurba_marseille","lat":43.23953,"lon":5.36634,"is_reserved":false,"is_disabled":false,"rental_uris":{"android":"levelo://app?vid=acd8a3d5-a9db-4ea3-b234-2a790cfd605a","ios":"levelo://app?vid=acd8a3d5-a9db-4ea3-b234-2a790cfd605a"},"vehicle_type_id":"4","last_reported":1726207997,"current_range_meters":18000,"station_id":"ce4bhi12rcd13ifvqfp0","pricing_plan_id":"cebpf4jnsgd1na2vs0mg"},{"bike_id":"ace0ecad-0c66-4c3c-adfb-8d60c244cb6d","system_id":"levelo_inurba_marseille","lat":43.31997,"lon":5.38168,"is_reserved":false,"is_disabled":false,"rental_uris":{"android":"levelo://app?vid=ace0ecad-0c66-4c3c-adfb-8d60c244cb6d","ios":"levelo://app?vid=ace0ecad-0c66-4c3c-adfb-8d60c244cb6d"},"vehicle_type_id":"4","last_reported":1726207997,"current_range_meters":38000,"station_id":"ce4bhr12rcd13ifvqhpg","pricing_plan_id":"cebpf4jnsgd1na2vs0mg"},{"bike_id":"6c33dae3-fcf3-499f-846d-c96896dd451f","system_id":"levelo_inurba_marseille","lat":43.23186,"lon":5.39979,"is_reserved":false,"is_disabled":false,"rental_uris":{"android":"levelo://app?vid=6c33dae3-fcf3-499f-846d-c96896dd451f","ios":"levelo://app?vid=6c33dae3-fcf3-499f-846d-c96896dd451f"},"vehicle_type_id":"4","last_reported":1726207997,"current_range_meters":30000,"station_id":"ce4bhn12rcd13ifvqgqg","pricing_plan_id":"cebpf4jnsgd1na2vs0mg"},{"bike_id":"ee5bd0a5-1257-48de-9343-ea8521c36cdd","system_id":"levelo_inurba_marseille","lat":43.23199,"lon":5.35551,"is_reserved":false,"is_disabled":false,"rental_uris":{"android":"levelo://app?vid=ee5bd0a5-1257-48de-9343-ea8521c36cdd","ios":"levelo://app?vid=ee5bd0a5-1257-48de-9343-ea8521c36cdd"},"vehicle_type_id":"4","last_reported":1726207997,"current_range_meters":4800,"station_id":"ce4bhu92rcd13ifvqi70","pricing_plan_id":"cebpf4jnsgd1na2vs0mg"},{"bike_id":"995d3a7e-289e-4ebd-b785-9d2da426ad57","system_id":"levelo_inurba_marseille","lat":43.23193,"lon":5.3555,"is_reserved":false,"is_disabled":false,"rental_uris":{"android":"levelo://app?vid=995d3a7e-289e-4ebd-b785-9d2da426ad57","ios":"levelo://app?vid=995d3a7e-289e-4ebd-b785-9d2da426ad57"},"vehicle_type_id":"4","last_reported":1726207997,"current_range_meters":27600,"station_id":"ce4bhu92rcd13ifvqi70","pricing_plan_id":"cebpf4jnsgd1na2vs0mg"},{"bike_id":"74c67d55-8a5f-40c9-8066-d68354718f8c","system_id":"levelo_inurba_marseille","lat":43.23186,"lon":5.35554,"is_reserved":false,"is_disabled":false,"rental_uris":{"android":"levelo://app?vid=74c67d55-8a5f-40c9-8066-d68354718f8c","ios":"levelo://app?vid=74c67d55-8a5f-40c9-8066-d68354718f8c"},"vehicle_type_id":"4","last_reported":1726207997,"current_range_meters":31200,"station_id":"ce4bhu92rcd13ifvqi70","pricing_plan_id":"cebpf4jnsgd1na2vs0mg"},{"bike_id":"81af7538-7eb7-440b-8a8e-8de3725bf681","system_id":"levelo_inurba_marseille","lat":43.24552,"lon":5.39524,"is_reserved":false,"is_disabled":false,"rental_uris":{"android":"levelo://app?vid=81af7538-7eb7-440b-8a8e-8de3725bf681","ios":"levelo://app?vid=81af7538-7eb7-440b-8a8e-8de3725bf681"},"vehicle_type_id":"4","last_reported":1726207997,"current_range_meters":3200,"station_id":"ce4bhlp2rcd13ifvqgjg","pricing_plan_id":"cebpf4jnsgd1na2vs0mg"},{"bike_id":"0203a330-e952-4e07-92c6-98d22b471fb8","system_id":"levelo_inurba_marseille","lat":43.30475,"lon":5.37911,"is_reserved":false,"is_disabled":false,"rental_uris":{"android":"levelo://app?vid=0203a330-e952-4e07-92c6-98d22b471fb8","ios":"levelo://app?vid=0203a330-e952-4e07-92c6-98d22b471fb8"},"vehicle_type_id":"4","last_reported":1726207997,"current_range_meters":33200,"station_id":"ce4bgup2rcd13ifvqcn0","pricing_plan_id":"cebpf4jnsgd1na2vs0mg"},{"bike_id":"c7a72c95-d3e6-46b3-8c83-3114a189ce35","system_id":"levelo_inurba_marseille","lat":43.25575,"lon":5.38238,"is_reserved":false,"is_disabled":false,"rental_uris":{"android":"levelo://app?vid=c7a72c95-d3e6-46b3-8c83-3114a189ce35","ios":"levelo://app?vid=c7a72c95-d3e6-46b3-8c83-3114a189ce35"},"vehicle_type_id":"4","last_reported":1726207997,"current_range_meters":10000,"station_id":"ce4bhih2rcd13ifvqfs0","pricing_plan_id":"cebpf4jnsgd1na2vs0mg"},{"bike_id":"de78a72e-8b60-49a7-9a14-18dcd2cbc3ba","system_id":"levelo_inurba_marseille","lat":43.299076,"lon":5.397177,"is_reserved":false,"is_disabled":false,"rental_uris":{"android":"levelo://app?vid=de78a72e-8b60-49a7-9a14-18dcd2cbc3ba","ios":"levelo://app?vid=de78a72e-8b60-49a7-9a14-18dcd2cbc3ba"},"vehicle_type_id":"4","last_reported":1726207997,"current_range_meters":4000,"station_id":"ce4bh2h2rcd13ifvqdh0","pricing_plan_id":"cebpf4jnsgd1na2vs0mg"},{"bike_id":"f61bc5ff-0ca9-4a0a-9ac8-51023b441bc8","system_id":"levelo_inurba_marseille","lat":43.30896,"lon":5.39648,"is_reserved":false,"is_disabled":false,"rental_uris":{"android":"levelo://app?vid=f61bc5ff-0ca9-4a0a-9ac8-51023b441bc8","ios":"levelo://app?vid=f61bc5ff-0ca9-4a0a-9ac8-51023b441bc8"},"vehicle_type_id":"4","last_reported":1726207997,"current_range_meters":36800,"station_id":"ce4bh012rcd13ifvqcv0","pricing_plan_id":"cebpf4jnsgd1na2vs0mg"},{"bike_id":"ddcd6a1d-6048-412e-a374-9c40896ddcb7","system_id":"levelo_inurba_marseille","lat":43.232117,"lon":5.436834,"is_reserved":false,"is_disabled":false,"rental_uris":{"android":"levelo://app?vid=ddcd6a1d-6048-412e-a374-9c40896ddcb7","ios":"levelo://app?vid=ddcd6a1d-6048-412e-a374-9c40896ddcb7"},"vehicle_type_id":"4","last_reported":1726207997,"current_range_meters":24800,"station_id":"ce4bhmp2rcd13ifvqgog","pricing_plan_id":"cebpf4jnsgd1na2vs0mg"},{"bike_id":"7f7d711b-d42e-403c-8bf5-e4217831a361","system_id":"levelo_inurba_marseille","lat":43.28343,"lon":5.381,"is_reserved":false,"is_disabled":false,"rental_uris":{"android":"levelo://app?vid=7f7d711b-d42e-403c-8bf5-e4217831a361","ios":"levelo://app?vid=7f7d711b-d42e-403c-8bf5-e4217831a361"},"vehicle_type_id":"4","last_reported":1726207997,"current_range_meters":18800,"station_id":"ce4bh412rcd13ifvqdr0","pricing_plan_id":"cebpf4jnsgd1na2vs0mg"},{"bike_id":"4c3408ec-cd57-468f-a4f3-d648cffdd4db","system_id":"levelo_inurba_marseille","lat":43.30478,"lon":5.37906,"is_reserved":false,"is_disabled":false,"rental_uris":{"android":"levelo://app?vid=4c3408ec-cd57-468f-a4f3-d648cffdd4db","ios":"levelo://app?vid=4c3408ec-cd57-468f-a4f3-d648cffdd4db"},"vehicle_type_id":"4","last_reported":1726207997,"current_range_meters":14000,"station_id":"ce4bgup2rcd13ifvqcn0","pricing_plan_id":"cebpf4jnsgd1na2vs0mg"},{"bike_id":"3eace698-4cf6-4d6c-9e64-83dfb2458c21","system_id":"levelo_inurba_marseille","lat":43.28944,"lon":5.36391,"is_reserved":false,"is_disabled":false,"rental_uris":{"android":"levelo://app?vid=3eace698-4cf6-4d6c-9e64-83dfb2458c21","ios":"levelo://app?vid=3eace698-4cf6-4d6c-9e64-83dfb2458c21"},"vehicle_type_id":"4","last_reported":1726207997,"current_range_meters":22800,"station_id":"ce4bhc92rcd13ifvqetg","pricing_plan_id":"cebpf4jnsgd1na2vs0mg"},{"bike_id":"d6f781b5-d5a7-4af2-81cd-266dd0f272bf","system_id":"levelo_inurba_marseille","lat":43.33612,"lon":5.4104,"is_reserved":false,"is_disabled":false,"rental_uris":{"android":"levelo://app?vid=d6f781b5-d5a7-4af2-81cd-266dd0f272bf","ios":"levelo://app?vid=d6f781b5-d5a7-4af2-81cd-266dd0f272bf"},"vehicle_type_id":"4","last_reported":1726207997,"current_range_meters":38800,"station_id":"ce4bhqh2rcd13ifvqhmg","pricing_plan_id":"cebpf4jnsgd1na2vs0mg"},{"bike_id":"679a04d9-a188-4e39-a415-d7056b7cd842","system_id":"levelo_inurba_marseille","lat":43.25111,"lon":5.40319,"is_reserved":false,"is_disabled":false,"rental_uris":{"android":"levelo://app?vid=679a04d9-a188-4e39-a415-d7056b7cd842","ios":"levelo://app?vid=679a04d9-a188-4e39-a415-d7056b7cd842"},"vehicle_type_id":"4","last_reported":1726207997,"current_range_meters":30000,"station_id":"ce4bhlh2rcd13ifvqgig","pricing_plan_id":"cebpf4jnsgd1na2vs0mg"},{"bike_id":"8898b5c0-388b-424e-800d-b956c5f4f4fa","system_id":"levelo_inurba_marseille","lat":43.3225,"lon":5.40694,"is_reserved":false,"is_disabled":false,"rental_uris":{"android":"levelo://app?vid=8898b5c0-388b-424e-800d-b956c5f4f4fa","ios":"levelo://app?vid=8898b5c0-388b-424e-800d-b956c5f4f4fa"},"vehicle_type_id":"4","last_reported":1726207997,"current_range_meters":22800,"station_id":"ce4bh312rcd13ifvqdk0","pricing_plan_id":"cebpf4jnsgd1na2vs0mg"},{"bike_id":"d54209f6-3398-4e00-8b3a-a3ed0a88f3b6","system_id":"levelo_inurba_marseille","lat":43.24562,"lon":5.37318,"is_reserved":false,"is_disabled":false,"rental_uris":{"android":"levelo://app?vid=d54209f6-3398-4e00-8b3a-a3ed0a88f3b6","ios":"levelo://app?vid=d54209f6-3398-4e00-8b3a-a3ed0a88f3b6"},"vehicle_type_id":"4","last_reported":1726207997,"current_range_meters":28800,"station_id":"","pricing_plan_id":"cebpf4jnsgd1na2vs0mg"},{"bike_id":"af02b0e9-8e0c-4718-82fa-f1e4e0b4d434","system_id":"levelo_inurba_marseille","lat":43.28478,"lon":5.38561,"is_reserved":false,"is_disabled":false,"rental_uris":{"android":"levelo://app?vid=af02b0e9-8e0c-4718-82fa-f1e4e0b4d434","ios":"levelo://app?vid=af02b0e9-8e0c-4718-82fa-f1e4e0b4d434"},"vehicle_type_id":"4","last_reported":1726207997,"current_range_meters":38000,"station_id":"ce4bh8p2rcd13ifvqeb0","pricing_plan_id":"cebpf4jnsgd1na2vs0mg"},{"bike_id":"9608cb89-86f7-4927-9987-b0e97990eed5","system_id":"levelo_inurba_marseille","lat":43.30585,"lon":5.39328,"is_reserved":false,"is_disabled":false,"rental_uris":{"android":"levelo://app?vid=9608cb89-86f7-4927-9987-b0e97990eed5","ios":"levelo://app?vid=9608cb89-86f7-4927-9987-b0e97990eed5"},"vehicle_type_id":"4","last_reported":1726207997,"current_range_meters":22400,"station_id":"ce4bh0p2rcd13ifvqd80","pricing_plan_id":"cebpf4jnsgd1na2vs0mg"},{"bike_id":"8263ea4a-64d0-4c72-9510-874ccbb3b8e8","system_id":"levelo_inurba_marseille","lat":43.28664,"lon":5.36355,"is_reserved":false,"is_disabled":false,"rental_uris":{"android":"levelo://app?vid=8263ea4a-64d0-4c72-9510-874ccbb3b8e8","ios":"levelo://app?vid=8263ea4a-64d0-4c72-9510-874ccbb3b8e8"},"vehicle_type_id":"4","last_reported":1726207997,"current_range_meters":38800,"station_id":"ce4bhah2rcd13ifvqej0","pricing_plan_id":"cebpf4jnsgd1na2vs0mg"},{"bike_id":"d80f338e-c7b9-4843-a0cc-56dcfe3a81de","system_id":"levelo_inurba_marseille","lat":43.26218,"lon":5.37447,"is_reserved":false,"is_disabled":false,"rental_uris":{"android":"levelo://app?vid=d80f338e-c7b9-4843-a0cc-56dcfe3a81de","ios":"levelo://app?vid=d80f338e-c7b9-4843-a0cc-56dcfe3a81de"},"vehicle_type_id":"4","last_reported":1726207997,"current_range_meters":38000,"station_id":"ce4bhgp2rcd13ifvqfc0","pricing_plan_id":"cebpf4jnsgd1na2vs0mg"},{"bike_id":"6fac3474-b887-4e84-babb-a0eab87061f6","system_id":"levelo_inurba_marseille","lat":43.272,"lon":5.3919,"is_reserved":false,"is_disabled":false,"rental_uris":{"android":"levelo://app?vid=6fac3474-b887-4e84-babb-a0eab87061f6","ios":"levelo://app?vid=6fac3474-b887-4e84-babb-a0eab87061f6"},"vehicle_type_id":"4","last_reported":1726207997,"current_range_meters":37600,"station_id":"ce4bhhp2rcd13ifvqfm0","pricing_plan_id":"cebpf4jnsgd1na2vs0mg"},{"bike_id":"9ced008f-ae08-4331-b6bc-4d140a97a4b2","system_id":"levelo_inurba_marseille","lat":43.31531,"lon":5.38034,"is_reserved":false,"is_disabled":false,"rental_uris":{"android":"levelo://app?vid=9ced008f-ae08-4331-b6bc-4d140a97a4b2","ios":"levelo://app?vid=9ced008f-ae08-4331-b6bc-4d140a97a4b2"},"vehicle_type_id":"4","last_reported":1726207997,"current_range_meters":38000,"station_id":"ce4bhsp2rcd13ifvqi50","pricing_plan_id":"cebpf4jnsgd1na2vs0mg"},{"bike_id":"d4ca384e-a23d-4802-be23-f450736c27cb","system_id":"levelo_inurba_marseille","lat":43.27899,"lon":5.38005,"is_reserved":false,"is_disabled":false,"rental_uris":{"android":"levelo://app?vid=d4ca384e-a23d-4802-be23-f450736c27cb","ios":"levelo://app?vid=d4ca384e-a23d-4802-be23-f450736c27cb"},"vehicle_type_id":"4","last_reported":1726207997,"current_range_meters":38800,"station_id":"ce4bhf92rcd13ifvqf50","pricing_plan_id":"cebpf4jnsgd1na2vs0mg"},{"bike_id":"8e3fa3c4-0578-445b-a91d-9a9f0137a0dd","system_id":"levelo_inurba_marseille","lat":43.26684,"lon":5.38268,"is_reserved":false,"is_disabled":false,"rental_uris":{"android":"levelo://app?vid=8e3fa3c4-0578-445b-a91d-9a9f0137a0dd","ios":"levelo://app?vid=8e3fa3c4-0578-445b-a91d-9a9f0137a0dd"},"vehicle_type_id":"4","last_reported":1726207997,"current_range_meters":38800,"station_id":"ce4bhg92rcd13ifvqf90","pricing_plan_id":"cebpf4jnsgd1na2vs0mg"},{"bike_id":"e1a69267-9b2d-4031-a248-d084a87eeae0","system_id":"levelo_inurba_marseille","lat":43.29032,"lon":5.38636,"is_reserved":false,"is_disabled":false,"rental_uris":{"android":"levelo://app?vid=e1a69267-9b2d-4031-a248-d084a87eeae0","ios":"levelo://app?vid=e1a69267-9b2d-4031-a248-d084a87eeae0"},"vehicle_type_id":"4","last_reported":1726207997,"current_range_meters":5600,"station_id":"ce4bh4p2rcd13ifvqe0g","pricing_plan_id":"cebpf4jnsgd1na2vs0mg"},{"bike_id":"6a8f2f10-9a94-4930-acf4-9d3abaa17531","system_id":"levelo_inurba_marseille","lat":43.25502,"lon":5.37651,"is_reserved":false,"is_disabled":false,"rental_uris":{"android":"levelo://app?vid=6a8f2f10-9a94-4930-acf4-9d3abaa17531","ios":"levelo://app?vid=6a8f2f10-9a94-4930-acf4-9d3abaa17531"},"vehicle_type_id":"4","last_reported":1726207997,"current_range_meters":33200,"station_id":"ce4bhh12rcd13ifvqff0","pricing_plan_id":"cebpf4jnsgd1na2vs0mg"},{"bike_id":"ec3be02e-39ad-49e9-b399-fd1e500eb14f","system_id":"levelo_inurba_marseille","lat":43.26955,"lon":5.38631,"is_reserved":false,"is_disabled":false,"rental_uris":{"android":"levelo://app?vid=ec3be02e-39ad-49e9-b399-fd1e500eb14f","ios":"levelo://app?vid=ec3be02e-39ad-49e9-b399-fd1e500eb14f"},"vehicle_type_id":"4","last_reported":1726207997,"current_range_meters":9200,"station_id":"ce4bhh92rcd13ifvqfh0","pricing_plan_id":"cebpf4jnsgd1na2vs0mg"},{"bike_id":"976a4a08-3cc1-4b84-afb0-078a903accb6","system_id":"levelo_inurba_marseille","lat":43.25586,"lon":5.3824,"is_reserved":false,"is_disabled":false,"rental_uris":{"android":"levelo://app?vid=976a4a08-3cc1-4b84-afb0-078a903accb6","ios":"levelo://app?vid=976a4a08-3cc1-4b84-afb0-078a903accb6"},"vehicle_type_id":"4","last_reported":1726207997,"current_range_meters":30000,"station_id":"ce4bhih2rcd13ifvqfs0","pricing_plan_id":"cebpf4jnsgd1na2vs0mg"},{"bike_id":"738ab467-a53a-4eef-8cc5-a02a5a8782d9","system_id":"levelo_inurba_marseille","lat":43.28362,"lon":5.38105,"is_reserved":false,"is_disabled":false,"rental_uris":{"android":"levelo://app?vid=738ab467-a53a-4eef-8cc5-a02a5a8782d9","ios":"levelo://app?vid=738ab467-a53a-4eef-8cc5-a02a5a8782d9"},"vehicle_type_id":"4","last_reported":1726207997,"current_range_meters":9200,"station_id":"ce4bh412rcd13ifvqdr0","pricing_plan_id":"cebpf4jnsgd1na2vs0mg"},{"bike_id":"51440270-3522-4559-bb21-065de75729b7","system_id":"levelo_inurba_marseille","lat":43.29988,"lon":5.38507,"is_reserved":false,"is_disabled":false,"rental_uris":{"android":"levelo://app?vid=51440270-3522-4559-bb21-065de75729b7","ios":"levelo://app?vid=51440270-3522-4559-bb21-065de75729b7"},"vehicle_type_id":"4","last_reported":1726207997,"current_range_meters":38800,"station_id":"ce4bgj92rcd13ifvqbd0","pricing_plan_id":"cebpf4jnsgd1na2vs0mg"},{"bike_id":"9b598b8e-1224-4f15-a059-59ec72ffe837","system_id":"levelo_inurba_marseille","lat":43.27492,"lon":5.42455,"is_reserved":false,"is_disabled":false,"rental_uris":{"android":"levelo://app?vid=9b598b8e-1224-4f15-a059-59ec72ffe837","ios":"levelo://app?vid=9b598b8e-1224-4f15-a059-59ec72ffe837"},"vehicle_type_id":"4","last_reported":1726207997,"current_range_meters":22800,"station_id":"ce4bhn92rcd13ifvqgrg","pricing_plan_id":"cebpf4jnsgd1na2vs0mg"},{"bike_id":"f28581ff-902c-4761-a312-4ea1190c753a","system_id":"levelo_inurba_marseille","lat":43.28158,"lon":5.42643,"is_reserved":false,"is_disabled":false,"rental_uris":{"android":"levelo://app?vid=f28581ff-902c-4761-a312-4ea1190c753a","ios":"levelo://app?vid=f28581ff-902c-4761-a312-4ea1190c753a"},"vehicle_type_id":"4","last_reported":1726207997,"current_range_meters":21600,"station_id":"ce4bhnh2rcd13ifvqgug","pricing_plan_id":"cebpf4jnsgd1na2vs0mg"},{"bike_id":"0f39311b-701d-47a7-b4e3-2edf2183faed","system_id":"levelo_inurba_marseille","lat":43.3099,"lon":5.4013,"is_reserved":false,"is_disabled":false,"rental_uris":{"android":"levelo://app?vid=0f39311b-701d-47a7-b4e3-2edf2183faed","ios":"levelo://app?vid=0f39311b-701d-47a7-b4e3-2edf2183faed"},"vehicle_type_id":"4","last_reported":1726207997,"current_range_meters":38400,"station_id":"ce4bh092rcd13ifvqd20","pricing_plan_id":"cebpf4jnsgd1na2vs0mg"},{"bike_id":"5483f9b1-08d8-47bd-ace2-b461fdc9ec9d","system_id":"levelo_inurba_marseille","lat":43.29556,"lon":5.42279,"is_reserved":false,"is_disabled":false,"rental_uris":{"android":"levelo://app?vid=5483f9b1-08d8-47bd-ace2-b461fdc9ec9d","ios":"levelo://app?vid=5483f9b1-08d8-47bd-ace2-b461fdc9ec9d"},"vehicle_type_id":"4","last_reported":1726207997,"current_range_meters":29600,"station_id":"ce4bhph2rcd13ifvqhdg","pricing_plan_id":"cebpf4jnsgd1na2vs0mg"},{"bike_id":"4067cf6c-6e3d-4ac9-99bf-c1b92b69f736","system_id":"levelo_inurba_marseille","lat":43.32483,"lon":5.36556,"is_reserved":false,"is_disabled":false,"rental_uris":{"android":"levelo://app?vid=4067cf6c-6e3d-4ac9-99bf-c1b92b69f736","ios":"levelo://app?vid=4067cf6c-6e3d-4ac9-99bf-c1b92b69f736"},"vehicle_type_id":"4","last_reported":1726207997,"current_range_meters":25600,"station_id":"ce4bhs12rcd13ifvqhvg","pricing_plan_id":"cebpf4jnsgd1na2vs0mg"},{"bike_id":"9a294201-177a-42e2-b4e6-ec74738f7951","system_id":"levelo_inurba_marseille","lat":43.26952,"lon":5.38643,"is_reserved":false,"is_disabled":false,"rental_uris":{"android":"levelo://app?vid=9a294201-177a-42e2-b4e6-ec74738f7951","ios":"levelo://app?vid=9a294201-177a-42e2-b4e6-ec74738f7951"},"vehicle_type_id":"4","last_reported":1726207997,"current_range_meters":40000,"station_id":"ce4bhh92rcd13ifvqfh0","pricing_plan_id":"cebpf4jnsgd1na2vs0mg"},{"bike_id":"eaf3218e-3b2a-4dde-9c15-99a6c4254e56","system_id":"levelo_inurba_marseille","lat":43.29895,"lon":5.43662,"is_reserved":false,"is_disabled":false,"rental_uris":{"android":"levelo://app?vid=eaf3218e-3b2a-4dde-9c15-99a6c4254e56","ios":"levelo://app?vid=eaf3218e-3b2a-4dde-9c15-99a6c4254e56"},"vehicle_type_id":"4","last_reported":1726207997,"current_range_meters":38800,"station_id":"ce4bhpp2rcd13ifvqhfg","pricing_plan_id":"cebpf4jnsgd1na2vs0mg"},{"bike_id":"ac8978ad-acd3-43fc-ad70-9f2342007625","system_id":"levelo_inurba_marseille","lat":43.30147,"lon":5.37423,"is_reserved":false,"is_disabled":false,"rental_uris":{"android":"levelo://app?vid=ac8978ad-acd3-43fc-ad70-9f2342007625","ios":"levelo://app?vid=ac8978ad-acd3-43fc-ad70-9f2342007625"},"vehicle_type_id":"4","last_reported":1726207997,"current_range_meters":17600,"station_id":"ce4bgs92rcd13ifvqcc0","pricing_plan_id":"cebpf4jnsgd1na2vs0mg"},{"bike_id":"f17ef43c-07a5-475f-8d6e-3c4d81e342cd","system_id":"levelo_inurba_marseille","lat":43.295044,"lon":5.388872,"is_reserved":false,"is_disabled":false,"rental_uris":{"android":"levelo://app?vid=f17ef43c-07a5-475f-8d6e-3c4d81e342cd","ios":"levelo://app?vid=f17ef43c-07a5-475f-8d6e-3c4d81e342cd"},"vehicle_type_id":"4","last_reported":1726207997,"current_range_meters":16800,"station_id":"ce4bgt92rcd13ifvqcf0","pricing_plan_id":"cebpf4jnsgd1na2vs0mg"},{"bike_id":"628cfe1a-b924-4736-bbd0-af9ba5d54829","system_id":"levelo_inurba_marseille","lat":43.28942,"lon":5.36639,"is_reserved":false,"is_disabled":false,"rental_uris":{"android":"levelo://app?vid=628cfe1a-b924-4736-bbd0-af9ba5d54829","ios":"levelo://app?vid=628cfe1a-b924-4736-bbd0-af9ba5d54829"},"vehicle_type_id":"4","last_reported":1726207997,"current_range_meters":15200,"station_id":"ce4bhap2rcd13ifvqek0","pricing_plan_id":"cebpf4jnsgd1na2vs0mg"},{"bike_id":"45eb7e78-e68d-4dc7-9f08-324dadf34c21","system_id":"levelo_inurba_marseille","lat":43.23152,"lon":5.437239,"is_reserved":false,"is_disabled":false,"rental_uris":{"android":"levelo://app?vid=45eb7e78-e68d-4dc7-9f08-324dadf34c21","ios":"levelo://app?vid=45eb7e78-e68d-4dc7-9f08-324dadf34c21"},"vehicle_type_id":"4","last_reported":1726207997,"current_range_meters":27600,"station_id":"ce4bhmp2rcd13ifvqgog","pricing_plan_id":"cebpf4jnsgd1na2vs0mg"},{"bike_id":"bb084669-0277-49cf-930c-8c8699155c29","system_id":"levelo_inurba_marseille","lat":43.29524,"lon":5.37506,"is_reserved":false,"is_disabled":false,"rental_uris":{"android":"levelo://app?vid=bb084669-0277-49cf-930c-8c8699155c29","ios":"levelo://app?vid=bb084669-0277-49cf-930c-8c8699155c29"},"vehicle_type_id":"4","last_reported":1726207997,"current_range_meters":33200,"station_id":"ce4bgkp2rcd13ifvqbmg","pricing_plan_id":"cebpf4jnsgd1na2vs0mg"},{"bike_id":"8764129a-9b8d-4490-a1c9-f9fa60b4a560","system_id":"levelo_inurba_marseille","lat":43.33609,"lon":5.41028,"is_reserved":false,"is_disabled":false,"rental_uris":{"android":"levelo://app?vid=8764129a-9b8d-4490-a1c9-f9fa60b4a560","ios":"levelo://app?vid=8764129a-9b8d-4490-a1c9-f9fa60b4a560"},"vehicle_type_id":"4","last_reported":1726207997,"current_range_meters":38800,"station_id":"ce4bhqh2rcd13ifvqhmg","pricing_plan_id":"cebpf4jnsgd1na2vs0mg"},{"bike_id":"cdb7f7b4-ad89-4f18-9858-49d0e878e14f","system_id":"levelo_inurba_marseille","lat":43.32549,"lon":5.41435,"is_reserved":false,"is_disabled":false,"rental_uris":{"android":"levelo://app?vid=cdb7f7b4-ad89-4f18-9858-49d0e878e14f","ios":"levelo://app?vid=cdb7f7b4-ad89-4f18-9858-49d0e878e14f"},"vehicle_type_id":"4","last_reported":1726207997,"current_range_meters":38800,"station_id":"ce4bhq12rcd13ifvqhhg","pricing_plan_id":"cebpf4jnsgd1na2vs0mg"},{"bike_id":"4c0a2394-5fff-46c4-a289-f13795c3409e","system_id":"levelo_inurba_marseille","lat":43.30471,"lon":5.37901,"is_reserved":false,"is_disabled":false,"rental_uris":{"android":"levelo://app?vid=4c0a2394-5fff-46c4-a289-f13795c3409e","ios":"levelo://app?vid=4c0a2394-5fff-46c4-a289-f13795c3409e"},"vehicle_type_id":"4","last_reported":1726207997,"current_range_meters":35200,"station_id":"ce4bgup2rcd13ifvqcn0","pricing_plan_id":"cebpf4jnsgd1na2vs0mg"},{"bike_id":"96cb29cb-8da1-4dd6-bd35-ee190827a973","system_id":"levelo_inurba_marseille","lat":43.26562,"lon":5.37285,"is_reserved":false,"is_disabled":false,"rental_uris":{"android":"levelo://app?vid=96cb29cb-8da1-4dd6-bd35-ee190827a973","ios":"levelo://app?vid=96cb29cb-8da1-4dd6-bd35-ee190827a973"},"vehicle_type_id":"4","last_reported":1726207997,"current_range_meters":7200,"station_id":"ce4bhg12rcd13ifvqf70","pricing_plan_id":"cebpf4jnsgd1na2vs0mg"},{"bike_id":"a61c9e04-bce5-4e44-99ea-7dd65bcde295","system_id":"levelo_inurba_marseille","lat":43.29002,"lon":5.35618,"is_reserved":false,"is_disabled":false,"rental_uris":{"android":"levelo://app?vid=a61c9e04-bce5-4e44-99ea-7dd65bcde295","ios":"levelo://app?vid=a61c9e04-bce5-4e44-99ea-7dd65bcde295"},"vehicle_type_id":"4","last_reported":1726207997,"current_range_meters":26800,"station_id":"ce4bhb92rcd13ifvqen0","pricing_plan_id":"cebpf4jnsgd1na2vs0mg"},{"bike_id":"51733f95-ae2b-42bf-9455-966105fc9fbd","system_id":"levelo_inurba_marseille","lat":43.273956,"lon":5.41429,"is_reserved":false,"is_disabled":false,"rental_uris":{"android":"levelo://app?vid=51733f95-ae2b-42bf-9455-966105fc9fbd","ios":"levelo://app?vid=51733f95-ae2b-42bf-9455-966105fc9fbd"},"vehicle_type_id":"4","last_reported":1726207997,"current_range_meters":21600,"station_id":"cjm6bp8fraef2m0cb0m0","pricing_plan_id":"cebpf4jnsgd1na2vs0mg"},{"bike_id":"3d0be373-de2e-4082-893a-54f0b6f55849","system_id":"levelo_inurba_marseille","lat":43.25937,"lon":5.40906,"is_reserved":false,"is_disabled":false,"rental_uris":{"android":"levelo://app?vid=3d0be373-de2e-4082-893a-54f0b6f55849","ios":"levelo://app?vid=3d0be373-de2e-4082-893a-54f0b6f55849"},"vehicle_type_id":"4","last_reported":1726207997,"current_range_meters":32400,"station_id":"ce4bhm92rcd13ifvqglg","pricing_plan_id":"cebpf4jnsgd1na2vs0mg"},{"bike_id":"9b49fc06-69dc-4375-9bc8-2ab31283d424","system_id":"levelo_inurba_marseille","lat":43.29898,"lon":5.43662,"is_reserved":false,"is_disabled":false,"rental_uris":{"android":"levelo://app?vid=9b49fc06-69dc-4375-9bc8-2ab31283d424","ios":"levelo://app?vid=9b49fc06-69dc-4375-9bc8-2ab31283d424"},"vehicle_type_id":"4","last_reported":1726207997,"current_range_meters":38000,"station_id":"ce4bhpp2rcd13ifvqhfg","pricing_plan_id":"cebpf4jnsgd1na2vs0mg"},{"bike_id":"7cb88d9c-4fcb-4cf8-989f-12f6d423e8b3","system_id":"levelo_inurba_marseille","lat":43.27065,"lon":5.42279,"is_reserved":false,"is_disabled":false,"rental_uris":{"android":"levelo://app?vid=7cb88d9c-4fcb-4cf8-989f-12f6d423e8b3","ios":"levelo://app?vid=7cb88d9c-4fcb-4cf8-989f-12f6d423e8b3"},"vehicle_type_id":"4","last_reported":1726207997,"current_range_meters":30000,"station_id":"ce4bhk92rcd13ifvqgb0","pricing_plan_id":"cebpf4jnsgd1na2vs0mg"},{"bike_id":"2ad38932-5697-4174-9790-55a1437bb734","system_id":"levelo_inurba_marseille","lat":43.23147,"lon":5.43713,"is_reserved":false,"is_disabled":false,"rental_uris":{"android":"levelo://app?vid=2ad38932-5697-4174-9790-55a1437bb734","ios":"levelo://app?vid=2ad38932-5697-4174-9790-55a1437bb734"},"vehicle_type_id":"4","last_reported":1726207997,"current_range_meters":24800,"station_id":"ce4bhmp2rcd13ifvqgog","pricing_plan_id":"cebpf4jnsgd1na2vs0mg"},{"bike_id":"c1297063-d590-4c7e-8f21-712bf962a707","system_id":"levelo_inurba_marseille","lat":43.28459,"lon":5.35889,"is_reserved":false,"is_disabled":false,"rental_uris":{"android":"levelo://app?vid=c1297063-d590-4c7e-8f21-712bf962a707","ios":"levelo://app?vid=c1297063-d590-4c7e-8f21-712bf962a707"},"vehicle_type_id":"4","last_reported":1726207997,"current_range_meters":38800,"station_id":"ce4bhah2rcd13ifvqei0","pricing_plan_id":"cebpf4jnsgd1na2vs0mg"},{"bike_id":"aa4c7db9-9cd5-40a3-bbe0-7db6cd1d2c9d","system_id":"levelo_inurba_marseille","lat":43.2512,"lon":5.40319,"is_reserved":false,"is_disabled":false,"rental_uris":{"android":"levelo://app?vid=aa4c7db9-9cd5-40a3-bbe0-7db6cd1d2c9d","ios":"levelo://app?vid=aa4c7db9-9cd5-40a3-bbe0-7db6cd1d2c9d"},"vehicle_type_id":"4","last_reported":1726207997,"current_range_meters":30800,"station_id":"ce4bhlh2rcd13ifvqgig","pricing_plan_id":"cebpf4jnsgd1na2vs0mg"},{"bike_id":"c2fd6339-37b4-410c-a70a-6b095a31c328","system_id":"levelo_inurba_marseille","lat":43.283497,"lon":5.380998,"is_reserved":false,"is_disabled":false,"rental_uris":{"android":"levelo://app?vid=c2fd6339-37b4-410c-a70a-6b095a31c328","ios":"levelo://app?vid=c2fd6339-37b4-410c-a70a-6b095a31c328"},"vehicle_type_id":"4","last_reported":1726207997,"current_range_meters":17200,"station_id":"ce4bh412rcd13ifvqdr0","pricing_plan_id":"cebpf4jnsgd1na2vs0mg"},{"bike_id":"a9537a4b-a7c4-46fd-ac30-52f5354b0ad6","system_id":"levelo_inurba_marseille","lat":43.31708,"lon":5.40473,"is_reserved":false,"is_disabled":false,"rental_uris":{"android":"levelo://app?vid=a9537a4b-a7c4-46fd-ac30-52f5354b0ad6","ios":"levelo://app?vid=a9537a4b-a7c4-46fd-ac30-52f5354b0ad6"},"vehicle_type_id":"4","last_reported":1726207997,"current_range_meters":36800,"station_id":"ce4bh012rcd13ifvqd00","pricing_plan_id":"cebpf4jnsgd1na2vs0mg"},{"bike_id":"69a8bafd-9f00-4df8-bb17-fba606e96b3a","system_id":"levelo_inurba_marseille","lat":43.30544,"lon":5.36552,"is_reserved":false,"is_disabled":false,"rental_uris":{"android":"levelo://app?vid=69a8bafd-9f00-4df8-bb17-fba606e96b3a","ios":"levelo://app?vid=69a8bafd-9f00-4df8-bb17-fba606e96b3a"},"vehicle_type_id":"4","last_reported":1726207997,"current_range_meters":30400,"station_id":"ce4bgs12rcd13ifvqcag","pricing_plan_id":"cebpf4jnsgd1na2vs0mg"},{"bike_id":"7b906c95-3be8-431b-a658-74eb97f77263","system_id":"levelo_inurba_marseille","lat":43.28936,"lon":5.3664,"is_reserved":false,"is_disabled":false,"rental_uris":{"android":"levelo://app?vid=7b906c95-3be8-431b-a658-74eb97f77263","ios":"levelo://app?vid=7b906c95-3be8-431b-a658-74eb97f77263"},"vehicle_type_id":"4","last_reported":1726207997,"current_range_meters":14800,"station_id":"ce4bhap2rcd13ifvqek0","pricing_plan_id":"cebpf4jnsgd1na2vs0mg"},{"bike_id":"7bf26ab9-88ae-4c57-a68f-762c51eff445","system_id":"levelo_inurba_marseille","lat":43.30428,"lon":5.39747,"is_reserved":false,"is_disabled":false,"rental_uris":{"android":"levelo://app?vid=7bf26ab9-88ae-4c57-a68f-762c51eff445","ios":"levelo://app?vid=7bf26ab9-88ae-4c57-a68f-762c51eff445"},"vehicle_type_id":"4","last_reported":1726207997,"current_range_meters":36800,"station_id":"ce4bh092rcd13ifvqd20","pricing_plan_id":"cebpf4jnsgd1na2vs0mg"},{"bike_id":"2fbe59be-967c-4f3f-b5eb-2a3f8b0b8fb5","system_id":"levelo_inurba_marseille","lat":43.27494,"lon":5.42454,"is_reserved":false,"is_disabled":false,"rental_uris":{"android":"levelo://app?vid=2fbe59be-967c-4f3f-b5eb-2a3f8b0b8fb5","ios":"levelo://app?vid=2fbe59be-967c-4f3f-b5eb-2a3f8b0b8fb5"},"vehicle_type_id":"4","last_reported":1726207997,"current_range_meters":36800,"station_id":"ce4bhn92rcd13ifvqgrg","pricing_plan_id":"cebpf4jnsgd1na2vs0mg"},{"bike_id":"64fb79f9-6111-4358-8c55-8553d51d9562","system_id":"levelo_inurba_marseille","lat":43.28961,"lon":5.38918,"is_reserved":false,"is_disabled":false,"rental_uris":{"android":"levelo://app?vid=64fb79f9-6111-4358-8c55-8553d51d9562","ios":"levelo://app?vid=64fb79f9-6111-4358-8c55-8553d51d9562"},"vehicle_type_id":"4","last_reported":1726207997,"current_range_meters":6800,"station_id":"","pricing_plan_id":"cebpf4jnsgd1na2vs0mg"},{"bike_id":"a2065f96-47d3-4a85-be06-4c0f1ffbde51","system_id":"levelo_inurba_marseille","lat":43.2606,"lon":5.39395,"is_reserved":false,"is_disabled":false,"rental_uris":{"android":"levelo://app?vid=a2065f96-47d3-4a85-be06-4c0f1ffbde51","ios":"levelo://app?vid=a2065f96-47d3-4a85-be06-4c0f1ffbde51"},"vehicle_type_id":"4","last_reported":1726207997,"current_range_meters":10800,"station_id":"ce4bhh92rcd13ifvqfj0","pricing_plan_id":"cebpf4jnsgd1na2vs0mg"},{"bike_id":"79b7950d-90c8-4e3c-a243-1a31b18cd68e","system_id":"levelo_inurba_marseille","lat":43.23967,"lon":5.36635,"is_reserved":false,"is_disabled":false,"rental_uris":{"android":"levelo://app?vid=79b7950d-90c8-4e3c-a243-1a31b18cd68e","ios":"levelo://app?vid=79b7950d-90c8-4e3c-a243-1a31b18cd68e"},"vehicle_type_id":"4","last_reported":1726207997,"current_range_meters":12400,"station_id":"ce4bhi12rcd13ifvqfp0","pricing_plan_id":"cebpf4jnsgd1na2vs0mg"},{"bike_id":"72b517d2-6987-46d8-857e-779bc7604f01","system_id":"levelo_inurba_marseille","lat":43.26026,"lon":5.37547,"is_reserved":false,"is_disabled":false,"rental_uris":{"android":"levelo://app?vid=72b517d2-6987-46d8-857e-779bc7604f01","ios":"levelo://app?vid=72b517d2-6987-46d8-857e-779bc7604f01"},"vehicle_type_id":"4","last_reported":1726207997,"current_range_meters":22000,"station_id":"ce4bhgh2rcd13ifvqfa0","pricing_plan_id":"cebpf4jnsgd1na2vs0mg"},{"bike_id":"53d2bf3d-4905-49f9-89c4-324506aca78e","system_id":"levelo_inurba_marseille","lat":43.31854,"lon":5.4093,"is_reserved":false,"is_disabled":false,"rental_uris":{"android":"levelo://app?vid=53d2bf3d-4905-49f9-89c4-324506aca78e","ios":"levelo://app?vid=53d2bf3d-4905-49f9-89c4-324506aca78e"},"vehicle_type_id":"4","last_reported":1726207997,"current_range_meters":19200,"station_id":"","pricing_plan_id":"cebpf4jnsgd1na2vs0mg"},{"bike_id":"bc06f095-3602-4cc4-8a2e-7f15aa41c701","system_id":"levelo_inurba_marseille","lat":43.30593,"lon":5.39354,"is_reserved":false,"is_disabled":false,"rental_uris":{"android":"levelo://app?vid=bc06f095-3602-4cc4-8a2e-7f15aa41c701","ios":"levelo://app?vid=bc06f095-3602-4cc4-8a2e-7f15aa41c701"},"vehicle_type_id":"4","last_reported":1726207997,"current_range_meters":9600,"station_id":"ce4bh0p2rcd13ifvqd80","pricing_plan_id":"cebpf4jnsgd1na2vs0mg"},{"bike_id":"a2cd8b1a-5149-423f-b006-3a9bf1a7a464","system_id":"levelo_inurba_marseille","lat":43.27494,"lon":5.42448,"is_reserved":false,"is_disabled":false,"rental_uris":{"android":"levelo://app?vid=a2cd8b1a-5149-423f-b006-3a9bf1a7a464","ios":"levelo://app?vid=a2cd8b1a-5149-423f-b006-3a9bf1a7a464"},"vehicle_type_id":"4","last_reported":1726207997,"current_range_meters":16800,"station_id":"ce4bhn92rcd13ifvqgrg","pricing_plan_id":"cebpf4jnsgd1na2vs0mg"},{"bike_id":"24d5349f-bd40-4a00-86c3-2391af5b1abb","system_id":"levelo_inurba_marseille","lat":43.30475,"lon":5.37912,"is_reserved":false,"is_disabled":false,"rental_uris":{"android":"levelo://app?vid=24d5349f-bd40-4a00-86c3-2391af5b1abb","ios":"levelo://app?vid=24d5349f-bd40-4a00-86c3-2391af5b1abb"},"vehicle_type_id":"4","last_reported":1726207997,"current_range_meters":30000,"station_id":"ce4bgup2rcd13ifvqcn0","pricing_plan_id":"cebpf4jnsgd1na2vs0mg"},{"bike_id":"2c4577b3-3689-495e-a3c3-a78eafd4dc43","system_id":"levelo_inurba_marseille","lat":43.26558,"lon":5.37282,"is_reserved":false,"is_disabled":false,"rental_uris":{"android":"levelo://app?vid=2c4577b3-3689-495e-a3c3-a78eafd4dc43","ios":"levelo://app?vid=2c4577b3-3689-495e-a3c3-a78eafd4dc43"},"vehicle_type_id":"4","last_reported":1726207997,"current_range_meters":28400,"station_id":"ce4bhg12rcd13ifvqf70","pricing_plan_id":"cebpf4jnsgd1na2vs0mg"},{"bike_id":"4cef4de5-08a6-4ff5-a89a-a446ab249c3f","system_id":"levelo_inurba_marseille","lat":43.28109,"lon":5.37837,"is_reserved":false,"is_disabled":false,"rental_uris":{"android":"levelo://app?vid=4cef4de5-08a6-4ff5-a89a-a446ab249c3f","ios":"levelo://app?vid=4cef4de5-08a6-4ff5-a89a-a446ab249c3f"},"vehicle_type_id":"4","last_reported":1726207997,"current_range_meters":26000,"station_id":"ce4bha12rcd13ifvqee0","pricing_plan_id":"cebpf4jnsgd1na2vs0mg"},{"bike_id":"6c9ac6be-0029-4a2d-bb72-5c51035bba42","system_id":"levelo_inurba_marseille","lat":43.33608,"lon":5.4102,"is_reserved":false,"is_disabled":false,"rental_uris":{"android":"levelo://app?vid=6c9ac6be-0029-4a2d-bb72-5c51035bba42","ios":"levelo://app?vid=6c9ac6be-0029-4a2d-bb72-5c51035bba42"},"vehicle_type_id":"4","last_reported":1726207997,"current_range_meters":39200,"station_id":"ce4bhqh2rcd13ifvqhmg","pricing_plan_id":"cebpf4jnsgd1na2vs0mg"},{"bike_id":"3d5998b8-f552-42dd-894c-2d371a7435d7","system_id":"levelo_inurba_marseille","lat":43.24081,"lon":5.3775,"is_reserved":false,"is_disabled":false,"rental_uris":{"android":"levelo://app?vid=3d5998b8-f552-42dd-894c-2d371a7435d7","ios":"levelo://app?vid=3d5998b8-f552-42dd-894c-2d371a7435d7"},"vehicle_type_id":"4","last_reported":1726207997,"current_range_meters":37600,"station_id":"ce4bhnp2rcd13ifvqgvg","pricing_plan_id":"cebpf4jnsgd1na2vs0mg"},{"bike_id":"f890408a-09d3-44a4-b9ac-3affc05dc13b","system_id":"levelo_inurba_marseille","lat":43.28345,"lon":5.38103,"is_reserved":false,"is_disabled":false,"rental_uris":{"android":"levelo://app?vid=f890408a-09d3-44a4-b9ac-3affc05dc13b","ios":"levelo://app?vid=f890408a-09d3-44a4-b9ac-3affc05dc13b"},"vehicle_type_id":"4","last_reported":1726207997,"current_range_meters":37600,"station_id":"ce4bh412rcd13ifvqdr0","pricing_plan_id":"cebpf4jnsgd1na2vs0mg"},{"bike_id":"60d5bda9-f640-405a-935d-62d1314e50fa","system_id":"levelo_inurba_marseille","lat":43.23967,"lon":5.36622,"is_reserved":false,"is_disabled":false,"rental_uris":{"android":"levelo://app?vid=60d5bda9-f640-405a-935d-62d1314e50fa","ios":"levelo://app?vid=60d5bda9-f640-405a-935d-62d1314e50fa"},"vehicle_type_id":"4","last_reported":1726207997,"current_range_meters":28400,"station_id":"ce4bhi12rcd13ifvqfp0","pricing_plan_id":"cebpf4jnsgd1na2vs0mg"},{"bike_id":"715b08a5-9edc-4363-b38a-8ad004d88332","system_id":"levelo_inurba_marseille","lat":43.27498,"lon":5.42448,"is_reserved":false,"is_disabled":false,"rental_uris":{"android":"levelo://app?vid=715b08a5-9edc-4363-b38a-8ad004d88332","ios":"levelo://app?vid=715b08a5-9edc-4363-b38a-8ad004d88332"},"vehicle_type_id":"4","last_reported":1726207997,"current_range_meters":32400,"station_id":"ce4bhn92rcd13ifvqgrg","pricing_plan_id":"cebpf4jnsgd1na2vs0mg"},{"bike_id":"e4da030b-691d-4807-97d4-2093c1c9617d","system_id":"levelo_inurba_marseille","lat":43.25936,"lon":5.40911,"is_reserved":false,"is_disabled":false,"rental_uris":{"android":"levelo://app?vid=e4da030b-691d-4807-97d4-2093c1c9617d","ios":"levelo://app?vid=e4da030b-691d-4807-97d4-2093c1c9617d"},"vehicle_type_id":"4","last_reported":1726207997,"current_range_meters":11600,"station_id":"ce4bhm92rcd13ifvqglg","pricing_plan_id":"cebpf4jnsgd1na2vs0mg"},{"bike_id":"bd2ce2e0-f8d9-4e30-a205-2f074a8614dd","system_id":"levelo_inurba_marseille","lat":43.26933,"lon":5.3861,"is_reserved":false,"is_disabled":false,"rental_uris":{"android":"levelo://app?vid=bd2ce2e0-f8d9-4e30-a205-2f074a8614dd","ios":"levelo://app?vid=bd2ce2e0-f8d9-4e30-a205-2f074a8614dd"},"vehicle_type_id":"4","last_reported":1726207997,"current_range_meters":24000,"station_id":"ce4bhh92rcd13ifvqfh0","pricing_plan_id":"cebpf4jnsgd1na2vs0mg"},{"bike_id":"fa09188f-28f0-4283-96c2-ad29be5fd764","system_id":"levelo_inurba_marseille","lat":43.30807,"lon":5.38157,"is_reserved":false,"is_disabled":false,"rental_uris":{"android":"levelo://app?vid=fa09188f-28f0-4283-96c2-ad29be5fd764","ios":"levelo://app?vid=fa09188f-28f0-4283-96c2-ad29be5fd764"},"vehicle_type_id":"4","last_reported":1726207997,"current_range_meters":12000,"station_id":"ce4bgt12rcd13ifvqce0","pricing_plan_id":"cebpf4jnsgd1na2vs0mg"},{"bike_id":"423a4cab-8a31-4718-8b7a-239bcdca67af","system_id":"levelo_inurba_marseille","lat":43.24184,"lon":5.39716,"is_reserved":false,"is_disabled":false,"rental_uris":{"android":"levelo://app?vid=423a4cab-8a31-4718-8b7a-239bcdca67af","ios":"levelo://app?vid=423a4cab-8a31-4718-8b7a-239bcdca67af"},"vehicle_type_id":"4","last_reported":1726207997,"current_range_meters":37600,"station_id":"ce4bhn12rcd13ifvqgpg","pricing_plan_id":"cebpf4jnsgd1na2vs0mg"},{"bike_id":"a0b7b91d-5120-456a-a32f-3beb587d5443","system_id":"levelo_inurba_marseille","lat":43.27495,"lon":5.42454,"is_reserved":false,"is_disabled":false,"rental_uris":{"android":"levelo://app?vid=a0b7b91d-5120-456a-a32f-3beb587d5443","ios":"levelo://app?vid=a0b7b91d-5120-456a-a32f-3beb587d5443"},"vehicle_type_id":"4","last_reported":1726207997,"current_range_meters":30400,"station_id":"ce4bhn92rcd13ifvqgrg","pricing_plan_id":"cebpf4jnsgd1na2vs0mg"},{"bike_id":"9163cc20-d457-4a59-bb69-e012a5ecf5a9","system_id":"levelo_inurba_marseille","lat":43.28458,"lon":5.35884,"is_reserved":false,"is_disabled":false,"rental_uris":{"android":"levelo://app?vid=9163cc20-d457-4a59-bb69-e012a5ecf5a9","ios":"levelo://app?vid=9163cc20-d457-4a59-bb69-e012a5ecf5a9"},"vehicle_type_id":"4","last_reported":1726207997,"current_range_meters":36800,"station_id":"ce4bhah2rcd13ifvqei0","pricing_plan_id":"cebpf4jnsgd1na2vs0mg"},{"bike_id":"0731d569-0842-43ba-98dc-ceb0af3b106e","system_id":"levelo_inurba_marseille","lat":43.25582,"lon":5.38225,"is_reserved":false,"is_disabled":false,"rental_uris":{"android":"levelo://app?vid=0731d569-0842-43ba-98dc-ceb0af3b106e","ios":"levelo://app?vid=0731d569-0842-43ba-98dc-ceb0af3b106e"},"vehicle_type_id":"4","last_reported":1726207997,"current_range_meters":14000,"station_id":"ce4bhih2rcd13ifvqfs0","pricing_plan_id":"cebpf4jnsgd1na2vs0mg"},{"bike_id":"79f14587-d880-4bc9-8e9e-013b8f3d4797","system_id":"levelo_inurba_marseille","lat":43.296,"lon":5.38098,"is_reserved":false,"is_disabled":false,"rental_uris":{"android":"levelo://app?vid=79f14587-d880-4bc9-8e9e-013b8f3d4797","ios":"levelo://app?vid=79f14587-d880-4bc9-8e9e-013b8f3d4797"},"vehicle_type_id":"4","last_reported":1726207997,"current_range_meters":38800,"station_id":"ce4bgl12rcd13ifvqbo0","pricing_plan_id":"cebpf4jnsgd1na2vs0mg"},{"bike_id":"0c90a57b-e9bd-4696-9929-53707ab70205","system_id":"levelo_inurba_marseille","lat":43.30151,"lon":5.38087,"is_reserved":false,"is_disabled":false,"rental_uris":{"android":"levelo://app?vid=0c90a57b-e9bd-4696-9929-53707ab70205","ios":"levelo://app?vid=0c90a57b-e9bd-4696-9929-53707ab70205"},"vehicle_type_id":"4","last_reported":1726207997,"current_range_meters":19600,"station_id":"ce4bgjp2rcd13ifvqbh0","pricing_plan_id":"cebpf4jnsgd1na2vs0mg"},{"bike_id":"5174d76d-7c6b-41e9-aceb-a48450e5301e","system_id":"levelo_inurba_marseille","lat":43.26953,"lon":5.40247,"is_reserved":false,"is_disabled":false,"rental_uris":{"android":"levelo://app?vid=5174d76d-7c6b-41e9-aceb-a48450e5301e","ios":"levelo://app?vid=5174d76d-7c6b-41e9-aceb-a48450e5301e"},"vehicle_type_id":"4","last_reported":1726207997,"current_range_meters":38800,"station_id":"cjm6bp8fraef2m0cb0m0","pricing_plan_id":"cebpf4jnsgd1na2vs0mg"},{"bike_id":"0f5d1e4e-5cdd-41aa-9f16-247b92ec8386","system_id":"levelo_inurba_marseille","lat":43.29963,"lon":5.41327,"is_reserved":false,"is_disabled":false,"rental_uris":{"android":"levelo://app?vid=0f5d1e4e-5cdd-41aa-9f16-247b92ec8386","ios":"levelo://app?vid=0f5d1e4e-5cdd-41aa-9f16-247b92ec8386"},"vehicle_type_id":"4","last_reported":1726207997,"current_range_meters":38000,"station_id":"ce4bhp12rcd13ifvqh9g","pricing_plan_id":"cebpf4jnsgd1na2vs0mg"},{"bike_id":"2d9f6a36-1e8d-46ce-8819-b2bb04006d43","system_id":"levelo_inurba_marseille","lat":43.25586,"lon":5.38226,"is_reserved":false,"is_disabled":false,"rental_uris":{"android":"levelo://app?vid=2d9f6a36-1e8d-46ce-8819-b2bb04006d43","ios":"levelo://app?vid=2d9f6a36-1e8d-46ce-8819-b2bb04006d43"},"vehicle_type_id":"4","last_reported":1726207997,"current_range_meters":32800,"station_id":"ce4bhih2rcd13ifvqfs0","pricing_plan_id":"cebpf4jnsgd1na2vs0mg"},{"bike_id":"827d9080-6508-46b7-a796-7a61e55adf92","system_id":"levelo_inurba_marseille","lat":43.29036,"lon":5.38647,"is_reserved":false,"is_disabled":false,"rental_uris":{"android":"levelo://app?vid=827d9080-6508-46b7-a796-7a61e55adf92","ios":"levelo://app?vid=827d9080-6508-46b7-a796-7a61e55adf92"},"vehicle_type_id":"4","last_reported":1726207997,"current_range_meters":33600,"station_id":"ce4bh4p2rcd13ifvqe0g","pricing_plan_id":"cebpf4jnsgd1na2vs0mg"},{"bike_id":"8dca9963-cf39-4281-bf12-7f04d8ff2bb7","system_id":"levelo_inurba_marseille","lat":43.29166,"lon":5.37171,"is_reserved":false,"is_disabled":false,"rental_uris":{"android":"levelo://app?vid=8dca9963-cf39-4281-bf12-7f04d8ff2bb7","ios":"levelo://app?vid=8dca9963-cf39-4281-bf12-7f04d8ff2bb7"},"vehicle_type_id":"4","last_reported":1726207997,"current_range_meters":26000,"station_id":"ce4bha92rcd13ifvqeh0","pricing_plan_id":"cebpf4jnsgd1na2vs0mg"},{"bike_id":"e7a6900b-450f-43b3-b7e7-0ecf7d62c30e","system_id":"levelo_inurba_marseille","lat":43.23967,"lon":5.36631,"is_reserved":false,"is_disabled":false,"rental_uris":{"android":"levelo://app?vid=e7a6900b-450f-43b3-b7e7-0ecf7d62c30e","ios":"levelo://app?vid=e7a6900b-450f-43b3-b7e7-0ecf7d62c30e"},"vehicle_type_id":"4","last_reported":1726207997,"current_range_meters":36000,"station_id":"ce4bhi12rcd13ifvqfp0","pricing_plan_id":"cebpf4jnsgd1na2vs0mg"},{"bike_id":"e62c8c71-b14f-4c94-8aa4-e0afcaaf93b6","system_id":"levelo_inurba_marseille","lat":43.24816,"lon":5.37461,"is_reserved":false,"is_disabled":false,"rental_uris":{"android":"levelo://app?vid=e62c8c71-b14f-4c94-8aa4-e0afcaaf93b6","ios":"levelo://app?vid=e62c8c71-b14f-4c94-8aa4-e0afcaaf93b6"},"vehicle_type_id":"4","last_reported":1726207997,"current_range_meters":33600,"station_id":"ce4bhgh2rcd13ifvqfb0","pricing_plan_id":"cebpf4jnsgd1na2vs0mg"},{"bike_id":"eb3568dc-dad6-4c11-bfd8-2a7670bd333f","system_id":"levelo_inurba_marseille","lat":43.28354,"lon":5.38111,"is_reserved":false,"is_disabled":false,"rental_uris":{"android":"levelo://app?vid=eb3568dc-dad6-4c11-bfd8-2a7670bd333f","ios":"levelo://app?vid=eb3568dc-dad6-4c11-bfd8-2a7670bd333f"},"vehicle_type_id":"4","last_reported":1726207997,"current_range_meters":16400,"station_id":"ce4bh412rcd13ifvqdr0","pricing_plan_id":"cebpf4jnsgd1na2vs0mg"},{"bike_id":"9e955087-931f-42c6-a5de-4480d9f0a58c","system_id":"levelo_inurba_marseille","lat":43.32482,"lon":5.36561,"is_reserved":false,"is_disabled":false,"rental_uris":{"android":"levelo://app?vid=9e955087-931f-42c6-a5de-4480d9f0a58c","ios":"levelo://app?vid=9e955087-931f-42c6-a5de-4480d9f0a58c"},"vehicle_type_id":"4","last_reported":1726207997,"current_range_meters":28400,"station_id":"ce4bhs12rcd13ifvqhvg","pricing_plan_id":"cebpf4jnsgd1na2vs0mg"},{"bike_id":"a0371d16-8a8c-41d1-a587-6ae508d2f387","system_id":"levelo_inurba_marseille","lat":43.283619,"lon":5.386332,"is_reserved":false,"is_disabled":false,"rental_uris":{"android":"levelo://app?vid=a0371d16-8a8c-41d1-a587-6ae508d2f387","ios":"levelo://app?vid=a0371d16-8a8c-41d1-a587-6ae508d2f387"},"vehicle_type_id":"4","last_reported":1726207997,"current_range_meters":17200,"station_id":"ce4bh492rcd13ifvqdvg","pricing_plan_id":"cebpf4jnsgd1na2vs0mg"},{"bike_id":"69b26a0b-db83-4395-8ee1-1e784091ffad","system_id":"levelo_inurba_marseille","lat":43.23155,"lon":5.43709,"is_reserved":false,"is_disabled":false,"rental_uris":{"android":"levelo://app?vid=69b26a0b-db83-4395-8ee1-1e784091ffad","ios":"levelo://app?vid=69b26a0b-db83-4395-8ee1-1e784091ffad"},"vehicle_type_id":"4","last_reported":1726207997,"current_range_meters":8000,"station_id":"ce4bhmp2rcd13ifvqgog","pricing_plan_id":"cebpf4jnsgd1na2vs0mg"},{"bike_id":"768174ed-8e87-4dfb-8f24-a534a0005560","system_id":"levelo_inurba_marseille","lat":43.29007,"lon":5.35625,"is_reserved":false,"is_disabled":false,"rental_uris":{"android":"levelo://app?vid=768174ed-8e87-4dfb-8f24-a534a0005560","ios":"levelo://app?vid=768174ed-8e87-4dfb-8f24-a534a0005560"},"vehicle_type_id":"4","last_reported":1726207997,"current_range_meters":37600,"station_id":"ce4bhb92rcd13ifvqen0","pricing_plan_id":"cebpf4jnsgd1na2vs0mg"},{"bike_id":"655b4797-dc8d-49a1-8610-fcd415671ad9","system_id":"levelo_inurba_marseille","lat":43.33605,"lon":5.41031,"is_reserved":false,"is_disabled":false,"rental_uris":{"android":"levelo://app?vid=655b4797-dc8d-49a1-8610-fcd415671ad9","ios":"levelo://app?vid=655b4797-dc8d-49a1-8610-fcd415671ad9"},"vehicle_type_id":"4","last_reported":1726207997,"current_range_meters":38800,"station_id":"ce4bhqh2rcd13ifvqhmg","pricing_plan_id":"cebpf4jnsgd1na2vs0mg"},{"bike_id":"59a2b5a9-0f56-40d5-a59c-cb2592419b75","system_id":"levelo_inurba_marseille","lat":43.25593,"lon":5.38222,"is_reserved":false,"is_disabled":false,"rental_uris":{"android":"levelo://app?vid=59a2b5a9-0f56-40d5-a59c-cb2592419b75","ios":"levelo://app?vid=59a2b5a9-0f56-40d5-a59c-cb2592419b75"},"vehicle_type_id":"4","last_reported":1726207997,"current_range_meters":38800,"station_id":"ce4bhih2rcd13ifvqfs0","pricing_plan_id":"cebpf4jnsgd1na2vs0mg"},{"bike_id":"b5f5f730-0e55-4b41-9706-42650d873aca","system_id":"levelo_inurba_marseille","lat":43.2994,"lon":5.3654,"is_reserved":false,"is_disabled":false,"rental_uris":{"android":"levelo://app?vid=b5f5f730-0e55-4b41-9706-42650d873aca","ios":"levelo://app?vid=b5f5f730-0e55-4b41-9706-42650d873aca"},"vehicle_type_id":"4","last_reported":1726207997,"current_range_meters":36800,"station_id":"ce4bgm92rcd13ifvqbr0","pricing_plan_id":"cebpf4jnsgd1na2vs0mg"},{"bike_id":"91ce77ce-18ef-47d8-9533-f401393ecd0b","system_id":"levelo_inurba_marseille","lat":43.28617,"lon":5.3511,"is_reserved":false,"is_disabled":false,"rental_uris":{"android":"levelo://app?vid=91ce77ce-18ef-47d8-9533-f401393ecd0b","ios":"levelo://app?vid=91ce77ce-18ef-47d8-9533-f401393ecd0b"},"vehicle_type_id":"4","last_reported":1726207997,"current_range_meters":18800,"station_id":"ce4bhch2rcd13ifvqeug","pricing_plan_id":"cebpf4jnsgd1na2vs0mg"},{"bike_id":"5413942c-8963-4c08-9950-837c72f9eb11","system_id":"levelo_inurba_marseille","lat":43.24077,"lon":5.37736,"is_reserved":false,"is_disabled":false,"rental_uris":{"android":"levelo://app?vid=5413942c-8963-4c08-9950-837c72f9eb11","ios":"levelo://app?vid=5413942c-8963-4c08-9950-837c72f9eb11"},"vehicle_type_id":"4","last_reported":1726207997,"current_range_meters":38400,"station_id":"ce4bhnp2rcd13ifvqgvg","pricing_plan_id":"cebpf4jnsgd1na2vs0mg"},{"bike_id":"2bc324af-96fe-4349-8772-b27ff4a27fb3","system_id":"levelo_inurba_marseille","lat":43.31323,"lon":5.39694,"is_reserved":false,"is_disabled":false,"rental_uris":{"android":"levelo://app?vid=2bc324af-96fe-4349-8772-b27ff4a27fb3","ios":"levelo://app?vid=2bc324af-96fe-4349-8772-b27ff4a27fb3"},"vehicle_type_id":"4","last_reported":1726207997,"current_range_meters":10800,"station_id":"ce4bgvp2rcd13ifvqcu0","pricing_plan_id":"cebpf4jnsgd1na2vs0mg"},{"bike_id":"b6a55e8b-3ff3-46c8-a72a-6c10f7cc2db1","system_id":"levelo_inurba_marseille","lat":43.29959,"lon":5.41317,"is_reserved":false,"is_disabled":false,"rental_uris":{"android":"levelo://app?vid=b6a55e8b-3ff3-46c8-a72a-6c10f7cc2db1","ios":"levelo://app?vid=b6a55e8b-3ff3-46c8-a72a-6c10f7cc2db1"},"vehicle_type_id":"4","last_reported":1726207997,"current_range_meters":38800,"station_id":"ce4bhp12rcd13ifvqh9g","pricing_plan_id":"cebpf4jnsgd1na2vs0mg"},{"bike_id":"09366a6a-7b33-4315-bd86-159f4a8e144d","system_id":"levelo_inurba_marseille","lat":43.28955,"lon":5.36418,"is_reserved":false,"is_disabled":false,"rental_uris":{"android":"levelo://app?vid=09366a6a-7b33-4315-bd86-159f4a8e144d","ios":"levelo://app?vid=09366a6a-7b33-4315-bd86-159f4a8e144d"},"vehicle_type_id":"4","last_reported":1726207997,"current_range_meters":34000,"station_id":"ce4bhc92rcd13ifvqetg","pricing_plan_id":"cebpf4jnsgd1na2vs0mg"},{"bike_id":"d608f0a9-6c51-4c68-be81-d6c79550be85","system_id":"levelo_inurba_marseille","lat":43.31706,"lon":5.43699,"is_reserved":false,"is_disabled":false,"rental_uris":{"android":"levelo://app?vid=d608f0a9-6c51-4c68-be81-d6c79550be85","ios":"levelo://app?vid=d608f0a9-6c51-4c68-be81-d6c79550be85"},"vehicle_type_id":"4","last_reported":1726207997,"current_range_meters":39200,"station_id":"ce4bhp92rcd13ifvqhcg","pricing_plan_id":"cebpf4jnsgd1na2vs0mg"},{"bike_id":"a7225787-a1fe-4f9c-8189-093e4e1002aa","system_id":"levelo_inurba_marseille","lat":43.29006,"lon":5.35606,"is_reserved":false,"is_disabled":false,"rental_uris":{"android":"levelo://app?vid=a7225787-a1fe-4f9c-8189-093e4e1002aa","ios":"levelo://app?vid=a7225787-a1fe-4f9c-8189-093e4e1002aa"},"vehicle_type_id":"4","last_reported":1726207997,"current_range_meters":38800,"station_id":"ce4bhb92rcd13ifvqen0","pricing_plan_id":"cebpf4jnsgd1na2vs0mg"},{"bike_id":"7685c71a-1935-4b9f-858d-7f9381b88abf","system_id":"levelo_inurba_marseille","lat":43.33609,"lon":5.41016,"is_reserved":false,"is_disabled":false,"rental_uris":{"android":"levelo://app?vid=7685c71a-1935-4b9f-858d-7f9381b88abf","ios":"levelo://app?vid=7685c71a-1935-4b9f-858d-7f9381b88abf"},"vehicle_type_id":"4","last_reported":1726207997,"current_range_meters":28000,"station_id":"ce4bhqh2rcd13ifvqhmg","pricing_plan_id":"cebpf4jnsgd1na2vs0mg"},{"bike_id":"bfd2a3d6-ad57-4d1a-86b2-4eeb3c6695bb","system_id":"levelo_inurba_marseille","lat":43.31072,"lon":5.38363,"is_reserved":false,"is_disabled":false,"rental_uris":{"android":"levelo://app?vid=bfd2a3d6-ad57-4d1a-86b2-4eeb3c6695bb","ios":"levelo://app?vid=bfd2a3d6-ad57-4d1a-86b2-4eeb3c6695bb"},"vehicle_type_id":"4","last_reported":1726207997,"current_range_meters":37600,"station_id":"ce4bgv92rcd13ifvqcr0","pricing_plan_id":"cebpf4jnsgd1na2vs0mg"},{"bike_id":"deaeb920-23ab-4b51-a90a-3a4d369b9959","system_id":"levelo_inurba_marseille","lat":43.26556,"lon":5.37282,"is_reserved":false,"is_disabled":false,"rental_uris":{"android":"levelo://app?vid=deaeb920-23ab-4b51-a90a-3a4d369b9959","ios":"levelo://app?vid=deaeb920-23ab-4b51-a90a-3a4d369b9959"},"vehicle_type_id":"4","last_reported":1726207997,"current_range_meters":8800,"station_id":"ce4bhg12rcd13ifvqf70","pricing_plan_id":"cebpf4jnsgd1na2vs0mg"},{"bike_id":"e65c4ce6-fb1f-42fa-be17-ed0417997a5c","system_id":"levelo_inurba_marseille","lat":43.276113,"lon":5.389069,"is_reserved":false,"is_disabled":false,"rental_uris":{"android":"levelo://app?vid=e65c4ce6-fb1f-42fa-be17-ed0417997a5c","ios":"levelo://app?vid=e65c4ce6-fb1f-42fa-be17-ed0417997a5c"},"vehicle_type_id":"4","last_reported":1726207997,"current_range_meters":13600,"station_id":"ce4bhi12rcd13ifvqfo0","pricing_plan_id":"cebpf4jnsgd1na2vs0mg"},{"bike_id":"73942500-b410-4f4d-b456-d80158b35a87","system_id":"levelo_inurba_marseille","lat":43.30582,"lon":5.3935,"is_reserved":false,"is_disabled":false,"rental_uris":{"android":"levelo://app?vid=73942500-b410-4f4d-b456-d80158b35a87","ios":"levelo://app?vid=73942500-b410-4f4d-b456-d80158b35a87"},"vehicle_type_id":"4","last_reported":1726207997,"current_range_meters":37600,"station_id":"ce4bh0p2rcd13ifvqd80","pricing_plan_id":"cebpf4jnsgd1na2vs0mg"},{"bike_id":"a3c99c0e-efb7-4563-a1e3-25d67d6029f6","system_id":"levelo_inurba_marseille","lat":43.31085,"lon":5.42428,"is_reserved":false,"is_disabled":false,"rental_uris":{"android":"levelo://app?vid=a3c99c0e-efb7-4563-a1e3-25d67d6029f6","ios":"levelo://app?vid=a3c99c0e-efb7-4563-a1e3-25d67d6029f6"},"vehicle_type_id":"4","last_reported":1726207997,"current_range_meters":10000,"station_id":"ce4bhp92rcd13ifvqhag","pricing_plan_id":"cebpf4jnsgd1na2vs0mg"},{"bike_id":"0a5c7982-28f1-44b8-a901-7e32bdbe3e0d","system_id":"levelo_inurba_marseille","lat":43.25492,"lon":5.37647,"is_reserved":false,"is_disabled":false,"rental_uris":{"android":"levelo://app?vid=0a5c7982-28f1-44b8-a901-7e32bdbe3e0d","ios":"levelo://app?vid=0a5c7982-28f1-44b8-a901-7e32bdbe3e0d"},"vehicle_type_id":"4","last_reported":1726207997,"current_range_meters":34800,"station_id":"ce4bhh12rcd13ifvqff0","pricing_plan_id":"cebpf4jnsgd1na2vs0mg"},{"bike_id":"4803fd1e-7b74-4c02-8e24-055c99930fd0","system_id":"levelo_inurba_marseille","lat":43.29006,"lon":5.35607,"is_reserved":false,"is_disabled":false,"rental_uris":{"android":"levelo://app?vid=4803fd1e-7b74-4c02-8e24-055c99930fd0","ios":"levelo://app?vid=4803fd1e-7b74-4c02-8e24-055c99930fd0"},"vehicle_type_id":"4","last_reported":1726207997,"current_range_meters":39200,"station_id":"ce4bhb92rcd13ifvqen0","pricing_plan_id":"cebpf4jnsgd1na2vs0mg"},{"bike_id":"2706703d-819c-4205-a468-5b08a4b1f00c","system_id":"levelo_inurba_marseille","lat":43.26959,"lon":5.38632,"is_reserved":false,"is_disabled":false,"rental_uris":{"android":"levelo://app?vid=2706703d-819c-4205-a468-5b08a4b1f00c","ios":"levelo://app?vid=2706703d-819c-4205-a468-5b08a4b1f00c"},"vehicle_type_id":"4","last_reported":1726207997,"current_range_meters":35200,"station_id":"ce4bhh92rcd13ifvqfh0","pricing_plan_id":"cebpf4jnsgd1na2vs0mg"},{"bike_id":"d765a641-e055-4e3b-87e7-fd69ea5db099","system_id":"levelo_inurba_marseille","lat":43.33761,"lon":5.37439,"is_reserved":false,"is_disabled":false,"rental_uris":{"android":"levelo://app?vid=d765a641-e055-4e3b-87e7-fd69ea5db099","ios":"levelo://app?vid=d765a641-e055-4e3b-87e7-fd69ea5db099"},"vehicle_type_id":"4","last_reported":1726207997,"current_range_meters":35600,"station_id":"","pricing_plan_id":"cebpf4jnsgd1na2vs0mg"},{"bike_id":"712ed283-2e97-40bf-a20c-65756f19ed99","system_id":"levelo_inurba_marseille","lat":43.28348,"lon":5.381,"is_reserved":false,"is_disabled":false,"rental_uris":{"android":"levelo://app?vid=712ed283-2e97-40bf-a20c-65756f19ed99","ios":"levelo://app?vid=712ed283-2e97-40bf-a20c-65756f19ed99"},"vehicle_type_id":"4","last_reported":1726207997,"current_range_meters":34000,"station_id":"ce4bh412rcd13ifvqdr0","pricing_plan_id":"cebpf4jnsgd1na2vs0mg"},{"bike_id":"dd0c98e7-71e0-44ab-9a07-2c1bbb904c55","system_id":"levelo_inurba_marseille","lat":43.2834,"lon":5.3811,"is_reserved":false,"is_disabled":false,"rental_uris":{"android":"levelo://app?vid=dd0c98e7-71e0-44ab-9a07-2c1bbb904c55","ios":"levelo://app?vid=dd0c98e7-71e0-44ab-9a07-2c1bbb904c55"},"vehicle_type_id":"4","last_reported":1726207997,"current_range_meters":32400,"station_id":"ce4bh412rcd13ifvqdr0","pricing_plan_id":"cebpf4jnsgd1na2vs0mg"},{"bike_id":"ecb19fdf-c363-4be5-9a1d-16b9150ca555","system_id":"levelo_inurba_marseille","lat":43.31352,"lon":5.36708,"is_reserved":false,"is_disabled":false,"rental_uris":{"android":"levelo://app?vid=ecb19fdf-c363-4be5-9a1d-16b9150ca555","ios":"levelo://app?vid=ecb19fdf-c363-4be5-9a1d-16b9150ca555"},"vehicle_type_id":"4","last_reported":1726207997,"current_range_meters":27200,"station_id":"ce4bgr92rcd13ifvqc6g","pricing_plan_id":"cebpf4jnsgd1na2vs0mg"},{"bike_id":"dbc4086c-48db-4284-a3cc-0bca6ec06a27","system_id":"levelo_inurba_marseille","lat":43.30464,"lon":5.37902,"is_reserved":false,"is_disabled":false,"rental_uris":{"android":"levelo://app?vid=dbc4086c-48db-4284-a3cc-0bca6ec06a27","ios":"levelo://app?vid=dbc4086c-48db-4284-a3cc-0bca6ec06a27"},"vehicle_type_id":"4","last_reported":1726207997,"current_range_meters":38800,"station_id":"ce4bgup2rcd13ifvqcn0","pricing_plan_id":"cebpf4jnsgd1na2vs0mg"},{"bike_id":"a4508862-cf17-49c3-8ef6-4c4072e9b870","system_id":"levelo_inurba_marseille","lat":43.27323,"lon":5.39107,"is_reserved":false,"is_disabled":false,"rental_uris":{"android":"levelo://app?vid=a4508862-cf17-49c3-8ef6-4c4072e9b870","ios":"levelo://app?vid=a4508862-cf17-49c3-8ef6-4c4072e9b870"},"vehicle_type_id":"4","last_reported":1726207997,"current_range_meters":38800,"station_id":"ce4bhgp2rcd13ifvqfe0","pricing_plan_id":"cebpf4jnsgd1na2vs0mg"},{"bike_id":"f22d7c7d-1a79-4418-8e07-612430d283a3","system_id":"levelo_inurba_marseille","lat":43.3046,"lon":5.37899,"is_reserved":false,"is_disabled":false,"rental_uris":{"android":"levelo://app?vid=f22d7c7d-1a79-4418-8e07-612430d283a3","ios":"levelo://app?vid=f22d7c7d-1a79-4418-8e07-612430d283a3"},"vehicle_type_id":"4","last_reported":1726207997,"current_range_meters":33200,"station_id":"ce4bgup2rcd13ifvqcn0","pricing_plan_id":"cebpf4jnsgd1na2vs0mg"},{"bike_id":"bac1b464-86f2-4e61-9544-e613306e7da6","system_id":"levelo_inurba_marseille","lat":43.26501,"lon":5.39537,"is_reserved":false,"is_disabled":false,"rental_uris":{"android":"levelo://app?vid=bac1b464-86f2-4e61-9544-e613306e7da6","ios":"levelo://app?vid=bac1b464-86f2-4e61-9544-e613306e7da6"},"vehicle_type_id":"4","last_reported":1726207997,"current_range_meters":26000,"station_id":"ce4bhi12rcd13ifvqfq0","pricing_plan_id":"cebpf4jnsgd1na2vs0mg"},{"bike_id":"ad93043e-a256-43ba-9a25-af59a65531fc","system_id":"levelo_inurba_marseille","lat":43.29039,"lon":5.38646,"is_reserved":false,"is_disabled":false,"rental_uris":{"android":"levelo://app?vid=ad93043e-a256-43ba-9a25-af59a65531fc","ios":"levelo://app?vid=ad93043e-a256-43ba-9a25-af59a65531fc"},"vehicle_type_id":"4","last_reported":1726207997,"current_range_meters":2800,"station_id":"ce4bh4p2rcd13ifvqe0g","pricing_plan_id":"cebpf4jnsgd1na2vs0mg"},{"bike_id":"9cb9ab69-3148-4b2f-a970-03143086caba","system_id":"levelo_inurba_marseille","lat":43.29007,"lon":5.35618,"is_reserved":false,"is_disabled":false,"rental_uris":{"android":"levelo://app?vid=9cb9ab69-3148-4b2f-a970-03143086caba","ios":"levelo://app?vid=9cb9ab69-3148-4b2f-a970-03143086caba"},"vehicle_type_id":"4","last_reported":1726207997,"current_range_meters":38800,"station_id":"ce4bhb92rcd13ifvqen0","pricing_plan_id":"cebpf4jnsgd1na2vs0mg"},{"bike_id":"4afb8b00-be3a-4d15-9b8b-47916e625762","system_id":"levelo_inurba_marseille","lat":43.2853,"lon":5.44229,"is_reserved":false,"is_disabled":false,"rental_uris":{"android":"levelo://app?vid=4afb8b00-be3a-4d15-9b8b-47916e625762","ios":"levelo://app?vid=4afb8b00-be3a-4d15-9b8b-47916e625762"},"vehicle_type_id":"4","last_reported":1726207997,"current_range_meters":28400,"station_id":"","pricing_plan_id":"cebpf4jnsgd1na2vs0mg"},{"bike_id":"bb7acf50-b6bc-4b2d-adf4-833abc23b24c","system_id":"levelo_inurba_marseille","lat":43.23194,"lon":5.3555,"is_reserved":false,"is_disabled":false,"rental_uris":{"android":"levelo://app?vid=bb7acf50-b6bc-4b2d-adf4-833abc23b24c","ios":"levelo://app?vid=bb7acf50-b6bc-4b2d-adf4-833abc23b24c"},"vehicle_type_id":"4","last_reported":1726207997,"current_range_meters":38800,"station_id":"ce4bhu92rcd13ifvqi70","pricing_plan_id":"cebpf4jnsgd1na2vs0mg"},{"bike_id":"498820e6-7992-4d70-9ee6-553108ccfbc3","system_id":"levelo_inurba_marseille","lat":43.24075,"lon":5.37759,"is_reserved":false,"is_disabled":false,"rental_uris":{"android":"levelo://app?vid=498820e6-7992-4d70-9ee6-553108ccfbc3","ios":"levelo://app?vid=498820e6-7992-4d70-9ee6-553108ccfbc3"},"vehicle_type_id":"4","last_reported":1726207997,"current_range_meters":31200,"station_id":"ce4bhnp2rcd13ifvqgvg","pricing_plan_id":"cebpf4jnsgd1na2vs0mg"},{"bike_id":"4d82deed-46f4-4ede-b400-33da4682094f","system_id":"levelo_inurba_marseille","lat":43.26057,"lon":5.39393,"is_reserved":false,"is_disabled":false,"rental_uris":{"android":"levelo://app?vid=4d82deed-46f4-4ede-b400-33da4682094f","ios":"levelo://app?vid=4d82deed-46f4-4ede-b400-33da4682094f"},"vehicle_type_id":"4","last_reported":1726207997,"current_range_meters":24400,"station_id":"ce4bhh92rcd13ifvqfj0","pricing_plan_id":"cebpf4jnsgd1na2vs0mg"},{"bike_id":"95f4654d-ac32-4f3a-84c5-1dc1ba688ce4","system_id":"levelo_inurba_marseille","lat":43.26553,"lon":5.37284,"is_reserved":false,"is_disabled":false,"rental_uris":{"android":"levelo://app?vid=95f4654d-ac32-4f3a-84c5-1dc1ba688ce4","ios":"levelo://app?vid=95f4654d-ac32-4f3a-84c5-1dc1ba688ce4"},"vehicle_type_id":"4","last_reported":1726207997,"current_range_meters":30400,"station_id":"ce4bhg12rcd13ifvqf70","pricing_plan_id":"cebpf4jnsgd1na2vs0mg"},{"bike_id":"a9df7f9f-f1d9-4c98-a680-f0f416b391c9","system_id":"levelo_inurba_marseille","lat":43.30134,"lon":5.38786,"is_reserved":false,"is_disabled":false,"rental_uris":{"android":"levelo://app?vid=a9df7f9f-f1d9-4c98-a680-f0f416b391c9","ios":"levelo://app?vid=a9df7f9f-f1d9-4c98-a680-f0f416b391c9"},"vehicle_type_id":"4","last_reported":1726207997,"current_range_meters":36400,"station_id":"ce4bghh2rcd13ifvqb60","pricing_plan_id":"cebpf4jnsgd1na2vs0mg"},{"bike_id":"93f2f617-3790-497a-bb54-fc0eb2677a38","system_id":"levelo_inurba_marseille","lat":43.30462,"lon":5.37906,"is_reserved":false,"is_disabled":false,"rental_uris":{"android":"levelo://app?vid=93f2f617-3790-497a-bb54-fc0eb2677a38","ios":"levelo://app?vid=93f2f617-3790-497a-bb54-fc0eb2677a38"},"vehicle_type_id":"4","last_reported":1726207997,"current_range_meters":20000,"station_id":"ce4bgup2rcd13ifvqcn0","pricing_plan_id":"cebpf4jnsgd1na2vs0mg"},{"bike_id":"bb643047-ec79-444c-98a0-c357a38086cf","system_id":"levelo_inurba_marseille","lat":43.26961,"lon":5.38628,"is_reserved":false,"is_disabled":false,"rental_uris":{"android":"levelo://app?vid=bb643047-ec79-444c-98a0-c357a38086cf","ios":"levelo://app?vid=bb643047-ec79-444c-98a0-c357a38086cf"},"vehicle_type_id":"4","last_reported":1726207997,"current_range_meters":38800,"station_id":"ce4bhh92rcd13ifvqfh0","pricing_plan_id":"cebpf4jnsgd1na2vs0mg"},{"bike_id":"dee40828-df41-44b3-8791-d721f2166864","system_id":"levelo_inurba_marseille","lat":43.30143,"lon":5.37422,"is_reserved":false,"is_disabled":false,"rental_uris":{"android":"levelo://app?vid=dee40828-df41-44b3-8791-d721f2166864","ios":"levelo://app?vid=dee40828-df41-44b3-8791-d721f2166864"},"vehicle_type_id":"4","last_reported":1726207997,"current_range_meters":8000,"station_id":"ce4bgs92rcd13ifvqcc0","pricing_plan_id":"cebpf4jnsgd1na2vs0mg"},{"bike_id":"80a1e38e-0713-4fd0-b0c2-78281e4d4d93","system_id":"levelo_inurba_marseille","lat":43.31493,"lon":5.37295,"is_reserved":false,"is_disabled":false,"rental_uris":{"android":"levelo://app?vid=80a1e38e-0713-4fd0-b0c2-78281e4d4d93","ios":"levelo://app?vid=80a1e38e-0713-4fd0-b0c2-78281e4d4d93"},"vehicle_type_id":"4","last_reported":1726207997,"current_range_meters":35200,"station_id":"ce4bgt12rcd13ifvqcd0","pricing_plan_id":"cebpf4jnsgd1na2vs0mg"},{"bike_id":"fc5bc3fc-35d3-40e2-b34c-e87294cdac8e","system_id":"levelo_inurba_marseille","lat":43.325378,"lon":5.414229,"is_reserved":false,"is_disabled":false,"rental_uris":{"android":"levelo://app?vid=fc5bc3fc-35d3-40e2-b34c-e87294cdac8e","ios":"levelo://app?vid=fc5bc3fc-35d3-40e2-b34c-e87294cdac8e"},"vehicle_type_id":"4","last_reported":1726207997,"current_range_meters":8400,"station_id":"ce4bhq12rcd13ifvqhhg","pricing_plan_id":"cebpf4jnsgd1na2vs0mg"},{"bike_id":"9a98c20a-1bbb-4b09-a13d-2fc5d00cb29f","system_id":"levelo_inurba_marseille","lat":43.29552,"lon":5.42288,"is_reserved":false,"is_disabled":false,"rental_uris":{"android":"levelo://app?vid=9a98c20a-1bbb-4b09-a13d-2fc5d00cb29f","ios":"levelo://app?vid=9a98c20a-1bbb-4b09-a13d-2fc5d00cb29f"},"vehicle_type_id":"4","last_reported":1726207997,"current_range_meters":10000,"station_id":"ce4bhph2rcd13ifvqhdg","pricing_plan_id":"cebpf4jnsgd1na2vs0mg"},{"bike_id":"b9466616-f130-4021-8376-29e162b8baf5","system_id":"levelo_inurba_marseille","lat":43.32663,"lon":5.40991,"is_reserved":false,"is_disabled":false,"rental_uris":{"android":"levelo://app?vid=b9466616-f130-4021-8376-29e162b8baf5","ios":"levelo://app?vid=b9466616-f130-4021-8376-29e162b8baf5"},"vehicle_type_id":"4","last_reported":1726207997,"current_range_meters":2800,"station_id":"ce4bhpp2rcd13ifvqhgg","pricing_plan_id":"cebpf4jnsgd1na2vs0mg"},{"bike_id":"c28ff0f1-1713-431a-bccf-4e7a21e8e39b","system_id":"levelo_inurba_marseille","lat":43.25505,"lon":5.37648,"is_reserved":false,"is_disabled":false,"rental_uris":{"android":"levelo://app?vid=c28ff0f1-1713-431a-bccf-4e7a21e8e39b","ios":"levelo://app?vid=c28ff0f1-1713-431a-bccf-4e7a21e8e39b"},"vehicle_type_id":"4","last_reported":1726207997,"current_range_meters":38800,"station_id":"ce4bhh12rcd13ifvqff0","pricing_plan_id":"cebpf4jnsgd1na2vs0mg"},{"bike_id":"deaaae64-24a5-443f-ba91-de969d33fdb3","system_id":"levelo_inurba_marseille","lat":43.283386,"lon":5.381059,"is_reserved":false,"is_disabled":false,"rental_uris":{"android":"levelo://app?vid=deaaae64-24a5-443f-ba91-de969d33fdb3","ios":"levelo://app?vid=deaaae64-24a5-443f-ba91-de969d33fdb3"},"vehicle_type_id":"4","last_reported":1726207997,"current_range_meters":29600,"station_id":"ce4bh412rcd13ifvqdr0","pricing_plan_id":"cebpf4jnsgd1na2vs0mg"},{"bike_id":"d63b08fd-7716-422a-94e4-8f1dfff5bb11","system_id":"levelo_inurba_marseille","lat":43.28615,"lon":5.35097,"is_reserved":false,"is_disabled":false,"rental_uris":{"android":"levelo://app?vid=d63b08fd-7716-422a-94e4-8f1dfff5bb11","ios":"levelo://app?vid=d63b08fd-7716-422a-94e4-8f1dfff5bb11"},"vehicle_type_id":"4","last_reported":1726207997,"current_range_meters":16000,"station_id":"ce4bhch2rcd13ifvqeug","pricing_plan_id":"cebpf4jnsgd1na2vs0mg"},{"bike_id":"2d2a0049-051f-4b74-b370-9aacb4e4a381","system_id":"levelo_inurba_marseille","lat":43.27495,"lon":5.42455,"is_reserved":false,"is_disabled":false,"rental_uris":{"android":"levelo://app?vid=2d2a0049-051f-4b74-b370-9aacb4e4a381","ios":"levelo://app?vid=2d2a0049-051f-4b74-b370-9aacb4e4a381"},"vehicle_type_id":"4","last_reported":1726207997,"current_range_meters":38400,"station_id":"ce4bhn92rcd13ifvqgrg","pricing_plan_id":"cebpf4jnsgd1na2vs0mg"},{"bike_id":"1763571a-9954-433e-872e-ef6d6319dff6","system_id":"levelo_inurba_marseille","lat":43.3079,"lon":5.36799,"is_reserved":false,"is_disabled":false,"rental_uris":{"android":"levelo://app?vid=1763571a-9954-433e-872e-ef6d6319dff6","ios":"levelo://app?vid=1763571a-9954-433e-872e-ef6d6319dff6"},"vehicle_type_id":"4","last_reported":1726207997,"current_range_meters":31200,"station_id":"ce4bgr92rcd13ifvqc6g","pricing_plan_id":"cebpf4jnsgd1na2vs0mg"},{"bike_id":"599eaaf8-a1b9-4b78-8074-8ec83fd4d3da","system_id":"levelo_inurba_marseille","lat":43.23198,"lon":5.35551,"is_reserved":false,"is_disabled":false,"rental_uris":{"android":"levelo://app?vid=599eaaf8-a1b9-4b78-8074-8ec83fd4d3da","ios":"levelo://app?vid=599eaaf8-a1b9-4b78-8074-8ec83fd4d3da"},"vehicle_type_id":"4","last_reported":1726207997,"current_range_meters":4400,"station_id":"ce4bhu92rcd13ifvqi70","pricing_plan_id":"cebpf4jnsgd1na2vs0mg"},{"bike_id":"82b1dfac-d9fb-4416-a545-7fabacd6934e","system_id":"levelo_inurba_marseille","lat":43.2834,"lon":5.381035,"is_reserved":false,"is_disabled":false,"rental_uris":{"android":"levelo://app?vid=82b1dfac-d9fb-4416-a545-7fabacd6934e","ios":"levelo://app?vid=82b1dfac-d9fb-4416-a545-7fabacd6934e"},"vehicle_type_id":"4","last_reported":1726207997,"current_range_meters":33600,"station_id":"ce4bh412rcd13ifvqdr0","pricing_plan_id":"cebpf4jnsgd1na2vs0mg"},{"bike_id":"eb3ce183-55eb-4d1e-9573-b9ecdd89f0ba","system_id":"levelo_inurba_marseille","lat":43.31494,"lon":5.37309,"is_reserved":false,"is_disabled":false,"rental_uris":{"android":"levelo://app?vid=eb3ce183-55eb-4d1e-9573-b9ecdd89f0ba","ios":"levelo://app?vid=eb3ce183-55eb-4d1e-9573-b9ecdd89f0ba"},"vehicle_type_id":"4","last_reported":1726207997,"current_range_meters":18800,"station_id":"ce4bgt12rcd13ifvqcd0","pricing_plan_id":"cebpf4jnsgd1na2vs0mg"},{"bike_id":"376cecfd-31b3-4e85-a79f-f0e96055ab2a","system_id":"levelo_inurba_marseille","lat":43.2828,"lon":5.40239,"is_reserved":false,"is_disabled":false,"rental_uris":{"android":"levelo://app?vid=376cecfd-31b3-4e85-a79f-f0e96055ab2a","ios":"levelo://app?vid=376cecfd-31b3-4e85-a79f-f0e96055ab2a"},"vehicle_type_id":"4","last_reported":1726207997,"current_range_meters":36000,"station_id":"ce4bhdp2rcd13ifvqf20","pricing_plan_id":"cebpf4jnsgd1na2vs0mg"},{"bike_id":"86592e31-d195-4731-8e4b-a0f3d2ead51e","system_id":"levelo_inurba_marseille","lat":43.27499,"lon":5.42446,"is_reserved":false,"is_disabled":false,"rental_uris":{"android":"levelo://app?vid=86592e31-d195-4731-8e4b-a0f3d2ead51e","ios":"levelo://app?vid=86592e31-d195-4731-8e4b-a0f3d2ead51e"},"vehicle_type_id":"4","last_reported":1726207997,"current_range_meters":30000,"station_id":"ce4bhn92rcd13ifvqgrg","pricing_plan_id":"cebpf4jnsgd1na2vs0mg"},{"bike_id":"53ef2818-a055-47fd-abbf-0ca3cd85cef4","system_id":"levelo_inurba_marseille","lat":43.30911,"lon":5.36851,"is_reserved":false,"is_disabled":false,"rental_uris":{"android":"levelo://app?vid=53ef2818-a055-47fd-abbf-0ca3cd85cef4","ios":"levelo://app?vid=53ef2818-a055-47fd-abbf-0ca3cd85cef4"},"vehicle_type_id":"4","last_reported":1726207997,"current_range_meters":17200,"station_id":"ce4bgn92rcd13ifvqbvg","pricing_plan_id":"cebpf4jnsgd1na2vs0mg"},{"bike_id":"71e5bd5f-9941-45ed-83eb-1729c01b5303","system_id":"levelo_inurba_marseille","lat":43.2292,"lon":5.35374,"is_reserved":false,"is_disabled":false,"rental_uris":{"android":"levelo://app?vid=71e5bd5f-9941-45ed-83eb-1729c01b5303","ios":"levelo://app?vid=71e5bd5f-9941-45ed-83eb-1729c01b5303"},"vehicle_type_id":"4","last_reported":1726207997,"current_range_meters":36400,"station_id":"cpo3532slgdg3j2ikp40","pricing_plan_id":"cebpf4jnsgd1na2vs0mg"},{"bike_id":"859d91c7-d5d2-4780-a29d-2b46be471c71","system_id":"levelo_inurba_marseille","lat":43.30465,"lon":5.37906,"is_reserved":false,"is_disabled":false,"rental_uris":{"android":"levelo://app?vid=859d91c7-d5d2-4780-a29d-2b46be471c71","ios":"levelo://app?vid=859d91c7-d5d2-4780-a29d-2b46be471c71"},"vehicle_type_id":"4","last_reported":1726207997,"current_range_meters":6000,"station_id":"ce4bgup2rcd13ifvqcn0","pricing_plan_id":"cebpf4jnsgd1na2vs0mg"},{"bike_id":"83009555-c31e-4968-8dfb-8455a00fc6c9","system_id":"levelo_inurba_marseille","lat":43.24662,"lon":5.38158,"is_reserved":false,"is_disabled":false,"rental_uris":{"android":"levelo://app?vid=83009555-c31e-4968-8dfb-8455a00fc6c9","ios":"levelo://app?vid=83009555-c31e-4968-8dfb-8455a00fc6c9"},"vehicle_type_id":"4","last_reported":1726207997,"current_range_meters":27600,"station_id":"ce4bhih2rcd13ifvqfr0","pricing_plan_id":"cebpf4jnsgd1na2vs0mg"},{"bike_id":"15a0f7a7-2801-4b64-a1cf-7b142c6ce92e","system_id":"levelo_inurba_marseille","lat":43.27498,"lon":5.42444,"is_reserved":false,"is_disabled":false,"rental_uris":{"android":"levelo://app?vid=15a0f7a7-2801-4b64-a1cf-7b142c6ce92e","ios":"levelo://app?vid=15a0f7a7-2801-4b64-a1cf-7b142c6ce92e"},"vehicle_type_id":"4","last_reported":1726207997,"current_range_meters":30400,"station_id":"ce4bhn92rcd13ifvqgrg","pricing_plan_id":"cebpf4jnsgd1na2vs0mg"},{"bike_id":"ffd70a77-c284-4424-967a-f18b173c279c","system_id":"levelo_inurba_marseille","lat":43.23158,"lon":5.43704,"is_reserved":false,"is_disabled":false,"rental_uris":{"android":"levelo://app?vid=ffd70a77-c284-4424-967a-f18b173c279c","ios":"levelo://app?vid=ffd70a77-c284-4424-967a-f18b173c279c"},"vehicle_type_id":"4","last_reported":1726207997,"current_range_meters":12000,"station_id":"ce4bhmp2rcd13ifvqgog","pricing_plan_id":"cebpf4jnsgd1na2vs0mg"},{"bike_id":"b4d74fee-6f89-4d61-89e1-dd9f2e020f3a","system_id":"levelo_inurba_marseille","lat":43.30465,"lon":5.37906,"is_reserved":false,"is_disabled":false,"rental_uris":{"android":"levelo://app?vid=b4d74fee-6f89-4d61-89e1-dd9f2e020f3a","ios":"levelo://app?vid=b4d74fee-6f89-4d61-89e1-dd9f2e020f3a"},"vehicle_type_id":"4","last_reported":1726207997,"current_range_meters":37600,"station_id":"ce4bgup2rcd13ifvqcn0","pricing_plan_id":"cebpf4jnsgd1na2vs0mg"},{"bike_id":"91b36c15-8bb8-4d60-8c33-cdd8e0d267ed","system_id":"levelo_inurba_marseille","lat":43.24652,"lon":5.43548,"is_reserved":false,"is_disabled":false,"rental_uris":{"android":"levelo://app?vid=91b36c15-8bb8-4d60-8c33-cdd8e0d267ed","ios":"levelo://app?vid=91b36c15-8bb8-4d60-8c33-cdd8e0d267ed"},"vehicle_type_id":"4","last_reported":1726207997,"current_range_meters":11600,"station_id":"","pricing_plan_id":"cebpf4jnsgd1na2vs0mg"},{"bike_id":"bad48d5c-b818-4aa2-be0b-0d91b64f9139","system_id":"levelo_inurba_marseille","lat":43.30606,"lon":5.39363,"is_reserved":false,"is_disabled":false,"rental_uris":{"android":"levelo://app?vid=bad48d5c-b818-4aa2-be0b-0d91b64f9139","ios":"levelo://app?vid=bad48d5c-b818-4aa2-be0b-0d91b64f9139"},"vehicle_type_id":"4","last_reported":1726207997,"current_range_meters":38800,"station_id":"ce4bh0p2rcd13ifvqd80","pricing_plan_id":"cebpf4jnsgd1na2vs0mg"},{"bike_id":"f64d1c47-9ab8-4dde-8af4-8a444a2a21d5","system_id":"levelo_inurba_marseille","lat":43.28725,"lon":5.37934,"is_reserved":false,"is_disabled":false,"rental_uris":{"android":"levelo://app?vid=f64d1c47-9ab8-4dde-8af4-8a444a2a21d5","ios":"levelo://app?vid=f64d1c47-9ab8-4dde-8af4-8a444a2a21d5"},"vehicle_type_id":"4","last_reported":1726207997,"current_range_meters":38800,"station_id":"ce4bh9p2rcd13ifvqec0","pricing_plan_id":"cebpf4jnsgd1na2vs0mg"},{"bike_id":"a54a3574-c91e-4b45-8d9e-37a5e874e58b","system_id":"levelo_inurba_marseille","lat":43.28157,"lon":5.42641,"is_reserved":false,"is_disabled":false,"rental_uris":{"android":"levelo://app?vid=a54a3574-c91e-4b45-8d9e-37a5e874e58b","ios":"levelo://app?vid=a54a3574-c91e-4b45-8d9e-37a5e874e58b"},"vehicle_type_id":"4","last_reported":1726207997,"current_range_meters":28000,"station_id":"ce4bhnh2rcd13ifvqgug","pricing_plan_id":"cebpf4jnsgd1na2vs0mg"},{"bike_id":"8a887379-9865-482a-a5f3-9818897f4050","system_id":"levelo_inurba_marseille","lat":43.30473,"lon":5.37912,"is_reserved":false,"is_disabled":false,"rental_uris":{"android":"levelo://app?vid=8a887379-9865-482a-a5f3-9818897f4050","ios":"levelo://app?vid=8a887379-9865-482a-a5f3-9818897f4050"},"vehicle_type_id":"4","last_reported":1726207997,"current_range_meters":5600,"station_id":"ce4bgup2rcd13ifvqcn0","pricing_plan_id":"cebpf4jnsgd1na2vs0mg"},{"bike_id":"fa00888d-44da-46ec-8110-fac9e92811ae","system_id":"levelo_inurba_marseille","lat":43.29033,"lon":5.38636,"is_reserved":false,"is_disabled":false,"rental_uris":{"android":"levelo://app?vid=fa00888d-44da-46ec-8110-fac9e92811ae","ios":"levelo://app?vid=fa00888d-44da-46ec-8110-fac9e92811ae"},"vehicle_type_id":"4","last_reported":1726207997,"current_range_meters":17600,"station_id":"ce4bh4p2rcd13ifvqe0g","pricing_plan_id":"cebpf4jnsgd1na2vs0mg"},{"bike_id":"21f4bdb7-d976-4839-a7fe-41e1e86c92e2","system_id":"levelo_inurba_marseille","lat":43.24083,"lon":5.37755,"is_reserved":false,"is_disabled":false,"rental_uris":{"android":"levelo://app?vid=21f4bdb7-d976-4839-a7fe-41e1e86c92e2","ios":"levelo://app?vid=21f4bdb7-d976-4839-a7fe-41e1e86c92e2"},"vehicle_type_id":"4","last_reported":1726207997,"current_range_meters":23200,"station_id":"ce4bhnp2rcd13ifvqgvg","pricing_plan_id":"cebpf4jnsgd1na2vs0mg"},{"bike_id":"6beb15ed-2c8d-4076-af9f-d4d302e6aee1","system_id":"levelo_inurba_marseille","lat":43.2408,"lon":5.37742,"is_reserved":false,"is_disabled":false,"rental_uris":{"android":"levelo://app?vid=6beb15ed-2c8d-4076-af9f-d4d302e6aee1","ios":"levelo://app?vid=6beb15ed-2c8d-4076-af9f-d4d302e6aee1"},"vehicle_type_id":"4","last_reported":1726207997,"current_range_meters":36400,"station_id":"ce4bhnp2rcd13ifvqgvg","pricing_plan_id":"cebpf4jnsgd1na2vs0mg"},{"bike_id":"954d2b54-362e-442e-bcaa-d17939d90e2d","system_id":"levelo_inurba_marseille","lat":43.25497,"lon":5.37646,"is_reserved":false,"is_disabled":false,"rental_uris":{"android":"levelo://app?vid=954d2b54-362e-442e-bcaa-d17939d90e2d","ios":"levelo://app?vid=954d2b54-362e-442e-bcaa-d17939d90e2d"},"vehicle_type_id":"4","last_reported":1726207997,"current_range_meters":38800,"station_id":"ce4bhh12rcd13ifvqff0","pricing_plan_id":"cebpf4jnsgd1na2vs0mg"},{"bike_id":"82dec1e1-c024-4a59-b080-1ca526441f94","system_id":"levelo_inurba_marseille","lat":43.337612,"lon":5.374504,"is_reserved":false,"is_disabled":false,"rental_uris":{"android":"levelo://app?vid=82dec1e1-c024-4a59-b080-1ca526441f94","ios":"levelo://app?vid=82dec1e1-c024-4a59-b080-1ca526441f94"},"vehicle_type_id":"4","last_reported":1726207997,"current_range_meters":16000,"station_id":"","pricing_plan_id":"cebpf4jnsgd1na2vs0mg"},{"bike_id":"c388f329-6f3c-470d-96b0-fb1532620c7b","system_id":"levelo_inurba_marseille","lat":43.23152,"lon":5.43718,"is_reserved":false,"is_disabled":false,"rental_uris":{"android":"levelo://app?vid=c388f329-6f3c-470d-96b0-fb1532620c7b","ios":"levelo://app?vid=c388f329-6f3c-470d-96b0-fb1532620c7b"},"vehicle_type_id":"4","last_reported":1726207997,"current_range_meters":22800,"station_id":"ce4bhmp2rcd13ifvqgog","pricing_plan_id":"cebpf4jnsgd1na2vs0mg"},{"bike_id":"58e1327d-64e6-43cf-91db-214255cc4e98","system_id":"levelo_inurba_marseille","lat":43.30469,"lon":5.37909,"is_reserved":false,"is_disabled":false,"rental_uris":{"android":"levelo://app?vid=58e1327d-64e6-43cf-91db-214255cc4e98","ios":"levelo://app?vid=58e1327d-64e6-43cf-91db-214255cc4e98"},"vehicle_type_id":"4","last_reported":1726207997,"current_range_meters":38800,"station_id":"ce4bgup2rcd13ifvqcn0","pricing_plan_id":"cebpf4jnsgd1na2vs0mg"},{"bike_id":"bdd95cd1-3643-4b84-98c8-c6e28360a342","system_id":"levelo_inurba_marseille","lat":43.29897,"lon":5.4366,"is_reserved":false,"is_disabled":false,"rental_uris":{"android":"levelo://app?vid=bdd95cd1-3643-4b84-98c8-c6e28360a342","ios":"levelo://app?vid=bdd95cd1-3643-4b84-98c8-c6e28360a342"},"vehicle_type_id":"4","last_reported":1726207997,"current_range_meters":20800,"station_id":"ce4bhpp2rcd13ifvqhfg","pricing_plan_id":"cebpf4jnsgd1na2vs0mg"},{"bike_id":"e3b90e0b-4923-474e-90ac-7372ad6957cb","system_id":"levelo_inurba_marseille","lat":43.28342,"lon":5.38094,"is_reserved":false,"is_disabled":false,"rental_uris":{"android":"levelo://app?vid=e3b90e0b-4923-474e-90ac-7372ad6957cb","ios":"levelo://app?vid=e3b90e0b-4923-474e-90ac-7372ad6957cb"},"vehicle_type_id":"4","last_reported":1726207997,"current_range_meters":30800,"station_id":"ce4bh412rcd13ifvqdr0","pricing_plan_id":"cebpf4jnsgd1na2vs0mg"},{"bike_id":"09ba8945-a48c-4076-a723-c8b4a259d6ac","system_id":"levelo_inurba_marseille","lat":43.25582,"lon":5.38244,"is_reserved":false,"is_disabled":false,"rental_uris":{"android":"levelo://app?vid=09ba8945-a48c-4076-a723-c8b4a259d6ac","ios":"levelo://app?vid=09ba8945-a48c-4076-a723-c8b4a259d6ac"},"vehicle_type_id":"4","last_reported":1726207997,"current_range_meters":33600,"station_id":"ce4bhih2rcd13ifvqfs0","pricing_plan_id":"cebpf4jnsgd1na2vs0mg"},{"bike_id":"80408a46-df5a-4f7f-878f-9e9057e3d833","system_id":"levelo_inurba_marseille","lat":43.29004,"lon":5.35611,"is_reserved":false,"is_disabled":false,"rental_uris":{"android":"levelo://app?vid=80408a46-df5a-4f7f-878f-9e9057e3d833","ios":"levelo://app?vid=80408a46-df5a-4f7f-878f-9e9057e3d833"},"vehicle_type_id":"4","last_reported":1726207997,"current_range_meters":18800,"station_id":"ce4bhb92rcd13ifvqen0","pricing_plan_id":"cebpf4jnsgd1na2vs0mg"},{"bike_id":"ce252066-5660-4070-af82-ae7fd5e8b916","system_id":"levelo_inurba_marseille","lat":43.29917,"lon":5.37486,"is_reserved":false,"is_disabled":false,"rental_uris":{"android":"levelo://app?vid=ce252066-5660-4070-af82-ae7fd5e8b916","ios":"levelo://app?vid=ce252066-5660-4070-af82-ae7fd5e8b916"},"vehicle_type_id":"4","last_reported":1726207997,"current_range_meters":36400,"station_id":"ce4bgjh2rcd13ifvqbg0","pricing_plan_id":"cebpf4jnsgd1na2vs0mg"},{"bike_id":"a24a32a7-16c3-4f2e-aa0c-8c797de05498","system_id":"levelo_inurba_marseille","lat":43.27495,"lon":5.42458,"is_reserved":false,"is_disabled":false,"rental_uris":{"android":"levelo://app?vid=a24a32a7-16c3-4f2e-aa0c-8c797de05498","ios":"levelo://app?vid=a24a32a7-16c3-4f2e-aa0c-8c797de05498"},"vehicle_type_id":"4","last_reported":1726207997,"current_range_meters":18000,"station_id":"ce4bhn92rcd13ifvqgrg","pricing_plan_id":"cebpf4jnsgd1na2vs0mg"},{"bike_id":"48d092ad-a333-47fc-807e-155c271c9095","system_id":"levelo_inurba_marseille","lat":43.24073,"lon":5.37761,"is_reserved":false,"is_disabled":false,"rental_uris":{"android":"levelo://app?vid=48d092ad-a333-47fc-807e-155c271c9095","ios":"levelo://app?vid=48d092ad-a333-47fc-807e-155c271c9095"},"vehicle_type_id":"4","last_reported":1726207997,"current_range_meters":32000,"station_id":"ce4bhnp2rcd13ifvqgvg","pricing_plan_id":"cebpf4jnsgd1na2vs0mg"},{"bike_id":"76088e27-c07e-42f3-b951-4021c657ea4d","system_id":"levelo_inurba_marseille","lat":43.28355,"lon":5.38102,"is_reserved":false,"is_disabled":false,"rental_uris":{"android":"levelo://app?vid=76088e27-c07e-42f3-b951-4021c657ea4d","ios":"levelo://app?vid=76088e27-c07e-42f3-b951-4021c657ea4d"},"vehicle_type_id":"4","last_reported":1726207997,"current_range_meters":22400,"station_id":"ce4bh412rcd13ifvqdr0","pricing_plan_id":"cebpf4jnsgd1na2vs0mg"},{"bike_id":"beed390f-5590-4e36-a920-552bcc39f2d8","system_id":"levelo_inurba_marseille","lat":43.30546,"lon":5.36545,"is_reserved":false,"is_disabled":false,"rental_uris":{"android":"levelo://app?vid=beed390f-5590-4e36-a920-552bcc39f2d8","ios":"levelo://app?vid=beed390f-5590-4e36-a920-552bcc39f2d8"},"vehicle_type_id":"4","last_reported":1726207997,"current_range_meters":38800,"station_id":"ce4bgs12rcd13ifvqcag","pricing_plan_id":"cebpf4jnsgd1na2vs0mg"},{"bike_id":"61e00977-be43-400f-99ea-3c33330f7657","system_id":"levelo_inurba_marseille","lat":43.25004,"lon":5.38915,"is_reserved":false,"is_disabled":false,"rental_uris":{"android":"levelo://app?vid=61e00977-be43-400f-99ea-3c33330f7657","ios":"levelo://app?vid=61e00977-be43-400f-99ea-3c33330f7657"},"vehicle_type_id":"4","last_reported":1726207997,"current_range_meters":26800,"station_id":"ce4bhgp2rcd13ifvqfd0","pricing_plan_id":"cebpf4jnsgd1na2vs0mg"},{"bike_id":"3286105a-ff42-4cdb-8a01-f2dcec295ec3","system_id":"levelo_inurba_marseille","lat":43.2407,"lon":5.37762,"is_reserved":false,"is_disabled":false,"rental_uris":{"android":"levelo://app?vid=3286105a-ff42-4cdb-8a01-f2dcec295ec3","ios":"levelo://app?vid=3286105a-ff42-4cdb-8a01-f2dcec295ec3"},"vehicle_type_id":"4","last_reported":1726207997,"current_range_meters":24400,"station_id":"ce4bhnp2rcd13ifvqgvg","pricing_plan_id":"cebpf4jnsgd1na2vs0mg"},{"bike_id":"244aeeda-27fc-4b45-94a3-af58d5f6bb1e","system_id":"levelo_inurba_marseille","lat":43.27497,"lon":5.42453,"is_reserved":false,"is_disabled":false,"rental_uris":{"android":"levelo://app?vid=244aeeda-27fc-4b45-94a3-af58d5f6bb1e","ios":"levelo://app?vid=244aeeda-27fc-4b45-94a3-af58d5f6bb1e"},"vehicle_type_id":"4","last_reported":1726207997,"current_range_meters":30000,"station_id":"ce4bhn92rcd13ifvqgrg","pricing_plan_id":"cebpf4jnsgd1na2vs0mg"},{"bike_id":"32999809-c64a-4142-a8c4-a3713ea7b65f","system_id":"levelo_inurba_marseille","lat":43.29908,"lon":5.38139,"is_reserved":false,"is_disabled":false,"rental_uris":{"android":"levelo://app?vid=32999809-c64a-4142-a8c4-a3713ea7b65f","ios":"levelo://app?vid=32999809-c64a-4142-a8c4-a3713ea7b65f"},"vehicle_type_id":"4","last_reported":1726207997,"current_range_meters":38400,"station_id":"ce4bgj12rcd13ifvqbc0","pricing_plan_id":"cebpf4jnsgd1na2vs0mg"},{"bike_id":"950ba880-b8f8-46ef-aaff-3d6250fdcec6","system_id":"levelo_inurba_marseille","lat":43.3171,"lon":5.37746,"is_reserved":false,"is_disabled":false,"rental_uris":{"android":"levelo://app?vid=950ba880-b8f8-46ef-aaff-3d6250fdcec6","ios":"levelo://app?vid=950ba880-b8f8-46ef-aaff-3d6250fdcec6"},"vehicle_type_id":"4","last_reported":1726207997,"current_range_meters":38000,"station_id":"ce4bgth2rcd13ifvqch0","pricing_plan_id":"cebpf4jnsgd1na2vs0mg"},{"bike_id":"a3520f5f-3103-4622-bc3c-d91a54f240eb","system_id":"levelo_inurba_marseille","lat":43.24552,"lon":5.39529,"is_reserved":false,"is_disabled":false,"rental_uris":{"android":"levelo://app?vid=a3520f5f-3103-4622-bc3c-d91a54f240eb","ios":"levelo://app?vid=a3520f5f-3103-4622-bc3c-d91a54f240eb"},"vehicle_type_id":"4","last_reported":1726207997,"current_range_meters":6800,"station_id":"ce4bhlp2rcd13ifvqgjg","pricing_plan_id":"cebpf4jnsgd1na2vs0mg"},{"bike_id":"189247d6-895b-4416-af39-9fef0fdb2365","system_id":"levelo_inurba_marseille","lat":43.29197,"lon":5.39317,"is_reserved":false,"is_disabled":false,"rental_uris":{"android":"levelo://app?vid=189247d6-895b-4416-af39-9fef0fdb2365","ios":"levelo://app?vid=189247d6-895b-4416-af39-9fef0fdb2365"},"vehicle_type_id":"4","last_reported":1726207997,"current_range_meters":28000,"station_id":"ce4bhlp2rcd13ifvqgjg","pricing_plan_id":"cebpf4jnsgd1na2vs0mg"},{"bike_id":"68a92f23-359e-49cd-b3bb-1ed491ceb8ce","system_id":"levelo_inurba_marseille","lat":43.337444,"lon":5.374475,"is_reserved":false,"is_disabled":false,"rental_uris":{"android":"levelo://app?vid=68a92f23-359e-49cd-b3bb-1ed491ceb8ce","ios":"levelo://app?vid=68a92f23-359e-49cd-b3bb-1ed491ceb8ce"},"vehicle_type_id":"4","last_reported":1726207997,"current_range_meters":30000,"station_id":"","pricing_plan_id":"cebpf4jnsgd1na2vs0mg"},{"bike_id":"f693852a-8948-4696-aaad-b21d5bf42336","system_id":"levelo_inurba_marseille","lat":43.30152,"lon":5.3808,"is_reserved":false,"is_disabled":false,"rental_uris":{"android":"levelo://app?vid=f693852a-8948-4696-aaad-b21d5bf42336","ios":"levelo://app?vid=f693852a-8948-4696-aaad-b21d5bf42336"},"vehicle_type_id":"4","last_reported":1726207997,"current_range_meters":26800,"station_id":"ce4bgjp2rcd13ifvqbh0","pricing_plan_id":"cebpf4jnsgd1na2vs0mg"},{"bike_id":"2e8ffd32-6084-4fa3-ad5b-1e6481e84263","system_id":"levelo_inurba_marseille","lat":43.2908,"lon":5.3716,"is_reserved":false,"is_disabled":false,"rental_uris":{"android":"levelo://app?vid=2e8ffd32-6084-4fa3-ad5b-1e6481e84263","ios":"levelo://app?vid=2e8ffd32-6084-4fa3-ad5b-1e6481e84263"},"vehicle_type_id":"4","last_reported":1726207997,"current_range_meters":13600,"station_id":"ce4bh5p2rcd13ifvqe4g","pricing_plan_id":"cebpf4jnsgd1na2vs0mg"},{"bike_id":"a1e6be1b-611e-4941-ac78-d62bc4ab01ca","system_id":"levelo_inurba_marseille","lat":43.28362,"lon":5.38626,"is_reserved":false,"is_disabled":false,"rental_uris":{"android":"levelo://app?vid=a1e6be1b-611e-4941-ac78-d62bc4ab01ca","ios":"levelo://app?vid=a1e6be1b-611e-4941-ac78-d62bc4ab01ca"},"vehicle_type_id":"4","last_reported":1726207997,"current_range_meters":38400,"station_id":"ce4bh492rcd13ifvqdvg","pricing_plan_id":"cebpf4jnsgd1na2vs0mg"},{"bike_id":"6b8b2337-e163-4752-9774-c7edb8e9ecb8","system_id":"levelo_inurba_marseille","lat":43.28343,"lon":5.38106,"is_reserved":false,"is_disabled":false,"rental_uris":{"android":"levelo://app?vid=6b8b2337-e163-4752-9774-c7edb8e9ecb8","ios":"levelo://app?vid=6b8b2337-e163-4752-9774-c7edb8e9ecb8"},"vehicle_type_id":"4","last_reported":1726207997,"current_range_meters":20800,"station_id":"ce4bh412rcd13ifvqdr0","pricing_plan_id":"cebpf4jnsgd1na2vs0mg"},{"bike_id":"ee2b411d-ec98-4fdc-850e-f566ac76a326","system_id":"levelo_inurba_marseille","lat":43.25827,"lon":5.39429,"is_reserved":false,"is_disabled":false,"rental_uris":{"android":"levelo://app?vid=ee2b411d-ec98-4fdc-850e-f566ac76a326","ios":"levelo://app?vid=ee2b411d-ec98-4fdc-850e-f566ac76a326"},"vehicle_type_id":"4","last_reported":1726207997,"current_range_meters":39200,"station_id":"ce4bhip2rcd13ifvqft0","pricing_plan_id":"cebpf4jnsgd1na2vs0mg"},{"bike_id":"40460302-338d-49f3-bed1-a91ee5c68a33","system_id":"levelo_inurba_marseille","lat":43.29041,"lon":5.35922,"is_reserved":false,"is_disabled":false,"rental_uris":{"android":"levelo://app?vid=40460302-338d-49f3-bed1-a91ee5c68a33","ios":"levelo://app?vid=40460302-338d-49f3-bed1-a91ee5c68a33"},"vehicle_type_id":"4","last_reported":1726207997,"current_range_meters":28400,"station_id":"ce4bha92rcd13ifvqeg0","pricing_plan_id":"cebpf4jnsgd1na2vs0mg"},{"bike_id":"859ad625-7ac7-4cef-9489-6893561303d5","system_id":"levelo_inurba_marseille","lat":43.30653,"lon":5.40097,"is_reserved":false,"is_disabled":false,"rental_uris":{"android":"levelo://app?vid=859ad625-7ac7-4cef-9489-6893561303d5","ios":"levelo://app?vid=859ad625-7ac7-4cef-9489-6893561303d5"},"vehicle_type_id":"4","last_reported":1726207997,"current_range_meters":30400,"station_id":"ce4bh112rcd13ifvqda0","pricing_plan_id":"cebpf4jnsgd1na2vs0mg"},{"bike_id":"a65e0aa5-9364-4130-8621-ef833eb6d9dc","system_id":"levelo_inurba_marseille","lat":43.29038,"lon":5.39975,"is_reserved":false,"is_disabled":false,"rental_uris":{"android":"levelo://app?vid=a65e0aa5-9364-4130-8621-ef833eb6d9dc","ios":"levelo://app?vid=a65e0aa5-9364-4130-8621-ef833eb6d9dc"},"vehicle_type_id":"4","last_reported":1726207997,"current_range_meters":21600,"station_id":"ce4bh392rcd13ifvqdm0","pricing_plan_id":"cebpf4jnsgd1na2vs0mg"},{"bike_id":"f20f613d-77b3-4abc-847d-4abd98073b48","system_id":"levelo_inurba_marseille","lat":43.28622,"lon":5.35103,"is_reserved":false,"is_disabled":false,"rental_uris":{"android":"levelo://app?vid=f20f613d-77b3-4abc-847d-4abd98073b48","ios":"levelo://app?vid=f20f613d-77b3-4abc-847d-4abd98073b48"},"vehicle_type_id":"4","last_reported":1726207997,"current_range_meters":33200,"station_id":"ce4bhch2rcd13ifvqeug","pricing_plan_id":"cebpf4jnsgd1na2vs0mg"},