{"last_updated":1698422871,"ttl":30,"version":"2.2","data":{"bikes":[{"bike_id":"ee59440e-f59d-4471-b692-fbab82a12d4b","system_id":"levelo_inurba_marseille","lat":43.312239,"lon":5.368562,"is_reserved":false,"is_disabled":false,"rental_uris":{"android":"levelo://app?vid=ee59440e-f59d-4471-b692-fbab82a12d4b","ios":"levelo://app?vid=ee59440e-f59d-4471-b692-fbab82a12d4b"},"vehicle_type_id":"4","last_reported":1698422871,"current_range_meters":17600,"station_id":"ce4bgl92rcd13ifvqbq0","pricing_plan_id":"free"},{"bike_id":"b1c5776d-1cfa-48ea-aaff-c7c6d2abc2ed","system_id":"levelo_inurba_marseille","lat":43.314811,"lon":5.373103,"is_reserved":false,"is_disabled":false,"rental_uris":{"android":"levelo://app?vid=b1c5776d-1cfa-48ea-aaff-c7c6d2abc2ed","ios":"levelo://app?vid=b1c5776d-1cfa-48ea-aaff-c7c6d2abc2ed"},"vehicle_type_id":"4","last_reported":1698422871,"current_range_meters":26000,"station_id":"ce4bgt12rcd13ifvqcd0","pricing_plan_id":"free"},{"bike_id":"dbbdea51-7e3d-4271-bd96-c3aabecbd7e2","system_id":"levelo_inurba_marseille","lat":43.315783,"lon":5.372523,"is_reserved":false,"is_disabled":false,"rental_uris":{"android":"levelo://app?vid=dbbdea51-7e3d-4271-bd96-c3aabecbd7e2","ios":"levelo://app?vid=dbbdea51-7e3d-4271-bd96-c3aabecbd7e2"},"vehicle_type_id":"4","last_reported":1698422871,"current_range_meters":11600,"station_id":"","pricing_plan_id":"free"},{"bike_id":"32679260-2831-4b03-b28a-7bced04750f1","system_id":"levelo_inurba_marseille","lat":43.309039,"lon":5.371797,"is_reserved":false,"is_disabled":false,"rental_uris":{"android":"levelo://app?vid=32679260-2831-4b03-b28a-7bced04750f1","ios":"levelo://app?vid=32679260-2831-4b03-b28a-7bced04750f1"},"vehicle_type_id":"4","last_reported":1698422871,"current_range_meters":10800,"station_id":"ce4bguh2rcd13ifvqckg","pricing_plan_id":"free"},{"bike_id":"8829e7e0-1c46-4412-b00d-f24185acd4a7","system_id":"levelo_inurba_marseille","lat":43.308897,"lon":5.371977,"is_reserved":false,"is_disabled":false,"rental_uris":{"android":"levelo://app?vid=8829e7e0-1c46-4412-b00d-f24185acd4a7","ios":"levelo://app?vid=8829e7e0-1c46-4412-b00d-f24185acd4a7"},"vehicle_type_id":"4","last_reported":1698422871,"current_range_meters":0,"station_id":"ce4bguh2rcd13ifvqckg","pricing_plan_id":"free"},{"bike_id":"f252b071-dddd-4e5f-ad07-506846af6d1a","system_id":"levelo_inurba_marseille","lat":43.305714,"lon":5.365633,"is_reserved":false,"is_disabled":false,"rental_uris":{"android":"levelo://app?vid=f252b071-dddd-4e5f-ad07-506846af6d1a","ios":"levelo://app?vid=f252b071-dddd-4e5f-ad07-506846af6d1a"},"vehicle_type_id":"4","last_reported":1698422871,"current_range_meters":24000,"station_id":"ce4bgs12rcd13ifvqcag","pricing_plan_id":"free"},{"bike_id":"2fe6addf-3f28-4e18-9be7-8e324eee151f","system_id":"levelo_inurba_marseille","lat":43.305689,"lon":5.370361,"is_reserved":false,"is_disabled":false,"rental_uris":{"android":"levelo://app?vid=2fe6addf-3f28-4e18-9be7-8e324eee151f","ios":"levelo://app?vid=2fe6addf-3f28-4e18-9be7-8e324eee151f"},"vehicle_type_id":"4","last_reported":1698422871,"current_range_meters":2400,"station_id":"","pricing_plan_id":"free"},{"bike_id":"858b0454-f600-4bf0-a050-77ffb90eed69","system_id":"levelo_inurba_marseille","lat":43.306101,"lon":5.371706,"is_reserved":false,"is_disabled":false,"rental_uris":{"android":"levelo://app?vid=858b0454-f600-4bf0-a050-77ffb90eed69","ios":"levelo://app?vid=858b0454-f600-4bf0-a050-77ffb90eed69"},"vehicle_type_id":"4","last_reported":1698422871,"current_range_meters":12000,"station_id":"","pricing_plan_id":"free"},{"bike_id":"8e390030-8b6b-46d4-a737-b9c44eeca209","system_id":"levelo_inurba_marseille","lat":43.311125,"lon":5.377624,"is_reserved":false,"is_disabled":false,"rental_uris":{"android":"levelo://app?vid=8e390030-8b6b-46d4-a737-b9c44eeca209","ios":"levelo://app?vid=8e390030-8b6b-46d4-a737-b9c44eeca209"},"vehicle_type_id":"4","last_reported":1698422871,"current_range_meters":0,"station_id":"ce4bgt92rcd13ifvqcg0","pricing_plan_id":"free"},{"bike_id":"4c550a16-3f75-4a13-ad96-4dd7b0eea088","system_id":"levelo_inurba_marseille","lat":43.311131,"lon":5.377651,"is_reserved":false,"is_disabled":false,"rental_uris":{"android":"levelo://app?vid=4c550a16-3f75-4a13-ad96-4dd7b0eea088","ios":"levelo://app?vid=4c550a16-3f75-4a13-ad96-4dd7b0eea088"},"vehicle_type_id":"4","last_reported":1698422871,"current_range_meters":20400,"station_id":"ce4bgt92rcd13ifvqcg0","pricing_plan_id":"free"},{"bike_id":"5f38f86a-456b-453f-88d4-4d5318355910","system_id":"levelo_inurba_marseille","lat":43.311125,"lon":5.377624,"is_reserved":false,"is_disabled":false,"rental_uris":{"android":"levelo://app?vid=5f38f86a-456b-453f-88d4-4d5318355910","ios":"levelo://app?vid=5f38f86a-456b-453f-88d4-4d5318355910"},"vehicle_type_id":"4","last_reported":1698422871,"current_range_meters":12000,"station_id":"ce4bgt92rcd13ifvqcg0","pricing_plan_id":"free"},{"bike_id":"56a3dee9-23a7-4fd1-bfa5-ab06f723286f","system_id":"levelo_inurba_marseille","lat":43.317075,"lon":5.377367,"is_reserved":false,"is_disabled":false,"rental_uris":{"android":"levelo://app?vid=56a3dee9-23a7-4fd1-bfa5-ab06f723286f","ios":"levelo://app?vid=56a3dee9-23a7-4fd1-bfa5-ab06f723286f"},"vehicle_type_id":"4","last_reported":1698422871,"current_range_meters":28000,"station_id":"ce4bgth2rcd13ifvqch0","pricing_plan_id":"free"},{"bike_id":"e0f2c637-ead8-469f-bac8-634778de7f40","system_id":"levelo_inurba_marseille","lat":43.30789,"lon":5.37653,"is_reserved":false,"is_disabled":false,"rental_uris":{"android":"levelo://app?vid=e0f2c637-ead8-469f-bac8-634778de7f40","ios":"levelo://app?vid=e0f2c637-ead8-469f-bac8-634778de7f40"},"vehicle_type_id":"4","last_reported":1698422871,"current_range_meters":0,"station_id":"ce4bgv92rcd13ifvqcq0","pricing_plan_id":"free"},{"bike_id":"51c15eb4-6097-4f48-b9f2-a46f48840449","system_id":"levelo_inurba_marseille","lat":43.317075,"lon":5.377367,"is_reserved":false,"is_disabled":false,"rental_uris":{"android":"levelo://app?vid=51c15eb4-6097-4f48-b9f2-a46f48840449","ios":"levelo://app?vid=51c15eb4-6097-4f48-b9f2-a46f48840449"},"vehicle_type_id":"4","last_reported":1698422871,"current_range_meters":7200,"station_id":"ce4bgth2rcd13ifvqch0","pricing_plan_id":"free"},{"bike_id":"89ba8eb4-b205-4b28-9ce1-f8fd7b815e3d","system_id":"levelo_inurba_marseille","lat":43.3057,"lon":5.37548,"is_reserved":false,"is_disabled":false,"rental_uris":{"android":"levelo://app?vid=89ba8eb4-b205-4b28-9ce1-f8fd7b815e3d","ios":"levelo://app?vid=89ba8eb4-b205-4b28-9ce1-f8fd7b815e3d"},"vehicle_type_id":"4","last_reported":1698422871,"current_range_meters":0,"station_id":"","pricing_plan_id":"free"},{"bike_id":"c484ed22-47aa-49aa-bd49-8a36e126f4b5","system_id":"levelo_inurba_marseille","lat":43.31539,"lon":5.38028,"is_reserved":false,"is_disabled":false,"rental_uris":{"android":"levelo://app?vid=c484ed22-47aa-49aa-bd49-8a36e126f4b5","ios":"levelo://app?vid=c484ed22-47aa-49aa-bd49-8a36e126f4b5"},"vehicle_type_id":"4","last_reported":1698422871,"current_range_meters":16000,"station_id":"ce4bhsp2rcd13ifvqi50","pricing_plan_id":"free"},{"bike_id":"0a5d293a-00a5-4720-b138-df0a21b21641","system_id":"levelo_inurba_marseille","lat":43.301939,"lon":5.366286,"is_reserved":false,"is_disabled":false,"rental_uris":{"android":"levelo://app?vid=0a5d293a-00a5-4720-b138-df0a21b21641","ios":"levelo://app?vid=0a5d293a-00a5-4720-b138-df0a21b21641"},"vehicle_type_id":"4","last_reported":1698422871,"current_range_meters":14000,"station_id":"ce4bgrh2rcd13ifvqc8g","pricing_plan_id":"free"},{"bike_id":"b79c517d-d7c4-441b-8835-f08ca4baad39","system_id":"levelo_inurba_marseille","lat":43.301939,"lon":5.366286,"is_reserved":false,"is_disabled":false,"rental_uris":{"android":"levelo://app?vid=b79c517d-d7c4-441b-8835-f08ca4baad39","ios":"levelo://app?vid=b79c517d-d7c4-441b-8835-f08ca4baad39"},"vehicle_type_id":"4","last_reported":1698422871,"current_range_meters":24000,"station_id":"ce4bgrh2rcd13ifvqc8g","pricing_plan_id":"free"},{"bike_id":"3f5e15ed-3463-442a-8489-529b0a6144b0","system_id":"levelo_inurba_marseille","lat":43.304606,"lon":5.379026,"is_reserved":false,"is_disabled":false,"rental_uris":{"android":"levelo://app?vid=3f5e15ed-3463-442a-8489-529b0a6144b0","ios":"levelo://app?vid=3f5e15ed-3463-442a-8489-529b0a6144b0"},"vehicle_type_id":"4","last_reported":1698422871,"current_range_meters":6400,"station_id":"ce4bgup2rcd13ifvqcn0","pricing_plan_id":"free"},{"bike_id":"33ee12c1-bfff-4ae7-ad6d-77b569898cd1","system_id":"levelo_inurba_marseille","lat":43.324758,"lon":5.365712,"is_reserved":false,"is_disabled":false,"rental_uris":{"android":"levelo://app?vid=33ee12c1-bfff-4ae7-ad6d-77b569898cd1","ios":"levelo://app?vid=33ee12c1-bfff-4ae7-ad6d-77b569898cd1"},"vehicle_type_id":"4","last_reported":1698422871,"current_range_meters":19600,"station_id":"","pricing_plan_id":"free"},{"bike_id":"1047bcc5-10ff-460b-bd6f-eac1d4a67db4","system_id":"levelo_inurba_marseille","lat":43.31745,"lon":5.382537,"is_reserved":false,"is_disabled":false,"rental_uris":{"android":"levelo://app?vid=1047bcc5-10ff-460b-bd6f-eac1d4a67db4","ios":"levelo://app?vid=1047bcc5-10ff-460b-bd6f-eac1d4a67db4"},"vehicle_type_id":"4","last_reported":1698422871,"current_range_meters":0,"station_id":"","pricing_plan_id":"free"},{"bike_id":"7342c2e5-a74a-46e0-a937-a8bfee0ac1ae","system_id":"levelo_inurba_marseille","lat":43.30149,"lon":5.37418,"is_reserved":false,"is_disabled":false,"rental_uris":{"android":"levelo://app?vid=7342c2e5-a74a-46e0-a937-a8bfee0ac1ae","ios":"levelo://app?vid=7342c2e5-a74a-46e0-a937-a8bfee0ac1ae"},"vehicle_type_id":"4","last_reported":1698422871,"current_range_meters":16800,"station_id":"ce4bgs92rcd13ifvqcc0","pricing_plan_id":"free"},{"bike_id":"ab9758b5-8396-470b-9003-6074a7724564","system_id":"levelo_inurba_marseille","lat":43.301429,"lon":5.37413,"is_reserved":false,"is_disabled":false,"rental_uris":{"android":"levelo://app?vid=ab9758b5-8396-470b-9003-6074a7724564","ios":"levelo://app?vid=ab9758b5-8396-470b-9003-6074a7724564"},"vehicle_type_id":"4","last_reported":1698422871,"current_range_meters":11600,"station_id":"ce4bgs92rcd13ifvqcc0","pricing_plan_id":"free"},{"bike_id":"71b99325-2f44-4b4f-936e-37a7274887b9","system_id":"levelo_inurba_marseille","lat":43.301429,"lon":5.37413,"is_reserved":false,"is_disabled":false,"rental_uris":{"android":"levelo://app?vid=71b99325-2f44-4b4f-936e-37a7274887b9","ios":"levelo://app?vid=71b99325-2f44-4b4f-936e-37a7274887b9"},"vehicle_type_id":"4","last_reported":1698422871,"current_range_meters":20000,"station_id":"ce4bgs92rcd13ifvqcc0","pricing_plan_id":"free"},{"bike_id":"e9d37753-4312-4dc8-be74-1a413464582c","system_id":"levelo_inurba_marseille","lat":43.301429,"lon":5.37413,"is_reserved":false,"is_disabled":false,"rental_uris":{"android":"levelo://app?vid=e9d37753-4312-4dc8-be74-1a413464582c","ios":"levelo://app?vid=e9d37753-4312-4dc8-be74-1a413464582c"},"vehicle_type_id":"4","last_reported":1698422871,"current_range_meters":14400,"station_id":"ce4bgs92rcd13ifvqcc0","pricing_plan_id":"free"},{"bike_id":"85122221-d683-45c9-b3fd-c613bbe61a79","system_id":"levelo_inurba_marseille","lat":43.299724,"lon":5.371829,"is_reserved":false,"is_disabled":false,"rental_uris":{"android":"levelo://app?vid=85122221-d683-45c9-b3fd-c613bbe61a79","ios":"levelo://app?vid=85122221-d683-45c9-b3fd-c613bbe61a79"},"vehicle_type_id":"4","last_reported":1698422871,"current_range_meters":25200,"station_id":"ce4bgr92rcd13ifvqc7g","pricing_plan_id":"free"},{"bike_id":"ca049d14-62ec-463e-8d64-9e0ea1b0c011","system_id":"levelo_inurba_marseille","lat":43.299724,"lon":5.371829,"is_reserved":false,"is_disabled":false,"rental_uris":{"android":"levelo://app?vid=ca049d14-62ec-463e-8d64-9e0ea1b0c011","ios":"levelo://app?vid=ca049d14-62ec-463e-8d64-9e0ea1b0c011"},"vehicle_type_id":"4","last_reported":1698422871,"current_range_meters":4400,"station_id":"ce4bgr92rcd13ifvqc7g","pricing_plan_id":"free"},{"bike_id":"e9800217-a8a7-4cea-aaf2-f0845dda80bc","system_id":"levelo_inurba_marseille","lat":43.299724,"lon":5.371829,"is_reserved":false,"is_disabled":false,"rental_uris":{"android":"levelo://app?vid=e9800217-a8a7-4cea-aaf2-f0845dda80bc","ios":"levelo://app?vid=e9800217-a8a7-4cea-aaf2-f0845dda80bc"},"vehicle_type_id":"4","last_reported":1698422871,"current_range_meters":3200,"station_id":"ce4bgr92rcd13ifvqc7g","pricing_plan_id":"free"},{"bike_id":"97997ef7-b347-4148-ba57-9a15ecc4912d","system_id":"levelo_inurba_marseille","lat":43.320945,"lon":5.38306,"is_reserved":false,"is_disabled":false,"rental_uris":{"android":"levelo://app?vid=97997ef7-b347-4148-ba57-9a15ecc4912d","ios":"levelo://app?vid=97997ef7-b347-4148-ba57-9a15ecc4912d"},"vehicle_type_id":"4","last_reported":1698422871,"current_range_meters":0,"station_id":"","pricing_plan_id":"free"},{"bike_id":"cbe83954-e150-479c-ac48-05cb4c882685","system_id":"levelo_inurba_marseille","lat":43.29856,"lon":5.36282,"is_reserved":false,"is_disabled":false,"rental_uris":{"android":"levelo://app?vid=cbe83954-e150-479c-ac48-05cb4c882685","ios":"levelo://app?vid=cbe83954-e150-479c-ac48-05cb4c882685"},"vehicle_type_id":"4","last_reported":1698422871,"current_range_meters":31200,"station_id":"ce4bgpp2rcd13ifvqc3g","pricing_plan_id":"free"},{"bike_id":"f778a122-c683-426e-98e7-8d791aeda501","system_id":"levelo_inurba_marseille","lat":43.298535,"lon":5.362828,"is_reserved":false,"is_disabled":false,"rental_uris":{"android":"levelo://app?vid=f778a122-c683-426e-98e7-8d791aeda501","ios":"levelo://app?vid=f778a122-c683-426e-98e7-8d791aeda501"},"vehicle_type_id":"4","last_reported":1698422871,"current_range_meters":31200,"station_id":"ce4bgpp2rcd13ifvqc3g","pricing_plan_id":"free"},{"bike_id":"dd380060-c6d8-413b-87fe-52a60671596f","system_id":"levelo_inurba_marseille","lat":43.305364,"lon":5.384119,"is_reserved":false,"is_disabled":false,"rental_uris":{"android":"levelo://app?vid=dd380060-c6d8-413b-87fe-52a60671596f","ios":"levelo://app?vid=dd380060-c6d8-413b-87fe-52a60671596f"},"vehicle_type_id":"4","last_reported":1698422871,"current_range_meters":0,"station_id":"ce4bgg92rcd13ifvqb30","pricing_plan_id":"free"},{"bike_id":"eb0c9504-a0a1-4106-a622-423de2298f7a","system_id":"levelo_inurba_marseille","lat":43.298466,"lon":5.362656,"is_reserved":false,"is_disabled":false,"rental_uris":{"android":"levelo://app?vid=eb0c9504-a0a1-4106-a622-423de2298f7a","ios":"levelo://app?vid=eb0c9504-a0a1-4106-a622-423de2298f7a"},"vehicle_type_id":"4","last_reported":1698422871,"current_range_meters":24000,"station_id":"ce4bgpp2rcd13ifvqc3g","pricing_plan_id":"free"},{"bike_id":"7e41cfff-b4d9-486d-85e6-50f89acb1aca","system_id":"levelo_inurba_marseille","lat":43.29845,"lon":5.36269,"is_reserved":false,"is_disabled":false,"rental_uris":{"android":"levelo://app?vid=7e41cfff-b4d9-486d-85e6-50f89acb1aca","ios":"levelo://app?vid=7e41cfff-b4d9-486d-85e6-50f89acb1aca"},"vehicle_type_id":"4","last_reported":1698422871,"current_range_meters":25600,"station_id":"ce4bgpp2rcd13ifvqc3g","pricing_plan_id":"free"},{"bike_id":"515ef092-1ba3-44ea-9233-1c8c03249bfd","system_id":"levelo_inurba_marseille","lat":43.3054,"lon":5.38431,"is_reserved":false,"is_disabled":false,"rental_uris":{"android":"levelo://app?vid=515ef092-1ba3-44ea-9233-1c8c03249bfd","ios":"levelo://app?vid=515ef092-1ba3-44ea-9233-1c8c03249bfd"},"vehicle_type_id":"4","last_reported":1698422871,"current_range_meters":4800,"station_id":"ce4bgg92rcd13ifvqb30","pricing_plan_id":"free"},{"bike_id":"246bc270-c207-4123-ba8e-ae75237fbdb8","system_id":"levelo_inurba_marseille","lat":43.29843,"lon":5.36264,"is_reserved":false,"is_disabled":false,"rental_uris":{"android":"levelo://app?vid=246bc270-c207-4123-ba8e-ae75237fbdb8","ios":"levelo://app?vid=246bc270-c207-4123-ba8e-ae75237fbdb8"},"vehicle_type_id":"4","last_reported":1698422871,"current_range_meters":31200,"station_id":"ce4bgpp2rcd13ifvqc3g","pricing_plan_id":"free"},{"bike_id":"8127c54b-e756-40b5-b097-e205fe57aeb1","system_id":"levelo_inurba_marseille","lat":43.2984,"lon":5.36268,"is_reserved":false,"is_disabled":false,"rental_uris":{"android":"levelo://app?vid=8127c54b-e756-40b5-b097-e205fe57aeb1","ios":"levelo://app?vid=8127c54b-e756-40b5-b097-e205fe57aeb1"},"vehicle_type_id":"4","last_reported":1698422871,"current_range_meters":24800,"station_id":"ce4bgpp2rcd13ifvqc3g","pricing_plan_id":"free"},{"bike_id":"833a0712-69e0-45b5-8917-189d768118d7","system_id":"levelo_inurba_marseille","lat":43.298433,"lon":5.362774,"is_reserved":false,"is_disabled":false,"rental_uris":{"android":"levelo://app?vid=833a0712-69e0-45b5-8917-189d768118d7","ios":"levelo://app?vid=833a0712-69e0-45b5-8917-189d768118d7"},"vehicle_type_id":"4","last_reported":1698422871,"current_range_meters":31200,"station_id":"ce4bgpp2rcd13ifvqc3g","pricing_plan_id":"free"},{"bike_id":"c3b08581-7cea-4283-ab14-b52a44c5c11a","system_id":"levelo_inurba_marseille","lat":43.30258,"lon":5.381566,"is_reserved":false,"is_disabled":false,"rental_uris":{"android":"levelo://app?vid=c3b08581-7cea-4283-ab14-b52a44c5c11a","ios":"levelo://app?vid=c3b08581-7cea-4283-ab14-b52a44c5c11a"},"vehicle_type_id":"4","last_reported":1698422871,"current_range_meters":11600,"station_id":"","pricing_plan_id":"free"},{"bike_id":"912329dd-8e9f-4596-b869-109fa9036def","system_id":"levelo_inurba_marseille","lat":43.298433,"lon":5.362774,"is_reserved":false,"is_disabled":false,"rental_uris":{"android":"levelo://app?vid=912329dd-8e9f-4596-b869-109fa9036def","ios":"levelo://app?vid=912329dd-8e9f-4596-b869-109fa9036def"},"vehicle_type_id":"4","last_reported":1698422871,"current_range_meters":16400,"station_id":"ce4bgpp2rcd13ifvqc3g","pricing_plan_id":"free"},{"bike_id":"8bce3ad0-b0e7-48b8-a706-4ff42615804f","system_id":"levelo_inurba_marseille","lat":43.29773,"lon":5.36551,"is_reserved":false,"is_disabled":false,"rental_uris":{"android":"levelo://app?vid=8bce3ad0-b0e7-48b8-a706-4ff42615804f","ios":"levelo://app?vid=8bce3ad0-b0e7-48b8-a706-4ff42615804f"},"vehicle_type_id":"4","last_reported":1698422871,"current_range_meters":6400,"station_id":"ce4bgm92rcd13ifvqbr0","pricing_plan_id":"free"},{"bike_id":"60ee481a-ef69-46db-a449-e61aedf77ae3","system_id":"levelo_inurba_marseille","lat":43.297794,"lon":5.370888,"is_reserved":false,"is_disabled":false,"rental_uris":{"android":"levelo://app?vid=60ee481a-ef69-46db-a449-e61aedf77ae3","ios":"levelo://app?vid=60ee481a-ef69-46db-a449-e61aedf77ae3"},"vehicle_type_id":"4","last_reported":1698422871,"current_range_meters":20000,"station_id":"ce4bgop2rcd13ifvqc1g","pricing_plan_id":"free"},{"bike_id":"7c721af1-a5b0-41f9-a74b-effa6685822a","system_id":"levelo_inurba_marseille","lat":43.323121,"lon":5.382853,"is_reserved":false,"is_disabled":false,"rental_uris":{"android":"levelo://app?vid=7c721af1-a5b0-41f9-a74b-effa6685822a","ios":"levelo://app?vid=7c721af1-a5b0-41f9-a74b-effa6685822a"},"vehicle_type_id":"4","last_reported":1698422871,"current_range_meters":11200,"station_id":"ce4bhr12rcd13ifvqhqg","pricing_plan_id":"free"},{"bike_id":"2bf09692-7151-4aba-9fa7-8ce1d6106004","system_id":"levelo_inurba_marseille","lat":43.328303,"lon":5.366873,"is_reserved":false,"is_disabled":false,"rental_uris":{"android":"levelo://app?vid=2bf09692-7151-4aba-9fa7-8ce1d6106004","ios":"levelo://app?vid=2bf09692-7151-4aba-9fa7-8ce1d6106004"},"vehicle_type_id":"4","last_reported":1698422871,"current_range_meters":16400,"station_id":"","pricing_plan_id":"free"},{"bike_id":"b3e63496-ef57-4fe7-9649-3ee98b2a4e91","system_id":"levelo_inurba_marseille","lat":43.32831,"lon":5.36697,"is_reserved":false,"is_disabled":false,"rental_uris":{"android":"levelo://app?vid=b3e63496-ef57-4fe7-9649-3ee98b2a4e91","ios":"levelo://app?vid=b3e63496-ef57-4fe7-9649-3ee98b2a4e91"},"vehicle_type_id":"4","last_reported":1698422871,"current_range_meters":12800,"station_id":"","pricing_plan_id":"free"},{"bike_id":"4e7c11df-5013-4d01-9ed6-bdc691d5b5cc","system_id":"levelo_inurba_marseille","lat":43.32834,"lon":5.36692,"is_reserved":false,"is_disabled":false,"rental_uris":{"android":"levelo://app?vid=4e7c11df-5013-4d01-9ed6-bdc691d5b5cc","ios":"levelo://app?vid=4e7c11df-5013-4d01-9ed6-bdc691d5b5cc"},"vehicle_type_id":"4","last_reported":1698422871,"current_range_meters":0,"station_id":"ce4bhs92rcd13ifvqi0g","pricing_plan_id":"free"},{"bike_id":"015deeab-55de-4663-930b-74a14d4a9598","system_id":"levelo_inurba_marseille","lat":43.297163,"lon":5.365866,"is_reserved":false,"is_disabled":false,"rental_uris":{"android":"levelo://app?vid=015deeab-55de-4663-930b-74a14d4a9598","ios":"levelo://app?vid=015deeab-55de-4663-930b-74a14d4a9598"},"vehicle_type_id":"4","last_reported":1698422871,"current_range_meters":15600,"station_id":"ce4bgn12rcd13ifvqbt0","pricing_plan_id":"free"},{"bike_id":"39c9142a-1d9b-45a0-89af-edab7cee0ed8","system_id":"levelo_inurba_marseille","lat":43.2968,"lon":5.37291,"is_reserved":false,"is_disabled":false,"rental_uris":{"android":"levelo://app?vid=39c9142a-1d9b-45a0-89af-edab7cee0ed8","ios":"levelo://app?vid=39c9142a-1d9b-45a0-89af-edab7cee0ed8"},"vehicle_type_id":"4","last_reported":1698422871,"current_range_meters":21600,"station_id":"ce4bgk12rcd13ifvqbj0","pricing_plan_id":"free"},{"bike_id":"f3d0381f-7a2d-409e-a12f-bd3d9095653d","system_id":"levelo_inurba_marseille","lat":43.329673,"lon":5.365468,"is_reserved":false,"is_disabled":false,"rental_uris":{"android":"levelo://app?vid=f3d0381f-7a2d-409e-a12f-bd3d9095653d","ios":"levelo://app?vid=f3d0381f-7a2d-409e-a12f-bd3d9095653d"},"vehicle_type_id":"4","last_reported":1698422871,"current_range_meters":8400,"station_id":"","pricing_plan_id":"free"},{"bike_id":"d2163a9f-348d-4346-a84d-40f5980a13e8","system_id":"levelo_inurba_marseille","lat":43.317557,"lon":5.390173,"is_reserved":false,"is_disabled":false,"rental_uris":{"android":"levelo://app?vid=d2163a9f-348d-4346-a84d-40f5980a13e8","ios":"levelo://app?vid=d2163a9f-348d-4346-a84d-40f5980a13e8"},"vehicle_type_id":"4","last_reported":1698422871,"current_range_meters":16800,"station_id":"ce4bhqp2rcd13ifvqhng","pricing_plan_id":"free"},{"bike_id":"e9e4607e-0d73-4e2b-8ecd-b3a9e51dba98","system_id":"levelo_inurba_marseille","lat":43.29791,"lon":5.38098,"is_reserved":false,"is_disabled":false,"rental_uris":{"android":"levelo://app?vid=e9e4607e-0d73-4e2b-8ecd-b3a9e51dba98","ios":"levelo://app?vid=e9e4607e-0d73-4e2b-8ecd-b3a9e51dba98"},"vehicle_type_id":"4","last_reported":1698422871,"current_range_meters":0,"station_id":"ce4bgip2rcd13ifvqbb0","pricing_plan_id":"free"},{"bike_id":"216e8356-71cc-4fe5-b1ba-23856559a886","system_id":"levelo_inurba_marseille","lat":43.30435,"lon":5.38902,"is_reserved":false,"is_disabled":false,"rental_uris":{"android":"levelo://app?vid=216e8356-71cc-4fe5-b1ba-23856559a886","ios":"levelo://app?vid=216e8356-71cc-4fe5-b1ba-23856559a886"},"vehicle_type_id":"4","last_reported":1698422871,"current_range_meters":0,"station_id":"ce4bgk12rcd13ifvqbi0","pricing_plan_id":"free"},{"bike_id":"5338b780-200b-457e-9e13-33f3eece1199","system_id":"levelo_inurba_marseille","lat":43.299724,"lon":5.384848,"is_reserved":false,"is_disabled":false,"rental_uris":{"android":"levelo://app?vid=5338b780-200b-457e-9e13-33f3eece1199","ios":"levelo://app?vid=5338b780-200b-457e-9e13-33f3eece1199"},"vehicle_type_id":"4","last_reported":1698422871,"current_range_meters":0,"station_id":"ce4bgj92rcd13ifvqbd0","pricing_plan_id":"free"},{"bike_id":"50ba0a4e-dc52-4b36-bbea-ef74378b458b","system_id":"levelo_inurba_marseille","lat":43.29698,"lon":5.3812,"is_reserved":false,"is_disabled":false,"rental_uris":{"android":"levelo://app?vid=50ba0a4e-dc52-4b36-bbea-ef74378b458b","ios":"levelo://app?vid=50ba0a4e-dc52-4b36-bbea-ef74378b458b"},"vehicle_type_id":"4","last_reported":1698422871,"current_range_meters":0,"station_id":"","pricing_plan_id":"free"},{"bike_id":"dd53f42d-32f3-4d00-b5fd-d6ea44bf49ee","system_id":"levelo_inurba_marseille","lat":43.323715,"lon":5.389234,"is_reserved":false,"is_disabled":false,"rental_uris":{"android":"levelo://app?vid=dd53f42d-32f3-4d00-b5fd-d6ea44bf49ee","ios":"levelo://app?vid=dd53f42d-32f3-4d00-b5fd-d6ea44bf49ee"},"vehicle_type_id":"4","last_reported":1698422871,"current_range_meters":26800,"station_id":"ce4bhqp2rcd13ifvqhog","pricing_plan_id":"free"},{"bike_id":"bbab7e28-ee01-4080-b12e-dd8baccd43d0","system_id":"levelo_inurba_marseille","lat":43.32394,"lon":5.389747,"is_reserved":false,"is_disabled":false,"rental_uris":{"android":"levelo://app?vid=bbab7e28-ee01-4080-b12e-dd8baccd43d0","ios":"levelo://app?vid=bbab7e28-ee01-4080-b12e-dd8baccd43d0"},"vehicle_type_id":"4","last_reported":1698422871,"current_range_meters":12400,"station_id":"","pricing_plan_id":"free"},{"bike_id":"ab611b34-701c-4964-8789-a2007a738967","system_id":"levelo_inurba_marseille","lat":43.292749,"lon":5.368402,"is_reserved":false,"is_disabled":false,"rental_uris":{"android":"levelo://app?vid=ab611b34-701c-4964-8789-a2007a738967","ios":"levelo://app?vid=ab611b34-701c-4964-8789-a2007a738967"},"vehicle_type_id":"4","last_reported":1698422871,"current_range_meters":0,"station_id":"ce4bhbp2rcd13ifvqesg","pricing_plan_id":"free"},{"bike_id":"3b1c73c8-3c39-40bf-99a0-f9e500fe5de5","system_id":"levelo_inurba_marseille","lat":43.29306,"lon":5.3745,"is_reserved":false,"is_disabled":false,"rental_uris":{"android":"levelo://app?vid=3b1c73c8-3c39-40bf-99a0-f9e500fe5de5","ios":"levelo://app?vid=3b1c73c8-3c39-40bf-99a0-f9e500fe5de5"},"vehicle_type_id":"4","last_reported":1698422871,"current_range_meters":0,"station_id":"ce4bgi12rcd13ifvqb70","pricing_plan_id":"free"},{"bike_id":"bcb69065-2771-425a-b46f-cc07e4f07f71","system_id":"levelo_inurba_marseille","lat":43.32483,"lon":5.389788,"is_reserved":false,"is_disabled":false,"rental_uris":{"android":"levelo://app?vid=bcb69065-2771-425a-b46f-cc07e4f07f71","ios":"levelo://app?vid=bcb69065-2771-425a-b46f-cc07e4f07f71"},"vehicle_type_id":"4","last_reported":1698422871,"current_range_meters":16400,"station_id":"","pricing_plan_id":"free"},{"bike_id":"f4652816-6363-4f82-8c4a-c31013b52320","system_id":"levelo_inurba_marseille","lat":43.293009,"lon":5.374584,"is_reserved":false,"is_disabled":false,"rental_uris":{"android":"levelo://app?vid=f4652816-6363-4f82-8c4a-c31013b52320","ios":"levelo://app?vid=f4652816-6363-4f82-8c4a-c31013b52320"},"vehicle_type_id":"4","last_reported":1698422871,"current_range_meters":24000,"station_id":"ce4bgi12rcd13ifvqb70","pricing_plan_id":"free"},{"bike_id":"c58c1402-71b7-4f9c-beed-8c42470d427d","system_id":"levelo_inurba_marseille","lat":43.293009,"lon":5.374584,"is_reserved":false,"is_disabled":false,"rental_uris":{"android":"levelo://app?vid=c58c1402-71b7-4f9c-beed-8c42470d427d","ios":"levelo://app?vid=c58c1402-71b7-4f9c-beed-8c42470d427d"},"vehicle_type_id":"4","last_reported":1698422871,"current_range_meters":26400,"station_id":"ce4bgi12rcd13ifvqb70","pricing_plan_id":"free"},{"bike_id":"49e2fb52-7712-4209-83d6-74a05c6e32d8","system_id":"levelo_inurba_marseille","lat":43.29226,"lon":5.36317,"is_reserved":false,"is_disabled":false,"rental_uris":{"android":"levelo://app?vid=49e2fb52-7712-4209-83d6-74a05c6e32d8","ios":"levelo://app?vid=49e2fb52-7712-4209-83d6-74a05c6e32d8"},"vehicle_type_id":"4","last_reported":1698422871,"current_range_meters":30800,"station_id":"","pricing_plan_id":"free"},{"bike_id":"e85e9eb5-1a6a-4c49-a9ca-d3bd21acd6e6","system_id":"levelo_inurba_marseille","lat":43.293726,"lon":5.378489,"is_reserved":false,"is_disabled":false,"rental_uris":{"android":"levelo://app?vid=e85e9eb5-1a6a-4c49-a9ca-d3bd21acd6e6","ios":"levelo://app?vid=e85e9eb5-1a6a-4c49-a9ca-d3bd21acd6e6"},"vehicle_type_id":"4","last_reported":1698422871,"current_range_meters":0,"station_id":"ce4bgjh2rcd13ifvqbf0","pricing_plan_id":"free"},{"bike_id":"ff940495-4e95-4c96-b290-6ce63f9dc3cf","system_id":"levelo_inurba_marseille","lat":43.292311,"lon":5.360731,"is_reserved":false,"is_disabled":false,"rental_uris":{"android":"levelo://app?vid=ff940495-4e95-4c96-b290-6ce63f9dc3cf","ios":"levelo://app?vid=ff940495-4e95-4c96-b290-6ce63f9dc3cf"},"vehicle_type_id":"4","last_reported":1698422871,"current_range_meters":0,"station_id":"ce4bhbh2rcd13ifvqeqg","pricing_plan_id":"free"},{"bike_id":"dacd4bc4-c4de-4c1e-8d92-bbfe5cf90b16","system_id":"levelo_inurba_marseille","lat":43.300852,"lon":5.390859,"is_reserved":false,"is_disabled":false,"rental_uris":{"android":"levelo://app?vid=dacd4bc4-c4de-4c1e-8d92-bbfe5cf90b16","ios":"levelo://app?vid=dacd4bc4-c4de-4c1e-8d92-bbfe5cf90b16"},"vehicle_type_id":"4","last_reported":1698422871,"current_range_meters":10400,"station_id":"ce4bh192rcd13ifvqdb0","pricing_plan_id":"free"},{"bike_id":"b68079af-470e-4a5f-9210-03eb58693702","system_id":"levelo_inurba_marseille","lat":43.300852,"lon":5.390859,"is_reserved":false,"is_disabled":false,"rental_uris":{"android":"levelo://app?vid=b68079af-470e-4a5f-9210-03eb58693702","ios":"levelo://app?vid=b68079af-470e-4a5f-9210-03eb58693702"},"vehicle_type_id":"4","last_reported":1698422871,"current_range_meters":22400,"station_id":"ce4bh192rcd13ifvqdb0","pricing_plan_id":"free"},{"bike_id":"c03e225a-a2ef-4241-b4de-8cb2af06bc71","system_id":"levelo_inurba_marseille","lat":43.291671,"lon":5.371575,"is_reserved":false,"is_disabled":false,"rental_uris":{"android":"levelo://app?vid=c03e225a-a2ef-4241-b4de-8cb2af06bc71","ios":"levelo://app?vid=c03e225a-a2ef-4241-b4de-8cb2af06bc71"},"vehicle_type_id":"4","last_reported":1698422871,"current_range_meters":25200,"station_id":"ce4bha92rcd13ifvqeh0","pricing_plan_id":"free"},{"bike_id":"23ece899-8b15-47d6-8435-1bfbbd91fc6f","system_id":"levelo_inurba_marseille","lat":43.313385,"lon":5.396721,"is_reserved":false,"is_disabled":false,"rental_uris":{"android":"levelo://app?vid=23ece899-8b15-47d6-8435-1bfbbd91fc6f","ios":"levelo://app?vid=23ece899-8b15-47d6-8435-1bfbbd91fc6f"},"vehicle_type_id":"4","last_reported":1698422871,"current_range_meters":20400,"station_id":"","pricing_plan_id":"free"},{"bike_id":"fb447238-9a5b-4a4f-81d7-b096abe1a265","system_id":"levelo_inurba_marseille","lat":43.29201,"lon":5.35802,"is_reserved":false,"is_disabled":false,"rental_uris":{"android":"levelo://app?vid=fb447238-9a5b-4a4f-81d7-b096abe1a265","ios":"levelo://app?vid=fb447238-9a5b-4a4f-81d7-b096abe1a265"},"vehicle_type_id":"4","last_reported":1698422871,"current_range_meters":18400,"station_id":"ce4bhb12rcd13ifvqel0","pricing_plan_id":"free"},{"bike_id":"9395d638-bc74-4456-acd2-e7abce3e2203","system_id":"levelo_inurba_marseille","lat":43.292006,"lon":5.357997,"is_reserved":false,"is_disabled":false,"rental_uris":{"android":"levelo://app?vid=9395d638-bc74-4456-acd2-e7abce3e2203","ios":"levelo://app?vid=9395d638-bc74-4456-acd2-e7abce3e2203"},"vehicle_type_id":"4","last_reported":1698422871,"current_range_meters":31200,"station_id":"ce4bhb12rcd13ifvqel0","pricing_plan_id":"free"},{"bike_id":"4f843f0c-50e5-400c-ab5e-83fcbbd25ea2","system_id":"levelo_inurba_marseille","lat":43.29194,"lon":5.358,"is_reserved":false,"is_disabled":false,"rental_uris":{"android":"levelo://app?vid=4f843f0c-50e5-400c-ab5e-83fcbbd25ea2","ios":"levelo://app?vid=4f843f0c-50e5-400c-ab5e-83fcbbd25ea2"},"vehicle_type_id":"4","last_reported":1698422871,"current_range_meters":0,"station_id":"ce4bhb12rcd13ifvqel0","pricing_plan_id":"free"},{"bike_id":"d3760a2d-5b4a-4de5-bb99-3082519d4c93","system_id":"levelo_inurba_marseille","lat":43.29187,"lon":5.35804,"is_reserved":false,"is_disabled":false,"rental_uris":{"android":"levelo://app?vid=d3760a2d-5b4a-4de5-bb99-3082519d4c93","ios":"levelo://app?vid=d3760a2d-5b4a-4de5-bb99-3082519d4c93"},"vehicle_type_id":"4","last_reported":1698422871,"current_range_meters":30000,"station_id":"ce4bhb12rcd13ifvqel0","pricing_plan_id":"free"},{"bike_id":"7980400f-b695-446c-b3b0-37a0e2d947a2","system_id":"levelo_inurba_marseille","lat":43.31324,"lon":5.39695,"is_reserved":false,"is_disabled":false,"rental_uris":{"android":"levelo://app?vid=7980400f-b695-446c-b3b0-37a0e2d947a2","ios":"levelo://app?vid=7980400f-b695-446c-b3b0-37a0e2d947a2"},"vehicle_type_id":"4","last_reported":1698422871,"current_range_meters":18800,"station_id":"ce4bgvp2rcd13ifvqcu0","pricing_plan_id":"free"},{"bike_id":"71e5bae4-82b9-4ccc-9e37-21fbddd4d8c9","system_id":"levelo_inurba_marseille","lat":43.309038,"lon":5.396546,"is_reserved":false,"is_disabled":false,"rental_uris":{"android":"levelo://app?vid=71e5bae4-82b9-4ccc-9e37-21fbddd4d8c9","ios":"levelo://app?vid=71e5bae4-82b9-4ccc-9e37-21fbddd4d8c9"},"vehicle_type_id":"4","last_reported":1698422871,"current_range_meters":0,"station_id":"ce4bh012rcd13ifvqcv0","pricing_plan_id":"free"},{"bike_id":"a37148ae-2ac1-427e-bc01-5edbdc585724","system_id":"levelo_inurba_marseille","lat":43.309047,"lon":5.396551,"is_reserved":false,"is_disabled":false,"rental_uris":{"android":"levelo://app?vid=a37148ae-2ac1-427e-bc01-5edbdc585724","ios":"levelo://app?vid=a37148ae-2ac1-427e-bc01-5edbdc585724"},"vehicle_type_id":"4","last_reported":1698422871,"current_range_meters":8000,"station_id":"ce4bh012rcd13ifvqcv0","pricing_plan_id":"free"},{"bike_id":"2eaba98a-fc1d-44f9-9c10-448758867018","system_id":"levelo_inurba_marseille","lat":43.29529,"lon":5.385581,"is_reserved":false,"is_disabled":false,"rental_uris":{"android":"levelo://app?vid=2eaba98a-fc1d-44f9-9c10-448758867018","ios":"levelo://app?vid=2eaba98a-fc1d-44f9-9c10-448758867018"},"vehicle_type_id":"4","last_reported":1698422871,"current_range_meters":2800,"station_id":"ce4bgih2rcd13ifvqba0","pricing_plan_id":"free"},{"bike_id":"2f592a84-4b93-4f61-9722-9c4f615e7342","system_id":"levelo_inurba_marseille","lat":43.29529,"lon":5.385581,"is_reserved":false,"is_disabled":false,"rental_uris":{"android":"levelo://app?vid=2f592a84-4b93-4f61-9722-9c4f615e7342","ios":"levelo://app?vid=2f592a84-4b93-4f61-9722-9c4f615e7342"},"vehicle_type_id":"4","last_reported":1698422871,"current_range_meters":6000,"station_id":"ce4bgih2rcd13ifvqba0","pricing_plan_id":"free"},{"bike_id":"71f6678e-9122-4ba1-a765-1cd3877475f7","system_id":"levelo_inurba_marseille","lat":43.29529,"lon":5.385581,"is_reserved":false,"is_disabled":false,"rental_uris":{"android":"levelo://app?vid=71f6678e-9122-4ba1-a765-1cd3877475f7","ios":"levelo://app?vid=71f6678e-9122-4ba1-a765-1cd3877475f7"},"vehicle_type_id":"4","last_reported":1698422871,"current_range_meters":21600,"station_id":"ce4bgih2rcd13ifvqba0","pricing_plan_id":"free"},{"bike_id":"a81218aa-1c81-4260-8b51-9a434489db30","system_id":"levelo_inurba_marseille","lat":43.29535,"lon":5.38555,"is_reserved":false,"is_disabled":false,"rental_uris":{"android":"levelo://app?vid=a81218aa-1c81-4260-8b51-9a434489db30","ios":"levelo://app?vid=a81218aa-1c81-4260-8b51-9a434489db30"},"vehicle_type_id":"4","last_reported":1698422871,"current_range_meters":0,"station_id":"ce4bgih2rcd13ifvqba0","pricing_plan_id":"free"},{"bike_id":"126d4670-e812-40c6-9f2a-535ee2ec9a6b","system_id":"levelo_inurba_marseille","lat":43.33219,"lon":5.38149,"is_reserved":false,"is_disabled":false,"rental_uris":{"android":"levelo://app?vid=126d4670-e812-40c6-9f2a-535ee2ec9a6b","ios":"levelo://app?vid=126d4670-e812-40c6-9f2a-535ee2ec9a6b"},"vehicle_type_id":"4","last_reported":1698422871,"current_range_meters":0,"station_id":"","pricing_plan_id":"free"},{"bike_id":"d445e7dc-8f39-4198-8d15-1838ad42556e","system_id":"levelo_inurba_marseille","lat":43.302008,"lon":5.394694,"is_reserved":false,"is_disabled":false,"rental_uris":{"android":"levelo://app?vid=d445e7dc-8f39-4198-8d15-1838ad42556e","ios":"levelo://app?vid=d445e7dc-8f39-4198-8d15-1838ad42556e"},"vehicle_type_id":"4","last_reported":1698422871,"current_range_meters":20400,"station_id":"ce4bh0p2rcd13ifvqd70","pricing_plan_id":"free"},{"bike_id":"409a25a0-7338-4c10-a90c-10b05dd39bf3","system_id":"levelo_inurba_marseille","lat":43.302008,"lon":5.394694,"is_reserved":false,"is_disabled":false,"rental_uris":{"android":"levelo://app?vid=409a25a0-7338-4c10-a90c-10b05dd39bf3","ios":"levelo://app?vid=409a25a0-7338-4c10-a90c-10b05dd39bf3"},"vehicle_type_id":"4","last_reported":1698422871,"current_range_meters":27200,"station_id":"ce4bh0p2rcd13ifvqd70","pricing_plan_id":"free"},{"bike_id":"3ba9337c-3a4c-4b79-bb22-9c08f678ee27","system_id":"levelo_inurba_marseille","lat":43.3339,"lon":5.37907,"is_reserved":false,"is_disabled":false,"rental_uris":{"android":"levelo://app?vid=3ba9337c-3a4c-4b79-bb22-9c08f678ee27","ios":"levelo://app?vid=3ba9337c-3a4c-4b79-bb22-9c08f678ee27"},"vehicle_type_id":"4","last_reported":1698422871,"current_range_meters":18400,"station_id":"","pricing_plan_id":"free"},{"bike_id":"991516f4-75e0-409b-ba84-15f4810a8b29","system_id":"levelo_inurba_marseille","lat":43.290631,"lon":5.359244,"is_reserved":false,"is_disabled":false,"rental_uris":{"android":"levelo://app?vid=991516f4-75e0-409b-ba84-15f4810a8b29","ios":"levelo://app?vid=991516f4-75e0-409b-ba84-15f4810a8b29"},"vehicle_type_id":"4","last_reported":1698422871,"current_range_meters":22000,"station_id":"ce4bha92rcd13ifvqeg0","pricing_plan_id":"free"},{"bike_id":"b351a2a0-02f5-4749-be5a-c0ecb28f923e","system_id":"levelo_inurba_marseille","lat":43.294153,"lon":5.386305,"is_reserved":false,"is_disabled":false,"rental_uris":{"android":"levelo://app?vid=b351a2a0-02f5-4749-be5a-c0ecb28f923e","ios":"levelo://app?vid=b351a2a0-02f5-4749-be5a-c0ecb28f923e"},"vehicle_type_id":"4","last_reported":1698422871,"current_range_meters":0,"station_id":"ce4bh2h2rcd13ifvqdh0","pricing_plan_id":"free"},{"bike_id":"f6fd7d1c-30db-48c5-9ffb-221966fd5175","system_id":"levelo_inurba_marseille","lat":43.29419,"lon":5.38624,"is_reserved":false,"is_disabled":false,"rental_uris":{"android":"levelo://app?vid=f6fd7d1c-30db-48c5-9ffb-221966fd5175","ios":"levelo://app?vid=f6fd7d1c-30db-48c5-9ffb-221966fd5175"},"vehicle_type_id":"4","last_reported":1698422871,"current_range_meters":0,"station_id":"ce4bh2h2rcd13ifvqdh0","pricing_plan_id":"free"},{"bike_id":"53f5ec2f-96da-4b35-b134-9ab566ed3a69","system_id":"levelo_inurba_marseille","lat":43.29418,"lon":5.38628,"is_reserved":false,"is_disabled":false,"rental_uris":{"android":"levelo://app?vid=53f5ec2f-96da-4b35-b134-9ab566ed3a69","ios":"levelo://app?vid=53f5ec2f-96da-4b35-b134-9ab566ed3a69"},"vehicle_type_id":"4","last_reported":1698422871,"current_range_meters":30800,"station_id":"ce4bh2h2rcd13ifvqdh0","pricing_plan_id":"free"},{"bike_id":"d43d4b73-b710-47c3-bc6b-548ba4b4b3a2","system_id":"levelo_inurba_marseille","lat":43.29418,"lon":5.3863,"is_reserved":false,"is_disabled":false,"rental_uris":{"android":"levelo://app?vid=d43d4b73-b710-47c3-bc6b-548ba4b4b3a2","ios":"levelo://app?vid=d43d4b73-b710-47c3-bc6b-548ba4b4b3a2"},"vehicle_type_id":"4","last_reported":1698422871,"current_range_meters":0,"station_id":"ce4bh2h2rcd13ifvqdh0","pricing_plan_id":"free"},{"bike_id":"15eb0126-b829-4632-942f-aef742d13b78","system_id":"levelo_inurba_marseille","lat":43.289184,"lon":5.366408,"is_reserved":false,"is_disabled":false,"rental_uris":{"android":"levelo://app?vid=15eb0126-b829-4632-942f-aef742d13b78","ios":"levelo://app?vid=15eb0126-b829-4632-942f-aef742d13b78"},"vehicle_type_id":"4","last_reported":1698422871,"current_range_meters":22000,"station_id":"ce4bhap2rcd13ifvqek0","pricing_plan_id":"free"},{"bike_id":"791fe211-9e2f-492d-836a-afd633915020","system_id":"levelo_inurba_marseille","lat":43.289184,"lon":5.366408,"is_reserved":false,"is_disabled":false,"rental_uris":{"android":"levelo://app?vid=791fe211-9e2f-492d-836a-afd633915020","ios":"levelo://app?vid=791fe211-9e2f-492d-836a-afd633915020"},"vehicle_type_id":"4","last_reported":1698422871,"current_range_meters":12800,"station_id":"ce4bhap2rcd13ifvqek0","pricing_plan_id":"free"},{"bike_id":"94028d70-cdbf-4536-a597-992efe1ad21a","system_id":"levelo_inurba_marseille","lat":43.289184,"lon":5.366408,"is_reserved":false,"is_disabled":false,"rental_uris":{"android":"levelo://app?vid=94028d70-cdbf-4536-a597-992efe1ad21a","ios":"levelo://app?vid=94028d70-cdbf-4536-a597-992efe1ad21a"},"vehicle_type_id":"4","last_reported":1698422871,"current_range_meters":24400,"station_id":"ce4bhap2rcd13ifvqek0","pricing_plan_id":"free"},{"bike_id":"b19767bc-163c-4279-be97-d81190c9664f","system_id":"levelo_inurba_marseille","lat":43.289184,"lon":5.366408,"is_reserved":false,"is_disabled":false,"rental_uris":{"android":"levelo://app?vid=b19767bc-163c-4279-be97-d81190c9664f","ios":"levelo://app?vid=b19767bc-163c-4279-be97-d81190c9664f"},"vehicle_type_id":"4","last_reported":1698422871,"current_range_meters":14800,"station_id":"ce4bhap2rcd13ifvqek0","pricing_plan_id":"free"},{"bike_id":"29ac4aac-fbc4-4ca3-bacc-8323986ca6a6","system_id":"levelo_inurba_marseille","lat":43.289468,"lon":5.363719,"is_reserved":false,"is_disabled":false,"rental_uris":{"android":"levelo://app?vid=29ac4aac-fbc4-4ca3-bacc-8323986ca6a6","ios":"levelo://app?vid=29ac4aac-fbc4-4ca3-bacc-8323986ca6a6"},"vehicle_type_id":"4","last_reported":1698422871,"current_range_meters":21600,"station_id":"ce4bhc92rcd13ifvqetg","pricing_plan_id":"free"},{"bike_id":"18a2e8fd-7acb-4ce2-b82d-5ae3a4ba6b7f","system_id":"levelo_inurba_marseille","lat":43.289184,"lon":5.366408,"is_reserved":false,"is_disabled":false,"rental_uris":{"android":"levelo://app?vid=18a2e8fd-7acb-4ce2-b82d-5ae3a4ba6b7f","ios":"levelo://app?vid=18a2e8fd-7acb-4ce2-b82d-5ae3a4ba6b7f"},"vehicle_type_id":"4","last_reported":1698422871,"current_range_meters":30400,"station_id":"ce4bhap2rcd13ifvqek0","pricing_plan_id":"free"},{"bike_id":"ac3207e1-3f3a-4d0d-8893-7c9c4cbdecde","system_id":"levelo_inurba_marseille","lat":43.292644,"lon":5.384257,"is_reserved":false,"is_disabled":false,"rental_uris":{"android":"levelo://app?vid=ac3207e1-3f3a-4d0d-8893-7c9c4cbdecde","ios":"levelo://app?vid=ac3207e1-3f3a-4d0d-8893-7c9c4cbdecde"},"vehicle_type_id":"4","last_reported":1698422871,"current_range_meters":25200,"station_id":"ce4bh692rcd13ifvqea0","pricing_plan_id":"free"},{"bike_id":"8f4af895-cc26-4cff-966b-e4e7c068edce","system_id":"levelo_inurba_marseille","lat":43.292644,"lon":5.384257,"is_reserved":false,"is_disabled":false,"rental_uris":{"android":"levelo://app?vid=8f4af895-cc26-4cff-966b-e4e7c068edce","ios":"levelo://app?vid=8f4af895-cc26-4cff-966b-e4e7c068edce"},"vehicle_type_id":"4","last_reported":1698422871,"current_range_meters":18400,"station_id":"ce4bh692rcd13ifvqea0","pricing_plan_id":"free"},{"bike_id":"cb44d566-6408-4b6b-8cc1-a8a6d65d99af","system_id":"levelo_inurba_marseille","lat":43.292644,"lon":5.384257,"is_reserved":false,"is_disabled":false,"rental_uris":{"android":"levelo://app?vid=cb44d566-6408-4b6b-8cc1-a8a6d65d99af","ios":"levelo://app?vid=cb44d566-6408-4b6b-8cc1-a8a6d65d99af"},"vehicle_type_id":"4","last_reported":1698422871,"current_range_meters":16000,"station_id":"ce4bh692rcd13ifvqea0","pricing_plan_id":"free"},{"bike_id":"f5861939-72c1-45e4-9553-eeb8b22cc7f7","system_id":"levelo_inurba_marseille","lat":43.292644,"lon":5.384257,"is_reserved":false,"is_disabled":false,"rental_uris":{"android":"levelo://app?vid=f5861939-72c1-45e4-9553-eeb8b22cc7f7","ios":"levelo://app?vid=f5861939-72c1-45e4-9553-eeb8b22cc7f7"},"vehicle_type_id":"4","last_reported":1698422871,"current_range_meters":7200,"station_id":"ce4bh692rcd13ifvqea0","pricing_plan_id":"free"},{"bike_id":"a23aff33-a67f-470d-bf00-955da82d3b2f","system_id":"levelo_inurba_marseille","lat":43.292644,"lon":5.384257,"is_reserved":false,"is_disabled":false,"rental_uris":{"android":"levelo://app?vid=a23aff33-a67f-470d-bf00-955da82d3b2f","ios":"levelo://app?vid=a23aff33-a67f-470d-bf00-955da82d3b2f"},"vehicle_type_id":"4","last_reported":1698422871,"current_range_meters":28400,"station_id":"ce4bh692rcd13ifvqea0","pricing_plan_id":"free"},{"bike_id":"33121813-0a37-4ab2-b545-7f75b6bba490","system_id":"levelo_inurba_marseille","lat":43.292644,"lon":5.384257,"is_reserved":false,"is_disabled":false,"rental_uris":{"android":"levelo://app?vid=33121813-0a37-4ab2-b545-7f75b6bba490","ios":"levelo://app?vid=33121813-0a37-4ab2-b545-7f75b6bba490"},"vehicle_type_id":"4","last_reported":1698422871,"current_range_meters":30000,"station_id":"ce4bh692rcd13ifvqea0","pricing_plan_id":"free"},{"bike_id":"7e8caeb4-e71e-4270-8c62-12930053f243","system_id":"levelo_inurba_marseille","lat":43.29257,"lon":5.38433,"is_reserved":false,"is_disabled":false,"rental_uris":{"android":"levelo://app?vid=7e8caeb4-e71e-4270-8c62-12930053f243","ios":"levelo://app?vid=7e8caeb4-e71e-4270-8c62-12930053f243"},"vehicle_type_id":"4","last_reported":1698422871,"current_range_meters":19200,"station_id":"ce4bh692rcd13ifvqea0","pricing_plan_id":"free"},{"bike_id":"71975b49-41c6-44a9-bf51-889cd7a1872f","system_id":"levelo_inurba_marseille","lat":43.292644,"lon":5.384257,"is_reserved":false,"is_disabled":false,"rental_uris":{"android":"levelo://app?vid=71975b49-41c6-44a9-bf51-889cd7a1872f","ios":"levelo://app?vid=71975b49-41c6-44a9-bf51-889cd7a1872f"},"vehicle_type_id":"4","last_reported":1698422871,"current_range_meters":3200,"station_id":"ce4bh692rcd13ifvqea0","pricing_plan_id":"free"},{"bike_id":"2eec47dc-cd36-45b6-b262-6c4ff696520c","system_id":"levelo_inurba_marseille","lat":43.292584,"lon":5.384408,"is_reserved":false,"is_disabled":false,"rental_uris":{"android":"levelo://app?vid=2eec47dc-cd36-45b6-b262-6c4ff696520c","ios":"levelo://app?vid=2eec47dc-cd36-45b6-b262-6c4ff696520c"},"vehicle_type_id":"4","last_reported":1698422871,"current_range_meters":4400,"station_id":"ce4bh692rcd13ifvqea0","pricing_plan_id":"free"},{"bike_id":"acbc17dd-5098-45aa-ae20-517ee7b2de78","system_id":"levelo_inurba_marseille","lat":43.290104,"lon":5.356111,"is_reserved":false,"is_disabled":false,"rental_uris":{"android":"levelo://app?vid=acbc17dd-5098-45aa-ae20-517ee7b2de78","ios":"levelo://app?vid=acbc17dd-5098-45aa-ae20-517ee7b2de78"},"vehicle_type_id":"4","last_reported":1698422871,"current_range_meters":29200,"station_id":"ce4bhb92rcd13ifvqen0","pricing_plan_id":"free"},{"bike_id":"7bc7d6ba-b7db-4bea-a471-ce79f13516c9","system_id":"levelo_inurba_marseille","lat":43.290104,"lon":5.356111,"is_reserved":false,"is_disabled":false,"rental_uris":{"android":"levelo://app?vid=7bc7d6ba-b7db-4bea-a471-ce79f13516c9","ios":"levelo://app?vid=7bc7d6ba-b7db-4bea-a471-ce79f13516c9"},"vehicle_type_id":"4","last_reported":1698422871,"current_range_meters":26400,"station_id":"ce4bhb92rcd13ifvqen0","pricing_plan_id":"free"},{"bike_id":"8df40672-5735-40a8-9341-659e7b08e577","system_id":"levelo_inurba_marseille","lat":43.290104,"lon":5.356111,"is_reserved":false,"is_disabled":false,"rental_uris":{"android":"levelo://app?vid=8df40672-5735-40a8-9341-659e7b08e577","ios":"levelo://app?vid=8df40672-5735-40a8-9341-659e7b08e577"},"vehicle_type_id":"4","last_reported":1698422871,"current_range_meters":30000,"station_id":"ce4bhb92rcd13ifvqen0","pricing_plan_id":"free"},{"bike_id":"3eff72ea-118a-4528-b242-a6021cb62fec","system_id":"levelo_inurba_marseille","lat":43.290118,"lon":5.356159,"is_reserved":false,"is_disabled":false,"rental_uris":{"android":"levelo://app?vid=3eff72ea-118a-4528-b242-a6021cb62fec","ios":"levelo://app?vid=3eff72ea-118a-4528-b242-a6021cb62fec"},"vehicle_type_id":"4","last_reported":1698422871,"current_range_meters":25600,"station_id":"","pricing_plan_id":"free"},{"bike_id":"d0b86b77-79f4-45d3-95e8-bd1fb7e58229","system_id":"levelo_inurba_marseille","lat":43.290104,"lon":5.356111,"is_reserved":false,"is_disabled":false,"rental_uris":{"android":"levelo://app?vid=d0b86b77-79f4-45d3-95e8-bd1fb7e58229","ios":"levelo://app?vid=d0b86b77-79f4-45d3-95e8-bd1fb7e58229"},"vehicle_type_id":"4","last_reported":1698422871,"current_range_meters":28800,"station_id":"ce4bhb92rcd13ifvqen0","pricing_plan_id":"free"},{"bike_id":"56ffd4fa-3e86-4f7f-9c59-75b4af6d7555","system_id":"levelo_inurba_marseille","lat":43.29008,"lon":5.35614,"is_reserved":false,"is_disabled":false,"rental_uris":{"android":"levelo://app?vid=56ffd4fa-3e86-4f7f-9c59-75b4af6d7555","ios":"levelo://app?vid=56ffd4fa-3e86-4f7f-9c59-75b4af6d7555"},"vehicle_type_id":"4","last_reported":1698422871,"current_range_meters":28800,"station_id":"ce4bhb92rcd13ifvqen0","pricing_plan_id":"free"},{"bike_id":"5c78499f-d18e-49b1-a433-2be0eb2d503f","system_id":"levelo_inurba_marseille","lat":43.290104,"lon":5.356111,"is_reserved":false,"is_disabled":false,"rental_uris":{"android":"levelo://app?vid=5c78499f-d18e-49b1-a433-2be0eb2d503f","ios":"levelo://app?vid=5c78499f-d18e-49b1-a433-2be0eb2d503f"},"vehicle_type_id":"4","last_reported":1698422871,"current_range_meters":28400,"station_id":"ce4bhb92rcd13ifvqen0","pricing_plan_id":"free"},{"bike_id":"bb462592-2c82-45e7-b52b-6b9d9a2d1cd4","system_id":"levelo_inurba_marseille","lat":43.290103,"lon":5.356114,"is_reserved":false,"is_disabled":false,"rental_uris":{"android":"levelo://app?vid=bb462592-2c82-45e7-b52b-6b9d9a2d1cd4","ios":"levelo://app?vid=bb462592-2c82-45e7-b52b-6b9d9a2d1cd4"},"vehicle_type_id":"4","last_reported":1698422871,"current_range_meters":28000,"station_id":"ce4bhb92rcd13ifvqen0","pricing_plan_id":"free"},{"bike_id":"f3fb947d-49b3-4ad9-a021-290e16c3b555","system_id":"levelo_inurba_marseille","lat":43.290104,"lon":5.356111,"is_reserved":false,"is_disabled":false,"rental_uris":{"android":"levelo://app?vid=f3fb947d-49b3-4ad9-a021-290e16c3b555","ios":"levelo://app?vid=f3fb947d-49b3-4ad9-a021-290e16c3b555"},"vehicle_type_id":"4","last_reported":1698422871,"current_range_meters":12800,"station_id":"ce4bhb92rcd13ifvqen0","pricing_plan_id":"free"},{"bike_id":"2010b3ad-3bf7-464b-913d-24495c9232c9","system_id":"levelo_inurba_marseille","lat":43.290103,"lon":5.356114,"is_reserved":false,"is_disabled":false,"rental_uris":{"android":"levelo://app?vid=2010b3ad-3bf7-464b-913d-24495c9232c9","ios":"levelo://app?vid=2010b3ad-3bf7-464b-913d-24495c9232c9"},"vehicle_type_id":"4","last_reported":1698422871,"current_range_meters":29200,"station_id":"ce4bhb92rcd13ifvqen0","pricing_plan_id":"free"},{"bike_id":"559d1aba-e660-4ea8-a895-eb6b86f2c2b2","system_id":"levelo_inurba_marseille","lat":43.290103,"lon":5.356114,"is_reserved":false,"is_disabled":false,"rental_uris":{"android":"levelo://app?vid=559d1aba-e660-4ea8-a895-eb6b86f2c2b2","ios":"levelo://app?vid=559d1aba-e660-4ea8-a895-eb6b86f2c2b2"},"vehicle_type_id":"4","last_reported":1698422871,"current_range_meters":19600,"station_id":"ce4bhb92rcd13ifvqen0","pricing_plan_id":"free"},{"bike_id":"4a8997ff-b24a-40ec-ab6d-23ee22902dfb","system_id":"levelo_inurba_marseille","lat":43.290104,"lon":5.356111,"is_reserved":false,"is_disabled":false,"rental_uris":{"android":"levelo://app?vid=4a8997ff-b24a-40ec-ab6d-23ee22902dfb","ios":"levelo://app?vid=4a8997ff-b24a-40ec-ab6d-23ee22902dfb"},"vehicle_type_id":"4","last_reported":1698422871,"current_range_meters":28800,"station_id":"ce4bhb92rcd13ifvqen0","pricing_plan_id":"free"},{"bike_id":"2b1ce03f-05f5-408b-b832-8aea870b044b","system_id":"levelo_inurba_marseille","lat":43.290103,"lon":5.356114,"is_reserved":false,"is_disabled":false,"rental_uris":{"android":"levelo://app?vid=2b1ce03f-05f5-408b-b832-8aea870b044b","ios":"levelo://app?vid=2b1ce03f-05f5-408b-b832-8aea870b044b"},"vehicle_type_id":"4","last_reported":1698422871,"current_range_meters":8000,"station_id":"ce4bhb92rcd13ifvqen0","pricing_plan_id":"free"},{"bike_id":"d2ace7c7-8596-48cc-b895-b8bd958fd3ab","system_id":"levelo_inurba_marseille","lat":43.290995,"lon":5.381361,"is_reserved":false,"is_disabled":false,"rental_uris":{"android":"levelo://app?vid=d2ace7c7-8596-48cc-b895-b8bd958fd3ab","ios":"levelo://app?vid=d2ace7c7-8596-48cc-b895-b8bd958fd3ab"},"vehicle_type_id":"4","last_reported":1698422871,"current_range_meters":16000,"station_id":"ce4bh512rcd13ifvqe2g","pricing_plan_id":"free"},{"bike_id":"096d4baa-4c43-4691-9fae-52592c027fba","system_id":"levelo_inurba_marseille","lat":43.290995,"lon":5.381361,"is_reserved":false,"is_disabled":false,"rental_uris":{"android":"levelo://app?vid=096d4baa-4c43-4691-9fae-52592c027fba","ios":"levelo://app?vid=096d4baa-4c43-4691-9fae-52592c027fba"},"vehicle_type_id":"4","last_reported":1698422871,"current_range_meters":12800,"station_id":"ce4bh512rcd13ifvqe2g","pricing_plan_id":"free"},{"bike_id":"8f8d8a9a-5466-4eef-b206-4f812fe99937","system_id":"levelo_inurba_marseille","lat":43.29787,"lon":5.39337,"is_reserved":false,"is_disabled":false,"rental_uris":{"android":"levelo://app?vid=8f8d8a9a-5466-4eef-b206-4f812fe99937","ios":"levelo://app?vid=8f8d8a9a-5466-4eef-b206-4f812fe99937"},"vehicle_type_id":"4","last_reported":1698422871,"current_range_meters":10400,"station_id":"chh1huq6cuj3fo74tm60","pricing_plan_id":"free"},{"bike_id":"83b0432d-6a43-47ac-8a11-dd2c6a888f8b","system_id":"levelo_inurba_marseille","lat":43.29782,"lon":5.39336,"is_reserved":false,"is_disabled":false,"rental_uris":{"android":"levelo://app?vid=83b0432d-6a43-47ac-8a11-dd2c6a888f8b","ios":"levelo://app?vid=83b0432d-6a43-47ac-8a11-dd2c6a888f8b"},"vehicle_type_id":"4","last_reported":1698422871,"current_range_meters":27600,"station_id":"chh1huq6cuj3fo74tm60","pricing_plan_id":"free"},{"bike_id":"1a264365-0a06-40f9-9b19-91c2361e4a19","system_id":"levelo_inurba_marseille","lat":43.29782,"lon":5.3934,"is_reserved":false,"is_disabled":false,"rental_uris":{"android":"levelo://app?vid=1a264365-0a06-40f9-9b19-91c2361e4a19","ios":"levelo://app?vid=1a264365-0a06-40f9-9b19-91c2361e4a19"},"vehicle_type_id":"4","last_reported":1698422871,"current_range_meters":27200,"station_id":"chh1huq6cuj3fo74tm60","pricing_plan_id":"free"},{"bike_id":"f56c6ab4-3ee8-42c1-9722-22f5ce92ae04","system_id":"levelo_inurba_marseille","lat":43.2978,"lon":5.39343,"is_reserved":false,"is_disabled":false,"rental_uris":{"android":"levelo://app?vid=f56c6ab4-3ee8-42c1-9722-22f5ce92ae04","ios":"levelo://app?vid=f56c6ab4-3ee8-42c1-9722-22f5ce92ae04"},"vehicle_type_id":"4","last_reported":1698422871,"current_range_meters":21600,"station_id":"chh1huq6cuj3fo74tm60","pricing_plan_id":"free"},{"bike_id":"1678ae78-a0a0-4664-86d7-74e7aed75624","system_id":"levelo_inurba_marseille","lat":43.295196,"lon":5.390402,"is_reserved":false,"is_disabled":false,"rental_uris":{"android":"levelo://app?vid=1678ae78-a0a0-4664-86d7-74e7aed75624","ios":"levelo://app?vid=1678ae78-a0a0-4664-86d7-74e7aed75624"},"vehicle_type_id":"4","last_reported":1698422871,"current_range_meters":0,"station_id":"ce4bh3p2rcd13ifvqdp0","pricing_plan_id":"free"},{"bike_id":"0b8a3435-31a1-4df0-843b-5afd71456eb6","system_id":"levelo_inurba_marseille","lat":43.290094,"lon":5.381264,"is_reserved":false,"is_disabled":false,"rental_uris":{"android":"levelo://app?vid=0b8a3435-31a1-4df0-843b-5afd71456eb6","ios":"levelo://app?vid=0b8a3435-31a1-4df0-843b-5afd71456eb6"},"vehicle_type_id":"4","last_reported":1698422871,"current_range_meters":14800,"station_id":"ce4bh4p2rcd13ifvqe1g","pricing_plan_id":"free"},{"bike_id":"cd0fdd7c-8b90-4f7e-b678-28faf033c2f3","system_id":"levelo_inurba_marseille","lat":43.28856,"lon":5.358371,"is_reserved":false,"is_disabled":false,"rental_uris":{"android":"levelo://app?vid=cd0fdd7c-8b90-4f7e-b678-28faf033c2f3","ios":"levelo://app?vid=cd0fdd7c-8b90-4f7e-b678-28faf033c2f3"},"vehicle_type_id":"4","last_reported":1698422871,"current_range_meters":31600,"station_id":"ce4bhb12rcd13ifvqem0","pricing_plan_id":"free"},{"bike_id":"18a256f8-b955-4ead-8878-426e50bb687e","system_id":"levelo_inurba_marseille","lat":43.28856,"lon":5.358371,"is_reserved":false,"is_disabled":false,"rental_uris":{"android":"levelo://app?vid=18a256f8-b955-4ead-8878-426e50bb687e","ios":"levelo://app?vid=18a256f8-b955-4ead-8878-426e50bb687e"},"vehicle_type_id":"4","last_reported":1698422871,"current_range_meters":23200,"station_id":"ce4bhb12rcd13ifvqem0","pricing_plan_id":"free"},{"bike_id":"71689a07-8234-47ae-918f-5461628e8042","system_id":"levelo_inurba_marseille","lat":43.28856,"lon":5.358371,"is_reserved":false,"is_disabled":false,"rental_uris":{"android":"levelo://app?vid=71689a07-8234-47ae-918f-5461628e8042","ios":"levelo://app?vid=71689a07-8234-47ae-918f-5461628e8042"},"vehicle_type_id":"4","last_reported":1698422871,"current_range_meters":2800,"station_id":"ce4bhb12rcd13ifvqem0","pricing_plan_id":"free"},{"bike_id":"610a8790-a335-481b-b65c-791b9937d68b","system_id":"levelo_inurba_marseille","lat":43.288525,"lon":5.358451,"is_reserved":false,"is_disabled":false,"rental_uris":{"android":"levelo://app?vid=610a8790-a335-481b-b65c-791b9937d68b","ios":"levelo://app?vid=610a8790-a335-481b-b65c-791b9937d68b"},"vehicle_type_id":"4","last_reported":1698422871,"current_range_meters":31200,"station_id":"ce4bhb12rcd13ifvqem0","pricing_plan_id":"free"},{"bike_id":"6c5302f1-80f3-48d6-a649-f7c509d072b3","system_id":"levelo_inurba_marseille","lat":43.31287,"lon":5.40168,"is_reserved":false,"is_disabled":false,"rental_uris":{"android":"levelo://app?vid=6c5302f1-80f3-48d6-a649-f7c509d072b3","ios":"levelo://app?vid=6c5302f1-80f3-48d6-a649-f7c509d072b3"},"vehicle_type_id":"4","last_reported":1698422871,"current_range_meters":0,"station_id":"ce4bh092rcd13ifvqd30","pricing_plan_id":"free"},{"bike_id":"62c7f230-5256-41a2-9247-a170c5cecfff","system_id":"levelo_inurba_marseille","lat":43.30642,"lon":5.401031,"is_reserved":false,"is_disabled":false,"rental_uris":{"android":"levelo://app?vid=62c7f230-5256-41a2-9247-a170c5cecfff","ios":"levelo://app?vid=62c7f230-5256-41a2-9247-a170c5cecfff"},"vehicle_type_id":"4","last_reported":1698422871,"current_range_meters":30000,"station_id":"ce4bh112rcd13ifvqda0","pricing_plan_id":"free"},{"bike_id":"5e68b66d-1733-48db-89f2-ae44df5411a6","system_id":"levelo_inurba_marseille","lat":43.306412,"lon":5.401035,"is_reserved":false,"is_disabled":false,"rental_uris":{"android":"levelo://app?vid=5e68b66d-1733-48db-89f2-ae44df5411a6","ios":"levelo://app?vid=5e68b66d-1733-48db-89f2-ae44df5411a6"},"vehicle_type_id":"4","last_reported":1698422871,"current_range_meters":13600,"station_id":"ce4bh112rcd13ifvqda0","pricing_plan_id":"free"},{"bike_id":"b8f17436-859b-4ccf-8451-8e18ebe8f55c","system_id":"levelo_inurba_marseille","lat":43.337795,"lon":5.374211,"is_reserved":false,"is_disabled":false,"rental_uris":{"android":"levelo://app?vid=b8f17436-859b-4ccf-8451-8e18ebe8f55c","ios":"levelo://app?vid=b8f17436-859b-4ccf-8451-8e18ebe8f55c"},"vehicle_type_id":"4","last_reported":1698422871,"current_range_meters":10800,"station_id":"","pricing_plan_id":"free"},{"bike_id":"3e070d68-1c62-41a9-961b-8cd000875b0a","system_id":"levelo_inurba_marseille","lat":43.30131,"lon":5.39856,"is_reserved":false,"is_disabled":false,"rental_uris":{"android":"levelo://app?vid=3e070d68-1c62-41a9-961b-8cd000875b0a","ios":"levelo://app?vid=3e070d68-1c62-41a9-961b-8cd000875b0a"},"vehicle_type_id":"4","last_reported":1698422871,"current_range_meters":16800,"station_id":"ce4bh0h2rcd13ifvqd40","pricing_plan_id":"free"},{"bike_id":"51d67914-c5c6-4000-8a60-84b12e64786c","system_id":"levelo_inurba_marseille","lat":43.28727,"lon":5.36078,"is_reserved":false,"is_disabled":false,"rental_uris":{"android":"levelo://app?vid=51d67914-c5c6-4000-8a60-84b12e64786c","ios":"levelo://app?vid=51d67914-c5c6-4000-8a60-84b12e64786c"},"vehicle_type_id":"4","last_reported":1698422871,"current_range_meters":25600,"station_id":"cki0cbj6b192h4jlfktg","pricing_plan_id":"free"},{"bike_id":"041a64d4-5450-4650-8197-ae391bbddb77","system_id":"levelo_inurba_marseille","lat":43.286591,"lon":5.363346,"is_reserved":false,"is_disabled":false,"rental_uris":{"android":"levelo://app?vid=041a64d4-5450-4650-8197-ae391bbddb77","ios":"levelo://app?vid=041a64d4-5450-4650-8197-ae391bbddb77"},"vehicle_type_id":"4","last_reported":1698422871,"current_range_meters":26800,"station_id":"ce4bhah2rcd13ifvqej0","pricing_plan_id":"free"},{"bike_id":"2a173112-8935-46be-a135-c1b0442e4ff2","system_id":"levelo_inurba_marseille","lat":43.286591,"lon":5.363346,"is_reserved":false,"is_disabled":false,"rental_uris":{"android":"levelo://app?vid=2a173112-8935-46be-a135-c1b0442e4ff2","ios":"levelo://app?vid=2a173112-8935-46be-a135-c1b0442e4ff2"},"vehicle_type_id":"4","last_reported":1698422871,"current_range_meters":21200,"station_id":"ce4bhah2rcd13ifvqej0","pricing_plan_id":"free"},{"bike_id":"8134b6a7-7c18-4245-80e6-cb6b2388ccec","system_id":"levelo_inurba_marseille","lat":43.298681,"lon":5.397225,"is_reserved":false,"is_disabled":false,"rental_uris":{"android":"levelo://app?vid=8134b6a7-7c18-4245-80e6-cb6b2388ccec","ios":"levelo://app?vid=8134b6a7-7c18-4245-80e6-cb6b2388ccec"},"vehicle_type_id":"4","last_reported":1698422871,"current_range_meters":6800,"station_id":"ce4bh0h2rcd13ifvqd50","pricing_plan_id":"free"},{"bike_id":"f2539ab4-6d2b-4f2f-85de-18491b2585fe","system_id":"levelo_inurba_marseille","lat":43.286961,"lon":5.373785,"is_reserved":false,"is_disabled":false,"rental_uris":{"android":"levelo://app?vid=f2539ab4-6d2b-4f2f-85de-18491b2585fe","ios":"levelo://app?vid=f2539ab4-6d2b-4f2f-85de-18491b2585fe"},"vehicle_type_id":"4","last_reported":1698422871,"current_range_meters":24000,"station_id":"ce4bh3p2rcd13ifvqdq0","pricing_plan_id":"free"},{"bike_id":"52fb2c9d-45d4-4805-97e2-d3007df25f08","system_id":"levelo_inurba_marseille","lat":43.286591,"lon":5.363346,"is_reserved":false,"is_disabled":false,"rental_uris":{"android":"levelo://app?vid=52fb2c9d-45d4-4805-97e2-d3007df25f08","ios":"levelo://app?vid=52fb2c9d-45d4-4805-97e2-d3007df25f08"},"vehicle_type_id":"4","last_reported":1698422871,"current_range_meters":12400,"station_id":"ce4bhah2rcd13ifvqej0","pricing_plan_id":"free"},{"bike_id":"3771e7c5-62dc-4692-8386-0c0e7bfdd1ad","system_id":"levelo_inurba_marseille","lat":43.295194,"lon":5.39397,"is_reserved":false,"is_disabled":false,"rental_uris":{"android":"levelo://app?vid=3771e7c5-62dc-4692-8386-0c0e7bfdd1ad","ios":"levelo://app?vid=3771e7c5-62dc-4692-8386-0c0e7bfdd1ad"},"vehicle_type_id":"4","last_reported":1698422871,"current_range_meters":14800,"station_id":"ce4bh292rcd13ifvqdf0","pricing_plan_id":"free"},{"bike_id":"a20f8515-0d4f-4bb0-a0e7-a92d8519044a","system_id":"levelo_inurba_marseille","lat":43.295196,"lon":5.39397,"is_reserved":false,"is_disabled":false,"rental_uris":{"android":"levelo://app?vid=a20f8515-0d4f-4bb0-a0e7-a92d8519044a","ios":"levelo://app?vid=a20f8515-0d4f-4bb0-a0e7-a92d8519044a"},"vehicle_type_id":"4","last_reported":1698422871,"current_range_meters":12400,"station_id":"ce4bh292rcd13ifvqdf0","pricing_plan_id":"free"},{"bike_id":"6de22603-6288-447d-8949-e7ebe027d0d3","system_id":"levelo_inurba_marseille","lat":43.295194,"lon":5.39397,"is_reserved":false,"is_disabled":false,"rental_uris":{"android":"levelo://app?vid=6de22603-6288-447d-8949-e7ebe027d0d3","ios":"levelo://app?vid=6de22603-6288-447d-8949-e7ebe027d0d3"},"vehicle_type_id":"4","last_reported":1698422871,"current_range_meters":22400,"station_id":"ce4bh292rcd13ifvqdf0","pricing_plan_id":"free"},{"bike_id":"eb5a7dce-c196-45f1-960d-008df646e8c7","system_id":"levelo_inurba_marseille","lat":43.295194,"lon":5.39397,"is_reserved":false,"is_disabled":false,"rental_uris":{"android":"levelo://app?vid=eb5a7dce-c196-45f1-960d-008df646e8c7","ios":"levelo://app?vid=eb5a7dce-c196-45f1-960d-008df646e8c7"},"vehicle_type_id":"4","last_reported":1698422871,"current_range_meters":6000,"station_id":"ce4bh292rcd13ifvqdf0","pricing_plan_id":"free"},{"bike_id":"21df88b7-0008-426b-8105-03425d74a2f1","system_id":"levelo_inurba_marseille","lat":43.295194,"lon":5.39397,"is_reserved":false,"is_disabled":false,"rental_uris":{"android":"levelo://app?vid=21df88b7-0008-426b-8105-03425d74a2f1","ios":"levelo://app?vid=21df88b7-0008-426b-8105-03425d74a2f1"},"vehicle_type_id":"4","last_reported":1698422871,"current_range_meters":17200,"station_id":"ce4bh292rcd13ifvqdf0","pricing_plan_id":"free"},{"bike_id":"df246ecb-d16b-41f6-9abd-be0c0b557473","system_id":"levelo_inurba_marseille","lat":43.295194,"lon":5.39397,"is_reserved":false,"is_disabled":false,"rental_uris":{"android":"levelo://app?vid=df246ecb-d16b-41f6-9abd-be0c0b557473","ios":"levelo://app?vid=df246ecb-d16b-41f6-9abd-be0c0b557473"},"vehicle_type_id":"4","last_reported":1698422871,"current_range_meters":11600,"station_id":"ce4bh292rcd13ifvqdf0","pricing_plan_id":"free"},{"bike_id":"45f1b13a-39c3-429d-9daa-dc4b2f080f38","system_id":"levelo_inurba_marseille","lat":43.289307,"lon":5.38406,"is_reserved":false,"is_disabled":false,"rental_uris":{"android":"levelo://app?vid=45f1b13a-39c3-429d-9daa-dc4b2f080f38","ios":"levelo://app?vid=45f1b13a-39c3-429d-9daa-dc4b2f080f38"},"vehicle_type_id":"4","last_reported":1698422871,"current_range_meters":400,"station_id":"ce4bh612rcd13ifvqe6g","pricing_plan_id":"free"},{"bike_id":"f062af0c-b405-4eda-9338-44f896c23996","system_id":"levelo_inurba_marseille","lat":43.286039,"lon":5.370681,"is_reserved":false,"is_disabled":false,"rental_uris":{"android":"levelo://app?vid=f062af0c-b405-4eda-9338-44f896c23996","ios":"levelo://app?vid=f062af0c-b405-4eda-9338-44f896c23996"},"vehicle_type_id":"4","last_reported":1698422871,"current_range_meters":20000,"station_id":"ce4bht12rcd13ifvqi60","pricing_plan_id":"free"},{"bike_id":"4e381929-1858-4a8c-bdad-92fe26febd9b","system_id":"levelo_inurba_marseille","lat":43.269467,"lon":5.386439,"is_reserved":false,"is_disabled":false,"rental_uris":{"android":"levelo://app?vid=4e381929-1858-4a8c-bdad-92fe26febd9b","ios":"levelo://app?vid=4e381929-1858-4a8c-bdad-92fe26febd9b"},"vehicle_type_id":"4","last_reported":1698422871,"current_range_meters":22400,"station_id":"ce4bhh92rcd13ifvqfh0","pricing_plan_id":"free"},{"bike_id":"bc368e20-93c0-495a-bb4f-cd8ed7ee7f0d","system_id":"levelo_inurba_marseille","lat":43.335307,"lon":5.388143,"is_reserved":false,"is_disabled":false,"rental_uris":{"android":"levelo://app?vid=bc368e20-93c0-495a-bb4f-cd8ed7ee7f0d","ios":"levelo://app?vid=bc368e20-93c0-495a-bb4f-cd8ed7ee7f0d"},"vehicle_type_id":"4","last_reported":1698422871,"current_range_meters":0,"station_id":"","pricing_plan_id":"free"},{"bike_id":"c6cb8ba7-086f-4e1d-b31e-5bbafb7dd5a7","system_id":"levelo_inurba_marseille","lat":43.2847,"lon":5.35902,"is_reserved":false,"is_disabled":false,"rental_uris":{"android":"levelo://app?vid=c6cb8ba7-086f-4e1d-b31e-5bbafb7dd5a7","ios":"levelo://app?vid=c6cb8ba7-086f-4e1d-b31e-5bbafb7dd5a7"},"vehicle_type_id":"4","last_reported":1698422871,"current_range_meters":31200,"station_id":"ce4bhah2rcd13ifvqei0","pricing_plan_id":"free"},{"bike_id":"226e73a7-8b58-4ff6-8b98-fefbe83289da","system_id":"levelo_inurba_marseille","lat":43.28468,"lon":5.35896,"is_reserved":false,"is_disabled":false,"rental_uris":{"android":"levelo://app?vid=226e73a7-8b58-4ff6-8b98-fefbe83289da","ios":"levelo://app?vid=226e73a7-8b58-4ff6-8b98-fefbe83289da"},"vehicle_type_id":"4","last_reported":1698422871,"current_range_meters":2000,"station_id":"ce4bhah2rcd13ifvqei0","pricing_plan_id":"free"},{"bike_id":"a1cfc80b-47cd-4eb2-bf43-d1451ccb6117","system_id":"levelo_inurba_marseille","lat":43.28465,"lon":5.35896,"is_reserved":false,"is_disabled":false,"rental_uris":{"android":"levelo://app?vid=a1cfc80b-47cd-4eb2-bf43-d1451ccb6117","ios":"levelo://app?vid=a1cfc80b-47cd-4eb2-bf43-d1451ccb6117"},"vehicle_type_id":"4","last_reported":1698422871,"current_range_meters":31200,"station_id":"ce4bhah2rcd13ifvqei0","pricing_plan_id":"free"},{"bike_id":"344ecfcf-29f3-46ef-9651-3de8d9db87ad","system_id":"levelo_inurba_marseille","lat":43.282754,"lon":5.350519,"is_reserved":false,"is_disabled":false,"rental_uris":{"android":"levelo://app?vid=344ecfcf-29f3-46ef-9651-3de8d9db87ad","ios":"levelo://app?vid=344ecfcf-29f3-46ef-9651-3de8d9db87ad"},"vehicle_type_id":"4","last_reported":1698422871,"current_range_meters":21600,"station_id":"ce4bhbp2rcd13ifvqerg","pricing_plan_id":"free"},{"bike_id":"cd498391-c442-40d3-9365-f950381a4dae","system_id":"levelo_inurba_marseille","lat":43.28463,"lon":5.358822,"is_reserved":false,"is_disabled":false,"rental_uris":{"android":"levelo://app?vid=cd498391-c442-40d3-9365-f950381a4dae","ios":"levelo://app?vid=cd498391-c442-40d3-9365-f950381a4dae"},"vehicle_type_id":"4","last_reported":1698422871,"current_range_meters":20000,"station_id":"ce4bgpp2rcd13ifvqc3g","pricing_plan_id":"free"},{"bike_id":"aa11ab24-68d9-4ce9-9fe5-b81ef5125170","system_id":"levelo_inurba_marseille","lat":43.2846,"lon":5.35897,"is_reserved":false,"is_disabled":false,"rental_uris":{"android":"levelo://app?vid=aa11ab24-68d9-4ce9-9fe5-b81ef5125170","ios":"levelo://app?vid=aa11ab24-68d9-4ce9-9fe5-b81ef5125170"},"vehicle_type_id":"4","last_reported":1698422871,"current_range_meters":0,"station_id":"ce4bhah2rcd13ifvqei0","pricing_plan_id":"free"},{"bike_id":"8b8e54a1-f6f1-495e-97e3-f7e464d634a0","system_id":"levelo_inurba_marseille","lat":43.28457,"lon":5.35898,"is_reserved":false,"is_disabled":false,"rental_uris":{"android":"levelo://app?vid=8b8e54a1-f6f1-495e-97e3-f7e464d634a0","ios":"levelo://app?vid=8b8e54a1-f6f1-495e-97e3-f7e464d634a0"},"vehicle_type_id":"4","last_reported":1698422871,"current_range_meters":31200,"station_id":"ce4bhah2rcd13ifvqei0","pricing_plan_id":"free"},{"bike_id":"912cbf34-fc0f-4411-b408-fe7f19779096","system_id":"levelo_inurba_marseille","lat":43.28456,"lon":5.35894,"is_reserved":false,"is_disabled":false,"rental_uris":{"android":"levelo://app?vid=912cbf34-fc0f-4411-b408-fe7f19779096","ios":"levelo://app?vid=912cbf34-fc0f-4411-b408-fe7f19779096"},"vehicle_type_id":"4","last_reported":1698422871,"current_range_meters":2000,"station_id":"ce4bhah2rcd13ifvqei0","pricing_plan_id":"free"},{"bike_id":"e30ab588-8525-4bec-a5ac-d54a3a9ec01b","system_id":"levelo_inurba_marseille","lat":43.28454,"lon":5.35885,"is_reserved":false,"is_disabled":false,"rental_uris":{"android":"levelo://app?vid=e30ab588-8525-4bec-a5ac-d54a3a9ec01b","ios":"levelo://app?vid=e30ab588-8525-4bec-a5ac-d54a3a9ec01b"},"vehicle_type_id":"4","last_reported":1698422871,"current_range_meters":30400,"station_id":"ce4bhah2rcd13ifvqei0","pricing_plan_id":"free"},{"bike_id":"c4fe1987-5ca2-46fc-a950-d311edea3c8d","system_id":"levelo_inurba_marseille","lat":43.28619,"lon":5.35107,"is_reserved":false,"is_disabled":false,"rental_uris":{"android":"levelo://app?vid=c4fe1987-5ca2-46fc-a950-d311edea3c8d","ios":"levelo://app?vid=c4fe1987-5ca2-46fc-a950-d311edea3c8d"},"vehicle_type_id":"4","last_reported":1698422871,"current_range_meters":31200,"station_id":"ce4bhch2rcd13ifvqeug","pricing_plan_id":"free"},{"bike_id":"4fcf4d09-a4f6-41ad-ac66-10162f529953","system_id":"levelo_inurba_marseille","lat":43.286157,"lon":5.351096,"is_reserved":false,"is_disabled":false,"rental_uris":{"android":"levelo://app?vid=4fcf4d09-a4f6-41ad-ac66-10162f529953","ios":"levelo://app?vid=4fcf4d09-a4f6-41ad-ac66-10162f529953"},"vehicle_type_id":"4","last_reported":1698422871,"current_range_meters":31200,"station_id":"ce4bhch2rcd13ifvqeug","pricing_plan_id":"free"},{"bike_id":"831de513-e778-48a5-977f-b65c2d4ce36b","system_id":"levelo_inurba_marseille","lat":43.28617,"lon":5.35103,"is_reserved":false,"is_disabled":false,"rental_uris":{"android":"levelo://app?vid=831de513-e778-48a5-977f-b65c2d4ce36b","ios":"levelo://app?vid=831de513-e778-48a5-977f-b65c2d4ce36b"},"vehicle_type_id":"4","last_reported":1698422871,"current_range_meters":31200,"station_id":"ce4bhch2rcd13ifvqeug","pricing_plan_id":"free"},{"bike_id":"a2d4acfe-9ced-4db4-8180-a16e8647ad97","system_id":"levelo_inurba_marseille","lat":43.285856,"lon":5.350771,"is_reserved":false,"is_disabled":false,"rental_uris":{"android":"levelo://app?vid=a2d4acfe-9ced-4db4-8180-a16e8647ad97","ios":"levelo://app?vid=a2d4acfe-9ced-4db4-8180-a16e8647ad97"},"vehicle_type_id":"4","last_reported":1698422871,"current_range_meters":0,"station_id":"ce4bhch2rcd13ifvqeug","pricing_plan_id":"free"},{"bike_id":"a7d9a47b-6b00-4c97-8c2d-396405d2aa47","system_id":"levelo_inurba_marseille","lat":43.28616,"lon":5.35102,"is_reserved":false,"is_disabled":false,"rental_uris":{"android":"levelo://app?vid=a7d9a47b-6b00-4c97-8c2d-396405d2aa47","ios":"levelo://app?vid=a7d9a47b-6b00-4c97-8c2d-396405d2aa47"},"vehicle_type_id":"4","last_reported":1698422871,"current_range_meters":22400,"station_id":"ce4bhch2rcd13ifvqeug","pricing_plan_id":"free"},{"bike_id":"51ef808f-a903-49ac-a2f3-c936cce5260a","system_id":"levelo_inurba_marseille","lat":43.286164,"lon":5.350999,"is_reserved":false,"is_disabled":false,"rental_uris":{"android":"levelo://app?vid=51ef808f-a903-49ac-a2f3-c936cce5260a","ios":"levelo://app?vid=51ef808f-a903-49ac-a2f3-c936cce5260a"},"vehicle_type_id":"4","last_reported":1698422871,"current_range_meters":30000,"station_id":"ce4bhch2rcd13ifvqeug","pricing_plan_id":"free"},{"bike_id":"9d6c4dc5-eb21-4931-8f06-6ee61c15ebbc","system_id":"levelo_inurba_marseille","lat":43.285856,"lon":5.350771,"is_reserved":false,"is_disabled":false,"rental_uris":{"android":"levelo://app?vid=9d6c4dc5-eb21-4931-8f06-6ee61c15ebbc","ios":"levelo://app?vid=9d6c4dc5-eb21-4931-8f06-6ee61c15ebbc"},"vehicle_type_id":"4","last_reported":1698422871,"current_range_meters":30800,"station_id":"ce4bhch2rcd13ifvqeug","pricing_plan_id":"free"},{"bike_id":"b280f941-36b4-4cf7-ac7a-659f7a9bfc5c","system_id":"levelo_inurba_marseille","lat":43.28613,"lon":5.35102,"is_reserved":false,"is_disabled":false,"rental_uris":{"android":"levelo://app?vid=b280f941-36b4-4cf7-ac7a-659f7a9bfc5c","ios":"levelo://app?vid=b280f941-36b4-4cf7-ac7a-659f7a9bfc5c"},"vehicle_type_id":"4","last_reported":1698422871,"current_range_meters":24800,"station_id":"ce4bhch2rcd13ifvqeug","pricing_plan_id":"free"},{"bike_id":"9843366f-ae78-4770-b315-1c95473cd55a","system_id":"levelo_inurba_marseille","lat":43.28613,"lon":5.351,"is_reserved":false,"is_disabled":false,"rental_uris":{"android":"levelo://app?vid=9843366f-ae78-4770-b315-1c95473cd55a","ios":"levelo://app?vid=9843366f-ae78-4770-b315-1c95473cd55a"},"vehicle_type_id":"4","last_reported":1698422871,"current_range_meters":22400,"station_id":"ce4bhch2rcd13ifvqeug","pricing_plan_id":"free"},{"bike_id":"a2928527-90f0-481a-bed3-14e4fc70df1c","system_id":"levelo_inurba_marseille","lat":43.28612,"lon":5.351,"is_reserved":false,"is_disabled":false,"rental_uris":{"android":"levelo://app?vid=a2928527-90f0-481a-bed3-14e4fc70df1c","ios":"levelo://app?vid=a2928527-90f0-481a-bed3-14e4fc70df1c"},"vehicle_type_id":"4","last_reported":1698422871,"current_range_meters":11200,"station_id":"ce4bhch2rcd13ifvqeug","pricing_plan_id":"free"},{"bike_id":"c173debc-e7f9-4f23-a100-2af6278d8604","system_id":"levelo_inurba_marseille","lat":43.28593,"lon":5.35102,"is_reserved":false,"is_disabled":false,"rental_uris":{"android":"levelo://app?vid=c173debc-e7f9-4f23-a100-2af6278d8604","ios":"levelo://app?vid=c173debc-e7f9-4f23-a100-2af6278d8604"},"vehicle_type_id":"4","last_reported":1698422871,"current_range_meters":22800,"station_id":"ce4bhch2rcd13ifvqeug","pricing_plan_id":"free"},{"bike_id":"90591658-266a-48e7-a39a-653b5097b0e1","system_id":"levelo_inurba_marseille","lat":43.283998,"lon":5.375062,"is_reserved":false,"is_disabled":false,"rental_uris":{"android":"levelo://app?vid=90591658-266a-48e7-a39a-653b5097b0e1","ios":"levelo://app?vid=90591658-266a-48e7-a39a-653b5097b0e1"},"vehicle_type_id":"4","last_reported":1698422871,"current_range_meters":18400,"station_id":"ce4bh412rcd13ifvqds0","pricing_plan_id":"free"},{"bike_id":"d85afc23-1da0-4b10-86f0-541d9d0c19b3","system_id":"levelo_inurba_marseille","lat":43.295713,"lon":5.399639,"is_reserved":false,"is_disabled":false,"rental_uris":{"android":"levelo://app?vid=d85afc23-1da0-4b10-86f0-541d9d0c19b3","ios":"levelo://app?vid=d85afc23-1da0-4b10-86f0-541d9d0c19b3"},"vehicle_type_id":"4","last_reported":1698422871,"current_range_meters":22400,"station_id":"ce4bh312rcd13ifvqdj0","pricing_plan_id":"free"},{"bike_id":"b0d784ef-3aef-4cb0-9c44-378f6027c5ea","system_id":"levelo_inurba_marseille","lat":43.286595,"lon":5.386795,"is_reserved":false,"is_disabled":false,"rental_uris":{"android":"levelo://app?vid=b0d784ef-3aef-4cb0-9c44-378f6027c5ea","ios":"levelo://app?vid=b0d784ef-3aef-4cb0-9c44-378f6027c5ea"},"vehicle_type_id":"4","last_reported":1698422871,"current_range_meters":0,"station_id":"ce4bh492rcd13ifvqdug","pricing_plan_id":"free"},{"bike_id":"a04dca67-8317-445e-90d6-5788929468fd","system_id":"levelo_inurba_marseille","lat":43.33674,"lon":5.39198,"is_reserved":false,"is_disabled":false,"rental_uris":{"android":"levelo://app?vid=a04dca67-8317-445e-90d6-5788929468fd","ios":"levelo://app?vid=a04dca67-8317-445e-90d6-5788929468fd"},"vehicle_type_id":"4","last_reported":1698422871,"current_range_meters":9200,"station_id":"","pricing_plan_id":"free"},{"bike_id":"3ce63605-9256-4f2b-ba61-4564f1aa8107","system_id":"levelo_inurba_marseille","lat":43.323464,"lon":5.406297,"is_reserved":false,"is_disabled":false,"rental_uris":{"android":"levelo://app?vid=3ce63605-9256-4f2b-ba61-4564f1aa8107","ios":"levelo://app?vid=3ce63605-9256-4f2b-ba61-4564f1aa8107"},"vehicle_type_id":"4","last_reported":1698422871,"current_range_meters":10800,"station_id":"ce4bhq92rcd13ifvqhjg","pricing_plan_id":"free"},{"bike_id":"873ba55e-e23f-45d1-9e24-2f73f414a7fd","system_id":"levelo_inurba_marseille","lat":43.284793,"lon":5.384113,"is_reserved":false,"is_disabled":false,"rental_uris":{"android":"levelo://app?vid=873ba55e-e23f-45d1-9e24-2f73f414a7fd","ios":"levelo://app?vid=873ba55e-e23f-45d1-9e24-2f73f414a7fd"},"vehicle_type_id":"4","last_reported":1698422871,"current_range_meters":15600,"station_id":"ce4bh512rcd13ifvqe3g","pricing_plan_id":"free"},{"bike_id":"a73fac3e-9a81-4a1e-ac63-917624f06965","system_id":"levelo_inurba_marseille","lat":43.284793,"lon":5.384113,"is_reserved":false,"is_disabled":false,"rental_uris":{"android":"levelo://app?vid=a73fac3e-9a81-4a1e-ac63-917624f06965","ios":"levelo://app?vid=a73fac3e-9a81-4a1e-ac63-917624f06965"},"vehicle_type_id":"4","last_reported":1698422871,"current_range_meters":20800,"station_id":"ce4bh512rcd13ifvqe3g","pricing_plan_id":"free"},{"bike_id":"6bbf8be1-5d19-43fa-9d54-51934f0b8d30","system_id":"levelo_inurba_marseille","lat":43.29795,"lon":5.404086,"is_reserved":false,"is_disabled":false,"rental_uris":{"android":"levelo://app?vid=6bbf8be1-5d19-43fa-9d54-51934f0b8d30","ios":"levelo://app?vid=6bbf8be1-5d19-43fa-9d54-51934f0b8d30"},"vehicle_type_id":"4","last_reported":1698422871,"current_range_meters":0,"station_id":"ce4bh112rcd13ifvqd90","pricing_plan_id":"free"},{"bike_id":"393abbd5-627f-4eaa-a8ab-a16665210026","system_id":"levelo_inurba_marseille","lat":43.297946,"lon":5.404063,"is_reserved":false,"is_disabled":false,"rental_uris":{"android":"levelo://app?vid=393abbd5-627f-4eaa-a8ab-a16665210026","ios":"levelo://app?vid=393abbd5-627f-4eaa-a8ab-a16665210026"},"vehicle_type_id":"4","last_reported":1698422871,"current_range_meters":25600,"station_id":"ce4bh112rcd13ifvqd90","pricing_plan_id":"free"},{"bike_id":"15a61fb0-bfa2-45a4-b6d2-b3bceb15bdc3","system_id":"levelo_inurba_marseille","lat":43.297946,"lon":5.404063,"is_reserved":false,"is_disabled":false,"rental_uris":{"android":"levelo://app?vid=15a61fb0-bfa2-45a4-b6d2-b3bceb15bdc3","ios":"levelo://app?vid=15a61fb0-bfa2-45a4-b6d2-b3bceb15bdc3"},"vehicle_type_id":"4","last_reported":1698422871,"current_range_meters":21600,"station_id":"ce4bh112rcd13ifvqd90","pricing_plan_id":"free"},{"bike_id":"eaaba081-46e2-4e8c-bb98-976fad056ac5","system_id":"levelo_inurba_marseille","lat":43.29795,"lon":5.404086,"is_reserved":false,"is_disabled":false,"rental_uris":{"android":"levelo://app?vid=eaaba081-46e2-4e8c-bb98-976fad056ac5","ios":"levelo://app?vid=eaaba081-46e2-4e8c-bb98-976fad056ac5"},"vehicle_type_id":"4","last_reported":1698422871,"current_range_meters":31200,"station_id":"ce4bh112rcd13ifvqd90","pricing_plan_id":"free"},{"bike_id":"2f666bbb-190f-4291-ade2-95e2c0cfd815","system_id":"levelo_inurba_marseille","lat":43.325281,"lon":5.405683,"is_reserved":false,"is_disabled":false,"rental_uris":{"android":"levelo://app?vid=2f666bbb-190f-4291-ade2-95e2c0cfd815","ios":"levelo://app?vid=2f666bbb-190f-4291-ade2-95e2c0cfd815"},"vehicle_type_id":"4","last_reported":1698422871,"current_range_meters":21200,"station_id":"","pricing_plan_id":"free"},{"bike_id":"44d36fc9-94a8-436f-b2e6-df047ad8bf21","system_id":"levelo_inurba_marseille","lat":43.28359,"lon":5.38112,"is_reserved":false,"is_disabled":false,"rental_uris":{"android":"levelo://app?vid=44d36fc9-94a8-436f-b2e6-df047ad8bf21","ios":"levelo://app?vid=44d36fc9-94a8-436f-b2e6-df047ad8bf21"},"vehicle_type_id":"4","last_reported":1698422871,"current_range_meters":31200,"station_id":"ce4bh412rcd13ifvqdr0","pricing_plan_id":"free"},{"bike_id":"6227f91e-7d39-4ca0-b8ff-6673417c303e","system_id":"levelo_inurba_marseille","lat":43.2842,"lon":5.34989,"is_reserved":false,"is_disabled":false,"rental_uris":{"android":"levelo://app?vid=6227f91e-7d39-4ca0-b8ff-6673417c303e","ios":"levelo://app?vid=6227f91e-7d39-4ca0-b8ff-6673417c303e"},"vehicle_type_id":"4","last_reported":1698422871,"current_range_meters":31200,"station_id":"ce4bhbh2rcd13ifvqepg","pricing_plan_id":"free"},{"bike_id":"58b70d1f-bdd6-43e2-8744-8324ed1345f5","system_id":"levelo_inurba_marseille","lat":43.283356,"lon":5.381083,"is_reserved":false,"is_disabled":false,"rental_uris":{"android":"levelo://app?vid=58b70d1f-bdd6-43e2-8744-8324ed1345f5","ios":"levelo://app?vid=58b70d1f-bdd6-43e2-8744-8324ed1345f5"},"vehicle_type_id":"4","last_reported":1698422871,"current_range_meters":30800,"station_id":"ce4bh412rcd13ifvqdr0","pricing_plan_id":"free"},{"bike_id":"bd4e7c28-f2b2-443f-8c82-c05235a9d58f","system_id":"levelo_inurba_marseille","lat":43.292724,"lon":5.401131,"is_reserved":false,"is_disabled":false,"rental_uris":{"android":"levelo://app?vid=bd4e7c28-f2b2-443f-8c82-c05235a9d58f","ios":"levelo://app?vid=bd4e7c28-f2b2-443f-8c82-c05235a9d58f"},"vehicle_type_id":"4","last_reported":1698422871,"current_range_meters":24800,"station_id":"ce4bh312rcd13ifvqdk0","pricing_plan_id":"free"},{"bike_id":"74a47e1b-fd82-411b-90ac-37ef0c738203","system_id":"levelo_inurba_marseille","lat":43.282754,"lon":5.350519,"is_reserved":false,"is_disabled":false,"rental_uris":{"android":"levelo://app?vid=74a47e1b-fd82-411b-90ac-37ef0c738203","ios":"levelo://app?vid=74a47e1b-fd82-411b-90ac-37ef0c738203"},"vehicle_type_id":"4","last_reported":1698422871,"current_range_meters":21200,"station_id":"ce4bhbp2rcd13ifvqerg","pricing_plan_id":"free"},{"bike_id":"25e3afd4-700f-476d-a687-088553d75d97","system_id":"levelo_inurba_marseille","lat":43.282744,"lon":5.350533,"is_reserved":false,"is_disabled":false,"rental_uris":{"android":"levelo://app?vid=25e3afd4-700f-476d-a687-088553d75d97","ios":"levelo://app?vid=25e3afd4-700f-476d-a687-088553d75d97"},"vehicle_type_id":"4","last_reported":1698422871,"current_range_meters":17600,"station_id":"ce4bhbp2rcd13ifvqerg","pricing_plan_id":"free"},{"bike_id":"c29c9deb-b50d-4492-9c59-c2ab2fa3daaa","system_id":"levelo_inurba_marseille","lat":43.282744,"lon":5.350533,"is_reserved":false,"is_disabled":false,"rental_uris":{"android":"levelo://app?vid=c29c9deb-b50d-4492-9c59-c2ab2fa3daaa","ios":"levelo://app?vid=c29c9deb-b50d-4492-9c59-c2ab2fa3daaa"},"vehicle_type_id":"4","last_reported":1698422871,"current_range_meters":20400,"station_id":"ce4bhbp2rcd13ifvqerg","pricing_plan_id":"free"},{"bike_id":"c940aa83-6eb2-402d-916b-68e93c69e49a","system_id":"levelo_inurba_marseille","lat":43.283502,"lon":5.386471,"is_reserved":false,"is_disabled":false,"rental_uris":{"android":"levelo://app?vid=c940aa83-6eb2-402d-916b-68e93c69e49a","ios":"levelo://app?vid=c940aa83-6eb2-402d-916b-68e93c69e49a"},"vehicle_type_id":"4","last_reported":1698422871,"current_range_meters":16400,"station_id":"ce4bh492rcd13ifvqdvg","pricing_plan_id":"free"},{"bike_id":"94822938-73d4-4d31-8ff4-9a14850a7440","system_id":"levelo_inurba_marseille","lat":43.283502,"lon":5.386471,"is_reserved":false,"is_disabled":false,"rental_uris":{"android":"levelo://app?vid=94822938-73d4-4d31-8ff4-9a14850a7440","ios":"levelo://app?vid=94822938-73d4-4d31-8ff4-9a14850a7440"},"vehicle_type_id":"4","last_reported":1698422871,"current_range_meters":0,"station_id":"ce4bh492rcd13ifvqdvg","pricing_plan_id":"free"},{"bike_id":"04c385e7-29f2-47a7-9797-1795157cb7be","system_id":"levelo_inurba_marseille","lat":43.28036,"lon":5.36944,"is_reserved":false,"is_disabled":false,"rental_uris":{"android":"levelo://app?vid=04c385e7-29f2-47a7-9797-1795157cb7be","ios":"levelo://app?vid=04c385e7-29f2-47a7-9797-1795157cb7be"},"vehicle_type_id":"4","last_reported":1698422871,"current_range_meters":22400,"station_id":"ce4bha12rcd13ifvqef0","pricing_plan_id":"free"},{"bike_id":"1ca242fe-6084-4f9b-8b54-35d465872844","system_id":"levelo_inurba_marseille","lat":43.29041,"lon":5.399634,"is_reserved":false,"is_disabled":false,"rental_uris":{"android":"levelo://app?vid=1ca242fe-6084-4f9b-8b54-35d465872844","ios":"levelo://app?vid=1ca242fe-6084-4f9b-8b54-35d465872844"},"vehicle_type_id":"4","last_reported":1698422871,"current_range_meters":22000,"station_id":"ce4bh392rcd13ifvqdm0","pricing_plan_id":"free"},{"bike_id":"e85a37de-2800-4355-b6af-1c90d7b2f2d8","system_id":"levelo_inurba_marseille","lat":43.30382,"lon":5.410231,"is_reserved":false,"is_disabled":false,"rental_uris":{"android":"levelo://app?vid=e85a37de-2800-4355-b6af-1c90d7b2f2d8","ios":"levelo://app?vid=e85a37de-2800-4355-b6af-1c90d7b2f2d8"},"vehicle_type_id":"4","last_reported":1698422871,"current_range_meters":3600,"station_id":"ce4bhop2rcd13ifvqh8g","pricing_plan_id":"free"},{"bike_id":"7f2fbf23-a88a-40be-8bcc-df927677f0d4","system_id":"levelo_inurba_marseille","lat":43.296263,"lon":5.40601,"is_reserved":false,"is_disabled":false,"rental_uris":{"android":"levelo://app?vid=7f2fbf23-a88a-40be-8bcc-df927677f0d4","ios":"levelo://app?vid=7f2fbf23-a88a-40be-8bcc-df927677f0d4"},"vehicle_type_id":"4","last_reported":1698422871,"current_range_meters":4800,"station_id":"ce4bh0h2rcd13ifvqd60","pricing_plan_id":"free"},{"bike_id":"724ae923-fa98-40ce-975e-8ab386348d37","system_id":"levelo_inurba_marseille","lat":43.284462,"lon":5.392121,"is_reserved":false,"is_disabled":false,"rental_uris":{"android":"levelo://app?vid=724ae923-fa98-40ce-975e-8ab386348d37","ios":"levelo://app?vid=724ae923-fa98-40ce-975e-8ab386348d37"},"vehicle_type_id":"4","last_reported":1698422871,"current_range_meters":400,"station_id":"ce4bhoh2rcd13ifvqh5g","pricing_plan_id":"free"},{"bike_id":"e42647c1-387e-401d-a06e-dcaf9f0a0f6f","system_id":"levelo_inurba_marseille","lat":43.284462,"lon":5.392121,"is_reserved":false,"is_disabled":false,"rental_uris":{"android":"levelo://app?vid=e42647c1-387e-401d-a06e-dcaf9f0a0f6f","ios":"levelo://app?vid=e42647c1-387e-401d-a06e-dcaf9f0a0f6f"},"vehicle_type_id":"4","last_reported":1698422871,"current_range_meters":23600,"station_id":"ce4bhoh2rcd13ifvqh5g","pricing_plan_id":"free"},{"bike_id":"82490be5-080a-40ce-b6b8-d33ccf9f6210","system_id":"levelo_inurba_marseille","lat":43.284462,"lon":5.392121,"is_reserved":false,"is_disabled":false,"rental_uris":{"android":"levelo://app?vid=82490be5-080a-40ce-b6b8-d33ccf9f6210","ios":"levelo://app?vid=82490be5-080a-40ce-b6b8-d33ccf9f6210"},"vehicle_type_id":"4","last_reported":1698422871,"current_range_meters":16800,"station_id":"ce4bhoh2rcd13ifvqh5g","pricing_plan_id":"free"},{"bike_id":"5eb800ef-5dbc-42a6-ba66-c75691974c5c","system_id":"levelo_inurba_marseille","lat":43.28573,"lon":5.394992,"is_reserved":false,"is_disabled":false,"rental_uris":{"android":"levelo://app?vid=5eb800ef-5dbc-42a6-ba66-c75691974c5c","ios":"levelo://app?vid=5eb800ef-5dbc-42a6-ba66-c75691974c5c"},"vehicle_type_id":"4","last_reported":1698422871,"current_range_meters":2800,"station_id":"ce4bh292rcd13ifvqdg0","pricing_plan_id":"free"},{"bike_id":"18738a08-aafb-43e2-8213-13de0fe23fa6","system_id":"levelo_inurba_marseille","lat":43.28573,"lon":5.394992,"is_reserved":false,"is_disabled":false,"rental_uris":{"android":"levelo://app?vid=18738a08-aafb-43e2-8213-13de0fe23fa6","ios":"levelo://app?vid=18738a08-aafb-43e2-8213-13de0fe23fa6"},"vehicle_type_id":"4","last_reported":1698422871,"current_range_meters":10000,"station_id":"ce4bh292rcd13ifvqdg0","pricing_plan_id":"free"},{"bike_id":"3879e782-e18b-40a3-b3b4-d562daed2da9","system_id":"levelo_inurba_marseille","lat":43.279087,"lon":5.380114,"is_reserved":false,"is_disabled":false,"rental_uris":{"android":"levelo://app?vid=3879e782-e18b-40a3-b3b4-d562daed2da9","ios":"levelo://app?vid=3879e782-e18b-40a3-b3b4-d562daed2da9"},"vehicle_type_id":"4","last_reported":1698422871,"current_range_meters":6000,"station_id":"ce4bhf92rcd13ifvqf50","pricing_plan_id":"free"},{"bike_id":"55a491bc-3086-4c2a-858e-e4e6a9b4aac6","system_id":"levelo_inurba_marseille","lat":43.287154,"lon":5.399979,"is_reserved":false,"is_disabled":false,"rental_uris":{"android":"levelo://app?vid=55a491bc-3086-4c2a-858e-e4e6a9b4aac6","ios":"levelo://app?vid=55a491bc-3086-4c2a-858e-e4e6a9b4aac6"},"vehicle_type_id":"4","last_reported":1698422871,"current_range_meters":10000,"station_id":"ce4bho92rcd13ifvqh3g","pricing_plan_id":"free"},{"bike_id":"1c941958-488b-4882-8987-3d75f1f9d592","system_id":"levelo_inurba_marseille","lat":43.287154,"lon":5.399979,"is_reserved":false,"is_disabled":false,"rental_uris":{"android":"levelo://app?vid=1c941958-488b-4882-8987-3d75f1f9d592","ios":"levelo://app?vid=1c941958-488b-4882-8987-3d75f1f9d592"},"vehicle_type_id":"4","last_reported":1698422871,"current_range_meters":24400,"station_id":"ce4bho92rcd13ifvqh3g","pricing_plan_id":"free"},{"bike_id":"c000c13a-38ca-4396-8e36-4c597f167170","system_id":"levelo_inurba_marseille","lat":43.287154,"lon":5.399979,"is_reserved":false,"is_disabled":false,"rental_uris":{"android":"levelo://app?vid=c000c13a-38ca-4396-8e36-4c597f167170","ios":"levelo://app?vid=c000c13a-38ca-4396-8e36-4c597f167170"},"vehicle_type_id":"4","last_reported":1698422871,"current_range_meters":12400,"station_id":"ce4bho92rcd13ifvqh3g","pricing_plan_id":"free"},{"bike_id":"e22ed5cf-bdd4-41d2-81ad-1b37c2e1e3d1","system_id":"levelo_inurba_marseille","lat":43.287154,"lon":5.399979,"is_reserved":false,"is_disabled":false,"rental_uris":{"android":"levelo://app?vid=e22ed5cf-bdd4-41d2-81ad-1b37c2e1e3d1","ios":"levelo://app?vid=e22ed5cf-bdd4-41d2-81ad-1b37c2e1e3d1"},"vehicle_type_id":"4","last_reported":1698422871,"current_range_meters":28400,"station_id":"ce4bho92rcd13ifvqh3g","pricing_plan_id":"free"},{"bike_id":"ab441268-3e03-4104-94cc-7705d60c6788","system_id":"levelo_inurba_marseille","lat":43.320096,"lon":5.415269,"is_reserved":false,"is_disabled":false,"rental_uris":{"android":"levelo://app?vid=ab441268-3e03-4104-94cc-7705d60c6788","ios":"levelo://app?vid=ab441268-3e03-4104-94cc-7705d60c6788"},"vehicle_type_id":"4","last_reported":1698422871,"current_range_meters":20000,"station_id":"","pricing_plan_id":"free"},{"bike_id":"fe1a80a3-a5d3-41ff-a0cd-e8975dc643d7","system_id":"levelo_inurba_marseille","lat":43.292571,"lon":5.409107,"is_reserved":false,"is_disabled":false,"rental_uris":{"android":"levelo://app?vid=fe1a80a3-a5d3-41ff-a0cd-e8975dc643d7","ios":"levelo://app?vid=fe1a80a3-a5d3-41ff-a0cd-e8975dc643d7"},"vehicle_type_id":"4","last_reported":1698422871,"current_range_meters":6000,"station_id":"ce4bh192rcd13ifvqdc0","pricing_plan_id":"free"},{"bike_id":"a5e0fa18-4820-4b22-9724-cc7a547bcbf5","system_id":"levelo_inurba_marseille","lat":43.292571,"lon":5.409107,"is_reserved":false,"is_disabled":false,"rental_uris":{"android":"levelo://app?vid=a5e0fa18-4820-4b22-9724-cc7a547bcbf5","ios":"levelo://app?vid=a5e0fa18-4820-4b22-9724-cc7a547bcbf5"},"vehicle_type_id":"4","last_reported":1698422871,"current_range_meters":26400,"station_id":"ce4bh192rcd13ifvqdc0","pricing_plan_id":"free"},{"bike_id":"55d1a1e5-7635-4cf4-b3b0-9a1b40eb8f05","system_id":"levelo_inurba_marseille","lat":43.292569,"lon":5.409107,"is_reserved":false,"is_disabled":false,"rental_uris":{"android":"levelo://app?vid=55d1a1e5-7635-4cf4-b3b0-9a1b40eb8f05","ios":"levelo://app?vid=55d1a1e5-7635-4cf4-b3b0-9a1b40eb8f05"},"vehicle_type_id":"4","last_reported":1698422871,"current_range_meters":20800,"station_id":"ce4bh192rcd13ifvqdc0","pricing_plan_id":"free"},{"bike_id":"0a8d53a3-0c7f-4c5e-93f2-d535e818ac92","system_id":"levelo_inurba_marseille","lat":43.292569,"lon":5.409107,"is_reserved":false,"is_disabled":false,"rental_uris":{"android":"levelo://app?vid=0a8d53a3-0c7f-4c5e-93f2-d535e818ac92","ios":"levelo://app?vid=0a8d53a3-0c7f-4c5e-93f2-d535e818ac92"},"vehicle_type_id":"4","last_reported":1698422871,"current_range_meters":5200,"station_id":"ce4bh192rcd13ifvqdc0","pricing_plan_id":"free"},{"bike_id":"1eab8046-01ae-4345-a315-6aa089222a3b","system_id":"levelo_inurba_marseille","lat":43.292569,"lon":5.409107,"is_reserved":false,"is_disabled":false,"rental_uris":{"android":"levelo://app?vid=1eab8046-01ae-4345-a315-6aa089222a3b","ios":"levelo://app?vid=1eab8046-01ae-4345-a315-6aa089222a3b"},"vehicle_type_id":"4","last_reported":1698422871,"current_range_meters":9600,"station_id":"ce4bh192rcd13ifvqdc0","pricing_plan_id":"free"},{"bike_id":"9098cda4-4994-4077-a826-a31732dcba91","system_id":"levelo_inurba_marseille","lat":43.29256,"lon":5.40903,"is_reserved":false,"is_disabled":false,"rental_uris":{"android":"levelo://app?vid=9098cda4-4994-4077-a826-a31732dcba91","ios":"levelo://app?vid=9098cda4-4994-4077-a826-a31732dcba91"},"vehicle_type_id":"4","last_reported":1698422871,"current_range_meters":13600,"station_id":"ce4bh192rcd13ifvqdc0","pricing_plan_id":"free"},{"bike_id":"74e2ef73-bd5e-4b59-bfe4-04123732d355","system_id":"levelo_inurba_marseille","lat":43.292569,"lon":5.409107,"is_reserved":false,"is_disabled":false,"rental_uris":{"android":"levelo://app?vid=74e2ef73-bd5e-4b59-bfe4-04123732d355","ios":"levelo://app?vid=74e2ef73-bd5e-4b59-bfe4-04123732d355"},"vehicle_type_id":"4","last_reported":1698422871,"current_range_meters":29600,"station_id":"ce4bh192rcd13ifvqdc0","pricing_plan_id":"free"},{"bike_id":"d3fe9c6f-7c90-446e-a09b-853a2a8d178c","system_id":"levelo_inurba_marseille","lat":43.292569,"lon":5.409107,"is_reserved":false,"is_disabled":false,"rental_uris":{"android":"levelo://app?vid=d3fe9c6f-7c90-446e-a09b-853a2a8d178c","ios":"levelo://app?vid=d3fe9c6f-7c90-446e-a09b-853a2a8d178c"},"vehicle_type_id":"4","last_reported":1698422871,"current_range_meters":23200,"station_id":"ce4bh192rcd13ifvqdc0","pricing_plan_id":"free"},{"bike_id":"9218a9a0-48d3-4c7d-9977-4d6d77ec224b","system_id":"levelo_inurba_marseille","lat":43.29259,"lon":5.40913,"is_reserved":false,"is_disabled":false,"rental_uris":{"android":"levelo://app?vid=9218a9a0-48d3-4c7d-9977-4d6d77ec224b","ios":"levelo://app?vid=9218a9a0-48d3-4c7d-9977-4d6d77ec224b"},"vehicle_type_id":"4","last_reported":1698422871,"current_range_meters":22800,"station_id":"ce4bh192rcd13ifvqdc0","pricing_plan_id":"free"},{"bike_id":"50ae4ee5-4372-40c9-8282-4977652f6818","system_id":"levelo_inurba_marseille","lat":43.292571,"lon":5.409107,"is_reserved":false,"is_disabled":false,"rental_uris":{"android":"levelo://app?vid=50ae4ee5-4372-40c9-8282-4977652f6818","ios":"levelo://app?vid=50ae4ee5-4372-40c9-8282-4977652f6818"},"vehicle_type_id":"4","last_reported":1698422871,"current_range_meters":30800,"station_id":"ce4bh192rcd13ifvqdc0","pricing_plan_id":"free"},{"bike_id":"97b99ba2-e594-46cf-b935-a325e2da3746","system_id":"levelo_inurba_marseille","lat":43.27618,"lon":5.361009,"is_reserved":false,"is_disabled":false,"rental_uris":{"android":"levelo://app?vid=97b99ba2-e594-46cf-b935-a325e2da3746","ios":"levelo://app?vid=97b99ba2-e594-46cf-b935-a325e2da3746"},"vehicle_type_id":"4","last_reported":1698422871,"current_range_meters":26000,"station_id":"ce4bgj92rcd13ifvqbe0","pricing_plan_id":"free"},{"bike_id":"6712f1ed-4a4c-430a-8c7c-4f714065cd3c","system_id":"levelo_inurba_marseille","lat":43.276179,"lon":5.361009,"is_reserved":false,"is_disabled":false,"rental_uris":{"android":"levelo://app?vid=6712f1ed-4a4c-430a-8c7c-4f714065cd3c","ios":"levelo://app?vid=6712f1ed-4a4c-430a-8c7c-4f714065cd3c"},"vehicle_type_id":"4","last_reported":1698422871,"current_range_meters":31200,"station_id":"ce4bgj92rcd13ifvqbe0","pricing_plan_id":"free"},{"bike_id":"56659e9e-a6d2-434f-a132-302728275fd2","system_id":"levelo_inurba_marseille","lat":43.280784,"lon":5.396622,"is_reserved":false,"is_disabled":false,"rental_uris":{"android":"levelo://app?vid=56659e9e-a6d2-434f-a132-302728275fd2","ios":"levelo://app?vid=56659e9e-a6d2-434f-a132-302728275fd2"},"vehicle_type_id":"4","last_reported":1698422871,"current_range_meters":15200,"station_id":"ce4bho12rcd13ifvqh2g","pricing_plan_id":"free"},{"bike_id":"b14b5f91-4846-4047-b2e2-324a66843f1f","system_id":"levelo_inurba_marseille","lat":43.276771,"lon":5.388799,"is_reserved":false,"is_disabled":false,"rental_uris":{"android":"levelo://app?vid=b14b5f91-4846-4047-b2e2-324a66843f1f","ios":"levelo://app?vid=b14b5f91-4846-4047-b2e2-324a66843f1f"},"vehicle_type_id":"4","last_reported":1698422871,"current_range_meters":5200,"station_id":"ce4bhi12rcd13ifvqfo0","pricing_plan_id":"free"},{"bike_id":"23e58f82-3fc6-4635-a2ee-aaa2eb305981","system_id":"levelo_inurba_marseille","lat":43.303837,"lon":5.418724,"is_reserved":false,"is_disabled":false,"rental_uris":{"android":"levelo://app?vid=23e58f82-3fc6-4635-a2ee-aaa2eb305981","ios":"levelo://app?vid=23e58f82-3fc6-4635-a2ee-aaa2eb305981"},"vehicle_type_id":"4","last_reported":1698422871,"current_range_meters":26400,"station_id":"ce4bhop2rcd13ifvqh7g","pricing_plan_id":"free"},{"bike_id":"6f2eb39e-7cd8-4154-9b0d-897164ae9255","system_id":"levelo_inurba_marseille","lat":43.278399,"lon":5.392139,"is_reserved":false,"is_disabled":false,"rental_uris":{"android":"levelo://app?vid=6f2eb39e-7cd8-4154-9b0d-897164ae9255","ios":"levelo://app?vid=6f2eb39e-7cd8-4154-9b0d-897164ae9255"},"vehicle_type_id":"4","last_reported":1698422871,"current_range_meters":2800,"station_id":"ce4bhjp2rcd13ifvqga0","pricing_plan_id":"free"},{"bike_id":"d70463b9-734e-45a8-95ef-2db0816fd168","system_id":"levelo_inurba_marseille","lat":43.27376,"lon":5.3624,"is_reserved":false,"is_disabled":false,"rental_uris":{"android":"levelo://app?vid=d70463b9-734e-45a8-95ef-2db0816fd168","ios":"levelo://app?vid=d70463b9-734e-45a8-95ef-2db0816fd168"},"vehicle_type_id":"4","last_reported":1698422871,"current_range_meters":31200,"station_id":"ce4bhbh2rcd13ifvqeo0","pricing_plan_id":"free"},{"bike_id":"7fb73bb6-8a2b-4b45-8aa9-18de3049292e","system_id":"levelo_inurba_marseille","lat":43.273609,"lon":5.362708,"is_reserved":false,"is_disabled":false,"rental_uris":{"android":"levelo://app?vid=7fb73bb6-8a2b-4b45-8aa9-18de3049292e","ios":"levelo://app?vid=7fb73bb6-8a2b-4b45-8aa9-18de3049292e"},"vehicle_type_id":"4","last_reported":1698422871,"current_range_meters":28800,"station_id":"ce4bhbh2rcd13ifvqeo0","pricing_plan_id":"free"},{"bike_id":"5e3749fc-0239-47d7-a45e-e715005d664e","system_id":"levelo_inurba_marseille","lat":43.273613,"lon":5.362705,"is_reserved":false,"is_disabled":false,"rental_uris":{"android":"levelo://app?vid=5e3749fc-0239-47d7-a45e-e715005d664e","ios":"levelo://app?vid=5e3749fc-0239-47d7-a45e-e715005d664e"},"vehicle_type_id":"4","last_reported":1698422871,"current_range_meters":31200,"station_id":"ce4bhbh2rcd13ifvqeo0","pricing_plan_id":"free"},{"bike_id":"5710f378-c29b-4bd5-8ced-5d1eb6b36037","system_id":"levelo_inurba_marseille","lat":43.27561,"lon":5.38429,"is_reserved":false,"is_disabled":false,"rental_uris":{"android":"levelo://app?vid=5710f378-c29b-4bd5-8ced-5d1eb6b36037","ios":"levelo://app?vid=5710f378-c29b-4bd5-8ced-5d1eb6b36037"},"vehicle_type_id":"4","last_reported":1698422871,"current_range_meters":0,"station_id":"ce4bhh92rcd13ifvqfi0","pricing_plan_id":"free"},{"bike_id":"65e0ec0e-d12c-45e1-b96b-c6387ee42e89","system_id":"levelo_inurba_marseille","lat":43.33612,"lon":5.410321,"is_reserved":false,"is_disabled":false,"rental_uris":{"android":"levelo://app?vid=65e0ec0e-d12c-45e1-b96b-c6387ee42e89","ios":"levelo://app?vid=65e0ec0e-d12c-45e1-b96b-c6387ee42e89"},"vehicle_type_id":"4","last_reported":1698422871,"current_range_meters":20400,"station_id":"ce4bhqh2rcd13ifvqhmg","pricing_plan_id":"free"},{"bike_id":"8b5f750d-36f5-43ec-8165-96b943a67933","system_id":"levelo_inurba_marseille","lat":43.27672,"lon":5.38879,"is_reserved":false,"is_disabled":false,"rental_uris":{"android":"levelo://app?vid=8b5f750d-36f5-43ec-8165-96b943a67933","ios":"levelo://app?vid=8b5f750d-36f5-43ec-8165-96b943a67933"},"vehicle_type_id":"4","last_reported":1698422871,"current_range_meters":0,"station_id":"ce4bhi12rcd13ifvqfo0","pricing_plan_id":"free"},