{"last_updated":1743653553,"ttl":60,"version":"2.2","data":{"bikes":[{"bike_id":"1167d76f-0701-42ca-9566-e6b8288b4501","system_id":"levelo_inurba_marseille","lat":43.28255,"lon":5.3787,"is_reserved":false,"is_disabled":false,"rental_uris":{"android":"levelo://app?vid=1167d76f-0701-42ca-9566-e6b8288b4501","ios":"levelo://app?vid=1167d76f-0701-42ca-9566-e6b8288b4501"},"vehicle_type_id":"4","last_reported":1743653553,"current_range_meters":2800,"station_id":"","pricing_plan_id":"cebpf4jnsgd1na2vs0mg"},{"bike_id":"6293244a-a5ac-4bd3-abcc-130806d24645","system_id":"levelo_inurba_marseille","lat":43.262005,"lon":5.37435,"is_reserved":false,"is_disabled":false,"rental_uris":{"android":"levelo://app?vid=6293244a-a5ac-4bd3-abcc-130806d24645","ios":"levelo://app?vid=6293244a-a5ac-4bd3-abcc-130806d24645"},"vehicle_type_id":"4","last_reported":1743653553,"current_range_meters":2800,"station_id":"ce4bhgp2rcd13ifvqfc0","pricing_plan_id":"cebpf4jnsgd1na2vs0mg"},{"bike_id":"72a59223-7fbc-4af7-a727-ebdf00595f3e","system_id":"levelo_inurba_marseille","lat":43.241656,"lon":5.364008,"is_reserved":false,"is_disabled":false,"rental_uris":{"android":"levelo://app?vid=72a59223-7fbc-4af7-a727-ebdf00595f3e","ios":"levelo://app?vid=72a59223-7fbc-4af7-a727-ebdf00595f3e"},"vehicle_type_id":"4","last_reported":1743653553,"current_range_meters":3200,"station_id":"cpo36qri1sfpv3e86is0","pricing_plan_id":"cebpf4jnsgd1na2vs0mg"},{"bike_id":"f3cd4364-1d67-47a5-b548-5af17693b8f9","system_id":"levelo_inurba_marseille","lat":43.279682,"lon":5.387251,"is_reserved":false,"is_disabled":false,"rental_uris":{"android":"levelo://app?vid=f3cd4364-1d67-47a5-b548-5af17693b8f9","ios":"levelo://app?vid=f3cd4364-1d67-47a5-b548-5af17693b8f9"},"vehicle_type_id":"4","last_reported":1743653553,"current_range_meters":3200,"station_id":"ce4bhg12rcd13ifvqf80","pricing_plan_id":"cebpf4jnsgd1na2vs0mg"},{"bike_id":"66a6759f-f104-404f-ba35-7dd5d87e6d0b","system_id":"levelo_inurba_marseille","lat":43.30143,"lon":5.37703,"is_reserved":false,"is_disabled":false,"rental_uris":{"android":"levelo://app?vid=66a6759f-f104-404f-ba35-7dd5d87e6d0b","ios":"levelo://app?vid=66a6759f-f104-404f-ba35-7dd5d87e6d0b"},"vehicle_type_id":"4","last_reported":1743653553,"current_range_meters":3200,"station_id":"","pricing_plan_id":"cebpf4jnsgd1na2vs0mg"},{"bike_id":"f19d09c0-c570-4160-b74e-ebb29dd15cfa","system_id":"levelo_inurba_marseille","lat":43.30596,"lon":5.39355,"is_reserved":false,"is_disabled":false,"rental_uris":{"android":"levelo://app?vid=f19d09c0-c570-4160-b74e-ebb29dd15cfa","ios":"levelo://app?vid=f19d09c0-c570-4160-b74e-ebb29dd15cfa"},"vehicle_type_id":"4","last_reported":1743653553,"current_range_meters":3600,"station_id":"ce4bh0p2rcd13ifvqd80","pricing_plan_id":"cebpf4jnsgd1na2vs0mg"},{"bike_id":"e47bc61d-df2d-41b3-b26b-dd94e6e5e301","system_id":"levelo_inurba_marseille","lat":43.26227,"lon":5.42113,"is_reserved":false,"is_disabled":false,"rental_uris":{"android":"levelo://app?vid=e47bc61d-df2d-41b3-b26b-dd94e6e5e301","ios":"levelo://app?vid=e47bc61d-df2d-41b3-b26b-dd94e6e5e301"},"vehicle_type_id":"4","last_reported":1743653553,"current_range_meters":3600,"station_id":"","pricing_plan_id":"cebpf4jnsgd1na2vs0mg"},{"bike_id":"8dd59c1b-0099-418f-9b93-35fc591d4892","system_id":"levelo_inurba_marseille","lat":43.295898,"lon":5.387073,"is_reserved":false,"is_disabled":false,"rental_uris":{"android":"levelo://app?vid=8dd59c1b-0099-418f-9b93-35fc591d4892","ios":"levelo://app?vid=8dd59c1b-0099-418f-9b93-35fc591d4892"},"vehicle_type_id":"4","last_reported":1743653553,"current_range_meters":4000,"station_id":"","pricing_plan_id":"cebpf4jnsgd1na2vs0mg"},{"bike_id":"073f5d1a-5a78-4a02-8067-3e88e81ab3a3","system_id":"levelo_inurba_marseille","lat":43.2315,"lon":5.43722,"is_reserved":false,"is_disabled":false,"rental_uris":{"android":"levelo://app?vid=073f5d1a-5a78-4a02-8067-3e88e81ab3a3","ios":"levelo://app?vid=073f5d1a-5a78-4a02-8067-3e88e81ab3a3"},"vehicle_type_id":"4","last_reported":1743653553,"current_range_meters":4000,"station_id":"ce4bhmp2rcd13ifvqgog","pricing_plan_id":"cebpf4jnsgd1na2vs0mg"},{"bike_id":"e84bef4c-cced-4cd0-b180-0053717ac75e","system_id":"levelo_inurba_marseille","lat":43.287203,"lon":5.400001,"is_reserved":false,"is_disabled":true,"rental_uris":{"android":"levelo://app?vid=e84bef4c-cced-4cd0-b180-0053717ac75e","ios":"levelo://app?vid=e84bef4c-cced-4cd0-b180-0053717ac75e"},"vehicle_type_id":"4","last_reported":1743653553,"current_range_meters":4000,"station_id":"ce4bho92rcd13ifvqh3g","pricing_plan_id":"cebpf4jnsgd1na2vs0mg"},{"bike_id":"7bdf0d60-3026-4723-ac07-ebb25b9cf79f","system_id":"levelo_inurba_marseille","lat":43.287968,"lon":5.386734,"is_reserved":false,"is_disabled":false,"rental_uris":{"android":"levelo://app?vid=7bdf0d60-3026-4723-ac07-ebb25b9cf79f","ios":"levelo://app?vid=7bdf0d60-3026-4723-ac07-ebb25b9cf79f"},"vehicle_type_id":"4","last_reported":1743653553,"current_range_meters":4000,"station_id":"","pricing_plan_id":"cebpf4jnsgd1na2vs0mg"},{"bike_id":"fdd74cea-2420-4f5e-97f2-a48b67190c4e","system_id":"levelo_inurba_marseille","lat":43.337444,"lon":5.374475,"is_reserved":false,"is_disabled":false,"rental_uris":{"android":"levelo://app?vid=fdd74cea-2420-4f5e-97f2-a48b67190c4e","ios":"levelo://app?vid=fdd74cea-2420-4f5e-97f2-a48b67190c4e"},"vehicle_type_id":"4","last_reported":1743653553,"current_range_meters":4400,"station_id":"","pricing_plan_id":"cebpf4jnsgd1na2vs0mg"},{"bike_id":"4f1fb305-fdac-49af-98f8-e5ebaa4429a4","system_id":"levelo_inurba_marseille","lat":43.22937,"lon":5.35385,"is_reserved":false,"is_disabled":false,"rental_uris":{"android":"levelo://app?vid=4f1fb305-fdac-49af-98f8-e5ebaa4429a4","ios":"levelo://app?vid=4f1fb305-fdac-49af-98f8-e5ebaa4429a4"},"vehicle_type_id":"4","last_reported":1743653553,"current_range_meters":4800,"station_id":"cpo3532slgdg3j2ikp40","pricing_plan_id":"cebpf4jnsgd1na2vs0mg"},{"bike_id":"f06067fe-c409-49ce-b995-b28658dd37fb","system_id":"levelo_inurba_marseille","lat":43.28667,"lon":5.37372,"is_reserved":false,"is_disabled":true,"rental_uris":{"android":"levelo://app?vid=f06067fe-c409-49ce-b995-b28658dd37fb","ios":"levelo://app?vid=f06067fe-c409-49ce-b995-b28658dd37fb"},"vehicle_type_id":"4","last_reported":1743653553,"current_range_meters":5600,"station_id":"ce4bh3p2rcd13ifvqdq0","pricing_plan_id":"cebpf4jnsgd1na2vs0mg"},{"bike_id":"54cd2af6-bcec-4248-a5dc-b48416f47647","system_id":"levelo_inurba_marseille","lat":43.31076,"lon":5.383553,"is_reserved":false,"is_disabled":false,"rental_uris":{"android":"levelo://app?vid=54cd2af6-bcec-4248-a5dc-b48416f47647","ios":"levelo://app?vid=54cd2af6-bcec-4248-a5dc-b48416f47647"},"vehicle_type_id":"4","last_reported":1743653553,"current_range_meters":5600,"station_id":"ce4bgv92rcd13ifvqcr0","pricing_plan_id":"cebpf4jnsgd1na2vs0mg"},{"bike_id":"bb5f3859-0a76-41f0-b464-b3a2c78d4fe2","system_id":"levelo_inurba_marseille","lat":43.27937,"lon":5.41055,"is_reserved":false,"is_disabled":false,"rental_uris":{"android":"levelo://app?vid=bb5f3859-0a76-41f0-b464-b3a2c78d4fe2","ios":"levelo://app?vid=bb5f3859-0a76-41f0-b464-b3a2c78d4fe2"},"vehicle_type_id":"4","last_reported":1743653553,"current_range_meters":5600,"station_id":"ce4bhnp2rcd13ifvqh0g","pricing_plan_id":"cebpf4jnsgd1na2vs0mg"},{"bike_id":"48302313-0890-44fb-97d4-f7f3b5d44fd5","system_id":"levelo_inurba_marseille","lat":43.33096,"lon":5.40004,"is_reserved":false,"is_disabled":false,"rental_uris":{"android":"levelo://app?vid=48302313-0890-44fb-97d4-f7f3b5d44fd5","ios":"levelo://app?vid=48302313-0890-44fb-97d4-f7f3b5d44fd5"},"vehicle_type_id":"4","last_reported":1743653553,"current_range_meters":6000,"station_id":"","pricing_plan_id":"cebpf4jnsgd1na2vs0mg"},{"bike_id":"e4daa68e-c153-4839-8fed-72a96b8154c5","system_id":"levelo_inurba_marseille","lat":43.25006,"lon":5.38936,"is_reserved":false,"is_disabled":false,"rental_uris":{"android":"levelo://app?vid=e4daa68e-c153-4839-8fed-72a96b8154c5","ios":"levelo://app?vid=e4daa68e-c153-4839-8fed-72a96b8154c5"},"vehicle_type_id":"4","last_reported":1743653553,"current_range_meters":6000,"station_id":"ce4bhgp2rcd13ifvqfd0","pricing_plan_id":"cebpf4jnsgd1na2vs0mg"},{"bike_id":"1f1218d9-ebac-4975-84ee-2ba3e4d4bcb4","system_id":"levelo_inurba_marseille","lat":43.308719,"lon":5.377883,"is_reserved":false,"is_disabled":false,"rental_uris":{"android":"levelo://app?vid=1f1218d9-ebac-4975-84ee-2ba3e4d4bcb4","ios":"levelo://app?vid=1f1218d9-ebac-4975-84ee-2ba3e4d4bcb4"},"vehicle_type_id":"4","last_reported":1743653553,"current_range_meters":6000,"station_id":"","pricing_plan_id":"cebpf4jnsgd1na2vs0mg"},{"bike_id":"c7fed3df-9f92-4bd8-8a32-6e53e97269c2","system_id":"levelo_inurba_marseille","lat":43.30323,"lon":5.40474,"is_reserved":false,"is_disabled":false,"rental_uris":{"android":"levelo://app?vid=c7fed3df-9f92-4bd8-8a32-6e53e97269c2","ios":"levelo://app?vid=c7fed3df-9f92-4bd8-8a32-6e53e97269c2"},"vehicle_type_id":"4","last_reported":1743653553,"current_range_meters":6400,"station_id":"ce4bh012rcd13ifvqd10","pricing_plan_id":"cebpf4jnsgd1na2vs0mg"},{"bike_id":"be50f499-e747-40fa-9712-bd182fbc80f3","system_id":"levelo_inurba_marseille","lat":43.307985,"lon":5.381594,"is_reserved":false,"is_disabled":false,"rental_uris":{"android":"levelo://app?vid=be50f499-e747-40fa-9712-bd182fbc80f3","ios":"levelo://app?vid=be50f499-e747-40fa-9712-bd182fbc80f3"},"vehicle_type_id":"4","last_reported":1743653553,"current_range_meters":6400,"station_id":"ce4bgt12rcd13ifvqce0","pricing_plan_id":"cebpf4jnsgd1na2vs0mg"},{"bike_id":"e53f9db2-d75c-4594-8157-2926a2062b6f","system_id":"levelo_inurba_marseille","lat":43.284453,"lon":5.391954,"is_reserved":false,"is_disabled":true,"rental_uris":{"android":"levelo://app?vid=e53f9db2-d75c-4594-8157-2926a2062b6f","ios":"levelo://app?vid=e53f9db2-d75c-4594-8157-2926a2062b6f"},"vehicle_type_id":"4","last_reported":1743653553,"current_range_meters":6400,"station_id":"ce4bhoh2rcd13ifvqh5g","pricing_plan_id":"cebpf4jnsgd1na2vs0mg"},{"bike_id":"3e5329f3-c0cd-422c-afb1-2f46242590da","system_id":"levelo_inurba_marseille","lat":43.319168,"lon":5.37555,"is_reserved":false,"is_disabled":false,"rental_uris":{"android":"levelo://app?vid=3e5329f3-c0cd-422c-afb1-2f46242590da","ios":"levelo://app?vid=3e5329f3-c0cd-422c-afb1-2f46242590da"},"vehicle_type_id":"4","last_reported":1743653553,"current_range_meters":6400,"station_id":"","pricing_plan_id":"cebpf4jnsgd1na2vs0mg"},{"bike_id":"4f1c00e5-a79d-4f0b-ab4e-3bd2b06e7d2e","system_id":"levelo_inurba_marseille","lat":43.23056,"lon":5.35516,"is_reserved":false,"is_disabled":false,"rental_uris":{"android":"levelo://app?vid=4f1c00e5-a79d-4f0b-ab4e-3bd2b06e7d2e","ios":"levelo://app?vid=4f1c00e5-a79d-4f0b-ab4e-3bd2b06e7d2e"},"vehicle_type_id":"4","last_reported":1743653553,"current_range_meters":6400,"station_id":"cpo3342slgdg3j2ifvpg","pricing_plan_id":"cebpf4jnsgd1na2vs0mg"},{"bike_id":"f9673cab-6059-41ca-ac23-c7c79ef400b8","system_id":"levelo_inurba_marseille","lat":43.265691,"lon":5.390071,"is_reserved":false,"is_disabled":false,"rental_uris":{"android":"levelo://app?vid=f9673cab-6059-41ca-ac23-c7c79ef400b8","ios":"levelo://app?vid=f9673cab-6059-41ca-ac23-c7c79ef400b8"},"vehicle_type_id":"4","last_reported":1743653553,"current_range_meters":6800,"station_id":"ce4bhe12rcd13ifvqf30","pricing_plan_id":"cebpf4jnsgd1na2vs0mg"},{"bike_id":"951bf505-d040-4448-9c96-153485f2e62d","system_id":"levelo_inurba_marseille","lat":43.28405,"lon":5.37517,"is_reserved":false,"is_disabled":false,"rental_uris":{"android":"levelo://app?vid=951bf505-d040-4448-9c96-153485f2e62d","ios":"levelo://app?vid=951bf505-d040-4448-9c96-153485f2e62d"},"vehicle_type_id":"4","last_reported":1743653553,"current_range_meters":6800,"station_id":"ce4bh412rcd13ifvqds0","pricing_plan_id":"cebpf4jnsgd1na2vs0mg"},{"bike_id":"a37ba079-4ccc-43bf-b918-b876a550e8db","system_id":"levelo_inurba_marseille","lat":43.25573,"lon":5.3826,"is_reserved":false,"is_disabled":false,"rental_uris":{"android":"levelo://app?vid=a37ba079-4ccc-43bf-b918-b876a550e8db","ios":"levelo://app?vid=a37ba079-4ccc-43bf-b918-b876a550e8db"},"vehicle_type_id":"4","last_reported":1743653553,"current_range_meters":6800,"station_id":"ce4bhih2rcd13ifvqfs0","pricing_plan_id":"cebpf4jnsgd1na2vs0mg"},{"bike_id":"f55695a6-b65f-4a30-99ab-94b2bfa63268","system_id":"levelo_inurba_marseille","lat":43.23194,"lon":5.35551,"is_reserved":false,"is_disabled":false,"rental_uris":{"android":"levelo://app?vid=f55695a6-b65f-4a30-99ab-94b2bfa63268","ios":"levelo://app?vid=f55695a6-b65f-4a30-99ab-94b2bfa63268"},"vehicle_type_id":"4","last_reported":1743653553,"current_range_meters":6800,"station_id":"ce4bhu92rcd13ifvqi70","pricing_plan_id":"cebpf4jnsgd1na2vs0mg"},{"bike_id":"49775550-6b97-465e-b5f4-9eeea68a7b10","system_id":"levelo_inurba_marseille","lat":43.27908,"lon":5.39596,"is_reserved":false,"is_disabled":false,"rental_uris":{"android":"levelo://app?vid=49775550-6b97-465e-b5f4-9eeea68a7b10","ios":"levelo://app?vid=49775550-6b97-465e-b5f4-9eeea68a7b10"},"vehicle_type_id":"4","last_reported":1743653553,"current_range_meters":6800,"station_id":"ce4bhf92rcd13ifvqf40","pricing_plan_id":"cebpf4jnsgd1na2vs0mg"},{"bike_id":"d6c81a00-cf24-47bc-81aa-99e15d303460","system_id":"levelo_inurba_marseille","lat":43.271759,"lon":5.409916,"is_reserved":false,"is_disabled":false,"rental_uris":{"android":"levelo://app?vid=d6c81a00-cf24-47bc-81aa-99e15d303460","ios":"levelo://app?vid=d6c81a00-cf24-47bc-81aa-99e15d303460"},"vehicle_type_id":"4","last_reported":1743653553,"current_range_meters":6800,"station_id":"ce4bhl12rcd13ifvqgf0","pricing_plan_id":"cebpf4jnsgd1na2vs0mg"},{"bike_id":"1c7ea303-0f0b-477c-a6b0-56cc00a9de10","system_id":"levelo_inurba_marseille","lat":43.32367,"lon":5.38903,"is_reserved":false,"is_disabled":false,"rental_uris":{"android":"levelo://app?vid=1c7ea303-0f0b-477c-a6b0-56cc00a9de10","ios":"levelo://app?vid=1c7ea303-0f0b-477c-a6b0-56cc00a9de10"},"vehicle_type_id":"4","last_reported":1743653553,"current_range_meters":6800,"station_id":"ce4bhqp2rcd13ifvqhog","pricing_plan_id":"cebpf4jnsgd1na2vs0mg"},{"bike_id":"9aa2396c-cf44-4f57-b912-002230e52c07","system_id":"levelo_inurba_marseille","lat":43.27656,"lon":5.3959,"is_reserved":false,"is_disabled":false,"rental_uris":{"android":"levelo://app?vid=9aa2396c-cf44-4f57-b912-002230e52c07","ios":"levelo://app?vid=9aa2396c-cf44-4f57-b912-002230e52c07"},"vehicle_type_id":"4","last_reported":1743653553,"current_range_meters":6800,"station_id":"","pricing_plan_id":"cebpf4jnsgd1na2vs0mg"},{"bike_id":"249d9c4c-d204-4c88-b810-3e2ec60384b0","system_id":"levelo_inurba_marseille","lat":43.30592,"lon":5.39357,"is_reserved":false,"is_disabled":false,"rental_uris":{"android":"levelo://app?vid=249d9c4c-d204-4c88-b810-3e2ec60384b0","ios":"levelo://app?vid=249d9c4c-d204-4c88-b810-3e2ec60384b0"},"vehicle_type_id":"4","last_reported":1743653553,"current_range_meters":7200,"station_id":"ce4bh0p2rcd13ifvqd80","pricing_plan_id":"cebpf4jnsgd1na2vs0mg"},{"bike_id":"d95697ce-eb61-4237-997e-ce97956aff13","system_id":"levelo_inurba_marseille","lat":43.22923,"lon":5.35394,"is_reserved":false,"is_disabled":false,"rental_uris":{"android":"levelo://app?vid=d95697ce-eb61-4237-997e-ce97956aff13","ios":"levelo://app?vid=d95697ce-eb61-4237-997e-ce97956aff13"},"vehicle_type_id":"4","last_reported":1743653553,"current_range_meters":7200,"station_id":"cpo3532slgdg3j2ikp40","pricing_plan_id":"cebpf4jnsgd1na2vs0mg"},{"bike_id":"1bf4a72f-168a-4a92-980e-4bdc109c902f","system_id":"levelo_inurba_marseille","lat":43.281016,"lon":5.378338,"is_reserved":false,"is_disabled":false,"rental_uris":{"android":"levelo://app?vid=1bf4a72f-168a-4a92-980e-4bdc109c902f","ios":"levelo://app?vid=1bf4a72f-168a-4a92-980e-4bdc109c902f"},"vehicle_type_id":"4","last_reported":1743653553,"current_range_meters":7200,"station_id":"ce4bha12rcd13ifvqee0","pricing_plan_id":"cebpf4jnsgd1na2vs0mg"},{"bike_id":"8d5b971e-28a3-40d2-975a-686cbf6dfadd","system_id":"levelo_inurba_marseille","lat":43.29539,"lon":5.42304,"is_reserved":false,"is_disabled":false,"rental_uris":{"android":"levelo://app?vid=8d5b971e-28a3-40d2-975a-686cbf6dfadd","ios":"levelo://app?vid=8d5b971e-28a3-40d2-975a-686cbf6dfadd"},"vehicle_type_id":"4","last_reported":1743653553,"current_range_meters":7200,"station_id":"ce4bhph2rcd13ifvqhdg","pricing_plan_id":"cebpf4jnsgd1na2vs0mg"},{"bike_id":"d569352a-1078-43df-8ab1-6877d4e124ee","system_id":"levelo_inurba_marseille","lat":43.280816,"lon":5.396514,"is_reserved":false,"is_disabled":false,"rental_uris":{"android":"levelo://app?vid=d569352a-1078-43df-8ab1-6877d4e124ee","ios":"levelo://app?vid=d569352a-1078-43df-8ab1-6877d4e124ee"},"vehicle_type_id":"4","last_reported":1743653553,"current_range_meters":7200,"station_id":"ce4bho12rcd13ifvqh2g","pricing_plan_id":"cebpf4jnsgd1na2vs0mg"},{"bike_id":"2cf61775-cb21-4b86-a7af-7925ef8f8bd8","system_id":"levelo_inurba_marseille","lat":43.229344,"lon":5.353859,"is_reserved":false,"is_disabled":false,"rental_uris":{"android":"levelo://app?vid=2cf61775-cb21-4b86-a7af-7925ef8f8bd8","ios":"levelo://app?vid=2cf61775-cb21-4b86-a7af-7925ef8f8bd8"},"vehicle_type_id":"4","last_reported":1743653553,"current_range_meters":7200,"station_id":"cpo3532slgdg3j2ikp40","pricing_plan_id":"cebpf4jnsgd1na2vs0mg"},{"bike_id":"4b44f39c-5bb2-424a-891d-855ab4adfcfa","system_id":"levelo_inurba_marseille","lat":43.301268,"lon":5.387801,"is_reserved":false,"is_disabled":true,"rental_uris":{"android":"levelo://app?vid=4b44f39c-5bb2-424a-891d-855ab4adfcfa","ios":"levelo://app?vid=4b44f39c-5bb2-424a-891d-855ab4adfcfa"},"vehicle_type_id":"4","last_reported":1743653553,"current_range_meters":7200,"station_id":"ce4bghh2rcd13ifvqb60","pricing_plan_id":"cebpf4jnsgd1na2vs0mg"},{"bike_id":"d3345442-2654-4ddc-b869-fce22decea38","system_id":"levelo_inurba_marseille","lat":43.230566,"lon":5.354941,"is_reserved":false,"is_disabled":false,"rental_uris":{"android":"levelo://app?vid=d3345442-2654-4ddc-b869-fce22decea38","ios":"levelo://app?vid=d3345442-2654-4ddc-b869-fce22decea38"},"vehicle_type_id":"4","last_reported":1743653553,"current_range_meters":7200,"station_id":"cpo3342slgdg3j2ifvpg","pricing_plan_id":"cebpf4jnsgd1na2vs0mg"},{"bike_id":"620ba5da-f370-42b9-a07c-a3aa9a4ecc81","system_id":"levelo_inurba_marseille","lat":43.28422,"lon":5.37541,"is_reserved":false,"is_disabled":false,"rental_uris":{"android":"levelo://app?vid=620ba5da-f370-42b9-a07c-a3aa9a4ecc81","ios":"levelo://app?vid=620ba5da-f370-42b9-a07c-a3aa9a4ecc81"},"vehicle_type_id":"4","last_reported":1743653553,"current_range_meters":7200,"station_id":"ce4bh412rcd13ifvqds0","pricing_plan_id":"cebpf4jnsgd1na2vs0mg"},{"bike_id":"988a4b2a-1fca-4561-9342-57ad8b6adb1c","system_id":"levelo_inurba_marseille","lat":43.22923,"lon":5.35388,"is_reserved":false,"is_disabled":false,"rental_uris":{"android":"levelo://app?vid=988a4b2a-1fca-4561-9342-57ad8b6adb1c","ios":"levelo://app?vid=988a4b2a-1fca-4561-9342-57ad8b6adb1c"},"vehicle_type_id":"4","last_reported":1743653553,"current_range_meters":8000,"station_id":"cpo3532slgdg3j2ikp40","pricing_plan_id":"cebpf4jnsgd1na2vs0mg"},{"bike_id":"b80ee275-2592-4659-b2e9-175feb839700","system_id":"levelo_inurba_marseille","lat":43.232031,"lon":5.355578,"is_reserved":false,"is_disabled":false,"rental_uris":{"android":"levelo://app?vid=b80ee275-2592-4659-b2e9-175feb839700","ios":"levelo://app?vid=b80ee275-2592-4659-b2e9-175feb839700"},"vehicle_type_id":"4","last_reported":1743653553,"current_range_meters":8000,"station_id":"ce4bhu92rcd13ifvqi70","pricing_plan_id":"cebpf4jnsgd1na2vs0mg"},{"bike_id":"d157a8ac-f1ea-480a-a1ee-9ac00962bb01","system_id":"levelo_inurba_marseille","lat":43.29547,"lon":5.42282,"is_reserved":false,"is_disabled":false,"rental_uris":{"android":"levelo://app?vid=d157a8ac-f1ea-480a-a1ee-9ac00962bb01","ios":"levelo://app?vid=d157a8ac-f1ea-480a-a1ee-9ac00962bb01"},"vehicle_type_id":"4","last_reported":1743653553,"current_range_meters":8000,"station_id":"ce4bhph2rcd13ifvqhdg","pricing_plan_id":"cebpf4jnsgd1na2vs0mg"},{"bike_id":"4e8e0366-ced4-4bd3-8559-c7b58fbb6e6e","system_id":"levelo_inurba_marseille","lat":43.303191,"lon":5.404406,"is_reserved":false,"is_disabled":false,"rental_uris":{"android":"levelo://app?vid=4e8e0366-ced4-4bd3-8559-c7b58fbb6e6e","ios":"levelo://app?vid=4e8e0366-ced4-4bd3-8559-c7b58fbb6e6e"},"vehicle_type_id":"4","last_reported":1743653553,"current_range_meters":8000,"station_id":"ce4bh012rcd13ifvqd10","pricing_plan_id":"cebpf4jnsgd1na2vs0mg"},{"bike_id":"d4155068-a13c-4154-af0d-79fb0e0d2505","system_id":"levelo_inurba_marseille","lat":43.28461,"lon":5.35886,"is_reserved":false,"is_disabled":false,"rental_uris":{"android":"levelo://app?vid=d4155068-a13c-4154-af0d-79fb0e0d2505","ios":"levelo://app?vid=d4155068-a13c-4154-af0d-79fb0e0d2505"},"vehicle_type_id":"4","last_reported":1743653553,"current_range_meters":8000,"station_id":"ce4bhah2rcd13ifvqei0","pricing_plan_id":"cebpf4jnsgd1na2vs0mg"},{"bike_id":"25ca8d82-bcbb-49e7-a72d-c5ab0e3f3626","system_id":"levelo_inurba_marseille","lat":43.30259,"lon":5.40062,"is_reserved":false,"is_disabled":false,"rental_uris":{"android":"levelo://app?vid=25ca8d82-bcbb-49e7-a72d-c5ab0e3f3626","ios":"levelo://app?vid=25ca8d82-bcbb-49e7-a72d-c5ab0e3f3626"},"vehicle_type_id":"4","last_reported":1743653553,"current_range_meters":8000,"station_id":"ce4bgvh2rcd13ifvqcs0","pricing_plan_id":"cebpf4jnsgd1na2vs0mg"},{"bike_id":"1e56f8b0-0569-43fd-956b-7c3d45c8ba02","system_id":"levelo_inurba_marseille","lat":43.293203,"lon":5.411566,"is_reserved":false,"is_disabled":false,"rental_uris":{"android":"levelo://app?vid=1e56f8b0-0569-43fd-956b-7c3d45c8ba02","ios":"levelo://app?vid=1e56f8b0-0569-43fd-956b-7c3d45c8ba02"},"vehicle_type_id":"4","last_reported":1743653553,"current_range_meters":8000,"station_id":"","pricing_plan_id":"cebpf4jnsgd1na2vs0mg"},{"bike_id":"270b1cda-2991-4f58-9004-8b028cb4ae2e","system_id":"levelo_inurba_marseille","lat":43.27898,"lon":5.38004,"is_reserved":false,"is_disabled":false,"rental_uris":{"android":"levelo://app?vid=270b1cda-2991-4f58-9004-8b028cb4ae2e","ios":"levelo://app?vid=270b1cda-2991-4f58-9004-8b028cb4ae2e"},"vehicle_type_id":"4","last_reported":1743653553,"current_range_meters":8000,"station_id":"ce4bhf92rcd13ifvqf50","pricing_plan_id":"cebpf4jnsgd1na2vs0mg"},{"bike_id":"bedb9418-da38-4799-a541-d6651335dd1d","system_id":"levelo_inurba_marseille","lat":43.27182,"lon":5.40982,"is_reserved":false,"is_disabled":false,"rental_uris":{"android":"levelo://app?vid=bedb9418-da38-4799-a541-d6651335dd1d","ios":"levelo://app?vid=bedb9418-da38-4799-a541-d6651335dd1d"},"vehicle_type_id":"4","last_reported":1743653553,"current_range_meters":8000,"station_id":"ce4bhl12rcd13ifvqgf0","pricing_plan_id":"cebpf4jnsgd1na2vs0mg"},{"bike_id":"5ac338a9-5dc2-4b4f-afba-1814cc6e9c23","system_id":"levelo_inurba_marseille","lat":43.26229,"lon":5.40443,"is_reserved":false,"is_disabled":false,"rental_uris":{"android":"levelo://app?vid=5ac338a9-5dc2-4b4f-afba-1814cc6e9c23","ios":"levelo://app?vid=5ac338a9-5dc2-4b4f-afba-1814cc6e9c23"},"vehicle_type_id":"4","last_reported":1743653553,"current_range_meters":8000,"station_id":"ce4bhmh2rcd13ifvqgmg","pricing_plan_id":"cebpf4jnsgd1na2vs0mg"},{"bike_id":"ad0701ee-14d6-40ee-9cc0-de39a686153f","system_id":"levelo_inurba_marseille","lat":43.28707,"lon":5.40023,"is_reserved":false,"is_disabled":false,"rental_uris":{"android":"levelo://app?vid=ad0701ee-14d6-40ee-9cc0-de39a686153f","ios":"levelo://app?vid=ad0701ee-14d6-40ee-9cc0-de39a686153f"},"vehicle_type_id":"4","last_reported":1743653553,"current_range_meters":8000,"station_id":"ce4bho92rcd13ifvqh3g","pricing_plan_id":"cebpf4jnsgd1na2vs0mg"},{"bike_id":"f103e6d0-67b4-446b-a81f-9e09dc680270","system_id":"levelo_inurba_marseille","lat":43.281014,"lon":5.378474,"is_reserved":false,"is_disabled":false,"rental_uris":{"android":"levelo://app?vid=f103e6d0-67b4-446b-a81f-9e09dc680270","ios":"levelo://app?vid=f103e6d0-67b4-446b-a81f-9e09dc680270"},"vehicle_type_id":"4","last_reported":1743653553,"current_range_meters":8000,"station_id":"ce4bha12rcd13ifvqee0","pricing_plan_id":"cebpf4jnsgd1na2vs0mg"},{"bike_id":"04556df8-715f-45d8-b288-9c8fd51282f9","system_id":"levelo_inurba_marseille","lat":43.23193,"lon":5.35587,"is_reserved":false,"is_disabled":false,"rental_uris":{"android":"levelo://app?vid=04556df8-715f-45d8-b288-9c8fd51282f9","ios":"levelo://app?vid=04556df8-715f-45d8-b288-9c8fd51282f9"},"vehicle_type_id":"4","last_reported":1743653553,"current_range_meters":8400,"station_id":"ce4bhu92rcd13ifvqi70","pricing_plan_id":"cebpf4jnsgd1na2vs0mg"},{"bike_id":"b52eafbb-0fdc-487b-b3ce-3a3f8cf7e638","system_id":"levelo_inurba_marseille","lat":43.331149,"lon":5.392399,"is_reserved":false,"is_disabled":false,"rental_uris":{"android":"levelo://app?vid=b52eafbb-0fdc-487b-b3ce-3a3f8cf7e638","ios":"levelo://app?vid=b52eafbb-0fdc-487b-b3ce-3a3f8cf7e638"},"vehicle_type_id":"4","last_reported":1743653553,"current_range_meters":8400,"station_id":"","pricing_plan_id":"cebpf4jnsgd1na2vs0mg"},{"bike_id":"f87e996c-206a-47d9-8697-84a2d463fdc3","system_id":"levelo_inurba_marseille","lat":43.231949,"lon":5.355596,"is_reserved":false,"is_disabled":false,"rental_uris":{"android":"levelo://app?vid=f87e996c-206a-47d9-8697-84a2d463fdc3","ios":"levelo://app?vid=f87e996c-206a-47d9-8697-84a2d463fdc3"},"vehicle_type_id":"4","last_reported":1743653553,"current_range_meters":8400,"station_id":"ce4bhu92rcd13ifvqi70","pricing_plan_id":"cebpf4jnsgd1na2vs0mg"},{"bike_id":"920f6ca0-0606-4d4f-8258-619f9f19df50","system_id":"levelo_inurba_marseille","lat":43.28909,"lon":5.38411,"is_reserved":false,"is_disabled":true,"rental_uris":{"android":"levelo://app?vid=920f6ca0-0606-4d4f-8258-619f9f19df50","ios":"levelo://app?vid=920f6ca0-0606-4d4f-8258-619f9f19df50"},"vehicle_type_id":"4","last_reported":1743653553,"current_range_meters":8400,"station_id":"ce4bh612rcd13ifvqe6g","pricing_plan_id":"cebpf4jnsgd1na2vs0mg"},{"bike_id":"6e6a66e5-58ca-4db1-9695-b46ed5c28827","system_id":"levelo_inurba_marseille","lat":43.31808,"lon":5.36826,"is_reserved":false,"is_disabled":false,"rental_uris":{"android":"levelo://app?vid=6e6a66e5-58ca-4db1-9695-b46ed5c28827","ios":"levelo://app?vid=6e6a66e5-58ca-4db1-9695-b46ed5c28827"},"vehicle_type_id":"4","last_reported":1743653553,"current_range_meters":8400,"station_id":"","pricing_plan_id":"cebpf4jnsgd1na2vs0mg"},{"bike_id":"68907b43-53b6-4378-90a0-f0932ed718b2","system_id":"levelo_inurba_marseille","lat":43.29184,"lon":5.39321,"is_reserved":false,"is_disabled":false,"rental_uris":{"android":"levelo://app?vid=68907b43-53b6-4378-90a0-f0932ed718b2","ios":"levelo://app?vid=68907b43-53b6-4378-90a0-f0932ed718b2"},"vehicle_type_id":"4","last_reported":1743653553,"current_range_meters":8400,"station_id":"ce4bh192rcd13ifvqdd0","pricing_plan_id":"cebpf4jnsgd1na2vs0mg"},{"bike_id":"a112ce08-6f4e-41f2-873e-94895f2e1506","system_id":"levelo_inurba_marseille","lat":43.27666,"lon":5.38919,"is_reserved":false,"is_disabled":true,"rental_uris":{"android":"levelo://app?vid=a112ce08-6f4e-41f2-873e-94895f2e1506","ios":"levelo://app?vid=a112ce08-6f4e-41f2-873e-94895f2e1506"},"vehicle_type_id":"4","last_reported":1743653553,"current_range_meters":8400,"station_id":"ce4bhi12rcd13ifvqfo0","pricing_plan_id":"cebpf4jnsgd1na2vs0mg"},{"bike_id":"1cc56aae-45a2-4fff-b1a7-9e957e7043f2","system_id":"levelo_inurba_marseille","lat":43.28702,"lon":5.3741,"is_reserved":false,"is_disabled":false,"rental_uris":{"android":"levelo://app?vid=1cc56aae-45a2-4fff-b1a7-9e957e7043f2","ios":"levelo://app?vid=1cc56aae-45a2-4fff-b1a7-9e957e7043f2"},"vehicle_type_id":"4","last_reported":1743653553,"current_range_meters":8400,"station_id":"ce4bh3p2rcd13ifvqdq0","pricing_plan_id":"cebpf4jnsgd1na2vs0mg"},{"bike_id":"49428efe-bbd8-4963-9aaf-ed822fd5c61b","system_id":"levelo_inurba_marseille","lat":43.292,"lon":5.44414,"is_reserved":false,"is_disabled":false,"rental_uris":{"android":"levelo://app?vid=49428efe-bbd8-4963-9aaf-ed822fd5c61b","ios":"levelo://app?vid=49428efe-bbd8-4963-9aaf-ed822fd5c61b"},"vehicle_type_id":"4","last_reported":1743653553,"current_range_meters":8400,"station_id":"","pricing_plan_id":"cebpf4jnsgd1na2vs0mg"},{"bike_id":"63c4b692-11d8-4e7d-9e8c-711008a6e953","system_id":"levelo_inurba_marseille","lat":43.30207,"lon":5.39986,"is_reserved":false,"is_disabled":false,"rental_uris":{"android":"levelo://app?vid=63c4b692-11d8-4e7d-9e8c-711008a6e953","ios":"levelo://app?vid=63c4b692-11d8-4e7d-9e8c-711008a6e953"},"vehicle_type_id":"4","last_reported":1743653553,"current_range_meters":8400,"station_id":"","pricing_plan_id":"cebpf4jnsgd1na2vs0mg"},{"bike_id":"546380d0-0813-4737-817f-a21e056e8d2e","system_id":"levelo_inurba_marseille","lat":43.32374,"lon":5.36767,"is_reserved":false,"is_disabled":false,"rental_uris":{"android":"levelo://app?vid=546380d0-0813-4737-817f-a21e056e8d2e","ios":"levelo://app?vid=546380d0-0813-4737-817f-a21e056e8d2e"},"vehicle_type_id":"4","last_reported":1743653553,"current_range_meters":8400,"station_id":"ce4bhsh2rcd13ifvqi2g","pricing_plan_id":"cebpf4jnsgd1na2vs0mg"},{"bike_id":"63bb044e-fd05-4a43-97e1-effab21e1a61","system_id":"levelo_inurba_marseille","lat":43.265581,"lon":5.372801,"is_reserved":false,"is_disabled":false,"rental_uris":{"android":"levelo://app?vid=63bb044e-fd05-4a43-97e1-effab21e1a61","ios":"levelo://app?vid=63bb044e-fd05-4a43-97e1-effab21e1a61"},"vehicle_type_id":"4","last_reported":1743653553,"current_range_meters":8400,"station_id":"ce4bhg12rcd13ifvqf70","pricing_plan_id":"cebpf4jnsgd1na2vs0mg"},{"bike_id":"8d2c5831-5cdd-4f87-8589-2d34f0df351b","system_id":"levelo_inurba_marseille","lat":43.33015,"lon":5.39059,"is_reserved":false,"is_disabled":false,"rental_uris":{"android":"levelo://app?vid=8d2c5831-5cdd-4f87-8589-2d34f0df351b","ios":"levelo://app?vid=8d2c5831-5cdd-4f87-8589-2d34f0df351b"},"vehicle_type_id":"4","last_reported":1743653553,"current_range_meters":8400,"station_id":"ce4bhr92rcd13ifvqhrg","pricing_plan_id":"cebpf4jnsgd1na2vs0mg"},{"bike_id":"2e1d0491-8046-4a1c-910c-6d230f4ca468","system_id":"levelo_inurba_marseille","lat":43.306674,"lon":5.373769,"is_reserved":false,"is_disabled":false,"rental_uris":{"android":"levelo://app?vid=2e1d0491-8046-4a1c-910c-6d230f4ca468","ios":"levelo://app?vid=2e1d0491-8046-4a1c-910c-6d230f4ca468"},"vehicle_type_id":"4","last_reported":1743653553,"current_range_meters":8400,"station_id":"","pricing_plan_id":"cebpf4jnsgd1na2vs0mg"},{"bike_id":"1006235b-1c25-4d94-97c7-b9bd84d28baf","system_id":"levelo_inurba_marseille","lat":43.311796,"lon":5.382389,"is_reserved":false,"is_disabled":false,"rental_uris":{"android":"levelo://app?vid=1006235b-1c25-4d94-97c7-b9bd84d28baf","ios":"levelo://app?vid=1006235b-1c25-4d94-97c7-b9bd84d28baf"},"vehicle_type_id":"4","last_reported":1743653553,"current_range_meters":8800,"station_id":"","pricing_plan_id":"cebpf4jnsgd1na2vs0mg"},{"bike_id":"cc48d5f7-d01f-4444-b9a7-452fba1c832b","system_id":"levelo_inurba_marseille","lat":43.28713,"lon":5.39997,"is_reserved":false,"is_disabled":false,"rental_uris":{"android":"levelo://app?vid=cc48d5f7-d01f-4444-b9a7-452fba1c832b","ios":"levelo://app?vid=cc48d5f7-d01f-4444-b9a7-452fba1c832b"},"vehicle_type_id":"4","last_reported":1743653553,"current_range_meters":8800,"station_id":"ce4bho92rcd13ifvqh3g","pricing_plan_id":"cebpf4jnsgd1na2vs0mg"},{"bike_id":"1aff6b34-2de5-409e-acb1-12114a2a43e3","system_id":"levelo_inurba_marseille","lat":43.28146,"lon":5.42655,"is_reserved":false,"is_disabled":false,"rental_uris":{"android":"levelo://app?vid=1aff6b34-2de5-409e-acb1-12114a2a43e3","ios":"levelo://app?vid=1aff6b34-2de5-409e-acb1-12114a2a43e3"},"vehicle_type_id":"4","last_reported":1743653553,"current_range_meters":8800,"station_id":"ce4bhnh2rcd13ifvqgug","pricing_plan_id":"cebpf4jnsgd1na2vs0mg"},{"bike_id":"d97c6895-9a58-42bd-9edc-053f218b5b60","system_id":"levelo_inurba_marseille","lat":43.29556,"lon":5.36363,"is_reserved":false,"is_disabled":false,"rental_uris":{"android":"levelo://app?vid=d97c6895-9a58-42bd-9edc-053f218b5b60","ios":"levelo://app?vid=d97c6895-9a58-42bd-9edc-053f218b5b60"},"vehicle_type_id":"4","last_reported":1743653553,"current_range_meters":8800,"station_id":"","pricing_plan_id":"cebpf4jnsgd1na2vs0mg"},{"bike_id":"f8dc6029-025c-47cd-8921-5ce023e19c20","system_id":"levelo_inurba_marseille","lat":43.319911,"lon":5.381562,"is_reserved":false,"is_disabled":false,"rental_uris":{"android":"levelo://app?vid=f8dc6029-025c-47cd-8921-5ce023e19c20","ios":"levelo://app?vid=f8dc6029-025c-47cd-8921-5ce023e19c20"},"vehicle_type_id":"4","last_reported":1743653553,"current_range_meters":8800,"station_id":"ce4bhr12rcd13ifvqhpg","pricing_plan_id":"cebpf4jnsgd1na2vs0mg"},{"bike_id":"f4b3c781-c46b-42d3-9ff9-fac436734dd4","system_id":"levelo_inurba_marseille","lat":43.30873,"lon":5.39714,"is_reserved":false,"is_disabled":false,"rental_uris":{"android":"levelo://app?vid=f4b3c781-c46b-42d3-9ff9-fac436734dd4","ios":"levelo://app?vid=f4b3c781-c46b-42d3-9ff9-fac436734dd4"},"vehicle_type_id":"4","last_reported":1743653553,"current_range_meters":8800,"station_id":"ce4bh012rcd13ifvqcv0","pricing_plan_id":"cebpf4jnsgd1na2vs0mg"},{"bike_id":"75dae32f-059a-4b5b-a5e8-963c6eda2f66","system_id":"levelo_inurba_marseille","lat":43.27519,"lon":5.41014,"is_reserved":false,"is_disabled":false,"rental_uris":{"android":"levelo://app?vid=75dae32f-059a-4b5b-a5e8-963c6eda2f66","ios":"levelo://app?vid=75dae32f-059a-4b5b-a5e8-963c6eda2f66"},"vehicle_type_id":"4","last_reported":1743653553,"current_range_meters":8800,"station_id":"","pricing_plan_id":"cebpf4jnsgd1na2vs0mg"},{"bike_id":"7ba67d0a-4dd2-434e-9233-c217be617343","system_id":"levelo_inurba_marseille","lat":43.33774,"lon":5.374595,"is_reserved":false,"is_disabled":false,"rental_uris":{"android":"levelo://app?vid=7ba67d0a-4dd2-434e-9233-c217be617343","ios":"levelo://app?vid=7ba67d0a-4dd2-434e-9233-c217be617343"},"vehicle_type_id":"4","last_reported":1743653553,"current_range_meters":9200,"station_id":"","pricing_plan_id":"cebpf4jnsgd1na2vs0mg"},{"bike_id":"a4d6c0ce-d5fd-4ac9-98cc-4bef6acfd763","system_id":"levelo_inurba_marseille","lat":43.30874,"lon":5.39673,"is_reserved":false,"is_disabled":false,"rental_uris":{"android":"levelo://app?vid=a4d6c0ce-d5fd-4ac9-98cc-4bef6acfd763","ios":"levelo://app?vid=a4d6c0ce-d5fd-4ac9-98cc-4bef6acfd763"},"vehicle_type_id":"4","last_reported":1743653553,"current_range_meters":9200,"station_id":"ce4bh012rcd13ifvqcv0","pricing_plan_id":"cebpf4jnsgd1na2vs0mg"},{"bike_id":"7514852b-340a-4392-a4d2-9a84e0d03998","system_id":"levelo_inurba_marseille","lat":43.33284,"lon":5.39692,"is_reserved":false,"is_disabled":false,"rental_uris":{"android":"levelo://app?vid=7514852b-340a-4392-a4d2-9a84e0d03998","ios":"levelo://app?vid=7514852b-340a-4392-a4d2-9a84e0d03998"},"vehicle_type_id":"4","last_reported":1743653553,"current_range_meters":9200,"station_id":"","pricing_plan_id":"cebpf4jnsgd1na2vs0mg"},{"bike_id":"32a978e0-d0c2-43d4-9b03-19a5c41c27de","system_id":"levelo_inurba_marseille","lat":43.310742,"lon":5.383458,"is_reserved":false,"is_disabled":true,"rental_uris":{"android":"levelo://app?vid=32a978e0-d0c2-43d4-9b03-19a5c41c27de","ios":"levelo://app?vid=32a978e0-d0c2-43d4-9b03-19a5c41c27de"},"vehicle_type_id":"4","last_reported":1743653553,"current_range_meters":9200,"station_id":"ce4bgv92rcd13ifvqcr0","pricing_plan_id":"cebpf4jnsgd1na2vs0mg"},{"bike_id":"c7bcfcce-85fd-402f-9f72-d5775fbcd6d4","system_id":"levelo_inurba_marseille","lat":43.28467,"lon":5.35928,"is_reserved":false,"is_disabled":false,"rental_uris":{"android":"levelo://app?vid=c7bcfcce-85fd-402f-9f72-d5775fbcd6d4","ios":"levelo://app?vid=c7bcfcce-85fd-402f-9f72-d5775fbcd6d4"},"vehicle_type_id":"4","last_reported":1743653553,"current_range_meters":9200,"station_id":"","pricing_plan_id":"cebpf4jnsgd1na2vs0mg"},{"bike_id":"82be00d7-07cd-447f-a119-c8efb6be13a1","system_id":"levelo_inurba_marseille","lat":43.323651,"lon":5.388853,"is_reserved":false,"is_disabled":false,"rental_uris":{"android":"levelo://app?vid=82be00d7-07cd-447f-a119-c8efb6be13a1","ios":"levelo://app?vid=82be00d7-07cd-447f-a119-c8efb6be13a1"},"vehicle_type_id":"4","last_reported":1743653553,"current_range_meters":9200,"station_id":"ce4bhqp2rcd13ifvqhog","pricing_plan_id":"cebpf4jnsgd1na2vs0mg"},{"bike_id":"b6c83da9-b3c4-4843-9a1d-36871e12515b","system_id":"levelo_inurba_marseille","lat":43.26133,"lon":5.41499,"is_reserved":false,"is_disabled":false,"rental_uris":{"android":"levelo://app?vid=b6c83da9-b3c4-4843-9a1d-36871e12515b","ios":"levelo://app?vid=b6c83da9-b3c4-4843-9a1d-36871e12515b"},"vehicle_type_id":"4","last_reported":1743653553,"current_range_meters":9200,"station_id":"","pricing_plan_id":"cebpf4jnsgd1na2vs0mg"},{"bike_id":"ea464bc9-6baf-477f-8592-2d7142958a22","system_id":"levelo_inurba_marseille","lat":43.26694,"lon":5.382645,"is_reserved":false,"is_disabled":true,"rental_uris":{"android":"levelo://app?vid=ea464bc9-6baf-477f-8592-2d7142958a22","ios":"levelo://app?vid=ea464bc9-6baf-477f-8592-2d7142958a22"},"vehicle_type_id":"4","last_reported":1743653553,"current_range_meters":9200,"station_id":"ce4bhg92rcd13ifvqf90","pricing_plan_id":"cebpf4jnsgd1na2vs0mg"},{"bike_id":"7f8a9668-212b-4215-8502-2b44c2f0d8a1","system_id":"levelo_inurba_marseille","lat":43.307998,"lon":5.381414,"is_reserved":false,"is_disabled":false,"rental_uris":{"android":"levelo://app?vid=7f8a9668-212b-4215-8502-2b44c2f0d8a1","ios":"levelo://app?vid=7f8a9668-212b-4215-8502-2b44c2f0d8a1"},"vehicle_type_id":"4","last_reported":1743653553,"current_range_meters":9200,"station_id":"ce4bgt12rcd13ifvqce0","pricing_plan_id":"cebpf4jnsgd1na2vs0mg"},{"bike_id":"c2e6881a-04a3-4a38-9cc0-75cacf165e78","system_id":"levelo_inurba_marseille","lat":43.28832,"lon":5.364645,"is_reserved":false,"is_disabled":false,"rental_uris":{"android":"levelo://app?vid=c2e6881a-04a3-4a38-9cc0-75cacf165e78","ios":"levelo://app?vid=c2e6881a-04a3-4a38-9cc0-75cacf165e78"},"vehicle_type_id":"4","last_reported":1743653553,"current_range_meters":9600,"station_id":"","pricing_plan_id":"cebpf4jnsgd1na2vs0mg"},{"bike_id":"7e518bd1-a3c5-4718-b257-c0d50b977d20","system_id":"levelo_inurba_marseille","lat":43.25857,"lon":5.39905,"is_reserved":false,"is_disabled":true,"rental_uris":{"android":"levelo://app?vid=7e518bd1-a3c5-4718-b257-c0d50b977d20","ios":"levelo://app?vid=7e518bd1-a3c5-4718-b257-c0d50b977d20"},"vehicle_type_id":"4","last_reported":1743653553,"current_range_meters":9600,"station_id":"ce4bhl92rcd13ifvqghg","pricing_plan_id":"cebpf4jnsgd1na2vs0mg"},{"bike_id":"b0e36695-a8c2-4c87-9b81-d6ac323c3b80","system_id":"levelo_inurba_marseille","lat":43.302981,"lon":5.392042,"is_reserved":false,"is_disabled":false,"rental_uris":{"android":"levelo://app?vid=b0e36695-a8c2-4c87-9b81-d6ac323c3b80","ios":"levelo://app?vid=b0e36695-a8c2-4c87-9b81-d6ac323c3b80"},"vehicle_type_id":"4","last_reported":1743653553,"current_range_meters":9600,"station_id":"ce4bgkh2rcd13ifvqbk0","pricing_plan_id":"cebpf4jnsgd1na2vs0mg"},{"bike_id":"cf1e53ae-b855-4ff1-83cf-4764ba2133f9","system_id":"levelo_inurba_marseille","lat":43.28879,"lon":5.35896,"is_reserved":false,"is_disabled":false,"rental_uris":{"android":"levelo://app?vid=cf1e53ae-b855-4ff1-83cf-4764ba2133f9","ios":"levelo://app?vid=cf1e53ae-b855-4ff1-83cf-4764ba2133f9"},"vehicle_type_id":"4","last_reported":1743653553,"current_range_meters":9600,"station_id":"","pricing_plan_id":"cebpf4jnsgd1na2vs0mg"},{"bike_id":"b5fa61b4-55c0-4d0f-b518-f0583e71aca3","system_id":"levelo_inurba_marseille","lat":43.22936,"lon":5.35415,"is_reserved":false,"is_disabled":false,"rental_uris":{"android":"levelo://app?vid=b5fa61b4-55c0-4d0f-b518-f0583e71aca3","ios":"levelo://app?vid=b5fa61b4-55c0-4d0f-b518-f0583e71aca3"},"vehicle_type_id":"4","last_reported":1743653553,"current_range_meters":9600,"station_id":"cpo3532slgdg3j2ikp40","pricing_plan_id":"cebpf4jnsgd1na2vs0mg"},{"bike_id":"6fd3d18f-c3b5-4d07-8160-12fc5c26448c","system_id":"levelo_inurba_marseille","lat":43.32359,"lon":5.38888,"is_reserved":false,"is_disabled":false,"rental_uris":{"android":"levelo://app?vid=6fd3d18f-c3b5-4d07-8160-12fc5c26448c","ios":"levelo://app?vid=6fd3d18f-c3b5-4d07-8160-12fc5c26448c"},"vehicle_type_id":"4","last_reported":1743653553,"current_range_meters":9600,"station_id":"ce4bhqp2rcd13ifvqhog","pricing_plan_id":"cebpf4jnsgd1na2vs0mg"},{"bike_id":"e1b03b21-5eb0-483c-b4ac-ea8a29304382","system_id":"levelo_inurba_marseille","lat":43.230639,"lon":5.354975,"is_reserved":false,"is_disabled":false,"rental_uris":{"android":"levelo://app?vid=e1b03b21-5eb0-483c-b4ac-ea8a29304382","ios":"levelo://app?vid=e1b03b21-5eb0-483c-b4ac-ea8a29304382"},"vehicle_type_id":"4","last_reported":1743653553,"current_range_meters":10000,"station_id":"cpo3342slgdg3j2ifvpg","pricing_plan_id":"cebpf4jnsgd1na2vs0mg"},{"bike_id":"fb2cc8bd-b22d-40b8-b6f2-355ed9038731","system_id":"levelo_inurba_marseille","lat":43.284125,"lon":5.37511,"is_reserved":false,"is_disabled":false,"rental_uris":{"android":"levelo://app?vid=fb2cc8bd-b22d-40b8-b6f2-355ed9038731","ios":"levelo://app?vid=fb2cc8bd-b22d-40b8-b6f2-355ed9038731"},"vehicle_type_id":"4","last_reported":1743653553,"current_range_meters":10000,"station_id":"ce4bh412rcd13ifvqds0","pricing_plan_id":"cebpf4jnsgd1na2vs0mg"},{"bike_id":"0cfd3fd2-d703-47ff-9dea-8f4a337d85bc","system_id":"levelo_inurba_marseille","lat":43.29021,"lon":5.35955,"is_reserved":false,"is_disabled":false,"rental_uris":{"android":"levelo://app?vid=0cfd3fd2-d703-47ff-9dea-8f4a337d85bc","ios":"levelo://app?vid=0cfd3fd2-d703-47ff-9dea-8f4a337d85bc"},"vehicle_type_id":"4","last_reported":1743653553,"current_range_meters":10000,"station_id":"","pricing_plan_id":"cebpf4jnsgd1na2vs0mg"},{"bike_id":"5fdf6bbd-574b-46fe-ad8c-7571318200a0","system_id":"levelo_inurba_marseille","lat":43.27901,"lon":5.38042,"is_reserved":false,"is_disabled":false,"rental_uris":{"android":"levelo://app?vid=5fdf6bbd-574b-46fe-ad8c-7571318200a0","ios":"levelo://app?vid=5fdf6bbd-574b-46fe-ad8c-7571318200a0"},"vehicle_type_id":"4","last_reported":1743653553,"current_range_meters":10000,"station_id":"ce4bhf92rcd13ifvqf50","pricing_plan_id":"cebpf4jnsgd1na2vs0mg"},{"bike_id":"926561da-db54-48d9-b02a-5b2b2cebb62a","system_id":"levelo_inurba_marseille","lat":43.30299,"lon":5.39214,"is_reserved":false,"is_disabled":false,"rental_uris":{"android":"levelo://app?vid=926561da-db54-48d9-b02a-5b2b2cebb62a","ios":"levelo://app?vid=926561da-db54-48d9-b02a-5b2b2cebb62a"},"vehicle_type_id":"4","last_reported":1743653553,"current_range_meters":10000,"station_id":"ce4bgkh2rcd13ifvqbk0","pricing_plan_id":"cebpf4jnsgd1na2vs0mg"},{"bike_id":"09a8a7dc-25ab-48a6-ac8b-5ee88a884479","system_id":"levelo_inurba_marseille","lat":43.28602,"lon":5.3837,"is_reserved":false,"is_disabled":false,"rental_uris":{"android":"levelo://app?vid=09a8a7dc-25ab-48a6-ac8b-5ee88a884479","ios":"levelo://app?vid=09a8a7dc-25ab-48a6-ac8b-5ee88a884479"},"vehicle_type_id":"4","last_reported":1743653553,"current_range_meters":10000,"station_id":"","pricing_plan_id":"cebpf4jnsgd1na2vs0mg"},{"bike_id":"01f051a7-2a53-4e7f-bc00-2e50a7934f35","system_id":"levelo_inurba_marseille","lat":43.27958,"lon":5.387004,"is_reserved":false,"is_disabled":false,"rental_uris":{"android":"levelo://app?vid=01f051a7-2a53-4e7f-bc00-2e50a7934f35","ios":"levelo://app?vid=01f051a7-2a53-4e7f-bc00-2e50a7934f35"},"vehicle_type_id":"4","last_reported":1743653553,"current_range_meters":10000,"station_id":"ce4bhg12rcd13ifvqf80","pricing_plan_id":"cebpf4jnsgd1na2vs0mg"},{"bike_id":"7d49898d-4c6e-4131-9fdb-37de62f2c79c","system_id":"levelo_inurba_marseille","lat":43.289,"lon":5.37132,"is_reserved":false,"is_disabled":false,"rental_uris":{"android":"levelo://app?vid=7d49898d-4c6e-4131-9fdb-37de62f2c79c","ios":"levelo://app?vid=7d49898d-4c6e-4131-9fdb-37de62f2c79c"},"vehicle_type_id":"4","last_reported":1743653553,"current_range_meters":10000,"station_id":"","pricing_plan_id":"cebpf4jnsgd1na2vs0mg"},{"bike_id":"b6c9efc5-aaa1-4e85-84db-701cadb10d77","system_id":"levelo_inurba_marseille","lat":43.286629,"lon":5.363573,"is_reserved":false,"is_disabled":false,"rental_uris":{"android":"levelo://app?vid=b6c9efc5-aaa1-4e85-84db-701cadb10d77","ios":"levelo://app?vid=b6c9efc5-aaa1-4e85-84db-701cadb10d77"},"vehicle_type_id":"4","last_reported":1743653553,"current_range_meters":10000,"station_id":"ce4bhah2rcd13ifvqej0","pricing_plan_id":"cebpf4jnsgd1na2vs0mg"},{"bike_id":"9e7c224b-9a67-4d10-89b5-39e81d5706d0","system_id":"levelo_inurba_marseille","lat":43.28479,"lon":5.35893,"is_reserved":false,"is_disabled":false,"rental_uris":{"android":"levelo://app?vid=9e7c224b-9a67-4d10-89b5-39e81d5706d0","ios":"levelo://app?vid=9e7c224b-9a67-4d10-89b5-39e81d5706d0"},"vehicle_type_id":"4","last_reported":1743653553,"current_range_meters":10000,"station_id":"ce4bhah2rcd13ifvqei0","pricing_plan_id":"cebpf4jnsgd1na2vs0mg"},{"bike_id":"a3d0414c-7601-4a4b-a431-71d0a9f4e44c","system_id":"levelo_inurba_marseille","lat":43.30362,"lon":5.42491,"is_reserved":false,"is_disabled":false,"rental_uris":{"android":"levelo://app?vid=a3d0414c-7601-4a4b-a431-71d0a9f4e44c","ios":"levelo://app?vid=a3d0414c-7601-4a4b-a431-71d0a9f4e44c"},"vehicle_type_id":"4","last_reported":1743653553,"current_range_meters":10800,"station_id":"ce4bhoh2rcd13ifvqh6g","pricing_plan_id":"cebpf4jnsgd1na2vs0mg"},{"bike_id":"e9b260c0-e2f7-4a0c-83f5-bfd4f16e7d61","system_id":"levelo_inurba_marseille","lat":43.24674,"lon":5.38203,"is_reserved":false,"is_disabled":false,"rental_uris":{"android":"levelo://app?vid=e9b260c0-e2f7-4a0c-83f5-bfd4f16e7d61","ios":"levelo://app?vid=e9b260c0-e2f7-4a0c-83f5-bfd4f16e7d61"},"vehicle_type_id":"4","last_reported":1743653553,"current_range_meters":10800,"station_id":"ce4bhih2rcd13ifvqfr0","pricing_plan_id":"cebpf4jnsgd1na2vs0mg"},{"bike_id":"915b231d-b6b1-4659-8de9-4fe427bcb2f8","system_id":"levelo_inurba_marseille","lat":43.29612,"lon":5.37722,"is_reserved":false,"is_disabled":false,"rental_uris":{"android":"levelo://app?vid=915b231d-b6b1-4659-8de9-4fe427bcb2f8","ios":"levelo://app?vid=915b231d-b6b1-4659-8de9-4fe427bcb2f8"},"vehicle_type_id":"4","last_reported":1743653553,"current_range_meters":10800,"station_id":"ce4bgi92rcd13ifvqb90","pricing_plan_id":"cebpf4jnsgd1na2vs0mg"},{"bike_id":"3f963879-f377-429e-ad0d-fb2891869682","system_id":"levelo_inurba_marseille","lat":43.28347,"lon":5.38114,"is_reserved":false,"is_disabled":false,"rental_uris":{"android":"levelo://app?vid=3f963879-f377-429e-ad0d-fb2891869682","ios":"levelo://app?vid=3f963879-f377-429e-ad0d-fb2891869682"},"vehicle_type_id":"4","last_reported":1743653553,"current_range_meters":10800,"station_id":"ce4bh412rcd13ifvqdr0","pricing_plan_id":"cebpf4jnsgd1na2vs0mg"},{"bike_id":"c3ea01b8-4040-4ef1-841d-299febab1e04","system_id":"levelo_inurba_marseille","lat":43.288463,"lon":5.358451,"is_reserved":false,"is_disabled":false,"rental_uris":{"android":"levelo://app?vid=c3ea01b8-4040-4ef1-841d-299febab1e04","ios":"levelo://app?vid=c3ea01b8-4040-4ef1-841d-299febab1e04"},"vehicle_type_id":"4","last_reported":1743653553,"current_range_meters":10800,"station_id":"ce4bhb12rcd13ifvqem0","pricing_plan_id":"cebpf4jnsgd1na2vs0mg"},{"bike_id":"cd83c8ac-ed09-4369-9279-b6f36f2bbd3c","system_id":"levelo_inurba_marseille","lat":43.307984,"lon":5.382336,"is_reserved":false,"is_disabled":false,"rental_uris":{"android":"levelo://app?vid=cd83c8ac-ed09-4369-9279-b6f36f2bbd3c","ios":"levelo://app?vid=cd83c8ac-ed09-4369-9279-b6f36f2bbd3c"},"vehicle_type_id":"4","last_reported":1743653553,"current_range_meters":10800,"station_id":"","pricing_plan_id":"cebpf4jnsgd1na2vs0mg"},{"bike_id":"8cc6c2ed-3e77-4cd4-b528-4be3c22c789b","system_id":"levelo_inurba_marseille","lat":43.289384,"lon":5.366297,"is_reserved":false,"is_disabled":false,"rental_uris":{"android":"levelo://app?vid=8cc6c2ed-3e77-4cd4-b528-4be3c22c789b","ios":"levelo://app?vid=8cc6c2ed-3e77-4cd4-b528-4be3c22c789b"},"vehicle_type_id":"4","last_reported":1743653553,"current_range_meters":10800,"station_id":"ce4bhap2rcd13ifvqek0","pricing_plan_id":"cebpf4jnsgd1na2vs0mg"},{"bike_id":"67f98ed3-63bd-4595-b49d-0192231ba0ca","system_id":"levelo_inurba_marseille","lat":43.28105,"lon":5.37832,"is_reserved":false,"is_disabled":false,"rental_uris":{"android":"levelo://app?vid=67f98ed3-63bd-4595-b49d-0192231ba0ca","ios":"levelo://app?vid=67f98ed3-63bd-4595-b49d-0192231ba0ca"},"vehicle_type_id":"4","last_reported":1743653553,"current_range_meters":10800,"station_id":"ce4bha12rcd13ifvqee0","pricing_plan_id":"cebpf4jnsgd1na2vs0mg"},{"bike_id":"598ef76e-b93d-4881-9429-bbb21089bc7f","system_id":"levelo_inurba_marseille","lat":43.31264,"lon":5.40178,"is_reserved":false,"is_disabled":false,"rental_uris":{"android":"levelo://app?vid=598ef76e-b93d-4881-9429-bbb21089bc7f","ios":"levelo://app?vid=598ef76e-b93d-4881-9429-bbb21089bc7f"},"vehicle_type_id":"4","last_reported":1743653553,"current_range_meters":10800,"station_id":"ce4bh092rcd13ifvqd30","pricing_plan_id":"cebpf4jnsgd1na2vs0mg"},{"bike_id":"eca000f3-7adb-462c-b7ed-61fb5b2098fc","system_id":"levelo_inurba_marseille","lat":43.22937,"lon":5.35419,"is_reserved":false,"is_disabled":false,"rental_uris":{"android":"levelo://app?vid=eca000f3-7adb-462c-b7ed-61fb5b2098fc","ios":"levelo://app?vid=eca000f3-7adb-462c-b7ed-61fb5b2098fc"},"vehicle_type_id":"4","last_reported":1743653553,"current_range_meters":10800,"station_id":"cpo3532slgdg3j2ikp40","pricing_plan_id":"cebpf4jnsgd1na2vs0mg"},{"bike_id":"9f62f29e-b083-4314-9e82-a49e79ecd17d","system_id":"levelo_inurba_marseille","lat":43.229319,"lon":5.353796,"is_reserved":false,"is_disabled":false,"rental_uris":{"android":"levelo://app?vid=9f62f29e-b083-4314-9e82-a49e79ecd17d","ios":"levelo://app?vid=9f62f29e-b083-4314-9e82-a49e79ecd17d"},"vehicle_type_id":"4","last_reported":1743653553,"current_range_meters":10800,"station_id":"cpo3532slgdg3j2ikp40","pricing_plan_id":"cebpf4jnsgd1na2vs0mg"},{"bike_id":"18ccc39b-f84e-406f-9709-ff265dbd4fd7","system_id":"levelo_inurba_marseille","lat":43.310754,"lon":5.383493,"is_reserved":false,"is_disabled":false,"rental_uris":{"android":"levelo://app?vid=18ccc39b-f84e-406f-9709-ff265dbd4fd7","ios":"levelo://app?vid=18ccc39b-f84e-406f-9709-ff265dbd4fd7"},"vehicle_type_id":"4","last_reported":1743653553,"current_range_meters":11200,"station_id":"ce4bgv92rcd13ifvqcr0","pricing_plan_id":"cebpf4jnsgd1na2vs0mg"},{"bike_id":"b86b5b87-f029-48ac-aa00-3a50d7e2c1d2","system_id":"levelo_inurba_marseille","lat":43.323657,"lon":5.367519,"is_reserved":false,"is_disabled":true,"rental_uris":{"android":"levelo://app?vid=b86b5b87-f029-48ac-aa00-3a50d7e2c1d2","ios":"levelo://app?vid=b86b5b87-f029-48ac-aa00-3a50d7e2c1d2"},"vehicle_type_id":"4","last_reported":1743653553,"current_range_meters":11200,"station_id":"ce4bhsh2rcd13ifvqi2g","pricing_plan_id":"cebpf4jnsgd1na2vs0mg"},{"bike_id":"c342fc06-c0c7-40d3-8181-71c413355135","system_id":"levelo_inurba_marseille","lat":43.273721,"lon":5.362601,"is_reserved":false,"is_disabled":false,"rental_uris":{"android":"levelo://app?vid=c342fc06-c0c7-40d3-8181-71c413355135","ios":"levelo://app?vid=c342fc06-c0c7-40d3-8181-71c413355135"},"vehicle_type_id":"4","last_reported":1743653553,"current_range_meters":11200,"station_id":"ce4bhbh2rcd13ifvqeo0","pricing_plan_id":"cebpf4jnsgd1na2vs0mg"},{"bike_id":"2635283e-ffd4-4c1f-b9e8-1b146ac4c8cc","system_id":"levelo_inurba_marseille","lat":43.30215,"lon":5.41932,"is_reserved":false,"is_disabled":false,"rental_uris":{"android":"levelo://app?vid=2635283e-ffd4-4c1f-b9e8-1b146ac4c8cc","ios":"levelo://app?vid=2635283e-ffd4-4c1f-b9e8-1b146ac4c8cc"},"vehicle_type_id":"4","last_reported":1743653553,"current_range_meters":11600,"station_id":"","pricing_plan_id":"cebpf4jnsgd1na2vs0mg"},{"bike_id":"14fb8840-5828-45e6-8983-a4644679acef","system_id":"levelo_inurba_marseille","lat":43.30797,"lon":5.38158,"is_reserved":false,"is_disabled":false,"rental_uris":{"android":"levelo://app?vid=14fb8840-5828-45e6-8983-a4644679acef","ios":"levelo://app?vid=14fb8840-5828-45e6-8983-a4644679acef"},"vehicle_type_id":"4","last_reported":1743653553,"current_range_meters":11600,"station_id":"ce4bgt12rcd13ifvqce0","pricing_plan_id":"cebpf4jnsgd1na2vs0mg"},{"bike_id":"a8fc5e7b-59f1-425a-aa68-0e461a60dbc2","system_id":"levelo_inurba_marseille","lat":43.31067,"lon":5.38343,"is_reserved":false,"is_disabled":false,"rental_uris":{"android":"levelo://app?vid=a8fc5e7b-59f1-425a-aa68-0e461a60dbc2","ios":"levelo://app?vid=a8fc5e7b-59f1-425a-aa68-0e461a60dbc2"},"vehicle_type_id":"4","last_reported":1743653553,"current_range_meters":12000,"station_id":"ce4bgv92rcd13ifvqcr0","pricing_plan_id":"cebpf4jnsgd1na2vs0mg"},{"bike_id":"2b7563bf-72ce-4546-bdfe-0681f54925e9","system_id":"levelo_inurba_marseille","lat":43.292546,"lon":5.384386,"is_reserved":false,"is_disabled":true,"rental_uris":{"android":"levelo://app?vid=2b7563bf-72ce-4546-bdfe-0681f54925e9","ios":"levelo://app?vid=2b7563bf-72ce-4546-bdfe-0681f54925e9"},"vehicle_type_id":"4","last_reported":1743653553,"current_range_meters":12000,"station_id":"ce4bh692rcd13ifvqea0","pricing_plan_id":"cebpf4jnsgd1na2vs0mg"},{"bike_id":"dc8aea87-570e-48a9-ba81-61fce273bb0b","system_id":"levelo_inurba_marseille","lat":43.25868,"lon":5.39916,"is_reserved":false,"is_disabled":false,"rental_uris":{"android":"levelo://app?vid=dc8aea87-570e-48a9-ba81-61fce273bb0b","ios":"levelo://app?vid=dc8aea87-570e-48a9-ba81-61fce273bb0b"},"vehicle_type_id":"4","last_reported":1743653553,"current_range_meters":12000,"station_id":"ce4bhl92rcd13ifvqghg","pricing_plan_id":"cebpf4jnsgd1na2vs0mg"},{"bike_id":"65176d7e-a215-4479-a736-b11f75a62786","system_id":"levelo_inurba_marseille","lat":43.28449,"lon":5.35938,"is_reserved":false,"is_disabled":false,"rental_uris":{"android":"levelo://app?vid=65176d7e-a215-4479-a736-b11f75a62786","ios":"levelo://app?vid=65176d7e-a215-4479-a736-b11f75a62786"},"vehicle_type_id":"4","last_reported":1743653553,"current_range_meters":12000,"station_id":"","pricing_plan_id":"cebpf4jnsgd1na2vs0mg"},{"bike_id":"c2814ac1-bbda-4565-afe5-c29611abff83","system_id":"levelo_inurba_marseille","lat":43.27822,"lon":5.40727,"is_reserved":false,"is_disabled":false,"rental_uris":{"android":"levelo://app?vid=c2814ac1-bbda-4565-afe5-c29611abff83","ios":"levelo://app?vid=c2814ac1-bbda-4565-afe5-c29611abff83"},"vehicle_type_id":"4","last_reported":1743653553,"current_range_meters":12000,"station_id":"ce4bhnh2rcd13ifvqgtg","pricing_plan_id":"cebpf4jnsgd1na2vs0mg"},{"bike_id":"e6f02e74-383c-4bae-b8c4-037430863270","system_id":"levelo_inurba_marseille","lat":43.2306,"lon":5.35515,"is_reserved":false,"is_disabled":false,"rental_uris":{"android":"levelo://app?vid=e6f02e74-383c-4bae-b8c4-037430863270","ios":"levelo://app?vid=e6f02e74-383c-4bae-b8c4-037430863270"},"vehicle_type_id":"4","last_reported":1743653553,"current_range_meters":12000,"station_id":"cpo3342slgdg3j2ifvpg","pricing_plan_id":"cebpf4jnsgd1na2vs0mg"},{"bike_id":"22bcfedc-fd1a-42ef-b4ce-f8cb0c81bc99","system_id":"levelo_inurba_marseille","lat":43.3014,"lon":5.387782,"is_reserved":false,"is_disabled":true,"rental_uris":{"android":"levelo://app?vid=22bcfedc-fd1a-42ef-b4ce-f8cb0c81bc99","ios":"levelo://app?vid=22bcfedc-fd1a-42ef-b4ce-f8cb0c81bc99"},"vehicle_type_id":"4","last_reported":1743653553,"current_range_meters":12000,"station_id":"ce4bghh2rcd13ifvqb60","pricing_plan_id":"cebpf4jnsgd1na2vs0mg"},{"bike_id":"31211910-36a1-4ccd-82d0-5e5c9714b74d","system_id":"levelo_inurba_marseille","lat":43.32493,"lon":5.36562,"is_reserved":false,"is_disabled":false,"rental_uris":{"android":"levelo://app?vid=31211910-36a1-4ccd-82d0-5e5c9714b74d","ios":"levelo://app?vid=31211910-36a1-4ccd-82d0-5e5c9714b74d"},"vehicle_type_id":"4","last_reported":1743653553,"current_range_meters":12000,"station_id":"ce4bhs12rcd13ifvqhvg","pricing_plan_id":"cebpf4jnsgd1na2vs0mg"},{"bike_id":"9d0457ef-48ad-4186-a488-7c51d10d0f62","system_id":"levelo_inurba_marseille","lat":43.31763,"lon":5.3906,"is_reserved":false,"is_disabled":false,"rental_uris":{"android":"levelo://app?vid=9d0457ef-48ad-4186-a488-7c51d10d0f62","ios":"levelo://app?vid=9d0457ef-48ad-4186-a488-7c51d10d0f62"},"vehicle_type_id":"4","last_reported":1743653553,"current_range_meters":12000,"station_id":"ce4bhqp2rcd13ifvqhng","pricing_plan_id":"cebpf4jnsgd1na2vs0mg"},{"bike_id":"43705df6-dad5-49b0-ba8b-f4f32b11172b","system_id":"levelo_inurba_marseille","lat":43.28695,"lon":5.37925,"is_reserved":false,"is_disabled":false,"rental_uris":{"android":"levelo://app?vid=43705df6-dad5-49b0-ba8b-f4f32b11172b","ios":"levelo://app?vid=43705df6-dad5-49b0-ba8b-f4f32b11172b"},"vehicle_type_id":"4","last_reported":1743653553,"current_range_meters":12000,"station_id":"ce4bh9p2rcd13ifvqec0","pricing_plan_id":"cebpf4jnsgd1na2vs0mg"},{"bike_id":"efc1cdef-639c-4f1a-b2d0-84f964c6caf6","system_id":"levelo_inurba_marseille","lat":43.31162,"lon":5.38722,"is_reserved":false,"is_disabled":false,"rental_uris":{"android":"levelo://app?vid=efc1cdef-639c-4f1a-b2d0-84f964c6caf6","ios":"levelo://app?vid=efc1cdef-639c-4f1a-b2d0-84f964c6caf6"},"vehicle_type_id":"4","last_reported":1743653553,"current_range_meters":12000,"station_id":"ce4bgv12rcd13ifvqcp0","pricing_plan_id":"cebpf4jnsgd1na2vs0mg"},{"bike_id":"a014b36e-40fa-4c58-8432-84aa89c3694d","system_id":"levelo_inurba_marseille","lat":43.29189,"lon":5.39319,"is_reserved":false,"is_disabled":false,"rental_uris":{"android":"levelo://app?vid=a014b36e-40fa-4c58-8432-84aa89c3694d","ios":"levelo://app?vid=a014b36e-40fa-4c58-8432-84aa89c3694d"},"vehicle_type_id":"4","last_reported":1743653553,"current_range_meters":12400,"station_id":"ce4bh192rcd13ifvqdd0","pricing_plan_id":"cebpf4jnsgd1na2vs0mg"},{"bike_id":"97c0eecc-8787-4395-b6d9-f622fd6dd4ee","system_id":"levelo_inurba_marseille","lat":43.261383,"lon":5.409008,"is_reserved":false,"is_disabled":true,"rental_uris":{"android":"levelo://app?vid=97c0eecc-8787-4395-b6d9-f622fd6dd4ee","ios":"levelo://app?vid=97c0eecc-8787-4395-b6d9-f622fd6dd4ee"},"vehicle_type_id":"4","last_reported":1743653553,"current_range_meters":12400,"station_id":"","pricing_plan_id":"cebpf4jnsgd1na2vs0mg"},{"bike_id":"78ca934a-98c9-4dbc-b5b6-c2ca906050d2","system_id":"levelo_inurba_marseille","lat":43.297457,"lon":5.389384,"is_reserved":false,"is_disabled":false,"rental_uris":{"android":"levelo://app?vid=78ca934a-98c9-4dbc-b5b6-c2ca906050d2","ios":"levelo://app?vid=78ca934a-98c9-4dbc-b5b6-c2ca906050d2"},"vehicle_type_id":"4","last_reported":1743653553,"current_range_meters":12400,"station_id":"","pricing_plan_id":"cebpf4jnsgd1na2vs0mg"},{"bike_id":"7ea21485-e70e-434d-bc5f-0205a7a33a11","system_id":"levelo_inurba_marseille","lat":43.28404,"lon":5.37548,"is_reserved":false,"is_disabled":false,"rental_uris":{"android":"levelo://app?vid=7ea21485-e70e-434d-bc5f-0205a7a33a11","ios":"levelo://app?vid=7ea21485-e70e-434d-bc5f-0205a7a33a11"},"vehicle_type_id":"4","last_reported":1743653553,"current_range_meters":12400,"station_id":"ce4bh412rcd13ifvqds0","pricing_plan_id":"cebpf4jnsgd1na2vs0mg"},{"bike_id":"c1c63035-c83b-4419-8cbf-133778d95125","system_id":"levelo_inurba_marseille","lat":43.29814,"lon":5.394,"is_reserved":false,"is_disabled":true,"rental_uris":{"android":"levelo://app?vid=c1c63035-c83b-4419-8cbf-133778d95125","ios":"levelo://app?vid=c1c63035-c83b-4419-8cbf-133778d95125"},"vehicle_type_id":"4","last_reported":1743653553,"current_range_meters":12400,"station_id":"chh1huq6cuj3fo74tm60","pricing_plan_id":"cebpf4jnsgd1na2vs0mg"},{"bike_id":"70e5b39f-29e3-4ea9-aa83-5a60a8eec6f8","system_id":"levelo_inurba_marseille","lat":43.250495,"lon":5.416992,"is_reserved":false,"is_disabled":false,"rental_uris":{"android":"levelo://app?vid=70e5b39f-29e3-4ea9-aa83-5a60a8eec6f8","ios":"levelo://app?vid=70e5b39f-29e3-4ea9-aa83-5a60a8eec6f8"},"vehicle_type_id":"4","last_reported":1743653553,"current_range_meters":12400,"station_id":"","pricing_plan_id":"cebpf4jnsgd1na2vs0mg"},{"bike_id":"a648e5b1-1d57-4af3-a248-56f63e8381a9","system_id":"levelo_inurba_marseille","lat":43.30883,"lon":5.3967,"is_reserved":false,"is_disabled":false,"rental_uris":{"android":"levelo://app?vid=a648e5b1-1d57-4af3-a248-56f63e8381a9","ios":"levelo://app?vid=a648e5b1-1d57-4af3-a248-56f63e8381a9"},"vehicle_type_id":"4","last_reported":1743653553,"current_range_meters":12800,"station_id":"ce4bh012rcd13ifvqcv0","pricing_plan_id":"cebpf4jnsgd1na2vs0mg"},{"bike_id":"f8c62789-a6b7-4539-b99c-e6c73b69ae5e","system_id":"levelo_inurba_marseille","lat":43.30311,"lon":5.40454,"is_reserved":false,"is_disabled":true,"rental_uris":{"android":"levelo://app?vid=f8c62789-a6b7-4539-b99c-e6c73b69ae5e","ios":"levelo://app?vid=f8c62789-a6b7-4539-b99c-e6c73b69ae5e"},"vehicle_type_id":"4","last_reported":1743653553,"current_range_meters":12800,"station_id":"ce4bh012rcd13ifvqd10","pricing_plan_id":"cebpf4jnsgd1na2vs0mg"},{"bike_id":"02759f5c-bea4-4728-b180-347da1c9de69","system_id":"levelo_inurba_marseille","lat":43.24697,"lon":5.38189,"is_reserved":false,"is_disabled":false,"rental_uris":{"android":"levelo://app?vid=02759f5c-bea4-4728-b180-347da1c9de69","ios":"levelo://app?vid=02759f5c-bea4-4728-b180-347da1c9de69"},"vehicle_type_id":"4","last_reported":1743653553,"current_range_meters":12800,"station_id":"ce4bhih2rcd13ifvqfr0","pricing_plan_id":"cebpf4jnsgd1na2vs0mg"},{"bike_id":"48f77b87-1f93-47ae-89de-38c2bac58866","system_id":"levelo_inurba_marseille","lat":43.30613,"lon":5.37244,"is_reserved":false,"is_disabled":false,"rental_uris":{"android":"levelo://app?vid=48f77b87-1f93-47ae-89de-38c2bac58866","ios":"levelo://app?vid=48f77b87-1f93-47ae-89de-38c2bac58866"},"vehicle_type_id":"4","last_reported":1743653553,"current_range_meters":12800,"station_id":"ce4bgqh2rcd13ifvqc4g","pricing_plan_id":"cebpf4jnsgd1na2vs0mg"},{"bike_id":"e3a29d38-a611-4b12-87ef-2fb8a21c41d5","system_id":"levelo_inurba_marseille","lat":43.22922,"lon":5.353836,"is_reserved":false,"is_disabled":false,"rental_uris":{"android":"levelo://app?vid=e3a29d38-a611-4b12-87ef-2fb8a21c41d5","ios":"levelo://app?vid=e3a29d38-a611-4b12-87ef-2fb8a21c41d5"},"vehicle_type_id":"4","last_reported":1743653553,"current_range_meters":12800,"station_id":"cpo3532slgdg3j2ikp40","pricing_plan_id":"cebpf4jnsgd1na2vs0mg"},{"bike_id":"efddeda7-6eb2-4c14-868d-fa0ce0b35ef3","system_id":"levelo_inurba_marseille","lat":43.31279,"lon":5.38305,"is_reserved":false,"is_disabled":false,"rental_uris":{"android":"levelo://app?vid=efddeda7-6eb2-4c14-868d-fa0ce0b35ef3","ios":"levelo://app?vid=efddeda7-6eb2-4c14-868d-fa0ce0b35ef3"},"vehicle_type_id":"4","last_reported":1743653553,"current_range_meters":12800,"station_id":"","pricing_plan_id":"cebpf4jnsgd1na2vs0mg"},{"bike_id":"bb745ff7-e372-47cd-8e7a-5658e3435a0c","system_id":"levelo_inurba_marseille","lat":43.30261,"lon":5.400794,"is_reserved":false,"is_disabled":false,"rental_uris":{"android":"levelo://app?vid=bb745ff7-e372-47cd-8e7a-5658e3435a0c","ios":"levelo://app?vid=bb745ff7-e372-47cd-8e7a-5658e3435a0c"},"vehicle_type_id":"4","last_reported":1743653553,"current_range_meters":12800,"station_id":"","pricing_plan_id":"cebpf4jnsgd1na2vs0mg"},{"bike_id":"b61a33fe-6372-4bd4-9589-3bc407f2f2e1","system_id":"levelo_inurba_marseille","lat":43.292948,"lon":5.374433,"is_reserved":false,"is_disabled":true,"rental_uris":{"android":"levelo://app?vid=b61a33fe-6372-4bd4-9589-3bc407f2f2e1","ios":"levelo://app?vid=b61a33fe-6372-4bd4-9589-3bc407f2f2e1"},"vehicle_type_id":"4","last_reported":1743653553,"current_range_meters":12800,"station_id":"ce4bgi12rcd13ifvqb70","pricing_plan_id":"cebpf4jnsgd1na2vs0mg"},{"bike_id":"ff814436-c739-4bbc-bbe2-f97677945d11","system_id":"levelo_inurba_marseille","lat":43.32658,"lon":5.40997,"is_reserved":false,"is_disabled":false,"rental_uris":{"android":"levelo://app?vid=ff814436-c739-4bbc-bbe2-f97677945d11","ios":"levelo://app?vid=ff814436-c739-4bbc-bbe2-f97677945d11"},"vehicle_type_id":"4","last_reported":1743653553,"current_range_meters":12400,"station_id":"ce4bhpp2rcd13ifvqhgg","pricing_plan_id":"cebpf4jnsgd1na2vs0mg"},{"bike_id":"111c2e2a-a599-4d28-8e54-5f08a37d6437","system_id":"levelo_inurba_marseille","lat":43.291983,"lon":5.393181,"is_reserved":false,"is_disabled":false,"rental_uris":{"android":"levelo://app?vid=111c2e2a-a599-4d28-8e54-5f08a37d6437","ios":"levelo://app?vid=111c2e2a-a599-4d28-8e54-5f08a37d6437"},"vehicle_type_id":"4","last_reported":1743653553,"current_range_meters":13600,"station_id":"ce4bh192rcd13ifvqdd0","pricing_plan_id":"cebpf4jnsgd1na2vs0mg"},{"bike_id":"95019719-c74f-41a1-a986-f0fc3550d793","system_id":"levelo_inurba_marseille","lat":43.25,"lon":5.38917,"is_reserved":false,"is_disabled":false,"rental_uris":{"android":"levelo://app?vid=95019719-c74f-41a1-a986-f0fc3550d793","ios":"levelo://app?vid=95019719-c74f-41a1-a986-f0fc3550d793"},"vehicle_type_id":"4","last_reported":1743653553,"current_range_meters":13600,"station_id":"ce4bhgp2rcd13ifvqfd0","pricing_plan_id":"cebpf4jnsgd1na2vs0mg"},{"bike_id":"9f155b00-2d09-42a5-95f2-889c2287feef","system_id":"levelo_inurba_marseille","lat":43.284624,"lon":5.35885,"is_reserved":false,"is_disabled":false,"rental_uris":{"android":"levelo://app?vid=9f155b00-2d09-42a5-95f2-889c2287feef","ios":"levelo://app?vid=9f155b00-2d09-42a5-95f2-889c2287feef"},"vehicle_type_id":"4","last_reported":1743653553,"current_range_meters":13600,"station_id":"ce4bhah2rcd13ifvqei0","pricing_plan_id":"cebpf4jnsgd1na2vs0mg"},{"bike_id":"bd3790b2-de01-409f-986d-d88a8a90008e","system_id":"levelo_inurba_marseille","lat":43.28463,"lon":5.3589,"is_reserved":false,"is_disabled":false,"rental_uris":{"android":"levelo://app?vid=bd3790b2-de01-409f-986d-d88a8a90008e","ios":"levelo://app?vid=bd3790b2-de01-409f-986d-d88a8a90008e"},"vehicle_type_id":"4","last_reported":1743653553,"current_range_meters":13600,"station_id":"ce4bhah2rcd13ifvqei0","pricing_plan_id":"cebpf4jnsgd1na2vs0mg"},{"bike_id":"1bd4c5e9-3479-4a34-bfb9-e556a3bbe8ed","system_id":"levelo_inurba_marseille","lat":43.230633,"lon":5.354924,"is_reserved":false,"is_disabled":false,"rental_uris":{"android":"levelo://app?vid=1bd4c5e9-3479-4a34-bfb9-e556a3bbe8ed","ios":"levelo://app?vid=1bd4c5e9-3479-4a34-bfb9-e556a3bbe8ed"},"vehicle_type_id":"4","last_reported":1743653553,"current_range_meters":13600,"station_id":"cpo3342slgdg3j2ifvpg","pricing_plan_id":"cebpf4jnsgd1na2vs0mg"},{"bike_id":"09f4b827-b8d6-46d5-a78e-7fb3c370d6f9","system_id":"levelo_inurba_marseille","lat":43.307815,"lon":5.376557,"is_reserved":false,"is_disabled":false,"rental_uris":{"android":"levelo://app?vid=09f4b827-b8d6-46d5-a78e-7fb3c370d6f9","ios":"levelo://app?vid=09f4b827-b8d6-46d5-a78e-7fb3c370d6f9"},"vehicle_type_id":"4","last_reported":1743653553,"current_range_meters":14000,"station_id":"ce4bgv92rcd13ifvqcq0","pricing_plan_id":"cebpf4jnsgd1na2vs0mg"},{"bike_id":"2be94212-600c-4c4f-ba3b-fe750ec2d558","system_id":"levelo_inurba_marseille","lat":43.28105,"lon":5.37836,"is_reserved":false,"is_disabled":false,"rental_uris":{"android":"levelo://app?vid=2be94212-600c-4c4f-ba3b-fe750ec2d558","ios":"levelo://app?vid=2be94212-600c-4c4f-ba3b-fe750ec2d558"},"vehicle_type_id":"4","last_reported":1743653553,"current_range_meters":14000,"station_id":"ce4bha12rcd13ifvqee0","pricing_plan_id":"cebpf4jnsgd1na2vs0mg"},{"bike_id":"c010083c-3d37-442b-bb01-af5ace56ca85","system_id":"levelo_inurba_marseille","lat":43.288448,"lon":5.358544,"is_reserved":false,"is_disabled":false,"rental_uris":{"android":"levelo://app?vid=c010083c-3d37-442b-bb01-af5ace56ca85","ios":"levelo://app?vid=c010083c-3d37-442b-bb01-af5ace56ca85"},"vehicle_type_id":"4","last_reported":1743653553,"current_range_meters":14000,"station_id":"ce4bhb12rcd13ifvqem0","pricing_plan_id":"cebpf4jnsgd1na2vs0mg"},{"bike_id":"3dbc3d46-7777-4ee1-abe2-41ae010c9497","system_id":"levelo_inurba_marseille","lat":43.29518,"lon":5.39034,"is_reserved":false,"is_disabled":true,"rental_uris":{"android":"levelo://app?vid=3dbc3d46-7777-4ee1-abe2-41ae010c9497","ios":"levelo://app?vid=3dbc3d46-7777-4ee1-abe2-41ae010c9497"},"vehicle_type_id":"4","last_reported":1743653553,"current_range_meters":14000,"station_id":"ce4bh3p2rcd13ifvqdp0","pricing_plan_id":"cebpf4jnsgd1na2vs0mg"},{"bike_id":"2ee61785-ed4a-4fc0-bcbc-afd302dbd3f1","system_id":"levelo_inurba_marseille","lat":43.3015,"lon":5.38076,"is_reserved":false,"is_disabled":false,"rental_uris":{"android":"levelo://app?vid=2ee61785-ed4a-4fc0-bcbc-afd302dbd3f1","ios":"levelo://app?vid=2ee61785-ed4a-4fc0-bcbc-afd302dbd3f1"},"vehicle_type_id":"4","last_reported":1743653553,"current_range_meters":14000,"station_id":"ce4bgjp2rcd13ifvqbh0","pricing_plan_id":"cebpf4jnsgd1na2vs0mg"},{"bike_id":"16a6ee4e-671d-4565-9b1c-4e8556e00bb5","system_id":"levelo_inurba_marseille","lat":43.25109,"lon":5.40321,"is_reserved":false,"is_disabled":false,"rental_uris":{"android":"levelo://app?vid=16a6ee4e-671d-4565-9b1c-4e8556e00bb5","ios":"levelo://app?vid=16a6ee4e-671d-4565-9b1c-4e8556e00bb5"},"vehicle_type_id":"4","last_reported":1743653553,"current_range_meters":14400,"station_id":"ce4bhlh2rcd13ifvqgig","pricing_plan_id":"cebpf4jnsgd1na2vs0mg"},{"bike_id":"005283db-9aca-49eb-ae41-cbf0dc140b6c","system_id":"levelo_inurba_marseille","lat":43.30142,"lon":5.37297,"is_reserved":false,"is_disabled":false,"rental_uris":{"android":"levelo://app?vid=005283db-9aca-49eb-ae41-cbf0dc140b6c","ios":"levelo://app?vid=005283db-9aca-49eb-ae41-cbf0dc140b6c"},"vehicle_type_id":"4","last_reported":1743653553,"current_range_meters":14400,"station_id":"","pricing_plan_id":"cebpf4jnsgd1na2vs0mg"},{"bike_id":"ac34fccd-2717-4101-8ba4-5acf05623170","system_id":"levelo_inurba_marseille","lat":43.3235,"lon":5.38896,"is_reserved":false,"is_disabled":false,"rental_uris":{"android":"levelo://app?vid=ac34fccd-2717-4101-8ba4-5acf05623170","ios":"levelo://app?vid=ac34fccd-2717-4101-8ba4-5acf05623170"},"vehicle_type_id":"4","last_reported":1743653553,"current_range_meters":14400,"station_id":"ce4bhqp2rcd13ifvqhog","pricing_plan_id":"cebpf4jnsgd1na2vs0mg"},{"bike_id":"b6b445d5-d70e-4280-95a7-47feca3f49dc","system_id":"levelo_inurba_marseille","lat":43.298044,"lon":5.404083,"is_reserved":false,"is_disabled":false,"rental_uris":{"android":"levelo://app?vid=b6b445d5-d70e-4280-95a7-47feca3f49dc","ios":"levelo://app?vid=b6b445d5-d70e-4280-95a7-47feca3f49dc"},"vehicle_type_id":"4","last_reported":1743653553,"current_range_meters":14400,"station_id":"ce4bh112rcd13ifvqd90","pricing_plan_id":"cebpf4jnsgd1na2vs0mg"},{"bike_id":"2c1b962c-5437-417f-a06d-d90e67a40b65","system_id":"levelo_inurba_marseille","lat":43.31273,"lon":5.40176,"is_reserved":false,"is_disabled":false,"rental_uris":{"android":"levelo://app?vid=2c1b962c-5437-417f-a06d-d90e67a40b65","ios":"levelo://app?vid=2c1b962c-5437-417f-a06d-d90e67a40b65"},"vehicle_type_id":"4","last_reported":1743653553,"current_range_meters":14400,"station_id":"ce4bh092rcd13ifvqd30","pricing_plan_id":"cebpf4jnsgd1na2vs0mg"},{"bike_id":"22b8702c-0dfe-451a-841a-e968657038a3","system_id":"levelo_inurba_marseille","lat":43.32479,"lon":5.36562,"is_reserved":false,"is_disabled":false,"rental_uris":{"android":"levelo://app?vid=22b8702c-0dfe-451a-841a-e968657038a3","ios":"levelo://app?vid=22b8702c-0dfe-451a-841a-e968657038a3"},"vehicle_type_id":"4","last_reported":1743653553,"current_range_meters":14800,"station_id":"ce4bhs12rcd13ifvqhvg","pricing_plan_id":"cebpf4jnsgd1na2vs0mg"},{"bike_id":"6c8fb0d4-c76a-44f3-a281-9c8f7c6f0037","system_id":"levelo_inurba_marseille","lat":43.27947,"lon":5.41069,"is_reserved":false,"is_disabled":false,"rental_uris":{"android":"levelo://app?vid=6c8fb0d4-c76a-44f3-a281-9c8f7c6f0037","ios":"levelo://app?vid=6c8fb0d4-c76a-44f3-a281-9c8f7c6f0037"},"vehicle_type_id":"4","last_reported":1743653553,"current_range_meters":14800,"station_id":"ce4bhnp2rcd13ifvqh0g","pricing_plan_id":"cebpf4jnsgd1na2vs0mg"},{"bike_id":"9b108ae0-43b2-4bee-b55e-648783778c2f","system_id":"levelo_inurba_marseille","lat":43.30585,"lon":5.37292,"is_reserved":false,"is_disabled":false,"rental_uris":{"android":"levelo://app?vid=9b108ae0-43b2-4bee-b55e-648783778c2f","ios":"levelo://app?vid=9b108ae0-43b2-4bee-b55e-648783778c2f"},"vehicle_type_id":"4","last_reported":1743653553,"current_range_meters":14800,"station_id":"ce4bgqh2rcd13ifvqc4g","pricing_plan_id":"cebpf4jnsgd1na2vs0mg"},{"bike_id":"cbadd818-61ef-4ba0-9294-9bb1e96d777f","system_id":"levelo_inurba_marseille","lat":43.284123,"lon":5.375331,"is_reserved":false,"is_disabled":false,"rental_uris":{"android":"levelo://app?vid=cbadd818-61ef-4ba0-9294-9bb1e96d777f","ios":"levelo://app?vid=cbadd818-61ef-4ba0-9294-9bb1e96d777f"},"vehicle_type_id":"4","last_reported":1743653553,"current_range_meters":14800,"station_id":"ce4bh412rcd13ifvqds0","pricing_plan_id":"cebpf4jnsgd1na2vs0mg"},{"bike_id":"8e2424bb-8c50-4583-b41b-a7e00143b6c2","system_id":"levelo_inurba_marseille","lat":43.24064,"lon":5.37789,"is_reserved":false,"is_disabled":false,"rental_uris":{"android":"levelo://app?vid=8e2424bb-8c50-4583-b41b-a7e00143b6c2","ios":"levelo://app?vid=8e2424bb-8c50-4583-b41b-a7e00143b6c2"},"vehicle_type_id":"4","last_reported":1743653553,"current_range_meters":14800,"station_id":"ce4bhnp2rcd13ifvqgvg","pricing_plan_id":"cebpf4jnsgd1na2vs0mg"},{"bike_id":"ae168765-3e68-491a-a693-63c5035555c6","system_id":"levelo_inurba_marseille","lat":43.265645,"lon":5.390115,"is_reserved":false,"is_disabled":false,"rental_uris":{"android":"levelo://app?vid=ae168765-3e68-491a-a693-63c5035555c6","ios":"levelo://app?vid=ae168765-3e68-491a-a693-63c5035555c6"},"vehicle_type_id":"4","last_reported":1743653553,"current_range_meters":14800,"station_id":"ce4bhe12rcd13ifvqf30","pricing_plan_id":"cebpf4jnsgd1na2vs0mg"},{"bike_id":"a095eb29-6920-4d45-980a-143c25be8e8c","system_id":"levelo_inurba_marseille","lat":43.28103,"lon":5.37854,"is_reserved":false,"is_disabled":false,"rental_uris":{"android":"levelo://app?vid=a095eb29-6920-4d45-980a-143c25be8e8c","ios":"levelo://app?vid=a095eb29-6920-4d45-980a-143c25be8e8c"},"vehicle_type_id":"4","last_reported":1743653553,"current_range_meters":14800,"station_id":"ce4bha12rcd13ifvqee0","pricing_plan_id":"cebpf4jnsgd1na2vs0mg"},{"bike_id":"c3299699-5b30-44df-83ef-c0a2b5ae4a69","system_id":"levelo_inurba_marseille","lat":43.292074,"lon":5.441602,"is_reserved":false,"is_disabled":false,"rental_uris":{"android":"levelo://app?vid=c3299699-5b30-44df-83ef-c0a2b5ae4a69","ios":"levelo://app?vid=c3299699-5b30-44df-83ef-c0a2b5ae4a69"},"vehicle_type_id":"4","last_reported":1743653553,"current_range_meters":14800,"station_id":"","pricing_plan_id":"cebpf4jnsgd1na2vs0mg"},{"bike_id":"704d09f1-37d1-4c7c-b83b-d9079afff1ad","system_id":"levelo_inurba_marseille","lat":43.286618,"lon":5.36345,"is_reserved":false,"is_disabled":true,"rental_uris":{"android":"levelo://app?vid=704d09f1-37d1-4c7c-b83b-d9079afff1ad","ios":"levelo://app?vid=704d09f1-37d1-4c7c-b83b-d9079afff1ad"},"vehicle_type_id":"4","last_reported":1743653553,"current_range_meters":14800,"station_id":"ce4bhah2rcd13ifvqej0","pricing_plan_id":"cebpf4jnsgd1na2vs0mg"},{"bike_id":"766c13bb-fbfd-4f91-ab06-106078444f50","system_id":"levelo_inurba_marseille","lat":43.309277,"lon":5.401411,"is_reserved":false,"is_disabled":false,"rental_uris":{"android":"levelo://app?vid=766c13bb-fbfd-4f91-ab06-106078444f50","ios":"levelo://app?vid=766c13bb-fbfd-4f91-ab06-106078444f50"},"vehicle_type_id":"4","last_reported":1743653553,"current_range_meters":14800,"station_id":"ce4bgvp2rcd13ifvqct0","pricing_plan_id":"cebpf4jnsgd1na2vs0mg"},{"bike_id":"f88cdea8-f6f7-42dd-8067-42c3c697a2c7","system_id":"levelo_inurba_marseille","lat":43.283153,"lon":5.430847,"is_reserved":false,"is_disabled":false,"rental_uris":{"android":"levelo://app?vid=f88cdea8-f6f7-42dd-8067-42c3c697a2c7","ios":"levelo://app?vid=f88cdea8-f6f7-42dd-8067-42c3c697a2c7"},"vehicle_type_id":"4","last_reported":1743653553,"current_range_meters":15200,"station_id":"","pricing_plan_id":"cebpf4jnsgd1na2vs0mg"},{"bike_id":"fdca0975-7551-47f9-9a40-e9f492efe588","system_id":"levelo_inurba_marseille","lat":43.2809,"lon":5.39657,"is_reserved":false,"is_disabled":false,"rental_uris":{"android":"levelo://app?vid=fdca0975-7551-47f9-9a40-e9f492efe588","ios":"levelo://app?vid=fdca0975-7551-47f9-9a40-e9f492efe588"},"vehicle_type_id":"4","last_reported":1743653553,"current_range_meters":15200,"station_id":"ce4bho12rcd13ifvqh2g","pricing_plan_id":"cebpf4jnsgd1na2vs0mg"},{"bike_id":"841946bd-6940-4794-9af4-41cbe287891a","system_id":"levelo_inurba_marseille","lat":43.273723,"lon":5.362519,"is_reserved":false,"is_disabled":false,"rental_uris":{"android":"levelo://app?vid=841946bd-6940-4794-9af4-41cbe287891a","ios":"levelo://app?vid=841946bd-6940-4794-9af4-41cbe287891a"},"vehicle_type_id":"4","last_reported":1743653553,"current_range_meters":15200,"station_id":"ce4bhbh2rcd13ifvqeo0","pricing_plan_id":"cebpf4jnsgd1na2vs0mg"},{"bike_id":"63139285-137c-4e8d-8e95-6c2a275f8333","system_id":"levelo_inurba_marseille","lat":43.321,"lon":5.36765,"is_reserved":false,"is_disabled":false,"rental_uris":{"android":"levelo://app?vid=63139285-137c-4e8d-8e95-6c2a275f8333","ios":"levelo://app?vid=63139285-137c-4e8d-8e95-6c2a275f8333"},"vehicle_type_id":"4","last_reported":1743653553,"current_range_meters":15200,"station_id":"ce4bhrh2rcd13ifvqhug","pricing_plan_id":"cebpf4jnsgd1na2vs0mg"},{"bike_id":"4dc2e017-2338-4c8e-8c49-115d78626747","system_id":"levelo_inurba_marseille","lat":43.30748,"lon":5.424375,"is_reserved":false,"is_disabled":false,"rental_uris":{"android":"levelo://app?vid=4dc2e017-2338-4c8e-8c49-115d78626747","ios":"levelo://app?vid=4dc2e017-2338-4c8e-8c49-115d78626747"},"vehicle_type_id":"4","last_reported":1743653553,"current_range_meters":15200,"station_id":"st_cvj6ca6bvosntc0bfgr0","pricing_plan_id":"cebpf4jnsgd1na2vs0mg"},{"bike_id":"c89a2250-663c-4df1-b70a-e96153cd67e6","system_id":"levelo_inurba_marseille","lat":43.28844,"lon":5.35868,"is_reserved":false,"is_disabled":false,"rental_uris":{"android":"levelo://app?vid=c89a2250-663c-4df1-b70a-e96153cd67e6","ios":"levelo://app?vid=c89a2250-663c-4df1-b70a-e96153cd67e6"},"vehicle_type_id":"4","last_reported":1743653553,"current_range_meters":15200,"station_id":"ce4bhb12rcd13ifvqem0","pricing_plan_id":"cebpf4jnsgd1na2vs0mg"},{"bike_id":"e6850161-eb87-476a-873f-8880f4d54c60","system_id":"levelo_inurba_marseille","lat":43.28411,"lon":5.37531,"is_reserved":false,"is_disabled":false,"rental_uris":{"android":"levelo://app?vid=e6850161-eb87-476a-873f-8880f4d54c60","ios":"levelo://app?vid=e6850161-eb87-476a-873f-8880f4d54c60"},"vehicle_type_id":"4","last_reported":1743653553,"current_range_meters":16000,"station_id":"ce4bh412rcd13ifvqds0","pricing_plan_id":"cebpf4jnsgd1na2vs0mg"},{"bike_id":"4c5af6eb-9f3a-429a-a9a5-908f23088311","system_id":"levelo_inurba_marseille","lat":43.27374,"lon":5.36263,"is_reserved":false,"is_disabled":false,"rental_uris":{"android":"levelo://app?vid=4c5af6eb-9f3a-429a-a9a5-908f23088311","ios":"levelo://app?vid=4c5af6eb-9f3a-429a-a9a5-908f23088311"},"vehicle_type_id":"4","last_reported":1743653553,"current_range_meters":16000,"station_id":"ce4bhbh2rcd13ifvqeo0","pricing_plan_id":"cebpf4jnsgd1na2vs0mg"},{"bike_id":"15022e62-c525-4818-a522-6f3f1c518ca7","system_id":"levelo_inurba_marseille","lat":43.27971,"lon":5.38735,"is_reserved":false,"is_disabled":false,"rental_uris":{"android":"levelo://app?vid=15022e62-c525-4818-a522-6f3f1c518ca7","ios":"levelo://app?vid=15022e62-c525-4818-a522-6f3f1c518ca7"},"vehicle_type_id":"4","last_reported":1743653553,"current_range_meters":16000,"station_id":"ce4bhg12rcd13ifvqf80","pricing_plan_id":"cebpf4jnsgd1na2vs0mg"},{"bike_id":"93cbb798-f822-4f3d-aae2-19ec45d0ddc0","system_id":"levelo_inurba_marseille","lat":43.32282,"lon":5.38285,"is_reserved":false,"is_disabled":false,"rental_uris":{"android":"levelo://app?vid=93cbb798-f822-4f3d-aae2-19ec45d0ddc0","ios":"levelo://app?vid=93cbb798-f822-4f3d-aae2-19ec45d0ddc0"},"vehicle_type_id":"4","last_reported":1743653553,"current_range_meters":16000,"station_id":"ce4bhr12rcd13ifvqhqg","pricing_plan_id":"cebpf4jnsgd1na2vs0mg"},{"bike_id":"c6fcb94f-552c-4722-b56c-29999e49848f","system_id":"levelo_inurba_marseille","lat":43.28488,"lon":5.3842,"is_reserved":false,"is_disabled":false,"rental_uris":{"android":"levelo://app?vid=c6fcb94f-552c-4722-b56c-29999e49848f","ios":"levelo://app?vid=c6fcb94f-552c-4722-b56c-29999e49848f"},"vehicle_type_id":"4","last_reported":1743653553,"current_range_meters":16000,"station_id":"ce4bh512rcd13ifvqe3g","pricing_plan_id":"cebpf4jnsgd1na2vs0mg"},{"bike_id":"a6303451-5b45-435c-bf0e-748f94cc010d","system_id":"levelo_inurba_marseille","lat":43.231945,"lon":5.355446,"is_reserved":false,"is_disabled":false,"rental_uris":{"android":"levelo://app?vid=a6303451-5b45-435c-bf0e-748f94cc010d","ios":"levelo://app?vid=a6303451-5b45-435c-bf0e-748f94cc010d"},"vehicle_type_id":"4","last_reported":1743653553,"current_range_meters":16000,"station_id":"ce4bhu92rcd13ifvqi70","pricing_plan_id":"cebpf4jnsgd1na2vs0mg"},{"bike_id":"3715be15-8bf7-4e4e-9f23-8441fced00d1","system_id":"levelo_inurba_marseille","lat":43.30882,"lon":5.39653,"is_reserved":false,"is_disabled":false,"rental_uris":{"android":"levelo://app?vid=3715be15-8bf7-4e4e-9f23-8441fced00d1","ios":"levelo://app?vid=3715be15-8bf7-4e4e-9f23-8441fced00d1"},"vehicle_type_id":"4","last_reported":1743653553,"current_range_meters":16000,"station_id":"ce4bh012rcd13ifvqcv0","pricing_plan_id":"cebpf4jnsgd1na2vs0mg"},{"bike_id":"575cc4c9-8511-4037-9ea6-8c165089755d","system_id":"levelo_inurba_marseille","lat":43.246458,"lon":5.38893,"is_reserved":false,"is_disabled":false,"rental_uris":{"android":"levelo://app?vid=575cc4c9-8511-4037-9ea6-8c165089755d","ios":"levelo://app?vid=575cc4c9-8511-4037-9ea6-8c165089755d"},"vehicle_type_id":"4","last_reported":1743653553,"current_range_meters":16000,"station_id":"ce4bhg12rcd13ifvqf60","pricing_plan_id":"cebpf4jnsgd1na2vs0mg"},{"bike_id":"d854661e-c7ae-45bc-8374-11d73b9ed9e3","system_id":"levelo_inurba_marseille","lat":43.2419,"lon":5.39745,"is_reserved":false,"is_disabled":false,"rental_uris":{"android":"levelo://app?vid=d854661e-c7ae-45bc-8374-11d73b9ed9e3","ios":"levelo://app?vid=d854661e-c7ae-45bc-8374-11d73b9ed9e3"},"vehicle_type_id":"4","last_reported":1743653553,"current_range_meters":16000,"station_id":"ce4bhn12rcd13ifvqgpg","pricing_plan_id":"cebpf4jnsgd1na2vs0mg"},{"bike_id":"15ad6368-8314-452d-9a3b-ecf66197a4e0","system_id":"levelo_inurba_marseille","lat":43.302528,"lon":5.400721,"is_reserved":false,"is_disabled":false,"rental_uris":{"android":"levelo://app?vid=15ad6368-8314-452d-9a3b-ecf66197a4e0","ios":"levelo://app?vid=15ad6368-8314-452d-9a3b-ecf66197a4e0"},"vehicle_type_id":"4","last_reported":1743653553,"current_range_meters":16000,"station_id":"ce4bgvh2rcd13ifvqcs0","pricing_plan_id":"cebpf4jnsgd1na2vs0mg"},{"bike_id":"a3e484bb-8da7-4670-8e73-79dc43bc20da","system_id":"levelo_inurba_marseille","lat":43.28453,"lon":5.3589,"is_reserved":false,"is_disabled":false,"rental_uris":{"android":"levelo://app?vid=a3e484bb-8da7-4670-8e73-79dc43bc20da","ios":"levelo://app?vid=a3e484bb-8da7-4670-8e73-79dc43bc20da"},"vehicle_type_id":"4","last_reported":1743653553,"current_range_meters":16000,"station_id":"ce4bhah2rcd13ifvqei0","pricing_plan_id":"cebpf4jnsgd1na2vs0mg"},{"bike_id":"f1e5f20d-e5bb-4349-9a72-f7ab8a004414","system_id":"levelo_inurba_marseille","lat":43.30324,"lon":5.40462,"is_reserved":false,"is_disabled":true,"rental_uris":{"android":"levelo://app?vid=f1e5f20d-e5bb-4349-9a72-f7ab8a004414","ios":"levelo://app?vid=f1e5f20d-e5bb-4349-9a72-f7ab8a004414"},"vehicle_type_id":"4","last_reported":1743653553,"current_range_meters":16000,"station_id":"ce4bh012rcd13ifvqd10","pricing_plan_id":"cebpf4jnsgd1na2vs0mg"},{"bike_id":"5f46717b-05d1-4f34-a220-8087932d755b","system_id":"levelo_inurba_marseille","lat":43.3011,"lon":5.36967,"is_reserved":false,"is_disabled":false,"rental_uris":{"android":"levelo://app?vid=5f46717b-05d1-4f34-a220-8087932d755b","ios":"levelo://app?vid=5f46717b-05d1-4f34-a220-8087932d755b"},"vehicle_type_id":"4","last_reported":1743653553,"current_range_meters":16000,"station_id":"","pricing_plan_id":"cebpf4jnsgd1na2vs0mg"},{"bike_id":"0da307f0-a737-4f3f-8786-4dd451d57e79","system_id":"levelo_inurba_marseille","lat":43.30764,"lon":5.37319,"is_reserved":false,"is_disabled":false,"rental_uris":{"android":"levelo://app?vid=0da307f0-a737-4f3f-8786-4dd451d57e79","ios":"levelo://app?vid=0da307f0-a737-4f3f-8786-4dd451d57e79"},"vehicle_type_id":"4","last_reported":1743653553,"current_range_meters":16400,"station_id":"","pricing_plan_id":"cebpf4jnsgd1na2vs0mg"},{"bike_id":"a862f149-fd7e-4307-acdc-55dc73d7ecfc","system_id":"levelo_inurba_marseille","lat":43.240785,"lon":5.377545,"is_reserved":false,"is_disabled":false,"rental_uris":{"android":"levelo://app?vid=a862f149-fd7e-4307-acdc-55dc73d7ecfc","ios":"levelo://app?vid=a862f149-fd7e-4307-acdc-55dc73d7ecfc"},"vehicle_type_id":"4","last_reported":1743653553,"current_range_meters":16400,"station_id":"ce4bhnp2rcd13ifvqgvg","pricing_plan_id":"cebpf4jnsgd1na2vs0mg"},{"bike_id":"527f9a0b-df09-4b77-952d-95f97b46e052","system_id":"levelo_inurba_marseille","lat":43.28094,"lon":5.39654,"is_reserved":false,"is_disabled":false,"rental_uris":{"android":"levelo://app?vid=527f9a0b-df09-4b77-952d-95f97b46e052","ios":"levelo://app?vid=527f9a0b-df09-4b77-952d-95f97b46e052"},"vehicle_type_id":"4","last_reported":1743653553,"current_range_meters":16400,"station_id":"ce4bho12rcd13ifvqh2g","pricing_plan_id":"cebpf4jnsgd1na2vs0mg"},{"bike_id":"099ddcc8-7d43-4dc0-931b-9ccfb56dd6ba","system_id":"levelo_inurba_marseille","lat":43.270669,"lon":5.422785,"is_reserved":false,"is_disabled":false,"rental_uris":{"android":"levelo://app?vid=099ddcc8-7d43-4dc0-931b-9ccfb56dd6ba","ios":"levelo://app?vid=099ddcc8-7d43-4dc0-931b-9ccfb56dd6ba"},"vehicle_type_id":"4","last_reported":1743653553,"current_range_meters":16400,"station_id":"ce4bhk92rcd13ifvqgb0","pricing_plan_id":"cebpf4jnsgd1na2vs0mg"},{"bike_id":"e9947125-e4b1-4977-bee9-fb031515997e","system_id":"levelo_inurba_marseille","lat":43.24552,"lon":5.39542,"is_reserved":false,"is_disabled":false,"rental_uris":{"android":"levelo://app?vid=e9947125-e4b1-4977-bee9-fb031515997e","ios":"levelo://app?vid=e9947125-e4b1-4977-bee9-fb031515997e"},"vehicle_type_id":"4","last_reported":1743653553,"current_range_meters":16400,"station_id":"ce4bhlp2rcd13ifvqgjg","pricing_plan_id":"cebpf4jnsgd1na2vs0mg"},{"bike_id":"a24c9f8e-385e-4174-be15-3b7ce293d1b7","system_id":"levelo_inurba_marseille","lat":43.3093,"lon":5.40146,"is_reserved":false,"is_disabled":true,"rental_uris":{"android":"levelo://app?vid=a24c9f8e-385e-4174-be15-3b7ce293d1b7","ios":"levelo://app?vid=a24c9f8e-385e-4174-be15-3b7ce293d1b7"},"vehicle_type_id":"4","last_reported":1743653553,"current_range_meters":16400,"station_id":"ce4bgvp2rcd13ifvqct0","pricing_plan_id":"cebpf4jnsgd1na2vs0mg"},{"bike_id":"31582a22-11d1-437d-8c3a-380f94d1feec","system_id":"levelo_inurba_marseille","lat":43.310718,"lon":5.383463,"is_reserved":false,"is_disabled":false,"rental_uris":{"android":"levelo://app?vid=31582a22-11d1-437d-8c3a-380f94d1feec","ios":"levelo://app?vid=31582a22-11d1-437d-8c3a-380f94d1feec"},"vehicle_type_id":"4","last_reported":1743653553,"current_range_meters":16400,"station_id":"ce4bgv92rcd13ifvqcr0","pricing_plan_id":"cebpf4jnsgd1na2vs0mg"},{"bike_id":"a50ace2d-e999-4f31-812f-fa1237ed2e21","system_id":"levelo_inurba_marseille","lat":43.309269,"lon":5.401439,"is_reserved":false,"is_disabled":false,"rental_uris":{"android":"levelo://app?vid=a50ace2d-e999-4f31-812f-fa1237ed2e21","ios":"levelo://app?vid=a50ace2d-e999-4f31-812f-fa1237ed2e21"},"vehicle_type_id":"4","last_reported":1743653553,"current_range_meters":16400,"station_id":"ce4bgvp2rcd13ifvqct0","pricing_plan_id":"cebpf4jnsgd1na2vs0mg"},{"bike_id":"8962b6be-a354-48f2-a3a1-4804788aeb5e","system_id":"levelo_inurba_marseille","lat":43.28932,"lon":5.36636,"is_reserved":false,"is_disabled":false,"rental_uris":{"android":"levelo://app?vid=8962b6be-a354-48f2-a3a1-4804788aeb5e","ios":"levelo://app?vid=8962b6be-a354-48f2-a3a1-4804788aeb5e"},"vehicle_type_id":"4","last_reported":1743653553,"current_range_meters":16400,"station_id":"ce4bhap2rcd13ifvqek0","pricing_plan_id":"cebpf4jnsgd1na2vs0mg"},{"bike_id":"911887f9-af40-484f-b1c7-4ba2097422cf","system_id":"levelo_inurba_marseille","lat":43.318132,"lon":5.368988,"is_reserved":false,"is_disabled":false,"rental_uris":{"android":"levelo://app?vid=911887f9-af40-484f-b1c7-4ba2097422cf","ios":"levelo://app?vid=911887f9-af40-484f-b1c7-4ba2097422cf"},"vehicle_type_id":"4","last_reported":1743653553,"current_range_meters":16800,"station_id":"","pricing_plan_id":"cebpf4jnsgd1na2vs0mg"},{"bike_id":"3b3c8f4c-69b9-4842-9094-27e12fd26d9a","system_id":"levelo_inurba_marseille","lat":43.284596,"lon":5.358864,"is_reserved":false,"is_disabled":false,"rental_uris":{"android":"levelo://app?vid=3b3c8f4c-69b9-4842-9094-27e12fd26d9a","ios":"levelo://app?vid=3b3c8f4c-69b9-4842-9094-27e12fd26d9a"},"vehicle_type_id":"4","last_reported":1743653553,"current_range_meters":16800,"station_id":"ce4bhah2rcd13ifvqei0","pricing_plan_id":"cebpf4jnsgd1na2vs0mg"},{"bike_id":"fe274126-dc9c-4d76-869b-78bb72379067","system_id":"levelo_inurba_marseille","lat":43.29182,"lon":5.39329,"is_reserved":false,"is_disabled":false,"rental_uris":{"android":"levelo://app?vid=fe274126-dc9c-4d76-869b-78bb72379067","ios":"levelo://app?vid=fe274126-dc9c-4d76-869b-78bb72379067"},"vehicle_type_id":"4","last_reported":1743653553,"current_range_meters":16800,"station_id":"ce4bh192rcd13ifvqdd0","pricing_plan_id":"cebpf4jnsgd1na2vs0mg"},{"bike_id":"55947c8c-fc89-4c26-9449-d2084845954d","system_id":"levelo_inurba_marseille","lat":43.28474,"lon":5.35918,"is_reserved":false,"is_disabled":false,"rental_uris":{"android":"levelo://app?vid=55947c8c-fc89-4c26-9449-d2084845954d","ios":"levelo://app?vid=55947c8c-fc89-4c26-9449-d2084845954d"},"vehicle_type_id":"4","last_reported":1743653553,"current_range_meters":16800,"station_id":"ce4bhah2rcd13ifvqei0","pricing_plan_id":"cebpf4jnsgd1na2vs0mg"},{"bike_id":"9d7b4579-2f49-4625-9d98-42fe0dd225fc","system_id":"levelo_inurba_marseille","lat":43.302093,"lon":5.419114,"is_reserved":false,"is_disabled":false,"rental_uris":{"android":"levelo://app?vid=9d7b4579-2f49-4625-9d98-42fe0dd225fc","ios":"levelo://app?vid=9d7b4579-2f49-4625-9d98-42fe0dd225fc"},"vehicle_type_id":"4","last_reported":1743653553,"current_range_meters":16800,"station_id":"","pricing_plan_id":"cebpf4jnsgd1na2vs0mg"},{"bike_id":"480bfc06-0870-40d8-ac58-2c924c59c689","system_id":"levelo_inurba_marseille","lat":43.299329,"lon":5.365283,"is_reserved":false,"is_disabled":false,"rental_uris":{"android":"levelo://app?vid=480bfc06-0870-40d8-ac58-2c924c59c689","ios":"levelo://app?vid=480bfc06-0870-40d8-ac58-2c924c59c689"},"vehicle_type_id":"4","last_reported":1743653553,"current_range_meters":16800,"station_id":"ce4bgm92rcd13ifvqbr0","pricing_plan_id":"cebpf4jnsgd1na2vs0mg"},{"bike_id":"c52761fb-1cd6-4c59-b94e-42d833b42944","system_id":"levelo_inurba_marseille","lat":43.29243,"lon":5.40947,"is_reserved":false,"is_disabled":false,"rental_uris":{"android":"levelo://app?vid=c52761fb-1cd6-4c59-b94e-42d833b42944","ios":"levelo://app?vid=c52761fb-1cd6-4c59-b94e-42d833b42944"},"vehicle_type_id":"4","last_reported":1743653553,"current_range_meters":16800,"station_id":"ce4bh192rcd13ifvqdc0","pricing_plan_id":"cebpf4jnsgd1na2vs0mg"},{"bike_id":"f7933b9f-d69d-4478-8f0f-9719ff49ac5f","system_id":"levelo_inurba_marseille","lat":43.26248,"lon":5.421188,"is_reserved":false,"is_disabled":false,"rental_uris":{"android":"levelo://app?vid=f7933b9f-d69d-4478-8f0f-9719ff49ac5f","ios":"levelo://app?vid=f7933b9f-d69d-4478-8f0f-9719ff49ac5f"},"vehicle_type_id":"4","last_reported":1743653553,"current_range_meters":16800,"station_id":"","pricing_plan_id":"cebpf4jnsgd1na2vs0mg"},{"bike_id":"064ebfba-7497-4bbc-bebe-f7342c95c79d","system_id":"levelo_inurba_marseille","lat":43.281039,"lon":5.378465,"is_reserved":false,"is_disabled":false,"rental_uris":{"android":"levelo://app?vid=064ebfba-7497-4bbc-bebe-f7342c95c79d","ios":"levelo://app?vid=064ebfba-7497-4bbc-bebe-f7342c95c79d"},"vehicle_type_id":"4","last_reported":1743653553,"current_range_meters":16800,"station_id":"ce4bha12rcd13ifvqee0","pricing_plan_id":"cebpf4jnsgd1na2vs0mg"},{"bike_id":"a2a0eac4-8d16-48d5-bed9-5d20574a0609","system_id":"levelo_inurba_marseille","lat":43.29976,"lon":5.37177,"is_reserved":false,"is_disabled":false,"rental_uris":{"android":"levelo://app?vid=a2a0eac4-8d16-48d5-bed9-5d20574a0609","ios":"levelo://app?vid=a2a0eac4-8d16-48d5-bed9-5d20574a0609"},"vehicle_type_id":"4","last_reported":1743653553,"current_range_meters":16400,"station_id":"ce4bgr92rcd13ifvqc7g","pricing_plan_id":"cebpf4jnsgd1na2vs0mg"},{"bike_id":"78c70aa3-ce72-4c7c-ba07-7fa69a7239f0","system_id":"levelo_inurba_marseille","lat":43.312738,"lon":5.401659,"is_reserved":false,"is_disabled":false,"rental_uris":{"android":"levelo://app?vid=78c70aa3-ce72-4c7c-ba07-7fa69a7239f0","ios":"levelo://app?vid=78c70aa3-ce72-4c7c-ba07-7fa69a7239f0"},"vehicle_type_id":"4","last_reported":1743653553,"current_range_meters":17200,"station_id":"ce4bh092rcd13ifvqd30","pricing_plan_id":"cebpf4jnsgd1na2vs0mg"},{"bike_id":"11b4cfb3-f050-4609-bf5a-8f0b078f8eb2","system_id":"levelo_inurba_marseille","lat":43.295581,"lon":5.422871,"is_reserved":false,"is_disabled":false,"rental_uris":{"android":"levelo://app?vid=11b4cfb3-f050-4609-bf5a-8f0b078f8eb2","ios":"levelo://app?vid=11b4cfb3-f050-4609-bf5a-8f0b078f8eb2"},"vehicle_type_id":"4","last_reported":1743653553,"current_range_meters":17200,"station_id":"ce4bhph2rcd13ifvqhdg","pricing_plan_id":"cebpf4jnsgd1na2vs0mg"},{"bike_id":"5b6c66dc-4a6b-4568-8c7a-30c0209b1b0c","system_id":"levelo_inurba_marseille","lat":43.28569,"lon":5.3951,"is_reserved":false,"is_disabled":false,"rental_uris":{"android":"levelo://app?vid=5b6c66dc-4a6b-4568-8c7a-30c0209b1b0c","ios":"levelo://app?vid=5b6c66dc-4a6b-4568-8c7a-30c0209b1b0c"},"vehicle_type_id":"4","last_reported":1743653553,"current_range_meters":17200,"station_id":"ce4bh292rcd13ifvqdg0","pricing_plan_id":"cebpf4jnsgd1na2vs0mg"},{"bike_id":"7bc35aa7-0894-4939-b0b1-3c33e432c446","system_id":"levelo_inurba_marseille","lat":43.32261,"lon":5.38777,"is_reserved":false,"is_disabled":false,"rental_uris":{"android":"levelo://app?vid=7bc35aa7-0894-4939-b0b1-3c33e432c446","ios":"levelo://app?vid=7bc35aa7-0894-4939-b0b1-3c33e432c446"},"vehicle_type_id":"4","last_reported":1743653553,"current_range_meters":17200,"station_id":"","pricing_plan_id":"cebpf4jnsgd1na2vs0mg"},{"bike_id":"cb33b614-709f-479e-abe0-16f157ef59c2","system_id":"levelo_inurba_marseille","lat":43.26939,"lon":5.402548,"is_reserved":false,"is_disabled":false,"rental_uris":{"android":"levelo://app?vid=cb33b614-709f-479e-abe0-16f157ef59c2","ios":"levelo://app?vid=cb33b614-709f-479e-abe0-16f157ef59c2"},"vehicle_type_id":"4","last_reported":1743653553,"current_range_meters":17200,"station_id":"cjm6bp8fraef2m0cb0m0","pricing_plan_id":"cebpf4jnsgd1na2vs0mg"},{"bike_id":"65c86302-8ef0-46f4-ab6e-bac7149a2865","system_id":"levelo_inurba_marseille","lat":43.321099,"lon":5.367756,"is_reserved":false,"is_disabled":false,"rental_uris":{"android":"levelo://app?vid=65c86302-8ef0-46f4-ab6e-bac7149a2865","ios":"levelo://app?vid=65c86302-8ef0-46f4-ab6e-bac7149a2865"},"vehicle_type_id":"4","last_reported":1743653553,"current_range_meters":17200,"station_id":"ce4bhrh2rcd13ifvqhug","pricing_plan_id":"cebpf4jnsgd1na2vs0mg"},{"bike_id":"f2ed867e-408b-4438-bf39-69b7b83fb995","system_id":"levelo_inurba_marseille","lat":43.283363,"lon":5.38108,"is_reserved":false,"is_disabled":true,"rental_uris":{"android":"levelo://app?vid=f2ed867e-408b-4438-bf39-69b7b83fb995","ios":"levelo://app?vid=f2ed867e-408b-4438-bf39-69b7b83fb995"},"vehicle_type_id":"4","last_reported":1743653553,"current_range_meters":17200,"station_id":"ce4bh412rcd13ifvqdr0","pricing_plan_id":"cebpf4jnsgd1na2vs0mg"},{"bike_id":"f5c18729-00d5-4dd2-b8d3-e33a3beb2aba","system_id":"levelo_inurba_marseille","lat":43.28936,"lon":5.3663,"is_reserved":false,"is_disabled":false,"rental_uris":{"android":"levelo://app?vid=f5c18729-00d5-4dd2-b8d3-e33a3beb2aba","ios":"levelo://app?vid=f5c18729-00d5-4dd2-b8d3-e33a3beb2aba"},"vehicle_type_id":"4","last_reported":1743653553,"current_range_meters":17200,"station_id":"ce4bhap2rcd13ifvqek0","pricing_plan_id":"cebpf4jnsgd1na2vs0mg"},{"bike_id":"e6b69cd2-f965-4a12-9e02-6f28a269f9f9","system_id":"levelo_inurba_marseille","lat":43.230532,"lon":5.35492,"is_reserved":false,"is_disabled":false,"rental_uris":{"android":"levelo://app?vid=e6b69cd2-f965-4a12-9e02-6f28a269f9f9","ios":"levelo://app?vid=e6b69cd2-f965-4a12-9e02-6f28a269f9f9"},"vehicle_type_id":"4","last_reported":1743653553,"current_range_meters":17600,"station_id":"cpo3342slgdg3j2ifvpg","pricing_plan_id":"cebpf4jnsgd1na2vs0mg"},{"bike_id":"e9ef05f3-f585-4cd9-8eb2-09ee2865736d","system_id":"levelo_inurba_marseille","lat":43.286589,"lon":5.363468,"is_reserved":false,"is_disabled":false,"rental_uris":{"android":"levelo://app?vid=e9ef05f3-f585-4cd9-8eb2-09ee2865736d","ios":"levelo://app?vid=e9ef05f3-f585-4cd9-8eb2-09ee2865736d"},"vehicle_type_id":"4","last_reported":1743653553,"current_range_meters":17600,"station_id":"ce4bhah2rcd13ifvqej0","pricing_plan_id":"cebpf4jnsgd1na2vs0mg"},{"bike_id":"fb348b09-6abb-47a4-a266-91f2eeaee291","system_id":"levelo_inurba_marseille","lat":43.32107,"lon":5.36772,"is_reserved":false,"is_disabled":false,"rental_uris":{"android":"levelo://app?vid=fb348b09-6abb-47a4-a266-91f2eeaee291","ios":"levelo://app?vid=fb348b09-6abb-47a4-a266-91f2eeaee291"},"vehicle_type_id":"4","last_reported":1743653553,"current_range_meters":17600,"station_id":"ce4bhrh2rcd13ifvqhug","pricing_plan_id":"cebpf4jnsgd1na2vs0mg"},{"bike_id":"01d1b6f2-51c5-43a2-bb3a-b55f9c56248e","system_id":"levelo_inurba_marseille","lat":43.30538,"lon":5.36547,"is_reserved":false,"is_disabled":false,"rental_uris":{"android":"levelo://app?vid=01d1b6f2-51c5-43a2-bb3a-b55f9c56248e","ios":"levelo://app?vid=01d1b6f2-51c5-43a2-bb3a-b55f9c56248e"},"vehicle_type_id":"4","last_reported":1743653553,"current_range_meters":17200,"station_id":"ce4bgs12rcd13ifvqcag","pricing_plan_id":"cebpf4jnsgd1na2vs0mg"},{"bike_id":"cb198fdb-74f9-4020-9daa-6b1a2fe26f80","system_id":"levelo_inurba_marseille","lat":43.30655,"lon":5.40074,"is_reserved":false,"is_disabled":false,"rental_uris":{"android":"levelo://app?vid=cb198fdb-74f9-4020-9daa-6b1a2fe26f80","ios":"levelo://app?vid=cb198fdb-74f9-4020-9daa-6b1a2fe26f80"},"vehicle_type_id":"4","last_reported":1743653553,"current_range_meters":17600,"station_id":"ce4bh112rcd13ifvqda0","pricing_plan_id":"cebpf4jnsgd1na2vs0mg"},{"bike_id":"9fef5347-ece6-46af-a36d-b779bbc64764","system_id":"levelo_inurba_marseille","lat":43.29037,"lon":5.39968,"is_reserved":false,"is_disabled":false,"rental_uris":{"android":"levelo://app?vid=9fef5347-ece6-46af-a36d-b779bbc64764","ios":"levelo://app?vid=9fef5347-ece6-46af-a36d-b779bbc64764"},"vehicle_type_id":"4","last_reported":1743653553,"current_range_meters":17200,"station_id":"ce4bh392rcd13ifvqdm0","pricing_plan_id":"cebpf4jnsgd1na2vs0mg"},{"bike_id":"b91ef664-fb19-4b37-b4f9-64a02888e8e9","system_id":"levelo_inurba_marseille","lat":43.23058,"lon":5.35508,"is_reserved":false,"is_disabled":false,"rental_uris":{"android":"levelo://app?vid=b91ef664-fb19-4b37-b4f9-64a02888e8e9","ios":"levelo://app?vid=b91ef664-fb19-4b37-b4f9-64a02888e8e9"},"vehicle_type_id":"4","last_reported":1743653553,"current_range_meters":17600,"station_id":"cpo3342slgdg3j2ifvpg","pricing_plan_id":"cebpf4jnsgd1na2vs0mg"},{"bike_id":"00b01461-5e44-4811-bb4f-3832840457da","system_id":"levelo_inurba_marseille","lat":43.24171,"lon":5.36395,"is_reserved":false,"is_disabled":true,"rental_uris":{"android":"levelo://app?vid=00b01461-5e44-4811-bb4f-3832840457da","ios":"levelo://app?vid=00b01461-5e44-4811-bb4f-3832840457da"},"vehicle_type_id":"4","last_reported":1743653553,"current_range_meters":17600,"station_id":"cpo36qri1sfpv3e86is0","pricing_plan_id":"cebpf4jnsgd1na2vs0mg"},