{"last_updated":1726322820,"ttl":30,"version":"2.2","data":{"bikes":[{"bike_id":"bc35aeaa-3e4d-43e6-9935-c8f1110a4b4c","system_id":"levelo_inurba_marseille","lat":43.30499,"lon":5.36693,"is_reserved":false,"is_disabled":false,"rental_uris":{"android":"levelo://app?vid=bc35aeaa-3e4d-43e6-9935-c8f1110a4b4c","ios":"levelo://app?vid=bc35aeaa-3e4d-43e6-9935-c8f1110a4b4c"},"vehicle_type_id":"4","last_reported":1726322820,"current_range_meters":32400,"station_id":"","pricing_plan_id":"cebpf4jnsgd1na2vs0mg"},{"bike_id":"eb87fb95-d7e8-4523-9c3a-8580e30ec6d8","system_id":"levelo_inurba_marseille","lat":43.24395,"lon":5.37064,"is_reserved":false,"is_disabled":false,"rental_uris":{"android":"levelo://app?vid=eb87fb95-d7e8-4523-9c3a-8580e30ec6d8","ios":"levelo://app?vid=eb87fb95-d7e8-4523-9c3a-8580e30ec6d8"},"vehicle_type_id":"4","last_reported":1726322820,"current_range_meters":38400,"station_id":"ce4bhhh2rcd13ifvqfk0","pricing_plan_id":"cebpf4jnsgd1na2vs0mg"},{"bike_id":"1433cc86-19c5-4d38-a0b5-c5c087739e0a","system_id":"levelo_inurba_marseille","lat":43.22928,"lon":5.3538,"is_reserved":false,"is_disabled":false,"rental_uris":{"android":"levelo://app?vid=1433cc86-19c5-4d38-a0b5-c5c087739e0a","ios":"levelo://app?vid=1433cc86-19c5-4d38-a0b5-c5c087739e0a"},"vehicle_type_id":"4","last_reported":1726322820,"current_range_meters":26000,"station_id":"cpo3532slgdg3j2ikp40","pricing_plan_id":"cebpf4jnsgd1na2vs0mg"},{"bike_id":"fa812e62-5a7a-4bc9-bad6-c22c286d9c5d","system_id":"levelo_inurba_marseille","lat":43.30468,"lon":5.3793,"is_reserved":false,"is_disabled":false,"rental_uris":{"android":"levelo://app?vid=fa812e62-5a7a-4bc9-bad6-c22c286d9c5d","ios":"levelo://app?vid=fa812e62-5a7a-4bc9-bad6-c22c286d9c5d"},"vehicle_type_id":"4","last_reported":1726322820,"current_range_meters":38800,"station_id":"ce4bgup2rcd13ifvqcn0","pricing_plan_id":"cebpf4jnsgd1na2vs0mg"},{"bike_id":"083984dd-1abd-4a7d-84c6-e8ceb7b63abe","system_id":"levelo_inurba_marseille","lat":43.31294,"lon":5.37812,"is_reserved":false,"is_disabled":false,"rental_uris":{"android":"levelo://app?vid=083984dd-1abd-4a7d-84c6-e8ceb7b63abe","ios":"levelo://app?vid=083984dd-1abd-4a7d-84c6-e8ceb7b63abe"},"vehicle_type_id":"4","last_reported":1726322820,"current_range_meters":38000,"station_id":"","pricing_plan_id":"cebpf4jnsgd1na2vs0mg"},{"bike_id":"91179e3a-425b-4ca5-89a6-08b844efa950","system_id":"levelo_inurba_marseille","lat":43.31369,"lon":5.38494,"is_reserved":false,"is_disabled":false,"rental_uris":{"android":"levelo://app?vid=91179e3a-425b-4ca5-89a6-08b844efa950","ios":"levelo://app?vid=91179e3a-425b-4ca5-89a6-08b844efa950"},"vehicle_type_id":"4","last_reported":1726322820,"current_range_meters":8000,"station_id":"ce4bgt92rcd13ifvqcf0","pricing_plan_id":"cebpf4jnsgd1na2vs0mg"},{"bike_id":"78e8b1af-39b3-4486-9f1e-8f9320f078e7","system_id":"levelo_inurba_marseille","lat":43.2694,"lon":5.40256,"is_reserved":false,"is_disabled":false,"rental_uris":{"android":"levelo://app?vid=78e8b1af-39b3-4486-9f1e-8f9320f078e7","ios":"levelo://app?vid=78e8b1af-39b3-4486-9f1e-8f9320f078e7"},"vehicle_type_id":"4","last_reported":1726322820,"current_range_meters":38400,"station_id":"cjm6bp8fraef2m0cb0m0","pricing_plan_id":"cebpf4jnsgd1na2vs0mg"},{"bike_id":"66939dbb-9a5e-485d-a93f-b30f98afcbb9","system_id":"levelo_inurba_marseille","lat":43.28619,"lon":5.35104,"is_reserved":false,"is_disabled":false,"rental_uris":{"android":"levelo://app?vid=66939dbb-9a5e-485d-a93f-b30f98afcbb9","ios":"levelo://app?vid=66939dbb-9a5e-485d-a93f-b30f98afcbb9"},"vehicle_type_id":"4","last_reported":1726322820,"current_range_meters":14400,"station_id":"ce4bhch2rcd13ifvqeug","pricing_plan_id":"cebpf4jnsgd1na2vs0mg"},{"bike_id":"57078c0b-9beb-4ca6-9619-12066e4ed91f","system_id":"levelo_inurba_marseille","lat":43.31756,"lon":5.39018,"is_reserved":false,"is_disabled":false,"rental_uris":{"android":"levelo://app?vid=57078c0b-9beb-4ca6-9619-12066e4ed91f","ios":"levelo://app?vid=57078c0b-9beb-4ca6-9619-12066e4ed91f"},"vehicle_type_id":"4","last_reported":1726322820,"current_range_meters":39200,"station_id":"ce4bhqp2rcd13ifvqhng","pricing_plan_id":"cebpf4jnsgd1na2vs0mg"},{"bike_id":"a725e6bd-2610-4052-aad1-4708c94b8d10","system_id":"levelo_inurba_marseille","lat":43.28273,"lon":5.35074,"is_reserved":false,"is_disabled":false,"rental_uris":{"android":"levelo://app?vid=a725e6bd-2610-4052-aad1-4708c94b8d10","ios":"levelo://app?vid=a725e6bd-2610-4052-aad1-4708c94b8d10"},"vehicle_type_id":"4","last_reported":1726322820,"current_range_meters":21600,"station_id":"ce4bhbp2rcd13ifvqerg","pricing_plan_id":"cebpf4jnsgd1na2vs0mg"},{"bike_id":"7a58006a-f7c8-4c30-9d6a-8dcf5b4553be","system_id":"levelo_inurba_marseille","lat":43.26217,"lon":5.37439,"is_reserved":false,"is_disabled":false,"rental_uris":{"android":"levelo://app?vid=7a58006a-f7c8-4c30-9d6a-8dcf5b4553be","ios":"levelo://app?vid=7a58006a-f7c8-4c30-9d6a-8dcf5b4553be"},"vehicle_type_id":"4","last_reported":1726322820,"current_range_meters":18800,"station_id":"ce4bhgp2rcd13ifvqfc0","pricing_plan_id":"cebpf4jnsgd1na2vs0mg"},{"bike_id":"3802875f-59b8-4d52-baa6-fb92a260f6b8","system_id":"levelo_inurba_marseille","lat":43.28667,"lon":5.38658,"is_reserved":false,"is_disabled":false,"rental_uris":{"android":"levelo://app?vid=3802875f-59b8-4d52-baa6-fb92a260f6b8","ios":"levelo://app?vid=3802875f-59b8-4d52-baa6-fb92a260f6b8"},"vehicle_type_id":"4","last_reported":1726322820,"current_range_meters":12800,"station_id":"ce4bh492rcd13ifvqdug","pricing_plan_id":"cebpf4jnsgd1na2vs0mg"},{"bike_id":"b57d008e-cedc-4b84-9bf6-15384cb281cd","system_id":"levelo_inurba_marseille","lat":43.29846,"lon":5.36269,"is_reserved":false,"is_disabled":false,"rental_uris":{"android":"levelo://app?vid=b57d008e-cedc-4b84-9bf6-15384cb281cd","ios":"levelo://app?vid=b57d008e-cedc-4b84-9bf6-15384cb281cd"},"vehicle_type_id":"4","last_reported":1726322820,"current_range_meters":39200,"station_id":"ce4bgpp2rcd13ifvqc3g","pricing_plan_id":"cebpf4jnsgd1na2vs0mg"},{"bike_id":"13ec4916-f0ea-4897-8afc-596425b42c42","system_id":"levelo_inurba_marseille","lat":43.23195,"lon":5.35552,"is_reserved":false,"is_disabled":false,"rental_uris":{"android":"levelo://app?vid=13ec4916-f0ea-4897-8afc-596425b42c42","ios":"levelo://app?vid=13ec4916-f0ea-4897-8afc-596425b42c42"},"vehicle_type_id":"4","last_reported":1726322820,"current_range_meters":27200,"station_id":"ce4bhu92rcd13ifvqi70","pricing_plan_id":"cebpf4jnsgd1na2vs0mg"},{"bike_id":"8adf1ade-3db9-4c95-b450-f7fc21a60d09","system_id":"levelo_inurba_marseille","lat":43.24997,"lon":5.38934,"is_reserved":false,"is_disabled":false,"rental_uris":{"android":"levelo://app?vid=8adf1ade-3db9-4c95-b450-f7fc21a60d09","ios":"levelo://app?vid=8adf1ade-3db9-4c95-b450-f7fc21a60d09"},"vehicle_type_id":"4","last_reported":1726322820,"current_range_meters":20800,"station_id":"ce4bhgp2rcd13ifvqfd0","pricing_plan_id":"cebpf4jnsgd1na2vs0mg"},{"bike_id":"cb0eaffb-2812-4bc5-9ace-6454d6cac3eb","system_id":"levelo_inurba_marseille","lat":43.28617,"lon":5.35103,"is_reserved":false,"is_disabled":false,"rental_uris":{"android":"levelo://app?vid=cb0eaffb-2812-4bc5-9ace-6454d6cac3eb","ios":"levelo://app?vid=cb0eaffb-2812-4bc5-9ace-6454d6cac3eb"},"vehicle_type_id":"4","last_reported":1726322820,"current_range_meters":29600,"station_id":"ce4bhch2rcd13ifvqeug","pricing_plan_id":"cebpf4jnsgd1na2vs0mg"},{"bike_id":"236dc62a-7502-4bd4-a28c-79ec1f62ef47","system_id":"levelo_inurba_marseille","lat":43.28844,"lon":5.35861,"is_reserved":false,"is_disabled":false,"rental_uris":{"android":"levelo://app?vid=236dc62a-7502-4bd4-a28c-79ec1f62ef47","ios":"levelo://app?vid=236dc62a-7502-4bd4-a28c-79ec1f62ef47"},"vehicle_type_id":"4","last_reported":1726322820,"current_range_meters":28000,"station_id":"ce4bhb12rcd13ifvqem0","pricing_plan_id":"cebpf4jnsgd1na2vs0mg"},{"bike_id":"3f1e932a-540c-4c5d-a4f8-ac49240977b8","system_id":"levelo_inurba_marseille","lat":43.24387,"lon":5.37052,"is_reserved":false,"is_disabled":false,"rental_uris":{"android":"levelo://app?vid=3f1e932a-540c-4c5d-a4f8-ac49240977b8","ios":"levelo://app?vid=3f1e932a-540c-4c5d-a4f8-ac49240977b8"},"vehicle_type_id":"4","last_reported":1726322820,"current_range_meters":40000,"station_id":"ce4bhhh2rcd13ifvqfk0","pricing_plan_id":"cebpf4jnsgd1na2vs0mg"},{"bike_id":"1b69e28d-b657-4802-b5dd-aa17fb5a768b","system_id":"levelo_inurba_marseille","lat":43.27136,"lon":5.42796,"is_reserved":false,"is_disabled":false,"rental_uris":{"android":"levelo://app?vid=1b69e28d-b657-4802-b5dd-aa17fb5a768b","ios":"levelo://app?vid=1b69e28d-b657-4802-b5dd-aa17fb5a768b"},"vehicle_type_id":"4","last_reported":1726322820,"current_range_meters":26000,"station_id":"","pricing_plan_id":"cebpf4jnsgd1na2vs0mg"},{"bike_id":"17e06d76-9226-40b8-a3da-1add47a80f7c","system_id":"levelo_inurba_marseille","lat":43.26798,"lon":5.39417,"is_reserved":false,"is_disabled":false,"rental_uris":{"android":"levelo://app?vid=17e06d76-9226-40b8-a3da-1add47a80f7c","ios":"levelo://app?vid=17e06d76-9226-40b8-a3da-1add47a80f7c"},"vehicle_type_id":"4","last_reported":1726322820,"current_range_meters":35600,"station_id":"ce4bhh12rcd13ifvqfg0","pricing_plan_id":"cebpf4jnsgd1na2vs0mg"},{"bike_id":"026a3fb4-5a7d-413d-850f-bdb6b382da7d","system_id":"levelo_inurba_marseille","lat":43.23194,"lon":5.3555,"is_reserved":false,"is_disabled":false,"rental_uris":{"android":"levelo://app?vid=026a3fb4-5a7d-413d-850f-bdb6b382da7d","ios":"levelo://app?vid=026a3fb4-5a7d-413d-850f-bdb6b382da7d"},"vehicle_type_id":"4","last_reported":1726322820,"current_range_meters":7200,"station_id":"ce4bhu92rcd13ifvqi70","pricing_plan_id":"cebpf4jnsgd1na2vs0mg"},{"bike_id":"995d3a7e-289e-4ebd-b785-9d2da426ad57","system_id":"levelo_inurba_marseille","lat":43.23201,"lon":5.35549,"is_reserved":false,"is_disabled":false,"rental_uris":{"android":"levelo://app?vid=995d3a7e-289e-4ebd-b785-9d2da426ad57","ios":"levelo://app?vid=995d3a7e-289e-4ebd-b785-9d2da426ad57"},"vehicle_type_id":"4","last_reported":1726322820,"current_range_meters":20000,"station_id":"ce4bhu92rcd13ifvqi70","pricing_plan_id":"cebpf4jnsgd1na2vs0mg"},{"bike_id":"74c67d55-8a5f-40c9-8066-d68354718f8c","system_id":"levelo_inurba_marseille","lat":43.23189,"lon":5.35555,"is_reserved":false,"is_disabled":false,"rental_uris":{"android":"levelo://app?vid=74c67d55-8a5f-40c9-8066-d68354718f8c","ios":"levelo://app?vid=74c67d55-8a5f-40c9-8066-d68354718f8c"},"vehicle_type_id":"4","last_reported":1726322820,"current_range_meters":25200,"station_id":"ce4bhu92rcd13ifvqi70","pricing_plan_id":"cebpf4jnsgd1na2vs0mg"},{"bike_id":"b59367b5-9cf2-454d-9c0c-9efa1a59998d","system_id":"levelo_inurba_marseille","lat":43.27205,"lon":5.39187,"is_reserved":false,"is_disabled":false,"rental_uris":{"android":"levelo://app?vid=b59367b5-9cf2-454d-9c0c-9efa1a59998d","ios":"levelo://app?vid=b59367b5-9cf2-454d-9c0c-9efa1a59998d"},"vehicle_type_id":"4","last_reported":1726322820,"current_range_meters":12800,"station_id":"ce4bhhp2rcd13ifvqfm0","pricing_plan_id":"cebpf4jnsgd1na2vs0mg"},{"bike_id":"a3ebc0ba-a259-4c19-94ac-b4e51502a2fd","system_id":"levelo_inurba_marseille","lat":43.30472,"lon":5.37914,"is_reserved":false,"is_disabled":false,"rental_uris":{"android":"levelo://app?vid=a3ebc0ba-a259-4c19-94ac-b4e51502a2fd","ios":"levelo://app?vid=a3ebc0ba-a259-4c19-94ac-b4e51502a2fd"},"vehicle_type_id":"4","last_reported":1726322820,"current_range_meters":31200,"station_id":"ce4bgup2rcd13ifvqcn0","pricing_plan_id":"cebpf4jnsgd1na2vs0mg"},{"bike_id":"39583510-a917-45eb-8e61-36315c287b4b","system_id":"levelo_inurba_marseille","lat":43.28398,"lon":5.35689,"is_reserved":false,"is_disabled":false,"rental_uris":{"android":"levelo://app?vid=39583510-a917-45eb-8e61-36315c287b4b","ios":"levelo://app?vid=39583510-a917-45eb-8e61-36315c287b4b"},"vehicle_type_id":"4","last_reported":1726322820,"current_range_meters":21600,"station_id":"","pricing_plan_id":"cebpf4jnsgd1na2vs0mg"},{"bike_id":"b175abe2-736e-4361-9631-47d775c167a0","system_id":"levelo_inurba_marseille","lat":43.24392,"lon":5.37067,"is_reserved":false,"is_disabled":false,"rental_uris":{"android":"levelo://app?vid=b175abe2-736e-4361-9631-47d775c167a0","ios":"levelo://app?vid=b175abe2-736e-4361-9631-47d775c167a0"},"vehicle_type_id":"4","last_reported":1726322820,"current_range_meters":19600,"station_id":"ce4bhhh2rcd13ifvqfk0","pricing_plan_id":"cebpf4jnsgd1na2vs0mg"},{"bike_id":"cf7150b7-2313-4be5-92ae-24a7fe519274","system_id":"levelo_inurba_marseille","lat":43.28614,"lon":5.3512,"is_reserved":false,"is_disabled":false,"rental_uris":{"android":"levelo://app?vid=cf7150b7-2313-4be5-92ae-24a7fe519274","ios":"levelo://app?vid=cf7150b7-2313-4be5-92ae-24a7fe519274"},"vehicle_type_id":"4","last_reported":1726322820,"current_range_meters":26800,"station_id":"ce4bhch2rcd13ifvqeug","pricing_plan_id":"cebpf4jnsgd1na2vs0mg"},{"bike_id":"c810d6b7-9e0b-4807-98d4-ce8673d16f3c","system_id":"levelo_inurba_marseille","lat":43.29749,"lon":5.37926,"is_reserved":false,"is_disabled":false,"rental_uris":{"android":"levelo://app?vid=c810d6b7-9e0b-4807-98d4-ce8673d16f3c","ios":"levelo://app?vid=c810d6b7-9e0b-4807-98d4-ce8673d16f3c"},"vehicle_type_id":"4","last_reported":1726322820,"current_range_meters":38800,"station_id":"","pricing_plan_id":"cebpf4jnsgd1na2vs0mg"},{"bike_id":"5d4d196a-dcd3-401c-bbda-3dae8babdc01","system_id":"levelo_inurba_marseille","lat":43.262,"lon":5.37924,"is_reserved":false,"is_disabled":false,"rental_uris":{"android":"levelo://app?vid=5d4d196a-dcd3-401c-bbda-3dae8babdc01","ios":"levelo://app?vid=5d4d196a-dcd3-401c-bbda-3dae8babdc01"},"vehicle_type_id":"4","last_reported":1726322820,"current_range_meters":38800,"station_id":"ce4bhjp2rcd13ifvqg90","pricing_plan_id":"cebpf4jnsgd1na2vs0mg"},{"bike_id":"76102230-8c84-4888-b8b7-8f9724d15667","system_id":"levelo_inurba_marseille","lat":43.27206,"lon":5.39185,"is_reserved":false,"is_disabled":false,"rental_uris":{"android":"levelo://app?vid=76102230-8c84-4888-b8b7-8f9724d15667","ios":"levelo://app?vid=76102230-8c84-4888-b8b7-8f9724d15667"},"vehicle_type_id":"4","last_reported":1726322820,"current_range_meters":21600,"station_id":"ce4bhhp2rcd13ifvqfm0","pricing_plan_id":"cebpf4jnsgd1na2vs0mg"},{"bike_id":"8b085320-0367-48fd-9439-d5a2380ff618","system_id":"levelo_inurba_marseille","lat":43.27816,"lon":5.40716,"is_reserved":false,"is_disabled":false,"rental_uris":{"android":"levelo://app?vid=8b085320-0367-48fd-9439-d5a2380ff618","ios":"levelo://app?vid=8b085320-0367-48fd-9439-d5a2380ff618"},"vehicle_type_id":"4","last_reported":1726322820,"current_range_meters":22400,"station_id":"ce4bhnh2rcd13ifvqgtg","pricing_plan_id":"cebpf4jnsgd1na2vs0mg"},{"bike_id":"aac07f6f-d068-41e5-80ed-ad695afca2fa","system_id":"levelo_inurba_marseille","lat":43.2572,"lon":5.41116,"is_reserved":false,"is_disabled":false,"rental_uris":{"android":"levelo://app?vid=aac07f6f-d068-41e5-80ed-ad695afca2fa","ios":"levelo://app?vid=aac07f6f-d068-41e5-80ed-ad695afca2fa"},"vehicle_type_id":"4","last_reported":1726322820,"current_range_meters":36800,"station_id":"ce4bhkp2rcd13ifvqgd0","pricing_plan_id":"cebpf4jnsgd1na2vs0mg"},{"bike_id":"9c28ec0f-4c95-4721-aa62-afca5f4a4fb7","system_id":"levelo_inurba_marseille","lat":43.30363,"lon":5.38015,"is_reserved":false,"is_disabled":false,"rental_uris":{"android":"levelo://app?vid=9c28ec0f-4c95-4721-aa62-afca5f4a4fb7","ios":"levelo://app?vid=9c28ec0f-4c95-4721-aa62-afca5f4a4fb7"},"vehicle_type_id":"4","last_reported":1726322820,"current_range_meters":8800,"station_id":"","pricing_plan_id":"cebpf4jnsgd1na2vs0mg"},{"bike_id":"6e6de30f-01fb-471f-a1c0-52c22afab9e2","system_id":"levelo_inurba_marseille","lat":43.296661,"lon":5.362623,"is_reserved":false,"is_disabled":false,"rental_uris":{"android":"levelo://app?vid=6e6de30f-01fb-471f-a1c0-52c22afab9e2","ios":"levelo://app?vid=6e6de30f-01fb-471f-a1c0-52c22afab9e2"},"vehicle_type_id":"4","last_reported":1726322820,"current_range_meters":8800,"station_id":"","pricing_plan_id":"cebpf4jnsgd1na2vs0mg"},{"bike_id":"fb7f3559-83e3-4588-ac93-85e3b62246ac","system_id":"levelo_inurba_marseille","lat":43.27209,"lon":5.3919,"is_reserved":false,"is_disabled":false,"rental_uris":{"android":"levelo://app?vid=fb7f3559-83e3-4588-ac93-85e3b62246ac","ios":"levelo://app?vid=fb7f3559-83e3-4588-ac93-85e3b62246ac"},"vehicle_type_id":"4","last_reported":1726322820,"current_range_meters":7200,"station_id":"ce4bhhp2rcd13ifvqfm0","pricing_plan_id":"cebpf4jnsgd1na2vs0mg"},{"bike_id":"34721204-9cc8-4128-8304-5b698c26b1e6","system_id":"levelo_inurba_marseille","lat":43.2318,"lon":5.39982,"is_reserved":false,"is_disabled":false,"rental_uris":{"android":"levelo://app?vid=34721204-9cc8-4128-8304-5b698c26b1e6","ios":"levelo://app?vid=34721204-9cc8-4128-8304-5b698c26b1e6"},"vehicle_type_id":"4","last_reported":1726322820,"current_range_meters":39200,"station_id":"ce4bhn12rcd13ifvqgqg","pricing_plan_id":"cebpf4jnsgd1na2vs0mg"},{"bike_id":"429b0e4c-9d5f-4b59-a920-31b0295cb709","system_id":"levelo_inurba_marseille","lat":43.271903,"lon":5.410065,"is_reserved":false,"is_disabled":false,"rental_uris":{"android":"levelo://app?vid=429b0e4c-9d5f-4b59-a920-31b0295cb709","ios":"levelo://app?vid=429b0e4c-9d5f-4b59-a920-31b0295cb709"},"vehicle_type_id":"4","last_reported":1726322820,"current_range_meters":8400,"station_id":"ce4bhl12rcd13ifvqgf0","pricing_plan_id":"cebpf4jnsgd1na2vs0mg"},{"bike_id":"69efc60e-10d0-453b-8bb5-8135ab5b4edb","system_id":"levelo_inurba_marseille","lat":43.2721,"lon":5.39166,"is_reserved":false,"is_disabled":false,"rental_uris":{"android":"levelo://app?vid=69efc60e-10d0-453b-8bb5-8135ab5b4edb","ios":"levelo://app?vid=69efc60e-10d0-453b-8bb5-8135ab5b4edb"},"vehicle_type_id":"4","last_reported":1726322820,"current_range_meters":38800,"station_id":"ce4bhhp2rcd13ifvqfm0","pricing_plan_id":"cebpf4jnsgd1na2vs0mg"},{"bike_id":"4cf50f1d-cc84-4226-b856-5888cf52be34","system_id":"levelo_inurba_marseille","lat":43.23181,"lon":5.39983,"is_reserved":false,"is_disabled":false,"rental_uris":{"android":"levelo://app?vid=4cf50f1d-cc84-4226-b856-5888cf52be34","ios":"levelo://app?vid=4cf50f1d-cc84-4226-b856-5888cf52be34"},"vehicle_type_id":"4","last_reported":1726322820,"current_range_meters":25600,"station_id":"ce4bhn12rcd13ifvqgqg","pricing_plan_id":"cebpf4jnsgd1na2vs0mg"},{"bike_id":"9b2f8bf2-116b-4c04-afc9-e088fcb3d4e1","system_id":"levelo_inurba_marseille","lat":43.2846,"lon":5.35892,"is_reserved":false,"is_disabled":false,"rental_uris":{"android":"levelo://app?vid=9b2f8bf2-116b-4c04-afc9-e088fcb3d4e1","ios":"levelo://app?vid=9b2f8bf2-116b-4c04-afc9-e088fcb3d4e1"},"vehicle_type_id":"4","last_reported":1726322820,"current_range_meters":11200,"station_id":"ce4bhah2rcd13ifvqei0","pricing_plan_id":"cebpf4jnsgd1na2vs0mg"},{"bike_id":"fc8b27c4-f2ac-4aa3-a72e-f0799ca48e22","system_id":"levelo_inurba_marseille","lat":43.23162,"lon":5.43715,"is_reserved":false,"is_disabled":false,"rental_uris":{"android":"levelo://app?vid=fc8b27c4-f2ac-4aa3-a72e-f0799ca48e22","ios":"levelo://app?vid=fc8b27c4-f2ac-4aa3-a72e-f0799ca48e22"},"vehicle_type_id":"4","last_reported":1726322820,"current_range_meters":17600,"station_id":"ce4bhmp2rcd13ifvqgog","pricing_plan_id":"cebpf4jnsgd1na2vs0mg"},{"bike_id":"67cef4a3-0443-4547-b932-be08a4e29deb","system_id":"levelo_inurba_marseille","lat":43.27208,"lon":5.39182,"is_reserved":false,"is_disabled":false,"rental_uris":{"android":"levelo://app?vid=67cef4a3-0443-4547-b932-be08a4e29deb","ios":"levelo://app?vid=67cef4a3-0443-4547-b932-be08a4e29deb"},"vehicle_type_id":"4","last_reported":1726322820,"current_range_meters":20400,"station_id":"ce4bhhp2rcd13ifvqfm0","pricing_plan_id":"cebpf4jnsgd1na2vs0mg"},{"bike_id":"6c5599b1-0440-41da-ac45-dfda77054232","system_id":"levelo_inurba_marseille","lat":43.26938,"lon":5.4025,"is_reserved":false,"is_disabled":false,"rental_uris":{"android":"levelo://app?vid=6c5599b1-0440-41da-ac45-dfda77054232","ios":"levelo://app?vid=6c5599b1-0440-41da-ac45-dfda77054232"},"vehicle_type_id":"4","last_reported":1726322820,"current_range_meters":16400,"station_id":"cjm6bp8fraef2m0cb0m0","pricing_plan_id":"cebpf4jnsgd1na2vs0mg"},{"bike_id":"6309af4e-7a1b-4ecb-a1ef-3a03687ed676","system_id":"levelo_inurba_marseille","lat":43.2903,"lon":5.38137,"is_reserved":false,"is_disabled":false,"rental_uris":{"android":"levelo://app?vid=6309af4e-7a1b-4ecb-a1ef-3a03687ed676","ios":"levelo://app?vid=6309af4e-7a1b-4ecb-a1ef-3a03687ed676"},"vehicle_type_id":"4","last_reported":1726322820,"current_range_meters":25600,"station_id":"ce4bh4p2rcd13ifvqe1g","pricing_plan_id":"cebpf4jnsgd1na2vs0mg"},{"bike_id":"b3c9a628-6953-4775-a780-6403d0388acb","system_id":"levelo_inurba_marseille","lat":43.31716,"lon":5.43697,"is_reserved":false,"is_disabled":false,"rental_uris":{"android":"levelo://app?vid=b3c9a628-6953-4775-a780-6403d0388acb","ios":"levelo://app?vid=b3c9a628-6953-4775-a780-6403d0388acb"},"vehicle_type_id":"4","last_reported":1726322820,"current_range_meters":26000,"station_id":"ce4bhp92rcd13ifvqhcg","pricing_plan_id":"cebpf4jnsgd1na2vs0mg"},{"bike_id":"083f80f9-af32-4b4b-98d9-51e7c9548087","system_id":"levelo_inurba_marseille","lat":43.32367,"lon":5.38878,"is_reserved":false,"is_disabled":false,"rental_uris":{"android":"levelo://app?vid=083f80f9-af32-4b4b-98d9-51e7c9548087","ios":"levelo://app?vid=083f80f9-af32-4b4b-98d9-51e7c9548087"},"vehicle_type_id":"4","last_reported":1726322820,"current_range_meters":10800,"station_id":"ce4bhqp2rcd13ifvqhog","pricing_plan_id":"cebpf4jnsgd1na2vs0mg"},{"bike_id":"16ca6d91-7513-415c-9a61-5d33eb8ad677","system_id":"levelo_inurba_marseille","lat":43.22934,"lon":5.35374,"is_reserved":false,"is_disabled":false,"rental_uris":{"android":"levelo://app?vid=16ca6d91-7513-415c-9a61-5d33eb8ad677","ios":"levelo://app?vid=16ca6d91-7513-415c-9a61-5d33eb8ad677"},"vehicle_type_id":"4","last_reported":1726322820,"current_range_meters":22400,"station_id":"cpo3532slgdg3j2ikp40","pricing_plan_id":"cebpf4jnsgd1na2vs0mg"},{"bike_id":"10cedbb4-1c1f-4b0e-acdf-6f0391c23bdc","system_id":"levelo_inurba_marseille","lat":43.28035,"lon":5.36936,"is_reserved":false,"is_disabled":false,"rental_uris":{"android":"levelo://app?vid=10cedbb4-1c1f-4b0e-acdf-6f0391c23bdc","ios":"levelo://app?vid=10cedbb4-1c1f-4b0e-acdf-6f0391c23bdc"},"vehicle_type_id":"4","last_reported":1726322820,"current_range_meters":6400,"station_id":"ce4bha12rcd13ifvqef0","pricing_plan_id":"cebpf4jnsgd1na2vs0mg"},{"bike_id":"971ff03d-2a2d-41c0-ac36-02885eb856b5","system_id":"levelo_inurba_marseille","lat":43.23965,"lon":5.36629,"is_reserved":false,"is_disabled":false,"rental_uris":{"android":"levelo://app?vid=971ff03d-2a2d-41c0-ac36-02885eb856b5","ios":"levelo://app?vid=971ff03d-2a2d-41c0-ac36-02885eb856b5"},"vehicle_type_id":"4","last_reported":1726322820,"current_range_meters":32400,"station_id":"ce4bhi12rcd13ifvqfp0","pricing_plan_id":"cebpf4jnsgd1na2vs0mg"},{"bike_id":"d38a17d1-a3ef-44ea-8c84-8c3822e22edc","system_id":"levelo_inurba_marseille","lat":43.27208,"lon":5.39167,"is_reserved":false,"is_disabled":false,"rental_uris":{"android":"levelo://app?vid=d38a17d1-a3ef-44ea-8c84-8c3822e22edc","ios":"levelo://app?vid=d38a17d1-a3ef-44ea-8c84-8c3822e22edc"},"vehicle_type_id":"4","last_reported":1726322820,"current_range_meters":28000,"station_id":"ce4bhhp2rcd13ifvqfm0","pricing_plan_id":"cebpf4jnsgd1na2vs0mg"},{"bike_id":"de01d0f7-5063-4229-91a4-3778ecc4c936","system_id":"levelo_inurba_marseille","lat":43.290379,"lon":5.375693,"is_reserved":false,"is_disabled":false,"rental_uris":{"android":"levelo://app?vid=de01d0f7-5063-4229-91a4-3778ecc4c936","ios":"levelo://app?vid=de01d0f7-5063-4229-91a4-3778ecc4c936"},"vehicle_type_id":"4","last_reported":1726322820,"current_range_meters":12800,"station_id":"ce4bh692rcd13ifvqe90","pricing_plan_id":"cebpf4jnsgd1na2vs0mg"},{"bike_id":"f4c36463-ddf2-4e8a-90a8-c12391e72ce0","system_id":"levelo_inurba_marseille","lat":43.2827,"lon":5.35064,"is_reserved":false,"is_disabled":false,"rental_uris":{"android":"levelo://app?vid=f4c36463-ddf2-4e8a-90a8-c12391e72ce0","ios":"levelo://app?vid=f4c36463-ddf2-4e8a-90a8-c12391e72ce0"},"vehicle_type_id":"4","last_reported":1726322820,"current_range_meters":38800,"station_id":"ce4bhbp2rcd13ifvqerg","pricing_plan_id":"cebpf4jnsgd1na2vs0mg"},{"bike_id":"ce45b02b-b167-4654-b305-eb82cd566863","system_id":"levelo_inurba_marseille","lat":43.23195,"lon":5.35549,"is_reserved":false,"is_disabled":false,"rental_uris":{"android":"levelo://app?vid=ce45b02b-b167-4654-b305-eb82cd566863","ios":"levelo://app?vid=ce45b02b-b167-4654-b305-eb82cd566863"},"vehicle_type_id":"4","last_reported":1726322820,"current_range_meters":25600,"station_id":"ce4bhu92rcd13ifvqi70","pricing_plan_id":"cebpf4jnsgd1na2vs0mg"},{"bike_id":"a715e7cf-6d04-4cf2-8d70-ee8a87f3c776","system_id":"levelo_inurba_marseille","lat":43.27214,"lon":5.39171,"is_reserved":false,"is_disabled":false,"rental_uris":{"android":"levelo://app?vid=a715e7cf-6d04-4cf2-8d70-ee8a87f3c776","ios":"levelo://app?vid=a715e7cf-6d04-4cf2-8d70-ee8a87f3c776"},"vehicle_type_id":"4","last_reported":1726322820,"current_range_meters":10000,"station_id":"ce4bhhp2rcd13ifvqfm0","pricing_plan_id":"cebpf4jnsgd1na2vs0mg"},{"bike_id":"d19bb16c-c267-4bb6-a90b-b189dbb17733","system_id":"levelo_inurba_marseille","lat":43.27214,"lon":5.39161,"is_reserved":false,"is_disabled":false,"rental_uris":{"android":"levelo://app?vid=d19bb16c-c267-4bb6-a90b-b189dbb17733","ios":"levelo://app?vid=d19bb16c-c267-4bb6-a90b-b189dbb17733"},"vehicle_type_id":"4","last_reported":1726322820,"current_range_meters":24400,"station_id":"ce4bhhp2rcd13ifvqfm0","pricing_plan_id":"cebpf4jnsgd1na2vs0mg"},{"bike_id":"fff8974a-74a3-4f70-810a-1bfbd6a3ba1d","system_id":"levelo_inurba_marseille","lat":43.27369,"lon":5.36264,"is_reserved":false,"is_disabled":false,"rental_uris":{"android":"levelo://app?vid=fff8974a-74a3-4f70-810a-1bfbd6a3ba1d","ios":"levelo://app?vid=fff8974a-74a3-4f70-810a-1bfbd6a3ba1d"},"vehicle_type_id":"4","last_reported":1726322820,"current_range_meters":39200,"station_id":"ce4bhbh2rcd13ifvqeo0","pricing_plan_id":"cebpf4jnsgd1na2vs0mg"},{"bike_id":"340e0b35-f7d3-4b6b-9feb-60d94d233982","system_id":"levelo_inurba_marseille","lat":43.25492,"lon":5.37652,"is_reserved":false,"is_disabled":false,"rental_uris":{"android":"levelo://app?vid=340e0b35-f7d3-4b6b-9feb-60d94d233982","ios":"levelo://app?vid=340e0b35-f7d3-4b6b-9feb-60d94d233982"},"vehicle_type_id":"4","last_reported":1726322820,"current_range_meters":4400,"station_id":"ce4bhh12rcd13ifvqff0","pricing_plan_id":"cebpf4jnsgd1na2vs0mg"},{"bike_id":"ac1005c2-61d5-416d-9866-dba1b1adb16a","system_id":"levelo_inurba_marseille","lat":43.30914,"lon":5.36835,"is_reserved":false,"is_disabled":false,"rental_uris":{"android":"levelo://app?vid=ac1005c2-61d5-416d-9866-dba1b1adb16a","ios":"levelo://app?vid=ac1005c2-61d5-416d-9866-dba1b1adb16a"},"vehicle_type_id":"4","last_reported":1726322820,"current_range_meters":20000,"station_id":"ce4bgn92rcd13ifvqbvg","pricing_plan_id":"cebpf4jnsgd1na2vs0mg"},{"bike_id":"4dcd54ea-7be8-4a59-88d6-0c6dbde6b9b4","system_id":"levelo_inurba_marseille","lat":43.2293,"lon":5.35379,"is_reserved":false,"is_disabled":false,"rental_uris":{"android":"levelo://app?vid=4dcd54ea-7be8-4a59-88d6-0c6dbde6b9b4","ios":"levelo://app?vid=4dcd54ea-7be8-4a59-88d6-0c6dbde6b9b4"},"vehicle_type_id":"4","last_reported":1726322820,"current_range_meters":12400,"station_id":"cpo3532slgdg3j2ikp40","pricing_plan_id":"cebpf4jnsgd1na2vs0mg"},{"bike_id":"920ab188-b742-46ff-82da-fa33f8f84c2e","system_id":"levelo_inurba_marseille","lat":43.23067,"lon":5.35496,"is_reserved":false,"is_disabled":false,"rental_uris":{"android":"levelo://app?vid=920ab188-b742-46ff-82da-fa33f8f84c2e","ios":"levelo://app?vid=920ab188-b742-46ff-82da-fa33f8f84c2e"},"vehicle_type_id":"4","last_reported":1726322820,"current_range_meters":24800,"station_id":"cpo3342slgdg3j2ifvpg","pricing_plan_id":"cebpf4jnsgd1na2vs0mg"},{"bike_id":"26db0265-0a91-4c66-8aa8-67a94f7eef0d","system_id":"levelo_inurba_marseille","lat":43.26935,"lon":5.40062,"is_reserved":false,"is_disabled":false,"rental_uris":{"android":"levelo://app?vid=26db0265-0a91-4c66-8aa8-67a94f7eef0d","ios":"levelo://app?vid=26db0265-0a91-4c66-8aa8-67a94f7eef0d"},"vehicle_type_id":"4","last_reported":1726322820,"current_range_meters":17600,"station_id":"","pricing_plan_id":"cebpf4jnsgd1na2vs0mg"},{"bike_id":"9b49fc06-69dc-4375-9bc8-2ab31283d424","system_id":"levelo_inurba_marseille","lat":43.29903,"lon":5.43662,"is_reserved":false,"is_disabled":false,"rental_uris":{"android":"levelo://app?vid=9b49fc06-69dc-4375-9bc8-2ab31283d424","ios":"levelo://app?vid=9b49fc06-69dc-4375-9bc8-2ab31283d424"},"vehicle_type_id":"4","last_reported":1726322820,"current_range_meters":32400,"station_id":"ce4bhpp2rcd13ifvqhfg","pricing_plan_id":"cebpf4jnsgd1na2vs0mg"},{"bike_id":"4d75d199-02f1-485e-aa16-89176ed2c212","system_id":"levelo_inurba_marseille","lat":43.31173,"lon":5.3935,"is_reserved":false,"is_disabled":false,"rental_uris":{"android":"levelo://app?vid=4d75d199-02f1-485e-aa16-89176ed2c212","ios":"levelo://app?vid=4d75d199-02f1-485e-aa16-89176ed2c212"},"vehicle_type_id":"4","last_reported":1726322820,"current_range_meters":26800,"station_id":"","pricing_plan_id":"cebpf4jnsgd1na2vs0mg"},{"bike_id":"226198aa-f036-4a64-b063-1d305686b773","system_id":"levelo_inurba_marseille","lat":43.27209,"lon":5.39181,"is_reserved":false,"is_disabled":false,"rental_uris":{"android":"levelo://app?vid=226198aa-f036-4a64-b063-1d305686b773","ios":"levelo://app?vid=226198aa-f036-4a64-b063-1d305686b773"},"vehicle_type_id":"4","last_reported":1726322820,"current_range_meters":9200,"station_id":"ce4bhhp2rcd13ifvqfm0","pricing_plan_id":"cebpf4jnsgd1na2vs0mg"},{"bike_id":"2b8a2e03-128a-44ab-8002-d2ecf2231907","system_id":"levelo_inurba_marseille","lat":43.29307,"lon":5.37456,"is_reserved":false,"is_disabled":false,"rental_uris":{"android":"levelo://app?vid=2b8a2e03-128a-44ab-8002-d2ecf2231907","ios":"levelo://app?vid=2b8a2e03-128a-44ab-8002-d2ecf2231907"},"vehicle_type_id":"4","last_reported":1726322820,"current_range_meters":19200,"station_id":"ce4bgi12rcd13ifvqb70","pricing_plan_id":"cebpf4jnsgd1na2vs0mg"},{"bike_id":"47f6de78-df01-4a2d-a6c4-d802e1896e74","system_id":"levelo_inurba_marseille","lat":43.27313,"lon":5.3909,"is_reserved":false,"is_disabled":false,"rental_uris":{"android":"levelo://app?vid=47f6de78-df01-4a2d-a6c4-d802e1896e74","ios":"levelo://app?vid=47f6de78-df01-4a2d-a6c4-d802e1896e74"},"vehicle_type_id":"4","last_reported":1726322820,"current_range_meters":18000,"station_id":"ce4bhgp2rcd13ifvqfe0","pricing_plan_id":"cebpf4jnsgd1na2vs0mg"},{"bike_id":"c7cd67a6-2f65-43e6-9e58-1489cab32866","system_id":"levelo_inurba_marseille","lat":43.24166,"lon":5.36395,"is_reserved":false,"is_disabled":false,"rental_uris":{"android":"levelo://app?vid=c7cd67a6-2f65-43e6-9e58-1489cab32866","ios":"levelo://app?vid=c7cd67a6-2f65-43e6-9e58-1489cab32866"},"vehicle_type_id":"4","last_reported":1726322820,"current_range_meters":38400,"station_id":"cpo36qri1sfpv3e86is0","pricing_plan_id":"cebpf4jnsgd1na2vs0mg"},{"bike_id":"bea2eb63-6dba-4a7f-ba8a-ed9270863fa0","system_id":"levelo_inurba_marseille","lat":43.25503,"lon":5.37652,"is_reserved":false,"is_disabled":false,"rental_uris":{"android":"levelo://app?vid=bea2eb63-6dba-4a7f-ba8a-ed9270863fa0","ios":"levelo://app?vid=bea2eb63-6dba-4a7f-ba8a-ed9270863fa0"},"vehicle_type_id":"4","last_reported":1726322820,"current_range_meters":34000,"station_id":"ce4bhh12rcd13ifvqff0","pricing_plan_id":"cebpf4jnsgd1na2vs0mg"},{"bike_id":"e00d038a-00c7-4258-ab4b-259bdb081cfd","system_id":"levelo_inurba_marseille","lat":43.23194,"lon":5.35548,"is_reserved":false,"is_disabled":false,"rental_uris":{"android":"levelo://app?vid=e00d038a-00c7-4258-ab4b-259bdb081cfd","ios":"levelo://app?vid=e00d038a-00c7-4258-ab4b-259bdb081cfd"},"vehicle_type_id":"4","last_reported":1726322820,"current_range_meters":36000,"station_id":"ce4bhu92rcd13ifvqi70","pricing_plan_id":"cebpf4jnsgd1na2vs0mg"},{"bike_id":"4f847161-8733-40c0-9d1a-924c211b3057","system_id":"levelo_inurba_marseille","lat":43.23194,"lon":5.35551,"is_reserved":false,"is_disabled":false,"rental_uris":{"android":"levelo://app?vid=4f847161-8733-40c0-9d1a-924c211b3057","ios":"levelo://app?vid=4f847161-8733-40c0-9d1a-924c211b3057"},"vehicle_type_id":"4","last_reported":1726322820,"current_range_meters":38000,"station_id":"ce4bhu92rcd13ifvqi70","pricing_plan_id":"cebpf4jnsgd1na2vs0mg"},{"bike_id":"6a0ba89f-d9cb-4b15-ad4d-931592dbcc7a","system_id":"levelo_inurba_marseille","lat":43.26945,"lon":5.40251,"is_reserved":false,"is_disabled":false,"rental_uris":{"android":"levelo://app?vid=6a0ba89f-d9cb-4b15-ad4d-931592dbcc7a","ios":"levelo://app?vid=6a0ba89f-d9cb-4b15-ad4d-931592dbcc7a"},"vehicle_type_id":"4","last_reported":1726322820,"current_range_meters":14400,"station_id":"cjm6bp8fraef2m0cb0m0","pricing_plan_id":"cebpf4jnsgd1na2vs0mg"},{"bike_id":"c8bcf91a-5827-41b8-81db-791cf371961e","system_id":"levelo_inurba_marseille","lat":43.26945,"lon":5.40246,"is_reserved":false,"is_disabled":false,"rental_uris":{"android":"levelo://app?vid=c8bcf91a-5827-41b8-81db-791cf371961e","ios":"levelo://app?vid=c8bcf91a-5827-41b8-81db-791cf371961e"},"vehicle_type_id":"4","last_reported":1726322820,"current_range_meters":38800,"station_id":"cjm6bp8fraef2m0cb0m0","pricing_plan_id":"cebpf4jnsgd1na2vs0mg"},{"bike_id":"aced5ab7-b508-4250-8809-353d2c8a330a","system_id":"levelo_inurba_marseille","lat":43.255829,"lon":5.38236,"is_reserved":false,"is_disabled":false,"rental_uris":{"android":"levelo://app?vid=aced5ab7-b508-4250-8809-353d2c8a330a","ios":"levelo://app?vid=aced5ab7-b508-4250-8809-353d2c8a330a"},"vehicle_type_id":"4","last_reported":1726322820,"current_range_meters":18800,"station_id":"ce4bhih2rcd13ifvqfs0","pricing_plan_id":"cebpf4jnsgd1na2vs0mg"},{"bike_id":"557fbab8-6db7-456b-91cd-8b32161ddb92","system_id":"levelo_inurba_marseille","lat":43.31722,"lon":5.42398,"is_reserved":false,"is_disabled":false,"rental_uris":{"android":"levelo://app?vid=557fbab8-6db7-456b-91cd-8b32161ddb92","ios":"levelo://app?vid=557fbab8-6db7-456b-91cd-8b32161ddb92"},"vehicle_type_id":"4","last_reported":1726322820,"current_range_meters":6000,"station_id":"ce4bhp92rcd13ifvqhbg","pricing_plan_id":"cebpf4jnsgd1na2vs0mg"},{"bike_id":"9e6b05d9-5b9e-4e8c-a7ed-a6aa23fe9a42","system_id":"levelo_inurba_marseille","lat":43.28608,"lon":5.35104,"is_reserved":false,"is_disabled":false,"rental_uris":{"android":"levelo://app?vid=9e6b05d9-5b9e-4e8c-a7ed-a6aa23fe9a42","ios":"levelo://app?vid=9e6b05d9-5b9e-4e8c-a7ed-a6aa23fe9a42"},"vehicle_type_id":"4","last_reported":1726322820,"current_range_meters":27600,"station_id":"ce4bhch2rcd13ifvqeug","pricing_plan_id":"cebpf4jnsgd1na2vs0mg"},{"bike_id":"883d6aac-580d-461c-b94f-6721061913de","system_id":"levelo_inurba_marseille","lat":43.26805,"lon":5.40269,"is_reserved":false,"is_disabled":false,"rental_uris":{"android":"levelo://app?vid=883d6aac-580d-461c-b94f-6721061913de","ios":"levelo://app?vid=883d6aac-580d-461c-b94f-6721061913de"},"vehicle_type_id":"4","last_reported":1726322820,"current_range_meters":27600,"station_id":"ce501612rcd8frsf0b60","pricing_plan_id":"cebpf4jnsgd1na2vs0mg"},{"bike_id":"e5b37371-965a-4bb5-9050-f3ee8b321d95","system_id":"levelo_inurba_marseille","lat":43.29901,"lon":5.43673,"is_reserved":false,"is_disabled":false,"rental_uris":{"android":"levelo://app?vid=e5b37371-965a-4bb5-9050-f3ee8b321d95","ios":"levelo://app?vid=e5b37371-965a-4bb5-9050-f3ee8b321d95"},"vehicle_type_id":"4","last_reported":1726322820,"current_range_meters":12400,"station_id":"ce4bhpp2rcd13ifvqhfg","pricing_plan_id":"cebpf4jnsgd1na2vs0mg"},{"bike_id":"1bfdf08b-aea7-48fa-bfc2-ed373d3d9b5e","system_id":"levelo_inurba_marseille","lat":43.31328,"lon":5.39695,"is_reserved":false,"is_disabled":false,"rental_uris":{"android":"levelo://app?vid=1bfdf08b-aea7-48fa-bfc2-ed373d3d9b5e","ios":"levelo://app?vid=1bfdf08b-aea7-48fa-bfc2-ed373d3d9b5e"},"vehicle_type_id":"4","last_reported":1726322820,"current_range_meters":29600,"station_id":"ce4bgvp2rcd13ifvqcu0","pricing_plan_id":"cebpf4jnsgd1na2vs0mg"},{"bike_id":"7e8e5642-9955-4721-97f6-08b0ff142507","system_id":"levelo_inurba_marseille","lat":43.2559,"lon":5.38223,"is_reserved":false,"is_disabled":false,"rental_uris":{"android":"levelo://app?vid=7e8e5642-9955-4721-97f6-08b0ff142507","ios":"levelo://app?vid=7e8e5642-9955-4721-97f6-08b0ff142507"},"vehicle_type_id":"4","last_reported":1726322820,"current_range_meters":25200,"station_id":"ce4bhih2rcd13ifvqfs0","pricing_plan_id":"cebpf4jnsgd1na2vs0mg"},{"bike_id":"10f98968-e41b-43d4-a7a8-4df30967654c","system_id":"levelo_inurba_marseille","lat":43.28424,"lon":5.37513,"is_reserved":false,"is_disabled":false,"rental_uris":{"android":"levelo://app?vid=10f98968-e41b-43d4-a7a8-4df30967654c","ios":"levelo://app?vid=10f98968-e41b-43d4-a7a8-4df30967654c"},"vehicle_type_id":"4","last_reported":1726322820,"current_range_meters":27600,"station_id":"ce4bh412rcd13ifvqds0","pricing_plan_id":"cebpf4jnsgd1na2vs0mg"},{"bike_id":"ee721f16-71d0-49c8-9da4-858f78b55bcb","system_id":"levelo_inurba_marseille","lat":43.2594,"lon":5.40901,"is_reserved":false,"is_disabled":false,"rental_uris":{"android":"levelo://app?vid=ee721f16-71d0-49c8-9da4-858f78b55bcb","ios":"levelo://app?vid=ee721f16-71d0-49c8-9da4-858f78b55bcb"},"vehicle_type_id":"4","last_reported":1726322820,"current_range_meters":30000,"station_id":"ce4bhm92rcd13ifvqglg","pricing_plan_id":"cebpf4jnsgd1na2vs0mg"},{"bike_id":"b539ebd9-7ecc-4f7e-b4c7-7d15509ac9e8","system_id":"levelo_inurba_marseille","lat":43.27207,"lon":5.39195,"is_reserved":false,"is_disabled":false,"rental_uris":{"android":"levelo://app?vid=b539ebd9-7ecc-4f7e-b4c7-7d15509ac9e8","ios":"levelo://app?vid=b539ebd9-7ecc-4f7e-b4c7-7d15509ac9e8"},"vehicle_type_id":"4","last_reported":1726322820,"current_range_meters":36000,"station_id":"ce4bhhp2rcd13ifvqfm0","pricing_plan_id":"cebpf4jnsgd1na2vs0mg"},{"bike_id":"7dd1bcc5-2727-4390-947a-680fa5c1b5f9","system_id":"levelo_inurba_marseille","lat":43.26488,"lon":5.39545,"is_reserved":false,"is_disabled":false,"rental_uris":{"android":"levelo://app?vid=7dd1bcc5-2727-4390-947a-680fa5c1b5f9","ios":"levelo://app?vid=7dd1bcc5-2727-4390-947a-680fa5c1b5f9"},"vehicle_type_id":"4","last_reported":1726322820,"current_range_meters":3200,"station_id":"ce4bhi12rcd13ifvqfq0","pricing_plan_id":"cebpf4jnsgd1na2vs0mg"},{"bike_id":"3b04105b-3d4a-4d6b-a0c7-58da2ab327f7","system_id":"levelo_inurba_marseille","lat":43.30148,"lon":5.38091,"is_reserved":false,"is_disabled":false,"rental_uris":{"android":"levelo://app?vid=3b04105b-3d4a-4d6b-a0c7-58da2ab327f7","ios":"levelo://app?vid=3b04105b-3d4a-4d6b-a0c7-58da2ab327f7"},"vehicle_type_id":"4","last_reported":1726322820,"current_range_meters":8400,"station_id":"ce4bgjp2rcd13ifvqbh0","pricing_plan_id":"cebpf4jnsgd1na2vs0mg"},{"bike_id":"c4b23437-ef77-4237-ad73-f588f62793fe","system_id":"levelo_inurba_marseille","lat":43.27205,"lon":5.39187,"is_reserved":false,"is_disabled":false,"rental_uris":{"android":"levelo://app?vid=c4b23437-ef77-4237-ad73-f588f62793fe","ios":"levelo://app?vid=c4b23437-ef77-4237-ad73-f588f62793fe"},"vehicle_type_id":"4","last_reported":1726322820,"current_range_meters":25200,"station_id":"ce4bhhp2rcd13ifvqfm0","pricing_plan_id":"cebpf4jnsgd1na2vs0mg"},{"bike_id":"6dca4450-ad2b-4e54-b899-97b8b05b15c7","system_id":"levelo_inurba_marseille","lat":43.26947,"lon":5.40245,"is_reserved":false,"is_disabled":false,"rental_uris":{"android":"levelo://app?vid=6dca4450-ad2b-4e54-b899-97b8b05b15c7","ios":"levelo://app?vid=6dca4450-ad2b-4e54-b899-97b8b05b15c7"},"vehicle_type_id":"4","last_reported":1726322820,"current_range_meters":9600,"station_id":"cjm6bp8fraef2m0cb0m0","pricing_plan_id":"cebpf4jnsgd1na2vs0mg"},{"bike_id":"bcbffbd9-e054-46a1-a19c-807793852bb8","system_id":"levelo_inurba_marseille","lat":43.254669,"lon":5.376704,"is_reserved":false,"is_disabled":false,"rental_uris":{"android":"levelo://app?vid=bcbffbd9-e054-46a1-a19c-807793852bb8","ios":"levelo://app?vid=bcbffbd9-e054-46a1-a19c-807793852bb8"},"vehicle_type_id":"4","last_reported":1726322820,"current_range_meters":30800,"station_id":"ce4bhh12rcd13ifvqff0","pricing_plan_id":"cebpf4jnsgd1na2vs0mg"},{"bike_id":"75c35499-0de6-41a0-acf5-7c9b58381038","system_id":"levelo_inurba_marseille","lat":43.23191,"lon":5.39967,"is_reserved":false,"is_disabled":false,"rental_uris":{"android":"levelo://app?vid=75c35499-0de6-41a0-acf5-7c9b58381038","ios":"levelo://app?vid=75c35499-0de6-41a0-acf5-7c9b58381038"},"vehicle_type_id":"4","last_reported":1726322820,"current_range_meters":39200,"station_id":"ce4bhn12rcd13ifvqgqg","pricing_plan_id":"cebpf4jnsgd1na2vs0mg"},{"bike_id":"7c0f0af4-2cae-4050-b2dd-280d545fa007","system_id":"levelo_inurba_marseille","lat":43.31359,"lon":5.36721,"is_reserved":false,"is_disabled":false,"rental_uris":{"android":"levelo://app?vid=7c0f0af4-2cae-4050-b2dd-280d545fa007","ios":"levelo://app?vid=7c0f0af4-2cae-4050-b2dd-280d545fa007"},"vehicle_type_id":"4","last_reported":1726322820,"current_range_meters":35600,"station_id":"ce4bgr92rcd13ifvqc6g","pricing_plan_id":"cebpf4jnsgd1na2vs0mg"},{"bike_id":"dfc7e944-178a-43bd-85e8-0abf1cafc416","system_id":"levelo_inurba_marseille","lat":43.22931,"lon":5.35374,"is_reserved":false,"is_disabled":false,"rental_uris":{"android":"levelo://app?vid=dfc7e944-178a-43bd-85e8-0abf1cafc416","ios":"levelo://app?vid=dfc7e944-178a-43bd-85e8-0abf1cafc416"},"vehicle_type_id":"4","last_reported":1726322820,"current_range_meters":25600,"station_id":"cpo3532slgdg3j2ikp40","pricing_plan_id":"cebpf4jnsgd1na2vs0mg"},{"bike_id":"94121508-9f7b-42b3-9b0f-40d6b1bee8e9","system_id":"levelo_inurba_marseille","lat":43.31233,"lon":5.36856,"is_reserved":false,"is_disabled":false,"rental_uris":{"android":"levelo://app?vid=94121508-9f7b-42b3-9b0f-40d6b1bee8e9","ios":"levelo://app?vid=94121508-9f7b-42b3-9b0f-40d6b1bee8e9"},"vehicle_type_id":"4","last_reported":1726322820,"current_range_meters":14400,"station_id":"ce4bgl92rcd13ifvqbq0","pricing_plan_id":"cebpf4jnsgd1na2vs0mg"},{"bike_id":"04e65e4b-1b39-4366-97d3-19066324d3aa","system_id":"levelo_inurba_marseille","lat":43.28672,"lon":5.36355,"is_reserved":false,"is_disabled":false,"rental_uris":{"android":"levelo://app?vid=04e65e4b-1b39-4366-97d3-19066324d3aa","ios":"levelo://app?vid=04e65e4b-1b39-4366-97d3-19066324d3aa"},"vehicle_type_id":"4","last_reported":1726322820,"current_range_meters":22800,"station_id":"ce4bhah2rcd13ifvqej0","pricing_plan_id":"cebpf4jnsgd1na2vs0mg"},{"bike_id":"b645ac77-0d58-4fa9-8ad3-947af8bdb1d9","system_id":"levelo_inurba_marseille","lat":43.29901,"lon":5.43671,"is_reserved":false,"is_disabled":false,"rental_uris":{"android":"levelo://app?vid=b645ac77-0d58-4fa9-8ad3-947af8bdb1d9","ios":"levelo://app?vid=b645ac77-0d58-4fa9-8ad3-947af8bdb1d9"},"vehicle_type_id":"4","last_reported":1726322820,"current_range_meters":38000,"station_id":"ce4bhpp2rcd13ifvqhfg","pricing_plan_id":"cebpf4jnsgd1na2vs0mg"},{"bike_id":"598b17b5-a521-4d5f-bda1-8802d2d44dd2","system_id":"levelo_inurba_marseille","lat":43.29601,"lon":5.37717,"is_reserved":false,"is_disabled":false,"rental_uris":{"android":"levelo://app?vid=598b17b5-a521-4d5f-bda1-8802d2d44dd2","ios":"levelo://app?vid=598b17b5-a521-4d5f-bda1-8802d2d44dd2"},"vehicle_type_id":"4","last_reported":1726322820,"current_range_meters":2000,"station_id":"ce4bgi92rcd13ifvqb90","pricing_plan_id":"cebpf4jnsgd1na2vs0mg"},{"bike_id":"d136a322-e989-4cf5-844c-2cdc7a6da1c3","system_id":"levelo_inurba_marseille","lat":43.29847,"lon":5.36278,"is_reserved":false,"is_disabled":false,"rental_uris":{"android":"levelo://app?vid=d136a322-e989-4cf5-844c-2cdc7a6da1c3","ios":"levelo://app?vid=d136a322-e989-4cf5-844c-2cdc7a6da1c3"},"vehicle_type_id":"4","last_reported":1726322820,"current_range_meters":16400,"station_id":"ce4bgpp2rcd13ifvqc3g","pricing_plan_id":"cebpf4jnsgd1na2vs0mg"},{"bike_id":"91d155a1-0e95-42f4-9cf2-24e586735a13","system_id":"levelo_inurba_marseille","lat":43.33724,"lon":5.39186,"is_reserved":false,"is_disabled":false,"rental_uris":{"android":"levelo://app?vid=91d155a1-0e95-42f4-9cf2-24e586735a13","ios":"levelo://app?vid=91d155a1-0e95-42f4-9cf2-24e586735a13"},"vehicle_type_id":"4","last_reported":1726322820,"current_range_meters":39200,"station_id":"ce4bhr92rcd13ifvqhsg","pricing_plan_id":"cebpf4jnsgd1na2vs0mg"},{"bike_id":"157244ef-14c2-452c-a6a4-b6f543ebe213","system_id":"levelo_inurba_marseille","lat":43.2722,"lon":5.39179,"is_reserved":false,"is_disabled":false,"rental_uris":{"android":"levelo://app?vid=157244ef-14c2-452c-a6a4-b6f543ebe213","ios":"levelo://app?vid=157244ef-14c2-452c-a6a4-b6f543ebe213"},"vehicle_type_id":"4","last_reported":1726322820,"current_range_meters":9200,"station_id":"ce4bhhp2rcd13ifvqfm0","pricing_plan_id":"cebpf4jnsgd1na2vs0mg"},{"bike_id":"e456812a-2b75-4529-b905-3bf94e3e17d5","system_id":"levelo_inurba_marseille","lat":43.29031,"lon":5.38126,"is_reserved":false,"is_disabled":false,"rental_uris":{"android":"levelo://app?vid=e456812a-2b75-4529-b905-3bf94e3e17d5","ios":"levelo://app?vid=e456812a-2b75-4529-b905-3bf94e3e17d5"},"vehicle_type_id":"4","last_reported":1726322820,"current_range_meters":32400,"station_id":"ce4bh4p2rcd13ifvqe1g","pricing_plan_id":"cebpf4jnsgd1na2vs0mg"},{"bike_id":"23a55eff-686e-4ee7-943c-5bb1cacd94d3","system_id":"levelo_inurba_marseille","lat":43.27374,"lon":5.36254,"is_reserved":false,"is_disabled":false,"rental_uris":{"android":"levelo://app?vid=23a55eff-686e-4ee7-943c-5bb1cacd94d3","ios":"levelo://app?vid=23a55eff-686e-4ee7-943c-5bb1cacd94d3"},"vehicle_type_id":"4","last_reported":1726322820,"current_range_meters":14800,"station_id":"ce4bhbh2rcd13ifvqeo0","pricing_plan_id":"cebpf4jnsgd1na2vs0mg"},{"bike_id":"c9d52442-f838-4134-8483-12ee65e8869e","system_id":"levelo_inurba_marseille","lat":43.31722,"lon":5.42396,"is_reserved":false,"is_disabled":false,"rental_uris":{"android":"levelo://app?vid=c9d52442-f838-4134-8483-12ee65e8869e","ios":"levelo://app?vid=c9d52442-f838-4134-8483-12ee65e8869e"},"vehicle_type_id":"4","last_reported":1726322820,"current_range_meters":33600,"station_id":"ce4bhp92rcd13ifvqhbg","pricing_plan_id":"cebpf4jnsgd1na2vs0mg"},{"bike_id":"69b4ada5-6eb6-460d-8f2d-19ec9ecaef46","system_id":"levelo_inurba_marseille","lat":43.28614,"lon":5.35106,"is_reserved":false,"is_disabled":false,"rental_uris":{"android":"levelo://app?vid=69b4ada5-6eb6-460d-8f2d-19ec9ecaef46","ios":"levelo://app?vid=69b4ada5-6eb6-460d-8f2d-19ec9ecaef46"},"vehicle_type_id":"4","last_reported":1726322820,"current_range_meters":16800,"station_id":"ce4bhch2rcd13ifvqeug","pricing_plan_id":"cebpf4jnsgd1na2vs0mg"},{"bike_id":"01f61c5e-f74b-4160-99af-1365476e925d","system_id":"levelo_inurba_marseille","lat":43.260353,"lon":5.375448,"is_reserved":false,"is_disabled":false,"rental_uris":{"android":"levelo://app?vid=01f61c5e-f74b-4160-99af-1365476e925d","ios":"levelo://app?vid=01f61c5e-f74b-4160-99af-1365476e925d"},"vehicle_type_id":"4","last_reported":1726322820,"current_range_meters":6400,"station_id":"ce4bhgh2rcd13ifvqfa0","pricing_plan_id":"cebpf4jnsgd1na2vs0mg"},{"bike_id":"701db355-d142-47f0-9f59-bd7d31357b1b","system_id":"levelo_inurba_marseille","lat":43.28724,"lon":5.36091,"is_reserved":false,"is_disabled":false,"rental_uris":{"android":"levelo://app?vid=701db355-d142-47f0-9f59-bd7d31357b1b","ios":"levelo://app?vid=701db355-d142-47f0-9f59-bd7d31357b1b"},"vehicle_type_id":"4","last_reported":1726322820,"current_range_meters":11200,"station_id":"cki0cbj6b192h4jlfktg","pricing_plan_id":"cebpf4jnsgd1na2vs0mg"},{"bike_id":"0d9f035c-8e47-426d-8593-e2bc7f05f235","system_id":"levelo_inurba_marseille","lat":43.3056,"lon":5.36538,"is_reserved":false,"is_disabled":false,"rental_uris":{"android":"levelo://app?vid=0d9f035c-8e47-426d-8593-e2bc7f05f235","ios":"levelo://app?vid=0d9f035c-8e47-426d-8593-e2bc7f05f235"},"vehicle_type_id":"4","last_reported":1726322820,"current_range_meters":10800,"station_id":"ce4bgs12rcd13ifvqcag","pricing_plan_id":"cebpf4jnsgd1na2vs0mg"},{"bike_id":"a700f7c0-23ab-4ba3-90d9-2f3ad37fa493","system_id":"levelo_inurba_marseille","lat":43.33025,"lon":5.39045,"is_reserved":false,"is_disabled":false,"rental_uris":{"android":"levelo://app?vid=a700f7c0-23ab-4ba3-90d9-2f3ad37fa493","ios":"levelo://app?vid=a700f7c0-23ab-4ba3-90d9-2f3ad37fa493"},"vehicle_type_id":"4","last_reported":1726322820,"current_range_meters":37600,"station_id":"ce4bhr92rcd13ifvqhrg","pricing_plan_id":"cebpf4jnsgd1na2vs0mg"},{"bike_id":"d1acdc41-f513-473d-85d6-5902a376284e","system_id":"levelo_inurba_marseille","lat":43.305902,"lon":5.393673,"is_reserved":false,"is_disabled":false,"rental_uris":{"android":"levelo://app?vid=d1acdc41-f513-473d-85d6-5902a376284e","ios":"levelo://app?vid=d1acdc41-f513-473d-85d6-5902a376284e"},"vehicle_type_id":"4","last_reported":1726322820,"current_range_meters":14800,"station_id":"ce4bh0p2rcd13ifvqd80","pricing_plan_id":"cebpf4jnsgd1na2vs0mg"},{"bike_id":"df03ccb5-e0a6-4248-aad9-844c3ef313df","system_id":"levelo_inurba_marseille","lat":43.294281,"lon":5.374017,"is_reserved":false,"is_disabled":false,"rental_uris":{"android":"levelo://app?vid=df03ccb5-e0a6-4248-aad9-844c3ef313df","ios":"levelo://app?vid=df03ccb5-e0a6-4248-aad9-844c3ef313df"},"vehicle_type_id":"4","last_reported":1726322820,"current_range_meters":22400,"station_id":"ce4bha92rcd13ifvqeh0","pricing_plan_id":"cebpf4jnsgd1na2vs0mg"},{"bike_id":"7740e5ef-e555-42a9-b370-43d6e38180e8","system_id":"levelo_inurba_marseille","lat":43.26686,"lon":5.38276,"is_reserved":false,"is_disabled":false,"rental_uris":{"android":"levelo://app?vid=7740e5ef-e555-42a9-b370-43d6e38180e8","ios":"levelo://app?vid=7740e5ef-e555-42a9-b370-43d6e38180e8"},"vehicle_type_id":"4","last_reported":1726322820,"current_range_meters":33200,"station_id":"ce4bhg92rcd13ifvqf90","pricing_plan_id":"cebpf4jnsgd1na2vs0mg"},{"bike_id":"f81c9c0a-c2a9-4feb-9288-9725e8c2c56f","system_id":"levelo_inurba_marseille","lat":43.2315,"lon":5.43717,"is_reserved":false,"is_disabled":false,"rental_uris":{"android":"levelo://app?vid=f81c9c0a-c2a9-4feb-9288-9725e8c2c56f","ios":"levelo://app?vid=f81c9c0a-c2a9-4feb-9288-9725e8c2c56f"},"vehicle_type_id":"4","last_reported":1726322820,"current_range_meters":35200,"station_id":"ce4bhmp2rcd13ifvqgog","pricing_plan_id":"cebpf4jnsgd1na2vs0mg"},{"bike_id":"51a64061-3ec8-4d78-b4a8-775ce53549b0","system_id":"levelo_inurba_marseille","lat":43.29369,"lon":5.37858,"is_reserved":false,"is_disabled":false,"rental_uris":{"android":"levelo://app?vid=51a64061-3ec8-4d78-b4a8-775ce53549b0","ios":"levelo://app?vid=51a64061-3ec8-4d78-b4a8-775ce53549b0"},"vehicle_type_id":"4","last_reported":1726322820,"current_range_meters":32000,"station_id":"ce4bgjh2rcd13ifvqbf0","pricing_plan_id":"cebpf4jnsgd1na2vs0mg"},{"bike_id":"552ccea4-a0ab-4fa2-9015-1ea8da64cd61","system_id":"levelo_inurba_marseille","lat":43.25582,"lon":5.38241,"is_reserved":false,"is_disabled":false,"rental_uris":{"android":"levelo://app?vid=552ccea4-a0ab-4fa2-9015-1ea8da64cd61","ios":"levelo://app?vid=552ccea4-a0ab-4fa2-9015-1ea8da64cd61"},"vehicle_type_id":"4","last_reported":1726322820,"current_range_meters":5600,"station_id":"ce4bhih2rcd13ifvqfs0","pricing_plan_id":"cebpf4jnsgd1na2vs0mg"},{"bike_id":"643668e6-1fcd-4f24-ba22-2aa1f1f7d749","system_id":"levelo_inurba_marseille","lat":43.26951,"lon":5.38627,"is_reserved":false,"is_disabled":false,"rental_uris":{"android":"levelo://app?vid=643668e6-1fcd-4f24-ba22-2aa1f1f7d749","ios":"levelo://app?vid=643668e6-1fcd-4f24-ba22-2aa1f1f7d749"},"vehicle_type_id":"4","last_reported":1726322820,"current_range_meters":32400,"station_id":"ce4bhh92rcd13ifvqfh0","pricing_plan_id":"cebpf4jnsgd1na2vs0mg"},{"bike_id":"fc1a4c7b-e019-4cf0-a56f-8c9a0777dcfb","system_id":"levelo_inurba_marseille","lat":43.30359,"lon":5.41872,"is_reserved":false,"is_disabled":false,"rental_uris":{"android":"levelo://app?vid=fc1a4c7b-e019-4cf0-a56f-8c9a0777dcfb","ios":"levelo://app?vid=fc1a4c7b-e019-4cf0-a56f-8c9a0777dcfb"},"vehicle_type_id":"4","last_reported":1726322820,"current_range_meters":33200,"station_id":"ce4bhop2rcd13ifvqh7g","pricing_plan_id":"cebpf4jnsgd1na2vs0mg"},{"bike_id":"3275e4b1-5584-4c59-b3d9-e163da6a34fe","system_id":"levelo_inurba_marseille","lat":43.24671,"lon":5.38163,"is_reserved":false,"is_disabled":false,"rental_uris":{"android":"levelo://app?vid=3275e4b1-5584-4c59-b3d9-e163da6a34fe","ios":"levelo://app?vid=3275e4b1-5584-4c59-b3d9-e163da6a34fe"},"vehicle_type_id":"4","last_reported":1726322820,"current_range_meters":38800,"station_id":"ce4bhih2rcd13ifvqfr0","pricing_plan_id":"cebpf4jnsgd1na2vs0mg"},{"bike_id":"73109423-065d-42c3-aba8-0ae1c5b4bb20","system_id":"levelo_inurba_marseille","lat":43.29939,"lon":5.36541,"is_reserved":false,"is_disabled":false,"rental_uris":{"android":"levelo://app?vid=73109423-065d-42c3-aba8-0ae1c5b4bb20","ios":"levelo://app?vid=73109423-065d-42c3-aba8-0ae1c5b4bb20"},"vehicle_type_id":"4","last_reported":1726322820,"current_range_meters":36800,"station_id":"ce4bgm92rcd13ifvqbr0","pricing_plan_id":"cebpf4jnsgd1na2vs0mg"},{"bike_id":"d85ab2af-d7ee-47c5-b97a-f55f599627be","system_id":"levelo_inurba_marseille","lat":43.24166,"lon":5.36392,"is_reserved":false,"is_disabled":false,"rental_uris":{"android":"levelo://app?vid=d85ab2af-d7ee-47c5-b97a-f55f599627be","ios":"levelo://app?vid=d85ab2af-d7ee-47c5-b97a-f55f599627be"},"vehicle_type_id":"4","last_reported":1726322820,"current_range_meters":36400,"station_id":"cpo36qri1sfpv3e86is0","pricing_plan_id":"cebpf4jnsgd1na2vs0mg"},{"bike_id":"53a2d874-293d-47cc-bdbd-a03b3468623b","system_id":"levelo_inurba_marseille","lat":43.29904,"lon":5.43673,"is_reserved":false,"is_disabled":false,"rental_uris":{"android":"levelo://app?vid=53a2d874-293d-47cc-bdbd-a03b3468623b","ios":"levelo://app?vid=53a2d874-293d-47cc-bdbd-a03b3468623b"},"vehicle_type_id":"4","last_reported":1726322820,"current_range_meters":9200,"station_id":"ce4bhpp2rcd13ifvqhfg","pricing_plan_id":"cebpf4jnsgd1na2vs0mg"},{"bike_id":"d835c8af-bb7d-4139-9595-2b625e9bc322","system_id":"levelo_inurba_marseille","lat":43.26483,"lon":5.39551,"is_reserved":false,"is_disabled":false,"rental_uris":{"android":"levelo://app?vid=d835c8af-bb7d-4139-9595-2b625e9bc322","ios":"levelo://app?vid=d835c8af-bb7d-4139-9595-2b625e9bc322"},"vehicle_type_id":"4","last_reported":1726322820,"current_range_meters":11600,"station_id":"ce4bhi12rcd13ifvqfq0","pricing_plan_id":"cebpf4jnsgd1na2vs0mg"},{"bike_id":"bb7acf50-b6bc-4b2d-adf4-833abc23b24c","system_id":"levelo_inurba_marseille","lat":43.23194,"lon":5.35548,"is_reserved":false,"is_disabled":false,"rental_uris":{"android":"levelo://app?vid=bb7acf50-b6bc-4b2d-adf4-833abc23b24c","ios":"levelo://app?vid=bb7acf50-b6bc-4b2d-adf4-833abc23b24c"},"vehicle_type_id":"4","last_reported":1726322820,"current_range_meters":39200,"station_id":"ce4bhu92rcd13ifvqi70","pricing_plan_id":"cebpf4jnsgd1na2vs0mg"},{"bike_id":"836defd1-fb66-4ac4-8fbb-20b46af1ebda","system_id":"levelo_inurba_marseille","lat":43.2721,"lon":5.39174,"is_reserved":false,"is_disabled":false,"rental_uris":{"android":"levelo://app?vid=836defd1-fb66-4ac4-8fbb-20b46af1ebda","ios":"levelo://app?vid=836defd1-fb66-4ac4-8fbb-20b46af1ebda"},"vehicle_type_id":"4","last_reported":1726322820,"current_range_meters":20800,"station_id":"ce4bhhp2rcd13ifvqfm0","pricing_plan_id":"cebpf4jnsgd1na2vs0mg"},{"bike_id":"f6de5503-3f64-4c45-a987-7e74ca5c7044","system_id":"levelo_inurba_marseille","lat":43.24177,"lon":5.36393,"is_reserved":false,"is_disabled":false,"rental_uris":{"android":"levelo://app?vid=f6de5503-3f64-4c45-a987-7e74ca5c7044","ios":"levelo://app?vid=f6de5503-3f64-4c45-a987-7e74ca5c7044"},"vehicle_type_id":"4","last_reported":1726322820,"current_range_meters":30400,"station_id":"cpo36qri1sfpv3e86is0","pricing_plan_id":"cebpf4jnsgd1na2vs0mg"},{"bike_id":"bc8be1fd-7bee-49c5-817c-184bdd69b536","system_id":"levelo_inurba_marseille","lat":43.27374,"lon":5.41942,"is_reserved":false,"is_disabled":false,"rental_uris":{"android":"levelo://app?vid=bc8be1fd-7bee-49c5-817c-184bdd69b536","ios":"levelo://app?vid=bc8be1fd-7bee-49c5-817c-184bdd69b536"},"vehicle_type_id":"4","last_reported":1726322820,"current_range_meters":30400,"station_id":"","pricing_plan_id":"cebpf4jnsgd1na2vs0mg"},{"bike_id":"712c3403-d774-4001-8a40-47aa2ea3a3a4","system_id":"levelo_inurba_marseille","lat":43.27317,"lon":5.39098,"is_reserved":false,"is_disabled":false,"rental_uris":{"android":"levelo://app?vid=712c3403-d774-4001-8a40-47aa2ea3a3a4","ios":"levelo://app?vid=712c3403-d774-4001-8a40-47aa2ea3a3a4"},"vehicle_type_id":"4","last_reported":1726322820,"current_range_meters":28400,"station_id":"ce4bhgp2rcd13ifvqfe0","pricing_plan_id":"cebpf4jnsgd1na2vs0mg"},{"bike_id":"58ba248f-fbf8-44d2-b7ea-e0428813f220","system_id":"levelo_inurba_marseille","lat":43.28483,"lon":5.38422,"is_reserved":false,"is_disabled":false,"rental_uris":{"android":"levelo://app?vid=58ba248f-fbf8-44d2-b7ea-e0428813f220","ios":"levelo://app?vid=58ba248f-fbf8-44d2-b7ea-e0428813f220"},"vehicle_type_id":"4","last_reported":1726322820,"current_range_meters":36400,"station_id":"ce4bh512rcd13ifvqe3g","pricing_plan_id":"cebpf4jnsgd1na2vs0mg"},{"bike_id":"0c1ca48e-e408-4285-a49a-9abf189a2f0b","system_id":"levelo_inurba_marseille","lat":43.28418,"lon":5.34997,"is_reserved":false,"is_disabled":false,"rental_uris":{"android":"levelo://app?vid=0c1ca48e-e408-4285-a49a-9abf189a2f0b","ios":"levelo://app?vid=0c1ca48e-e408-4285-a49a-9abf189a2f0b"},"vehicle_type_id":"4","last_reported":1726322820,"current_range_meters":38800,"station_id":"ce4bhbh2rcd13ifvqepg","pricing_plan_id":"cebpf4jnsgd1na2vs0mg"},{"bike_id":"260bc0ba-5268-43a9-9114-f546dfa73f15","system_id":"levelo_inurba_marseille","lat":43.30355,"lon":5.41883,"is_reserved":false,"is_disabled":false,"rental_uris":{"android":"levelo://app?vid=260bc0ba-5268-43a9-9114-f546dfa73f15","ios":"levelo://app?vid=260bc0ba-5268-43a9-9114-f546dfa73f15"},"vehicle_type_id":"4","last_reported":1726322820,"current_range_meters":29600,"station_id":"ce4bhop2rcd13ifvqh7g","pricing_plan_id":"cebpf4jnsgd1na2vs0mg"},{"bike_id":"632de835-3430-40ed-ac94-819588647085","system_id":"levelo_inurba_marseille","lat":43.24816,"lon":5.37461,"is_reserved":false,"is_disabled":false,"rental_uris":{"android":"levelo://app?vid=632de835-3430-40ed-ac94-819588647085","ios":"levelo://app?vid=632de835-3430-40ed-ac94-819588647085"},"vehicle_type_id":"4","last_reported":1726322820,"current_range_meters":6400,"station_id":"ce4bhgh2rcd13ifvqfb0","pricing_plan_id":"cebpf4jnsgd1na2vs0mg"},{"bike_id":"68abf931-4f17-40fc-91b5-d15dd5c2e919","system_id":"levelo_inurba_marseille","lat":43.32371,"lon":5.38877,"is_reserved":false,"is_disabled":false,"rental_uris":{"android":"levelo://app?vid=68abf931-4f17-40fc-91b5-d15dd5c2e919","ios":"levelo://app?vid=68abf931-4f17-40fc-91b5-d15dd5c2e919"},"vehicle_type_id":"4","last_reported":1726322820,"current_range_meters":2000,"station_id":"ce4bhqp2rcd13ifvqhog","pricing_plan_id":"cebpf4jnsgd1na2vs0mg"},{"bike_id":"5b8d0983-a39e-42ef-b930-2c3695850d77","system_id":"levelo_inurba_marseille","lat":43.30162,"lon":5.38084,"is_reserved":false,"is_disabled":false,"rental_uris":{"android":"levelo://app?vid=5b8d0983-a39e-42ef-b930-2c3695850d77","ios":"levelo://app?vid=5b8d0983-a39e-42ef-b930-2c3695850d77"},"vehicle_type_id":"4","last_reported":1726322820,"current_range_meters":27600,"station_id":"ce4bgjp2rcd13ifvqbh0","pricing_plan_id":"cebpf4jnsgd1na2vs0mg"},{"bike_id":"54c8e63d-b39c-4555-98a1-3580419a3e96","system_id":"levelo_inurba_marseille","lat":43.2842,"lon":5.34987,"is_reserved":false,"is_disabled":false,"rental_uris":{"android":"levelo://app?vid=54c8e63d-b39c-4555-98a1-3580419a3e96","ios":"levelo://app?vid=54c8e63d-b39c-4555-98a1-3580419a3e96"},"vehicle_type_id":"4","last_reported":1726322820,"current_range_meters":39200,"station_id":"ce4bhbh2rcd13ifvqepg","pricing_plan_id":"cebpf4jnsgd1na2vs0mg"},{"bike_id":"c124f6bf-227d-48e6-be7f-e29c20c25b9f","system_id":"levelo_inurba_marseille","lat":43.26196,"lon":5.37452,"is_reserved":false,"is_disabled":false,"rental_uris":{"android":"levelo://app?vid=c124f6bf-227d-48e6-be7f-e29c20c25b9f","ios":"levelo://app?vid=c124f6bf-227d-48e6-be7f-e29c20c25b9f"},"vehicle_type_id":"4","last_reported":1726322820,"current_range_meters":14800,"station_id":"ce4bhgp2rcd13ifvqfc0","pricing_plan_id":"cebpf4jnsgd1na2vs0mg"},{"bike_id":"b6a5802b-4786-42a9-9b22-5e0b280071e6","system_id":"levelo_inurba_marseille","lat":43.30505,"lon":5.3679,"is_reserved":false,"is_disabled":false,"rental_uris":{"android":"levelo://app?vid=b6a5802b-4786-42a9-9b22-5e0b280071e6","ios":"levelo://app?vid=b6a5802b-4786-42a9-9b22-5e0b280071e6"},"vehicle_type_id":"4","last_reported":1726322820,"current_range_meters":19600,"station_id":"","pricing_plan_id":"cebpf4jnsgd1na2vs0mg"},{"bike_id":"c84e93b7-8d8a-4afa-a1f7-cb7dc1a09e36","system_id":"levelo_inurba_marseille","lat":43.28574,"lon":5.39494,"is_reserved":false,"is_disabled":false,"rental_uris":{"android":"levelo://app?vid=c84e93b7-8d8a-4afa-a1f7-cb7dc1a09e36","ios":"levelo://app?vid=c84e93b7-8d8a-4afa-a1f7-cb7dc1a09e36"},"vehicle_type_id":"4","last_reported":1726322820,"current_range_meters":28400,"station_id":"ce4bh292rcd13ifvqdg0","pricing_plan_id":"cebpf4jnsgd1na2vs0mg"},{"bike_id":"2dd6bfca-58d6-4fb8-8682-ed298bdc9997","system_id":"levelo_inurba_marseille","lat":43.24814,"lon":5.37459,"is_reserved":false,"is_disabled":false,"rental_uris":{"android":"levelo://app?vid=2dd6bfca-58d6-4fb8-8682-ed298bdc9997","ios":"levelo://app?vid=2dd6bfca-58d6-4fb8-8682-ed298bdc9997"},"vehicle_type_id":"4","last_reported":1726322820,"current_range_meters":27600,"station_id":"ce4bhgh2rcd13ifvqfb0","pricing_plan_id":"cebpf4jnsgd1na2vs0mg"},{"bike_id":"bd9993b0-31b7-42dc-ba35-a7829b4d9ee3","system_id":"levelo_inurba_marseille","lat":43.27321,"lon":5.39094,"is_reserved":false,"is_disabled":false,"rental_uris":{"android":"levelo://app?vid=bd9993b0-31b7-42dc-ba35-a7829b4d9ee3","ios":"levelo://app?vid=bd9993b0-31b7-42dc-ba35-a7829b4d9ee3"},"vehicle_type_id":"4","last_reported":1726322820,"current_range_meters":28800,"station_id":"ce4bhgp2rcd13ifvqfe0","pricing_plan_id":"cebpf4jnsgd1na2vs0mg"},{"bike_id":"05dce78e-2b1f-446e-8956-bcf56a752a91","system_id":"levelo_inurba_marseille","lat":43.26938,"lon":5.40256,"is_reserved":false,"is_disabled":false,"rental_uris":{"android":"levelo://app?vid=05dce78e-2b1f-446e-8956-bcf56a752a91","ios":"levelo://app?vid=05dce78e-2b1f-446e-8956-bcf56a752a91"},"vehicle_type_id":"4","last_reported":1726322820,"current_range_meters":38400,"station_id":"cjm6bp8fraef2m0cb0m0","pricing_plan_id":"cebpf4jnsgd1na2vs0mg"},{"bike_id":"dbdd0cf1-9ac9-42ed-9e04-9369c829f327","system_id":"levelo_inurba_marseille","lat":43.26942,"lon":5.40255,"is_reserved":false,"is_disabled":false,"rental_uris":{"android":"levelo://app?vid=dbdd0cf1-9ac9-42ed-9e04-9369c829f327","ios":"levelo://app?vid=dbdd0cf1-9ac9-42ed-9e04-9369c829f327"},"vehicle_type_id":"4","last_reported":1726322820,"current_range_meters":24400,"station_id":"cjm6bp8fraef2m0cb0m0","pricing_plan_id":"cebpf4jnsgd1na2vs0mg"},{"bike_id":"026a8105-a313-4bd8-96fb-a8d6d1b140a9","system_id":"levelo_inurba_marseille","lat":43.23201,"lon":5.35551,"is_reserved":false,"is_disabled":false,"rental_uris":{"android":"levelo://app?vid=026a8105-a313-4bd8-96fb-a8d6d1b140a9","ios":"levelo://app?vid=026a8105-a313-4bd8-96fb-a8d6d1b140a9"},"vehicle_type_id":"4","last_reported":1726322820,"current_range_meters":37600,"station_id":"ce4bhu92rcd13ifvqi70","pricing_plan_id":"cebpf4jnsgd1na2vs0mg"},{"bike_id":"96ff64f6-d3f2-4a83-8bd5-1a20aadf6b97","system_id":"levelo_inurba_marseille","lat":43.2757,"lon":5.38428,"is_reserved":false,"is_disabled":false,"rental_uris":{"android":"levelo://app?vid=96ff64f6-d3f2-4a83-8bd5-1a20aadf6b97","ios":"levelo://app?vid=96ff64f6-d3f2-4a83-8bd5-1a20aadf6b97"},"vehicle_type_id":"4","last_reported":1726322820,"current_range_meters":32800,"station_id":"ce4bhh92rcd13ifvqfi0","pricing_plan_id":"cebpf4jnsgd1na2vs0mg"},{"bike_id":"aa236113-303e-4d65-b459-26876ddb3a8d","system_id":"levelo_inurba_marseille","lat":43.28948,"lon":5.38716,"is_reserved":false,"is_disabled":false,"rental_uris":{"android":"levelo://app?vid=aa236113-303e-4d65-b459-26876ddb3a8d","ios":"levelo://app?vid=aa236113-303e-4d65-b459-26876ddb3a8d"},"vehicle_type_id":"4","last_reported":1726322820,"current_range_meters":33200,"station_id":"","pricing_plan_id":"cebpf4jnsgd1na2vs0mg"},{"bike_id":"9378e46c-90ff-48e5-9112-f5aafd156a5f","system_id":"levelo_inurba_marseille","lat":43.29555,"lon":5.42285,"is_reserved":false,"is_disabled":false,"rental_uris":{"android":"levelo://app?vid=9378e46c-90ff-48e5-9112-f5aafd156a5f","ios":"levelo://app?vid=9378e46c-90ff-48e5-9112-f5aafd156a5f"},"vehicle_type_id":"4","last_reported":1726322820,"current_range_meters":25200,"station_id":"ce4bhph2rcd13ifvqhdg","pricing_plan_id":"cebpf4jnsgd1na2vs0mg"},{"bike_id":"7b54d5c6-16c9-409f-a29b-96bf843ce82d","system_id":"levelo_inurba_marseille","lat":43.27052,"lon":5.40257,"is_reserved":false,"is_disabled":false,"rental_uris":{"android":"levelo://app?vid=7b54d5c6-16c9-409f-a29b-96bf843ce82d","ios":"levelo://app?vid=7b54d5c6-16c9-409f-a29b-96bf843ce82d"},"vehicle_type_id":"4","last_reported":1726322820,"current_range_meters":31200,"station_id":"ce4bhk92rcd13ifvqgc0","pricing_plan_id":"cebpf4jnsgd1na2vs0mg"},{"bike_id":"51b93f73-c647-4dd9-b993-0e72de9b0462","system_id":"levelo_inurba_marseille","lat":43.28287,"lon":5.39082,"is_reserved":false,"is_disabled":false,"rental_uris":{"android":"levelo://app?vid=51b93f73-c647-4dd9-b993-0e72de9b0462","ios":"levelo://app?vid=51b93f73-c647-4dd9-b993-0e72de9b0462"},"vehicle_type_id":"4","last_reported":1726322820,"current_range_meters":28800,"station_id":"","pricing_plan_id":"cebpf4jnsgd1na2vs0mg"},{"bike_id":"15ea120c-5f6d-4243-ad32-289a124fc62f","system_id":"levelo_inurba_marseille","lat":43.27616,"lon":5.36112,"is_reserved":false,"is_disabled":false,"rental_uris":{"android":"levelo://app?vid=15ea120c-5f6d-4243-ad32-289a124fc62f","ios":"levelo://app?vid=15ea120c-5f6d-4243-ad32-289a124fc62f"},"vehicle_type_id":"4","last_reported":1726322820,"current_range_meters":20800,"station_id":"ce4bgj92rcd13ifvqbe0","pricing_plan_id":"cebpf4jnsgd1na2vs0mg"},{"bike_id":"90281ec2-05dd-4200-a697-25bc4cf2e23a","system_id":"levelo_inurba_marseille","lat":43.26685,"lon":5.3827,"is_reserved":false,"is_disabled":false,"rental_uris":{"android":"levelo://app?vid=90281ec2-05dd-4200-a697-25bc4cf2e23a","ios":"levelo://app?vid=90281ec2-05dd-4200-a697-25bc4cf2e23a"},"vehicle_type_id":"4","last_reported":1726322820,"current_range_meters":24400,"station_id":"ce4bhg92rcd13ifvqf90","pricing_plan_id":"cebpf4jnsgd1na2vs0mg"},{"bike_id":"edf1a68a-cd06-4002-99c4-c6ece5bac7e3","system_id":"levelo_inurba_marseille","lat":43.29723,"lon":5.36601,"is_reserved":false,"is_disabled":false,"rental_uris":{"android":"levelo://app?vid=edf1a68a-cd06-4002-99c4-c6ece5bac7e3","ios":"levelo://app?vid=edf1a68a-cd06-4002-99c4-c6ece5bac7e3"},"vehicle_type_id":"4","last_reported":1726322820,"current_range_meters":39200,"station_id":"ce4bgn12rcd13ifvqbt0","pricing_plan_id":"cebpf4jnsgd1na2vs0mg"},{"bike_id":"341c86cd-4588-4504-9beb-78d6ccaa9917","system_id":"levelo_inurba_marseille","lat":43.27179,"lon":5.40996,"is_reserved":false,"is_disabled":false,"rental_uris":{"android":"levelo://app?vid=341c86cd-4588-4504-9beb-78d6ccaa9917","ios":"levelo://app?vid=341c86cd-4588-4504-9beb-78d6ccaa9917"},"vehicle_type_id":"4","last_reported":1726322820,"current_range_meters":21600,"station_id":"ce4bhl12rcd13ifvqgf0","pricing_plan_id":"cebpf4jnsgd1na2vs0mg"},{"bike_id":"71cddaa6-0aee-44ab-b4ec-c21adab0e94b","system_id":"levelo_inurba_marseille","lat":43.28279,"lon":5.35067,"is_reserved":false,"is_disabled":false,"rental_uris":{"android":"levelo://app?vid=71cddaa6-0aee-44ab-b4ec-c21adab0e94b","ios":"levelo://app?vid=71cddaa6-0aee-44ab-b4ec-c21adab0e94b"},"vehicle_type_id":"4","last_reported":1726322820,"current_range_meters":30400,"station_id":"ce4bhbp2rcd13ifvqerg","pricing_plan_id":"cebpf4jnsgd1na2vs0mg"},{"bike_id":"d09aedb3-0212-456b-a0d7-0a019f75665d","system_id":"levelo_inurba_marseille","lat":43.23153,"lon":5.43707,"is_reserved":false,"is_disabled":false,"rental_uris":{"android":"levelo://app?vid=d09aedb3-0212-456b-a0d7-0a019f75665d","ios":"levelo://app?vid=d09aedb3-0212-456b-a0d7-0a019f75665d"},"vehicle_type_id":"4","last_reported":1726322820,"current_range_meters":38800,"station_id":"ce4bhmp2rcd13ifvqgog","pricing_plan_id":"cebpf4jnsgd1na2vs0mg"},{"bike_id":"2ee72d0b-7f22-4ff0-9ec9-83abdccc9fc9","system_id":"levelo_inurba_marseille","lat":43.28157,"lon":5.4264,"is_reserved":false,"is_disabled":false,"rental_uris":{"android":"levelo://app?vid=2ee72d0b-7f22-4ff0-9ec9-83abdccc9fc9","ios":"levelo://app?vid=2ee72d0b-7f22-4ff0-9ec9-83abdccc9fc9"},"vehicle_type_id":"4","last_reported":1726322820,"current_range_meters":3600,"station_id":"ce4bhnh2rcd13ifvqgug","pricing_plan_id":"cebpf4jnsgd1na2vs0mg"},{"bike_id":"82a6d742-074d-4915-8451-ae05201e9591","system_id":"levelo_inurba_marseille","lat":43.29854,"lon":5.36283,"is_reserved":false,"is_disabled":false,"rental_uris":{"android":"levelo://app?vid=82a6d742-074d-4915-8451-ae05201e9591","ios":"levelo://app?vid=82a6d742-074d-4915-8451-ae05201e9591"},"vehicle_type_id":"4","last_reported":1726322820,"current_range_meters":39200,"station_id":"ce4bgpp2rcd13ifvqc3g","pricing_plan_id":"cebpf4jnsgd1na2vs0mg"},{"bike_id":"02269f0e-1758-473f-8a5c-764f1ddf9ddc","system_id":"levelo_inurba_marseille","lat":43.23184,"lon":5.39977,"is_reserved":false,"is_disabled":false,"rental_uris":{"android":"levelo://app?vid=02269f0e-1758-473f-8a5c-764f1ddf9ddc","ios":"levelo://app?vid=02269f0e-1758-473f-8a5c-764f1ddf9ddc"},"vehicle_type_id":"4","last_reported":1726322820,"current_range_meters":39200,"station_id":"ce4bhn12rcd13ifvqgqg","pricing_plan_id":"cebpf4jnsgd1na2vs0mg"},{"bike_id":"43412657-8f93-44d7-90fb-da7639962547","system_id":"levelo_inurba_marseille","lat":43.33724,"lon":5.39183,"is_reserved":false,"is_disabled":false,"rental_uris":{"android":"levelo://app?vid=43412657-8f93-44d7-90fb-da7639962547","ios":"levelo://app?vid=43412657-8f93-44d7-90fb-da7639962547"},"vehicle_type_id":"4","last_reported":1726322820,"current_range_meters":26800,"station_id":"ce4bhr92rcd13ifvqhsg","pricing_plan_id":"cebpf4jnsgd1na2vs0mg"},{"bike_id":"2a29b388-d4ff-45e1-bf47-010ffa290630","system_id":"levelo_inurba_marseille","lat":43.27314,"lon":5.39098,"is_reserved":false,"is_disabled":false,"rental_uris":{"android":"levelo://app?vid=2a29b388-d4ff-45e1-bf47-010ffa290630","ios":"levelo://app?vid=2a29b388-d4ff-45e1-bf47-010ffa290630"},"vehicle_type_id":"4","last_reported":1726322820,"current_range_meters":26000,"station_id":"ce4bhgp2rcd13ifvqfe0","pricing_plan_id":"cebpf4jnsgd1na2vs0mg"},{"bike_id":"848f2e85-b675-4fab-b39c-e8f4008292c2","system_id":"levelo_inurba_marseille","lat":43.30143,"lon":5.37417,"is_reserved":false,"is_disabled":false,"rental_uris":{"android":"levelo://app?vid=848f2e85-b675-4fab-b39c-e8f4008292c2","ios":"levelo://app?vid=848f2e85-b675-4fab-b39c-e8f4008292c2"},"vehicle_type_id":"4","last_reported":1726322820,"current_range_meters":17200,"station_id":"ce4bgs92rcd13ifvqcc0","pricing_plan_id":"cebpf4jnsgd1na2vs0mg"},{"bike_id":"04352160-7c1d-41d9-b42f-eb5950269798","system_id":"levelo_inurba_marseille","lat":43.24388,"lon":5.3706,"is_reserved":false,"is_disabled":false,"rental_uris":{"android":"levelo://app?vid=04352160-7c1d-41d9-b42f-eb5950269798","ios":"levelo://app?vid=04352160-7c1d-41d9-b42f-eb5950269798"},"vehicle_type_id":"4","last_reported":1726322820,"current_range_meters":24800,"station_id":"ce4bhhh2rcd13ifvqfk0","pricing_plan_id":"cebpf4jnsgd1na2vs0mg"},{"bike_id":"afb90e5f-b0e4-4434-9cbf-9852849bbb37","system_id":"levelo_inurba_marseille","lat":43.27204,"lon":5.39174,"is_reserved":false,"is_disabled":false,"rental_uris":{"android":"levelo://app?vid=afb90e5f-b0e4-4434-9cbf-9852849bbb37","ios":"levelo://app?vid=afb90e5f-b0e4-4434-9cbf-9852849bbb37"},"vehicle_type_id":"4","last_reported":1726322820,"current_range_meters":29600,"station_id":"ce4bhhp2rcd13ifvqfm0","pricing_plan_id":"cebpf4jnsgd1na2vs0mg"},{"bike_id":"61e00977-be43-400f-99ea-3c33330f7657","system_id":"levelo_inurba_marseille","lat":43.25009,"lon":5.38913,"is_reserved":false,"is_disabled":false,"rental_uris":{"android":"levelo://app?vid=61e00977-be43-400f-99ea-3c33330f7657","ios":"levelo://app?vid=61e00977-be43-400f-99ea-3c33330f7657"},"vehicle_type_id":"4","last_reported":1726322820,"current_range_meters":19200,"station_id":"ce4bhgp2rcd13ifvqfd0","pricing_plan_id":"cebpf4jnsgd1na2vs0mg"},{"bike_id":"bb8c3a7a-162d-4156-bcfb-664522d2fa39","system_id":"levelo_inurba_marseille","lat":43.30152,"lon":5.38074,"is_reserved":false,"is_disabled":false,"rental_uris":{"android":"levelo://app?vid=bb8c3a7a-162d-4156-bcfb-664522d2fa39","ios":"levelo://app?vid=bb8c3a7a-162d-4156-bcfb-664522d2fa39"},"vehicle_type_id":"4","last_reported":1726322820,"current_range_meters":33200,"station_id":"ce4bgjp2rcd13ifvqbh0","pricing_plan_id":"cebpf4jnsgd1na2vs0mg"},{"bike_id":"d1f38fcd-be46-4877-a9ac-34b365272c30","system_id":"levelo_inurba_marseille","lat":43.27099,"lon":5.43316,"is_reserved":false,"is_disabled":false,"rental_uris":{"android":"levelo://app?vid=d1f38fcd-be46-4877-a9ac-34b365272c30","ios":"levelo://app?vid=d1f38fcd-be46-4877-a9ac-34b365272c30"},"vehicle_type_id":"4","last_reported":1726322820,"current_range_meters":32000,"station_id":"","pricing_plan_id":"cebpf4jnsgd1na2vs0mg"},{"bike_id":"989362d9-c30c-44f4-a7de-b9623f4d4113","system_id":"levelo_inurba_marseille","lat":43.26212,"lon":5.37445,"is_reserved":false,"is_disabled":false,"rental_uris":{"android":"levelo://app?vid=989362d9-c30c-44f4-a7de-b9623f4d4113","ios":"levelo://app?vid=989362d9-c30c-44f4-a7de-b9623f4d4113"},"vehicle_type_id":"4","last_reported":1726322820,"current_range_meters":12000,"station_id":"ce4bhgp2rcd13ifvqfc0","pricing_plan_id":"cebpf4jnsgd1na2vs0mg"},{"bike_id":"f3f0aabb-5808-4f01-9177-a759dd695d7e","system_id":"levelo_inurba_marseille","lat":43.24657,"lon":5.38894,"is_reserved":false,"is_disabled":false,"rental_uris":{"android":"levelo://app?vid=f3f0aabb-5808-4f01-9177-a759dd695d7e","ios":"levelo://app?vid=f3f0aabb-5808-4f01-9177-a759dd695d7e"},"vehicle_type_id":"4","last_reported":1726322820,"current_range_meters":19600,"station_id":"ce4bhg12rcd13ifvqf60","pricing_plan_id":"cebpf4jnsgd1na2vs0mg"},{"bike_id":"086ea8d8-e77a-4101-889d-b81698ca0c89","system_id":"levelo_inurba_marseille","lat":43.28427,"lon":5.34996,"is_reserved":false,"is_disabled":false,"rental_uris":{"android":"levelo://app?vid=086ea8d8-e77a-4101-889d-b81698ca0c89","ios":"levelo://app?vid=086ea8d8-e77a-4101-889d-b81698ca0c89"},"vehicle_type_id":"4","last_reported":1726322820,"current_range_meters":24800,"station_id":"ce4bhbh2rcd13ifvqepg","pricing_plan_id":"cebpf4jnsgd1na2vs0mg"},{"bike_id":"f9076aec-56e7-4b2e-a7b1-575337aca9d5","system_id":"levelo_inurba_marseille","lat":43.24175,"lon":5.36401,"is_reserved":false,"is_disabled":false,"rental_uris":{"android":"levelo://app?vid=f9076aec-56e7-4b2e-a7b1-575337aca9d5","ios":"levelo://app?vid=f9076aec-56e7-4b2e-a7b1-575337aca9d5"},"vehicle_type_id":"4","last_reported":1726322820,"current_range_meters":32800,"station_id":"cpo36qri1sfpv3e86is0","pricing_plan_id":"cebpf4jnsgd1na2vs0mg"},{"bike_id":"d1da3562-8d76-4fcb-9901-9841ed40e5f7","system_id":"levelo_inurba_marseille","lat":43.31485,"lon":5.37314,"is_reserved":false,"is_disabled":false,"rental_uris":{"android":"levelo://app?vid=d1da3562-8d76-4fcb-9901-9841ed40e5f7","ios":"levelo://app?vid=d1da3562-8d76-4fcb-9901-9841ed40e5f7"},"vehicle_type_id":"4","last_reported":1726322820,"current_range_meters":8000,"station_id":"ce4bgt12rcd13ifvqcd0","pricing_plan_id":"cebpf4jnsgd1na2vs0mg"},{"bike_id":"342c35e0-d4a8-4a6d-9049-ae3c40ce314d","system_id":"levelo_inurba_marseille","lat":43.24166,"lon":5.36398,"is_reserved":false,"is_disabled":false,"rental_uris":{"android":"levelo://app?vid=342c35e0-d4a8-4a6d-9049-ae3c40ce314d","ios":"levelo://app?vid=342c35e0-d4a8-4a6d-9049-ae3c40ce314d"},"vehicle_type_id":"4","last_reported":1726322820,"current_range_meters":25600,"station_id":"cpo36qri1sfpv3e86is0","pricing_plan_id":"cebpf4jnsgd1na2vs0mg"},{"bike_id":"9da3cfc3-76e1-45aa-bd84-0cc476fb2e0c","system_id":"levelo_inurba_marseille","lat":43.22924,"lon":5.35379,"is_reserved":false,"is_disabled":false,"rental_uris":{"android":"levelo://app?vid=9da3cfc3-76e1-45aa-bd84-0cc476fb2e0c","ios":"levelo://app?vid=9da3cfc3-76e1-45aa-bd84-0cc476fb2e0c"},"vehicle_type_id":"4","last_reported":1726322820,"current_range_meters":32400,"station_id":"cpo3532slgdg3j2ikp40","pricing_plan_id":"cebpf4jnsgd1na2vs0mg"},{"bike_id":"7d596977-145f-44a5-9d88-fd994a8ea96e","system_id":"levelo_inurba_marseille","lat":43.27212,"lon":5.39189,"is_reserved":false,"is_disabled":false,"rental_uris":{"android":"levelo://app?vid=7d596977-145f-44a5-9d88-fd994a8ea96e","ios":"levelo://app?vid=7d596977-145f-44a5-9d88-fd994a8ea96e"},"vehicle_type_id":"4","last_reported":1726322820,"current_range_meters":11600,"station_id":"ce4bhhp2rcd13ifvqfm0","pricing_plan_id":"cebpf4jnsgd1na2vs0mg"},{"bike_id":"103cf9f9-2f0a-447b-a31f-dbd4bc9e6e95","system_id":"levelo_inurba_marseille","lat":43.29554,"lon":5.42282,"is_reserved":false,"is_disabled":false,"rental_uris":{"android":"levelo://app?vid=103cf9f9-2f0a-447b-a31f-dbd4bc9e6e95","ios":"levelo://app?vid=103cf9f9-2f0a-447b-a31f-dbd4bc9e6e95"},"vehicle_type_id":"4","last_reported":1726322820,"current_range_meters":28800,"station_id":"ce4bhph2rcd13ifvqhdg","pricing_plan_id":"cebpf4jnsgd1na2vs0mg"},{"bike_id":"7eeb41d7-ac04-4e0b-8a11-4910c8407457","system_id":"levelo_inurba_marseille","lat":43.2319,"lon":5.39987,"is_reserved":false,"is_disabled":false,"rental_uris":{"android":"levelo://app?vid=7eeb41d7-ac04-4e0b-8a11-4910c8407457","ios":"levelo://app?vid=7eeb41d7-ac04-4e0b-8a11-4910c8407457"},"vehicle_type_id":"4","last_reported":1726322820,"current_range_meters":11600,"station_id":"ce4bhn12rcd13ifvqgqg","pricing_plan_id":"cebpf4jnsgd1na2vs0mg"},{"bike_id":"a6003268-aadd-447b-8867-ee4ad3ee6780","system_id":"levelo_inurba_marseille","lat":43.30271,"lon":5.37713,"is_reserved":false,"is_disabled":false,"rental_uris":{"android":"levelo://app?vid=a6003268-aadd-447b-8867-ee4ad3ee6780","ios":"levelo://app?vid=a6003268-aadd-447b-8867-ee4ad3ee6780"},"vehicle_type_id":"4","last_reported":1726322820,"current_range_meters":8000,"station_id":"ce4bguh2rcd13ifvqcj0","pricing_plan_id":"cebpf4jnsgd1na2vs0mg"},{"bike_id":"f55f48d4-dee8-4fec-a543-2bb27e324dc0","system_id":"levelo_inurba_marseille","lat":43.2905,"lon":5.37152,"is_reserved":false,"is_disabled":false,"rental_uris":{"android":"levelo://app?vid=f55f48d4-dee8-4fec-a543-2bb27e324dc0","ios":"levelo://app?vid=f55f48d4-dee8-4fec-a543-2bb27e324dc0"},"vehicle_type_id":"4","last_reported":1726322820,"current_range_meters":37600,"station_id":"ce4bh5p2rcd13ifvqe4g","pricing_plan_id":"cebpf4jnsgd1na2vs0mg"},{"bike_id":"857e5e1c-1698-45a4-bfea-a57ce2719e75","system_id":"levelo_inurba_marseille","lat":43.28847,"lon":5.39311,"is_reserved":false,"is_disabled":false,"rental_uris":{"android":"levelo://app?vid=857e5e1c-1698-45a4-bfea-a57ce2719e75","ios":"levelo://app?vid=857e5e1c-1698-45a4-bfea-a57ce2719e75"},"vehicle_type_id":"4","last_reported":1726322820,"current_range_meters":28400,"station_id":"ce4bh2p2rcd13ifvqdi0","pricing_plan_id":"cebpf4jnsgd1na2vs0mg"},{"bike_id":"4e26d67f-3260-467d-88af-075a11ad36b7","system_id":"levelo_inurba_marseille","lat":43.29953,"lon":5.38477,"is_reserved":false,"is_disabled":false,"rental_uris":{"android":"levelo://app?vid=4e26d67f-3260-467d-88af-075a11ad36b7","ios":"levelo://app?vid=4e26d67f-3260-467d-88af-075a11ad36b7"},"vehicle_type_id":"4","last_reported":1726322820,"current_range_meters":12000,"station_id":"ce4bgj92rcd13ifvqbd0","pricing_plan_id":"cebpf4jnsgd1na2vs0mg"},{"bike_id":"aa741727-9747-4a94-a98a-cb464f08f0f2","system_id":"levelo_inurba_marseille","lat":43.28427,"lon":5.34995,"is_reserved":false,"is_disabled":false,"rental_uris":{"android":"levelo://app?vid=aa741727-9747-4a94-a98a-cb464f08f0f2","ios":"levelo://app?vid=aa741727-9747-4a94-a98a-cb464f08f0f2"},"vehicle_type_id":"4","last_reported":1726322820,"current_range_meters":30800,"station_id":"ce4bhbh2rcd13ifvqepg","pricing_plan_id":"cebpf4jnsgd1na2vs0mg"},{"bike_id":"d4444612-5895-4e34-948b-de1a7430f7df","system_id":"levelo_inurba_marseille","lat":43.30781,"lon":5.37656,"is_reserved":false,"is_disabled":false,"rental_uris":{"android":"levelo://app?vid=d4444612-5895-4e34-948b-de1a7430f7df","ios":"levelo://app?vid=d4444612-5895-4e34-948b-de1a7430f7df"},"vehicle_type_id":"4","last_reported":1726322820,"current_range_meters":32000,"station_id":"ce4bgv92rcd13ifvqcq0","pricing_plan_id":"cebpf4jnsgd1na2vs0mg"},{"bike_id":"7b70e336-12de-4782-ac63-d8edf94e3884","system_id":"levelo_inurba_marseille","lat":43.25586,"lon":5.38228,"is_reserved":false,"is_disabled":false,"rental_uris":{"android":"levelo://app?vid=7b70e336-12de-4782-ac63-d8edf94e3884","ios":"levelo://app?vid=7b70e336-12de-4782-ac63-d8edf94e3884"},"vehicle_type_id":"4","last_reported":1726322820,"current_range_meters":38800,"station_id":"ce4bhih2rcd13ifvqfs0","pricing_plan_id":"cebpf4jnsgd1na2vs0mg"},{"bike_id":"bf12e117-4a9d-49fc-8787-771d5ba00095","system_id":"levelo_inurba_marseille","lat":43.292511,"lon":5.366079,"is_reserved":false,"is_disabled":false,"rental_uris":{"android":"levelo://app?vid=bf12e117-4a9d-49fc-8787-771d5ba00095","ios":"levelo://app?vid=bf12e117-4a9d-49fc-8787-771d5ba00095"},"vehicle_type_id":"4","last_reported":1726322820,"current_range_meters":35200,"station_id":"ce4bhgh2rcd13ifvqfa0","pricing_plan_id":"cebpf4jnsgd1na2vs0mg"},{"bike_id":"08ca67ba-7727-4527-bf58-942d0877b43f","system_id":"levelo_inurba_marseille","lat":43.29007,"lon":5.35607,"is_reserved":false,"is_disabled":false,"rental_uris":{"android":"levelo://app?vid=08ca67ba-7727-4527-bf58-942d0877b43f","ios":"levelo://app?vid=08ca67ba-7727-4527-bf58-942d0877b43f"},"vehicle_type_id":"4","last_reported":1726322820,"current_range_meters":4800,"station_id":"ce4bhb92rcd13ifvqen0","pricing_plan_id":"cebpf4jnsgd1na2vs0mg"},{"bike_id":"827b0cc2-8dbf-4fe7-9ecd-901d83c701c9","system_id":"levelo_inurba_marseille","lat":43.28732,"lon":5.36077,"is_reserved":false,"is_disabled":false,"rental_uris":{"android":"levelo://app?vid=827b0cc2-8dbf-4fe7-9ecd-901d83c701c9","ios":"levelo://app?vid=827b0cc2-8dbf-4fe7-9ecd-901d83c701c9"},"vehicle_type_id":"4","last_reported":1726322820,"current_range_meters":8400,"station_id":"cki0cbj6b192h4jlfktg","pricing_plan_id":"cebpf4jnsgd1na2vs0mg"},{"bike_id":"340669ab-a788-4c33-9b84-732c1706ab20","system_id":"levelo_inurba_marseille","lat":43.28423,"lon":5.34992,"is_reserved":false,"is_disabled":false,"rental_uris":{"android":"levelo://app?vid=340669ab-a788-4c33-9b84-732c1706ab20","ios":"levelo://app?vid=340669ab-a788-4c33-9b84-732c1706ab20"},"vehicle_type_id":"4","last_reported":1726322820,"current_range_meters":20000,"station_id":"ce4bhbh2rcd13ifvqepg","pricing_plan_id":"cebpf4jnsgd1na2vs0mg"},{"bike_id":"24797368-492f-4ee2-8940-e7b280ad673f","system_id":"levelo_inurba_marseille","lat":43.26208,"lon":5.37931,"is_reserved":false,"is_disabled":false,"rental_uris":{"android":"levelo://app?vid=24797368-492f-4ee2-8940-e7b280ad673f","ios":"levelo://app?vid=24797368-492f-4ee2-8940-e7b280ad673f"},"vehicle_type_id":"4","last_reported":1726322820,"current_range_meters":19200,"station_id":"ce4bhjp2rcd13ifvqg90","pricing_plan_id":"cebpf4jnsgd1na2vs0mg"},{"bike_id":"14290f35-956d-45c2-a0a4-feac7b7ec252","system_id":"levelo_inurba_marseille","lat":43.28619,"lon":5.35096,"is_reserved":false,"is_disabled":false,"rental_uris":{"android":"levelo://app?vid=14290f35-956d-45c2-a0a4-feac7b7ec252","ios":"levelo://app?vid=14290f35-956d-45c2-a0a4-feac7b7ec252"},"vehicle_type_id":"4","last_reported":1726322820,"current_range_meters":18000,"station_id":"ce4bhch2rcd13ifvqeug","pricing_plan_id":"cebpf4jnsgd1na2vs0mg"},{"bike_id":"af97313c-5eff-4f01-8281-7ae294759090","system_id":"levelo_inurba_marseille","lat":43.27318,"lon":5.39058,"is_reserved":false,"is_disabled":false,"rental_uris":{"android":"levelo://app?vid=af97313c-5eff-4f01-8281-7ae294759090","ios":"levelo://app?vid=af97313c-5eff-4f01-8281-7ae294759090"},"vehicle_type_id":"4","last_reported":1726322820,"current_range_meters":23200,"station_id":"ce4bhgp2rcd13ifvqfe0","pricing_plan_id":"cebpf4jnsgd1na2vs0mg"},{"bike_id":"47b913da-a851-4a2c-9b70-7296bc0501e1","system_id":"levelo_inurba_marseille","lat":43.30152,"lon":5.38079,"is_reserved":false,"is_disabled":false,"rental_uris":{"android":"levelo://app?vid=47b913da-a851-4a2c-9b70-7296bc0501e1","ios":"levelo://app?vid=47b913da-a851-4a2c-9b70-7296bc0501e1"},"vehicle_type_id":"4","last_reported":1726322820,"current_range_meters":36400,"station_id":"ce4bgjp2rcd13ifvqbh0","pricing_plan_id":"cebpf4jnsgd1na2vs0mg"},{"bike_id":"a2297e44-ed7c-404a-9891-8598306504eb","system_id":"levelo_inurba_marseille","lat":43.31724,"lon":5.42404,"is_reserved":false,"is_disabled":false,"rental_uris":{"android":"levelo://app?vid=a2297e44-ed7c-404a-9891-8598306504eb","ios":"levelo://app?vid=a2297e44-ed7c-404a-9891-8598306504eb"},"vehicle_type_id":"4","last_reported":1726322820,"current_range_meters":28800,"station_id":"ce4bhp92rcd13ifvqhbg","pricing_plan_id":"cebpf4jnsgd1na2vs0mg"},{"bike_id":"af2bd19f-c8ee-4545-b7b1-11eb9781f16a","system_id":"levelo_inurba_marseille","lat":43.22933,"lon":5.35383,"is_reserved":false,"is_disabled":false,"rental_uris":{"android":"levelo://app?vid=af2bd19f-c8ee-4545-b7b1-11eb9781f16a","ios":"levelo://app?vid=af2bd19f-c8ee-4545-b7b1-11eb9781f16a"},"vehicle_type_id":"4","last_reported":1726322820,"current_range_meters":38400,"station_id":"cpo3532slgdg3j2ikp40","pricing_plan_id":"cebpf4jnsgd1na2vs0mg"},{"bike_id":"ee5adcc2-1cbc-4bf1-8d4b-a35212621eac","system_id":"levelo_inurba_marseille","lat":43.28614,"lon":5.3511,"is_reserved":false,"is_disabled":false,"rental_uris":{"android":"levelo://app?vid=ee5adcc2-1cbc-4bf1-8d4b-a35212621eac","ios":"levelo://app?vid=ee5adcc2-1cbc-4bf1-8d4b-a35212621eac"},"vehicle_type_id":"4","last_reported":1726322820,"current_range_meters":20800,"station_id":"ce4bhch2rcd13ifvqeug","pricing_plan_id":"cebpf4jnsgd1na2vs0mg"},{"bike_id":"67928091-5277-4053-9501-ad4ea5ca3baf","system_id":"levelo_inurba_marseille","lat":43.29787,"lon":5.38093,"is_reserved":false,"is_disabled":false,"rental_uris":{"android":"levelo://app?vid=67928091-5277-4053-9501-ad4ea5ca3baf","ios":"levelo://app?vid=67928091-5277-4053-9501-ad4ea5ca3baf"},"vehicle_type_id":"4","last_reported":1726322820,"current_range_meters":4800,"station_id":"ce4bgip2rcd13ifvqbb0","pricing_plan_id":"cebpf4jnsgd1na2vs0mg"},{"bike_id":"fa706988-516c-4ec8-bc9d-e0a4367ddcce","system_id":"levelo_inurba_marseille","lat":43.33766,"lon":5.37429,"is_reserved":false,"is_disabled":false,"rental_uris":{"android":"levelo://app?vid=fa706988-516c-4ec8-bc9d-e0a4367ddcce","ios":"levelo://app?vid=fa706988-516c-4ec8-bc9d-e0a4367ddcce"},"vehicle_type_id":"4","last_reported":1726322820,"current_range_meters":15200,"station_id":"","pricing_plan_id":"cebpf4jnsgd1na2vs0mg"},{"bike_id":"1a8d95bb-879c-4611-bd97-4c76fe823257","system_id":"levelo_inurba_marseille","lat":43.2956,"lon":5.42282,"is_reserved":false,"is_disabled":false,"rental_uris":{"android":"levelo://app?vid=1a8d95bb-879c-4611-bd97-4c76fe823257","ios":"levelo://app?vid=1a8d95bb-879c-4611-bd97-4c76fe823257"},"vehicle_type_id":"4","last_reported":1726322820,"current_range_meters":28000,"station_id":"ce4bhph2rcd13ifvqhdg","pricing_plan_id":"cebpf4jnsgd1na2vs0mg"},{"bike_id":"438528d7-d977-41d8-993d-5120b25374a1","system_id":"levelo_inurba_marseille","lat":43.24391,"lon":5.37064,"is_reserved":false,"is_disabled":false,"rental_uris":{"android":"levelo://app?vid=438528d7-d977-41d8-993d-5120b25374a1","ios":"levelo://app?vid=438528d7-d977-41d8-993d-5120b25374a1"},"vehicle_type_id":"4","last_reported":1726322820,"current_range_meters":33200,"station_id":"ce4bhhh2rcd13ifvqfk0","pricing_plan_id":"cebpf4jnsgd1na2vs0mg"},{"bike_id":"13e4e1f1-ca7a-4e6f-b284-520dc9687025","system_id":"levelo_inurba_marseille","lat":43.26196,"lon":5.37448,"is_reserved":false,"is_disabled":false,"rental_uris":{"android":"levelo://app?vid=13e4e1f1-ca7a-4e6f-b284-520dc9687025","ios":"levelo://app?vid=13e4e1f1-ca7a-4e6f-b284-520dc9687025"},"vehicle_type_id":"4","last_reported":1726322820,"current_range_meters":18000,"station_id":"ce4bhgp2rcd13ifvqfc0","pricing_plan_id":"cebpf4jnsgd1na2vs0mg"},{"bike_id":"328d45f9-980e-4811-97c0-47d761861509","system_id":"levelo_inurba_marseille","lat":43.29847,"lon":5.37836,"is_reserved":false,"is_disabled":false,"rental_uris":{"android":"levelo://app?vid=328d45f9-980e-4811-97c0-47d761861509","ios":"levelo://app?vid=328d45f9-980e-4811-97c0-47d761861509"},"vehicle_type_id":"4","last_reported":1726322820,"current_range_meters":32400,"station_id":"ce4bgkh2rcd13ifvqbl0","pricing_plan_id":"cebpf4jnsgd1na2vs0mg"},{"bike_id":"a4bd5b67-f243-4110-afb5-90f023ca0710","system_id":"levelo_inurba_marseille","lat":43.23184,"lon":5.39993,"is_reserved":false,"is_disabled":false,"rental_uris":{"android":"levelo://app?vid=a4bd5b67-f243-4110-afb5-90f023ca0710","ios":"levelo://app?vid=a4bd5b67-f243-4110-afb5-90f023ca0710"},"vehicle_type_id":"4","last_reported":1726322820,"current_range_meters":27600,"station_id":"ce4bhn12rcd13ifvqgqg","pricing_plan_id":"cebpf4jnsgd1na2vs0mg"},{"bike_id":"66617835-2d51-4af9-be86-8128bf2ff8bf","system_id":"levelo_inurba_marseille","lat":43.27212,"lon":5.39169,"is_reserved":false,"is_disabled":false,"rental_uris":{"android":"levelo://app?vid=66617835-2d51-4af9-be86-8128bf2ff8bf","ios":"levelo://app?vid=66617835-2d51-4af9-be86-8128bf2ff8bf"},"vehicle_type_id":"4","last_reported":1726322820,"current_range_meters":20000,"station_id":"ce4bhhp2rcd13ifvqfm0","pricing_plan_id":"cebpf4jnsgd1na2vs0mg"},{"bike_id":"141b354c-9752-4c92-8992-d7bfe63e9179","system_id":"levelo_inurba_marseille","lat":43.2318,"lon":5.39991,"is_reserved":false,"is_disabled":false,"rental_uris":{"android":"levelo://app?vid=141b354c-9752-4c92-8992-d7bfe63e9179","ios":"levelo://app?vid=141b354c-9752-4c92-8992-d7bfe63e9179"},"vehicle_type_id":"4","last_reported":1726322820,"current_range_meters":29600,"station_id":"ce4bhn12rcd13ifvqgqg","pricing_plan_id":"cebpf4jnsgd1na2vs0mg"},{"bike_id":"cee33ea0-56c1-4573-bccf-74f6de7d3b95","system_id":"levelo_inurba_marseille","lat":43.31713,"lon":5.43707,"is_reserved":false,"is_disabled":false,"rental_uris":{"android":"levelo://app?vid=cee33ea0-56c1-4573-bccf-74f6de7d3b95","ios":"levelo://app?vid=cee33ea0-56c1-4573-bccf-74f6de7d3b95"},"vehicle_type_id":"4","last_reported":1726322820,"current_range_meters":3200,"station_id":"ce4bhp92rcd13ifvqhcg","pricing_plan_id":"cebpf4jnsgd1na2vs0mg"},{"bike_id":"9ef74294-1e9f-40c9-b6de-b65562b51f9f","system_id":"levelo_inurba_marseille","lat":43.295568,"lon":5.422966,"is_reserved":false,"is_disabled":false,"rental_uris":{"android":"levelo://app?vid=9ef74294-1e9f-40c9-b6de-b65562b51f9f","ios":"levelo://app?vid=9ef74294-1e9f-40c9-b6de-b65562b51f9f"},"vehicle_type_id":"4","last_reported":1726322820,"current_range_meters":28000,"station_id":"ce4bhph2rcd13ifvqhdg","pricing_plan_id":"cebpf4jnsgd1na2vs0mg"},{"bike_id":"93293177-e4be-4b7b-9da0-51ae517c946f","system_id":"levelo_inurba_marseille","lat":43.33025,"lon":5.39046,"is_reserved":false,"is_disabled":false,"rental_uris":{"android":"levelo://app?vid=93293177-e4be-4b7b-9da0-51ae517c946f","ios":"levelo://app?vid=93293177-e4be-4b7b-9da0-51ae517c946f"},"vehicle_type_id":"4","last_reported":1726322820,"current_range_meters":38800,"station_id":"ce4bhr92rcd13ifvqhrg","pricing_plan_id":"cebpf4jnsgd1na2vs0mg"},{"bike_id":"a18a3e3e-04ca-408c-8a42-be9c89e2f122","system_id":"levelo_inurba_marseille","lat":43.299622,"lon":5.38491,"is_reserved":false,"is_disabled":false,"rental_uris":{"android":"levelo://app?vid=a18a3e3e-04ca-408c-8a42-be9c89e2f122","ios":"levelo://app?vid=a18a3e3e-04ca-408c-8a42-be9c89e2f122"},"vehicle_type_id":"4","last_reported":1726322820,"current_range_meters":36400,"station_id":"ce4bh3p2rcd13ifvqdp0","pricing_plan_id":"cebpf4jnsgd1na2vs0mg"},{"bike_id":"8b608b96-fedf-4511-8d4b-09bad2606e1a","system_id":"levelo_inurba_marseille","lat":43.27722,"lon":5.41135,"is_reserved":false,"is_disabled":false,"rental_uris":{"android":"levelo://app?vid=8b608b96-fedf-4511-8d4b-09bad2606e1a","ios":"levelo://app?vid=8b608b96-fedf-4511-8d4b-09bad2606e1a"},"vehicle_type_id":"4","last_reported":1726322820,"current_range_meters":27200,"station_id":"","pricing_plan_id":"cebpf4jnsgd1na2vs0mg"},{"bike_id":"0cd1c978-13e8-4405-af4b-07c5d83560a3","system_id":"levelo_inurba_marseille","lat":43.29903,"lon":5.4367,"is_reserved":false,"is_disabled":false,"rental_uris":{"android":"levelo://app?vid=0cd1c978-13e8-4405-af4b-07c5d83560a3","ios":"levelo://app?vid=0cd1c978-13e8-4405-af4b-07c5d83560a3"},"vehicle_type_id":"4","last_reported":1726322820,"current_range_meters":38400,"station_id":"ce4bhpp2rcd13ifvqhfg","pricing_plan_id":"cebpf4jnsgd1na2vs0mg"},{"bike_id":"acb76ad2-4219-42f7-ba34-632416c66236","system_id":"levelo_inurba_marseille","lat":43.28456,"lon":5.39209,"is_reserved":false,"is_disabled":false,"rental_uris":{"android":"levelo://app?vid=acb76ad2-4219-42f7-ba34-632416c66236","ios":"levelo://app?vid=acb76ad2-4219-42f7-ba34-632416c66236"},"vehicle_type_id":"4","last_reported":1726322820,"current_range_meters":16800,"station_id":"ce4bhoh2rcd13ifvqh5g","pricing_plan_id":"cebpf4jnsgd1na2vs0mg"},{"bike_id":"b610de34-0f16-4641-88fd-0afbc16b22a5","system_id":"levelo_inurba_marseille","lat":43.28158,"lon":5.42646,"is_reserved":false,"is_disabled":false,"rental_uris":{"android":"levelo://app?vid=b610de34-0f16-4641-88fd-0afbc16b22a5","ios":"levelo://app?vid=b610de34-0f16-4641-88fd-0afbc16b22a5"},"vehicle_type_id":"4","last_reported":1726322820,"current_range_meters":14400,"station_id":"ce4bhnh2rcd13ifvqgug","pricing_plan_id":"cebpf4jnsgd1na2vs0mg"},{"bike_id":"271182d0-7318-4fd4-814c-db2b8265c1a9","system_id":"levelo_inurba_marseille","lat":43.24398,"lon":5.37063,"is_reserved":false,"is_disabled":false,"rental_uris":{"android":"levelo://app?vid=271182d0-7318-4fd4-814c-db2b8265c1a9","ios":"levelo://app?vid=271182d0-7318-4fd4-814c-db2b8265c1a9"},"vehicle_type_id":"4","last_reported":1726322820,"current_range_meters":34000,"station_id":"ce4bhhh2rcd13ifvqfk0","pricing_plan_id":"cebpf4jnsgd1na2vs0mg"},{"bike_id":"feca51f9-ad2b-4df9-babd-99506428708a","system_id":"levelo_inurba_marseille","lat":43.28109,"lon":5.37833,"is_reserved":false,"is_disabled":false,"rental_uris":{"android":"levelo://app?vid=feca51f9-ad2b-4df9-babd-99506428708a","ios":"levelo://app?vid=feca51f9-ad2b-4df9-babd-99506428708a"},"vehicle_type_id":"4","last_reported":1726322820,"current_range_meters":19600,"station_id":"ce4bha12rcd13ifvqee0","pricing_plan_id":"cebpf4jnsgd1na2vs0mg"},{"bike_id":"26afe759-2001-4462-84aa-106146ecbe64","system_id":"levelo_inurba_marseille","lat":43.25006,"lon":5.38926,"is_reserved":false,"is_disabled":false,"rental_uris":{"android":"levelo://app?vid=26afe759-2001-4462-84aa-106146ecbe64","ios":"levelo://app?vid=26afe759-2001-4462-84aa-106146ecbe64"},"vehicle_type_id":"4","last_reported":1726322820,"current_range_meters":39200,"station_id":"ce4bhgp2rcd13ifvqfd0","pricing_plan_id":"cebpf4jnsgd1na2vs0mg"},{"bike_id":"b02f1662-0030-4edc-8273-4417afa24a1a","system_id":"levelo_inurba_marseille","lat":43.27499,"lon":5.42449,"is_reserved":false,"is_disabled":false,"rental_uris":{"android":"levelo://app?vid=b02f1662-0030-4edc-8273-4417afa24a1a","ios":"levelo://app?vid=b02f1662-0030-4edc-8273-4417afa24a1a"},"vehicle_type_id":"4","last_reported":1726322820,"current_range_meters":6000,"station_id":"ce4bhn92rcd13ifvqgrg","pricing_plan_id":"cebpf4jnsgd1na2vs0mg"},{"bike_id":"fe11311b-42b9-45a5-92e5-e3c3445bd058","system_id":"levelo_inurba_marseille","lat":43.27323,"lon":5.39082,"is_reserved":false,"is_disabled":false,"rental_uris":{"android":"levelo://app?vid=fe11311b-42b9-45a5-92e5-e3c3445bd058","ios":"levelo://app?vid=fe11311b-42b9-45a5-92e5-e3c3445bd058"},"vehicle_type_id":"4","last_reported":1726322820,"current_range_meters":19600,"station_id":"ce4bhgp2rcd13ifvqfe0","pricing_plan_id":"cebpf4jnsgd1na2vs0mg"},{"bike_id":"3c8258fd-c525-4498-880e-db77347fd4a6","system_id":"levelo_inurba_marseille","lat":43.28415,"lon":5.34994,"is_reserved":false,"is_disabled":false,"rental_uris":{"android":"levelo://app?vid=3c8258fd-c525-4498-880e-db77347fd4a6","ios":"levelo://app?vid=3c8258fd-c525-4498-880e-db77347fd4a6"},"vehicle_type_id":"4","last_reported":1726322820,"current_range_meters":39200,"station_id":"ce4bhbh2rcd13ifvqepg","pricing_plan_id":"cebpf4jnsgd1na2vs0mg"},{"bike_id":"867e29b0-46ca-4d4b-8551-5366f946aa4b","system_id":"levelo_inurba_marseille","lat":43.23181,"lon":5.39978,"is_reserved":false,"is_disabled":false,"rental_uris":{"android":"levelo://app?vid=867e29b0-46ca-4d4b-8551-5366f946aa4b","ios":"levelo://app?vid=867e29b0-46ca-4d4b-8551-5366f946aa4b"},"vehicle_type_id":"4","last_reported":1726322820,"current_range_meters":10000,"station_id":"ce4bhn12rcd13ifvqgqg","pricing_plan_id":"cebpf4jnsgd1na2vs0mg"},{"bike_id":"5e6f2599-d87c-4c20-8c72-d7c1711aa50a","system_id":"levelo_inurba_marseille","lat":43.27203,"lon":5.39195,"is_reserved":false,"is_disabled":false,"rental_uris":{"android":"levelo://app?vid=5e6f2599-d87c-4c20-8c72-d7c1711aa50a","ios":"levelo://app?vid=5e6f2599-d87c-4c20-8c72-d7c1711aa50a"},"vehicle_type_id":"4","last_reported":1726322820,"current_range_meters":7200,"station_id":"ce4bhhp2rcd13ifvqfm0","pricing_plan_id":"cebpf4jnsgd1na2vs0mg"},{"bike_id":"df7ed7e6-0315-42b6-ae72-4164ac47da73","system_id":"levelo_inurba_marseille","lat":43.30957,"lon":5.39034,"is_reserved":false,"is_disabled":false,"rental_uris":{"android":"levelo://app?vid=df7ed7e6-0315-42b6-ae72-4164ac47da73","ios":"levelo://app?vid=df7ed7e6-0315-42b6-ae72-4164ac47da73"},"vehicle_type_id":"4","last_reported":1726322820,"current_range_meters":28800,"station_id":"ce4bgup2rcd13ifvqco0","pricing_plan_id":"cebpf4jnsgd1na2vs0mg"},{"bike_id":"c42c9ad2-d824-471f-b282-8d958418e745","system_id":"levelo_inurba_marseille","lat":43.290259,"lon":5.37562,"is_reserved":false,"is_disabled":false,"rental_uris":{"android":"levelo://app?vid=c42c9ad2-d824-471f-b282-8d958418e745","ios":"levelo://app?vid=c42c9ad2-d824-471f-b282-8d958418e745"},"vehicle_type_id":"4","last_reported":1726322820,"current_range_meters":38000,"station_id":"ce4bh312rcd13ifvqdj0","pricing_plan_id":"cebpf4jnsgd1na2vs0mg"},{"bike_id":"c8d8b107-5c97-4c5e-b1e9-883a6f17fdcb","system_id":"levelo_inurba_marseille","lat":43.29303,"lon":5.3746,"is_reserved":false,"is_disabled":false,"rental_uris":{"android":"levelo://app?vid=c8d8b107-5c97-4c5e-b1e9-883a6f17fdcb","ios":"levelo://app?vid=c8d8b107-5c97-4c5e-b1e9-883a6f17fdcb"},"vehicle_type_id":"4","last_reported":1726322820,"current_range_meters":4000,"station_id":"ce4bgi12rcd13ifvqb70","pricing_plan_id":"cebpf4jnsgd1na2vs0mg"},{"bike_id":"f14a984d-0e31-43a4-8c1e-308731fa26f8","system_id":"levelo_inurba_marseille","lat":43.31728,"lon":5.42403,"is_reserved":false,"is_disabled":false,"rental_uris":{"android":"levelo://app?vid=f14a984d-0e31-43a4-8c1e-308731fa26f8","ios":"levelo://app?vid=f14a984d-0e31-43a4-8c1e-308731fa26f8"},"vehicle_type_id":"4","last_reported":1726322820,"current_range_meters":3600,"station_id":"ce4bhp92rcd13ifvqhbg","pricing_plan_id":"cebpf4jnsgd1na2vs0mg"},{"bike_id":"d90b1fac-77ed-4519-8057-220f6798e750","system_id":"levelo_inurba_marseille","lat":43.241669,"lon":5.36406,"is_reserved":false,"is_disabled":false,"rental_uris":{"android":"levelo://app?vid=d90b1fac-77ed-4519-8057-220f6798e750","ios":"levelo://app?vid=d90b1fac-77ed-4519-8057-220f6798e750"},"vehicle_type_id":"4","last_reported":1726322820,"current_range_meters":6800,"station_id":"cpo36qri1sfpv3e86is0","pricing_plan_id":"cebpf4jnsgd1na2vs0mg"},