{"last_updated":1739542146,"ttl":60,"version":"2.2","data":{"bikes":[{"bike_id":"23c37aa2-d86d-4e05-ba0a-9558b2f6ea2e","system_id":"levelo_inurba_marseille","lat":43.25929,"lon":5.40906,"is_reserved":false,"is_disabled":false,"rental_uris":{"android":"levelo://app?vid=23c37aa2-d86d-4e05-ba0a-9558b2f6ea2e","ios":"levelo://app?vid=23c37aa2-d86d-4e05-ba0a-9558b2f6ea2e"},"vehicle_type_id":"4","last_reported":1739542147,"current_range_meters":35200,"station_id":"ce4bhm92rcd13ifvqglg","pricing_plan_id":"cebpf4jnsgd1na2vs0mg"},{"bike_id":"949af87f-7e3c-4d66-a1f0-5f63abc4d26d","system_id":"levelo_inurba_marseille","lat":43.27831,"lon":5.40718,"is_reserved":false,"is_disabled":false,"rental_uris":{"android":"levelo://app?vid=949af87f-7e3c-4d66-a1f0-5f63abc4d26d","ios":"levelo://app?vid=949af87f-7e3c-4d66-a1f0-5f63abc4d26d"},"vehicle_type_id":"4","last_reported":1739542147,"current_range_meters":32000,"station_id":"ce4bhnh2rcd13ifvqgtg","pricing_plan_id":"cebpf4jnsgd1na2vs0mg"},{"bike_id":"57733742-8550-497e-9276-0cbdd5f530a4","system_id":"levelo_inurba_marseille","lat":43.28409,"lon":5.37505,"is_reserved":false,"is_disabled":false,"rental_uris":{"android":"levelo://app?vid=57733742-8550-497e-9276-0cbdd5f530a4","ios":"levelo://app?vid=57733742-8550-497e-9276-0cbdd5f530a4"},"vehicle_type_id":"4","last_reported":1739542147,"current_range_meters":28400,"station_id":"ce4bh412rcd13ifvqds0","pricing_plan_id":"cebpf4jnsgd1na2vs0mg"},{"bike_id":"a1df74b8-4afd-4233-bb34-718f60f27296","system_id":"levelo_inurba_marseille","lat":43.30934,"lon":5.40141,"is_reserved":false,"is_disabled":false,"rental_uris":{"android":"levelo://app?vid=a1df74b8-4afd-4233-bb34-718f60f27296","ios":"levelo://app?vid=a1df74b8-4afd-4233-bb34-718f60f27296"},"vehicle_type_id":"4","last_reported":1739542147,"current_range_meters":38800,"station_id":"ce4bgvp2rcd13ifvqct0","pricing_plan_id":"cebpf4jnsgd1na2vs0mg"},{"bike_id":"cd714e86-e094-4bf2-a979-d547de203cd5","system_id":"levelo_inurba_marseille","lat":43.27171,"lon":5.40994,"is_reserved":false,"is_disabled":false,"rental_uris":{"android":"levelo://app?vid=cd714e86-e094-4bf2-a979-d547de203cd5","ios":"levelo://app?vid=cd714e86-e094-4bf2-a979-d547de203cd5"},"vehicle_type_id":"4","last_reported":1739542147,"current_range_meters":21600,"station_id":"ce4bhl12rcd13ifvqgf0","pricing_plan_id":"cebpf4jnsgd1na2vs0mg"},{"bike_id":"aeeb603c-9e21-471f-a3b4-471a46d5c228","system_id":"levelo_inurba_marseille","lat":43.24163,"lon":5.36393,"is_reserved":false,"is_disabled":false,"rental_uris":{"android":"levelo://app?vid=aeeb603c-9e21-471f-a3b4-471a46d5c228","ios":"levelo://app?vid=aeeb603c-9e21-471f-a3b4-471a46d5c228"},"vehicle_type_id":"4","last_reported":1739542147,"current_range_meters":20400,"station_id":"cpo36qri1sfpv3e86is0","pricing_plan_id":"cebpf4jnsgd1na2vs0mg"},{"bike_id":"1d4165b9-e8af-42e7-8e88-54a0f84b4f26","system_id":"levelo_inurba_marseille","lat":43.23193,"lon":5.39966,"is_reserved":false,"is_disabled":false,"rental_uris":{"android":"levelo://app?vid=1d4165b9-e8af-42e7-8e88-54a0f84b4f26","ios":"levelo://app?vid=1d4165b9-e8af-42e7-8e88-54a0f84b4f26"},"vehicle_type_id":"4","last_reported":1739542147,"current_range_meters":30000,"station_id":"ce4bhn12rcd13ifvqgqg","pricing_plan_id":"cebpf4jnsgd1na2vs0mg"},{"bike_id":"2c55c208-b82c-483a-b4de-f1557a794637","system_id":"levelo_inurba_marseille","lat":43.25002,"lon":5.38936,"is_reserved":false,"is_disabled":false,"rental_uris":{"android":"levelo://app?vid=2c55c208-b82c-483a-b4de-f1557a794637","ios":"levelo://app?vid=2c55c208-b82c-483a-b4de-f1557a794637"},"vehicle_type_id":"4","last_reported":1739542147,"current_range_meters":6800,"station_id":"ce4bhgp2rcd13ifvqfd0","pricing_plan_id":"cebpf4jnsgd1na2vs0mg"},{"bike_id":"3a79dec4-d8a2-408f-b30c-ab69ac0ba623","system_id":"levelo_inurba_marseille","lat":43.28455,"lon":5.35895,"is_reserved":false,"is_disabled":false,"rental_uris":{"android":"levelo://app?vid=3a79dec4-d8a2-408f-b30c-ab69ac0ba623","ios":"levelo://app?vid=3a79dec4-d8a2-408f-b30c-ab69ac0ba623"},"vehicle_type_id":"4","last_reported":1739542147,"current_range_meters":18800,"station_id":"ce4bhah2rcd13ifvqei0","pricing_plan_id":"cebpf4jnsgd1na2vs0mg"},{"bike_id":"3d55dfbc-79dc-4a16-8c46-cf49fec8982e","system_id":"levelo_inurba_marseille","lat":43.24409,"lon":5.3705,"is_reserved":false,"is_disabled":false,"rental_uris":{"android":"levelo://app?vid=3d55dfbc-79dc-4a16-8c46-cf49fec8982e","ios":"levelo://app?vid=3d55dfbc-79dc-4a16-8c46-cf49fec8982e"},"vehicle_type_id":"4","last_reported":1739542147,"current_range_meters":38800,"station_id":"ce4bhhh2rcd13ifvqfk0","pricing_plan_id":"cebpf4jnsgd1na2vs0mg"},{"bike_id":"4a5a576f-6857-456e-b036-0c78da2a173e","system_id":"levelo_inurba_marseille","lat":43.29561,"lon":5.39963,"is_reserved":false,"is_disabled":true,"rental_uris":{"android":"levelo://app?vid=4a5a576f-6857-456e-b036-0c78da2a173e","ios":"levelo://app?vid=4a5a576f-6857-456e-b036-0c78da2a173e"},"vehicle_type_id":"4","last_reported":1739542147,"current_range_meters":0,"station_id":"ce4bh312rcd13ifvqdj0","pricing_plan_id":"cebpf4jnsgd1na2vs0mg"},{"bike_id":"f74af6f9-2bf5-4709-8b12-34a283fa61b8","system_id":"levelo_inurba_marseille","lat":43.27679,"lon":5.38906,"is_reserved":false,"is_disabled":false,"rental_uris":{"android":"levelo://app?vid=f74af6f9-2bf5-4709-8b12-34a283fa61b8","ios":"levelo://app?vid=f74af6f9-2bf5-4709-8b12-34a283fa61b8"},"vehicle_type_id":"4","last_reported":1739542147,"current_range_meters":30400,"station_id":"ce4bhi12rcd13ifvqfo0","pricing_plan_id":"cebpf4jnsgd1na2vs0mg"},{"bike_id":"c74f8124-73dc-4bd8-a98e-9fa42c510bc4","system_id":"levelo_inurba_marseille","lat":43.23188,"lon":5.39986,"is_reserved":false,"is_disabled":false,"rental_uris":{"android":"levelo://app?vid=c74f8124-73dc-4bd8-a98e-9fa42c510bc4","ios":"levelo://app?vid=c74f8124-73dc-4bd8-a98e-9fa42c510bc4"},"vehicle_type_id":"4","last_reported":1739542147,"current_range_meters":28800,"station_id":"ce4bhn12rcd13ifvqgqg","pricing_plan_id":"cebpf4jnsgd1na2vs0mg"},{"bike_id":"eace11fc-366d-49db-ab9f-2f957d528477","system_id":"levelo_inurba_marseille","lat":43.25509,"lon":5.37656,"is_reserved":false,"is_disabled":false,"rental_uris":{"android":"levelo://app?vid=eace11fc-366d-49db-ab9f-2f957d528477","ios":"levelo://app?vid=eace11fc-366d-49db-ab9f-2f957d528477"},"vehicle_type_id":"4","last_reported":1739542147,"current_range_meters":37600,"station_id":"ce4bhh12rcd13ifvqff0","pricing_plan_id":"cebpf4jnsgd1na2vs0mg"},{"bike_id":"3986b301-3322-42a8-bc24-bc48c4b44362","system_id":"levelo_inurba_marseille","lat":43.27213,"lon":5.39184,"is_reserved":false,"is_disabled":false,"rental_uris":{"android":"levelo://app?vid=3986b301-3322-42a8-bc24-bc48c4b44362","ios":"levelo://app?vid=3986b301-3322-42a8-bc24-bc48c4b44362"},"vehicle_type_id":"4","last_reported":1739542147,"current_range_meters":28000,"station_id":"ce4bhhp2rcd13ifvqfm0","pricing_plan_id":"cebpf4jnsgd1na2vs0mg"},{"bike_id":"5d2484e8-d08f-4bba-ae77-36cb31e97e9b","system_id":"levelo_inurba_marseille","lat":43.29551,"lon":5.42294,"is_reserved":false,"is_disabled":false,"rental_uris":{"android":"levelo://app?vid=5d2484e8-d08f-4bba-ae77-36cb31e97e9b","ios":"levelo://app?vid=5d2484e8-d08f-4bba-ae77-36cb31e97e9b"},"vehicle_type_id":"4","last_reported":1739542147,"current_range_meters":32000,"station_id":"ce4bhph2rcd13ifvqhdg","pricing_plan_id":"cebpf4jnsgd1na2vs0mg"},{"bike_id":"6b42f4f1-2360-420a-81a5-fa8f868ac30d","system_id":"levelo_inurba_marseille","lat":43.27173,"lon":5.39009,"is_reserved":false,"is_disabled":false,"rental_uris":{"android":"levelo://app?vid=6b42f4f1-2360-420a-81a5-fa8f868ac30d","ios":"levelo://app?vid=6b42f4f1-2360-420a-81a5-fa8f868ac30d"},"vehicle_type_id":"4","last_reported":1739542147,"current_range_meters":37600,"station_id":"","pricing_plan_id":"cebpf4jnsgd1na2vs0mg"},{"bike_id":"4ee55552-0275-42b8-91f9-9d48a7f28d50","system_id":"levelo_inurba_marseille","lat":43.29882,"lon":5.38907,"is_reserved":false,"is_disabled":false,"rental_uris":{"android":"levelo://app?vid=4ee55552-0275-42b8-91f9-9d48a7f28d50","ios":"levelo://app?vid=4ee55552-0275-42b8-91f9-9d48a7f28d50"},"vehicle_type_id":"4","last_reported":1739542147,"current_range_meters":38000,"station_id":"ce4bh392rcd13ifvqdl0","pricing_plan_id":"cebpf4jnsgd1na2vs0mg"},{"bike_id":"cbeb8400-c1dd-46cb-811c-85dfa6e5ba8a","system_id":"levelo_inurba_marseille","lat":43.30141,"lon":5.39854,"is_reserved":false,"is_disabled":false,"rental_uris":{"android":"levelo://app?vid=cbeb8400-c1dd-46cb-811c-85dfa6e5ba8a","ios":"levelo://app?vid=cbeb8400-c1dd-46cb-811c-85dfa6e5ba8a"},"vehicle_type_id":"4","last_reported":1739542147,"current_range_meters":38400,"station_id":"ce4bh0h2rcd13ifvqd40","pricing_plan_id":"cebpf4jnsgd1na2vs0mg"},{"bike_id":"cf4e5f1e-3e26-4a4a-b26d-dc78c55c9c34","system_id":"levelo_inurba_marseille","lat":43.30292,"lon":5.37699,"is_reserved":false,"is_disabled":false,"rental_uris":{"android":"levelo://app?vid=cf4e5f1e-3e26-4a4a-b26d-dc78c55c9c34","ios":"levelo://app?vid=cf4e5f1e-3e26-4a4a-b26d-dc78c55c9c34"},"vehicle_type_id":"4","last_reported":1739542147,"current_range_meters":36400,"station_id":"ce4bguh2rcd13ifvqcj0","pricing_plan_id":"cebpf4jnsgd1na2vs0mg"},{"bike_id":"b34c6303-752a-46a1-93ad-ddbc991e20b6","system_id":"levelo_inurba_marseille","lat":43.23086,"lon":5.35492,"is_reserved":false,"is_disabled":false,"rental_uris":{"android":"levelo://app?vid=b34c6303-752a-46a1-93ad-ddbc991e20b6","ios":"levelo://app?vid=b34c6303-752a-46a1-93ad-ddbc991e20b6"},"vehicle_type_id":"4","last_reported":1739542147,"current_range_meters":4400,"station_id":"cpo3342slgdg3j2ifvpg","pricing_plan_id":"cebpf4jnsgd1na2vs0mg"},{"bike_id":"e2dd2144-631e-4fb6-8efc-dc9e00f38b38","system_id":"levelo_inurba_marseille","lat":43.30142,"lon":5.37433,"is_reserved":false,"is_disabled":false,"rental_uris":{"android":"levelo://app?vid=e2dd2144-631e-4fb6-8efc-dc9e00f38b38","ios":"levelo://app?vid=e2dd2144-631e-4fb6-8efc-dc9e00f38b38"},"vehicle_type_id":"4","last_reported":1739542147,"current_range_meters":37600,"station_id":"ce4bgs92rcd13ifvqcc0","pricing_plan_id":"cebpf4jnsgd1na2vs0mg"},{"bike_id":"a6d22002-9977-46ab-96b3-9865bfd1ef0e","system_id":"levelo_inurba_marseille","lat":43.32489,"lon":5.36566,"is_reserved":false,"is_disabled":false,"rental_uris":{"android":"levelo://app?vid=a6d22002-9977-46ab-96b3-9865bfd1ef0e","ios":"levelo://app?vid=a6d22002-9977-46ab-96b3-9865bfd1ef0e"},"vehicle_type_id":"4","last_reported":1739542147,"current_range_meters":38800,"station_id":"ce4bhs12rcd13ifvqhvg","pricing_plan_id":"cebpf4jnsgd1na2vs0mg"},{"bike_id":"cf6cf15d-6d9e-4a07-8560-7848bf1f722a","system_id":"levelo_inurba_marseille","lat":43.33612,"lon":5.41019,"is_reserved":false,"is_disabled":false,"rental_uris":{"android":"levelo://app?vid=cf6cf15d-6d9e-4a07-8560-7848bf1f722a","ios":"levelo://app?vid=cf6cf15d-6d9e-4a07-8560-7848bf1f722a"},"vehicle_type_id":"4","last_reported":1739542147,"current_range_meters":26000,"station_id":"ce4bhqh2rcd13ifvqhmg","pricing_plan_id":"cebpf4jnsgd1na2vs0mg"},{"bike_id":"92e64a5f-0a29-4007-a2cc-33ca0934412f","system_id":"levelo_inurba_marseille","lat":43.3188,"lon":5.40734,"is_reserved":false,"is_disabled":false,"rental_uris":{"android":"levelo://app?vid=92e64a5f-0a29-4007-a2cc-33ca0934412f","ios":"levelo://app?vid=92e64a5f-0a29-4007-a2cc-33ca0934412f"},"vehicle_type_id":"4","last_reported":1739542147,"current_range_meters":12400,"station_id":"ce4bhq12rcd13ifvqhig","pricing_plan_id":"cebpf4jnsgd1na2vs0mg"},{"bike_id":"db0c59a5-e36c-460d-a199-b553cfb8a418","system_id":"levelo_inurba_marseille","lat":43.2783,"lon":5.40723,"is_reserved":false,"is_disabled":false,"rental_uris":{"android":"levelo://app?vid=db0c59a5-e36c-460d-a199-b553cfb8a418","ios":"levelo://app?vid=db0c59a5-e36c-460d-a199-b553cfb8a418"},"vehicle_type_id":"4","last_reported":1739542147,"current_range_meters":30800,"station_id":"ce4bhnh2rcd13ifvqgtg","pricing_plan_id":"cebpf4jnsgd1na2vs0mg"},{"bike_id":"97571266-8f52-4f77-b22c-80589efa64ab","system_id":"levelo_inurba_marseille","lat":43.31757,"lon":5.3902,"is_reserved":false,"is_disabled":false,"rental_uris":{"android":"levelo://app?vid=97571266-8f52-4f77-b22c-80589efa64ab","ios":"levelo://app?vid=97571266-8f52-4f77-b22c-80589efa64ab"},"vehicle_type_id":"4","last_reported":1739542147,"current_range_meters":38000,"station_id":"ce4bhqp2rcd13ifvqhng","pricing_plan_id":"cebpf4jnsgd1na2vs0mg"},{"bike_id":"5b94872e-e8e0-48b1-a4f8-764a45f452f2","system_id":"levelo_inurba_marseille","lat":43.30542,"lon":5.36712,"is_reserved":false,"is_disabled":false,"rental_uris":{"android":"levelo://app?vid=5b94872e-e8e0-48b1-a4f8-764a45f452f2","ios":"levelo://app?vid=5b94872e-e8e0-48b1-a4f8-764a45f452f2"},"vehicle_type_id":"4","last_reported":1739542147,"current_range_meters":38800,"station_id":"ce4bgrp2rcd13ifvqc9g","pricing_plan_id":"cebpf4jnsgd1na2vs0mg"},{"bike_id":"170bdf87-3d17-4c6f-af53-8615e4d565af","system_id":"levelo_inurba_marseille","lat":43.29523,"lon":5.37522,"is_reserved":false,"is_disabled":false,"rental_uris":{"android":"levelo://app?vid=170bdf87-3d17-4c6f-af53-8615e4d565af","ios":"levelo://app?vid=170bdf87-3d17-4c6f-af53-8615e4d565af"},"vehicle_type_id":"4","last_reported":1739542147,"current_range_meters":38000,"station_id":"ce4bgkp2rcd13ifvqbmg","pricing_plan_id":"cebpf4jnsgd1na2vs0mg"},{"bike_id":"9c41f951-242e-432f-99a5-fbe6e3a966a9","system_id":"levelo_inurba_marseille","lat":43.26943,"lon":5.40251,"is_reserved":false,"is_disabled":false,"rental_uris":{"android":"levelo://app?vid=9c41f951-242e-432f-99a5-fbe6e3a966a9","ios":"levelo://app?vid=9c41f951-242e-432f-99a5-fbe6e3a966a9"},"vehicle_type_id":"4","last_reported":1739542147,"current_range_meters":16800,"station_id":"cjm6bp8fraef2m0cb0m0","pricing_plan_id":"cebpf4jnsgd1na2vs0mg"},{"bike_id":"fb9dfa09-3d2f-4781-b8cd-e624f89d8963","system_id":"levelo_inurba_marseille","lat":43.34143,"lon":5.40909,"is_reserved":false,"is_disabled":false,"rental_uris":{"android":"levelo://app?vid=fb9dfa09-3d2f-4781-b8cd-e624f89d8963","ios":"levelo://app?vid=fb9dfa09-3d2f-4781-b8cd-e624f89d8963"},"vehicle_type_id":"4","last_reported":1739542147,"current_range_meters":36400,"station_id":"ce4bhqh2rcd13ifvqhlg","pricing_plan_id":"cebpf4jnsgd1na2vs0mg"},{"bike_id":"77199d23-32e6-4212-95ff-7ee9972b2938","system_id":"levelo_inurba_marseille","lat":43.26723,"lon":5.38285,"is_reserved":false,"is_disabled":false,"rental_uris":{"android":"levelo://app?vid=77199d23-32e6-4212-95ff-7ee9972b2938","ios":"levelo://app?vid=77199d23-32e6-4212-95ff-7ee9972b2938"},"vehicle_type_id":"4","last_reported":1739542147,"current_range_meters":6800,"station_id":"ce4bhg92rcd13ifvqf90","pricing_plan_id":"cebpf4jnsgd1na2vs0mg"},{"bike_id":"d852604d-f66a-4c5d-98cf-7bb862f91f2e","system_id":"levelo_inurba_marseille","lat":43.2926,"lon":5.40916,"is_reserved":false,"is_disabled":false,"rental_uris":{"android":"levelo://app?vid=d852604d-f66a-4c5d-98cf-7bb862f91f2e","ios":"levelo://app?vid=d852604d-f66a-4c5d-98cf-7bb862f91f2e"},"vehicle_type_id":"4","last_reported":1739542147,"current_range_meters":38800,"station_id":"ce4bh192rcd13ifvqdc0","pricing_plan_id":"cebpf4jnsgd1na2vs0mg"},{"bike_id":"d2909a59-c06a-44b6-9282-6325832d7f18","system_id":"levelo_inurba_marseille","lat":43.2465,"lon":5.38894,"is_reserved":false,"is_disabled":false,"rental_uris":{"android":"levelo://app?vid=d2909a59-c06a-44b6-9282-6325832d7f18","ios":"levelo://app?vid=d2909a59-c06a-44b6-9282-6325832d7f18"},"vehicle_type_id":"4","last_reported":1739542147,"current_range_meters":22800,"station_id":"ce4bhg12rcd13ifvqf60","pricing_plan_id":"cebpf4jnsgd1na2vs0mg"},{"bike_id":"bc34f0ab-aa1a-4d0c-b6d5-f17c6255055b","system_id":"levelo_inurba_marseille","lat":43.30919,"lon":5.40148,"is_reserved":false,"is_disabled":false,"rental_uris":{"android":"levelo://app?vid=bc34f0ab-aa1a-4d0c-b6d5-f17c6255055b","ios":"levelo://app?vid=bc34f0ab-aa1a-4d0c-b6d5-f17c6255055b"},"vehicle_type_id":"4","last_reported":1739542147,"current_range_meters":38800,"station_id":"ce4bgvp2rcd13ifvqct0","pricing_plan_id":"cebpf4jnsgd1na2vs0mg"},{"bike_id":"afa0a01c-e6be-4e0e-a92e-0a5e0f055503","system_id":"levelo_inurba_marseille","lat":43.283436,"lon":5.3811,"is_reserved":false,"is_disabled":false,"rental_uris":{"android":"levelo://app?vid=afa0a01c-e6be-4e0e-a92e-0a5e0f055503","ios":"levelo://app?vid=afa0a01c-e6be-4e0e-a92e-0a5e0f055503"},"vehicle_type_id":"4","last_reported":1739542147,"current_range_meters":25200,"station_id":"ce4bh412rcd13ifvqdr0","pricing_plan_id":"cebpf4jnsgd1na2vs0mg"},{"bike_id":"8810c5ca-48ab-4f5e-8177-ae6a3a565963","system_id":"levelo_inurba_marseille","lat":43.30143,"lon":5.37403,"is_reserved":false,"is_disabled":false,"rental_uris":{"android":"levelo://app?vid=8810c5ca-48ab-4f5e-8177-ae6a3a565963","ios":"levelo://app?vid=8810c5ca-48ab-4f5e-8177-ae6a3a565963"},"vehicle_type_id":"4","last_reported":1739542147,"current_range_meters":38400,"station_id":"ce4bgs92rcd13ifvqcc0","pricing_plan_id":"cebpf4jnsgd1na2vs0mg"},{"bike_id":"bb4f5597-3059-4c0a-8aeb-b1c2d59ac7c2","system_id":"levelo_inurba_marseille","lat":43.30913,"lon":5.40154,"is_reserved":false,"is_disabled":false,"rental_uris":{"android":"levelo://app?vid=bb4f5597-3059-4c0a-8aeb-b1c2d59ac7c2","ios":"levelo://app?vid=bb4f5597-3059-4c0a-8aeb-b1c2d59ac7c2"},"vehicle_type_id":"4","last_reported":1739542147,"current_range_meters":28400,"station_id":"ce4bgvp2rcd13ifvqct0","pricing_plan_id":"cebpf4jnsgd1na2vs0mg"},{"bike_id":"99c3ac6a-a000-4a52-bf81-e6ffae508772","system_id":"levelo_inurba_marseille","lat":43.27573,"lon":5.38431,"is_reserved":false,"is_disabled":false,"rental_uris":{"android":"levelo://app?vid=99c3ac6a-a000-4a52-bf81-e6ffae508772","ios":"levelo://app?vid=99c3ac6a-a000-4a52-bf81-e6ffae508772"},"vehicle_type_id":"4","last_reported":1739542147,"current_range_meters":14000,"station_id":"ce4bhh92rcd13ifvqfi0","pricing_plan_id":"cebpf4jnsgd1na2vs0mg"},{"bike_id":"c0273cc7-74d9-482c-b776-112a87f9e2e2","system_id":"levelo_inurba_marseille","lat":43.26195,"lon":5.37446,"is_reserved":false,"is_disabled":true,"rental_uris":{"android":"levelo://app?vid=c0273cc7-74d9-482c-b776-112a87f9e2e2","ios":"levelo://app?vid=c0273cc7-74d9-482c-b776-112a87f9e2e2"},"vehicle_type_id":"4","last_reported":1739542147,"current_range_meters":800,"station_id":"ce4bhgp2rcd13ifvqfc0","pricing_plan_id":"cebpf4jnsgd1na2vs0mg"},{"bike_id":"020ab362-d7a8-4fc8-b573-28bc00dc6fa6","system_id":"levelo_inurba_marseille","lat":43.25584,"lon":5.38229,"is_reserved":false,"is_disabled":false,"rental_uris":{"android":"levelo://app?vid=020ab362-d7a8-4fc8-b573-28bc00dc6fa6","ios":"levelo://app?vid=020ab362-d7a8-4fc8-b573-28bc00dc6fa6"},"vehicle_type_id":"4","last_reported":1739542147,"current_range_meters":24400,"station_id":"ce4bhih2rcd13ifvqfs0","pricing_plan_id":"cebpf4jnsgd1na2vs0mg"},{"bike_id":"16ffce3d-cb33-46d6-9674-4a41abf1fde1","system_id":"levelo_inurba_marseille","lat":43.29583,"lon":5.37524,"is_reserved":false,"is_disabled":false,"rental_uris":{"android":"levelo://app?vid=16ffce3d-cb33-46d6-9674-4a41abf1fde1","ios":"levelo://app?vid=16ffce3d-cb33-46d6-9674-4a41abf1fde1"},"vehicle_type_id":"4","last_reported":1739542147,"current_range_meters":33600,"station_id":"ce4bgh92rcd13ifvqb50","pricing_plan_id":"cebpf4jnsgd1na2vs0mg"},{"bike_id":"f92e748a-9f9b-4e54-8084-07e33515f3d5","system_id":"levelo_inurba_marseille","lat":43.27059,"lon":5.3934,"is_reserved":false,"is_disabled":true,"rental_uris":{"android":"levelo://app?vid=f92e748a-9f9b-4e54-8084-07e33515f3d5","ios":"levelo://app?vid=f92e748a-9f9b-4e54-8084-07e33515f3d5"},"vehicle_type_id":"4","last_reported":1739542147,"current_range_meters":0,"station_id":"","pricing_plan_id":"cebpf4jnsgd1na2vs0mg"},{"bike_id":"7634e086-f6e0-474c-af09-9f19e7449c6e","system_id":"levelo_inurba_marseille","lat":43.26954,"lon":5.40232,"is_reserved":false,"is_disabled":false,"rental_uris":{"android":"levelo://app?vid=7634e086-f6e0-474c-af09-9f19e7449c6e","ios":"levelo://app?vid=7634e086-f6e0-474c-af09-9f19e7449c6e"},"vehicle_type_id":"4","last_reported":1739542147,"current_range_meters":10000,"station_id":"cjm6bp8fraef2m0cb0m0","pricing_plan_id":"cebpf4jnsgd1na2vs0mg"},{"bike_id":"704ec19d-e7c0-4858-a423-dcfa560220a5","system_id":"levelo_inurba_marseille","lat":43.23185,"lon":5.39962,"is_reserved":false,"is_disabled":false,"rental_uris":{"android":"levelo://app?vid=704ec19d-e7c0-4858-a423-dcfa560220a5","ios":"levelo://app?vid=704ec19d-e7c0-4858-a423-dcfa560220a5"},"vehicle_type_id":"4","last_reported":1739542147,"current_range_meters":33200,"station_id":"ce4bhn12rcd13ifvqgqg","pricing_plan_id":"cebpf4jnsgd1na2vs0mg"},{"bike_id":"3b65282a-f1d0-4275-aeb0-d72b1002d850","system_id":"levelo_inurba_marseille","lat":43.30131,"lon":5.37423,"is_reserved":false,"is_disabled":false,"rental_uris":{"android":"levelo://app?vid=3b65282a-f1d0-4275-aeb0-d72b1002d850","ios":"levelo://app?vid=3b65282a-f1d0-4275-aeb0-d72b1002d850"},"vehicle_type_id":"4","last_reported":1739542147,"current_range_meters":38800,"station_id":"ce4bgs92rcd13ifvqcc0","pricing_plan_id":"cebpf4jnsgd1na2vs0mg"},{"bike_id":"7c4bef15-be02-46d5-9019-599ad7fd0ad4","system_id":"levelo_inurba_marseille","lat":43.2693,"lon":5.40265,"is_reserved":false,"is_disabled":false,"rental_uris":{"android":"levelo://app?vid=7c4bef15-be02-46d5-9019-599ad7fd0ad4","ios":"levelo://app?vid=7c4bef15-be02-46d5-9019-599ad7fd0ad4"},"vehicle_type_id":"4","last_reported":1739542147,"current_range_meters":34800,"station_id":"cjm6bp8fraef2m0cb0m0","pricing_plan_id":"cebpf4jnsgd1na2vs0mg"},{"bike_id":"50d213a7-c274-4ff3-be15-3c1a5e5b616b","system_id":"levelo_inurba_marseille","lat":43.299683,"lon":5.38536,"is_reserved":false,"is_disabled":false,"rental_uris":{"android":"levelo://app?vid=50d213a7-c274-4ff3-be15-3c1a5e5b616b","ios":"levelo://app?vid=50d213a7-c274-4ff3-be15-3c1a5e5b616b"},"vehicle_type_id":"4","last_reported":1739542147,"current_range_meters":32000,"station_id":"ce4bgj92rcd13ifvqbd0","pricing_plan_id":"cebpf4jnsgd1na2vs0mg"},{"bike_id":"0f6ab472-c62b-4b29-ad34-1e7cbaef1730","system_id":"levelo_inurba_marseille","lat":43.28353,"lon":5.381,"is_reserved":false,"is_disabled":true,"rental_uris":{"android":"levelo://app?vid=0f6ab472-c62b-4b29-ad34-1e7cbaef1730","ios":"levelo://app?vid=0f6ab472-c62b-4b29-ad34-1e7cbaef1730"},"vehicle_type_id":"4","last_reported":1739542147,"current_range_meters":0,"station_id":"ce4bh412rcd13ifvqdr0","pricing_plan_id":"cebpf4jnsgd1na2vs0mg"},{"bike_id":"9cf8e6d9-67b8-441b-8ab4-08ef8560d2b0","system_id":"levelo_inurba_marseille","lat":43.33514,"lon":5.35585,"is_reserved":false,"is_disabled":true,"rental_uris":{"android":"levelo://app?vid=9cf8e6d9-67b8-441b-8ab4-08ef8560d2b0","ios":"levelo://app?vid=9cf8e6d9-67b8-441b-8ab4-08ef8560d2b0"},"vehicle_type_id":"4","last_reported":1739542147,"current_range_meters":0,"station_id":"","pricing_plan_id":"cebpf4jnsgd1na2vs0mg"},{"bike_id":"0b8828fb-bf18-4d96-8c4f-d797f9591c5c","system_id":"levelo_inurba_marseille","lat":43.29971,"lon":5.4133,"is_reserved":false,"is_disabled":false,"rental_uris":{"android":"levelo://app?vid=0b8828fb-bf18-4d96-8c4f-d797f9591c5c","ios":"levelo://app?vid=0b8828fb-bf18-4d96-8c4f-d797f9591c5c"},"vehicle_type_id":"4","last_reported":1739542147,"current_range_meters":38400,"station_id":"ce4bhp12rcd13ifvqh9g","pricing_plan_id":"cebpf4jnsgd1na2vs0mg"},{"bike_id":"2c48ff90-037d-4332-be30-c6a93d1c5594","system_id":"levelo_inurba_marseille","lat":43.26493,"lon":5.39537,"is_reserved":false,"is_disabled":false,"rental_uris":{"android":"levelo://app?vid=2c48ff90-037d-4332-be30-c6a93d1c5594","ios":"levelo://app?vid=2c48ff90-037d-4332-be30-c6a93d1c5594"},"vehicle_type_id":"4","last_reported":1739542147,"current_range_meters":33600,"station_id":"ce4bhi12rcd13ifvqfq0","pricing_plan_id":"cebpf4jnsgd1na2vs0mg"},{"bike_id":"6279f888-1d4b-4ebb-b3f2-c7248902b00f","system_id":"levelo_inurba_marseille","lat":43.25501,"lon":5.37665,"is_reserved":false,"is_disabled":false,"rental_uris":{"android":"levelo://app?vid=6279f888-1d4b-4ebb-b3f2-c7248902b00f","ios":"levelo://app?vid=6279f888-1d4b-4ebb-b3f2-c7248902b00f"},"vehicle_type_id":"4","last_reported":1739542147,"current_range_meters":17200,"station_id":"ce4bhh12rcd13ifvqff0","pricing_plan_id":"cebpf4jnsgd1na2vs0mg"},{"bike_id":"9b830a51-acd7-456e-8054-0034a62a06ba","system_id":"levelo_inurba_marseille","lat":43.32105,"lon":5.36771,"is_reserved":false,"is_disabled":false,"rental_uris":{"android":"levelo://app?vid=9b830a51-acd7-456e-8054-0034a62a06ba","ios":"levelo://app?vid=9b830a51-acd7-456e-8054-0034a62a06ba"},"vehicle_type_id":"4","last_reported":1739542147,"current_range_meters":30000,"station_id":"ce4bhrh2rcd13ifvqhug","pricing_plan_id":"cebpf4jnsgd1na2vs0mg"},{"bike_id":"3ff01f5b-d29d-4d05-82c6-dc46b26e21a9","system_id":"levelo_inurba_marseille","lat":43.28616,"lon":5.35109,"is_reserved":false,"is_disabled":false,"rental_uris":{"android":"levelo://app?vid=3ff01f5b-d29d-4d05-82c6-dc46b26e21a9","ios":"levelo://app?vid=3ff01f5b-d29d-4d05-82c6-dc46b26e21a9"},"vehicle_type_id":"4","last_reported":1739542147,"current_range_meters":13600,"station_id":"ce4bhch2rcd13ifvqeug","pricing_plan_id":"cebpf4jnsgd1na2vs0mg"},{"bike_id":"6325645e-69a7-4669-ba80-2d681afae85c","system_id":"levelo_inurba_marseille","lat":43.26932,"lon":5.38915,"is_reserved":false,"is_disabled":false,"rental_uris":{"android":"levelo://app?vid=6325645e-69a7-4669-ba80-2d681afae85c","ios":"levelo://app?vid=6325645e-69a7-4669-ba80-2d681afae85c"},"vehicle_type_id":"4","last_reported":1739542147,"current_range_meters":38800,"station_id":"ce4bhhh2rcd13ifvqfl0","pricing_plan_id":"cebpf4jnsgd1na2vs0mg"},{"bike_id":"5331815e-d681-4b27-b5a1-b85b4077dc7b","system_id":"levelo_inurba_marseille","lat":43.34141,"lon":5.40898,"is_reserved":false,"is_disabled":false,"rental_uris":{"android":"levelo://app?vid=5331815e-d681-4b27-b5a1-b85b4077dc7b","ios":"levelo://app?vid=5331815e-d681-4b27-b5a1-b85b4077dc7b"},"vehicle_type_id":"4","last_reported":1739542147,"current_range_meters":36000,"station_id":"ce4bhqh2rcd13ifvqhlg","pricing_plan_id":"cebpf4jnsgd1na2vs0mg"},{"bike_id":"358a9ac1-78c7-4b0a-8604-fecd24fc0e81","system_id":"levelo_inurba_marseille","lat":43.26956,"lon":5.38632,"is_reserved":false,"is_disabled":false,"rental_uris":{"android":"levelo://app?vid=358a9ac1-78c7-4b0a-8604-fecd24fc0e81","ios":"levelo://app?vid=358a9ac1-78c7-4b0a-8604-fecd24fc0e81"},"vehicle_type_id":"4","last_reported":1739542147,"current_range_meters":34000,"station_id":"ce4bhh92rcd13ifvqfh0","pricing_plan_id":"cebpf4jnsgd1na2vs0mg"},{"bike_id":"4b8f2ffd-1ce8-46df-9938-a8309514aa43","system_id":"levelo_inurba_marseille","lat":43.31483,"lon":5.37307,"is_reserved":false,"is_disabled":false,"rental_uris":{"android":"levelo://app?vid=4b8f2ffd-1ce8-46df-9938-a8309514aa43","ios":"levelo://app?vid=4b8f2ffd-1ce8-46df-9938-a8309514aa43"},"vehicle_type_id":"4","last_reported":1739542147,"current_range_meters":24400,"station_id":"ce4bgt12rcd13ifvqcd0","pricing_plan_id":"cebpf4jnsgd1na2vs0mg"},{"bike_id":"b90fe5da-280b-47ae-a567-441ecfe5186d","system_id":"levelo_inurba_marseille","lat":43.27833,"lon":5.39215,"is_reserved":false,"is_disabled":false,"rental_uris":{"android":"levelo://app?vid=b90fe5da-280b-47ae-a567-441ecfe5186d","ios":"levelo://app?vid=b90fe5da-280b-47ae-a567-441ecfe5186d"},"vehicle_type_id":"4","last_reported":1739542147,"current_range_meters":39200,"station_id":"ce4bhjp2rcd13ifvqga0","pricing_plan_id":"cebpf4jnsgd1na2vs0mg"},{"bike_id":"51ab7186-5043-4bed-baca-73708608a302","system_id":"levelo_inurba_marseille","lat":43.29584,"lon":5.37026,"is_reserved":false,"is_disabled":true,"rental_uris":{"android":"levelo://app?vid=51ab7186-5043-4bed-baca-73708608a302","ios":"levelo://app?vid=51ab7186-5043-4bed-baca-73708608a302"},"vehicle_type_id":"4","last_reported":1739542147,"current_range_meters":0,"station_id":"","pricing_plan_id":"cebpf4jnsgd1na2vs0mg"},{"bike_id":"ec90184e-fc78-41d7-ba71-28f8166549c1","system_id":"levelo_inurba_marseille","lat":43.31235,"lon":5.36845,"is_reserved":false,"is_disabled":false,"rental_uris":{"android":"levelo://app?vid=ec90184e-fc78-41d7-ba71-28f8166549c1","ios":"levelo://app?vid=ec90184e-fc78-41d7-ba71-28f8166549c1"},"vehicle_type_id":"4","last_reported":1739542147,"current_range_meters":28400,"station_id":"ce4bgl92rcd13ifvqbq0","pricing_plan_id":"cebpf4jnsgd1na2vs0mg"},{"bike_id":"0d4777d9-85b2-496b-9fed-a9635a2e1680","system_id":"levelo_inurba_marseille","lat":43.31485,"lon":5.37308,"is_reserved":false,"is_disabled":false,"rental_uris":{"android":"levelo://app?vid=0d4777d9-85b2-496b-9fed-a9635a2e1680","ios":"levelo://app?vid=0d4777d9-85b2-496b-9fed-a9635a2e1680"},"vehicle_type_id":"4","last_reported":1739542147,"current_range_meters":33200,"station_id":"ce4bgt12rcd13ifvqcd0","pricing_plan_id":"cebpf4jnsgd1na2vs0mg"},{"bike_id":"d3fc5f7e-9983-4343-a9af-f36df7d45f29","system_id":"levelo_inurba_marseille","lat":43.23157,"lon":5.39986,"is_reserved":false,"is_disabled":false,"rental_uris":{"android":"levelo://app?vid=d3fc5f7e-9983-4343-a9af-f36df7d45f29","ios":"levelo://app?vid=d3fc5f7e-9983-4343-a9af-f36df7d45f29"},"vehicle_type_id":"4","last_reported":1739542147,"current_range_meters":19200,"station_id":"ce4bhn12rcd13ifvqgqg","pricing_plan_id":"cebpf4jnsgd1na2vs0mg"},{"bike_id":"8ccf86da-18a2-43db-a334-ba2902c1d90c","system_id":"levelo_inurba_marseille","lat":43.2743,"lon":5.39424,"is_reserved":false,"is_disabled":false,"rental_uris":{"android":"levelo://app?vid=8ccf86da-18a2-43db-a334-ba2902c1d90c","ios":"levelo://app?vid=8ccf86da-18a2-43db-a334-ba2902c1d90c"},"vehicle_type_id":"4","last_reported":1739542147,"current_range_meters":36400,"station_id":"ce4bhdp2rcd13ifvqf20","pricing_plan_id":"cebpf4jnsgd1na2vs0mg"},{"bike_id":"3726052c-435c-4e9a-97b4-6741247fd797","system_id":"levelo_inurba_marseille","lat":43.28428,"lon":5.34986,"is_reserved":false,"is_disabled":false,"rental_uris":{"android":"levelo://app?vid=3726052c-435c-4e9a-97b4-6741247fd797","ios":"levelo://app?vid=3726052c-435c-4e9a-97b4-6741247fd797"},"vehicle_type_id":"4","last_reported":1739542147,"current_range_meters":32800,"station_id":"ce4bhbh2rcd13ifvqepg","pricing_plan_id":"cebpf4jnsgd1na2vs0mg"},{"bike_id":"a957ceea-f9ee-4522-a714-0b9b1ae52161","system_id":"levelo_inurba_marseille","lat":43.2706,"lon":5.40269,"is_reserved":false,"is_disabled":false,"rental_uris":{"android":"levelo://app?vid=a957ceea-f9ee-4522-a714-0b9b1ae52161","ios":"levelo://app?vid=a957ceea-f9ee-4522-a714-0b9b1ae52161"},"vehicle_type_id":"4","last_reported":1739542147,"current_range_meters":31200,"station_id":"ce4bhk92rcd13ifvqgc0","pricing_plan_id":"cebpf4jnsgd1na2vs0mg"},{"bike_id":"d4250fe0-40a1-4a17-b21a-dd2222060ec1","system_id":"levelo_inurba_marseille","lat":43.240678,"lon":5.37761,"is_reserved":false,"is_disabled":false,"rental_uris":{"android":"levelo://app?vid=d4250fe0-40a1-4a17-b21a-dd2222060ec1","ios":"levelo://app?vid=d4250fe0-40a1-4a17-b21a-dd2222060ec1"},"vehicle_type_id":"4","last_reported":1739542147,"current_range_meters":32800,"station_id":"ce4bhnp2rcd13ifvqgvg","pricing_plan_id":"cebpf4jnsgd1na2vs0mg"},{"bike_id":"6c408a4a-bc0f-4055-9e90-ba9296a6070a","system_id":"levelo_inurba_marseille","lat":43.30146,"lon":5.38071,"is_reserved":false,"is_disabled":false,"rental_uris":{"android":"levelo://app?vid=6c408a4a-bc0f-4055-9e90-ba9296a6070a","ios":"levelo://app?vid=6c408a4a-bc0f-4055-9e90-ba9296a6070a"},"vehicle_type_id":"4","last_reported":1739542147,"current_range_meters":30400,"station_id":"ce4bgjp2rcd13ifvqbh0","pricing_plan_id":"cebpf4jnsgd1na2vs0mg"},{"bike_id":"c40e2cb9-b89c-4dbd-956b-535ef79f1d37","system_id":"levelo_inurba_marseille","lat":43.2482,"lon":5.37448,"is_reserved":false,"is_disabled":false,"rental_uris":{"android":"levelo://app?vid=c40e2cb9-b89c-4dbd-956b-535ef79f1d37","ios":"levelo://app?vid=c40e2cb9-b89c-4dbd-956b-535ef79f1d37"},"vehicle_type_id":"4","last_reported":1739542147,"current_range_meters":27600,"station_id":"ce4bhgh2rcd13ifvqfb0","pricing_plan_id":"cebpf4jnsgd1na2vs0mg"},{"bike_id":"32933ebe-6c29-4cc2-b332-bee4f0c28d4a","system_id":"levelo_inurba_marseille","lat":43.27374,"lon":5.36256,"is_reserved":false,"is_disabled":false,"rental_uris":{"android":"levelo://app?vid=32933ebe-6c29-4cc2-b332-bee4f0c28d4a","ios":"levelo://app?vid=32933ebe-6c29-4cc2-b332-bee4f0c28d4a"},"vehicle_type_id":"4","last_reported":1739542147,"current_range_meters":10000,"station_id":"ce4bhbh2rcd13ifvqeo0","pricing_plan_id":"cebpf4jnsgd1na2vs0mg"},{"bike_id":"24f066ed-96fc-400a-8097-8aa15d926f47","system_id":"levelo_inurba_marseille","lat":43.3301,"lon":5.39043,"is_reserved":false,"is_disabled":false,"rental_uris":{"android":"levelo://app?vid=24f066ed-96fc-400a-8097-8aa15d926f47","ios":"levelo://app?vid=24f066ed-96fc-400a-8097-8aa15d926f47"},"vehicle_type_id":"4","last_reported":1739542147,"current_range_meters":38000,"station_id":"ce4bhr92rcd13ifvqhrg","pricing_plan_id":"cebpf4jnsgd1na2vs0mg"},{"bike_id":"709b678b-bb0b-444a-8fef-a3f5bfff6d35","system_id":"levelo_inurba_marseille","lat":43.30909,"lon":5.36856,"is_reserved":false,"is_disabled":false,"rental_uris":{"android":"levelo://app?vid=709b678b-bb0b-444a-8fef-a3f5bfff6d35","ios":"levelo://app?vid=709b678b-bb0b-444a-8fef-a3f5bfff6d35"},"vehicle_type_id":"4","last_reported":1739542147,"current_range_meters":28000,"station_id":"ce4bgn92rcd13ifvqbvg","pricing_plan_id":"cebpf4jnsgd1na2vs0mg"},{"bike_id":"8ba05499-8c8f-48c3-9a52-17719ce1bd45","system_id":"levelo_inurba_marseille","lat":43.27207,"lon":5.39179,"is_reserved":false,"is_disabled":false,"rental_uris":{"android":"levelo://app?vid=8ba05499-8c8f-48c3-9a52-17719ce1bd45","ios":"levelo://app?vid=8ba05499-8c8f-48c3-9a52-17719ce1bd45"},"vehicle_type_id":"4","last_reported":1739542147,"current_range_meters":3600,"station_id":"ce4bhhp2rcd13ifvqfm0","pricing_plan_id":"cebpf4jnsgd1na2vs0mg"},{"bike_id":"2c9c57ef-929c-405c-9304-3c7204914b97","system_id":"levelo_inurba_marseille","lat":43.23969,"lon":5.36645,"is_reserved":false,"is_disabled":false,"rental_uris":{"android":"levelo://app?vid=2c9c57ef-929c-405c-9304-3c7204914b97","ios":"levelo://app?vid=2c9c57ef-929c-405c-9304-3c7204914b97"},"vehicle_type_id":"4","last_reported":1739542147,"current_range_meters":20000,"station_id":"ce4bhi12rcd13ifvqfp0","pricing_plan_id":"cebpf4jnsgd1na2vs0mg"},{"bike_id":"0bd1a399-2480-469c-91cd-e64288e63568","system_id":"levelo_inurba_marseille","lat":43.30344,"lon":5.41893,"is_reserved":false,"is_disabled":false,"rental_uris":{"android":"levelo://app?vid=0bd1a399-2480-469c-91cd-e64288e63568","ios":"levelo://app?vid=0bd1a399-2480-469c-91cd-e64288e63568"},"vehicle_type_id":"4","last_reported":1739542147,"current_range_meters":39200,"station_id":"ce4bhop2rcd13ifvqh7g","pricing_plan_id":"cebpf4jnsgd1na2vs0mg"},{"bike_id":"1e059a21-f6ec-4591-9ae0-dced5b8bf4f6","system_id":"levelo_inurba_marseille","lat":43.30088,"lon":5.3908,"is_reserved":false,"is_disabled":false,"rental_uris":{"android":"levelo://app?vid=1e059a21-f6ec-4591-9ae0-dced5b8bf4f6","ios":"levelo://app?vid=1e059a21-f6ec-4591-9ae0-dced5b8bf4f6"},"vehicle_type_id":"4","last_reported":1739542147,"current_range_meters":28400,"station_id":"ce4bh192rcd13ifvqdb0","pricing_plan_id":"cebpf4jnsgd1na2vs0mg"},{"bike_id":"3dd700c1-cac4-43be-a0d8-eb69d7487050","system_id":"levelo_inurba_marseille","lat":43.30787,"lon":5.37645,"is_reserved":false,"is_disabled":false,"rental_uris":{"android":"levelo://app?vid=3dd700c1-cac4-43be-a0d8-eb69d7487050","ios":"levelo://app?vid=3dd700c1-cac4-43be-a0d8-eb69d7487050"},"vehicle_type_id":"4","last_reported":1739542147,"current_range_meters":39200,"station_id":"ce4bgv92rcd13ifvqcq0","pricing_plan_id":"cebpf4jnsgd1na2vs0mg"},{"bike_id":"923fd563-d42a-4425-b6c1-9fd447476fef","system_id":"levelo_inurba_marseille","lat":43.24988,"lon":5.38933,"is_reserved":false,"is_disabled":false,"rental_uris":{"android":"levelo://app?vid=923fd563-d42a-4425-b6c1-9fd447476fef","ios":"levelo://app?vid=923fd563-d42a-4425-b6c1-9fd447476fef"},"vehicle_type_id":"4","last_reported":1739542147,"current_range_meters":28400,"station_id":"ce4bhgp2rcd13ifvqfd0","pricing_plan_id":"cebpf4jnsgd1na2vs0mg"},{"bike_id":"69901931-b51c-453f-987f-21137ab8ac55","system_id":"levelo_inurba_marseille","lat":43.26953,"lon":5.40268,"is_reserved":false,"is_disabled":false,"rental_uris":{"android":"levelo://app?vid=69901931-b51c-453f-987f-21137ab8ac55","ios":"levelo://app?vid=69901931-b51c-453f-987f-21137ab8ac55"},"vehicle_type_id":"4","last_reported":1739542147,"current_range_meters":28400,"station_id":"cjm6bp8fraef2m0cb0m0","pricing_plan_id":"cebpf4jnsgd1na2vs0mg"},{"bike_id":"fdf3efa5-645b-4b7d-b7b5-1ee949adffc2","system_id":"levelo_inurba_marseille","lat":43.26949,"lon":5.38625,"is_reserved":false,"is_disabled":false,"rental_uris":{"android":"levelo://app?vid=fdf3efa5-645b-4b7d-b7b5-1ee949adffc2","ios":"levelo://app?vid=fdf3efa5-645b-4b7d-b7b5-1ee949adffc2"},"vehicle_type_id":"4","last_reported":1739542147,"current_range_meters":38800,"station_id":"ce4bhh92rcd13ifvqfh0","pricing_plan_id":"cebpf4jnsgd1na2vs0mg"},{"bike_id":"4e38e6f3-e043-461b-aa1f-d9795ea6cb7d","system_id":"levelo_inurba_marseille","lat":43.28145,"lon":5.42629,"is_reserved":false,"is_disabled":false,"rental_uris":{"android":"levelo://app?vid=4e38e6f3-e043-461b-aa1f-d9795ea6cb7d","ios":"levelo://app?vid=4e38e6f3-e043-461b-aa1f-d9795ea6cb7d"},"vehicle_type_id":"4","last_reported":1739542147,"current_range_meters":21600,"station_id":"ce4bhnh2rcd13ifvqgug","pricing_plan_id":"cebpf4jnsgd1na2vs0mg"},{"bike_id":"cb2c880d-6099-4e99-b126-5db2ed775e84","system_id":"levelo_inurba_marseille","lat":43.25014,"lon":5.38916,"is_reserved":false,"is_disabled":false,"rental_uris":{"android":"levelo://app?vid=cb2c880d-6099-4e99-b126-5db2ed775e84","ios":"levelo://app?vid=cb2c880d-6099-4e99-b126-5db2ed775e84"},"vehicle_type_id":"4","last_reported":1739542147,"current_range_meters":38800,"station_id":"ce4bhgp2rcd13ifvqfd0","pricing_plan_id":"cebpf4jnsgd1na2vs0mg"},{"bike_id":"49fa15bb-24fd-418e-972a-73184b9029cb","system_id":"levelo_inurba_marseille","lat":43.29898,"lon":5.43661,"is_reserved":false,"is_disabled":false,"rental_uris":{"android":"levelo://app?vid=49fa15bb-24fd-418e-972a-73184b9029cb","ios":"levelo://app?vid=49fa15bb-24fd-418e-972a-73184b9029cb"},"vehicle_type_id":"4","last_reported":1739542147,"current_range_meters":6800,"station_id":"ce4bhpp2rcd13ifvqhfg","pricing_plan_id":"cebpf4jnsgd1na2vs0mg"},{"bike_id":"7c47869e-d93b-4ddf-b1ff-9ae2d5624131","system_id":"levelo_inurba_marseille","lat":43.2884,"lon":5.43321,"is_reserved":false,"is_disabled":false,"rental_uris":{"android":"levelo://app?vid=7c47869e-d93b-4ddf-b1ff-9ae2d5624131","ios":"levelo://app?vid=7c47869e-d93b-4ddf-b1ff-9ae2d5624131"},"vehicle_type_id":"4","last_reported":1739542147,"current_range_meters":31200,"station_id":"","pricing_plan_id":"cebpf4jnsgd1na2vs0mg"},{"bike_id":"aa549b11-6f09-4b58-a41e-3b0c3ae19515","system_id":"levelo_inurba_marseille","lat":43.30182,"lon":5.36615,"is_reserved":false,"is_disabled":false,"rental_uris":{"android":"levelo://app?vid=aa549b11-6f09-4b58-a41e-3b0c3ae19515","ios":"levelo://app?vid=aa549b11-6f09-4b58-a41e-3b0c3ae19515"},"vehicle_type_id":"4","last_reported":1739542147,"current_range_meters":22400,"station_id":"ce4bgrh2rcd13ifvqc8g","pricing_plan_id":"cebpf4jnsgd1na2vs0mg"},{"bike_id":"996d4293-2963-4b0b-9af2-45865785f0b8","system_id":"levelo_inurba_marseille","lat":43.2842,"lon":5.34977,"is_reserved":false,"is_disabled":false,"rental_uris":{"android":"levelo://app?vid=996d4293-2963-4b0b-9af2-45865785f0b8","ios":"levelo://app?vid=996d4293-2963-4b0b-9af2-45865785f0b8"},"vehicle_type_id":"4","last_reported":1739542147,"current_range_meters":27600,"station_id":"ce4bhbh2rcd13ifvqepg","pricing_plan_id":"cebpf4jnsgd1na2vs0mg"},{"bike_id":"0c9f491e-2c2e-4a66-985f-4b2dd1fa46b1","system_id":"levelo_inurba_marseille","lat":43.30275,"lon":5.37723,"is_reserved":false,"is_disabled":false,"rental_uris":{"android":"levelo://app?vid=0c9f491e-2c2e-4a66-985f-4b2dd1fa46b1","ios":"levelo://app?vid=0c9f491e-2c2e-4a66-985f-4b2dd1fa46b1"},"vehicle_type_id":"4","last_reported":1739542147,"current_range_meters":38800,"station_id":"ce4bguh2rcd13ifvqcj0","pricing_plan_id":"cebpf4jnsgd1na2vs0mg"},{"bike_id":"f7722aa8-7dbb-40b4-8785-faf5a2e7b631","system_id":"levelo_inurba_marseille","lat":43.2499,"lon":5.38892,"is_reserved":false,"is_disabled":false,"rental_uris":{"android":"levelo://app?vid=f7722aa8-7dbb-40b4-8785-faf5a2e7b631","ios":"levelo://app?vid=f7722aa8-7dbb-40b4-8785-faf5a2e7b631"},"vehicle_type_id":"4","last_reported":1739542147,"current_range_meters":38800,"station_id":"ce4bhgp2rcd13ifvqfd0","pricing_plan_id":"cebpf4jnsgd1na2vs0mg"},{"bike_id":"577cb53f-ab8a-4bfa-8061-840317475338","system_id":"levelo_inurba_marseille","lat":43.24387,"lon":5.37059,"is_reserved":false,"is_disabled":false,"rental_uris":{"android":"levelo://app?vid=577cb53f-ab8a-4bfa-8061-840317475338","ios":"levelo://app?vid=577cb53f-ab8a-4bfa-8061-840317475338"},"vehicle_type_id":"4","last_reported":1739542147,"current_range_meters":38800,"station_id":"ce4bhhh2rcd13ifvqfk0","pricing_plan_id":"cebpf4jnsgd1na2vs0mg"},{"bike_id":"ec496d4a-c31a-4f2c-947b-b17f6dc6b31a","system_id":"levelo_inurba_marseille","lat":43.25023,"lon":5.38915,"is_reserved":false,"is_disabled":false,"rental_uris":{"android":"levelo://app?vid=ec496d4a-c31a-4f2c-947b-b17f6dc6b31a","ios":"levelo://app?vid=ec496d4a-c31a-4f2c-947b-b17f6dc6b31a"},"vehicle_type_id":"4","last_reported":1739542147,"current_range_meters":38800,"station_id":"ce4bhgp2rcd13ifvqfd0","pricing_plan_id":"cebpf4jnsgd1na2vs0mg"},{"bike_id":"6fca0150-25d1-4efa-845f-3c63f11d5320","system_id":"levelo_inurba_marseille","lat":43.30547,"lon":5.36711,"is_reserved":false,"is_disabled":false,"rental_uris":{"android":"levelo://app?vid=6fca0150-25d1-4efa-845f-3c63f11d5320","ios":"levelo://app?vid=6fca0150-25d1-4efa-845f-3c63f11d5320"},"vehicle_type_id":"4","last_reported":1739542147,"current_range_meters":27200,"station_id":"ce4bgrp2rcd13ifvqc9g","pricing_plan_id":"cebpf4jnsgd1na2vs0mg"},{"bike_id":"9f08b9dc-26be-418e-ae0a-fc8f2d7d84a9","system_id":"levelo_inurba_marseille","lat":43.27829,"lon":5.39196,"is_reserved":false,"is_disabled":false,"rental_uris":{"android":"levelo://app?vid=9f08b9dc-26be-418e-ae0a-fc8f2d7d84a9","ios":"levelo://app?vid=9f08b9dc-26be-418e-ae0a-fc8f2d7d84a9"},"vehicle_type_id":"4","last_reported":1739542147,"current_range_meters":18800,"station_id":"ce4bhjp2rcd13ifvqga0","pricing_plan_id":"cebpf4jnsgd1na2vs0mg"},{"bike_id":"b5a86a9c-2d02-424f-a40c-4eaa2bc17d20","system_id":"levelo_inurba_marseille","lat":43.32059,"lon":5.41546,"is_reserved":false,"is_disabled":false,"rental_uris":{"android":"levelo://app?vid=b5a86a9c-2d02-424f-a40c-4eaa2bc17d20","ios":"levelo://app?vid=b5a86a9c-2d02-424f-a40c-4eaa2bc17d20"},"vehicle_type_id":"4","last_reported":1739542147,"current_range_meters":30800,"station_id":"ce4bhq92rcd13ifvqhkg","pricing_plan_id":"cebpf4jnsgd1na2vs0mg"},{"bike_id":"23849fcd-4bc4-44f6-8337-e9a9a16fe0e7","system_id":"levelo_inurba_marseille","lat":43.297449,"lon":5.479617,"is_reserved":false,"is_disabled":false,"rental_uris":{"android":"levelo://app?vid=23849fcd-4bc4-44f6-8337-e9a9a16fe0e7","ios":"levelo://app?vid=23849fcd-4bc4-44f6-8337-e9a9a16fe0e7"},"vehicle_type_id":"4","last_reported":1739542147,"current_range_meters":3200,"station_id":"","pricing_plan_id":"cebpf4jnsgd1na2vs0mg"},{"bike_id":"95ae2a22-aed7-4d28-b9ea-dca74e26051e","system_id":"levelo_inurba_marseille","lat":43.30914,"lon":5.36854,"is_reserved":false,"is_disabled":false,"rental_uris":{"android":"levelo://app?vid=95ae2a22-aed7-4d28-b9ea-dca74e26051e","ios":"levelo://app?vid=95ae2a22-aed7-4d28-b9ea-dca74e26051e"},"vehicle_type_id":"4","last_reported":1739542147,"current_range_meters":39200,"station_id":"ce4bgn92rcd13ifvqbvg","pricing_plan_id":"cebpf4jnsgd1na2vs0mg"},{"bike_id":"3c370a38-e7da-432f-a0b7-46f48b36f081","system_id":"levelo_inurba_marseille","lat":43.30275,"lon":5.37718,"is_reserved":false,"is_disabled":false,"rental_uris":{"android":"levelo://app?vid=3c370a38-e7da-432f-a0b7-46f48b36f081","ios":"levelo://app?vid=3c370a38-e7da-432f-a0b7-46f48b36f081"},"vehicle_type_id":"4","last_reported":1739542147,"current_range_meters":24400,"station_id":"ce4bguh2rcd13ifvqcj0","pricing_plan_id":"cebpf4jnsgd1na2vs0mg"},{"bike_id":"2218348f-60c6-4fb9-be85-ca1d59d09645","system_id":"levelo_inurba_marseille","lat":43.27576,"lon":5.3842,"is_reserved":false,"is_disabled":false,"rental_uris":{"android":"levelo://app?vid=2218348f-60c6-4fb9-be85-ca1d59d09645","ios":"levelo://app?vid=2218348f-60c6-4fb9-be85-ca1d59d09645"},"vehicle_type_id":"4","last_reported":1739542147,"current_range_meters":28000,"station_id":"ce4bhh92rcd13ifvqfi0","pricing_plan_id":"cebpf4jnsgd1na2vs0mg"},{"bike_id":"8efb54af-be93-4407-88d4-1b826e6fa566","system_id":"levelo_inurba_marseille","lat":43.268023,"lon":5.402687,"is_reserved":false,"is_disabled":false,"rental_uris":{"android":"levelo://app?vid=8efb54af-be93-4407-88d4-1b826e6fa566","ios":"levelo://app?vid=8efb54af-be93-4407-88d4-1b826e6fa566"},"vehicle_type_id":"4","last_reported":1739542147,"current_range_meters":6000,"station_id":"ce501612rcd8frsf0b60","pricing_plan_id":"cebpf4jnsgd1na2vs0mg"},{"bike_id":"d1b7e7c3-d876-4585-aa93-a701646b8c19","system_id":"levelo_inurba_marseille","lat":43.23183,"lon":5.39987,"is_reserved":false,"is_disabled":false,"rental_uris":{"android":"levelo://app?vid=d1b7e7c3-d876-4585-aa93-a701646b8c19","ios":"levelo://app?vid=d1b7e7c3-d876-4585-aa93-a701646b8c19"},"vehicle_type_id":"4","last_reported":1739542147,"current_range_meters":35200,"station_id":"ce4bhn12rcd13ifvqgqg","pricing_plan_id":"cebpf4jnsgd1na2vs0mg"},{"bike_id":"48730ae7-a3c3-4cc5-8ea2-a2532b6728c5","system_id":"levelo_inurba_marseille","lat":43.2652,"lon":5.39517,"is_reserved":false,"is_disabled":false,"rental_uris":{"android":"levelo://app?vid=48730ae7-a3c3-4cc5-8ea2-a2532b6728c5","ios":"levelo://app?vid=48730ae7-a3c3-4cc5-8ea2-a2532b6728c5"},"vehicle_type_id":"4","last_reported":1739542147,"current_range_meters":30800,"station_id":"ce4bhi12rcd13ifvqfq0","pricing_plan_id":"cebpf4jnsgd1na2vs0mg"},{"bike_id":"f4819c25-3e00-41ce-8105-106f04d74119","system_id":"levelo_inurba_marseille","lat":43.25586,"lon":5.38215,"is_reserved":false,"is_disabled":true,"rental_uris":{"android":"levelo://app?vid=f4819c25-3e00-41ce-8105-106f04d74119","ios":"levelo://app?vid=f4819c25-3e00-41ce-8105-106f04d74119"},"vehicle_type_id":"4","last_reported":1739542147,"current_range_meters":0,"station_id":"ce4bhih2rcd13ifvqfs0","pricing_plan_id":"cebpf4jnsgd1na2vs0mg"},{"bike_id":"b36190cb-3b5b-40d1-90da-3ebb381fd23f","system_id":"levelo_inurba_marseille","lat":43.25581,"lon":5.3823,"is_reserved":false,"is_disabled":false,"rental_uris":{"android":"levelo://app?vid=b36190cb-3b5b-40d1-90da-3ebb381fd23f","ios":"levelo://app?vid=b36190cb-3b5b-40d1-90da-3ebb381fd23f"},"vehicle_type_id":"4","last_reported":1739542147,"current_range_meters":32000,"station_id":"ce4bhih2rcd13ifvqfs0","pricing_plan_id":"cebpf4jnsgd1na2vs0mg"},{"bike_id":"9e14a459-ea3f-4c8d-b681-ddd390ee11dc","system_id":"levelo_inurba_marseille","lat":43.30152,"lon":5.38059,"is_reserved":false,"is_disabled":false,"rental_uris":{"android":"levelo://app?vid=9e14a459-ea3f-4c8d-b681-ddd390ee11dc","ios":"levelo://app?vid=9e14a459-ea3f-4c8d-b681-ddd390ee11dc"},"vehicle_type_id":"4","last_reported":1739542147,"current_range_meters":22400,"station_id":"ce4bgjp2rcd13ifvqbh0","pricing_plan_id":"cebpf4jnsgd1na2vs0mg"},{"bike_id":"4ad51a02-f2dd-46e4-a406-ba69455ffee4","system_id":"levelo_inurba_marseille","lat":43.28039,"lon":5.40853,"is_reserved":false,"is_disabled":false,"rental_uris":{"android":"levelo://app?vid=4ad51a02-f2dd-46e4-a406-ba69455ffee4","ios":"levelo://app?vid=4ad51a02-f2dd-46e4-a406-ba69455ffee4"},"vehicle_type_id":"4","last_reported":1739542147,"current_range_meters":9600,"station_id":"","pricing_plan_id":"cebpf4jnsgd1na2vs0mg"},{"bike_id":"f15bad65-c5b9-42b7-b7c5-c51a0090707c","system_id":"levelo_inurba_marseille","lat":43.27912,"lon":5.39579,"is_reserved":false,"is_disabled":false,"rental_uris":{"android":"levelo://app?vid=f15bad65-c5b9-42b7-b7c5-c51a0090707c","ios":"levelo://app?vid=f15bad65-c5b9-42b7-b7c5-c51a0090707c"},"vehicle_type_id":"4","last_reported":1739542147,"current_range_meters":8800,"station_id":"ce4bhf92rcd13ifvqf40","pricing_plan_id":"cebpf4jnsgd1na2vs0mg"},{"bike_id":"4f87b614-7103-40e6-a580-799d76f5f3e0","system_id":"levelo_inurba_marseille","lat":43.23157,"lon":5.43716,"is_reserved":false,"is_disabled":false,"rental_uris":{"android":"levelo://app?vid=4f87b614-7103-40e6-a580-799d76f5f3e0","ios":"levelo://app?vid=4f87b614-7103-40e6-a580-799d76f5f3e0"},"vehicle_type_id":"4","last_reported":1739542147,"current_range_meters":38400,"station_id":"ce4bhmp2rcd13ifvqgog","pricing_plan_id":"cebpf4jnsgd1na2vs0mg"},{"bike_id":"00a4e08f-061f-446d-9506-371f75a97092","system_id":"levelo_inurba_marseille","lat":43.27994,"lon":5.40024,"is_reserved":false,"is_disabled":false,"rental_uris":{"android":"levelo://app?vid=00a4e08f-061f-446d-9506-371f75a97092","ios":"levelo://app?vid=00a4e08f-061f-446d-9506-371f75a97092"},"vehicle_type_id":"4","last_reported":1739542147,"current_range_meters":21600,"station_id":"ce4bho92rcd13ifvqh4g","pricing_plan_id":"cebpf4jnsgd1na2vs0mg"},{"bike_id":"03eba1d0-92c1-4e6e-a4d0-7c546f2439c0","system_id":"levelo_inurba_marseille","lat":43.337444,"lon":5.374475,"is_reserved":false,"is_disabled":true,"rental_uris":{"android":"levelo://app?vid=03eba1d0-92c1-4e6e-a4d0-7c546f2439c0","ios":"levelo://app?vid=03eba1d0-92c1-4e6e-a4d0-7c546f2439c0"},"vehicle_type_id":"4","last_reported":1739542147,"current_range_meters":0,"station_id":"","pricing_plan_id":"cebpf4jnsgd1na2vs0mg"},{"bike_id":"ace34ffd-44df-41f7-90a6-92039b1ec78a","system_id":"levelo_inurba_marseille","lat":43.27676,"lon":5.3889,"is_reserved":false,"is_disabled":false,"rental_uris":{"android":"levelo://app?vid=ace34ffd-44df-41f7-90a6-92039b1ec78a","ios":"levelo://app?vid=ace34ffd-44df-41f7-90a6-92039b1ec78a"},"vehicle_type_id":"4","last_reported":1739542147,"current_range_meters":38400,"station_id":"ce4bhi12rcd13ifvqfo0","pricing_plan_id":"cebpf4jnsgd1na2vs0mg"},{"bike_id":"480e83a5-f909-4a0f-a0d2-d5d67a68498c","system_id":"levelo_inurba_marseille","lat":43.31067,"lon":5.38367,"is_reserved":false,"is_disabled":false,"rental_uris":{"android":"levelo://app?vid=480e83a5-f909-4a0f-a0d2-d5d67a68498c","ios":"levelo://app?vid=480e83a5-f909-4a0f-a0d2-d5d67a68498c"},"vehicle_type_id":"4","last_reported":1739542147,"current_range_meters":38400,"station_id":"ce4bgv92rcd13ifvqcr0","pricing_plan_id":"cebpf4jnsgd1na2vs0mg"},{"bike_id":"9192f7da-07ce-4941-97f7-270efa9071fe","system_id":"levelo_inurba_marseille","lat":43.25578,"lon":5.38219,"is_reserved":false,"is_disabled":false,"rental_uris":{"android":"levelo://app?vid=9192f7da-07ce-4941-97f7-270efa9071fe","ios":"levelo://app?vid=9192f7da-07ce-4941-97f7-270efa9071fe"},"vehicle_type_id":"4","last_reported":1739542147,"current_range_meters":14000,"station_id":"ce4bhih2rcd13ifvqfs0","pricing_plan_id":"cebpf4jnsgd1na2vs0mg"},{"bike_id":"5016e875-414a-41bd-8f00-6a5845e39ba6","system_id":"levelo_inurba_marseille","lat":43.30799,"lon":5.43514,"is_reserved":false,"is_disabled":false,"rental_uris":{"android":"levelo://app?vid=5016e875-414a-41bd-8f00-6a5845e39ba6","ios":"levelo://app?vid=5016e875-414a-41bd-8f00-6a5845e39ba6"},"vehicle_type_id":"4","last_reported":1739542147,"current_range_meters":34000,"station_id":"ce4bhph2rcd13ifvqheg","pricing_plan_id":"cebpf4jnsgd1na2vs0mg"},{"bike_id":"36cad5a5-adac-454b-91e7-59a23e03214c","system_id":"levelo_inurba_marseille","lat":43.26927,"lon":5.38923,"is_reserved":false,"is_disabled":false,"rental_uris":{"android":"levelo://app?vid=36cad5a5-adac-454b-91e7-59a23e03214c","ios":"levelo://app?vid=36cad5a5-adac-454b-91e7-59a23e03214c"},"vehicle_type_id":"4","last_reported":1739542147,"current_range_meters":30400,"station_id":"ce4bhhh2rcd13ifvqfl0","pricing_plan_id":"cebpf4jnsgd1na2vs0mg"},{"bike_id":"a72ca880-1a74-46f3-bdfc-201d4a760c31","system_id":"levelo_inurba_marseille","lat":43.29196,"lon":5.35808,"is_reserved":false,"is_disabled":false,"rental_uris":{"android":"levelo://app?vid=a72ca880-1a74-46f3-bdfc-201d4a760c31","ios":"levelo://app?vid=a72ca880-1a74-46f3-bdfc-201d4a760c31"},"vehicle_type_id":"4","last_reported":1739542147,"current_range_meters":28000,"station_id":"ce4bhb12rcd13ifvqel0","pricing_plan_id":"cebpf4jnsgd1na2vs0mg"},{"bike_id":"db4f80bb-9106-4b57-9781-23c16951baf1","system_id":"levelo_inurba_marseille","lat":43.31081,"lon":5.38357,"is_reserved":false,"is_disabled":false,"rental_uris":{"android":"levelo://app?vid=db4f80bb-9106-4b57-9781-23c16951baf1","ios":"levelo://app?vid=db4f80bb-9106-4b57-9781-23c16951baf1"},"vehicle_type_id":"4","last_reported":1739542147,"current_range_meters":38800,"station_id":"ce4bgv92rcd13ifvqcr0","pricing_plan_id":"cebpf4jnsgd1na2vs0mg"},{"bike_id":"1df839a8-bbf3-48a5-aa8b-c302eb7b048e","system_id":"levelo_inurba_marseille","lat":43.26496,"lon":5.3954,"is_reserved":false,"is_disabled":false,"rental_uris":{"android":"levelo://app?vid=1df839a8-bbf3-48a5-aa8b-c302eb7b048e","ios":"levelo://app?vid=1df839a8-bbf3-48a5-aa8b-c302eb7b048e"},"vehicle_type_id":"4","last_reported":1739542147,"current_range_meters":32000,"station_id":"ce4bhi12rcd13ifvqfq0","pricing_plan_id":"cebpf4jnsgd1na2vs0mg"},{"bike_id":"ae73faa4-9a8d-4d3e-93a0-8990949a054b","system_id":"levelo_inurba_marseille","lat":43.30151,"lon":5.38085,"is_reserved":false,"is_disabled":false,"rental_uris":{"android":"levelo://app?vid=ae73faa4-9a8d-4d3e-93a0-8990949a054b","ios":"levelo://app?vid=ae73faa4-9a8d-4d3e-93a0-8990949a054b"},"vehicle_type_id":"4","last_reported":1739542147,"current_range_meters":27200,"station_id":"ce4bgjp2rcd13ifvqbh0","pricing_plan_id":"cebpf4jnsgd1na2vs0mg"},{"bike_id":"bd1fbd17-5ecd-4c2a-9290-d1ffd1a70214","system_id":"levelo_inurba_marseille","lat":43.2955,"lon":5.42281,"is_reserved":false,"is_disabled":false,"rental_uris":{"android":"levelo://app?vid=bd1fbd17-5ecd-4c2a-9290-d1ffd1a70214","ios":"levelo://app?vid=bd1fbd17-5ecd-4c2a-9290-d1ffd1a70214"},"vehicle_type_id":"4","last_reported":1739542147,"current_range_meters":36800,"station_id":"ce4bhph2rcd13ifvqhdg","pricing_plan_id":"cebpf4jnsgd1na2vs0mg"},{"bike_id":"492e558b-0ce5-4984-b6b1-1d33f225a96b","system_id":"levelo_inurba_marseille","lat":43.24171,"lon":5.36397,"is_reserved":false,"is_disabled":false,"rental_uris":{"android":"levelo://app?vid=492e558b-0ce5-4984-b6b1-1d33f225a96b","ios":"levelo://app?vid=492e558b-0ce5-4984-b6b1-1d33f225a96b"},"vehicle_type_id":"4","last_reported":1739542147,"current_range_meters":37600,"station_id":"cpo36qri1sfpv3e86is0","pricing_plan_id":"cebpf4jnsgd1na2vs0mg"},{"bike_id":"8e7ffc47-222f-48a5-8360-69fa1d6df853","system_id":"levelo_inurba_marseille","lat":43.27052,"lon":5.40277,"is_reserved":false,"is_disabled":false,"rental_uris":{"android":"levelo://app?vid=8e7ffc47-222f-48a5-8360-69fa1d6df853","ios":"levelo://app?vid=8e7ffc47-222f-48a5-8360-69fa1d6df853"},"vehicle_type_id":"4","last_reported":1739542147,"current_range_meters":5600,"station_id":"ce4bhk92rcd13ifvqgc0","pricing_plan_id":"cebpf4jnsgd1na2vs0mg"},{"bike_id":"c10a0aa1-bc95-4ecf-88ff-ed8fd42ba1d8","system_id":"levelo_inurba_marseille","lat":43.29005,"lon":5.35605,"is_reserved":false,"is_disabled":false,"rental_uris":{"android":"levelo://app?vid=c10a0aa1-bc95-4ecf-88ff-ed8fd42ba1d8","ios":"levelo://app?vid=c10a0aa1-bc95-4ecf-88ff-ed8fd42ba1d8"},"vehicle_type_id":"4","last_reported":1739542147,"current_range_meters":36400,"station_id":"ce4bhb92rcd13ifvqen0","pricing_plan_id":"cebpf4jnsgd1na2vs0mg"},{"bike_id":"53e65d51-dfc7-47c2-8757-53654bf6fbf2","system_id":"levelo_inurba_marseille","lat":43.29579,"lon":5.37506,"is_reserved":false,"is_disabled":false,"rental_uris":{"android":"levelo://app?vid=53e65d51-dfc7-47c2-8757-53654bf6fbf2","ios":"levelo://app?vid=53e65d51-dfc7-47c2-8757-53654bf6fbf2"},"vehicle_type_id":"4","last_reported":1739542147,"current_range_meters":34000,"station_id":"ce4bgh92rcd13ifvqb50","pricing_plan_id":"cebpf4jnsgd1na2vs0mg"},{"bike_id":"d8cc1a09-2b80-4a16-9d1b-7e41cf2a47c6","system_id":"levelo_inurba_marseille","lat":43.293,"lon":5.37461,"is_reserved":false,"is_disabled":false,"rental_uris":{"android":"levelo://app?vid=d8cc1a09-2b80-4a16-9d1b-7e41cf2a47c6","ios":"levelo://app?vid=d8cc1a09-2b80-4a16-9d1b-7e41cf2a47c6"},"vehicle_type_id":"4","last_reported":1739542147,"current_range_meters":38400,"station_id":"ce4bgi12rcd13ifvqb70","pricing_plan_id":"cebpf4jnsgd1na2vs0mg"},{"bike_id":"31f324e3-b7a6-40e3-bf4e-add03a1b2265","system_id":"levelo_inurba_marseille","lat":43.30641,"lon":5.401,"is_reserved":false,"is_disabled":false,"rental_uris":{"android":"levelo://app?vid=31f324e3-b7a6-40e3-bf4e-add03a1b2265","ios":"levelo://app?vid=31f324e3-b7a6-40e3-bf4e-add03a1b2265"},"vehicle_type_id":"4","last_reported":1739542147,"current_range_meters":6400,"station_id":"ce4bh112rcd13ifvqda0","pricing_plan_id":"cebpf4jnsgd1na2vs0mg"},{"bike_id":"4a952340-3ff3-422a-8e56-52faffd8c272","system_id":"levelo_inurba_marseille","lat":43.337444,"lon":5.374475,"is_reserved":false,"is_disabled":false,"rental_uris":{"android":"levelo://app?vid=4a952340-3ff3-422a-8e56-52faffd8c272","ios":"levelo://app?vid=4a952340-3ff3-422a-8e56-52faffd8c272"},"vehicle_type_id":"4","last_reported":1739542147,"current_range_meters":38800,"station_id":"","pricing_plan_id":"cebpf4jnsgd1na2vs0mg"},{"bike_id":"ff489825-db76-49d3-aa98-c1c0aaa6bdad","system_id":"levelo_inurba_marseille","lat":43.29296,"lon":5.36643,"is_reserved":false,"is_disabled":false,"rental_uris":{"android":"levelo://app?vid=ff489825-db76-49d3-aa98-c1c0aaa6bdad","ios":"levelo://app?vid=ff489825-db76-49d3-aa98-c1c0aaa6bdad"},"vehicle_type_id":"4","last_reported":1739542147,"current_range_meters":6800,"station_id":"","pricing_plan_id":"cebpf4jnsgd1na2vs0mg"},{"bike_id":"ed6aef89-a0cb-45ea-b8cf-3a8ce9b6e164","system_id":"levelo_inurba_marseille","lat":43.27993,"lon":5.40019,"is_reserved":false,"is_disabled":false,"rental_uris":{"android":"levelo://app?vid=ed6aef89-a0cb-45ea-b8cf-3a8ce9b6e164","ios":"levelo://app?vid=ed6aef89-a0cb-45ea-b8cf-3a8ce9b6e164"},"vehicle_type_id":"4","last_reported":1739542147,"current_range_meters":38800,"station_id":"ce4bho92rcd13ifvqh4g","pricing_plan_id":"cebpf4jnsgd1na2vs0mg"},{"bike_id":"e1f38b7a-3526-455e-8573-51972ec74665","system_id":"levelo_inurba_marseille","lat":43.27616,"lon":5.36105,"is_reserved":false,"is_disabled":false,"rental_uris":{"android":"levelo://app?vid=e1f38b7a-3526-455e-8573-51972ec74665","ios":"levelo://app?vid=e1f38b7a-3526-455e-8573-51972ec74665"},"vehicle_type_id":"4","last_reported":1739542147,"current_range_meters":38800,"station_id":"ce4bgj92rcd13ifvqbe0","pricing_plan_id":"cebpf4jnsgd1na2vs0mg"},{"bike_id":"a4727277-3ae4-421a-a53f-26067348c27b","system_id":"levelo_inurba_marseille","lat":43.30135,"lon":5.37411,"is_reserved":false,"is_disabled":false,"rental_uris":{"android":"levelo://app?vid=a4727277-3ae4-421a-a53f-26067348c27b","ios":"levelo://app?vid=a4727277-3ae4-421a-a53f-26067348c27b"},"vehicle_type_id":"4","last_reported":1739542147,"current_range_meters":23200,"station_id":"ce4bgs92rcd13ifvqcc0","pricing_plan_id":"cebpf4jnsgd1na2vs0mg"},{"bike_id":"bb45e6ab-956b-45d2-9cff-3b77ddfcb704","system_id":"levelo_inurba_marseille","lat":43.28278,"lon":5.35071,"is_reserved":false,"is_disabled":false,"rental_uris":{"android":"levelo://app?vid=bb45e6ab-956b-45d2-9cff-3b77ddfcb704","ios":"levelo://app?vid=bb45e6ab-956b-45d2-9cff-3b77ddfcb704"},"vehicle_type_id":"4","last_reported":1739542147,"current_range_meters":33600,"station_id":"ce4bhbp2rcd13ifvqerg","pricing_plan_id":"cebpf4jnsgd1na2vs0mg"},{"bike_id":"1f20f252-6887-45f2-9881-8e93e6f221d0","system_id":"levelo_inurba_marseille","lat":43.26201,"lon":5.37907,"is_reserved":false,"is_disabled":false,"rental_uris":{"android":"levelo://app?vid=1f20f252-6887-45f2-9881-8e93e6f221d0","ios":"levelo://app?vid=1f20f252-6887-45f2-9881-8e93e6f221d0"},"vehicle_type_id":"4","last_reported":1739542147,"current_range_meters":38800,"station_id":"ce4bhjp2rcd13ifvqg90","pricing_plan_id":"cebpf4jnsgd1na2vs0mg"},{"bike_id":"471a9a1e-6c98-471f-9af6-22575ede4cce","system_id":"levelo_inurba_marseille","lat":43.27922,"lon":5.39577,"is_reserved":false,"is_disabled":true,"rental_uris":{"android":"levelo://app?vid=471a9a1e-6c98-471f-9af6-22575ede4cce","ios":"levelo://app?vid=471a9a1e-6c98-471f-9af6-22575ede4cce"},"vehicle_type_id":"4","last_reported":1739542147,"current_range_meters":0,"station_id":"ce4bhf92rcd13ifvqf40","pricing_plan_id":"cebpf4jnsgd1na2vs0mg"},{"bike_id":"cc4fed2a-c644-4222-a104-ba6b5b648e37","system_id":"levelo_inurba_marseille","lat":43.30534,"lon":5.36557,"is_reserved":false,"is_disabled":false,"rental_uris":{"android":"levelo://app?vid=cc4fed2a-c644-4222-a104-ba6b5b648e37","ios":"levelo://app?vid=cc4fed2a-c644-4222-a104-ba6b5b648e37"},"vehicle_type_id":"4","last_reported":1739542147,"current_range_meters":32000,"station_id":"ce4bgs12rcd13ifvqcag","pricing_plan_id":"cebpf4jnsgd1na2vs0mg"},{"bike_id":"64827720-c2e5-4d81-bfed-1c4da7e9a69c","system_id":"levelo_inurba_marseille","lat":43.26501,"lon":5.39541,"is_reserved":false,"is_disabled":false,"rental_uris":{"android":"levelo://app?vid=64827720-c2e5-4d81-bfed-1c4da7e9a69c","ios":"levelo://app?vid=64827720-c2e5-4d81-bfed-1c4da7e9a69c"},"vehicle_type_id":"4","last_reported":1739542147,"current_range_meters":18800,"station_id":"ce4bhi12rcd13ifvqfq0","pricing_plan_id":"cebpf4jnsgd1na2vs0mg"},{"bike_id":"4d416fad-d82d-45fe-86a5-710a1b9df222","system_id":"levelo_inurba_marseille","lat":43.301208,"lon":5.398535,"is_reserved":false,"is_disabled":false,"rental_uris":{"android":"levelo://app?vid=4d416fad-d82d-45fe-86a5-710a1b9df222","ios":"levelo://app?vid=4d416fad-d82d-45fe-86a5-710a1b9df222"},"vehicle_type_id":"4","last_reported":1739542147,"current_range_meters":6400,"station_id":"ce4bh092rcd13ifvqd20","pricing_plan_id":"cebpf4jnsgd1na2vs0mg"},{"bike_id":"bbe84bef-1e78-4f04-a357-58ee5cd15756","system_id":"levelo_inurba_marseille","lat":43.30186,"lon":5.36617,"is_reserved":false,"is_disabled":false,"rental_uris":{"android":"levelo://app?vid=bbe84bef-1e78-4f04-a357-58ee5cd15756","ios":"levelo://app?vid=bbe84bef-1e78-4f04-a357-58ee5cd15756"},"vehicle_type_id":"4","last_reported":1739542147,"current_range_meters":21600,"station_id":"ce4bgrh2rcd13ifvqc8g","pricing_plan_id":"cebpf4jnsgd1na2vs0mg"},{"bike_id":"7bb3c3c1-6da2-4ce4-8250-65715dd162df","system_id":"levelo_inurba_marseille","lat":43.27422,"lon":5.39414,"is_reserved":false,"is_disabled":true,"rental_uris":{"android":"levelo://app?vid=7bb3c3c1-6da2-4ce4-8250-65715dd162df","ios":"levelo://app?vid=7bb3c3c1-6da2-4ce4-8250-65715dd162df"},"vehicle_type_id":"4","last_reported":1739542147,"current_range_meters":400,"station_id":"ce4bhdp2rcd13ifvqf20","pricing_plan_id":"cebpf4jnsgd1na2vs0mg"},{"bike_id":"31e2eb6c-3600-4621-8e7d-bfb653464c0b","system_id":"levelo_inurba_marseille","lat":43.31066,"lon":5.3835,"is_reserved":false,"is_disabled":false,"rental_uris":{"android":"levelo://app?vid=31e2eb6c-3600-4621-8e7d-bfb653464c0b","ios":"levelo://app?vid=31e2eb6c-3600-4621-8e7d-bfb653464c0b"},"vehicle_type_id":"4","last_reported":1739542147,"current_range_meters":38800,"station_id":"ce4bgv92rcd13ifvqcr0","pricing_plan_id":"cebpf4jnsgd1na2vs0mg"},{"bike_id":"6138bdc7-964d-4156-8ccb-a970dcea6ce3","system_id":"levelo_inurba_marseille","lat":43.30535,"lon":5.36528,"is_reserved":false,"is_disabled":false,"rental_uris":{"android":"levelo://app?vid=6138bdc7-964d-4156-8ccb-a970dcea6ce3","ios":"levelo://app?vid=6138bdc7-964d-4156-8ccb-a970dcea6ce3"},"vehicle_type_id":"4","last_reported":1739542147,"current_range_meters":32000,"station_id":"ce4bgs12rcd13ifvqcag","pricing_plan_id":"cebpf4jnsgd1na2vs0mg"},{"bike_id":"c2e6a8ec-3a18-43b6-aef0-ede7e278e0d7","system_id":"levelo_inurba_marseille","lat":43.2706,"lon":5.40258,"is_reserved":false,"is_disabled":false,"rental_uris":{"android":"levelo://app?vid=c2e6a8ec-3a18-43b6-aef0-ede7e278e0d7","ios":"levelo://app?vid=c2e6a8ec-3a18-43b6-aef0-ede7e278e0d7"},"vehicle_type_id":"4","last_reported":1739542147,"current_range_meters":32000,"station_id":"ce4bhk92rcd13ifvqgc0","pricing_plan_id":"cebpf4jnsgd1na2vs0mg"},{"bike_id":"6fc7235b-f0a6-4bf5-aed0-5b9b2d472961","system_id":"levelo_inurba_marseille","lat":43.30536,"lon":5.36683,"is_reserved":false,"is_disabled":false,"rental_uris":{"android":"levelo://app?vid=6fc7235b-f0a6-4bf5-aed0-5b9b2d472961","ios":"levelo://app?vid=6fc7235b-f0a6-4bf5-aed0-5b9b2d472961"},"vehicle_type_id":"4","last_reported":1739542147,"current_range_meters":38000,"station_id":"ce4bgrp2rcd13ifvqc9g","pricing_plan_id":"cebpf4jnsgd1na2vs0mg"},{"bike_id":"da6f1241-0761-4770-bdaf-f516fa65e47c","system_id":"levelo_inurba_marseille","lat":43.30804,"lon":5.38164,"is_reserved":false,"is_disabled":false,"rental_uris":{"android":"levelo://app?vid=da6f1241-0761-4770-bdaf-f516fa65e47c","ios":"levelo://app?vid=da6f1241-0761-4770-bdaf-f516fa65e47c"},"vehicle_type_id":"4","last_reported":1739542147,"current_range_meters":30400,"station_id":"ce4bgt12rcd13ifvqce0","pricing_plan_id":"cebpf4jnsgd1na2vs0mg"},{"bike_id":"5429a055-5c17-4863-ac08-ee7234bc7af8","system_id":"levelo_inurba_marseille","lat":43.32266,"lon":5.36835,"is_reserved":false,"is_disabled":false,"rental_uris":{"android":"levelo://app?vid=5429a055-5c17-4863-ac08-ee7234bc7af8","ios":"levelo://app?vid=5429a055-5c17-4863-ac08-ee7234bc7af8"},"vehicle_type_id":"4","last_reported":1739542147,"current_range_meters":36800,"station_id":"","pricing_plan_id":"cebpf4jnsgd1na2vs0mg"},{"bike_id":"d18d94be-2701-4f6f-af2f-e908a9e85fe4","system_id":"levelo_inurba_marseille","lat":43.30152,"lon":5.38093,"is_reserved":false,"is_disabled":false,"rental_uris":{"android":"levelo://app?vid=d18d94be-2701-4f6f-af2f-e908a9e85fe4","ios":"levelo://app?vid=d18d94be-2701-4f6f-af2f-e908a9e85fe4"},"vehicle_type_id":"4","last_reported":1739542147,"current_range_meters":12400,"station_id":"ce4bgjp2rcd13ifvqbh0","pricing_plan_id":"cebpf4jnsgd1na2vs0mg"},{"bike_id":"6c54bd98-99ce-4c61-b914-dd19c3edf238","system_id":"levelo_inurba_marseille","lat":43.24804,"lon":5.37453,"is_reserved":false,"is_disabled":false,"rental_uris":{"android":"levelo://app?vid=6c54bd98-99ce-4c61-b914-dd19c3edf238","ios":"levelo://app?vid=6c54bd98-99ce-4c61-b914-dd19c3edf238"},"vehicle_type_id":"4","last_reported":1739542147,"current_range_meters":38800,"station_id":"ce4bhgh2rcd13ifvqfb0","pricing_plan_id":"cebpf4jnsgd1na2vs0mg"},{"bike_id":"859c79c3-9c5b-47b3-94ad-94355d1f1457","system_id":"levelo_inurba_marseille","lat":43.24371,"lon":5.37029,"is_reserved":false,"is_disabled":false,"rental_uris":{"android":"levelo://app?vid=859c79c3-9c5b-47b3-94ad-94355d1f1457","ios":"levelo://app?vid=859c79c3-9c5b-47b3-94ad-94355d1f1457"},"vehicle_type_id":"4","last_reported":1739542147,"current_range_meters":12000,"station_id":"ce4bhhh2rcd13ifvqfk0","pricing_plan_id":"cebpf4jnsgd1na2vs0mg"},{"bike_id":"93b2bead-6d7d-47b0-acbc-2c4d6703f671","system_id":"levelo_inurba_marseille","lat":43.29847,"lon":5.36271,"is_reserved":false,"is_disabled":false,"rental_uris":{"android":"levelo://app?vid=93b2bead-6d7d-47b0-acbc-2c4d6703f671","ios":"levelo://app?vid=93b2bead-6d7d-47b0-acbc-2c4d6703f671"},"vehicle_type_id":"4","last_reported":1739542147,"current_range_meters":37600,"station_id":"ce4bgpp2rcd13ifvqc3g","pricing_plan_id":"cebpf4jnsgd1na2vs0mg"},{"bike_id":"c9b3dfe5-db4b-4f89-8848-36650c305632","system_id":"levelo_inurba_marseille","lat":43.30915,"lon":5.36833,"is_reserved":false,"is_disabled":false,"rental_uris":{"android":"levelo://app?vid=c9b3dfe5-db4b-4f89-8848-36650c305632","ios":"levelo://app?vid=c9b3dfe5-db4b-4f89-8848-36650c305632"},"vehicle_type_id":"4","last_reported":1739542147,"current_range_meters":26800,"station_id":"ce4bgn92rcd13ifvqbvg","pricing_plan_id":"cebpf4jnsgd1na2vs0mg"},{"bike_id":"8f0eedb6-302f-4476-bb44-b9db3fda34a6","system_id":"levelo_inurba_marseille","lat":43.29369,"lon":5.37853,"is_reserved":false,"is_disabled":false,"rental_uris":{"android":"levelo://app?vid=8f0eedb6-302f-4476-bb44-b9db3fda34a6","ios":"levelo://app?vid=8f0eedb6-302f-4476-bb44-b9db3fda34a6"},"vehicle_type_id":"4","last_reported":1739542147,"current_range_meters":38800,"station_id":"ce4bgjh2rcd13ifvqbf0","pricing_plan_id":"cebpf4jnsgd1na2vs0mg"},{"bike_id":"3e8a72e9-7838-4f87-8a4c-629d225f5004","system_id":"levelo_inurba_marseille","lat":43.29009,"lon":5.35611,"is_reserved":false,"is_disabled":false,"rental_uris":{"android":"levelo://app?vid=3e8a72e9-7838-4f87-8a4c-629d225f5004","ios":"levelo://app?vid=3e8a72e9-7838-4f87-8a4c-629d225f5004"},"vehicle_type_id":"4","last_reported":1739542147,"current_range_meters":39200,"station_id":"ce4bhb92rcd13ifvqen0","pricing_plan_id":"cebpf4jnsgd1na2vs0mg"},{"bike_id":"4c17efce-6413-4534-8267-7be847b3cdde","system_id":"levelo_inurba_marseille","lat":43.30087,"lon":5.39086,"is_reserved":false,"is_disabled":false,"rental_uris":{"android":"levelo://app?vid=4c17efce-6413-4534-8267-7be847b3cdde","ios":"levelo://app?vid=4c17efce-6413-4534-8267-7be847b3cdde"},"vehicle_type_id":"4","last_reported":1739542147,"current_range_meters":38800,"station_id":"ce4bh192rcd13ifvqdb0","pricing_plan_id":"cebpf4jnsgd1na2vs0mg"},{"bike_id":"30a0387a-b4f9-4e4b-9234-535a916f7f58","system_id":"levelo_inurba_marseille","lat":43.26206,"lon":5.37918,"is_reserved":false,"is_disabled":false,"rental_uris":{"android":"levelo://app?vid=30a0387a-b4f9-4e4b-9234-535a916f7f58","ios":"levelo://app?vid=30a0387a-b4f9-4e4b-9234-535a916f7f58"},"vehicle_type_id":"4","last_reported":1739542147,"current_range_meters":3600,"station_id":"ce4bhjp2rcd13ifvqg90","pricing_plan_id":"cebpf4jnsgd1na2vs0mg"},{"bike_id":"b569b4de-adea-49b3-92d9-3cfc3ea3b13d","system_id":"levelo_inurba_marseille","lat":43.24996,"lon":5.38933,"is_reserved":false,"is_disabled":false,"rental_uris":{"android":"levelo://app?vid=b569b4de-adea-49b3-92d9-3cfc3ea3b13d","ios":"levelo://app?vid=b569b4de-adea-49b3-92d9-3cfc3ea3b13d"},"vehicle_type_id":"4","last_reported":1739542147,"current_range_meters":10000,"station_id":"ce4bhgp2rcd13ifvqfd0","pricing_plan_id":"cebpf4jnsgd1na2vs0mg"},{"bike_id":"9fe907ee-be20-4d9f-97d2-4d173f819e3b","system_id":"levelo_inurba_marseille","lat":43.296269,"lon":5.371519,"is_reserved":false,"is_disabled":false,"rental_uris":{"android":"levelo://app?vid=9fe907ee-be20-4d9f-97d2-4d173f819e3b","ios":"levelo://app?vid=9fe907ee-be20-4d9f-97d2-4d173f819e3b"},"vehicle_type_id":"4","last_reported":1739542147,"current_range_meters":7200,"station_id":"ce4bgnh2rcd13ifvqc0g","pricing_plan_id":"cebpf4jnsgd1na2vs0mg"},{"bike_id":"d6f38d8d-bb5a-4b27-b5d4-6029f0946ece","system_id":"levelo_inurba_marseille","lat":43.27468,"lon":5.43536,"is_reserved":false,"is_disabled":false,"rental_uris":{"android":"levelo://app?vid=d6f38d8d-bb5a-4b27-b5d4-6029f0946ece","ios":"levelo://app?vid=d6f38d8d-bb5a-4b27-b5d4-6029f0946ece"},"vehicle_type_id":"4","last_reported":1739542147,"current_range_meters":8400,"station_id":"","pricing_plan_id":"cebpf4jnsgd1na2vs0mg"},{"bike_id":"a8cb174b-a028-4d1e-9d57-786b91606ee0","system_id":"levelo_inurba_marseille","lat":43.27175,"lon":5.40988,"is_reserved":false,"is_disabled":false,"rental_uris":{"android":"levelo://app?vid=a8cb174b-a028-4d1e-9d57-786b91606ee0","ios":"levelo://app?vid=a8cb174b-a028-4d1e-9d57-786b91606ee0"},"vehicle_type_id":"4","last_reported":1739542147,"current_range_meters":24400,"station_id":"ce4bhl12rcd13ifvqgf0","pricing_plan_id":"cebpf4jnsgd1na2vs0mg"},{"bike_id":"a78f0b43-971e-4b07-b8b2-1510427b6271","system_id":"levelo_inurba_marseille","lat":43.30132,"lon":5.37421,"is_reserved":false,"is_disabled":false,"rental_uris":{"android":"levelo://app?vid=a78f0b43-971e-4b07-b8b2-1510427b6271","ios":"levelo://app?vid=a78f0b43-971e-4b07-b8b2-1510427b6271"},"vehicle_type_id":"4","last_reported":1739542147,"current_range_meters":5600,"station_id":"ce4bgs92rcd13ifvqcc0","pricing_plan_id":"cebpf4jnsgd1na2vs0mg"},{"bike_id":"aabd4533-d9b0-407b-8eae-6a73ed0aa350","system_id":"levelo_inurba_marseille","lat":43.30273,"lon":5.37709,"is_reserved":false,"is_disabled":false,"rental_uris":{"android":"levelo://app?vid=aabd4533-d9b0-407b-8eae-6a73ed0aa350","ios":"levelo://app?vid=aabd4533-d9b0-407b-8eae-6a73ed0aa350"},"vehicle_type_id":"4","last_reported":1739542147,"current_range_meters":39200,"station_id":"ce4bguh2rcd13ifvqcj0","pricing_plan_id":"cebpf4jnsgd1na2vs0mg"},{"bike_id":"caa7c8c1-1338-4e87-879c-bb0b13fdb987","system_id":"levelo_inurba_marseille","lat":43.28619,"lon":5.35101,"is_reserved":false,"is_disabled":false,"rental_uris":{"android":"levelo://app?vid=caa7c8c1-1338-4e87-879c-bb0b13fdb987","ios":"levelo://app?vid=caa7c8c1-1338-4e87-879c-bb0b13fdb987"},"vehicle_type_id":"4","last_reported":1739542147,"current_range_meters":30800,"station_id":"ce4bhch2rcd13ifvqeug","pricing_plan_id":"cebpf4jnsgd1na2vs0mg"},{"bike_id":"d55a9866-f32d-4ff7-8223-0b3fcd8e3341","system_id":"levelo_inurba_marseille","lat":43.32477,"lon":5.36575,"is_reserved":false,"is_disabled":false,"rental_uris":{"android":"levelo://app?vid=d55a9866-f32d-4ff7-8223-0b3fcd8e3341","ios":"levelo://app?vid=d55a9866-f32d-4ff7-8223-0b3fcd8e3341"},"vehicle_type_id":"4","last_reported":1739542147,"current_range_meters":30400,"station_id":"ce4bhs12rcd13ifvqhvg","pricing_plan_id":"cebpf4jnsgd1na2vs0mg"},{"bike_id":"a3afbd29-752b-472c-9f96-7303bcc20027","system_id":"levelo_inurba_marseille","lat":43.30549,"lon":5.36519,"is_reserved":false,"is_disabled":false,"rental_uris":{"android":"levelo://app?vid=a3afbd29-752b-472c-9f96-7303bcc20027","ios":"levelo://app?vid=a3afbd29-752b-472c-9f96-7303bcc20027"},"vehicle_type_id":"4","last_reported":1739542147,"current_range_meters":28400,"station_id":"ce4bgs12rcd13ifvqcag","pricing_plan_id":"cebpf4jnsgd1na2vs0mg"},{"bike_id":"ddf1d674-41d6-443f-b0f1-1da7df267862","system_id":"levelo_inurba_marseille","lat":43.230528,"lon":5.354905,"is_reserved":false,"is_disabled":false,"rental_uris":{"android":"levelo://app?vid=ddf1d674-41d6-443f-b0f1-1da7df267862","ios":"levelo://app?vid=ddf1d674-41d6-443f-b0f1-1da7df267862"},"vehicle_type_id":"4","last_reported":1739542147,"current_range_meters":25200,"station_id":"cpo3342slgdg3j2ifvpg","pricing_plan_id":"cebpf4jnsgd1na2vs0mg"},{"bike_id":"5093b296-cb95-4cd9-9370-24892a0bd012","system_id":"levelo_inurba_marseille","lat":43.25118,"lon":5.40333,"is_reserved":false,"is_disabled":false,"rental_uris":{"android":"levelo://app?vid=5093b296-cb95-4cd9-9370-24892a0bd012","ios":"levelo://app?vid=5093b296-cb95-4cd9-9370-24892a0bd012"},"vehicle_type_id":"4","last_reported":1739542147,"current_range_meters":9600,"station_id":"ce4bhlh2rcd13ifvqgig","pricing_plan_id":"cebpf4jnsgd1na2vs0mg"},{"bike_id":"c127aaac-4087-4ce8-89f8-269c7bcff411","system_id":"levelo_inurba_marseille","lat":43.26029,"lon":5.37555,"is_reserved":false,"is_disabled":false,"rental_uris":{"android":"levelo://app?vid=c127aaac-4087-4ce8-89f8-269c7bcff411","ios":"levelo://app?vid=c127aaac-4087-4ce8-89f8-269c7bcff411"},"vehicle_type_id":"4","last_reported":1739542147,"current_range_meters":39200,"station_id":"ce4bhgh2rcd13ifvqfa0","pricing_plan_id":"cebpf4jnsgd1na2vs0mg"},{"bike_id":"a33663cd-6343-43c4-81de-6e4f258b5f0d","system_id":"levelo_inurba_marseille","lat":43.30928,"lon":5.40152,"is_reserved":false,"is_disabled":false,"rental_uris":{"android":"levelo://app?vid=a33663cd-6343-43c4-81de-6e4f258b5f0d","ios":"levelo://app?vid=a33663cd-6343-43c4-81de-6e4f258b5f0d"},"vehicle_type_id":"4","last_reported":1739542147,"current_range_meters":7200,"station_id":"ce4bgvp2rcd13ifvqct0","pricing_plan_id":"cebpf4jnsgd1na2vs0mg"},{"bike_id":"c5165109-ff7a-45ec-907e-44d28be2e23e","system_id":"levelo_inurba_marseille","lat":43.3009,"lon":5.39081,"is_reserved":false,"is_disabled":false,"rental_uris":{"android":"levelo://app?vid=c5165109-ff7a-45ec-907e-44d28be2e23e","ios":"levelo://app?vid=c5165109-ff7a-45ec-907e-44d28be2e23e"},"vehicle_type_id":"4","last_reported":1739542147,"current_range_meters":38800,"station_id":"ce4bh192rcd13ifvqdb0","pricing_plan_id":"cebpf4jnsgd1na2vs0mg"},{"bike_id":"ffd974d8-c400-4e02-8332-710da6f935c7","system_id":"levelo_inurba_marseille","lat":43.2925,"lon":5.40921,"is_reserved":false,"is_disabled":false,"rental_uris":{"android":"levelo://app?vid=ffd974d8-c400-4e02-8332-710da6f935c7","ios":"levelo://app?vid=ffd974d8-c400-4e02-8332-710da6f935c7"},"vehicle_type_id":"4","last_reported":1739542147,"current_range_meters":38800,"station_id":"ce4bh192rcd13ifvqdc0","pricing_plan_id":"cebpf4jnsgd1na2vs0mg"},{"bike_id":"4450d397-c7c4-4c68-aed9-fa811598c082","system_id":"levelo_inurba_marseille","lat":43.32574,"lon":5.36554,"is_reserved":false,"is_disabled":false,"rental_uris":{"android":"levelo://app?vid=4450d397-c7c4-4c68-aed9-fa811598c082","ios":"levelo://app?vid=4450d397-c7c4-4c68-aed9-fa811598c082"},"vehicle_type_id":"4","last_reported":1739542147,"current_range_meters":30400,"station_id":"","pricing_plan_id":"cebpf4jnsgd1na2vs0mg"},{"bike_id":"3bc32949-5704-4209-8d6f-78a742f0e2a8","system_id":"levelo_inurba_marseille","lat":43.31178,"lon":5.3873,"is_reserved":false,"is_disabled":false,"rental_uris":{"android":"levelo://app?vid=3bc32949-5704-4209-8d6f-78a742f0e2a8","ios":"levelo://app?vid=3bc32949-5704-4209-8d6f-78a742f0e2a8"},"vehicle_type_id":"4","last_reported":1739542147,"current_range_meters":20000,"station_id":"ce4bgv12rcd13ifvqcp0","pricing_plan_id":"cebpf4jnsgd1na2vs0mg"},{"bike_id":"ce1adda1-33d4-455c-8b95-6fde8c6286e8","system_id":"levelo_inurba_marseille","lat":43.28862,"lon":5.35843,"is_reserved":false,"is_disabled":false,"rental_uris":{"android":"levelo://app?vid=ce1adda1-33d4-455c-8b95-6fde8c6286e8","ios":"levelo://app?vid=ce1adda1-33d4-455c-8b95-6fde8c6286e8"},"vehicle_type_id":"4","last_reported":1739542147,"current_range_meters":38800,"station_id":"ce4bhb12rcd13ifvqem0","pricing_plan_id":"cebpf4jnsgd1na2vs0mg"},{"bike_id":"36ac1b33-f00e-4eb9-b212-c06976f935f5","system_id":"levelo_inurba_marseille","lat":43.27677,"lon":5.38898,"is_reserved":false,"is_disabled":false,"rental_uris":{"android":"levelo://app?vid=36ac1b33-f00e-4eb9-b212-c06976f935f5","ios":"levelo://app?vid=36ac1b33-f00e-4eb9-b212-c06976f935f5"},"vehicle_type_id":"4","last_reported":1739542147,"current_range_meters":30400,"station_id":"ce4bhi12rcd13ifvqfo0","pricing_plan_id":"cebpf4jnsgd1na2vs0mg"},{"bike_id":"de267d04-5e49-413d-9a9f-7ad4723850ee","system_id":"levelo_inurba_marseille","lat":43.23178,"lon":5.39987,"is_reserved":false,"is_disabled":false,"rental_uris":{"android":"levelo://app?vid=de267d04-5e49-413d-9a9f-7ad4723850ee","ios":"levelo://app?vid=de267d04-5e49-413d-9a9f-7ad4723850ee"},"vehicle_type_id":"4","last_reported":1739542147,"current_range_meters":38000,"station_id":"ce4bhn12rcd13ifvqgqg","pricing_plan_id":"cebpf4jnsgd1na2vs0mg"},{"bike_id":"67fb0345-8e61-456a-b864-f19dbba85e32","system_id":"levelo_inurba_marseille","lat":43.27814,"lon":5.40699,"is_reserved":false,"is_disabled":false,"rental_uris":{"android":"levelo://app?vid=67fb0345-8e61-456a-b864-f19dbba85e32","ios":"levelo://app?vid=67fb0345-8e61-456a-b864-f19dbba85e32"},"vehicle_type_id":"4","last_reported":1739542147,"current_range_meters":12800,"station_id":"ce4bhnh2rcd13ifvqgtg","pricing_plan_id":"cebpf4jnsgd1na2vs0mg"},{"bike_id":"6b656e81-a99f-458b-b133-2509327cf097","system_id":"levelo_inurba_marseille","lat":43.2826,"lon":5.36079,"is_reserved":false,"is_disabled":false,"rental_uris":{"android":"levelo://app?vid=6b656e81-a99f-458b-b133-2509327cf097","ios":"levelo://app?vid=6b656e81-a99f-458b-b133-2509327cf097"},"vehicle_type_id":"4","last_reported":1739542147,"current_range_meters":14000,"station_id":"","pricing_plan_id":"cebpf4jnsgd1na2vs0mg"},{"bike_id":"fb27585c-d37a-46e8-9dff-7cf672c65eab","system_id":"levelo_inurba_marseille","lat":43.30142,"lon":5.37408,"is_reserved":false,"is_disabled":true,"rental_uris":{"android":"levelo://app?vid=fb27585c-d37a-46e8-9dff-7cf672c65eab","ios":"levelo://app?vid=fb27585c-d37a-46e8-9dff-7cf672c65eab"},"vehicle_type_id":"4","last_reported":1739542147,"current_range_meters":26800,"station_id":"ce4bgs92rcd13ifvqcc0","pricing_plan_id":"cebpf4jnsgd1na2vs0mg"},{"bike_id":"b64cb318-9a9d-45df-b9e1-d16ce258851f","system_id":"levelo_inurba_marseille","lat":43.28148,"lon":5.42618,"is_reserved":false,"is_disabled":true,"rental_uris":{"android":"levelo://app?vid=b64cb318-9a9d-45df-b9e1-d16ce258851f","ios":"levelo://app?vid=b64cb318-9a9d-45df-b9e1-d16ce258851f"},"vehicle_type_id":"4","last_reported":1739542147,"current_range_meters":800,"station_id":"ce4bhnh2rcd13ifvqgug","pricing_plan_id":"cebpf4jnsgd1na2vs0mg"},{"bike_id":"77c8b1ec-f5c0-4293-827a-c8e3c2f6a9bd","system_id":"levelo_inurba_marseille","lat":43.30934,"lon":5.4014,"is_reserved":false,"is_disabled":false,"rental_uris":{"android":"levelo://app?vid=77c8b1ec-f5c0-4293-827a-c8e3c2f6a9bd","ios":"levelo://app?vid=77c8b1ec-f5c0-4293-827a-c8e3c2f6a9bd"},"vehicle_type_id":"4","last_reported":1739542147,"current_range_meters":17200,"station_id":"ce4bgvp2rcd13ifvqct0","pricing_plan_id":"cebpf4jnsgd1na2vs0mg"},{"bike_id":"fce4859f-33a4-4090-bda1-af998fb551c7","system_id":"levelo_inurba_marseille","lat":43.29735,"lon":5.37662,"is_reserved":false,"is_disabled":false,"rental_uris":{"android":"levelo://app?vid=fce4859f-33a4-4090-bda1-af998fb551c7","ios":"levelo://app?vid=fce4859f-33a4-4090-bda1-af998fb551c7"},"vehicle_type_id":"4","last_reported":1739542147,"current_range_meters":38800,"station_id":"ce4bgkh2rcd13ifvqbl0","pricing_plan_id":"cebpf4jnsgd1na2vs0mg"},{"bike_id":"9b5c8b3c-552c-4c09-b3c4-31d7039ae051","system_id":"levelo_inurba_marseille","lat":43.23156,"lon":5.43703,"is_reserved":false,"is_disabled":false,"rental_uris":{"android":"levelo://app?vid=9b5c8b3c-552c-4c09-b3c4-31d7039ae051","ios":"levelo://app?vid=9b5c8b3c-552c-4c09-b3c4-31d7039ae051"},"vehicle_type_id":"4","last_reported":1739542147,"current_range_meters":38800,"station_id":"ce4bhmp2rcd13ifvqgog","pricing_plan_id":"cebpf4jnsgd1na2vs0mg"},{"bike_id":"e37e3851-2ffa-40ab-a685-f0087f097083","system_id":"levelo_inurba_marseille","lat":43.26689,"lon":5.38276,"is_reserved":false,"is_disabled":true,"rental_uris":{"android":"levelo://app?vid=e37e3851-2ffa-40ab-a685-f0087f097083","ios":"levelo://app?vid=e37e3851-2ffa-40ab-a685-f0087f097083"},"vehicle_type_id":"4","last_reported":1739542147,"current_range_meters":30800,"station_id":"ce4bhg92rcd13ifvqf90","pricing_plan_id":"cebpf4jnsgd1na2vs0mg"},{"bike_id":"8e6f6675-674d-4faf-87e4-d7153991a591","system_id":"levelo_inurba_marseille","lat":43.28699,"lon":5.39981,"is_reserved":false,"is_disabled":false,"rental_uris":{"android":"levelo://app?vid=8e6f6675-674d-4faf-87e4-d7153991a591","ios":"levelo://app?vid=8e6f6675-674d-4faf-87e4-d7153991a591"},"vehicle_type_id":"4","last_reported":1739542147,"current_range_meters":27600,"station_id":"ce4bho92rcd13ifvqh3g","pricing_plan_id":"cebpf4jnsgd1na2vs0mg"},{"bike_id":"f8257504-a063-43b5-a92d-0d990299e875","system_id":"levelo_inurba_marseille","lat":43.33105,"lon":5.38988,"is_reserved":false,"is_disabled":false,"rental_uris":{"android":"levelo://app?vid=f8257504-a063-43b5-a92d-0d990299e875","ios":"levelo://app?vid=f8257504-a063-43b5-a92d-0d990299e875"},"vehicle_type_id":"4","last_reported":1739542147,"current_range_meters":32400,"station_id":"","pricing_plan_id":"cebpf4jnsgd1na2vs0mg"},{"bike_id":"53c5123e-435e-4aee-91a5-e6ad241f2d76","system_id":"levelo_inurba_marseille","lat":43.31224,"lon":5.36888,"is_reserved":false,"is_disabled":true,"rental_uris":{"android":"levelo://app?vid=53c5123e-435e-4aee-91a5-e6ad241f2d76","ios":"levelo://app?vid=53c5123e-435e-4aee-91a5-e6ad241f2d76"},"vehicle_type_id":"4","last_reported":1739542147,"current_range_meters":24400,"station_id":"ce4bgl92rcd13ifvqbq0","pricing_plan_id":"cebpf4jnsgd1na2vs0mg"},{"bike_id":"62862006-05b4-4c32-b74d-3d73ca0f3a49","system_id":"levelo_inurba_marseille","lat":43.29493,"lon":5.36395,"is_reserved":false,"is_disabled":true,"rental_uris":{"android":"levelo://app?vid=62862006-05b4-4c32-b74d-3d73ca0f3a49","ios":"levelo://app?vid=62862006-05b4-4c32-b74d-3d73ca0f3a49"},"vehicle_type_id":"4","last_reported":1739542147,"current_range_meters":26000,"station_id":"","pricing_plan_id":"cebpf4jnsgd1na2vs0mg"},{"bike_id":"d4198f78-cfed-4830-b891-47c26a75945e","system_id":"levelo_inurba_marseille","lat":43.29004,"lon":5.35608,"is_reserved":false,"is_disabled":false,"rental_uris":{"android":"levelo://app?vid=d4198f78-cfed-4830-b891-47c26a75945e","ios":"levelo://app?vid=d4198f78-cfed-4830-b891-47c26a75945e"},"vehicle_type_id":"4","last_reported":1739542147,"current_range_meters":34800,"station_id":"ce4bhb92rcd13ifvqen0","pricing_plan_id":"cebpf4jnsgd1na2vs0mg"},{"bike_id":"63dcde03-1c93-4b06-98de-c17e2e2a1b80","system_id":"levelo_inurba_marseille","lat":43.30365,"lon":5.41888,"is_reserved":false,"is_disabled":false,"rental_uris":{"android":"levelo://app?vid=63dcde03-1c93-4b06-98de-c17e2e2a1b80","ios":"levelo://app?vid=63dcde03-1c93-4b06-98de-c17e2e2a1b80"},"vehicle_type_id":"4","last_reported":1739542147,"current_range_meters":38800,"station_id":"ce4bhop2rcd13ifvqh7g","pricing_plan_id":"cebpf4jnsgd1na2vs0mg"},{"bike_id":"581f9f3f-143b-49f3-be1a-4aca7e85b975","system_id":"levelo_inurba_marseille","lat":43.3015,"lon":5.38086,"is_reserved":false,"is_disabled":false,"rental_uris":{"android":"levelo://app?vid=581f9f3f-143b-49f3-be1a-4aca7e85b975","ios":"levelo://app?vid=581f9f3f-143b-49f3-be1a-4aca7e85b975"},"vehicle_type_id":"4","last_reported":1739542147,"current_range_meters":37600,"station_id":"ce4bgjp2rcd13ifvqbh0","pricing_plan_id":"cebpf4jnsgd1na2vs0mg"},{"bike_id":"31a85c5f-b405-4e7f-bedd-5a07b953362e","system_id":"levelo_inurba_marseille","lat":43.30905,"lon":5.39626,"is_reserved":false,"is_disabled":false,"rental_uris":{"android":"levelo://app?vid=31a85c5f-b405-4e7f-bedd-5a07b953362e","ios":"levelo://app?vid=31a85c5f-b405-4e7f-bedd-5a07b953362e"},"vehicle_type_id":"4","last_reported":1739542147,"current_range_meters":19600,"station_id":"ce4bh012rcd13ifvqcv0","pricing_plan_id":"cebpf4jnsgd1na2vs0mg"},{"bike_id":"e031351b-efdb-4640-8255-b69e1640bbff","system_id":"levelo_inurba_marseille","lat":43.24166,"lon":5.36393,"is_reserved":false,"is_disabled":false,"rental_uris":{"android":"levelo://app?vid=e031351b-efdb-4640-8255-b69e1640bbff","ios":"levelo://app?vid=e031351b-efdb-4640-8255-b69e1640bbff"},"vehicle_type_id":"4","last_reported":1739542147,"current_range_meters":34000,"station_id":"cpo36qri1sfpv3e86is0","pricing_plan_id":"cebpf4jnsgd1na2vs0mg"},{"bike_id":"e9f11eaf-e630-4af6-b92e-f960f7592e9a","system_id":"levelo_inurba_marseille","lat":43.29608,"lon":5.3772,"is_reserved":false,"is_disabled":false,"rental_uris":{"android":"levelo://app?vid=e9f11eaf-e630-4af6-b92e-f960f7592e9a","ios":"levelo://app?vid=e9f11eaf-e630-4af6-b92e-f960f7592e9a"},"vehicle_type_id":"4","last_reported":1739542147,"current_range_meters":12000,"station_id":"ce4bgi92rcd13ifvqb90","pricing_plan_id":"cebpf4jnsgd1na2vs0mg"},{"bike_id":"469ec595-d539-44ce-b5e7-b970dbdf72ba","system_id":"levelo_inurba_marseille","lat":43.32068,"lon":5.41532,"is_reserved":false,"is_disabled":false,"rental_uris":{"android":"levelo://app?vid=469ec595-d539-44ce-b5e7-b970dbdf72ba","ios":"levelo://app?vid=469ec595-d539-44ce-b5e7-b970dbdf72ba"},"vehicle_type_id":"4","last_reported":1739542147,"current_range_meters":38800,"station_id":"ce4bhq92rcd13ifvqhkg","pricing_plan_id":"cebpf4jnsgd1na2vs0mg"},{"bike_id":"ee566f3d-0e78-4ced-ac1b-e3b33c18e89e","system_id":"levelo_inurba_marseille","lat":43.24392,"lon":5.37053,"is_reserved":false,"is_disabled":false,"rental_uris":{"android":"levelo://app?vid=ee566f3d-0e78-4ced-ac1b-e3b33c18e89e","ios":"levelo://app?vid=ee566f3d-0e78-4ced-ac1b-e3b33c18e89e"},"vehicle_type_id":"4","last_reported":1739542147,"current_range_meters":17200,"station_id":"ce4bhhh2rcd13ifvqfk0","pricing_plan_id":"cebpf4jnsgd1na2vs0mg"},{"bike_id":"da7f2fae-5747-45f2-981c-2899a6e7dc68","system_id":"levelo_inurba_marseille","lat":43.25581,"lon":5.38241,"is_reserved":false,"is_disabled":false,"rental_uris":{"android":"levelo://app?vid=da7f2fae-5747-45f2-981c-2899a6e7dc68","ios":"levelo://app?vid=da7f2fae-5747-45f2-981c-2899a6e7dc68"},"vehicle_type_id":"4","last_reported":1739542147,"current_range_meters":25200,"station_id":"ce4bhih2rcd13ifvqfs0","pricing_plan_id":"cebpf4jnsgd1na2vs0mg"},{"bike_id":"fe2f6787-4ebb-4359-8526-74fd6a592b79","system_id":"levelo_inurba_marseille","lat":43.26938,"lon":5.38902,"is_reserved":false,"is_disabled":false,"rental_uris":{"android":"levelo://app?vid=fe2f6787-4ebb-4359-8526-74fd6a592b79","ios":"levelo://app?vid=fe2f6787-4ebb-4359-8526-74fd6a592b79"},"vehicle_type_id":"4","last_reported":1739542147,"current_range_meters":25200,"station_id":"ce4bhhh2rcd13ifvqfl0","pricing_plan_id":"cebpf4jnsgd1na2vs0mg"},{"bike_id":"c640fc38-e54b-4af1-92ad-d2c50e20e738","system_id":"levelo_inurba_marseille","lat":43.25013,"lon":5.38939,"is_reserved":false,"is_disabled":false,"rental_uris":{"android":"levelo://app?vid=c640fc38-e54b-4af1-92ad-d2c50e20e738","ios":"levelo://app?vid=c640fc38-e54b-4af1-92ad-d2c50e20e738"},"vehicle_type_id":"4","last_reported":1739542147,"current_range_meters":38800,"station_id":"ce4bhgp2rcd13ifvqfd0","pricing_plan_id":"cebpf4jnsgd1na2vs0mg"},{"bike_id":"5eacf947-4346-4432-a116-39aa5aa57511","system_id":"levelo_inurba_marseille","lat":43.30957,"lon":5.3903,"is_reserved":false,"is_disabled":false,"rental_uris":{"android":"levelo://app?vid=5eacf947-4346-4432-a116-39aa5aa57511","ios":"levelo://app?vid=5eacf947-4346-4432-a116-39aa5aa57511"},"vehicle_type_id":"4","last_reported":1739542147,"current_range_meters":33600,"station_id":"ce4bgup2rcd13ifvqco0","pricing_plan_id":"cebpf4jnsgd1na2vs0mg"},{"bike_id":"05bca938-de1e-4315-a486-77043b0ad166","system_id":"levelo_inurba_marseille","lat":43.25828,"lon":5.39437,"is_reserved":false,"is_disabled":false,"rental_uris":{"android":"levelo://app?vid=05bca938-de1e-4315-a486-77043b0ad166","ios":"levelo://app?vid=05bca938-de1e-4315-a486-77043b0ad166"},"vehicle_type_id":"4","last_reported":1739542147,"current_range_meters":30800,"station_id":"ce4bhip2rcd13ifvqft0","pricing_plan_id":"cebpf4jnsgd1na2vs0mg"},{"bike_id":"d2390134-cb0a-4e75-9b5a-5182f3230d9e","system_id":"levelo_inurba_marseille","lat":43.30141,"lon":5.37414,"is_reserved":false,"is_disabled":false,"rental_uris":{"android":"levelo://app?vid=d2390134-cb0a-4e75-9b5a-5182f3230d9e","ios":"levelo://app?vid=d2390134-cb0a-4e75-9b5a-5182f3230d9e"},"vehicle_type_id":"4","last_reported":1739542147,"current_range_meters":38800,"station_id":"ce4bgs92rcd13ifvqcc0","pricing_plan_id":"cebpf4jnsgd1na2vs0mg"},{"bike_id":"2924424d-634e-4af5-8f50-3da5a42450ed","system_id":"levelo_inurba_marseille","lat":43.295302,"lon":5.375063,"is_reserved":false,"is_disabled":false,"rental_uris":{"android":"levelo://app?vid=2924424d-634e-4af5-8f50-3da5a42450ed","ios":"levelo://app?vid=2924424d-634e-4af5-8f50-3da5a42450ed"},"vehicle_type_id":"4","last_reported":1739542147,"current_range_meters":38000,"station_id":"ce4bgkp2rcd13ifvqbmg","pricing_plan_id":"cebpf4jnsgd1na2vs0mg"},{"bike_id":"1d58e8a2-89cc-4ff7-86bb-66320105d9ba","system_id":"levelo_inurba_marseille","lat":43.27817,"lon":5.40711,"is_reserved":false,"is_disabled":false,"rental_uris":{"android":"levelo://app?vid=1d58e8a2-89cc-4ff7-86bb-66320105d9ba","ios":"levelo://app?vid=1d58e8a2-89cc-4ff7-86bb-66320105d9ba"},"vehicle_type_id":"4","last_reported":1739542147,"current_range_meters":38800,"station_id":"ce4bhnh2rcd13ifvqgtg","pricing_plan_id":"cebpf4jnsgd1na2vs0mg"},{"bike_id":"4942a28e-f1b7-4347-98f4-bd2b06cb6a2b","system_id":"levelo_inurba_marseille","lat":43.30925,"lon":5.40143,"is_reserved":false,"is_disabled":false,"rental_uris":{"android":"levelo://app?vid=4942a28e-f1b7-4347-98f4-bd2b06cb6a2b","ios":"levelo://app?vid=4942a28e-f1b7-4347-98f4-bd2b06cb6a2b"},"vehicle_type_id":"4","last_reported":1739542147,"current_range_meters":29600,"station_id":"ce4bgvp2rcd13ifvqct0","pricing_plan_id":"cebpf4jnsgd1na2vs0mg"},{"bike_id":"523cf9ea-40e8-4b12-b781-d7a3dab4dcd0","system_id":"levelo_inurba_marseille","lat":43.30158,"lon":5.38085,"is_reserved":false,"is_disabled":false,"rental_uris":{"android":"levelo://app?vid=523cf9ea-40e8-4b12-b781-d7a3dab4dcd0","ios":"levelo://app?vid=523cf9ea-40e8-4b12-b781-d7a3dab4dcd0"},"vehicle_type_id":"4","last_reported":1739542147,"current_range_meters":30400,"station_id":"ce4bgjp2rcd13ifvqbh0","pricing_plan_id":"cebpf4jnsgd1na2vs0mg"},{"bike_id":"841237f9-4828-433b-96af-b0e65c63577e","system_id":"levelo_inurba_marseille","lat":43.30905,"lon":5.36861,"is_reserved":false,"is_disabled":false,"rental_uris":{"android":"levelo://app?vid=841237f9-4828-433b-96af-b0e65c63577e","ios":"levelo://app?vid=841237f9-4828-433b-96af-b0e65c63577e"},"vehicle_type_id":"4","last_reported":1739542147,"current_range_meters":37600,"station_id":"ce4bgn92rcd13ifvqbvg","pricing_plan_id":"cebpf4jnsgd1na2vs0mg"},{"bike_id":"170d2661-6fd4-416a-bed8-edf435474169","system_id":"levelo_inurba_marseille","lat":43.24082,"lon":5.37759,"is_reserved":false,"is_disabled":false,"rental_uris":{"android":"levelo://app?vid=170d2661-6fd4-416a-bed8-edf435474169","ios":"levelo://app?vid=170d2661-6fd4-416a-bed8-edf435474169"},"vehicle_type_id":"4","last_reported":1739542147,"current_range_meters":34800,"station_id":"ce4bhnp2rcd13ifvqgvg","pricing_plan_id":"cebpf4jnsgd1na2vs0mg"},{"bike_id":"e5ef80dd-4702-46bb-bfde-5dd61590a716","system_id":"levelo_inurba_marseille","lat":43.29252,"lon":5.40899,"is_reserved":false,"is_disabled":false,"rental_uris":{"android":"levelo://app?vid=e5ef80dd-4702-46bb-bfde-5dd61590a716","ios":"levelo://app?vid=e5ef80dd-4702-46bb-bfde-5dd61590a716"},"vehicle_type_id":"4","last_reported":1739542147,"current_range_meters":36400,"station_id":"ce4bh192rcd13ifvqdc0","pricing_plan_id":"cebpf4jnsgd1na2vs0mg"},{"bike_id":"a0f3b484-b0e7-4ed2-8c7c-86fc1fec1e14","system_id":"levelo_inurba_marseille","lat":43.30185,"lon":5.366,"is_reserved":false,"is_disabled":false,"rental_uris":{"android":"levelo://app?vid=a0f3b484-b0e7-4ed2-8c7c-86fc1fec1e14","ios":"levelo://app?vid=a0f3b484-b0e7-4ed2-8c7c-86fc1fec1e14"},"vehicle_type_id":"4","last_reported":1739542147,"current_range_meters":38000,"station_id":"ce4bgrh2rcd13ifvqc8g","pricing_plan_id":"cebpf4jnsgd1na2vs0mg"},{"bike_id":"351e2369-279c-485b-a2c1-023f7d60c956","system_id":"levelo_inurba_marseille","lat":43.29004,"lon":5.35615,"is_reserved":false,"is_disabled":false,"rental_uris":{"android":"levelo://app?vid=351e2369-279c-485b-a2c1-023f7d60c956","ios":"levelo://app?vid=351e2369-279c-485b-a2c1-023f7d60c956"},"vehicle_type_id":"4","last_reported":1739542147,"current_range_meters":38000,"station_id":"ce4bhb92rcd13ifvqen0","pricing_plan_id":"cebpf4jnsgd1na2vs0mg"},{"bike_id":"2434d9dc-69d4-4262-9279-8cce80b11c63","system_id":"levelo_inurba_marseille","lat":43.24657,"lon":5.38161,"is_reserved":false,"is_disabled":false,"rental_uris":{"android":"levelo://app?vid=2434d9dc-69d4-4262-9279-8cce80b11c63","ios":"levelo://app?vid=2434d9dc-69d4-4262-9279-8cce80b11c63"},"vehicle_type_id":"4","last_reported":1739542147,"current_range_meters":25200,"station_id":"ce4bhih2rcd13ifvqfr0","pricing_plan_id":"cebpf4jnsgd1na2vs0mg"},{"bike_id":"c8be2044-09c2-441c-ab90-e76735dbc795","system_id":"levelo_inurba_marseille","lat":43.28614,"lon":5.35101,"is_reserved":false,"is_disabled":false,"rental_uris":{"android":"levelo://app?vid=c8be2044-09c2-441c-ab90-e76735dbc795","ios":"levelo://app?vid=c8be2044-09c2-441c-ab90-e76735dbc795"},"vehicle_type_id":"4","last_reported":1739542147,"current_range_meters":16800,"station_id":"ce4bhch2rcd13ifvqeug","pricing_plan_id":"cebpf4jnsgd1na2vs0mg"},{"bike_id":"d416e95d-a967-4111-8f22-5cff311f8b65","system_id":"levelo_inurba_marseille","lat":43.30206,"lon":5.39478,"is_reserved":false,"is_disabled":true,"rental_uris":{"android":"levelo://app?vid=d416e95d-a967-4111-8f22-5cff311f8b65","ios":"levelo://app?vid=d416e95d-a967-4111-8f22-5cff311f8b65"},"vehicle_type_id":"4","last_reported":1739542147,"current_range_meters":0,"station_id":"ce4bh0p2rcd13ifvqd70","pricing_plan_id":"cebpf4jnsgd1na2vs0mg"},{"bike_id":"e72dd999-9661-4ca8-b672-79155b3f084b","system_id":"levelo_inurba_marseille","lat":43.28437,"lon":5.39203,"is_reserved":false,"is_disabled":false,"rental_uris":{"android":"levelo://app?vid=e72dd999-9661-4ca8-b672-79155b3f084b","ios":"levelo://app?vid=e72dd999-9661-4ca8-b672-79155b3f084b"},"vehicle_type_id":"4","last_reported":1739542147,"current_range_meters":24800,"station_id":"ce4bhoh2rcd13ifvqh5g","pricing_plan_id":"cebpf4jnsgd1na2vs0mg"},{"bike_id":"3526dae4-3c72-4618-932f-ede520df9c3d","system_id":"levelo_inurba_marseille","lat":43.29967,"lon":5.38498,"is_reserved":false,"is_disabled":false,"rental_uris":{"android":"levelo://app?vid=3526dae4-3c72-4618-932f-ede520df9c3d","ios":"levelo://app?vid=3526dae4-3c72-4618-932f-ede520df9c3d"},"vehicle_type_id":"4","last_reported":1739542147,"current_range_meters":33600,"station_id":"ce4bgj92rcd13ifvqbd0","pricing_plan_id":"cebpf4jnsgd1na2vs0mg"},{"bike_id":"34871b78-7c6b-4a45-854a-a794af1498d9","system_id":"levelo_inurba_marseille","lat":43.26675,"lon":5.38273,"is_reserved":false,"is_disabled":true,"rental_uris":{"android":"levelo://app?vid=34871b78-7c6b-4a45-854a-a794af1498d9","ios":"levelo://app?vid=34871b78-7c6b-4a45-854a-a794af1498d9"},"vehicle_type_id":"4","last_reported":1739542147,"current_range_meters":1600,"station_id":"ce4bhg92rcd13ifvqf90","pricing_plan_id":"cebpf4jnsgd1na2vs0mg"},{"bike_id":"90d6b28b-d2ff-499b-949c-5a4f2ff008b1","system_id":"levelo_inurba_marseille","lat":43.24386,"lon":5.37058,"is_reserved":false,"is_disabled":false,"rental_uris":{"android":"levelo://app?vid=90d6b28b-d2ff-499b-949c-5a4f2ff008b1","ios":"levelo://app?vid=90d6b28b-d2ff-499b-949c-5a4f2ff008b1"},"vehicle_type_id":"4","last_reported":1739542147,"current_range_meters":38800,"station_id":"ce4bhhh2rcd13ifvqfk0","pricing_plan_id":"cebpf4jnsgd1na2vs0mg"},{"bike_id":"34141518-2329-4810-b031-afbbcd35d40a","system_id":"levelo_inurba_marseille","lat":43.259,"lon":5.40896,"is_reserved":false,"is_disabled":false,"rental_uris":{"android":"levelo://app?vid=34141518-2329-4810-b031-afbbcd35d40a","ios":"levelo://app?vid=34141518-2329-4810-b031-afbbcd35d40a"},"vehicle_type_id":"4","last_reported":1739542147,"current_range_meters":30400,"station_id":"ce4bhm92rcd13ifvqglg","pricing_plan_id":"cebpf4jnsgd1na2vs0mg"},{"bike_id":"c1665b9a-8804-49fb-a2e7-87ab5bdd8b6d","system_id":"levelo_inurba_marseille","lat":43.33733,"lon":5.3916,"is_reserved":false,"is_disabled":false,"rental_uris":{"android":"levelo://app?vid=c1665b9a-8804-49fb-a2e7-87ab5bdd8b6d","ios":"levelo://app?vid=c1665b9a-8804-49fb-a2e7-87ab5bdd8b6d"},"vehicle_type_id":"4","last_reported":1739542147,"current_range_meters":39200,"station_id":"ce4bhr92rcd13ifvqhsg","pricing_plan_id":"cebpf4jnsgd1na2vs0mg"},{"bike_id":"8d50d987-4438-49a7-a878-86fabeb5bf08","system_id":"levelo_inurba_marseille","lat":43.30765,"lon":5.37605,"is_reserved":false,"is_disabled":false,"rental_uris":{"android":"levelo://app?vid=8d50d987-4438-49a7-a878-86fabeb5bf08","ios":"levelo://app?vid=8d50d987-4438-49a7-a878-86fabeb5bf08"},"vehicle_type_id":"4","last_reported":1739542147,"current_range_meters":35600,"station_id":"ce4bgv92rcd13ifvqcq0","pricing_plan_id":"cebpf4jnsgd1na2vs0mg"},{"bike_id":"9849b2fc-a95b-422f-a196-d18f8dddc31b","system_id":"levelo_inurba_marseille","lat":43.29218,"lon":5.36061,"is_reserved":false,"is_disabled":false,"rental_uris":{"android":"levelo://app?vid=9849b2fc-a95b-422f-a196-d18f8dddc31b","ios":"levelo://app?vid=9849b2fc-a95b-422f-a196-d18f8dddc31b"},"vehicle_type_id":"4","last_reported":1739542147,"current_range_meters":19200,"station_id":"ce4bhbh2rcd13ifvqeqg","pricing_plan_id":"cebpf4jnsgd1na2vs0mg"},