{"last_updated":1771339760,"ttl":60,"version":"2.2","data":{"bikes":[{"bike_id":"6e72cee6-bfc1-4116-8791-3061f79f8391","system_id":"levelo_inurba_marseille","lat":43.30968,"lon":5.39084,"is_reserved":false,"is_disabled":false,"rental_uris":{"android":"levelo://app?vid=6e72cee6-bfc1-4116-8791-3061f79f8391","ios":"levelo://app?vid=6e72cee6-bfc1-4116-8791-3061f79f8391"},"vehicle_type_id":"4","last_reported":1771339761,"current_range_meters":12400,"station_id":"ce4bgup2rcd13ifvqco0","pricing_plan_id":"cebpf4jnsgd1na2vs0mg"},{"bike_id":"20017558-100c-4be6-9ae3-6c969d30648a","system_id":"levelo_inurba_marseille","lat":43.23986,"lon":5.3661,"is_reserved":false,"is_disabled":false,"rental_uris":{"android":"levelo://app?vid=20017558-100c-4be6-9ae3-6c969d30648a","ios":"levelo://app?vid=20017558-100c-4be6-9ae3-6c969d30648a"},"vehicle_type_id":"4","last_reported":1771339761,"current_range_meters":38400,"station_id":"ce4bhi12rcd13ifvqfp0","pricing_plan_id":"cebpf4jnsgd1na2vs0mg"},{"bike_id":"34542ef5-64fe-4032-a4cc-f0aefee6f2dd","system_id":"levelo_inurba_marseille","lat":43.27959,"lon":5.41028,"is_reserved":false,"is_disabled":false,"rental_uris":{"android":"levelo://app?vid=34542ef5-64fe-4032-a4cc-f0aefee6f2dd","ios":"levelo://app?vid=34542ef5-64fe-4032-a4cc-f0aefee6f2dd"},"vehicle_type_id":"4","last_reported":1771339761,"current_range_meters":27600,"station_id":"ce4bhnp2rcd13ifvqh0g","pricing_plan_id":"cebpf4jnsgd1na2vs0mg"},{"bike_id":"d5c39038-a196-442c-a8de-b272561ff450","system_id":"levelo_inurba_marseille","lat":43.31262,"lon":5.36852,"is_reserved":false,"is_disabled":false,"rental_uris":{"android":"levelo://app?vid=d5c39038-a196-442c-a8de-b272561ff450","ios":"levelo://app?vid=d5c39038-a196-442c-a8de-b272561ff450"},"vehicle_type_id":"4","last_reported":1771339761,"current_range_meters":14800,"station_id":"ce4bgl92rcd13ifvqbq0","pricing_plan_id":"cebpf4jnsgd1na2vs0mg"},{"bike_id":"9e80a46a-e212-4568-b8f2-e7bfcbbc6fb2","system_id":"levelo_inurba_marseille","lat":43.33163,"lon":5.377,"is_reserved":false,"is_disabled":false,"rental_uris":{"android":"levelo://app?vid=9e80a46a-e212-4568-b8f2-e7bfcbbc6fb2","ios":"levelo://app?vid=9e80a46a-e212-4568-b8f2-e7bfcbbc6fb2"},"vehicle_type_id":"4","last_reported":1771339761,"current_range_meters":28400,"station_id":"st_d46cu089ee8s73dldbu0","pricing_plan_id":"cebpf4jnsgd1na2vs0mg"},{"bike_id":"06a35ccd-b33f-4049-bbfa-98f79e3425d6","system_id":"levelo_inurba_marseille","lat":43.26229,"lon":5.40453,"is_reserved":false,"is_disabled":false,"rental_uris":{"android":"levelo://app?vid=06a35ccd-b33f-4049-bbfa-98f79e3425d6","ios":"levelo://app?vid=06a35ccd-b33f-4049-bbfa-98f79e3425d6"},"vehicle_type_id":"4","last_reported":1771339761,"current_range_meters":20800,"station_id":"ce4bhmh2rcd13ifvqgmg","pricing_plan_id":"cebpf4jnsgd1na2vs0mg"},{"bike_id":"b2eb5fe5-c8e8-48e2-9166-64fc7fadb88f","system_id":"levelo_inurba_marseille","lat":43.24811,"lon":5.37465,"is_reserved":false,"is_disabled":false,"rental_uris":{"android":"levelo://app?vid=b2eb5fe5-c8e8-48e2-9166-64fc7fadb88f","ios":"levelo://app?vid=b2eb5fe5-c8e8-48e2-9166-64fc7fadb88f"},"vehicle_type_id":"4","last_reported":1771339761,"current_range_meters":36400,"station_id":"ce4bhgh2rcd13ifvqfb0","pricing_plan_id":"cebpf4jnsgd1na2vs0mg"},{"bike_id":"ca208522-c5c5-415c-9069-124a5d2f7bd4","system_id":"levelo_inurba_marseille","lat":43.2456,"lon":5.3948,"is_reserved":false,"is_disabled":false,"rental_uris":{"android":"levelo://app?vid=ca208522-c5c5-415c-9069-124a5d2f7bd4","ios":"levelo://app?vid=ca208522-c5c5-415c-9069-124a5d2f7bd4"},"vehicle_type_id":"4","last_reported":1771339761,"current_range_meters":32000,"station_id":"ce4bhlp2rcd13ifvqgjg","pricing_plan_id":"cebpf4jnsgd1na2vs0mg"},{"bike_id":"402492b2-75b7-4a30-b15f-baf2edef3968","system_id":"levelo_inurba_marseille","lat":43.26531,"lon":5.37328,"is_reserved":false,"is_disabled":true,"rental_uris":{"android":"levelo://app?vid=402492b2-75b7-4a30-b15f-baf2edef3968","ios":"levelo://app?vid=402492b2-75b7-4a30-b15f-baf2edef3968"},"vehicle_type_id":"4","last_reported":1771339761,"current_range_meters":38000,"station_id":"ce4bhg12rcd13ifvqf70","pricing_plan_id":"cebpf4jnsgd1na2vs0mg"},{"bike_id":"572bc761-8879-44f9-beaf-5779abd95762","system_id":"levelo_inurba_marseille","lat":43.26042,"lon":5.39387,"is_reserved":false,"is_disabled":false,"rental_uris":{"android":"levelo://app?vid=572bc761-8879-44f9-beaf-5779abd95762","ios":"levelo://app?vid=572bc761-8879-44f9-beaf-5779abd95762"},"vehicle_type_id":"4","last_reported":1771339761,"current_range_meters":10800,"station_id":"ce4bhh92rcd13ifvqfj0","pricing_plan_id":"cebpf4jnsgd1na2vs0mg"},{"bike_id":"5a983a63-0def-4441-a187-04ff64118d4b","system_id":"levelo_inurba_marseille","lat":43.304207,"lon":5.412811,"is_reserved":false,"is_disabled":false,"rental_uris":{"android":"levelo://app?vid=5a983a63-0def-4441-a187-04ff64118d4b","ios":"levelo://app?vid=5a983a63-0def-4441-a187-04ff64118d4b"},"vehicle_type_id":"4","last_reported":1771339761,"current_range_meters":8000,"station_id":"ce4bhop2rcd13ifvqh8g","pricing_plan_id":"cebpf4jnsgd1na2vs0mg"},{"bike_id":"18765297-02cb-4cec-a243-764bf4ef7328","system_id":"levelo_inurba_marseille","lat":43.30382,"lon":5.41863,"is_reserved":false,"is_disabled":false,"rental_uris":{"android":"levelo://app?vid=18765297-02cb-4cec-a243-764bf4ef7328","ios":"levelo://app?vid=18765297-02cb-4cec-a243-764bf4ef7328"},"vehicle_type_id":"4","last_reported":1771339761,"current_range_meters":38400,"station_id":"ce4bhop2rcd13ifvqh7g","pricing_plan_id":"cebpf4jnsgd1na2vs0mg"},{"bike_id":"a42111f3-afa3-4ae0-a56e-340eeb715fb2","system_id":"levelo_inurba_marseille","lat":43.29033,"lon":5.38149,"is_reserved":false,"is_disabled":false,"rental_uris":{"android":"levelo://app?vid=a42111f3-afa3-4ae0-a56e-340eeb715fb2","ios":"levelo://app?vid=a42111f3-afa3-4ae0-a56e-340eeb715fb2"},"vehicle_type_id":"4","last_reported":1771339761,"current_range_meters":21600,"station_id":"ce4bh4p2rcd13ifvqe1g","pricing_plan_id":"cebpf4jnsgd1na2vs0mg"},{"bike_id":"8604ba8d-23fc-4903-b43a-10ff6c1ab4ed","system_id":"levelo_inurba_marseille","lat":43.24415,"lon":5.37045,"is_reserved":false,"is_disabled":false,"rental_uris":{"android":"levelo://app?vid=8604ba8d-23fc-4903-b43a-10ff6c1ab4ed","ios":"levelo://app?vid=8604ba8d-23fc-4903-b43a-10ff6c1ab4ed"},"vehicle_type_id":"4","last_reported":1771339761,"current_range_meters":11200,"station_id":"ce4bhhh2rcd13ifvqfk0","pricing_plan_id":"cebpf4jnsgd1na2vs0mg"},{"bike_id":"3b530ac5-51ec-4a8c-af17-cee8a957983e","system_id":"levelo_inurba_marseille","lat":43.30484,"lon":5.37899,"is_reserved":false,"is_disabled":false,"rental_uris":{"android":"levelo://app?vid=3b530ac5-51ec-4a8c-af17-cee8a957983e","ios":"levelo://app?vid=3b530ac5-51ec-4a8c-af17-cee8a957983e"},"vehicle_type_id":"4","last_reported":1771339761,"current_range_meters":8800,"station_id":"ce4bgup2rcd13ifvqcn0","pricing_plan_id":"cebpf4jnsgd1na2vs0mg"},{"bike_id":"45c678c1-7b9b-4a93-a038-ef2c1a60194d","system_id":"levelo_inurba_marseille","lat":43.31225,"lon":5.36873,"is_reserved":false,"is_disabled":false,"rental_uris":{"android":"levelo://app?vid=45c678c1-7b9b-4a93-a038-ef2c1a60194d","ios":"levelo://app?vid=45c678c1-7b9b-4a93-a038-ef2c1a60194d"},"vehicle_type_id":"4","last_reported":1771339761,"current_range_meters":35200,"station_id":"ce4bgl92rcd13ifvqbq0","pricing_plan_id":"cebpf4jnsgd1na2vs0mg"},{"bike_id":"11eac169-c94f-43d7-8423-4c09b163bbbc","system_id":"levelo_inurba_marseille","lat":43.30941,"lon":5.40142,"is_reserved":false,"is_disabled":false,"rental_uris":{"android":"levelo://app?vid=11eac169-c94f-43d7-8423-4c09b163bbbc","ios":"levelo://app?vid=11eac169-c94f-43d7-8423-4c09b163bbbc"},"vehicle_type_id":"4","last_reported":1771339761,"current_range_meters":38400,"station_id":"ce4bgvp2rcd13ifvqct0","pricing_plan_id":"cebpf4jnsgd1na2vs0mg"},{"bike_id":"21fb05c7-0062-4f5f-a535-658913a5f003","system_id":"levelo_inurba_marseille","lat":43.29251,"lon":5.37617,"is_reserved":false,"is_disabled":false,"rental_uris":{"android":"levelo://app?vid=21fb05c7-0062-4f5f-a535-658913a5f003","ios":"levelo://app?vid=21fb05c7-0062-4f5f-a535-658913a5f003"},"vehicle_type_id":"4","last_reported":1771339761,"current_range_meters":30400,"station_id":"ce4bgi12rcd13ifvqb80","pricing_plan_id":"cebpf4jnsgd1na2vs0mg"},{"bike_id":"49ee3442-b859-4b16-bfb2-36acd8d5e9d7","system_id":"levelo_inurba_marseille","lat":43.31509,"lon":5.37283,"is_reserved":false,"is_disabled":false,"rental_uris":{"android":"levelo://app?vid=49ee3442-b859-4b16-bfb2-36acd8d5e9d7","ios":"levelo://app?vid=49ee3442-b859-4b16-bfb2-36acd8d5e9d7"},"vehicle_type_id":"4","last_reported":1771339761,"current_range_meters":30800,"station_id":"ce4bgt12rcd13ifvqcd0","pricing_plan_id":"cebpf4jnsgd1na2vs0mg"},{"bike_id":"f7a8a315-4d29-4548-8de1-b207ab9df344","system_id":"levelo_inurba_marseille","lat":43.27316,"lon":5.3908,"is_reserved":false,"is_disabled":false,"rental_uris":{"android":"levelo://app?vid=f7a8a315-4d29-4548-8de1-b207ab9df344","ios":"levelo://app?vid=f7a8a315-4d29-4548-8de1-b207ab9df344"},"vehicle_type_id":"4","last_reported":1771339761,"current_range_meters":25200,"station_id":"ce4bhgp2rcd13ifvqfe0","pricing_plan_id":"cebpf4jnsgd1na2vs0mg"},{"bike_id":"302d8057-131b-4c95-ab72-5640cacb0912","system_id":"levelo_inurba_marseille","lat":43.29622,"lon":5.37164,"is_reserved":false,"is_disabled":false,"rental_uris":{"android":"levelo://app?vid=302d8057-131b-4c95-ab72-5640cacb0912","ios":"levelo://app?vid=302d8057-131b-4c95-ab72-5640cacb0912"},"vehicle_type_id":"4","last_reported":1771339761,"current_range_meters":33600,"station_id":"ce4bgnh2rcd13ifvqc0g","pricing_plan_id":"cebpf4jnsgd1na2vs0mg"},{"bike_id":"523be3a1-7aac-4998-b646-37ab41bb0d4f","system_id":"levelo_inurba_marseille","lat":43.27848,"lon":5.40701,"is_reserved":false,"is_disabled":false,"rental_uris":{"android":"levelo://app?vid=523be3a1-7aac-4998-b646-37ab41bb0d4f","ios":"levelo://app?vid=523be3a1-7aac-4998-b646-37ab41bb0d4f"},"vehicle_type_id":"4","last_reported":1771339761,"current_range_meters":30400,"station_id":"ce4bhnh2rcd13ifvqgtg","pricing_plan_id":"cebpf4jnsgd1na2vs0mg"},{"bike_id":"af03d2db-118a-48b0-8e67-067717837579","system_id":"levelo_inurba_marseille","lat":43.26574,"lon":5.39034,"is_reserved":false,"is_disabled":false,"rental_uris":{"android":"levelo://app?vid=af03d2db-118a-48b0-8e67-067717837579","ios":"levelo://app?vid=af03d2db-118a-48b0-8e67-067717837579"},"vehicle_type_id":"4","last_reported":1771339761,"current_range_meters":33200,"station_id":"ce4bhe12rcd13ifvqf30","pricing_plan_id":"cebpf4jnsgd1na2vs0mg"},{"bike_id":"82d427ce-32f9-4eb3-9459-d23b9ef831cf","system_id":"levelo_inurba_marseille","lat":43.28266,"lon":5.35076,"is_reserved":false,"is_disabled":false,"rental_uris":{"android":"levelo://app?vid=82d427ce-32f9-4eb3-9459-d23b9ef831cf","ios":"levelo://app?vid=82d427ce-32f9-4eb3-9459-d23b9ef831cf"},"vehicle_type_id":"4","last_reported":1771339761,"current_range_meters":12400,"station_id":"ce4bhbp2rcd13ifvqerg","pricing_plan_id":"cebpf4jnsgd1na2vs0mg"},{"bike_id":"b700cce9-4e43-4dc1-aa00-f791687e4ddd","system_id":"levelo_inurba_marseille","lat":43.28935,"lon":5.36643,"is_reserved":false,"is_disabled":false,"rental_uris":{"android":"levelo://app?vid=b700cce9-4e43-4dc1-aa00-f791687e4ddd","ios":"levelo://app?vid=b700cce9-4e43-4dc1-aa00-f791687e4ddd"},"vehicle_type_id":"4","last_reported":1771339761,"current_range_meters":35200,"station_id":"ce4bhap2rcd13ifvqek0","pricing_plan_id":"cebpf4jnsgd1na2vs0mg"},{"bike_id":"9c9adcdf-0816-450b-b9ff-32754c377e98","system_id":"levelo_inurba_marseille","lat":43.33552,"lon":5.37416,"is_reserved":false,"is_disabled":false,"rental_uris":{"android":"levelo://app?vid=9c9adcdf-0816-450b-b9ff-32754c377e98","ios":"levelo://app?vid=9c9adcdf-0816-450b-b9ff-32754c377e98"},"vehicle_type_id":"4","last_reported":1771339761,"current_range_meters":4000,"station_id":"st_d46tts09ee8s73dlu43g","pricing_plan_id":"cebpf4jnsgd1na2vs0mg"},{"bike_id":"f67f75d9-97f9-43a8-aa0e-aad37b4036c0","system_id":"levelo_inurba_marseille","lat":43.28621,"lon":5.37044,"is_reserved":false,"is_disabled":false,"rental_uris":{"android":"levelo://app?vid=f67f75d9-97f9-43a8-aa0e-aad37b4036c0","ios":"levelo://app?vid=f67f75d9-97f9-43a8-aa0e-aad37b4036c0"},"vehicle_type_id":"4","last_reported":1771339761,"current_range_meters":32400,"station_id":"ce4bht12rcd13ifvqi60","pricing_plan_id":"cebpf4jnsgd1na2vs0mg"},{"bike_id":"13a92af8-e043-4e9c-b17f-e15ce8758a34","system_id":"levelo_inurba_marseille","lat":43.25113,"lon":5.40303,"is_reserved":false,"is_disabled":false,"rental_uris":{"android":"levelo://app?vid=13a92af8-e043-4e9c-b17f-e15ce8758a34","ios":"levelo://app?vid=13a92af8-e043-4e9c-b17f-e15ce8758a34"},"vehicle_type_id":"4","last_reported":1771339761,"current_range_meters":38800,"station_id":"ce4bhlh2rcd13ifvqgig","pricing_plan_id":"cebpf4jnsgd1na2vs0mg"},{"bike_id":"cdcf186a-6683-46a7-a4f3-97cd9ca1090b","system_id":"levelo_inurba_marseille","lat":43.24165,"lon":5.39735,"is_reserved":false,"is_disabled":false,"rental_uris":{"android":"levelo://app?vid=cdcf186a-6683-46a7-a4f3-97cd9ca1090b","ios":"levelo://app?vid=cdcf186a-6683-46a7-a4f3-97cd9ca1090b"},"vehicle_type_id":"4","last_reported":1771339761,"current_range_meters":37600,"station_id":"ce4bhn12rcd13ifvqgpg","pricing_plan_id":"cebpf4jnsgd1na2vs0mg"},{"bike_id":"f8fcece3-7175-4ebe-9d9d-2de5fa8aff45","system_id":"levelo_inurba_marseille","lat":43.26215,"lon":5.37443,"is_reserved":false,"is_disabled":false,"rental_uris":{"android":"levelo://app?vid=f8fcece3-7175-4ebe-9d9d-2de5fa8aff45","ios":"levelo://app?vid=f8fcece3-7175-4ebe-9d9d-2de5fa8aff45"},"vehicle_type_id":"4","last_reported":1771339761,"current_range_meters":39200,"station_id":"ce4bhgp2rcd13ifvqfc0","pricing_plan_id":"cebpf4jnsgd1na2vs0mg"},{"bike_id":"c3c25564-7bb8-43e0-a42b-a41dd470222d","system_id":"levelo_inurba_marseille","lat":43.31401,"lon":5.36656,"is_reserved":false,"is_disabled":false,"rental_uris":{"android":"levelo://app?vid=c3c25564-7bb8-43e0-a42b-a41dd470222d","ios":"levelo://app?vid=c3c25564-7bb8-43e0-a42b-a41dd470222d"},"vehicle_type_id":"4","last_reported":1771339761,"current_range_meters":14800,"station_id":"","pricing_plan_id":"cebpf4jnsgd1na2vs0mg"},{"bike_id":"b343da98-2de3-4afa-8b00-325afa23b368","system_id":"levelo_inurba_marseille","lat":43.23144,"lon":5.43729,"is_reserved":false,"is_disabled":false,"rental_uris":{"android":"levelo://app?vid=b343da98-2de3-4afa-8b00-325afa23b368","ios":"levelo://app?vid=b343da98-2de3-4afa-8b00-325afa23b368"},"vehicle_type_id":"4","last_reported":1771339761,"current_range_meters":39200,"station_id":"ce4bhmp2rcd13ifvqgog","pricing_plan_id":"cebpf4jnsgd1na2vs0mg"},{"bike_id":"a966433b-162b-45a9-a349-c7e6eb2ce498","system_id":"levelo_inurba_marseille","lat":43.27996,"lon":5.40003,"is_reserved":false,"is_disabled":false,"rental_uris":{"android":"levelo://app?vid=a966433b-162b-45a9-a349-c7e6eb2ce498","ios":"levelo://app?vid=a966433b-162b-45a9-a349-c7e6eb2ce498"},"vehicle_type_id":"4","last_reported":1771339761,"current_range_meters":21600,"station_id":"ce4bho92rcd13ifvqh4g","pricing_plan_id":"cebpf4jnsgd1na2vs0mg"},{"bike_id":"6de5e299-d1ca-4f6f-bb0e-37f0d2361727","system_id":"levelo_inurba_marseille","lat":43.28866,"lon":5.35865,"is_reserved":false,"is_disabled":false,"rental_uris":{"android":"levelo://app?vid=6de5e299-d1ca-4f6f-bb0e-37f0d2361727","ios":"levelo://app?vid=6de5e299-d1ca-4f6f-bb0e-37f0d2361727"},"vehicle_type_id":"4","last_reported":1771339761,"current_range_meters":35200,"station_id":"ce4bhb12rcd13ifvqem0","pricing_plan_id":"cebpf4jnsgd1na2vs0mg"},{"bike_id":"0f39b697-4a2b-43a3-ada4-ce8c43776e1f","system_id":"levelo_inurba_marseille","lat":43.31022,"lon":5.37509,"is_reserved":false,"is_disabled":false,"rental_uris":{"android":"levelo://app?vid=0f39b697-4a2b-43a3-ada4-ce8c43776e1f","ios":"levelo://app?vid=0f39b697-4a2b-43a3-ada4-ce8c43776e1f"},"vehicle_type_id":"4","last_reported":1771339761,"current_range_meters":16800,"station_id":"ce4bgl92rcd13ifvqbq0","pricing_plan_id":"cebpf4jnsgd1na2vs0mg"},{"bike_id":"76a0d4aa-0887-4be6-bfc2-d5259dc7e99e","system_id":"levelo_inurba_marseille","lat":43.292262,"lon":5.360793,"is_reserved":false,"is_disabled":false,"rental_uris":{"android":"levelo://app?vid=76a0d4aa-0887-4be6-bfc2-d5259dc7e99e","ios":"levelo://app?vid=76a0d4aa-0887-4be6-bfc2-d5259dc7e99e"},"vehicle_type_id":"4","last_reported":1771339761,"current_range_meters":38800,"station_id":"ce4bhbh2rcd13ifvqeqg","pricing_plan_id":"cebpf4jnsgd1na2vs0mg"},{"bike_id":"ec532e3d-01fc-41fe-bfbc-45c5b470be82","system_id":"levelo_inurba_marseille","lat":43.25118,"lon":5.40302,"is_reserved":false,"is_disabled":false,"rental_uris":{"android":"levelo://app?vid=ec532e3d-01fc-41fe-bfbc-45c5b470be82","ios":"levelo://app?vid=ec532e3d-01fc-41fe-bfbc-45c5b470be82"},"vehicle_type_id":"4","last_reported":1771339761,"current_range_meters":30400,"station_id":"ce4bhlh2rcd13ifvqgig","pricing_plan_id":"cebpf4jnsgd1na2vs0mg"},{"bike_id":"0635f262-f6d3-48c1-bdb7-6014d41943e0","system_id":"levelo_inurba_marseille","lat":43.30123,"lon":5.3745,"is_reserved":false,"is_disabled":false,"rental_uris":{"android":"levelo://app?vid=0635f262-f6d3-48c1-bdb7-6014d41943e0","ios":"levelo://app?vid=0635f262-f6d3-48c1-bdb7-6014d41943e0"},"vehicle_type_id":"4","last_reported":1771339761,"current_range_meters":36400,"station_id":"ce4bgs92rcd13ifvqcc0","pricing_plan_id":"cebpf4jnsgd1na2vs0mg"},{"bike_id":"c73347ca-cc14-4483-8b47-9a48e9728c50","system_id":"levelo_inurba_marseille","lat":43.2954,"lon":5.37486,"is_reserved":false,"is_disabled":false,"rental_uris":{"android":"levelo://app?vid=c73347ca-cc14-4483-8b47-9a48e9728c50","ios":"levelo://app?vid=c73347ca-cc14-4483-8b47-9a48e9728c50"},"vehicle_type_id":"4","last_reported":1771339761,"current_range_meters":37600,"station_id":"ce4bgkp2rcd13ifvqbmg","pricing_plan_id":"cebpf4jnsgd1na2vs0mg"},{"bike_id":"255889fc-1ce5-4d94-83f5-15fc58222260","system_id":"levelo_inurba_marseille","lat":43.30935,"lon":5.36827,"is_reserved":false,"is_disabled":false,"rental_uris":{"android":"levelo://app?vid=255889fc-1ce5-4d94-83f5-15fc58222260","ios":"levelo://app?vid=255889fc-1ce5-4d94-83f5-15fc58222260"},"vehicle_type_id":"4","last_reported":1771339761,"current_range_meters":37600,"station_id":"ce4bgn92rcd13ifvqbvg","pricing_plan_id":"cebpf4jnsgd1na2vs0mg"},{"bike_id":"cf2d1c9e-97c8-449c-be33-077dc830af29","system_id":"levelo_inurba_marseille","lat":43.27976,"lon":5.38774,"is_reserved":false,"is_disabled":false,"rental_uris":{"android":"levelo://app?vid=cf2d1c9e-97c8-449c-be33-077dc830af29","ios":"levelo://app?vid=cf2d1c9e-97c8-449c-be33-077dc830af29"},"vehicle_type_id":"4","last_reported":1771339761,"current_range_meters":39200,"station_id":"ce4bhg12rcd13ifvqf80","pricing_plan_id":"cebpf4jnsgd1na2vs0mg"},{"bike_id":"d973d5ae-d111-4a0c-9b95-fba5442ad829","system_id":"levelo_inurba_marseille","lat":43.26069,"lon":5.39401,"is_reserved":false,"is_disabled":false,"rental_uris":{"android":"levelo://app?vid=d973d5ae-d111-4a0c-9b95-fba5442ad829","ios":"levelo://app?vid=d973d5ae-d111-4a0c-9b95-fba5442ad829"},"vehicle_type_id":"4","last_reported":1771339761,"current_range_meters":8800,"station_id":"ce4bhh92rcd13ifvqfj0","pricing_plan_id":"cebpf4jnsgd1na2vs0mg"},{"bike_id":"f7365b5e-98d5-4613-87ad-9c0289888374","system_id":"levelo_inurba_marseille","lat":43.26698,"lon":5.38241,"is_reserved":false,"is_disabled":false,"rental_uris":{"android":"levelo://app?vid=f7365b5e-98d5-4613-87ad-9c0289888374","ios":"levelo://app?vid=f7365b5e-98d5-4613-87ad-9c0289888374"},"vehicle_type_id":"4","last_reported":1771339761,"current_range_meters":33600,"station_id":"ce4bhg92rcd13ifvqf90","pricing_plan_id":"cebpf4jnsgd1na2vs0mg"},{"bike_id":"9d48ab61-d6f4-4486-93e1-70342cb7e6f2","system_id":"levelo_inurba_marseille","lat":43.29299,"lon":5.38901,"is_reserved":false,"is_disabled":false,"rental_uris":{"android":"levelo://app?vid=9d48ab61-d6f4-4486-93e1-70342cb7e6f2","ios":"levelo://app?vid=9d48ab61-d6f4-4486-93e1-70342cb7e6f2"},"vehicle_type_id":"4","last_reported":1771339761,"current_range_meters":11600,"station_id":"","pricing_plan_id":"cebpf4jnsgd1na2vs0mg"},{"bike_id":"90c4111a-795d-42ed-bd6f-19bc4d4f7394","system_id":"levelo_inurba_marseille","lat":43.31389,"lon":5.36716,"is_reserved":false,"is_disabled":false,"rental_uris":{"android":"levelo://app?vid=90c4111a-795d-42ed-bd6f-19bc4d4f7394","ios":"levelo://app?vid=90c4111a-795d-42ed-bd6f-19bc4d4f7394"},"vehicle_type_id":"4","last_reported":1771339761,"current_range_meters":39200,"station_id":"","pricing_plan_id":"cebpf4jnsgd1na2vs0mg"},{"bike_id":"e308d050-502a-44ad-8fb8-6a23ebc18376","system_id":"levelo_inurba_marseille","lat":43.292317,"lon":5.360604,"is_reserved":false,"is_disabled":false,"rental_uris":{"android":"levelo://app?vid=e308d050-502a-44ad-8fb8-6a23ebc18376","ios":"levelo://app?vid=e308d050-502a-44ad-8fb8-6a23ebc18376"},"vehicle_type_id":"4","last_reported":1771339761,"current_range_meters":24800,"station_id":"ce4bhbh2rcd13ifvqeqg","pricing_plan_id":"cebpf4jnsgd1na2vs0mg"},{"bike_id":"4df7d324-766f-4948-b21a-d551e4abc520","system_id":"levelo_inurba_marseille","lat":43.31557,"lon":5.36569,"is_reserved":false,"is_disabled":false,"rental_uris":{"android":"levelo://app?vid=4df7d324-766f-4948-b21a-d551e4abc520","ios":"levelo://app?vid=4df7d324-766f-4948-b21a-d551e4abc520"},"vehicle_type_id":"4","last_reported":1771339761,"current_range_meters":36400,"station_id":"ce4bgr92rcd13ifvqc6g","pricing_plan_id":"cebpf4jnsgd1na2vs0mg"},{"bike_id":"d389d622-2ab0-441c-aa1c-0d325b1401fe","system_id":"levelo_inurba_marseille","lat":43.24679,"lon":5.38148,"is_reserved":false,"is_disabled":false,"rental_uris":{"android":"levelo://app?vid=d389d622-2ab0-441c-aa1c-0d325b1401fe","ios":"levelo://app?vid=d389d622-2ab0-441c-aa1c-0d325b1401fe"},"vehicle_type_id":"4","last_reported":1771339761,"current_range_meters":12400,"station_id":"ce4bhih2rcd13ifvqfr0","pricing_plan_id":"cebpf4jnsgd1na2vs0mg"},{"bike_id":"5a965df6-6bde-443d-bd53-103df330df07","system_id":"levelo_inurba_marseille","lat":43.3375,"lon":5.3749,"is_reserved":false,"is_disabled":false,"rental_uris":{"android":"levelo://app?vid=5a965df6-6bde-443d-bd53-103df330df07","ios":"levelo://app?vid=5a965df6-6bde-443d-bd53-103df330df07"},"vehicle_type_id":"4","last_reported":1771339761,"current_range_meters":38800,"station_id":"","pricing_plan_id":"cebpf4jnsgd1na2vs0mg"},{"bike_id":"7ae2f520-3f6d-4d15-803f-7620186a5e30","system_id":"levelo_inurba_marseille","lat":43.29237,"lon":5.36008,"is_reserved":false,"is_disabled":false,"rental_uris":{"android":"levelo://app?vid=7ae2f520-3f6d-4d15-803f-7620186a5e30","ios":"levelo://app?vid=7ae2f520-3f6d-4d15-803f-7620186a5e30"},"vehicle_type_id":"4","last_reported":1771339761,"current_range_meters":38800,"station_id":"ce4bhbh2rcd13ifvqeqg","pricing_plan_id":"cebpf4jnsgd1na2vs0mg"},{"bike_id":"5874bdd3-f3fa-4c4c-a14a-174bcb30d241","system_id":"levelo_inurba_marseille","lat":43.24985,"lon":5.38934,"is_reserved":false,"is_disabled":false,"rental_uris":{"android":"levelo://app?vid=5874bdd3-f3fa-4c4c-a14a-174bcb30d241","ios":"levelo://app?vid=5874bdd3-f3fa-4c4c-a14a-174bcb30d241"},"vehicle_type_id":"4","last_reported":1771339761,"current_range_meters":39200,"station_id":"ce4bhgp2rcd13ifvqfd0","pricing_plan_id":"cebpf4jnsgd1na2vs0mg"},{"bike_id":"f27e89b5-7b99-4d65-8bab-cac9a8b5bce8","system_id":"levelo_inurba_marseille","lat":43.2581,"lon":5.39446,"is_reserved":false,"is_disabled":false,"rental_uris":{"android":"levelo://app?vid=f27e89b5-7b99-4d65-8bab-cac9a8b5bce8","ios":"levelo://app?vid=f27e89b5-7b99-4d65-8bab-cac9a8b5bce8"},"vehicle_type_id":"4","last_reported":1771339761,"current_range_meters":38800,"station_id":"ce4bhip2rcd13ifvqft0","pricing_plan_id":"cebpf4jnsgd1na2vs0mg"},{"bike_id":"959ee48a-5a75-47c1-9f06-2cd753d4e344","system_id":"levelo_inurba_marseille","lat":43.245441,"lon":5.395178,"is_reserved":false,"is_disabled":false,"rental_uris":{"android":"levelo://app?vid=959ee48a-5a75-47c1-9f06-2cd753d4e344","ios":"levelo://app?vid=959ee48a-5a75-47c1-9f06-2cd753d4e344"},"vehicle_type_id":"4","last_reported":1771339761,"current_range_meters":30000,"station_id":"ce4bhlp2rcd13ifvqgjg","pricing_plan_id":"cebpf4jnsgd1na2vs0mg"},{"bike_id":"6e1b6725-bd2a-450f-8fbb-87285b7c6526","system_id":"levelo_inurba_marseille","lat":43.241713,"lon":5.364007,"is_reserved":false,"is_disabled":false,"rental_uris":{"android":"levelo://app?vid=6e1b6725-bd2a-450f-8fbb-87285b7c6526","ios":"levelo://app?vid=6e1b6725-bd2a-450f-8fbb-87285b7c6526"},"vehicle_type_id":"4","last_reported":1771339761,"current_range_meters":3600,"station_id":"cpo36qri1sfpv3e86is0","pricing_plan_id":"cebpf4jnsgd1na2vs0mg"},{"bike_id":"59f56850-0454-49dc-a3be-0d97ff8f9835","system_id":"levelo_inurba_marseille","lat":43.26402,"lon":5.41078,"is_reserved":false,"is_disabled":false,"rental_uris":{"android":"levelo://app?vid=59f56850-0454-49dc-a3be-0d97ff8f9835","ios":"levelo://app?vid=59f56850-0454-49dc-a3be-0d97ff8f9835"},"vehicle_type_id":"4","last_reported":1771339761,"current_range_meters":8800,"station_id":"st_d4e5ca6na9uc73bfl5fg","pricing_plan_id":"cebpf4jnsgd1na2vs0mg"},{"bike_id":"0d573848-cad0-419f-a21c-6f5fe122309c","system_id":"levelo_inurba_marseille","lat":43.31098,"lon":5.42416,"is_reserved":false,"is_disabled":false,"rental_uris":{"android":"levelo://app?vid=0d573848-cad0-419f-a21c-6f5fe122309c","ios":"levelo://app?vid=0d573848-cad0-419f-a21c-6f5fe122309c"},"vehicle_type_id":"4","last_reported":1771339761,"current_range_meters":39200,"station_id":"ce4bhp92rcd13ifvqhag","pricing_plan_id":"cebpf4jnsgd1na2vs0mg"},{"bike_id":"330eda75-9b0f-4083-bdc9-e74710342a4b","system_id":"levelo_inurba_marseille","lat":43.29726,"lon":5.37704,"is_reserved":false,"is_disabled":false,"rental_uris":{"android":"levelo://app?vid=330eda75-9b0f-4083-bdc9-e74710342a4b","ios":"levelo://app?vid=330eda75-9b0f-4083-bdc9-e74710342a4b"},"vehicle_type_id":"4","last_reported":1771339761,"current_range_meters":30400,"station_id":"ce4bgkh2rcd13ifvqbl0","pricing_plan_id":"cebpf4jnsgd1na2vs0mg"},{"bike_id":"71581d09-475d-4903-8862-e334d521bf2b","system_id":"levelo_inurba_marseille","lat":43.310514,"lon":5.371776,"is_reserved":false,"is_disabled":false,"rental_uris":{"android":"levelo://app?vid=71581d09-475d-4903-8862-e334d521bf2b","ios":"levelo://app?vid=71581d09-475d-4903-8862-e334d521bf2b"},"vehicle_type_id":"4","last_reported":1771339761,"current_range_meters":28400,"station_id":"st_d4kl2rp97mjs73e7tdfg","pricing_plan_id":"cebpf4jnsgd1na2vs0mg"},{"bike_id":"b0371389-1a3a-4d65-ba4b-9c644ca8c786","system_id":"levelo_inurba_marseille","lat":43.29945,"lon":5.37475,"is_reserved":false,"is_disabled":false,"rental_uris":{"android":"levelo://app?vid=b0371389-1a3a-4d65-ba4b-9c644ca8c786","ios":"levelo://app?vid=b0371389-1a3a-4d65-ba4b-9c644ca8c786"},"vehicle_type_id":"4","last_reported":1771339761,"current_range_meters":36000,"station_id":"ce4bgjh2rcd13ifvqbg0","pricing_plan_id":"cebpf4jnsgd1na2vs0mg"},{"bike_id":"061ee33a-0cb8-48bc-a843-c564ef436c43","system_id":"levelo_inurba_marseille","lat":43.28144,"lon":5.42651,"is_reserved":false,"is_disabled":false,"rental_uris":{"android":"levelo://app?vid=061ee33a-0cb8-48bc-a843-c564ef436c43","ios":"levelo://app?vid=061ee33a-0cb8-48bc-a843-c564ef436c43"},"vehicle_type_id":"4","last_reported":1771339761,"current_range_meters":38800,"station_id":"ce4bhnh2rcd13ifvqgug","pricing_plan_id":"cebpf4jnsgd1na2vs0mg"},{"bike_id":"5b8de0cc-7d3e-4222-8509-d21d6ce44619","system_id":"levelo_inurba_marseille","lat":43.2467,"lon":5.43086,"is_reserved":false,"is_disabled":false,"rental_uris":{"android":"levelo://app?vid=5b8de0cc-7d3e-4222-8509-d21d6ce44619","ios":"levelo://app?vid=5b8de0cc-7d3e-4222-8509-d21d6ce44619"},"vehicle_type_id":"4","last_reported":1771339761,"current_range_meters":12400,"station_id":"st_d2m6c4gdas8pm72e190g","pricing_plan_id":"cebpf4jnsgd1na2vs0mg"},{"bike_id":"86192d04-a141-409d-b724-3e354a3ed317","system_id":"levelo_inurba_marseille","lat":43.308637,"lon":5.384077,"is_reserved":false,"is_disabled":false,"rental_uris":{"android":"levelo://app?vid=86192d04-a141-409d-b724-3e354a3ed317","ios":"levelo://app?vid=86192d04-a141-409d-b724-3e354a3ed317"},"vehicle_type_id":"4","last_reported":1771339761,"current_range_meters":6800,"station_id":"","pricing_plan_id":"cebpf4jnsgd1na2vs0mg"},{"bike_id":"7f7e6064-6c05-4e1f-a4b0-120e50364b3a","system_id":"levelo_inurba_marseille","lat":43.26058,"lon":5.39392,"is_reserved":false,"is_disabled":false,"rental_uris":{"android":"levelo://app?vid=7f7e6064-6c05-4e1f-a4b0-120e50364b3a","ios":"levelo://app?vid=7f7e6064-6c05-4e1f-a4b0-120e50364b3a"},"vehicle_type_id":"4","last_reported":1771339761,"current_range_meters":28800,"station_id":"ce4bhh92rcd13ifvqfj0","pricing_plan_id":"cebpf4jnsgd1na2vs0mg"},{"bike_id":"35849916-2fe4-4b34-8084-9dcaefd2c823","system_id":"levelo_inurba_marseille","lat":43.312404,"lon":5.36859,"is_reserved":false,"is_disabled":false,"rental_uris":{"android":"levelo://app?vid=35849916-2fe4-4b34-8084-9dcaefd2c823","ios":"levelo://app?vid=35849916-2fe4-4b34-8084-9dcaefd2c823"},"vehicle_type_id":"4","last_reported":1771339761,"current_range_meters":38400,"station_id":"ce4bgl92rcd13ifvqbq0","pricing_plan_id":"cebpf4jnsgd1na2vs0mg"},{"bike_id":"36a96621-0437-4e6a-a67e-91443a5a0006","system_id":"levelo_inurba_marseille","lat":43.25577,"lon":5.38256,"is_reserved":false,"is_disabled":false,"rental_uris":{"android":"levelo://app?vid=36a96621-0437-4e6a-a67e-91443a5a0006","ios":"levelo://app?vid=36a96621-0437-4e6a-a67e-91443a5a0006"},"vehicle_type_id":"4","last_reported":1771339761,"current_range_meters":33600,"station_id":"ce4bhih2rcd13ifvqfs0","pricing_plan_id":"cebpf4jnsgd1na2vs0mg"},{"bike_id":"912e6766-e546-44ca-befb-9dd3ee992cc7","system_id":"levelo_inurba_marseille","lat":43.2905,"lon":5.38124,"is_reserved":false,"is_disabled":false,"rental_uris":{"android":"levelo://app?vid=912e6766-e546-44ca-befb-9dd3ee992cc7","ios":"levelo://app?vid=912e6766-e546-44ca-befb-9dd3ee992cc7"},"vehicle_type_id":"4","last_reported":1771339761,"current_range_meters":38000,"station_id":"ce4bh4p2rcd13ifvqe1g","pricing_plan_id":"cebpf4jnsgd1na2vs0mg"},{"bike_id":"b722cdad-f140-4670-8082-77ea6d1f7cc6","system_id":"levelo_inurba_marseille","lat":43.31263,"lon":5.36856,"is_reserved":false,"is_disabled":false,"rental_uris":{"android":"levelo://app?vid=b722cdad-f140-4670-8082-77ea6d1f7cc6","ios":"levelo://app?vid=b722cdad-f140-4670-8082-77ea6d1f7cc6"},"vehicle_type_id":"4","last_reported":1771339761,"current_range_meters":38400,"station_id":"ce4bgl92rcd13ifvqbq0","pricing_plan_id":"cebpf4jnsgd1na2vs0mg"},{"bike_id":"ececbe0e-0e34-4d8d-94e2-d6a8f1b03bbe","system_id":"levelo_inurba_marseille","lat":43.33128,"lon":5.37689,"is_reserved":false,"is_disabled":false,"rental_uris":{"android":"levelo://app?vid=ececbe0e-0e34-4d8d-94e2-d6a8f1b03bbe","ios":"levelo://app?vid=ececbe0e-0e34-4d8d-94e2-d6a8f1b03bbe"},"vehicle_type_id":"4","last_reported":1771339761,"current_range_meters":37600,"station_id":"st_d46cu089ee8s73dldbu0","pricing_plan_id":"cebpf4jnsgd1na2vs0mg"},{"bike_id":"d9414eea-4822-4c71-bae1-8fc190606b9b","system_id":"levelo_inurba_marseille","lat":43.28713,"lon":5.35509,"is_reserved":false,"is_disabled":true,"rental_uris":{"android":"levelo://app?vid=d9414eea-4822-4c71-bae1-8fc190606b9b","ios":"levelo://app?vid=d9414eea-4822-4c71-bae1-8fc190606b9b"},"vehicle_type_id":"4","last_reported":1771339761,"current_range_meters":38000,"station_id":"","pricing_plan_id":"cebpf4jnsgd1na2vs0mg"},{"bike_id":"de76fa29-8611-40f2-95f9-29e29e0e1ded","system_id":"levelo_inurba_marseille","lat":43.29271,"lon":5.38456,"is_reserved":false,"is_disabled":true,"rental_uris":{"android":"levelo://app?vid=de76fa29-8611-40f2-95f9-29e29e0e1ded","ios":"levelo://app?vid=de76fa29-8611-40f2-95f9-29e29e0e1ded"},"vehicle_type_id":"4","last_reported":1771339761,"current_range_meters":0,"station_id":"ce4bh692rcd13ifvqea0","pricing_plan_id":"cebpf4jnsgd1na2vs0mg"},{"bike_id":"fc522677-07d6-4e90-979c-17c8f21c8c74","system_id":"levelo_inurba_marseille","lat":43.29547,"lon":5.37502,"is_reserved":false,"is_disabled":false,"rental_uris":{"android":"levelo://app?vid=fc522677-07d6-4e90-979c-17c8f21c8c74","ios":"levelo://app?vid=fc522677-07d6-4e90-979c-17c8f21c8c74"},"vehicle_type_id":"4","last_reported":1771339761,"current_range_meters":9200,"station_id":"ce4bgkp2rcd13ifvqbmg","pricing_plan_id":"cebpf4jnsgd1na2vs0mg"},{"bike_id":"0b80e1be-8f2b-4513-82b3-2450c7c69a23","system_id":"levelo_inurba_marseille","lat":43.291706,"lon":5.372004,"is_reserved":false,"is_disabled":false,"rental_uris":{"android":"levelo://app?vid=0b80e1be-8f2b-4513-82b3-2450c7c69a23","ios":"levelo://app?vid=0b80e1be-8f2b-4513-82b3-2450c7c69a23"},"vehicle_type_id":"4","last_reported":1771339761,"current_range_meters":36000,"station_id":"ce4bha92rcd13ifvqeh0","pricing_plan_id":"cebpf4jnsgd1na2vs0mg"},{"bike_id":"4fffa687-113e-4c17-9149-88fa57491723","system_id":"levelo_inurba_marseille","lat":43.286134,"lon":5.35105,"is_reserved":false,"is_disabled":false,"rental_uris":{"android":"levelo://app?vid=4fffa687-113e-4c17-9149-88fa57491723","ios":"levelo://app?vid=4fffa687-113e-4c17-9149-88fa57491723"},"vehicle_type_id":"4","last_reported":1771339761,"current_range_meters":20400,"station_id":"ce4bhch2rcd13ifvqeug","pricing_plan_id":"cebpf4jnsgd1na2vs0mg"},{"bike_id":"e1973e49-c22d-4cfc-9fd1-01bb239b8af6","system_id":"levelo_inurba_marseille","lat":43.27454,"lon":5.42432,"is_reserved":false,"is_disabled":false,"rental_uris":{"android":"levelo://app?vid=e1973e49-c22d-4cfc-9fd1-01bb239b8af6","ios":"levelo://app?vid=e1973e49-c22d-4cfc-9fd1-01bb239b8af6"},"vehicle_type_id":"4","last_reported":1771339761,"current_range_meters":11200,"station_id":"","pricing_plan_id":"cebpf4jnsgd1na2vs0mg"},{"bike_id":"8e3218d0-c27a-4260-a5de-b50051b7e96e","system_id":"levelo_inurba_marseille","lat":43.30906,"lon":5.37186,"is_reserved":false,"is_disabled":false,"rental_uris":{"android":"levelo://app?vid=8e3218d0-c27a-4260-a5de-b50051b7e96e","ios":"levelo://app?vid=8e3218d0-c27a-4260-a5de-b50051b7e96e"},"vehicle_type_id":"4","last_reported":1771339761,"current_range_meters":38000,"station_id":"ce4bguh2rcd13ifvqckg","pricing_plan_id":"cebpf4jnsgd1na2vs0mg"},{"bike_id":"37a2694d-7d9d-4335-bf83-1cb89400124f","system_id":"levelo_inurba_marseille","lat":43.30071,"lon":5.39078,"is_reserved":false,"is_disabled":false,"rental_uris":{"android":"levelo://app?vid=37a2694d-7d9d-4335-bf83-1cb89400124f","ios":"levelo://app?vid=37a2694d-7d9d-4335-bf83-1cb89400124f"},"vehicle_type_id":"4","last_reported":1771339761,"current_range_meters":38400,"station_id":"ce4bh192rcd13ifvqdb0","pricing_plan_id":"cebpf4jnsgd1na2vs0mg"},{"bike_id":"f36b60bf-7ddb-4490-b4ef-1095c6b51344","system_id":"levelo_inurba_marseille","lat":43.28931,"lon":5.36644,"is_reserved":false,"is_disabled":false,"rental_uris":{"android":"levelo://app?vid=f36b60bf-7ddb-4490-b4ef-1095c6b51344","ios":"levelo://app?vid=f36b60bf-7ddb-4490-b4ef-1095c6b51344"},"vehicle_type_id":"4","last_reported":1771339761,"current_range_meters":38000,"station_id":"","pricing_plan_id":"cebpf4jnsgd1na2vs0mg"},{"bike_id":"252b9549-a329-4719-8fa9-46cd4e11de92","system_id":"levelo_inurba_marseille","lat":43.30323,"lon":5.40281,"is_reserved":false,"is_disabled":false,"rental_uris":{"android":"levelo://app?vid=252b9549-a329-4719-8fa9-46cd4e11de92","ios":"levelo://app?vid=252b9549-a329-4719-8fa9-46cd4e11de92"},"vehicle_type_id":"4","last_reported":1771339761,"current_range_meters":11600,"station_id":"","pricing_plan_id":"cebpf4jnsgd1na2vs0mg"},{"bike_id":"fea37509-4402-4e23-b34d-7f7824ead332","system_id":"levelo_inurba_marseille","lat":43.26388,"lon":5.41079,"is_reserved":false,"is_disabled":false,"rental_uris":{"android":"levelo://app?vid=fea37509-4402-4e23-b34d-7f7824ead332","ios":"levelo://app?vid=fea37509-4402-4e23-b34d-7f7824ead332"},"vehicle_type_id":"4","last_reported":1771339761,"current_range_meters":26000,"station_id":"st_d4e5ca6na9uc73bfl5fg","pricing_plan_id":"cebpf4jnsgd1na2vs0mg"},{"bike_id":"19646293-cfd9-4b47-83b4-12ec7e7f9547","system_id":"levelo_inurba_marseille","lat":43.23066,"lon":5.35495,"is_reserved":false,"is_disabled":false,"rental_uris":{"android":"levelo://app?vid=19646293-cfd9-4b47-83b4-12ec7e7f9547","ios":"levelo://app?vid=19646293-cfd9-4b47-83b4-12ec7e7f9547"},"vehicle_type_id":"4","last_reported":1771339761,"current_range_meters":35600,"station_id":"cpo3342slgdg3j2ifvpg","pricing_plan_id":"cebpf4jnsgd1na2vs0mg"},{"bike_id":"7db0bd46-cf9d-41ed-a66d-697ea006509d","system_id":"levelo_inurba_marseille","lat":43.243961,"lon":5.370441,"is_reserved":false,"is_disabled":false,"rental_uris":{"android":"levelo://app?vid=7db0bd46-cf9d-41ed-a66d-697ea006509d","ios":"levelo://app?vid=7db0bd46-cf9d-41ed-a66d-697ea006509d"},"vehicle_type_id":"4","last_reported":1771339761,"current_range_meters":27600,"station_id":"ce4bhhh2rcd13ifvqfk0","pricing_plan_id":"cebpf4jnsgd1na2vs0mg"},{"bike_id":"2378b382-40a9-4c25-b5e5-863cfb124533","system_id":"levelo_inurba_marseille","lat":43.24811,"lon":5.37447,"is_reserved":false,"is_disabled":false,"rental_uris":{"android":"levelo://app?vid=2378b382-40a9-4c25-b5e5-863cfb124533","ios":"levelo://app?vid=2378b382-40a9-4c25-b5e5-863cfb124533"},"vehicle_type_id":"4","last_reported":1771339761,"current_range_meters":39200,"station_id":"ce4bhgh2rcd13ifvqfb0","pricing_plan_id":"cebpf4jnsgd1na2vs0mg"},{"bike_id":"806ea4e8-cc70-4baf-a5d9-7617dfd81486","system_id":"levelo_inurba_marseille","lat":43.313652,"lon":5.36703,"is_reserved":false,"is_disabled":false,"rental_uris":{"android":"levelo://app?vid=806ea4e8-cc70-4baf-a5d9-7617dfd81486","ios":"levelo://app?vid=806ea4e8-cc70-4baf-a5d9-7617dfd81486"},"vehicle_type_id":"4","last_reported":1771339761,"current_range_meters":30800,"station_id":"ce4bgrh2rcd13ifvqc8g","pricing_plan_id":"cebpf4jnsgd1na2vs0mg"},{"bike_id":"f8d2885c-116f-475f-8174-7b6ecfe0dc2b","system_id":"levelo_inurba_marseille","lat":43.23795,"lon":5.36629,"is_reserved":false,"is_disabled":false,"rental_uris":{"android":"levelo://app?vid=f8d2885c-116f-475f-8174-7b6ecfe0dc2b","ios":"levelo://app?vid=f8d2885c-116f-475f-8174-7b6ecfe0dc2b"},"vehicle_type_id":"4","last_reported":1771339761,"current_range_meters":36800,"station_id":"st_d3nk18o9ro0c73en2l3g","pricing_plan_id":"cebpf4jnsgd1na2vs0mg"},{"bike_id":"a24780b7-625c-42a4-978d-0c7f5505e162","system_id":"levelo_inurba_marseille","lat":43.21738,"lon":5.34604,"is_reserved":false,"is_disabled":false,"rental_uris":{"android":"levelo://app?vid=a24780b7-625c-42a4-978d-0c7f5505e162","ios":"levelo://app?vid=a24780b7-625c-42a4-978d-0c7f5505e162"},"vehicle_type_id":"4","last_reported":1771339761,"current_range_meters":14800,"station_id":"st_cvj6r9ubvosntc0bgbag","pricing_plan_id":"cebpf4jnsgd1na2vs0mg"},{"bike_id":"4ae54365-08a4-4214-90ef-eb3c127f344d","system_id":"levelo_inurba_marseille","lat":43.25163,"lon":5.40422,"is_reserved":false,"is_disabled":false,"rental_uris":{"android":"levelo://app?vid=4ae54365-08a4-4214-90ef-eb3c127f344d","ios":"levelo://app?vid=4ae54365-08a4-4214-90ef-eb3c127f344d"},"vehicle_type_id":"4","last_reported":1771339761,"current_range_meters":39200,"station_id":"","pricing_plan_id":"cebpf4jnsgd1na2vs0mg"},{"bike_id":"e88cac66-a8de-4a2c-8b6d-22c563c696dd","system_id":"levelo_inurba_marseille","lat":43.2986,"lon":5.36268,"is_reserved":false,"is_disabled":false,"rental_uris":{"android":"levelo://app?vid=e88cac66-a8de-4a2c-8b6d-22c563c696dd","ios":"levelo://app?vid=e88cac66-a8de-4a2c-8b6d-22c563c696dd"},"vehicle_type_id":"4","last_reported":1771339761,"current_range_meters":36400,"station_id":"ce4bgpp2rcd13ifvqc3g","pricing_plan_id":"cebpf4jnsgd1na2vs0mg"},{"bike_id":"194bf67c-2c71-4a97-99ba-5bfb5643b447","system_id":"levelo_inurba_marseille","lat":43.30469,"lon":5.37915,"is_reserved":false,"is_disabled":false,"rental_uris":{"android":"levelo://app?vid=194bf67c-2c71-4a97-99ba-5bfb5643b447","ios":"levelo://app?vid=194bf67c-2c71-4a97-99ba-5bfb5643b447"},"vehicle_type_id":"4","last_reported":1771339761,"current_range_meters":32000,"station_id":"ce4bgup2rcd13ifvqcn0","pricing_plan_id":"cebpf4jnsgd1na2vs0mg"},{"bike_id":"3cb2f482-1b8c-45a9-a4e3-71d42f7a25ff","system_id":"levelo_inurba_marseille","lat":43.26546,"lon":5.37287,"is_reserved":false,"is_disabled":false,"rental_uris":{"android":"levelo://app?vid=3cb2f482-1b8c-45a9-a4e3-71d42f7a25ff","ios":"levelo://app?vid=3cb2f482-1b8c-45a9-a4e3-71d42f7a25ff"},"vehicle_type_id":"4","last_reported":1771339761,"current_range_meters":20000,"station_id":"ce4bhg12rcd13ifvqf70","pricing_plan_id":"cebpf4jnsgd1na2vs0mg"},{"bike_id":"4d4447c6-9ee2-416d-81d5-b11782af36dc","system_id":"levelo_inurba_marseille","lat":43.33729,"lon":5.39187,"is_reserved":false,"is_disabled":false,"rental_uris":{"android":"levelo://app?vid=4d4447c6-9ee2-416d-81d5-b11782af36dc","ios":"levelo://app?vid=4d4447c6-9ee2-416d-81d5-b11782af36dc"},"vehicle_type_id":"4","last_reported":1771339761,"current_range_meters":38800,"station_id":"ce4bhr92rcd13ifvqhsg","pricing_plan_id":"cebpf4jnsgd1na2vs0mg"},{"bike_id":"64d64f7c-d34c-46f8-af43-0111702ef9c4","system_id":"levelo_inurba_marseille","lat":43.24175,"lon":5.36399,"is_reserved":false,"is_disabled":false,"rental_uris":{"android":"levelo://app?vid=64d64f7c-d34c-46f8-af43-0111702ef9c4","ios":"levelo://app?vid=64d64f7c-d34c-46f8-af43-0111702ef9c4"},"vehicle_type_id":"4","last_reported":1771339761,"current_range_meters":14800,"station_id":"cpo36qri1sfpv3e86is0","pricing_plan_id":"cebpf4jnsgd1na2vs0mg"},{"bike_id":"4477481c-6ee7-4b64-a85c-b50b2241d99a","system_id":"levelo_inurba_marseille","lat":43.24378,"lon":5.37063,"is_reserved":false,"is_disabled":false,"rental_uris":{"android":"levelo://app?vid=4477481c-6ee7-4b64-a85c-b50b2241d99a","ios":"levelo://app?vid=4477481c-6ee7-4b64-a85c-b50b2241d99a"},"vehicle_type_id":"4","last_reported":1771339761,"current_range_meters":25600,"station_id":"ce4bhhh2rcd13ifvqfk0","pricing_plan_id":"cebpf4jnsgd1na2vs0mg"},{"bike_id":"afd29929-5843-479f-a37b-5f78a3261050","system_id":"levelo_inurba_marseille","lat":43.28421,"lon":5.34979,"is_reserved":false,"is_disabled":false,"rental_uris":{"android":"levelo://app?vid=afd29929-5843-479f-a37b-5f78a3261050","ios":"levelo://app?vid=afd29929-5843-479f-a37b-5f78a3261050"},"vehicle_type_id":"4","last_reported":1771339761,"current_range_meters":40000,"station_id":"ce4bhbh2rcd13ifvqepg","pricing_plan_id":"cebpf4jnsgd1na2vs0mg"},{"bike_id":"8fd7d5e4-5e36-4277-b24d-f171cf14d05e","system_id":"levelo_inurba_marseille","lat":43.25935,"lon":5.40908,"is_reserved":false,"is_disabled":false,"rental_uris":{"android":"levelo://app?vid=8fd7d5e4-5e36-4277-b24d-f171cf14d05e","ios":"levelo://app?vid=8fd7d5e4-5e36-4277-b24d-f171cf14d05e"},"vehicle_type_id":"4","last_reported":1771339761,"current_range_meters":28000,"station_id":"ce4bhm92rcd13ifvqglg","pricing_plan_id":"cebpf4jnsgd1na2vs0mg"},{"bike_id":"9446d1a6-70a2-41fe-a976-a0fbcd497177","system_id":"levelo_inurba_marseille","lat":43.290823,"lon":5.381682,"is_reserved":false,"is_disabled":false,"rental_uris":{"android":"levelo://app?vid=9446d1a6-70a2-41fe-a976-a0fbcd497177","ios":"levelo://app?vid=9446d1a6-70a2-41fe-a976-a0fbcd497177"},"vehicle_type_id":"4","last_reported":1771339761,"current_range_meters":30000,"station_id":"ce4bha12rcd13ifvqee0","pricing_plan_id":"cebpf4jnsgd1na2vs0mg"},{"bike_id":"154563d7-c416-4fa7-a542-c2fa7f9eacbc","system_id":"levelo_inurba_marseille","lat":43.284748,"lon":5.484024,"is_reserved":false,"is_disabled":false,"rental_uris":{"android":"levelo://app?vid=154563d7-c416-4fa7-a542-c2fa7f9eacbc","ios":"levelo://app?vid=154563d7-c416-4fa7-a542-c2fa7f9eacbc"},"vehicle_type_id":"4","last_reported":1771339761,"current_range_meters":30800,"station_id":"","pricing_plan_id":"cebpf4jnsgd1na2vs0mg"},{"bike_id":"adbf2a97-4903-4396-9f3c-19ac4019d5fa","system_id":"levelo_inurba_marseille","lat":43.27366,"lon":5.36244,"is_reserved":false,"is_disabled":false,"rental_uris":{"android":"levelo://app?vid=adbf2a97-4903-4396-9f3c-19ac4019d5fa","ios":"levelo://app?vid=adbf2a97-4903-4396-9f3c-19ac4019d5fa"},"vehicle_type_id":"4","last_reported":1771339761,"current_range_meters":26800,"station_id":"ce4bhbh2rcd13ifvqeo0","pricing_plan_id":"cebpf4jnsgd1na2vs0mg"},{"bike_id":"a030f5e8-c9e4-4366-8c6b-f63ebdf2c07e","system_id":"levelo_inurba_marseille","lat":43.30297,"lon":5.39211,"is_reserved":false,"is_disabled":false,"rental_uris":{"android":"levelo://app?vid=a030f5e8-c9e4-4366-8c6b-f63ebdf2c07e","ios":"levelo://app?vid=a030f5e8-c9e4-4366-8c6b-f63ebdf2c07e"},"vehicle_type_id":"4","last_reported":1771339761,"current_range_meters":37600,"station_id":"ce4bgkh2rcd13ifvqbk0","pricing_plan_id":"cebpf4jnsgd1na2vs0mg"},{"bike_id":"b20b74a5-2b7e-49d3-ae44-1cf4c91f5db3","system_id":"levelo_inurba_marseille","lat":43.2254,"lon":5.41623,"is_reserved":false,"is_disabled":false,"rental_uris":{"android":"levelo://app?vid=b20b74a5-2b7e-49d3-ae44-1cf4c91f5db3","ios":"levelo://app?vid=b20b74a5-2b7e-49d3-ae44-1cf4c91f5db3"},"vehicle_type_id":"4","last_reported":1771339761,"current_range_meters":6400,"station_id":"st_d2o4gvlbi1j2169b742g","pricing_plan_id":"cebpf4jnsgd1na2vs0mg"},{"bike_id":"220cefcc-9413-4a04-8be2-d38b460fccf6","system_id":"levelo_inurba_marseille","lat":43.26507,"lon":5.39519,"is_reserved":false,"is_disabled":false,"rental_uris":{"android":"levelo://app?vid=220cefcc-9413-4a04-8be2-d38b460fccf6","ios":"levelo://app?vid=220cefcc-9413-4a04-8be2-d38b460fccf6"},"vehicle_type_id":"4","last_reported":1771339761,"current_range_meters":33200,"station_id":"ce4bhi12rcd13ifvqfq0","pricing_plan_id":"cebpf4jnsgd1na2vs0mg"},{"bike_id":"016e4389-a149-4190-8f7a-e29c62519426","system_id":"levelo_inurba_marseille","lat":43.31078,"lon":5.4244,"is_reserved":false,"is_disabled":false,"rental_uris":{"android":"levelo://app?vid=016e4389-a149-4190-8f7a-e29c62519426","ios":"levelo://app?vid=016e4389-a149-4190-8f7a-e29c62519426"},"vehicle_type_id":"4","last_reported":1771339761,"current_range_meters":24800,"station_id":"ce4bhp92rcd13ifvqhag","pricing_plan_id":"cebpf4jnsgd1na2vs0mg"},{"bike_id":"80933797-c23a-4a0d-a503-c2330c3fda73","system_id":"levelo_inurba_marseille","lat":43.31166,"lon":5.38712,"is_reserved":false,"is_disabled":false,"rental_uris":{"android":"levelo://app?vid=80933797-c23a-4a0d-a503-c2330c3fda73","ios":"levelo://app?vid=80933797-c23a-4a0d-a503-c2330c3fda73"},"vehicle_type_id":"4","last_reported":1771339761,"current_range_meters":23200,"station_id":"ce4bgv12rcd13ifvqcp0","pricing_plan_id":"cebpf4jnsgd1na2vs0mg"},{"bike_id":"d541d312-8957-468f-98f5-5438278aaf0a","system_id":"levelo_inurba_marseille","lat":43.30306,"lon":5.36886,"is_reserved":false,"is_disabled":false,"rental_uris":{"android":"levelo://app?vid=d541d312-8957-468f-98f5-5438278aaf0a","ios":"levelo://app?vid=d541d312-8957-468f-98f5-5438278aaf0a"},"vehicle_type_id":"4","last_reported":1771339761,"current_range_meters":24000,"station_id":"ce4bgqh2rcd13ifvqc5g","pricing_plan_id":"cebpf4jnsgd1na2vs0mg"},{"bike_id":"dcfc4996-4d68-4874-bf59-5ac226b21e31","system_id":"levelo_inurba_marseille","lat":43.29194,"lon":5.35793,"is_reserved":false,"is_disabled":false,"rental_uris":{"android":"levelo://app?vid=dcfc4996-4d68-4874-bf59-5ac226b21e31","ios":"levelo://app?vid=dcfc4996-4d68-4874-bf59-5ac226b21e31"},"vehicle_type_id":"4","last_reported":1771339761,"current_range_meters":37600,"station_id":"ce4bhb12rcd13ifvqel0","pricing_plan_id":"cebpf4jnsgd1na2vs0mg"},{"bike_id":"6d140d62-16ab-4a82-937e-9d3a8535c1c0","system_id":"levelo_inurba_marseille","lat":43.29751,"lon":5.37647,"is_reserved":false,"is_disabled":false,"rental_uris":{"android":"levelo://app?vid=6d140d62-16ab-4a82-937e-9d3a8535c1c0","ios":"levelo://app?vid=6d140d62-16ab-4a82-937e-9d3a8535c1c0"},"vehicle_type_id":"4","last_reported":1771339761,"current_range_meters":36400,"station_id":"ce4bgkh2rcd13ifvqbl0","pricing_plan_id":"cebpf4jnsgd1na2vs0mg"},{"bike_id":"94a8d388-1c91-4996-a003-85cbae6522ee","system_id":"levelo_inurba_marseille","lat":43.29733,"lon":5.37683,"is_reserved":false,"is_disabled":false,"rental_uris":{"android":"levelo://app?vid=94a8d388-1c91-4996-a003-85cbae6522ee","ios":"levelo://app?vid=94a8d388-1c91-4996-a003-85cbae6522ee"},"vehicle_type_id":"4","last_reported":1771339761,"current_range_meters":20400,"station_id":"ce4bgkh2rcd13ifvqbl0","pricing_plan_id":"cebpf4jnsgd1na2vs0mg"},{"bike_id":"f1e7c9fe-0e47-442c-8590-d80fc5ca8f40","system_id":"levelo_inurba_marseille","lat":43.29273,"lon":5.40112,"is_reserved":false,"is_disabled":false,"rental_uris":{"android":"levelo://app?vid=f1e7c9fe-0e47-442c-8590-d80fc5ca8f40","ios":"levelo://app?vid=f1e7c9fe-0e47-442c-8590-d80fc5ca8f40"},"vehicle_type_id":"4","last_reported":1771339761,"current_range_meters":14000,"station_id":"ce4bh312rcd13ifvqdk0","pricing_plan_id":"cebpf4jnsgd1na2vs0mg"},{"bike_id":"d2caf9d8-1a11-4658-97a9-300561939203","system_id":"levelo_inurba_marseille","lat":43.22949,"lon":5.35384,"is_reserved":false,"is_disabled":false,"rental_uris":{"android":"levelo://app?vid=d2caf9d8-1a11-4658-97a9-300561939203","ios":"levelo://app?vid=d2caf9d8-1a11-4658-97a9-300561939203"},"vehicle_type_id":"4","last_reported":1771339761,"current_range_meters":36800,"station_id":"cpo3532slgdg3j2ikp40","pricing_plan_id":"cebpf4jnsgd1na2vs0mg"},{"bike_id":"9b504849-e43e-43df-8f03-b64e5ebf8c90","system_id":"levelo_inurba_marseille","lat":43.27184,"lon":5.40991,"is_reserved":false,"is_disabled":false,"rental_uris":{"android":"levelo://app?vid=9b504849-e43e-43df-8f03-b64e5ebf8c90","ios":"levelo://app?vid=9b504849-e43e-43df-8f03-b64e5ebf8c90"},"vehicle_type_id":"4","last_reported":1771339761,"current_range_meters":24800,"station_id":"ce4bhl12rcd13ifvqgf0","pricing_plan_id":"cebpf4jnsgd1na2vs0mg"},{"bike_id":"73f39b70-e25a-4c4a-9ff6-a27aae42831f","system_id":"levelo_inurba_marseille","lat":43.25337,"lon":5.42175,"is_reserved":false,"is_disabled":false,"rental_uris":{"android":"levelo://app?vid=73f39b70-e25a-4c4a-9ff6-a27aae42831f","ios":"levelo://app?vid=73f39b70-e25a-4c4a-9ff6-a27aae42831f"},"vehicle_type_id":"4","last_reported":1771339761,"current_range_meters":29600,"station_id":"st_d2m65c5bi1j21697t3ng","pricing_plan_id":"cebpf4jnsgd1na2vs0mg"},{"bike_id":"472dcd76-c5dc-4ecc-832a-59e8b916cd2b","system_id":"levelo_inurba_marseille","lat":43.30931,"lon":5.36843,"is_reserved":false,"is_disabled":false,"rental_uris":{"android":"levelo://app?vid=472dcd76-c5dc-4ecc-832a-59e8b916cd2b","ios":"levelo://app?vid=472dcd76-c5dc-4ecc-832a-59e8b916cd2b"},"vehicle_type_id":"4","last_reported":1771339761,"current_range_meters":39200,"station_id":"ce4bgn92rcd13ifvqbvg","pricing_plan_id":"cebpf4jnsgd1na2vs0mg"},{"bike_id":"8af641e4-d82a-4077-979c-1f2ae4621f62","system_id":"levelo_inurba_marseille","lat":43.31069,"lon":5.3717,"is_reserved":false,"is_disabled":false,"rental_uris":{"android":"levelo://app?vid=8af641e4-d82a-4077-979c-1f2ae4621f62","ios":"levelo://app?vid=8af641e4-d82a-4077-979c-1f2ae4621f62"},"vehicle_type_id":"4","last_reported":1771339761,"current_range_meters":39200,"station_id":"st_d4kl2rp97mjs73e7tdfg","pricing_plan_id":"cebpf4jnsgd1na2vs0mg"},{"bike_id":"507ce022-85de-4ed8-908d-08da68ccca13","system_id":"levelo_inurba_marseille","lat":43.28263,"lon":5.35087,"is_reserved":false,"is_disabled":false,"rental_uris":{"android":"levelo://app?vid=507ce022-85de-4ed8-908d-08da68ccca13","ios":"levelo://app?vid=507ce022-85de-4ed8-908d-08da68ccca13"},"vehicle_type_id":"4","last_reported":1771339761,"current_range_meters":30000,"station_id":"ce4bhbp2rcd13ifvqerg","pricing_plan_id":"cebpf4jnsgd1na2vs0mg"},{"bike_id":"0c211266-2e86-4aab-8c01-30d00ac68e5e","system_id":"levelo_inurba_marseille","lat":43.30144,"lon":5.37413,"is_reserved":false,"is_disabled":false,"rental_uris":{"android":"levelo://app?vid=0c211266-2e86-4aab-8c01-30d00ac68e5e","ios":"levelo://app?vid=0c211266-2e86-4aab-8c01-30d00ac68e5e"},"vehicle_type_id":"4","last_reported":1771339761,"current_range_meters":26000,"station_id":"ce4bgs92rcd13ifvqcc0","pricing_plan_id":"cebpf4jnsgd1na2vs0mg"},{"bike_id":"3eaaa7aa-3c6b-4267-a378-f046e864b6d2","system_id":"levelo_inurba_marseille","lat":43.26246,"lon":5.37433,"is_reserved":false,"is_disabled":false,"rental_uris":{"android":"levelo://app?vid=3eaaa7aa-3c6b-4267-a378-f046e864b6d2","ios":"levelo://app?vid=3eaaa7aa-3c6b-4267-a378-f046e864b6d2"},"vehicle_type_id":"4","last_reported":1771339761,"current_range_meters":39200,"station_id":"","pricing_plan_id":"cebpf4jnsgd1na2vs0mg"},{"bike_id":"3d19d051-9c69-4dd3-a796-64032958d6a2","system_id":"levelo_inurba_marseille","lat":43.30303,"lon":5.36897,"is_reserved":false,"is_disabled":false,"rental_uris":{"android":"levelo://app?vid=3d19d051-9c69-4dd3-a796-64032958d6a2","ios":"levelo://app?vid=3d19d051-9c69-4dd3-a796-64032958d6a2"},"vehicle_type_id":"4","last_reported":1771339761,"current_range_meters":26800,"station_id":"ce4bgqh2rcd13ifvqc5g","pricing_plan_id":"cebpf4jnsgd1na2vs0mg"},{"bike_id":"38c77bad-2974-430e-b0cc-cadbbf837617","system_id":"levelo_inurba_marseille","lat":43.284803,"lon":5.48402,"is_reserved":false,"is_disabled":false,"rental_uris":{"android":"levelo://app?vid=38c77bad-2974-430e-b0cc-cadbbf837617","ios":"levelo://app?vid=38c77bad-2974-430e-b0cc-cadbbf837617"},"vehicle_type_id":"4","last_reported":1771339761,"current_range_meters":18000,"station_id":"","pricing_plan_id":"cebpf4jnsgd1na2vs0mg"},{"bike_id":"bc6313ce-5a3b-4ba3-9305-fec98e88c524","system_id":"levelo_inurba_marseille","lat":43.31357,"lon":5.36719,"is_reserved":false,"is_disabled":false,"rental_uris":{"android":"levelo://app?vid=bc6313ce-5a3b-4ba3-9305-fec98e88c524","ios":"levelo://app?vid=bc6313ce-5a3b-4ba3-9305-fec98e88c524"},"vehicle_type_id":"4","last_reported":1771339761,"current_range_meters":12800,"station_id":"ce4bgr92rcd13ifvqc6g","pricing_plan_id":"cebpf4jnsgd1na2vs0mg"},{"bike_id":"4693e126-93ce-4372-b240-7b332bbc253a","system_id":"levelo_inurba_marseille","lat":43.2828,"lon":5.35055,"is_reserved":false,"is_disabled":false,"rental_uris":{"android":"levelo://app?vid=4693e126-93ce-4372-b240-7b332bbc253a","ios":"levelo://app?vid=4693e126-93ce-4372-b240-7b332bbc253a"},"vehicle_type_id":"4","last_reported":1771339761,"current_range_meters":21600,"station_id":"ce4bhbp2rcd13ifvqerg","pricing_plan_id":"cebpf4jnsgd1na2vs0mg"},{"bike_id":"2ea5431f-0988-485c-837b-d7ce73f299ab","system_id":"levelo_inurba_marseille","lat":43.29034,"lon":5.39979,"is_reserved":false,"is_disabled":false,"rental_uris":{"android":"levelo://app?vid=2ea5431f-0988-485c-837b-d7ce73f299ab","ios":"levelo://app?vid=2ea5431f-0988-485c-837b-d7ce73f299ab"},"vehicle_type_id":"4","last_reported":1771339761,"current_range_meters":33600,"station_id":"ce4bh392rcd13ifvqdm0","pricing_plan_id":"cebpf4jnsgd1na2vs0mg"},{"bike_id":"23a5d8b2-5d92-496a-9a62-b8e87153a64f","system_id":"levelo_inurba_marseille","lat":43.31189,"lon":5.36897,"is_reserved":false,"is_disabled":false,"rental_uris":{"android":"levelo://app?vid=23a5d8b2-5d92-496a-9a62-b8e87153a64f","ios":"levelo://app?vid=23a5d8b2-5d92-496a-9a62-b8e87153a64f"},"vehicle_type_id":"4","last_reported":1771339761,"current_range_meters":39200,"station_id":"ce4bgl92rcd13ifvqbq0","pricing_plan_id":"cebpf4jnsgd1na2vs0mg"},{"bike_id":"22d1bb3b-f1af-43f7-bfee-dba1d668695b","system_id":"levelo_inurba_marseille","lat":43.26569,"lon":5.38999,"is_reserved":false,"is_disabled":false,"rental_uris":{"android":"levelo://app?vid=22d1bb3b-f1af-43f7-bfee-dba1d668695b","ios":"levelo://app?vid=22d1bb3b-f1af-43f7-bfee-dba1d668695b"},"vehicle_type_id":"4","last_reported":1771339761,"current_range_meters":18000,"station_id":"ce4bhe12rcd13ifvqf30","pricing_plan_id":"cebpf4jnsgd1na2vs0mg"},{"bike_id":"0fccf6f3-5a00-4f18-98b7-b12a3b845d9d","system_id":"levelo_inurba_marseille","lat":43.29197,"lon":5.35793,"is_reserved":false,"is_disabled":false,"rental_uris":{"android":"levelo://app?vid=0fccf6f3-5a00-4f18-98b7-b12a3b845d9d","ios":"levelo://app?vid=0fccf6f3-5a00-4f18-98b7-b12a3b845d9d"},"vehicle_type_id":"4","last_reported":1771339761,"current_range_meters":20800,"station_id":"ce4bhb12rcd13ifvqel0","pricing_plan_id":"cebpf4jnsgd1na2vs0mg"},{"bike_id":"68274cbd-590c-45aa-9a28-61b725a4285b","system_id":"levelo_inurba_marseille","lat":43.24176,"lon":5.36407,"is_reserved":false,"is_disabled":true,"rental_uris":{"android":"levelo://app?vid=68274cbd-590c-45aa-9a28-61b725a4285b","ios":"levelo://app?vid=68274cbd-590c-45aa-9a28-61b725a4285b"},"vehicle_type_id":"4","last_reported":1771339761,"current_range_meters":23200,"station_id":"cpo36qri1sfpv3e86is0","pricing_plan_id":"cebpf4jnsgd1na2vs0mg"},{"bike_id":"857c7d11-3524-4da5-b221-9c94477406af","system_id":"levelo_inurba_marseille","lat":43.26681,"lon":5.38269,"is_reserved":false,"is_disabled":false,"rental_uris":{"android":"levelo://app?vid=857c7d11-3524-4da5-b221-9c94477406af","ios":"levelo://app?vid=857c7d11-3524-4da5-b221-9c94477406af"},"vehicle_type_id":"4","last_reported":1771339761,"current_range_meters":38800,"station_id":"ce4bhg92rcd13ifvqf90","pricing_plan_id":"cebpf4jnsgd1na2vs0mg"},{"bike_id":"48976bec-2fb1-4ae0-ab03-7197793fa6d6","system_id":"levelo_inurba_marseille","lat":43.27076,"lon":5.40255,"is_reserved":false,"is_disabled":false,"rental_uris":{"android":"levelo://app?vid=48976bec-2fb1-4ae0-ab03-7197793fa6d6","ios":"levelo://app?vid=48976bec-2fb1-4ae0-ab03-7197793fa6d6"},"vehicle_type_id":"4","last_reported":1771339761,"current_range_meters":17600,"station_id":"ce4bhk92rcd13ifvqgc0","pricing_plan_id":"cebpf4jnsgd1na2vs0mg"},{"bike_id":"6519ffcc-e63c-44b1-aec4-9b1a3b8e7dba","system_id":"levelo_inurba_marseille","lat":43.25576,"lon":5.3825,"is_reserved":false,"is_disabled":false,"rental_uris":{"android":"levelo://app?vid=6519ffcc-e63c-44b1-aec4-9b1a3b8e7dba","ios":"levelo://app?vid=6519ffcc-e63c-44b1-aec4-9b1a3b8e7dba"},"vehicle_type_id":"4","last_reported":1771339761,"current_range_meters":29600,"station_id":"ce4bhih2rcd13ifvqfs0","pricing_plan_id":"cebpf4jnsgd1na2vs0mg"},{"bike_id":"e8a5920d-db53-4487-8b9c-9e53d6197c17","system_id":"levelo_inurba_marseille","lat":43.29589,"lon":5.37505,"is_reserved":false,"is_disabled":false,"rental_uris":{"android":"levelo://app?vid=e8a5920d-db53-4487-8b9c-9e53d6197c17","ios":"levelo://app?vid=e8a5920d-db53-4487-8b9c-9e53d6197c17"},"vehicle_type_id":"4","last_reported":1771339761,"current_range_meters":32400,"station_id":"ce4bgh92rcd13ifvqb50","pricing_plan_id":"cebpf4jnsgd1na2vs0mg"},{"bike_id":"62fa60e4-871f-4c91-8a1a-bd1faf4d3dcb","system_id":"levelo_inurba_marseille","lat":43.29518,"lon":5.37513,"is_reserved":false,"is_disabled":false,"rental_uris":{"android":"levelo://app?vid=62fa60e4-871f-4c91-8a1a-bd1faf4d3dcb","ios":"levelo://app?vid=62fa60e4-871f-4c91-8a1a-bd1faf4d3dcb"},"vehicle_type_id":"4","last_reported":1771339761,"current_range_meters":24000,"station_id":"ce4bgkp2rcd13ifvqbmg","pricing_plan_id":"cebpf4jnsgd1na2vs0mg"},{"bike_id":"338c7f56-c85e-4b1a-8df7-5303f5bf4c0a","system_id":"levelo_inurba_marseille","lat":43.25946,"lon":5.40898,"is_reserved":false,"is_disabled":false,"rental_uris":{"android":"levelo://app?vid=338c7f56-c85e-4b1a-8df7-5303f5bf4c0a","ios":"levelo://app?vid=338c7f56-c85e-4b1a-8df7-5303f5bf4c0a"},"vehicle_type_id":"4","last_reported":1771339761,"current_range_meters":28400,"station_id":"ce4bhm92rcd13ifvqglg","pricing_plan_id":"cebpf4jnsgd1na2vs0mg"},{"bike_id":"43ee0588-c27a-4ccf-a93d-19fae64c8940","system_id":"levelo_inurba_marseille","lat":43.26055,"lon":5.39394,"is_reserved":false,"is_disabled":false,"rental_uris":{"android":"levelo://app?vid=43ee0588-c27a-4ccf-a93d-19fae64c8940","ios":"levelo://app?vid=43ee0588-c27a-4ccf-a93d-19fae64c8940"},"vehicle_type_id":"4","last_reported":1771339761,"current_range_meters":39200,"station_id":"ce4bhh92rcd13ifvqfj0","pricing_plan_id":"cebpf4jnsgd1na2vs0mg"},{"bike_id":"73d41656-8f68-4c36-bf2d-7cd7c2e2914e","system_id":"levelo_inurba_marseille","lat":43.21744,"lon":5.34603,"is_reserved":false,"is_disabled":false,"rental_uris":{"android":"levelo://app?vid=73d41656-8f68-4c36-bf2d-7cd7c2e2914e","ios":"levelo://app?vid=73d41656-8f68-4c36-bf2d-7cd7c2e2914e"},"vehicle_type_id":"4","last_reported":1771339761,"current_range_meters":25200,"station_id":"st_cvj6r9ubvosntc0bgbag","pricing_plan_id":"cebpf4jnsgd1na2vs0mg"},{"bike_id":"e9991c87-6785-4dbb-814f-912667b2e07d","system_id":"levelo_inurba_marseille","lat":43.27077,"lon":5.42273,"is_reserved":false,"is_disabled":false,"rental_uris":{"android":"levelo://app?vid=e9991c87-6785-4dbb-814f-912667b2e07d","ios":"levelo://app?vid=e9991c87-6785-4dbb-814f-912667b2e07d"},"vehicle_type_id":"4","last_reported":1771339761,"current_range_meters":8800,"station_id":"ce4bhk92rcd13ifvqgb0","pricing_plan_id":"cebpf4jnsgd1na2vs0mg"},{"bike_id":"edbf0147-5641-4660-88a0-f574f1df2bf4","system_id":"levelo_inurba_marseille","lat":43.29924,"lon":5.37471,"is_reserved":false,"is_disabled":false,"rental_uris":{"android":"levelo://app?vid=edbf0147-5641-4660-88a0-f574f1df2bf4","ios":"levelo://app?vid=edbf0147-5641-4660-88a0-f574f1df2bf4"},"vehicle_type_id":"4","last_reported":1771339761,"current_range_meters":38800,"station_id":"ce4bgjh2rcd13ifvqbg0","pricing_plan_id":"cebpf4jnsgd1na2vs0mg"},{"bike_id":"a9332dc8-2603-4017-97e7-ba9a879845c8","system_id":"levelo_inurba_marseille","lat":43.29849,"lon":5.36253,"is_reserved":false,"is_disabled":false,"rental_uris":{"android":"levelo://app?vid=a9332dc8-2603-4017-97e7-ba9a879845c8","ios":"levelo://app?vid=a9332dc8-2603-4017-97e7-ba9a879845c8"},"vehicle_type_id":"4","last_reported":1771339761,"current_range_meters":38400,"station_id":"ce4bgpp2rcd13ifvqc3g","pricing_plan_id":"cebpf4jnsgd1na2vs0mg"},{"bike_id":"62c4ee00-00d3-4573-89db-bcd49a4e4fd7","system_id":"levelo_inurba_marseille","lat":43.270718,"lon":5.422798,"is_reserved":false,"is_disabled":false,"rental_uris":{"android":"levelo://app?vid=62c4ee00-00d3-4573-89db-bcd49a4e4fd7","ios":"levelo://app?vid=62c4ee00-00d3-4573-89db-bcd49a4e4fd7"},"vehicle_type_id":"4","last_reported":1771339761,"current_range_meters":36400,"station_id":"ce4bhk92rcd13ifvqgb0","pricing_plan_id":"cebpf4jnsgd1na2vs0mg"},{"bike_id":"06834456-ec30-4ca1-a35a-7ea78a344f07","system_id":"levelo_inurba_marseille","lat":43.28268,"lon":5.35059,"is_reserved":false,"is_disabled":false,"rental_uris":{"android":"levelo://app?vid=06834456-ec30-4ca1-a35a-7ea78a344f07","ios":"levelo://app?vid=06834456-ec30-4ca1-a35a-7ea78a344f07"},"vehicle_type_id":"4","last_reported":1771339761,"current_range_meters":24800,"station_id":"ce4bhbp2rcd13ifvqerg","pricing_plan_id":"cebpf4jnsgd1na2vs0mg"},{"bike_id":"3fd2dd40-5163-4f1b-a121-2862049defe9","system_id":"levelo_inurba_marseille","lat":43.30248,"lon":5.39476,"is_reserved":false,"is_disabled":false,"rental_uris":{"android":"levelo://app?vid=3fd2dd40-5163-4f1b-a121-2862049defe9","ios":"levelo://app?vid=3fd2dd40-5163-4f1b-a121-2862049defe9"},"vehicle_type_id":"4","last_reported":1771339761,"current_range_meters":38800,"station_id":"ce4bh0p2rcd13ifvqd70","pricing_plan_id":"cebpf4jnsgd1na2vs0mg"},{"bike_id":"ae05e13e-cd6f-4fe3-8a98-de177855ffa1","system_id":"levelo_inurba_marseille","lat":43.30161,"lon":5.37395,"is_reserved":false,"is_disabled":false,"rental_uris":{"android":"levelo://app?vid=ae05e13e-cd6f-4fe3-8a98-de177855ffa1","ios":"levelo://app?vid=ae05e13e-cd6f-4fe3-8a98-de177855ffa1"},"vehicle_type_id":"4","last_reported":1771339761,"current_range_meters":17600,"station_id":"ce4bgs92rcd13ifvqcc0","pricing_plan_id":"cebpf4jnsgd1na2vs0mg"},{"bike_id":"0cfceae5-a32b-4c1f-b802-b5e4660a01e1","system_id":"levelo_inurba_marseille","lat":43.28856,"lon":5.35848,"is_reserved":false,"is_disabled":false,"rental_uris":{"android":"levelo://app?vid=0cfceae5-a32b-4c1f-b802-b5e4660a01e1","ios":"levelo://app?vid=0cfceae5-a32b-4c1f-b802-b5e4660a01e1"},"vehicle_type_id":"4","last_reported":1771339761,"current_range_meters":38000,"station_id":"ce4bhb12rcd13ifvqem0","pricing_plan_id":"cebpf4jnsgd1na2vs0mg"},{"bike_id":"f7255593-2ef8-45db-9c78-ec6c31139027","system_id":"levelo_inurba_marseille","lat":43.26188,"lon":5.37446,"is_reserved":false,"is_disabled":false,"rental_uris":{"android":"levelo://app?vid=f7255593-2ef8-45db-9c78-ec6c31139027","ios":"levelo://app?vid=f7255593-2ef8-45db-9c78-ec6c31139027"},"vehicle_type_id":"4","last_reported":1771339761,"current_range_meters":5600,"station_id":"ce4bhgp2rcd13ifvqfc0","pricing_plan_id":"cebpf4jnsgd1na2vs0mg"},{"bike_id":"c17f44cd-8a4b-4c4e-90da-1b538fcc39f6","system_id":"levelo_inurba_marseille","lat":43.297003,"lon":5.376916,"is_reserved":false,"is_disabled":false,"rental_uris":{"android":"levelo://app?vid=c17f44cd-8a4b-4c4e-90da-1b538fcc39f6","ios":"levelo://app?vid=c17f44cd-8a4b-4c4e-90da-1b538fcc39f6"},"vehicle_type_id":"4","last_reported":1771339761,"current_range_meters":34000,"station_id":"ce4bh4p2rcd13ifvqe1g","pricing_plan_id":"cebpf4jnsgd1na2vs0mg"},{"bike_id":"5c72476a-9212-4c44-ab1d-c5117cf2ed5f","system_id":"levelo_inurba_marseille","lat":43.33539,"lon":5.37469,"is_reserved":false,"is_disabled":false,"rental_uris":{"android":"levelo://app?vid=5c72476a-9212-4c44-ab1d-c5117cf2ed5f","ios":"levelo://app?vid=5c72476a-9212-4c44-ab1d-c5117cf2ed5f"},"vehicle_type_id":"4","last_reported":1771339761,"current_range_meters":28000,"station_id":"st_d46tts09ee8s73dlu43g","pricing_plan_id":"cebpf4jnsgd1na2vs0mg"},{"bike_id":"fc01cc9d-533a-4c48-813b-04abe2bf0ba6","system_id":"levelo_inurba_marseille","lat":43.29763,"lon":5.42783,"is_reserved":false,"is_disabled":false,"rental_uris":{"android":"levelo://app?vid=fc01cc9d-533a-4c48-813b-04abe2bf0ba6","ios":"levelo://app?vid=fc01cc9d-533a-4c48-813b-04abe2bf0ba6"},"vehicle_type_id":"4","last_reported":1771339761,"current_range_meters":36000,"station_id":"st_d3md5207bmas73dh9klg","pricing_plan_id":"cebpf4jnsgd1na2vs0mg"},{"bike_id":"70afdb7a-2531-4000-8ef9-4171bf9f2514","system_id":"levelo_inurba_marseille","lat":43.24824,"lon":5.374421,"is_reserved":false,"is_disabled":false,"rental_uris":{"android":"levelo://app?vid=70afdb7a-2531-4000-8ef9-4171bf9f2514","ios":"levelo://app?vid=70afdb7a-2531-4000-8ef9-4171bf9f2514"},"vehicle_type_id":"4","last_reported":1771339761,"current_range_meters":24000,"station_id":"ce4bhgh2rcd13ifvqfb0","pricing_plan_id":"cebpf4jnsgd1na2vs0mg"},{"bike_id":"88154445-c431-462f-8428-0fdfe7013aae","system_id":"levelo_inurba_marseille","lat":43.27376,"lon":5.36248,"is_reserved":false,"is_disabled":false,"rental_uris":{"android":"levelo://app?vid=88154445-c431-462f-8428-0fdfe7013aae","ios":"levelo://app?vid=88154445-c431-462f-8428-0fdfe7013aae"},"vehicle_type_id":"4","last_reported":1771339761,"current_range_meters":39200,"station_id":"ce4bhbh2rcd13ifvqeo0","pricing_plan_id":"cebpf4jnsgd1na2vs0mg"},{"bike_id":"cb5a1d3f-21f3-44dc-add1-41409c9d878b","system_id":"levelo_inurba_marseille","lat":43.30157,"lon":5.37378,"is_reserved":false,"is_disabled":false,"rental_uris":{"android":"levelo://app?vid=cb5a1d3f-21f3-44dc-add1-41409c9d878b","ios":"levelo://app?vid=cb5a1d3f-21f3-44dc-add1-41409c9d878b"},"vehicle_type_id":"4","last_reported":1771339761,"current_range_meters":39200,"station_id":"ce4bgs92rcd13ifvqcc0","pricing_plan_id":"cebpf4jnsgd1na2vs0mg"},{"bike_id":"819da65f-4600-4ae7-b59f-7223a1bca979","system_id":"levelo_inurba_marseille","lat":43.24838,"lon":5.374551,"is_reserved":false,"is_disabled":false,"rental_uris":{"android":"levelo://app?vid=819da65f-4600-4ae7-b59f-7223a1bca979","ios":"levelo://app?vid=819da65f-4600-4ae7-b59f-7223a1bca979"},"vehicle_type_id":"4","last_reported":1771339761,"current_range_meters":39200,"station_id":"ce4bhgh2rcd13ifvqfb0","pricing_plan_id":"cebpf4jnsgd1na2vs0mg"},{"bike_id":"c6b89208-df95-4016-b6a6-e7860bb27cba","system_id":"levelo_inurba_marseille","lat":43.33704,"lon":5.37137,"is_reserved":false,"is_disabled":false,"rental_uris":{"android":"levelo://app?vid=c6b89208-df95-4016-b6a6-e7860bb27cba","ios":"levelo://app?vid=c6b89208-df95-4016-b6a6-e7860bb27cba"},"vehicle_type_id":"4","last_reported":1771339761,"current_range_meters":28400,"station_id":"","pricing_plan_id":"cebpf4jnsgd1na2vs0mg"},{"bike_id":"d38fe93b-9e78-4f1d-b3ec-553113951abf","system_id":"levelo_inurba_marseille","lat":43.25661,"lon":5.38275,"is_reserved":false,"is_disabled":false,"rental_uris":{"android":"levelo://app?vid=d38fe93b-9e78-4f1d-b3ec-553113951abf","ios":"levelo://app?vid=d38fe93b-9e78-4f1d-b3ec-553113951abf"},"vehicle_type_id":"4","last_reported":1771339761,"current_range_meters":25200,"station_id":"","pricing_plan_id":"cebpf4jnsgd1na2vs0mg"},{"bike_id":"cba59a9d-c58d-4a67-a69b-b0c3f03357f2","system_id":"levelo_inurba_marseille","lat":43.33125,"lon":5.39271,"is_reserved":false,"is_disabled":false,"rental_uris":{"android":"levelo://app?vid=cba59a9d-c58d-4a67-a69b-b0c3f03357f2","ios":"levelo://app?vid=cba59a9d-c58d-4a67-a69b-b0c3f03357f2"},"vehicle_type_id":"4","last_reported":1771339761,"current_range_meters":20400,"station_id":"","pricing_plan_id":"cebpf4jnsgd1na2vs0mg"},{"bike_id":"0d56c936-b384-4851-bbb5-943b49818f15","system_id":"levelo_inurba_marseille","lat":43.28602,"lon":5.35152,"is_reserved":false,"is_disabled":false,"rental_uris":{"android":"levelo://app?vid=0d56c936-b384-4851-bbb5-943b49818f15","ios":"levelo://app?vid=0d56c936-b384-4851-bbb5-943b49818f15"},"vehicle_type_id":"4","last_reported":1771339761,"current_range_meters":12000,"station_id":"ce4bhch2rcd13ifvqeug","pricing_plan_id":"cebpf4jnsgd1na2vs0mg"},{"bike_id":"37e06210-33d1-49b6-b4b7-edff021bda30","system_id":"levelo_inurba_marseille","lat":43.32106,"lon":5.36738,"is_reserved":false,"is_disabled":false,"rental_uris":{"android":"levelo://app?vid=37e06210-33d1-49b6-b4b7-edff021bda30","ios":"levelo://app?vid=37e06210-33d1-49b6-b4b7-edff021bda30"},"vehicle_type_id":"4","last_reported":1771339761,"current_range_meters":23200,"station_id":"ce4bhrh2rcd13ifvqhug","pricing_plan_id":"cebpf4jnsgd1na2vs0mg"},{"bike_id":"437fc524-5d8f-472e-b4f3-cc9f92699fc3","system_id":"levelo_inurba_marseille","lat":43.265618,"lon":5.390199,"is_reserved":false,"is_disabled":false,"rental_uris":{"android":"levelo://app?vid=437fc524-5d8f-472e-b4f3-cc9f92699fc3","ios":"levelo://app?vid=437fc524-5d8f-472e-b4f3-cc9f92699fc3"},"vehicle_type_id":"4","last_reported":1771339761,"current_range_meters":17200,"station_id":"ce4bhe12rcd13ifvqf30","pricing_plan_id":"cebpf4jnsgd1na2vs0mg"},{"bike_id":"276a17b6-c9b8-4709-9085-ff6b811d65ef","system_id":"levelo_inurba_marseille","lat":43.30158,"lon":5.38086,"is_reserved":false,"is_disabled":false,"rental_uris":{"android":"levelo://app?vid=276a17b6-c9b8-4709-9085-ff6b811d65ef","ios":"levelo://app?vid=276a17b6-c9b8-4709-9085-ff6b811d65ef"},"vehicle_type_id":"4","last_reported":1771339761,"current_range_meters":34800,"station_id":"ce4bgjp2rcd13ifvqbh0","pricing_plan_id":"cebpf4jnsgd1na2vs0mg"},{"bike_id":"ec723023-d52e-4e05-836a-9da1981ac6c3","system_id":"levelo_inurba_marseille","lat":43.28614,"lon":5.35099,"is_reserved":false,"is_disabled":false,"rental_uris":{"android":"levelo://app?vid=ec723023-d52e-4e05-836a-9da1981ac6c3","ios":"levelo://app?vid=ec723023-d52e-4e05-836a-9da1981ac6c3"},"vehicle_type_id":"4","last_reported":1771339761,"current_range_meters":36400,"station_id":"ce4bhch2rcd13ifvqeug","pricing_plan_id":"cebpf4jnsgd1na2vs0mg"},{"bike_id":"48225f1b-4a1f-444a-b556-96d906634ea3","system_id":"levelo_inurba_marseille","lat":43.24399,"lon":5.37038,"is_reserved":false,"is_disabled":false,"rental_uris":{"android":"levelo://app?vid=48225f1b-4a1f-444a-b556-96d906634ea3","ios":"levelo://app?vid=48225f1b-4a1f-444a-b556-96d906634ea3"},"vehicle_type_id":"4","last_reported":1771339761,"current_range_meters":32800,"station_id":"ce4bhhh2rcd13ifvqfk0","pricing_plan_id":"cebpf4jnsgd1na2vs0mg"},{"bike_id":"f09e1658-a2b5-435a-902d-ba4be9450025","system_id":"levelo_inurba_marseille","lat":43.25014,"lon":5.38903,"is_reserved":false,"is_disabled":true,"rental_uris":{"android":"levelo://app?vid=f09e1658-a2b5-435a-902d-ba4be9450025","ios":"levelo://app?vid=f09e1658-a2b5-435a-902d-ba4be9450025"},"vehicle_type_id":"4","last_reported":1771339761,"current_range_meters":19600,"station_id":"ce4bhgp2rcd13ifvqfd0","pricing_plan_id":"cebpf4jnsgd1na2vs0mg"},{"bike_id":"2a84dada-a119-4dd5-a0a1-9644ad5b9ada","system_id":"levelo_inurba_marseille","lat":43.23955,"lon":5.36656,"is_reserved":false,"is_disabled":false,"rental_uris":{"android":"levelo://app?vid=2a84dada-a119-4dd5-a0a1-9644ad5b9ada","ios":"levelo://app?vid=2a84dada-a119-4dd5-a0a1-9644ad5b9ada"},"vehicle_type_id":"4","last_reported":1771339761,"current_range_meters":4000,"station_id":"ce4bhi12rcd13ifvqfp0","pricing_plan_id":"cebpf4jnsgd1na2vs0mg"},{"bike_id":"979867e6-f531-4279-b2b8-099588a9201e","system_id":"levelo_inurba_marseille","lat":43.25094,"lon":5.39526,"is_reserved":false,"is_disabled":false,"rental_uris":{"android":"levelo://app?vid=979867e6-f531-4279-b2b8-099588a9201e","ios":"levelo://app?vid=979867e6-f531-4279-b2b8-099588a9201e"},"vehicle_type_id":"4","last_reported":1771339761,"current_range_meters":4800,"station_id":"ce4bhm12rcd13ifvqgkg","pricing_plan_id":"cebpf4jnsgd1na2vs0mg"},{"bike_id":"ad6d85d6-789c-4fb5-b702-1313a4cd817f","system_id":"levelo_inurba_marseille","lat":43.33576,"lon":5.37432,"is_reserved":false,"is_disabled":false,"rental_uris":{"android":"levelo://app?vid=ad6d85d6-789c-4fb5-b702-1313a4cd817f","ios":"levelo://app?vid=ad6d85d6-789c-4fb5-b702-1313a4cd817f"},"vehicle_type_id":"4","last_reported":1771339761,"current_range_meters":18000,"station_id":"st_d46tts09ee8s73dlu43g","pricing_plan_id":"cebpf4jnsgd1na2vs0mg"},{"bike_id":"2205f806-2b4e-4d2e-9a52-ff5479da41b9","system_id":"levelo_inurba_marseille","lat":43.22939,"lon":5.35359,"is_reserved":false,"is_disabled":false,"rental_uris":{"android":"levelo://app?vid=2205f806-2b4e-4d2e-9a52-ff5479da41b9","ios":"levelo://app?vid=2205f806-2b4e-4d2e-9a52-ff5479da41b9"},"vehicle_type_id":"4","last_reported":1771339761,"current_range_meters":14400,"station_id":"cpo3532slgdg3j2ikp40","pricing_plan_id":"cebpf4jnsgd1na2vs0mg"},{"bike_id":"8eede148-08e7-4087-9615-e3a91b6e5ce9","system_id":"levelo_inurba_marseille","lat":43.26784,"lon":5.39428,"is_reserved":false,"is_disabled":false,"rental_uris":{"android":"levelo://app?vid=8eede148-08e7-4087-9615-e3a91b6e5ce9","ios":"levelo://app?vid=8eede148-08e7-4087-9615-e3a91b6e5ce9"},"vehicle_type_id":"4","last_reported":1771339761,"current_range_meters":40000,"station_id":"ce4bhh12rcd13ifvqfg0","pricing_plan_id":"cebpf4jnsgd1na2vs0mg"},{"bike_id":"36f301fb-c160-4225-9a43-f57e64075002","system_id":"levelo_inurba_marseille","lat":43.305502,"lon":5.365259,"is_reserved":false,"is_disabled":false,"rental_uris":{"android":"levelo://app?vid=36f301fb-c160-4225-9a43-f57e64075002","ios":"levelo://app?vid=36f301fb-c160-4225-9a43-f57e64075002"},"vehicle_type_id":"4","last_reported":1771339761,"current_range_meters":13600,"station_id":"ce4bgs12rcd13ifvqcag","pricing_plan_id":"cebpf4jnsgd1na2vs0mg"},{"bike_id":"99ec35f0-e147-4ca4-ac89-90348b5d45a6","system_id":"levelo_inurba_marseille","lat":43.23189,"lon":5.35565,"is_reserved":false,"is_disabled":false,"rental_uris":{"android":"levelo://app?vid=99ec35f0-e147-4ca4-ac89-90348b5d45a6","ios":"levelo://app?vid=99ec35f0-e147-4ca4-ac89-90348b5d45a6"},"vehicle_type_id":"4","last_reported":1771339761,"current_range_meters":9200,"station_id":"ce4bhu92rcd13ifvqi70","pricing_plan_id":"cebpf4jnsgd1na2vs0mg"},{"bike_id":"3b4af1bd-7155-46cc-bbe4-71c75df76dd2","system_id":"levelo_inurba_marseille","lat":43.25742,"lon":5.41103,"is_reserved":false,"is_disabled":false,"rental_uris":{"android":"levelo://app?vid=3b4af1bd-7155-46cc-bbe4-71c75df76dd2","ios":"levelo://app?vid=3b4af1bd-7155-46cc-bbe4-71c75df76dd2"},"vehicle_type_id":"4","last_reported":1771339761,"current_range_meters":30800,"station_id":"ce4bhkp2rcd13ifvqgd0","pricing_plan_id":"cebpf4jnsgd1na2vs0mg"},{"bike_id":"d1ad9323-d98e-4db0-b08a-52d36cc44bb0","system_id":"levelo_inurba_marseille","lat":43.31333,"lon":5.39671,"is_reserved":false,"is_disabled":false,"rental_uris":{"android":"levelo://app?vid=d1ad9323-d98e-4db0-b08a-52d36cc44bb0","ios":"levelo://app?vid=d1ad9323-d98e-4db0-b08a-52d36cc44bb0"},"vehicle_type_id":"4","last_reported":1771339761,"current_range_meters":26800,"station_id":"ce4bgvp2rcd13ifvqcu0","pricing_plan_id":"cebpf4jnsgd1na2vs0mg"},{"bike_id":"1697b585-2eb3-4220-8ca9-885292fe1b8f","system_id":"levelo_inurba_marseille","lat":43.30307,"lon":5.36887,"is_reserved":false,"is_disabled":false,"rental_uris":{"android":"levelo://app?vid=1697b585-2eb3-4220-8ca9-885292fe1b8f","ios":"levelo://app?vid=1697b585-2eb3-4220-8ca9-885292fe1b8f"},"vehicle_type_id":"4","last_reported":1771339761,"current_range_meters":34800,"station_id":"ce4bgqh2rcd13ifvqc5g","pricing_plan_id":"cebpf4jnsgd1na2vs0mg"},{"bike_id":"cff4a59b-4a5f-4b9f-813d-63f325141d2d","system_id":"levelo_inurba_marseille","lat":43.24946,"lon":5.40505,"is_reserved":false,"is_disabled":false,"rental_uris":{"android":"levelo://app?vid=cff4a59b-4a5f-4b9f-813d-63f325141d2d","ios":"levelo://app?vid=cff4a59b-4a5f-4b9f-813d-63f325141d2d"},"vehicle_type_id":"4","last_reported":1771339761,"current_range_meters":28400,"station_id":"st_d2ngiaodas8pm72gd1h0","pricing_plan_id":"cebpf4jnsgd1na2vs0mg"},{"bike_id":"d800483e-e4b5-4dba-b8af-f5caf11048b6","system_id":"levelo_inurba_marseille","lat":43.29832,"lon":5.44018,"is_reserved":false,"is_disabled":false,"rental_uris":{"android":"levelo://app?vid=d800483e-e4b5-4dba-b8af-f5caf11048b6","ios":"levelo://app?vid=d800483e-e4b5-4dba-b8af-f5caf11048b6"},"vehicle_type_id":"4","last_reported":1771339761,"current_range_meters":27200,"station_id":"","pricing_plan_id":"cebpf4jnsgd1na2vs0mg"},{"bike_id":"b0f3632c-ebaf-4332-8639-5852d4b3414f","system_id":"levelo_inurba_marseille","lat":43.30141,"lon":5.38785,"is_reserved":false,"is_disabled":false,"rental_uris":{"android":"levelo://app?vid=b0f3632c-ebaf-4332-8639-5852d4b3414f","ios":"levelo://app?vid=b0f3632c-ebaf-4332-8639-5852d4b3414f"},"vehicle_type_id":"4","last_reported":1771339761,"current_range_meters":26800,"station_id":"ce4bghh2rcd13ifvqb60","pricing_plan_id":"cebpf4jnsgd1na2vs0mg"},{"bike_id":"c18896dc-dcd6-4005-80ac-fa6ffb39ee8f","system_id":"levelo_inurba_marseille","lat":43.27068,"lon":5.40293,"is_reserved":false,"is_disabled":true,"rental_uris":{"android":"levelo://app?vid=c18896dc-dcd6-4005-80ac-fa6ffb39ee8f","ios":"levelo://app?vid=c18896dc-dcd6-4005-80ac-fa6ffb39ee8f"},"vehicle_type_id":"4","last_reported":1771339761,"current_range_meters":32000,"station_id":"ce4bhk92rcd13ifvqgc0","pricing_plan_id":"cebpf4jnsgd1na2vs0mg"},{"bike_id":"b169e6eb-033b-4974-be3c-c56e17bad045","system_id":"levelo_inurba_marseille","lat":43.25887,"lon":5.4092,"is_reserved":false,"is_disabled":false,"rental_uris":{"android":"levelo://app?vid=b169e6eb-033b-4974-be3c-c56e17bad045","ios":"levelo://app?vid=b169e6eb-033b-4974-be3c-c56e17bad045"},"vehicle_type_id":"4","last_reported":1771339761,"current_range_meters":39200,"station_id":"ce4bhm92rcd13ifvqglg","pricing_plan_id":"cebpf4jnsgd1na2vs0mg"},{"bike_id":"bd7ab447-da9f-4a0e-a8cf-f8397aa89d64","system_id":"levelo_inurba_marseille","lat":43.29564,"lon":5.37504,"is_reserved":false,"is_disabled":false,"rental_uris":{"android":"levelo://app?vid=bd7ab447-da9f-4a0e-a8cf-f8397aa89d64","ios":"levelo://app?vid=bd7ab447-da9f-4a0e-a8cf-f8397aa89d64"},"vehicle_type_id":"4","last_reported":1771339761,"current_range_meters":20400,"station_id":"ce4bgh92rcd13ifvqb50","pricing_plan_id":"cebpf4jnsgd1na2vs0mg"},{"bike_id":"b7173d6e-f158-4fb1-8687-c71990fc3d1e","system_id":"levelo_inurba_marseille","lat":43.286674,"lon":5.363461,"is_reserved":false,"is_disabled":false,"rental_uris":{"android":"levelo://app?vid=b7173d6e-f158-4fb1-8687-c71990fc3d1e","ios":"levelo://app?vid=b7173d6e-f158-4fb1-8687-c71990fc3d1e"},"vehicle_type_id":"4","last_reported":1771339761,"current_range_meters":24000,"station_id":"ce4bhah2rcd13ifvqej0","pricing_plan_id":"cebpf4jnsgd1na2vs0mg"},{"bike_id":"fafd63cc-2841-4f45-9878-ea3ea32210ac","system_id":"levelo_inurba_marseille","lat":43.29589,"lon":5.43907,"is_reserved":false,"is_disabled":false,"rental_uris":{"android":"levelo://app?vid=fafd63cc-2841-4f45-9878-ea3ea32210ac","ios":"levelo://app?vid=fafd63cc-2841-4f45-9878-ea3ea32210ac"},"vehicle_type_id":"4","last_reported":1771339761,"current_range_meters":22400,"station_id":"","pricing_plan_id":"cebpf4jnsgd1na2vs0mg"},{"bike_id":"de423869-26f4-407b-ab79-be589ae400a7","system_id":"levelo_inurba_marseille","lat":43.30946,"lon":5.39033,"is_reserved":false,"is_disabled":false,"rental_uris":{"android":"levelo://app?vid=de423869-26f4-407b-ab79-be589ae400a7","ios":"levelo://app?vid=de423869-26f4-407b-ab79-be589ae400a7"},"vehicle_type_id":"4","last_reported":1771339761,"current_range_meters":37600,"station_id":"ce4bgup2rcd13ifvqco0","pricing_plan_id":"cebpf4jnsgd1na2vs0mg"},{"bike_id":"1d8fedd1-d5de-420b-bf33-37c0c2640c9c","system_id":"levelo_inurba_marseille","lat":43.29026,"lon":5.39995,"is_reserved":false,"is_disabled":false,"rental_uris":{"android":"levelo://app?vid=1d8fedd1-d5de-420b-bf33-37c0c2640c9c","ios":"levelo://app?vid=1d8fedd1-d5de-420b-bf33-37c0c2640c9c"},"vehicle_type_id":"4","last_reported":1771339761,"current_range_meters":32000,"station_id":"ce4bh392rcd13ifvqdm0","pricing_plan_id":"cebpf4jnsgd1na2vs0mg"},{"bike_id":"17db437d-61b6-4a4c-ab9b-e1c0e421c12d","system_id":"levelo_inurba_marseille","lat":43.278313,"lon":5.391977,"is_reserved":false,"is_disabled":false,"rental_uris":{"android":"levelo://app?vid=17db437d-61b6-4a4c-ab9b-e1c0e421c12d","ios":"levelo://app?vid=17db437d-61b6-4a4c-ab9b-e1c0e421c12d"},"vehicle_type_id":"4","last_reported":1771339761,"current_range_meters":28800,"station_id":"ce4bhjp2rcd13ifvqga0","pricing_plan_id":"cebpf4jnsgd1na2vs0mg"},{"bike_id":"4d0e44f5-433a-4e39-8941-3200c03a135c","system_id":"levelo_inurba_marseille","lat":43.28982,"lon":5.37817,"is_reserved":false,"is_disabled":false,"rental_uris":{"android":"levelo://app?vid=4d0e44f5-433a-4e39-8941-3200c03a135c","ios":"levelo://app?vid=4d0e44f5-433a-4e39-8941-3200c03a135c"},"vehicle_type_id":"4","last_reported":1771339761,"current_range_meters":40000,"station_id":"ce4bh9p2rcd13ifvqed0","pricing_plan_id":"cebpf4jnsgd1na2vs0mg"},{"bike_id":"091c26ef-a67a-48f4-8694-33aea309e055","system_id":"levelo_inurba_marseille","lat":43.25736,"lon":5.41128,"is_reserved":false,"is_disabled":false,"rental_uris":{"android":"levelo://app?vid=091c26ef-a67a-48f4-8694-33aea309e055","ios":"levelo://app?vid=091c26ef-a67a-48f4-8694-33aea309e055"},"vehicle_type_id":"4","last_reported":1771339761,"current_range_meters":38400,"station_id":"ce4bhkp2rcd13ifvqgd0","pricing_plan_id":"cebpf4jnsgd1na2vs0mg"},{"bike_id":"a6a81681-4b6a-4b37-a5f2-d092bfb159e0","system_id":"levelo_inurba_marseille","lat":43.26072,"lon":5.39406,"is_reserved":false,"is_disabled":false,"rental_uris":{"android":"levelo://app?vid=a6a81681-4b6a-4b37-a5f2-d092bfb159e0","ios":"levelo://app?vid=a6a81681-4b6a-4b37-a5f2-d092bfb159e0"},"vehicle_type_id":"4","last_reported":1771339761,"current_range_meters":38400,"station_id":"ce4bhh92rcd13ifvqfj0","pricing_plan_id":"cebpf4jnsgd1na2vs0mg"},{"bike_id":"82891446-f824-44bd-9618-d0d345dba19b","system_id":"levelo_inurba_marseille","lat":43.27965,"lon":5.38739,"is_reserved":false,"is_disabled":false,"rental_uris":{"android":"levelo://app?vid=82891446-f824-44bd-9618-d0d345dba19b","ios":"levelo://app?vid=82891446-f824-44bd-9618-d0d345dba19b"},"vehicle_type_id":"4","last_reported":1771339761,"current_range_meters":19600,"station_id":"ce4bhg12rcd13ifvqf80","pricing_plan_id":"cebpf4jnsgd1na2vs0mg"},{"bike_id":"d0addae8-3758-4956-867d-9e2fdb78dcfb","system_id":"levelo_inurba_marseille","lat":43.24648,"lon":5.38904,"is_reserved":false,"is_disabled":false,"rental_uris":{"android":"levelo://app?vid=d0addae8-3758-4956-867d-9e2fdb78dcfb","ios":"levelo://app?vid=d0addae8-3758-4956-867d-9e2fdb78dcfb"},"vehicle_type_id":"4","last_reported":1771339761,"current_range_meters":19200,"station_id":"ce4bhg12rcd13ifvqf60","pricing_plan_id":"cebpf4jnsgd1na2vs0mg"},{"bike_id":"953a09cc-61c3-4780-9762-68260d5b0d1a","system_id":"levelo_inurba_marseille","lat":43.29981,"lon":5.38512,"is_reserved":false,"is_disabled":false,"rental_uris":{"android":"levelo://app?vid=953a09cc-61c3-4780-9762-68260d5b0d1a","ios":"levelo://app?vid=953a09cc-61c3-4780-9762-68260d5b0d1a"},"vehicle_type_id":"4","last_reported":1771339761,"current_range_meters":39200,"station_id":"ce4bgj92rcd13ifvqbd0","pricing_plan_id":"cebpf4jnsgd1na2vs0mg"},{"bike_id":"75d7ae73-fb00-4d37-81ab-7e01ef083d2d","system_id":"levelo_inurba_marseille","lat":43.25348,"lon":5.4217,"is_reserved":false,"is_disabled":false,"rental_uris":{"android":"levelo://app?vid=75d7ae73-fb00-4d37-81ab-7e01ef083d2d","ios":"levelo://app?vid=75d7ae73-fb00-4d37-81ab-7e01ef083d2d"},"vehicle_type_id":"4","last_reported":1771339761,"current_range_meters":9200,"station_id":"st_d2m65c5bi1j21697t3ng","pricing_plan_id":"cebpf4jnsgd1na2vs0mg"},{"bike_id":"0dab3e6a-2c9e-45ab-839a-284694830f6d","system_id":"levelo_inurba_marseille","lat":43.31191,"lon":5.38682,"is_reserved":false,"is_disabled":false,"rental_uris":{"android":"levelo://app?vid=0dab3e6a-2c9e-45ab-839a-284694830f6d","ios":"levelo://app?vid=0dab3e6a-2c9e-45ab-839a-284694830f6d"},"vehicle_type_id":"4","last_reported":1771339761,"current_range_meters":24400,"station_id":"ce4bgv12rcd13ifvqcp0","pricing_plan_id":"cebpf4jnsgd1na2vs0mg"},{"bike_id":"976dec23-bb3f-47a7-9f05-54965bb9872f","system_id":"levelo_inurba_marseille","lat":43.29635,"lon":5.37701,"is_reserved":false,"is_disabled":false,"rental_uris":{"android":"levelo://app?vid=976dec23-bb3f-47a7-9f05-54965bb9872f","ios":"levelo://app?vid=976dec23-bb3f-47a7-9f05-54965bb9872f"},"vehicle_type_id":"4","last_reported":1771339761,"current_range_meters":27200,"station_id":"ce4bgi92rcd13ifvqb90","pricing_plan_id":"cebpf4jnsgd1na2vs0mg"},{"bike_id":"5e3d4777-43aa-4071-8ee0-9ddb80d10cbd","system_id":"levelo_inurba_marseille","lat":43.265979,"lon":5.372557,"is_reserved":false,"is_disabled":false,"rental_uris":{"android":"levelo://app?vid=5e3d4777-43aa-4071-8ee0-9ddb80d10cbd","ios":"levelo://app?vid=5e3d4777-43aa-4071-8ee0-9ddb80d10cbd"},"vehicle_type_id":"4","last_reported":1771339761,"current_range_meters":19600,"station_id":"ce4bhg12rcd13ifvqf70","pricing_plan_id":"cebpf4jnsgd1na2vs0mg"},{"bike_id":"740f8f2e-710e-4b2e-8ba1-0f60d50869bd","system_id":"levelo_inurba_marseille","lat":43.28732,"lon":5.36104,"is_reserved":false,"is_disabled":false,"rental_uris":{"android":"levelo://app?vid=740f8f2e-710e-4b2e-8ba1-0f60d50869bd","ios":"levelo://app?vid=740f8f2e-710e-4b2e-8ba1-0f60d50869bd"},"vehicle_type_id":"4","last_reported":1771339761,"current_range_meters":9600,"station_id":"cki0cbj6b192h4jlfktg","pricing_plan_id":"cebpf4jnsgd1na2vs0mg"},{"bike_id":"e9749b0e-def4-4ccd-a6ad-31e91d22746a","system_id":"levelo_inurba_marseille","lat":43.26215,"lon":5.40452,"is_reserved":false,"is_disabled":false,"rental_uris":{"android":"levelo://app?vid=e9749b0e-def4-4ccd-a6ad-31e91d22746a","ios":"levelo://app?vid=e9749b0e-def4-4ccd-a6ad-31e91d22746a"},"vehicle_type_id":"4","last_reported":1771339761,"current_range_meters":30800,"station_id":"ce4bhmh2rcd13ifvqgmg","pricing_plan_id":"cebpf4jnsgd1na2vs0mg"},{"bike_id":"62e692db-f7dc-4aa5-abd5-05a186ddbe25","system_id":"levelo_inurba_marseille","lat":43.29176,"lon":5.37139,"is_reserved":false,"is_disabled":false,"rental_uris":{"android":"levelo://app?vid=62e692db-f7dc-4aa5-abd5-05a186ddbe25","ios":"levelo://app?vid=62e692db-f7dc-4aa5-abd5-05a186ddbe25"},"vehicle_type_id":"4","last_reported":1771339761,"current_range_meters":27200,"station_id":"ce4bha92rcd13ifvqeh0","pricing_plan_id":"cebpf4jnsgd1na2vs0mg"},{"bike_id":"c62c8bb8-5105-49ac-b6a0-75ac314fbf1f","system_id":"levelo_inurba_marseille","lat":43.29816,"lon":5.44046,"is_reserved":false,"is_disabled":false,"rental_uris":{"android":"levelo://app?vid=c62c8bb8-5105-49ac-b6a0-75ac314fbf1f","ios":"levelo://app?vid=c62c8bb8-5105-49ac-b6a0-75ac314fbf1f"},"vehicle_type_id":"4","last_reported":1771339761,"current_range_meters":8800,"station_id":"st_d3jp68qikq2c7381ktn0","pricing_plan_id":"cebpf4jnsgd1na2vs0mg"},{"bike_id":"ab9c8925-e239-4fa6-af66-7c5c1c64f4d8","system_id":"levelo_inurba_marseille","lat":43.25017,"lon":5.38926,"is_reserved":false,"is_disabled":false,"rental_uris":{"android":"levelo://app?vid=ab9c8925-e239-4fa6-af66-7c5c1c64f4d8","ios":"levelo://app?vid=ab9c8925-e239-4fa6-af66-7c5c1c64f4d8"},"vehicle_type_id":"4","last_reported":1771339761,"current_range_meters":40000,"station_id":"ce4bhgp2rcd13ifvqfd0","pricing_plan_id":"cebpf4jnsgd1na2vs0mg"},{"bike_id":"d5f75246-2031-4a05-aa7b-74b8da75c6ab","system_id":"levelo_inurba_marseille","lat":43.25341,"lon":5.42156,"is_reserved":false,"is_disabled":false,"rental_uris":{"android":"levelo://app?vid=d5f75246-2031-4a05-aa7b-74b8da75c6ab","ios":"levelo://app?vid=d5f75246-2031-4a05-aa7b-74b8da75c6ab"},"vehicle_type_id":"4","last_reported":1771339761,"current_range_meters":8400,"station_id":"st_d2m65c5bi1j21697t3ng","pricing_plan_id":"cebpf4jnsgd1na2vs0mg"},{"bike_id":"d45236cc-67ac-4a72-a8d6-3d12810dc865","system_id":"levelo_inurba_marseille","lat":43.29207,"lon":5.35785,"is_reserved":false,"is_disabled":false,"rental_uris":{"android":"levelo://app?vid=d45236cc-67ac-4a72-a8d6-3d12810dc865","ios":"levelo://app?vid=d45236cc-67ac-4a72-a8d6-3d12810dc865"},"vehicle_type_id":"4","last_reported":1771339761,"current_range_meters":6400,"station_id":"ce4bhb12rcd13ifvqel0","pricing_plan_id":"cebpf4jnsgd1na2vs0mg"},{"bike_id":"38c30afd-bece-416e-933d-1a2e080dab16","system_id":"levelo_inurba_marseille","lat":43.23203,"lon":5.35546,"is_reserved":false,"is_disabled":false,"rental_uris":{"android":"levelo://app?vid=38c30afd-bece-416e-933d-1a2e080dab16","ios":"levelo://app?vid=38c30afd-bece-416e-933d-1a2e080dab16"},"vehicle_type_id":"4","last_reported":1771339761,"current_range_meters":24400,"station_id":"ce4bhu92rcd13ifvqi70","pricing_plan_id":"cebpf4jnsgd1na2vs0mg"},{"bike_id":"3f6e6d5b-9c66-4d26-b0b8-f270d679b2a6","system_id":"levelo_inurba_marseille","lat":43.28481,"lon":5.48386,"is_reserved":false,"is_disabled":false,"rental_uris":{"android":"levelo://app?vid=3f6e6d5b-9c66-4d26-b0b8-f270d679b2a6","ios":"levelo://app?vid=3f6e6d5b-9c66-4d26-b0b8-f270d679b2a6"},"vehicle_type_id":"4","last_reported":1771339761,"current_range_meters":8800,"station_id":"st_d3svhcjqgbts73a3dn0g","pricing_plan_id":"cebpf4jnsgd1na2vs0mg"},{"bike_id":"c439c3ae-8cb8-4ca2-b926-a46c66f5b35b","system_id":"levelo_inurba_marseille","lat":43.29193,"lon":5.35789,"is_reserved":false,"is_disabled":false,"rental_uris":{"android":"levelo://app?vid=c439c3ae-8cb8-4ca2-b926-a46c66f5b35b","ios":"levelo://app?vid=c439c3ae-8cb8-4ca2-b926-a46c66f5b35b"},"vehicle_type_id":"4","last_reported":1771339761,"current_range_meters":8800,"station_id":"ce4bhb12rcd13ifvqel0","pricing_plan_id":"cebpf4jnsgd1na2vs0mg"},{"bike_id":"fdcd89e5-ffcd-4343-8ec3-1762c282ca13","system_id":"levelo_inurba_marseille","lat":43.29917,"lon":5.38113,"is_reserved":false,"is_disabled":false,"rental_uris":{"android":"levelo://app?vid=fdcd89e5-ffcd-4343-8ec3-1762c282ca13","ios":"levelo://app?vid=fdcd89e5-ffcd-4343-8ec3-1762c282ca13"},"vehicle_type_id":"4","last_reported":1771339761,"current_range_meters":28800,"station_id":"ce4bgj12rcd13ifvqbc0","pricing_plan_id":"cebpf4jnsgd1na2vs0mg"},{"bike_id":"8afbe5f1-e31f-497c-82ed-db86cdcdec29","system_id":"levelo_inurba_marseille","lat":43.33764,"lon":5.3744,"is_reserved":false,"is_disabled":false,"rental_uris":{"android":"levelo://app?vid=8afbe5f1-e31f-497c-82ed-db86cdcdec29","ios":"levelo://app?vid=8afbe5f1-e31f-497c-82ed-db86cdcdec29"},"vehicle_type_id":"4","last_reported":1771339761,"current_range_meters":24000,"station_id":"","pricing_plan_id":"cebpf4jnsgd1na2vs0mg"},{"bike_id":"c71d83fc-50fc-4649-a3b6-a691c11a5d50","system_id":"levelo_inurba_marseille","lat":43.28423,"lon":5.3498,"is_reserved":false,"is_disabled":false,"rental_uris":{"android":"levelo://app?vid=c71d83fc-50fc-4649-a3b6-a691c11a5d50","ios":"levelo://app?vid=c71d83fc-50fc-4649-a3b6-a691c11a5d50"},"vehicle_type_id":"4","last_reported":1771339761,"current_range_meters":36000,"station_id":"ce4bhbh2rcd13ifvqepg","pricing_plan_id":"cebpf4jnsgd1na2vs0mg"},{"bike_id":"791137fc-08a4-4fb0-aa2a-91472f51c1d0","system_id":"levelo_inurba_marseille","lat":43.23142,"lon":5.43681,"is_reserved":false,"is_disabled":false,"rental_uris":{"android":"levelo://app?vid=791137fc-08a4-4fb0-aa2a-91472f51c1d0","ios":"levelo://app?vid=791137fc-08a4-4fb0-aa2a-91472f51c1d0"},"vehicle_type_id":"4","last_reported":1771339761,"current_range_meters":39200,"station_id":"ce4bhmp2rcd13ifvqgog","pricing_plan_id":"cebpf4jnsgd1na2vs0mg"},{"bike_id":"7c84b2ea-182c-495f-ba9f-56a792a7543c","system_id":"levelo_inurba_marseille","lat":43.24087,"lon":5.37747,"is_reserved":false,"is_disabled":false,"rental_uris":{"android":"levelo://app?vid=7c84b2ea-182c-495f-ba9f-56a792a7543c","ios":"levelo://app?vid=7c84b2ea-182c-495f-ba9f-56a792a7543c"},"vehicle_type_id":"4","last_reported":1771339761,"current_range_meters":38000,"station_id":"ce4bhnp2rcd13ifvqgvg","pricing_plan_id":"cebpf4jnsgd1na2vs0mg"},{"bike_id":"8f6b6552-8051-449b-a7f1-b78749ff63e4","system_id":"levelo_inurba_marseille","lat":43.28278,"lon":5.35072,"is_reserved":false,"is_disabled":false,"rental_uris":{"android":"levelo://app?vid=8f6b6552-8051-449b-a7f1-b78749ff63e4","ios":"levelo://app?vid=8f6b6552-8051-449b-a7f1-b78749ff63e4"},"vehicle_type_id":"4","last_reported":1771339761,"current_range_meters":32000,"station_id":"ce4bhbp2rcd13ifvqerg","pricing_plan_id":"cebpf4jnsgd1na2vs0mg"},{"bike_id":"5fdc7f78-8658-41be-b357-5b8a834fd457","system_id":"levelo_inurba_marseille","lat":43.26681,"lon":5.38245,"is_reserved":false,"is_disabled":false,"rental_uris":{"android":"levelo://app?vid=5fdc7f78-8658-41be-b357-5b8a834fd457","ios":"levelo://app?vid=5fdc7f78-8658-41be-b357-5b8a834fd457"},"vehicle_type_id":"4","last_reported":1771339761,"current_range_meters":32000,"station_id":"ce4bhg92rcd13ifvqf90","pricing_plan_id":"cebpf4jnsgd1na2vs0mg"},{"bike_id":"b5552b3e-eb6c-4d0e-8415-bcfc7d1730b6","system_id":"levelo_inurba_marseille","lat":43.30304,"lon":5.36872,"is_reserved":false,"is_disabled":false,"rental_uris":{"android":"levelo://app?vid=b5552b3e-eb6c-4d0e-8415-bcfc7d1730b6","ios":"levelo://app?vid=b5552b3e-eb6c-4d0e-8415-bcfc7d1730b6"},"vehicle_type_id":"4","last_reported":1771339761,"current_range_meters":19600,"station_id":"ce4bgqh2rcd13ifvqc5g","pricing_plan_id":"cebpf4jnsgd1na2vs0mg"},{"bike_id":"dee861fb-32b3-41d9-8bc9-6aebfe4f7a55","system_id":"levelo_inurba_marseille","lat":43.30937,"lon":5.40163,"is_reserved":false,"is_disabled":false,"rental_uris":{"android":"levelo://app?vid=dee861fb-32b3-41d9-8bc9-6aebfe4f7a55","ios":"levelo://app?vid=dee861fb-32b3-41d9-8bc9-6aebfe4f7a55"},"vehicle_type_id":"4","last_reported":1771339761,"current_range_meters":35600,"station_id":"ce4bgvp2rcd13ifvqct0","pricing_plan_id":"cebpf4jnsgd1na2vs0mg"},{"bike_id":"92af06f7-182b-4978-bd47-c7d04be418d6","system_id":"levelo_inurba_marseille","lat":43.26554,"lon":5.37281,"is_reserved":false,"is_disabled":false,"rental_uris":{"android":"levelo://app?vid=92af06f7-182b-4978-bd47-c7d04be418d6","ios":"levelo://app?vid=92af06f7-182b-4978-bd47-c7d04be418d6"},"vehicle_type_id":"4","last_reported":1771339761,"current_range_meters":33600,"station_id":"ce4bhg12rcd13ifvqf70","pricing_plan_id":"cebpf4jnsgd1na2vs0mg"},{"bike_id":"6bf5dac3-4531-43da-af99-7e37cc028d3b","system_id":"levelo_inurba_marseille","lat":43.31493,"lon":5.36647,"is_reserved":false,"is_disabled":false,"rental_uris":{"android":"levelo://app?vid=6bf5dac3-4531-43da-af99-7e37cc028d3b","ios":"levelo://app?vid=6bf5dac3-4531-43da-af99-7e37cc028d3b"},"vehicle_type_id":"4","last_reported":1771339761,"current_range_meters":31200,"station_id":"","pricing_plan_id":"cebpf4jnsgd1na2vs0mg"},{"bike_id":"582c7de1-2ad7-4703-acee-fcdd52d077a0","system_id":"levelo_inurba_marseille","lat":43.28945,"lon":5.38387,"is_reserved":false,"is_disabled":false,"rental_uris":{"android":"levelo://app?vid=582c7de1-2ad7-4703-acee-fcdd52d077a0","ios":"levelo://app?vid=582c7de1-2ad7-4703-acee-fcdd52d077a0"},"vehicle_type_id":"4","last_reported":1771339761,"current_range_meters":11200,"station_id":"ce4bh612rcd13ifvqe6g","pricing_plan_id":"cebpf4jnsgd1na2vs0mg"},{"bike_id":"62bb6f34-ace3-4102-b86f-85cbf4f736ce","system_id":"levelo_inurba_marseille","lat":43.30378,"lon":5.42487,"is_reserved":false,"is_disabled":false,"rental_uris":{"android":"levelo://app?vid=62bb6f34-ace3-4102-b86f-85cbf4f736ce","ios":"levelo://app?vid=62bb6f34-ace3-4102-b86f-85cbf4f736ce"},"vehicle_type_id":"4","last_reported":1771339761,"current_range_meters":19200,"station_id":"ce4bhoh2rcd13ifvqh6g","pricing_plan_id":"cebpf4jnsgd1na2vs0mg"},{"bike_id":"a6c0f9d5-0d8c-4289-b728-bc30619e2130","system_id":"levelo_inurba_marseille","lat":43.32366,"lon":5.38891,"is_reserved":false,"is_disabled":false,"rental_uris":{"android":"levelo://app?vid=a6c0f9d5-0d8c-4289-b728-bc30619e2130","ios":"levelo://app?vid=a6c0f9d5-0d8c-4289-b728-bc30619e2130"},"vehicle_type_id":"4","last_reported":1771339761,"current_range_meters":38400,"station_id":"ce4bhqp2rcd13ifvqhog","pricing_plan_id":"cebpf4jnsgd1na2vs0mg"},{"bike_id":"64dd5b1c-158f-4d57-9809-3fa5e57cb582","system_id":"levelo_inurba_marseille","lat":43.29916,"lon":5.37452,"is_reserved":false,"is_disabled":false,"rental_uris":{"android":"levelo://app?vid=64dd5b1c-158f-4d57-9809-3fa5e57cb582","ios":"levelo://app?vid=64dd5b1c-158f-4d57-9809-3fa5e57cb582"},"vehicle_type_id":"4","last_reported":1771339761,"current_range_meters":24800,"station_id":"ce4bgjh2rcd13ifvqbg0","pricing_plan_id":"cebpf4jnsgd1na2vs0mg"},{"bike_id":"9479de27-accf-4aea-96ea-b675f94cf1b8","system_id":"levelo_inurba_marseille","lat":43.27968,"lon":5.38755,"is_reserved":false,"is_disabled":false,"rental_uris":{"android":"levelo://app?vid=9479de27-accf-4aea-96ea-b675f94cf1b8","ios":"levelo://app?vid=9479de27-accf-4aea-96ea-b675f94cf1b8"},"vehicle_type_id":"4","last_reported":1771339761,"current_range_meters":18800,"station_id":"ce4bhg12rcd13ifvqf80","pricing_plan_id":"cebpf4jnsgd1na2vs0mg"},{"bike_id":"dbfe7d62-69bb-4b6f-b279-e02fb0b739a5","system_id":"levelo_inurba_marseille","lat":43.31245,"lon":5.36848,"is_reserved":false,"is_disabled":false,"rental_uris":{"android":"levelo://app?vid=dbfe7d62-69bb-4b6f-b279-e02fb0b739a5","ios":"levelo://app?vid=dbfe7d62-69bb-4b6f-b279-e02fb0b739a5"},"vehicle_type_id":"4","last_reported":1771339761,"current_range_meters":20400,"station_id":"ce4bgl92rcd13ifvqbq0","pricing_plan_id":"cebpf4jnsgd1na2vs0mg"},{"bike_id":"97ed6d2c-12fc-4343-9e79-accaf4984ee4","system_id":"levelo_inurba_marseille","lat":43.28857,"lon":5.35857,"is_reserved":false,"is_disabled":false,"rental_uris":{"android":"levelo://app?vid=97ed6d2c-12fc-4343-9e79-accaf4984ee4","ios":"levelo://app?vid=97ed6d2c-12fc-4343-9e79-accaf4984ee4"},"vehicle_type_id":"4","last_reported":1771339761,"current_range_meters":6800,"station_id":"ce4bhb12rcd13ifvqem0","pricing_plan_id":"cebpf4jnsgd1na2vs0mg"},{"bike_id":"008cf1a5-d324-4e23-acfa-4a137cedc0af","system_id":"levelo_inurba_marseille","lat":43.31244,"lon":5.3686,"is_reserved":false,"is_disabled":false,"rental_uris":{"android":"levelo://app?vid=008cf1a5-d324-4e23-acfa-4a137cedc0af","ios":"levelo://app?vid=008cf1a5-d324-4e23-acfa-4a137cedc0af"},"vehicle_type_id":"4","last_reported":1771339761,"current_range_meters":39200,"station_id":"ce4bgl92rcd13ifvqbq0","pricing_plan_id":"cebpf4jnsgd1na2vs0mg"},{"bike_id":"f09ae27c-b6e3-4891-bfb4-83788b6a52fe","system_id":"levelo_inurba_marseille","lat":43.302843,"lon":5.376914,"is_reserved":false,"is_disabled":false,"rental_uris":{"android":"levelo://app?vid=f09ae27c-b6e3-4891-bfb4-83788b6a52fe","ios":"levelo://app?vid=f09ae27c-b6e3-4891-bfb4-83788b6a52fe"},"vehicle_type_id":"4","last_reported":1771339761,"current_range_meters":40000,"station_id":"ce4bguh2rcd13ifvqcj0","pricing_plan_id":"cebpf4jnsgd1na2vs0mg"},