{"last_updated":1777091230,"ttl":60,"version":"2.2","data":{"bikes":[{"bike_id":"ea3c1786-161a-49ba-9999-4db433e959c3","system_id":"levelo_inurba_marseille","lat":43.24445,"lon":5.40917,"is_reserved":false,"is_disabled":false,"rental_uris":{"android":"levelo://app?vid=ea3c1786-161a-49ba-9999-4db433e959c3","ios":"levelo://app?vid=ea3c1786-161a-49ba-9999-4db433e959c3"},"vehicle_type_id":"4","last_reported":1777091231,"current_range_meters":2800,"station_id":"","pricing_plan_id":"cebpf4jnsgd1na2vs0mg"},{"bike_id":"7bfab50f-54c6-484b-a5a2-7133660d5f74","system_id":"levelo_inurba_marseille","lat":43.28936,"lon":5.36664,"is_reserved":false,"is_disabled":false,"rental_uris":{"android":"levelo://app?vid=7bfab50f-54c6-484b-a5a2-7133660d5f74","ios":"levelo://app?vid=7bfab50f-54c6-484b-a5a2-7133660d5f74"},"vehicle_type_id":"4","last_reported":1777091231,"current_range_meters":2800,"station_id":"ce4bhap2rcd13ifvqek0","pricing_plan_id":"cebpf4jnsgd1na2vs0mg"},{"bike_id":"1571bb38-3baa-4c80-a02a-03bd5d97fb19","system_id":"levelo_inurba_marseille","lat":43.27841,"lon":5.39214,"is_reserved":false,"is_disabled":false,"rental_uris":{"android":"levelo://app?vid=1571bb38-3baa-4c80-a02a-03bd5d97fb19","ios":"levelo://app?vid=1571bb38-3baa-4c80-a02a-03bd5d97fb19"},"vehicle_type_id":"4","last_reported":1777091231,"current_range_meters":2800,"station_id":"ce4bhjp2rcd13ifvqga0","pricing_plan_id":"cebpf4jnsgd1na2vs0mg"},{"bike_id":"e9e0da24-6a2f-4923-86df-ace9bbf9b6f7","system_id":"levelo_inurba_marseille","lat":43.27821,"lon":5.40701,"is_reserved":false,"is_disabled":false,"rental_uris":{"android":"levelo://app?vid=e9e0da24-6a2f-4923-86df-ace9bbf9b6f7","ios":"levelo://app?vid=e9e0da24-6a2f-4923-86df-ace9bbf9b6f7"},"vehicle_type_id":"4","last_reported":1777091231,"current_range_meters":2800,"station_id":"ce4bhnh2rcd13ifvqgtg","pricing_plan_id":"cebpf4jnsgd1na2vs0mg"},{"bike_id":"9ccc1443-548e-4633-ad70-0ac72feedfa4","system_id":"levelo_inurba_marseille","lat":43.23394,"lon":5.4127,"is_reserved":false,"is_disabled":false,"rental_uris":{"android":"levelo://app?vid=9ccc1443-548e-4633-ad70-0ac72feedfa4","ios":"levelo://app?vid=9ccc1443-548e-4633-ad70-0ac72feedfa4"},"vehicle_type_id":"4","last_reported":1777091231,"current_range_meters":3200,"station_id":"st_d75pvndhf9lc73cqq3eg","pricing_plan_id":"cebpf4jnsgd1na2vs0mg"},{"bike_id":"634ae472-59e1-42a5-8c0b-8942008c7e8e","system_id":"levelo_inurba_marseille","lat":43.28609,"lon":5.35132,"is_reserved":false,"is_disabled":false,"rental_uris":{"android":"levelo://app?vid=634ae472-59e1-42a5-8c0b-8942008c7e8e","ios":"levelo://app?vid=634ae472-59e1-42a5-8c0b-8942008c7e8e"},"vehicle_type_id":"4","last_reported":1777091231,"current_range_meters":3200,"station_id":"ce4bhch2rcd13ifvqeug","pricing_plan_id":"cebpf4jnsgd1na2vs0mg"},{"bike_id":"a35ee712-0673-45d2-8134-c311cfee5613","system_id":"levelo_inurba_marseille","lat":43.2704,"lon":5.42294,"is_reserved":false,"is_disabled":true,"rental_uris":{"android":"levelo://app?vid=a35ee712-0673-45d2-8134-c311cfee5613","ios":"levelo://app?vid=a35ee712-0673-45d2-8134-c311cfee5613"},"vehicle_type_id":"4","last_reported":1777091231,"current_range_meters":3200,"station_id":"ce4bhk92rcd13ifvqgb0","pricing_plan_id":"cebpf4jnsgd1na2vs0mg"},{"bike_id":"82694183-cfc0-4b06-a7b1-2881321f6fa6","system_id":"levelo_inurba_marseille","lat":43.30302,"lon":5.40437,"is_reserved":false,"is_disabled":false,"rental_uris":{"android":"levelo://app?vid=82694183-cfc0-4b06-a7b1-2881321f6fa6","ios":"levelo://app?vid=82694183-cfc0-4b06-a7b1-2881321f6fa6"},"vehicle_type_id":"4","last_reported":1777091231,"current_range_meters":3200,"station_id":"ce4bh012rcd13ifvqd10","pricing_plan_id":"cebpf4jnsgd1na2vs0mg"},{"bike_id":"f5ef8bc8-1674-4d26-bb75-c618ec956637","system_id":"levelo_inurba_marseille","lat":43.29467,"lon":5.37593,"is_reserved":false,"is_disabled":false,"rental_uris":{"android":"levelo://app?vid=f5ef8bc8-1674-4d26-bb75-c618ec956637","ios":"levelo://app?vid=f5ef8bc8-1674-4d26-bb75-c618ec956637"},"vehicle_type_id":"4","last_reported":1777091231,"current_range_meters":3200,"station_id":"","pricing_plan_id":"cebpf4jnsgd1na2vs0mg"},{"bike_id":"c2f1ed1f-c2ae-41df-8ba0-acab015ce3e0","system_id":"levelo_inurba_marseille","lat":43.27984,"lon":5.41676,"is_reserved":false,"is_disabled":false,"rental_uris":{"android":"levelo://app?vid=c2f1ed1f-c2ae-41df-8ba0-acab015ce3e0","ios":"levelo://app?vid=c2f1ed1f-c2ae-41df-8ba0-acab015ce3e0"},"vehicle_type_id":"4","last_reported":1777091231,"current_range_meters":3200,"station_id":"ce4bho12rcd13ifvqh1g","pricing_plan_id":"cebpf4jnsgd1na2vs0mg"},{"bike_id":"a16938fe-4ac3-46e7-90ea-70b2307b406b","system_id":"levelo_inurba_marseille","lat":43.30315,"lon":5.40452,"is_reserved":false,"is_disabled":false,"rental_uris":{"android":"levelo://app?vid=a16938fe-4ac3-46e7-90ea-70b2307b406b","ios":"levelo://app?vid=a16938fe-4ac3-46e7-90ea-70b2307b406b"},"vehicle_type_id":"4","last_reported":1777091231,"current_range_meters":3200,"station_id":"ce4bh012rcd13ifvqd10","pricing_plan_id":"cebpf4jnsgd1na2vs0mg"},{"bike_id":"209952e8-be0d-4e2a-927b-6f75538fbdca","system_id":"levelo_inurba_marseille","lat":43.29791,"lon":5.3711,"is_reserved":false,"is_disabled":false,"rental_uris":{"android":"levelo://app?vid=209952e8-be0d-4e2a-927b-6f75538fbdca","ios":"levelo://app?vid=209952e8-be0d-4e2a-927b-6f75538fbdca"},"vehicle_type_id":"4","last_reported":1777091231,"current_range_meters":3200,"station_id":"ce4bgop2rcd13ifvqc1g","pricing_plan_id":"cebpf4jnsgd1na2vs0mg"},{"bike_id":"e596e608-f85e-4fc0-9be5-0ba85c066bb6","system_id":"levelo_inurba_marseille","lat":43.27503,"lon":5.42456,"is_reserved":false,"is_disabled":false,"rental_uris":{"android":"levelo://app?vid=e596e608-f85e-4fc0-9be5-0ba85c066bb6","ios":"levelo://app?vid=e596e608-f85e-4fc0-9be5-0ba85c066bb6"},"vehicle_type_id":"4","last_reported":1777091231,"current_range_meters":3200,"station_id":"ce4bhn92rcd13ifvqgrg","pricing_plan_id":"cebpf4jnsgd1na2vs0mg"},{"bike_id":"67cea062-d66f-4a7a-9c0a-41e54e217db1","system_id":"levelo_inurba_marseille","lat":43.29573,"lon":5.38995,"is_reserved":false,"is_disabled":false,"rental_uris":{"android":"levelo://app?vid=67cea062-d66f-4a7a-9c0a-41e54e217db1","ios":"levelo://app?vid=67cea062-d66f-4a7a-9c0a-41e54e217db1"},"vehicle_type_id":"4","last_reported":1777091231,"current_range_meters":3600,"station_id":"","pricing_plan_id":"cebpf4jnsgd1na2vs0mg"},{"bike_id":"66cc7df0-e04c-43bc-96f4-f5d8be3baa28","system_id":"levelo_inurba_marseille","lat":43.30893,"lon":5.39644,"is_reserved":false,"is_disabled":false,"rental_uris":{"android":"levelo://app?vid=66cc7df0-e04c-43bc-96f4-f5d8be3baa28","ios":"levelo://app?vid=66cc7df0-e04c-43bc-96f4-f5d8be3baa28"},"vehicle_type_id":"4","last_reported":1777091231,"current_range_meters":3600,"station_id":"ce4bh012rcd13ifvqcv0","pricing_plan_id":"cebpf4jnsgd1na2vs0mg"},{"bike_id":"45e218b1-d77e-4c7a-98cd-a8ec010c594f","system_id":"levelo_inurba_marseille","lat":43.31364,"lon":5.38501,"is_reserved":false,"is_disabled":false,"rental_uris":{"android":"levelo://app?vid=45e218b1-d77e-4c7a-98cd-a8ec010c594f","ios":"levelo://app?vid=45e218b1-d77e-4c7a-98cd-a8ec010c594f"},"vehicle_type_id":"4","last_reported":1777091231,"current_range_meters":3600,"station_id":"ce4bgt92rcd13ifvqcf0","pricing_plan_id":"cebpf4jnsgd1na2vs0mg"},{"bike_id":"53d0b464-9d84-4ebb-a788-233487c8451c","system_id":"levelo_inurba_marseille","lat":43.33261,"lon":5.37783,"is_reserved":false,"is_disabled":false,"rental_uris":{"android":"levelo://app?vid=53d0b464-9d84-4ebb-a788-233487c8451c","ios":"levelo://app?vid=53d0b464-9d84-4ebb-a788-233487c8451c"},"vehicle_type_id":"4","last_reported":1777091231,"current_range_meters":3600,"station_id":"","pricing_plan_id":"cebpf4jnsgd1na2vs0mg"},{"bike_id":"eb54d19c-192d-4b9f-8d7f-dd3accd1602e","system_id":"levelo_inurba_marseille","lat":43.24797,"lon":5.37457,"is_reserved":false,"is_disabled":false,"rental_uris":{"android":"levelo://app?vid=eb54d19c-192d-4b9f-8d7f-dd3accd1602e","ios":"levelo://app?vid=eb54d19c-192d-4b9f-8d7f-dd3accd1602e"},"vehicle_type_id":"4","last_reported":1777091231,"current_range_meters":3600,"station_id":"ce4bhgh2rcd13ifvqfb0","pricing_plan_id":"cebpf4jnsgd1na2vs0mg"},{"bike_id":"e16f7e13-319b-4576-812c-7661e0f75eef","system_id":"levelo_inurba_marseille","lat":43.24644,"lon":5.38905,"is_reserved":false,"is_disabled":false,"rental_uris":{"android":"levelo://app?vid=e16f7e13-319b-4576-812c-7661e0f75eef","ios":"levelo://app?vid=e16f7e13-319b-4576-812c-7661e0f75eef"},"vehicle_type_id":"4","last_reported":1777091231,"current_range_meters":3600,"station_id":"ce4bhg12rcd13ifvqf60","pricing_plan_id":"cebpf4jnsgd1na2vs0mg"},{"bike_id":"583cda61-eb9f-4774-bb51-60e5c6879bd5","system_id":"levelo_inurba_marseille","lat":43.23149,"lon":5.35537,"is_reserved":false,"is_disabled":true,"rental_uris":{"android":"levelo://app?vid=583cda61-eb9f-4774-bb51-60e5c6879bd5","ios":"levelo://app?vid=583cda61-eb9f-4774-bb51-60e5c6879bd5"},"vehicle_type_id":"4","last_reported":1777091231,"current_range_meters":3600,"station_id":"","pricing_plan_id":"cebpf4jnsgd1na2vs0mg"},{"bike_id":"d5eae89b-43ac-44a2-84bb-67d96bea1d1c","system_id":"levelo_inurba_marseille","lat":43.26486,"lon":5.39574,"is_reserved":false,"is_disabled":false,"rental_uris":{"android":"levelo://app?vid=d5eae89b-43ac-44a2-84bb-67d96bea1d1c","ios":"levelo://app?vid=d5eae89b-43ac-44a2-84bb-67d96bea1d1c"},"vehicle_type_id":"4","last_reported":1777091231,"current_range_meters":4000,"station_id":"ce4bhi12rcd13ifvqfq0","pricing_plan_id":"cebpf4jnsgd1na2vs0mg"},{"bike_id":"146def8f-c25a-4a36-bb78-c0e04f65294e","system_id":"levelo_inurba_marseille","lat":43.28878,"lon":5.43038,"is_reserved":false,"is_disabled":false,"rental_uris":{"android":"levelo://app?vid=146def8f-c25a-4a36-bb78-c0e04f65294e","ios":"levelo://app?vid=146def8f-c25a-4a36-bb78-c0e04f65294e"},"vehicle_type_id":"4","last_reported":1777091231,"current_range_meters":4000,"station_id":"","pricing_plan_id":"cebpf4jnsgd1na2vs0mg"},{"bike_id":"c025fe4d-f167-4f80-bde7-0dfb9be7b37b","system_id":"levelo_inurba_marseille","lat":43.28472,"lon":5.48406,"is_reserved":false,"is_disabled":false,"rental_uris":{"android":"levelo://app?vid=c025fe4d-f167-4f80-bde7-0dfb9be7b37b","ios":"levelo://app?vid=c025fe4d-f167-4f80-bde7-0dfb9be7b37b"},"vehicle_type_id":"4","last_reported":1777091231,"current_range_meters":4000,"station_id":"","pricing_plan_id":"cebpf4jnsgd1na2vs0mg"},{"bike_id":"6a979988-2dd0-41f2-9c5f-0c6cc10fba5f","system_id":"levelo_inurba_marseille","lat":43.2414,"lon":5.36425,"is_reserved":false,"is_disabled":false,"rental_uris":{"android":"levelo://app?vid=6a979988-2dd0-41f2-9c5f-0c6cc10fba5f","ios":"levelo://app?vid=6a979988-2dd0-41f2-9c5f-0c6cc10fba5f"},"vehicle_type_id":"4","last_reported":1777091231,"current_range_meters":4000,"station_id":"cpo36qri1sfpv3e86is0","pricing_plan_id":"cebpf4jnsgd1na2vs0mg"},{"bike_id":"001ed0b6-f80d-40bc-93ea-a2f882ed6577","system_id":"levelo_inurba_marseille","lat":43.31119,"lon":5.37779,"is_reserved":false,"is_disabled":true,"rental_uris":{"android":"levelo://app?vid=001ed0b6-f80d-40bc-93ea-a2f882ed6577","ios":"levelo://app?vid=001ed0b6-f80d-40bc-93ea-a2f882ed6577"},"vehicle_type_id":"4","last_reported":1777091231,"current_range_meters":4000,"station_id":"ce4bgt92rcd13ifvqcg0","pricing_plan_id":"cebpf4jnsgd1na2vs0mg"},{"bike_id":"89cb976b-df3a-46fc-a9ef-0025de561630","system_id":"levelo_inurba_marseille","lat":43.29469,"lon":5.43376,"is_reserved":false,"is_disabled":false,"rental_uris":{"android":"levelo://app?vid=89cb976b-df3a-46fc-a9ef-0025de561630","ios":"levelo://app?vid=89cb976b-df3a-46fc-a9ef-0025de561630"},"vehicle_type_id":"4","last_reported":1777091231,"current_range_meters":4000,"station_id":"","pricing_plan_id":"cebpf4jnsgd1na2vs0mg"},{"bike_id":"4453c01c-b844-4c68-8e60-1655e94625b7","system_id":"levelo_inurba_marseille","lat":43.27453,"lon":5.43895,"is_reserved":false,"is_disabled":false,"rental_uris":{"android":"levelo://app?vid=4453c01c-b844-4c68-8e60-1655e94625b7","ios":"levelo://app?vid=4453c01c-b844-4c68-8e60-1655e94625b7"},"vehicle_type_id":"4","last_reported":1777091231,"current_range_meters":4000,"station_id":"","pricing_plan_id":"cebpf4jnsgd1na2vs0mg"},{"bike_id":"74d8c7d4-2eac-4f63-8e6d-c0b815c8467f","system_id":"levelo_inurba_marseille","lat":43.23183,"lon":5.39994,"is_reserved":false,"is_disabled":false,"rental_uris":{"android":"levelo://app?vid=74d8c7d4-2eac-4f63-8e6d-c0b815c8467f","ios":"levelo://app?vid=74d8c7d4-2eac-4f63-8e6d-c0b815c8467f"},"vehicle_type_id":"4","last_reported":1777091231,"current_range_meters":4000,"station_id":"ce4bhn12rcd13ifvqgqg","pricing_plan_id":"cebpf4jnsgd1na2vs0mg"},{"bike_id":"4e792e19-7973-4766-b248-14fc3cd2dc95","system_id":"levelo_inurba_marseille","lat":43.24401,"lon":5.37075,"is_reserved":false,"is_disabled":false,"rental_uris":{"android":"levelo://app?vid=4e792e19-7973-4766-b248-14fc3cd2dc95","ios":"levelo://app?vid=4e792e19-7973-4766-b248-14fc3cd2dc95"},"vehicle_type_id":"4","last_reported":1777091231,"current_range_meters":4000,"station_id":"ce4bhhh2rcd13ifvqfk0","pricing_plan_id":"cebpf4jnsgd1na2vs0mg"},{"bike_id":"2f5837b5-417d-4465-9514-c2e400d5dd41","system_id":"levelo_inurba_marseille","lat":43.25335,"lon":5.42166,"is_reserved":false,"is_disabled":false,"rental_uris":{"android":"levelo://app?vid=2f5837b5-417d-4465-9514-c2e400d5dd41","ios":"levelo://app?vid=2f5837b5-417d-4465-9514-c2e400d5dd41"},"vehicle_type_id":"4","last_reported":1777091231,"current_range_meters":4000,"station_id":"st_d2m65c5bi1j21697t3ng","pricing_plan_id":"cebpf4jnsgd1na2vs0mg"},{"bike_id":"e8d6ce3d-1aa9-47ef-9b48-93862ee5f7fd","system_id":"levelo_inurba_marseille","lat":43.21276,"lon":5.35435,"is_reserved":false,"is_disabled":false,"rental_uris":{"android":"levelo://app?vid=e8d6ce3d-1aa9-47ef-9b48-93862ee5f7fd","ios":"levelo://app?vid=e8d6ce3d-1aa9-47ef-9b48-93862ee5f7fd"},"vehicle_type_id":"4","last_reported":1777091231,"current_range_meters":4400,"station_id":"","pricing_plan_id":"cebpf4jnsgd1na2vs0mg"},{"bike_id":"500c3cdf-5e69-46f4-9694-d063e2b1b8f7","system_id":"levelo_inurba_marseille","lat":43.31323,"lon":5.39702,"is_reserved":false,"is_disabled":false,"rental_uris":{"android":"levelo://app?vid=500c3cdf-5e69-46f4-9694-d063e2b1b8f7","ios":"levelo://app?vid=500c3cdf-5e69-46f4-9694-d063e2b1b8f7"},"vehicle_type_id":"4","last_reported":1777091231,"current_range_meters":4400,"station_id":"ce4bgvp2rcd13ifvqcu0","pricing_plan_id":"cebpf4jnsgd1na2vs0mg"},{"bike_id":"dd2047c2-bb91-49cf-b349-a50990a16979","system_id":"levelo_inurba_marseille","lat":43.29043,"lon":5.3815,"is_reserved":false,"is_disabled":true,"rental_uris":{"android":"levelo://app?vid=dd2047c2-bb91-49cf-b349-a50990a16979","ios":"levelo://app?vid=dd2047c2-bb91-49cf-b349-a50990a16979"},"vehicle_type_id":"4","last_reported":1777091231,"current_range_meters":4400,"station_id":"ce4bh4p2rcd13ifvqe1g","pricing_plan_id":"cebpf4jnsgd1na2vs0mg"},{"bike_id":"1f3906dd-948e-4d18-9bb2-b2fc350fa481","system_id":"levelo_inurba_marseille","lat":43.27455,"lon":5.39418,"is_reserved":false,"is_disabled":true,"rental_uris":{"android":"levelo://app?vid=1f3906dd-948e-4d18-9bb2-b2fc350fa481","ios":"levelo://app?vid=1f3906dd-948e-4d18-9bb2-b2fc350fa481"},"vehicle_type_id":"4","last_reported":1777091231,"current_range_meters":4400,"station_id":"ce4bhdp2rcd13ifvqf20","pricing_plan_id":"cebpf4jnsgd1na2vs0mg"},{"bike_id":"ebd0b13e-ae76-4477-babd-d4b508da556a","system_id":"levelo_inurba_marseille","lat":43.31163,"lon":5.36836,"is_reserved":false,"is_disabled":false,"rental_uris":{"android":"levelo://app?vid=ebd0b13e-ae76-4477-babd-d4b508da556a","ios":"levelo://app?vid=ebd0b13e-ae76-4477-babd-d4b508da556a"},"vehicle_type_id":"4","last_reported":1777091231,"current_range_meters":4400,"station_id":"","pricing_plan_id":"cebpf4jnsgd1na2vs0mg"},{"bike_id":"e00985dd-0b9c-4883-8a91-d09e406e1f1d","system_id":"levelo_inurba_marseille","lat":43.28853,"lon":5.39306,"is_reserved":false,"is_disabled":false,"rental_uris":{"android":"levelo://app?vid=e00985dd-0b9c-4883-8a91-d09e406e1f1d","ios":"levelo://app?vid=e00985dd-0b9c-4883-8a91-d09e406e1f1d"},"vehicle_type_id":"4","last_reported":1777091231,"current_range_meters":4400,"station_id":"ce4bh2p2rcd13ifvqdi0","pricing_plan_id":"cebpf4jnsgd1na2vs0mg"},{"bike_id":"1f6631b6-1692-4dbe-89e4-4b9a7994768e","system_id":"levelo_inurba_marseille","lat":43.24674,"lon":5.38161,"is_reserved":false,"is_disabled":false,"rental_uris":{"android":"levelo://app?vid=1f6631b6-1692-4dbe-89e4-4b9a7994768e","ios":"levelo://app?vid=1f6631b6-1692-4dbe-89e4-4b9a7994768e"},"vehicle_type_id":"4","last_reported":1777091231,"current_range_meters":4800,"station_id":"ce4bhih2rcd13ifvqfr0","pricing_plan_id":"cebpf4jnsgd1na2vs0mg"},{"bike_id":"3762a15a-49a2-4fc6-b2e6-a79b5f91a12f","system_id":"levelo_inurba_marseille","lat":43.28496,"lon":5.48414,"is_reserved":false,"is_disabled":false,"rental_uris":{"android":"levelo://app?vid=3762a15a-49a2-4fc6-b2e6-a79b5f91a12f","ios":"levelo://app?vid=3762a15a-49a2-4fc6-b2e6-a79b5f91a12f"},"vehicle_type_id":"4","last_reported":1777091231,"current_range_meters":4800,"station_id":"","pricing_plan_id":"cebpf4jnsgd1na2vs0mg"},{"bike_id":"af5bcf00-056b-40e5-a772-0f201d8d90df","system_id":"levelo_inurba_marseille","lat":43.29646,"lon":5.37719,"is_reserved":false,"is_disabled":true,"rental_uris":{"android":"levelo://app?vid=af5bcf00-056b-40e5-a772-0f201d8d90df","ios":"levelo://app?vid=af5bcf00-056b-40e5-a772-0f201d8d90df"},"vehicle_type_id":"4","last_reported":1777091231,"current_range_meters":4800,"station_id":"ce4bgi92rcd13ifvqb90","pricing_plan_id":"cebpf4jnsgd1na2vs0mg"},{"bike_id":"03d50329-e768-413f-8f2a-24897a3a945b","system_id":"levelo_inurba_marseille","lat":43.24826,"lon":5.37459,"is_reserved":false,"is_disabled":false,"rental_uris":{"android":"levelo://app?vid=03d50329-e768-413f-8f2a-24897a3a945b","ios":"levelo://app?vid=03d50329-e768-413f-8f2a-24897a3a945b"},"vehicle_type_id":"4","last_reported":1777091231,"current_range_meters":4800,"station_id":"ce4bhgh2rcd13ifvqfb0","pricing_plan_id":"cebpf4jnsgd1na2vs0mg"},{"bike_id":"bf941743-da61-4fe3-9e32-46f004a7578b","system_id":"levelo_inurba_marseille","lat":43.2862,"lon":5.3707,"is_reserved":false,"is_disabled":false,"rental_uris":{"android":"levelo://app?vid=bf941743-da61-4fe3-9e32-46f004a7578b","ios":"levelo://app?vid=bf941743-da61-4fe3-9e32-46f004a7578b"},"vehicle_type_id":"4","last_reported":1777091231,"current_range_meters":4800,"station_id":"ce4bht12rcd13ifvqi60","pricing_plan_id":"cebpf4jnsgd1na2vs0mg"},{"bike_id":"cd21f6c1-a1f8-4978-8025-1d254a6bf514","system_id":"levelo_inurba_marseille","lat":43.28483,"lon":5.48397,"is_reserved":false,"is_disabled":false,"rental_uris":{"android":"levelo://app?vid=cd21f6c1-a1f8-4978-8025-1d254a6bf514","ios":"levelo://app?vid=cd21f6c1-a1f8-4978-8025-1d254a6bf514"},"vehicle_type_id":"4","last_reported":1777091231,"current_range_meters":4800,"station_id":"st_d3svhcjqgbts73a3dn0g","pricing_plan_id":"cebpf4jnsgd1na2vs0mg"},{"bike_id":"81aac9ff-484f-4851-bab4-3dd3b4973c75","system_id":"levelo_inurba_marseille","lat":43.2607,"lon":5.39429,"is_reserved":false,"is_disabled":false,"rental_uris":{"android":"levelo://app?vid=81aac9ff-484f-4851-bab4-3dd3b4973c75","ios":"levelo://app?vid=81aac9ff-484f-4851-bab4-3dd3b4973c75"},"vehicle_type_id":"4","last_reported":1777091231,"current_range_meters":4800,"station_id":"ce4bhh92rcd13ifvqfj0","pricing_plan_id":"cebpf4jnsgd1na2vs0mg"},{"bike_id":"26e311ec-734f-477f-9bdc-cee009d68abe","system_id":"levelo_inurba_marseille","lat":43.3355,"lon":5.37463,"is_reserved":false,"is_disabled":false,"rental_uris":{"android":"levelo://app?vid=26e311ec-734f-477f-9bdc-cee009d68abe","ios":"levelo://app?vid=26e311ec-734f-477f-9bdc-cee009d68abe"},"vehicle_type_id":"4","last_reported":1777091231,"current_range_meters":4800,"station_id":"st_d46tts09ee8s73dlu43g","pricing_plan_id":"cebpf4jnsgd1na2vs0mg"},{"bike_id":"7489b790-3f1f-43b1-b807-b90e39bbc278","system_id":"levelo_inurba_marseille","lat":43.28628,"lon":5.39889,"is_reserved":false,"is_disabled":false,"rental_uris":{"android":"levelo://app?vid=7489b790-3f1f-43b1-b807-b90e39bbc278","ios":"levelo://app?vid=7489b790-3f1f-43b1-b807-b90e39bbc278"},"vehicle_type_id":"4","last_reported":1777091231,"current_range_meters":4800,"station_id":"st_d4a7ka997mjs738ck50g","pricing_plan_id":"cebpf4jnsgd1na2vs0mg"},{"bike_id":"d87a5c77-dc1c-481c-a60a-599d12257dcd","system_id":"levelo_inurba_marseille","lat":43.25568,"lon":5.38242,"is_reserved":false,"is_disabled":false,"rental_uris":{"android":"levelo://app?vid=d87a5c77-dc1c-481c-a60a-599d12257dcd","ios":"levelo://app?vid=d87a5c77-dc1c-481c-a60a-599d12257dcd"},"vehicle_type_id":"4","last_reported":1777091231,"current_range_meters":4800,"station_id":"ce4bhih2rcd13ifvqfs0","pricing_plan_id":"cebpf4jnsgd1na2vs0mg"},{"bike_id":"08685f01-eee7-42d7-b387-e9727076a21e","system_id":"levelo_inurba_marseille","lat":43.30937,"lon":5.40144,"is_reserved":false,"is_disabled":false,"rental_uris":{"android":"levelo://app?vid=08685f01-eee7-42d7-b387-e9727076a21e","ios":"levelo://app?vid=08685f01-eee7-42d7-b387-e9727076a21e"},"vehicle_type_id":"4","last_reported":1777091231,"current_range_meters":4800,"station_id":"ce4bgvp2rcd13ifvqct0","pricing_plan_id":"cebpf4jnsgd1na2vs0mg"},{"bike_id":"815dd24c-6bc3-404e-ae21-da40af49d8c8","system_id":"levelo_inurba_marseille","lat":43.28044,"lon":5.3694,"is_reserved":false,"is_disabled":false,"rental_uris":{"android":"levelo://app?vid=815dd24c-6bc3-404e-ae21-da40af49d8c8","ios":"levelo://app?vid=815dd24c-6bc3-404e-ae21-da40af49d8c8"},"vehicle_type_id":"4","last_reported":1777091231,"current_range_meters":4800,"station_id":"ce4bha12rcd13ifvqef0","pricing_plan_id":"cebpf4jnsgd1na2vs0mg"},{"bike_id":"4e0d0d98-1dda-494b-a6ce-04f5a876f744","system_id":"levelo_inurba_marseille","lat":43.27805,"lon":5.38901,"is_reserved":false,"is_disabled":false,"rental_uris":{"android":"levelo://app?vid=4e0d0d98-1dda-494b-a6ce-04f5a876f744","ios":"levelo://app?vid=4e0d0d98-1dda-494b-a6ce-04f5a876f744"},"vehicle_type_id":"4","last_reported":1777091231,"current_range_meters":4800,"station_id":"","pricing_plan_id":"cebpf4jnsgd1na2vs0mg"},{"bike_id":"4360d439-18d7-4d93-9c2e-beee96d7c9e1","system_id":"levelo_inurba_marseille","lat":43.30919,"lon":5.40151,"is_reserved":false,"is_disabled":false,"rental_uris":{"android":"levelo://app?vid=4360d439-18d7-4d93-9c2e-beee96d7c9e1","ios":"levelo://app?vid=4360d439-18d7-4d93-9c2e-beee96d7c9e1"},"vehicle_type_id":"4","last_reported":1777091231,"current_range_meters":4800,"station_id":"ce4bgvp2rcd13ifvqct0","pricing_plan_id":"cebpf4jnsgd1na2vs0mg"},{"bike_id":"c65ac002-da2e-47b7-85cf-270486fe67d6","system_id":"levelo_inurba_marseille","lat":43.29595,"lon":5.3997,"is_reserved":false,"is_disabled":true,"rental_uris":{"android":"levelo://app?vid=c65ac002-da2e-47b7-85cf-270486fe67d6","ios":"levelo://app?vid=c65ac002-da2e-47b7-85cf-270486fe67d6"},"vehicle_type_id":"4","last_reported":1777091231,"current_range_meters":4800,"station_id":"ce4bh312rcd13ifvqdj0","pricing_plan_id":"cebpf4jnsgd1na2vs0mg"},{"bike_id":"eb45fdfe-0e5a-4b9b-bff0-9f85a0232803","system_id":"levelo_inurba_marseille","lat":43.28492,"lon":5.38444,"is_reserved":false,"is_disabled":false,"rental_uris":{"android":"levelo://app?vid=eb45fdfe-0e5a-4b9b-bff0-9f85a0232803","ios":"levelo://app?vid=eb45fdfe-0e5a-4b9b-bff0-9f85a0232803"},"vehicle_type_id":"4","last_reported":1777091231,"current_range_meters":5600,"station_id":"ce4bh512rcd13ifvqe3g","pricing_plan_id":"cebpf4jnsgd1na2vs0mg"},{"bike_id":"c4a6cf3f-a5b9-43d7-91d0-4da564433a66","system_id":"levelo_inurba_marseille","lat":43.30174,"lon":5.37403,"is_reserved":false,"is_disabled":false,"rental_uris":{"android":"levelo://app?vid=c4a6cf3f-a5b9-43d7-91d0-4da564433a66","ios":"levelo://app?vid=c4a6cf3f-a5b9-43d7-91d0-4da564433a66"},"vehicle_type_id":"4","last_reported":1777091231,"current_range_meters":5600,"station_id":"ce4bgs92rcd13ifvqcc0","pricing_plan_id":"cebpf4jnsgd1na2vs0mg"},{"bike_id":"8a4d316b-7dfb-42df-8aea-4c7d58210d7a","system_id":"levelo_inurba_marseille","lat":43.31267,"lon":5.43053,"is_reserved":false,"is_disabled":false,"rental_uris":{"android":"levelo://app?vid=8a4d316b-7dfb-42df-8aea-4c7d58210d7a","ios":"levelo://app?vid=8a4d316b-7dfb-42df-8aea-4c7d58210d7a"},"vehicle_type_id":"4","last_reported":1777091231,"current_range_meters":5600,"station_id":"","pricing_plan_id":"cebpf4jnsgd1na2vs0mg"},{"bike_id":"d6547d7c-22de-4211-8570-dad16c77ec67","system_id":"levelo_inurba_marseille","lat":43.27685,"lon":5.38883,"is_reserved":false,"is_disabled":false,"rental_uris":{"android":"levelo://app?vid=d6547d7c-22de-4211-8570-dad16c77ec67","ios":"levelo://app?vid=d6547d7c-22de-4211-8570-dad16c77ec67"},"vehicle_type_id":"4","last_reported":1777091231,"current_range_meters":5600,"station_id":"ce4bhi12rcd13ifvqfo0","pricing_plan_id":"cebpf4jnsgd1na2vs0mg"},{"bike_id":"b9fdce83-4e02-4f0c-9f85-16214a6d8c30","system_id":"levelo_inurba_marseille","lat":43.30802,"lon":5.3815,"is_reserved":false,"is_disabled":false,"rental_uris":{"android":"levelo://app?vid=b9fdce83-4e02-4f0c-9f85-16214a6d8c30","ios":"levelo://app?vid=b9fdce83-4e02-4f0c-9f85-16214a6d8c30"},"vehicle_type_id":"4","last_reported":1777091231,"current_range_meters":5600,"station_id":"ce4bgt12rcd13ifvqce0","pricing_plan_id":"cebpf4jnsgd1na2vs0mg"},{"bike_id":"4551c740-3475-43fa-8fa8-ffc94c336a9f","system_id":"levelo_inurba_marseille","lat":43.28498,"lon":5.38443,"is_reserved":false,"is_disabled":false,"rental_uris":{"android":"levelo://app?vid=4551c740-3475-43fa-8fa8-ffc94c336a9f","ios":"levelo://app?vid=4551c740-3475-43fa-8fa8-ffc94c336a9f"},"vehicle_type_id":"4","last_reported":1777091231,"current_range_meters":5600,"station_id":"ce4bh512rcd13ifvqe3g","pricing_plan_id":"cebpf4jnsgd1na2vs0mg"},{"bike_id":"b38d89b8-c3c9-4fae-b6f2-09980d89f2e9","system_id":"levelo_inurba_marseille","lat":43.28478,"lon":5.48402,"is_reserved":false,"is_disabled":false,"rental_uris":{"android":"levelo://app?vid=b38d89b8-c3c9-4fae-b6f2-09980d89f2e9","ios":"levelo://app?vid=b38d89b8-c3c9-4fae-b6f2-09980d89f2e9"},"vehicle_type_id":"4","last_reported":1777091231,"current_range_meters":5600,"station_id":"","pricing_plan_id":"cebpf4jnsgd1na2vs0mg"},{"bike_id":"cfb92d86-e39b-4e73-89de-1a3e84479721","system_id":"levelo_inurba_marseille","lat":43.30859,"lon":5.39673,"is_reserved":false,"is_disabled":false,"rental_uris":{"android":"levelo://app?vid=cfb92d86-e39b-4e73-89de-1a3e84479721","ios":"levelo://app?vid=cfb92d86-e39b-4e73-89de-1a3e84479721"},"vehicle_type_id":"4","last_reported":1777091231,"current_range_meters":5600,"station_id":"","pricing_plan_id":"cebpf4jnsgd1na2vs0mg"},{"bike_id":"06edec6a-5805-469e-9aae-fb51ca9b0dbc","system_id":"levelo_inurba_marseille","lat":43.3201,"lon":5.38156,"is_reserved":false,"is_disabled":false,"rental_uris":{"android":"levelo://app?vid=06edec6a-5805-469e-9aae-fb51ca9b0dbc","ios":"levelo://app?vid=06edec6a-5805-469e-9aae-fb51ca9b0dbc"},"vehicle_type_id":"4","last_reported":1777091231,"current_range_meters":5600,"station_id":"ce4bhr12rcd13ifvqhpg","pricing_plan_id":"cebpf4jnsgd1na2vs0mg"},{"bike_id":"2813910b-bfe0-425f-a483-9778de4facfb","system_id":"levelo_inurba_marseille","lat":43.30232,"lon":5.44967,"is_reserved":false,"is_disabled":false,"rental_uris":{"android":"levelo://app?vid=2813910b-bfe0-425f-a483-9778de4facfb","ios":"levelo://app?vid=2813910b-bfe0-425f-a483-9778de4facfb"},"vehicle_type_id":"4","last_reported":1777091231,"current_range_meters":5600,"station_id":"","pricing_plan_id":"cebpf4jnsgd1na2vs0mg"},{"bike_id":"f95f8175-1618-4974-8970-509c6f0c66c1","system_id":"levelo_inurba_marseille","lat":43.26944,"lon":5.38936,"is_reserved":false,"is_disabled":false,"rental_uris":{"android":"levelo://app?vid=f95f8175-1618-4974-8970-509c6f0c66c1","ios":"levelo://app?vid=f95f8175-1618-4974-8970-509c6f0c66c1"},"vehicle_type_id":"4","last_reported":1777091231,"current_range_meters":5600,"station_id":"ce4bhhh2rcd13ifvqfl0","pricing_plan_id":"cebpf4jnsgd1na2vs0mg"},{"bike_id":"c5144401-e972-4445-9dc7-2e728caa9411","system_id":"levelo_inurba_marseille","lat":43.23198,"lon":5.39976,"is_reserved":false,"is_disabled":false,"rental_uris":{"android":"levelo://app?vid=c5144401-e972-4445-9dc7-2e728caa9411","ios":"levelo://app?vid=c5144401-e972-4445-9dc7-2e728caa9411"},"vehicle_type_id":"4","last_reported":1777091231,"current_range_meters":5600,"station_id":"ce4bhn12rcd13ifvqgqg","pricing_plan_id":"cebpf4jnsgd1na2vs0mg"},{"bike_id":"a4d82876-8f2f-4eb7-8c48-16592fa7b068","system_id":"levelo_inurba_marseille","lat":43.31132,"lon":5.38793,"is_reserved":false,"is_disabled":false,"rental_uris":{"android":"levelo://app?vid=a4d82876-8f2f-4eb7-8c48-16592fa7b068","ios":"levelo://app?vid=a4d82876-8f2f-4eb7-8c48-16592fa7b068"},"vehicle_type_id":"4","last_reported":1777091231,"current_range_meters":5600,"station_id":"","pricing_plan_id":"cebpf4jnsgd1na2vs0mg"},{"bike_id":"8c44d8cd-c026-49ae-9817-aee228d305c5","system_id":"levelo_inurba_marseille","lat":43.31277,"lon":5.40178,"is_reserved":false,"is_disabled":false,"rental_uris":{"android":"levelo://app?vid=8c44d8cd-c026-49ae-9817-aee228d305c5","ios":"levelo://app?vid=8c44d8cd-c026-49ae-9817-aee228d305c5"},"vehicle_type_id":"4","last_reported":1777091231,"current_range_meters":5600,"station_id":"ce4bh092rcd13ifvqd30","pricing_plan_id":"cebpf4jnsgd1na2vs0mg"},{"bike_id":"1f582608-2655-4ba4-b095-16566a7cd559","system_id":"levelo_inurba_marseille","lat":43.31777,"lon":5.44563,"is_reserved":false,"is_disabled":false,"rental_uris":{"android":"levelo://app?vid=1f582608-2655-4ba4-b095-16566a7cd559","ios":"levelo://app?vid=1f582608-2655-4ba4-b095-16566a7cd559"},"vehicle_type_id":"4","last_reported":1777091231,"current_range_meters":5600,"station_id":"","pricing_plan_id":"cebpf4jnsgd1na2vs0mg"},{"bike_id":"f32a1bc6-9ef2-45a4-9d01-b7a090bffb02","system_id":"levelo_inurba_marseille","lat":43.24951,"lon":5.40491,"is_reserved":false,"is_disabled":false,"rental_uris":{"android":"levelo://app?vid=f32a1bc6-9ef2-45a4-9d01-b7a090bffb02","ios":"levelo://app?vid=f32a1bc6-9ef2-45a4-9d01-b7a090bffb02"},"vehicle_type_id":"4","last_reported":1777091231,"current_range_meters":5600,"station_id":"st_d2ngiaodas8pm72gd1h0","pricing_plan_id":"cebpf4jnsgd1na2vs0mg"},{"bike_id":"732477f8-f155-4d59-a54d-b8bf4e772643","system_id":"levelo_inurba_marseille","lat":43.30192,"lon":5.38055,"is_reserved":false,"is_disabled":false,"rental_uris":{"android":"levelo://app?vid=732477f8-f155-4d59-a54d-b8bf4e772643","ios":"levelo://app?vid=732477f8-f155-4d59-a54d-b8bf4e772643"},"vehicle_type_id":"4","last_reported":1777091231,"current_range_meters":6000,"station_id":"ce4bgjp2rcd13ifvqbh0","pricing_plan_id":"cebpf4jnsgd1na2vs0mg"},{"bike_id":"e8d002b1-199e-4516-8ed6-821a0c98040c","system_id":"levelo_inurba_marseille","lat":43.33768,"lon":5.37487,"is_reserved":false,"is_disabled":false,"rental_uris":{"android":"levelo://app?vid=e8d002b1-199e-4516-8ed6-821a0c98040c","ios":"levelo://app?vid=e8d002b1-199e-4516-8ed6-821a0c98040c"},"vehicle_type_id":"4","last_reported":1777091231,"current_range_meters":6000,"station_id":"st_d46cu089ee8s73dldbu0","pricing_plan_id":"cebpf4jnsgd1na2vs0mg"},{"bike_id":"02f9279e-7ffe-4b60-b55f-54f135904b3a","system_id":"levelo_inurba_marseille","lat":43.29983,"lon":5.38482,"is_reserved":false,"is_disabled":false,"rental_uris":{"android":"levelo://app?vid=02f9279e-7ffe-4b60-b55f-54f135904b3a","ios":"levelo://app?vid=02f9279e-7ffe-4b60-b55f-54f135904b3a"},"vehicle_type_id":"4","last_reported":1777091231,"current_range_meters":6000,"station_id":"ce4bgj92rcd13ifvqbd0","pricing_plan_id":"cebpf4jnsgd1na2vs0mg"},{"bike_id":"8fb84350-1a94-4bc1-975c-56b8215e2ec6","system_id":"levelo_inurba_marseille","lat":43.27474,"lon":5.43923,"is_reserved":false,"is_disabled":false,"rental_uris":{"android":"levelo://app?vid=8fb84350-1a94-4bc1-975c-56b8215e2ec6","ios":"levelo://app?vid=8fb84350-1a94-4bc1-975c-56b8215e2ec6"},"vehicle_type_id":"4","last_reported":1777091231,"current_range_meters":6000,"station_id":"","pricing_plan_id":"cebpf4jnsgd1na2vs0mg"},{"bike_id":"bad05bc0-d057-4d7a-8298-4c847c3817c1","system_id":"levelo_inurba_marseille","lat":43.2849,"lon":5.38442,"is_reserved":false,"is_disabled":false,"rental_uris":{"android":"levelo://app?vid=bad05bc0-d057-4d7a-8298-4c847c3817c1","ios":"levelo://app?vid=bad05bc0-d057-4d7a-8298-4c847c3817c1"},"vehicle_type_id":"4","last_reported":1777091231,"current_range_meters":6000,"station_id":"ce4bh512rcd13ifvqe3g","pricing_plan_id":"cebpf4jnsgd1na2vs0mg"},{"bike_id":"a7b87245-c28d-4f8d-becb-31bbaad379e8","system_id":"levelo_inurba_marseille","lat":43.28372,"lon":5.38648,"is_reserved":false,"is_disabled":false,"rental_uris":{"android":"levelo://app?vid=a7b87245-c28d-4f8d-becb-31bbaad379e8","ios":"levelo://app?vid=a7b87245-c28d-4f8d-becb-31bbaad379e8"},"vehicle_type_id":"4","last_reported":1777091231,"current_range_meters":6000,"station_id":"ce4bh492rcd13ifvqdvg","pricing_plan_id":"cebpf4jnsgd1na2vs0mg"},{"bike_id":"6b413103-7bb7-4f7d-abaf-6d1e177cc21d","system_id":"levelo_inurba_marseille","lat":43.25929,"lon":5.40914,"is_reserved":false,"is_disabled":false,"rental_uris":{"android":"levelo://app?vid=6b413103-7bb7-4f7d-abaf-6d1e177cc21d","ios":"levelo://app?vid=6b413103-7bb7-4f7d-abaf-6d1e177cc21d"},"vehicle_type_id":"4","last_reported":1777091231,"current_range_meters":6000,"station_id":"ce4bhm92rcd13ifvqglg","pricing_plan_id":"cebpf4jnsgd1na2vs0mg"},{"bike_id":"08490cf7-8caa-4d8c-a5d5-d0ce20d650c8","system_id":"levelo_inurba_marseille","lat":43.30255,"lon":5.40113,"is_reserved":false,"is_disabled":false,"rental_uris":{"android":"levelo://app?vid=08490cf7-8caa-4d8c-a5d5-d0ce20d650c8","ios":"levelo://app?vid=08490cf7-8caa-4d8c-a5d5-d0ce20d650c8"},"vehicle_type_id":"4","last_reported":1777091231,"current_range_meters":6000,"station_id":"ce4bgvh2rcd13ifvqcs0","pricing_plan_id":"cebpf4jnsgd1na2vs0mg"},{"bike_id":"7ab9e9d2-55c6-492f-8e60-126c7a6965ab","system_id":"levelo_inurba_marseille","lat":43.27965,"lon":5.37033,"is_reserved":false,"is_disabled":false,"rental_uris":{"android":"levelo://app?vid=7ab9e9d2-55c6-492f-8e60-126c7a6965ab","ios":"levelo://app?vid=7ab9e9d2-55c6-492f-8e60-126c7a6965ab"},"vehicle_type_id":"4","last_reported":1777091231,"current_range_meters":6000,"station_id":"","pricing_plan_id":"cebpf4jnsgd1na2vs0mg"},{"bike_id":"17ec522f-2315-4a43-ad4f-a8df0bfbb584","system_id":"levelo_inurba_marseille","lat":43.24806,"lon":5.37456,"is_reserved":false,"is_disabled":false,"rental_uris":{"android":"levelo://app?vid=17ec522f-2315-4a43-ad4f-a8df0bfbb584","ios":"levelo://app?vid=17ec522f-2315-4a43-ad4f-a8df0bfbb584"},"vehicle_type_id":"4","last_reported":1777091231,"current_range_meters":6000,"station_id":"ce4bhgh2rcd13ifvqfb0","pricing_plan_id":"cebpf4jnsgd1na2vs0mg"},{"bike_id":"8ee0a40d-124f-4413-9074-6911095dcd65","system_id":"levelo_inurba_marseille","lat":43.26578,"lon":5.37304,"is_reserved":false,"is_disabled":false,"rental_uris":{"android":"levelo://app?vid=8ee0a40d-124f-4413-9074-6911095dcd65","ios":"levelo://app?vid=8ee0a40d-124f-4413-9074-6911095dcd65"},"vehicle_type_id":"4","last_reported":1777091231,"current_range_meters":6400,"station_id":"ce4bhg12rcd13ifvqf70","pricing_plan_id":"cebpf4jnsgd1na2vs0mg"},{"bike_id":"0b232796-9302-45f9-a4a4-1691472623ac","system_id":"levelo_inurba_marseille","lat":43.30908,"lon":5.39711,"is_reserved":false,"is_disabled":false,"rental_uris":{"android":"levelo://app?vid=0b232796-9302-45f9-a4a4-1691472623ac","ios":"levelo://app?vid=0b232796-9302-45f9-a4a4-1691472623ac"},"vehicle_type_id":"4","last_reported":1777091231,"current_range_meters":6400,"station_id":"ce4bh012rcd13ifvqcv0","pricing_plan_id":"cebpf4jnsgd1na2vs0mg"},{"bike_id":"3d157094-1633-4b6b-b41f-2648a50f3eee","system_id":"levelo_inurba_marseille","lat":43.31483,"lon":5.37295,"is_reserved":false,"is_disabled":false,"rental_uris":{"android":"levelo://app?vid=3d157094-1633-4b6b-b41f-2648a50f3eee","ios":"levelo://app?vid=3d157094-1633-4b6b-b41f-2648a50f3eee"},"vehicle_type_id":"4","last_reported":1777091231,"current_range_meters":6400,"station_id":"ce4bgt12rcd13ifvqcd0","pricing_plan_id":"cebpf4jnsgd1na2vs0mg"},{"bike_id":"aa897415-67a0-4b07-b64e-cbc8da7d4792","system_id":"levelo_inurba_marseille","lat":43.24169,"lon":5.36402,"is_reserved":false,"is_disabled":false,"rental_uris":{"android":"levelo://app?vid=aa897415-67a0-4b07-b64e-cbc8da7d4792","ios":"levelo://app?vid=aa897415-67a0-4b07-b64e-cbc8da7d4792"},"vehicle_type_id":"4","last_reported":1777091231,"current_range_meters":6400,"station_id":"cpo36qri1sfpv3e86is0","pricing_plan_id":"cebpf4jnsgd1na2vs0mg"},{"bike_id":"f5b44d4c-2cb8-46f1-9505-84ba8645a3dc","system_id":"levelo_inurba_marseille","lat":43.29038,"lon":5.39982,"is_reserved":false,"is_disabled":false,"rental_uris":{"android":"levelo://app?vid=f5b44d4c-2cb8-46f1-9505-84ba8645a3dc","ios":"levelo://app?vid=f5b44d4c-2cb8-46f1-9505-84ba8645a3dc"},"vehicle_type_id":"4","last_reported":1777091231,"current_range_meters":6400,"station_id":"ce4bh392rcd13ifvqdm0","pricing_plan_id":"cebpf4jnsgd1na2vs0mg"},{"bike_id":"96d752d0-7e81-4f08-b82a-90a416fc8e94","system_id":"levelo_inurba_marseille","lat":43.30934,"lon":5.40151,"is_reserved":false,"is_disabled":false,"rental_uris":{"android":"levelo://app?vid=96d752d0-7e81-4f08-b82a-90a416fc8e94","ios":"levelo://app?vid=96d752d0-7e81-4f08-b82a-90a416fc8e94"},"vehicle_type_id":"4","last_reported":1777091231,"current_range_meters":6400,"station_id":"ce4bgvp2rcd13ifvqct0","pricing_plan_id":"cebpf4jnsgd1na2vs0mg"},{"bike_id":"cd210a1c-14e3-40ad-b7a0-4041750b24d6","system_id":"levelo_inurba_marseille","lat":43.26958,"lon":5.3863,"is_reserved":false,"is_disabled":false,"rental_uris":{"android":"levelo://app?vid=cd210a1c-14e3-40ad-b7a0-4041750b24d6","ios":"levelo://app?vid=cd210a1c-14e3-40ad-b7a0-4041750b24d6"},"vehicle_type_id":"4","last_reported":1777091231,"current_range_meters":6400,"station_id":"ce4bhh92rcd13ifvqfh0","pricing_plan_id":"cebpf4jnsgd1na2vs0mg"},{"bike_id":"33b474e7-79ff-4803-b72e-82f4ac2d8854","system_id":"levelo_inurba_marseille","lat":43.30852,"lon":5.39681,"is_reserved":false,"is_disabled":false,"rental_uris":{"android":"levelo://app?vid=33b474e7-79ff-4803-b72e-82f4ac2d8854","ios":"levelo://app?vid=33b474e7-79ff-4803-b72e-82f4ac2d8854"},"vehicle_type_id":"4","last_reported":1777091231,"current_range_meters":6400,"station_id":"","pricing_plan_id":"cebpf4jnsgd1na2vs0mg"},{"bike_id":"a7398d3c-309c-40e4-8059-f2e4acd33fe1","system_id":"levelo_inurba_marseille","lat":43.31993,"lon":5.38159,"is_reserved":false,"is_disabled":false,"rental_uris":{"android":"levelo://app?vid=a7398d3c-309c-40e4-8059-f2e4acd33fe1","ios":"levelo://app?vid=a7398d3c-309c-40e4-8059-f2e4acd33fe1"},"vehicle_type_id":"4","last_reported":1777091231,"current_range_meters":6400,"station_id":"ce4bhr12rcd13ifvqhpg","pricing_plan_id":"cebpf4jnsgd1na2vs0mg"},{"bike_id":"c832fcd2-d12b-4dd6-b375-cbed46c5a0fd","system_id":"levelo_inurba_marseille","lat":43.28615,"lon":5.39884,"is_reserved":false,"is_disabled":false,"rental_uris":{"android":"levelo://app?vid=c832fcd2-d12b-4dd6-b375-cbed46c5a0fd","ios":"levelo://app?vid=c832fcd2-d12b-4dd6-b375-cbed46c5a0fd"},"vehicle_type_id":"4","last_reported":1777091231,"current_range_meters":6400,"station_id":"st_d4a7ka997mjs738ck50g","pricing_plan_id":"cebpf4jnsgd1na2vs0mg"},{"bike_id":"2406f351-767b-49b9-8076-68152a64ab99","system_id":"levelo_inurba_marseille","lat":43.3104,"lon":5.38539,"is_reserved":false,"is_disabled":false,"rental_uris":{"android":"levelo://app?vid=2406f351-767b-49b9-8076-68152a64ab99","ios":"levelo://app?vid=2406f351-767b-49b9-8076-68152a64ab99"},"vehicle_type_id":"4","last_reported":1777091231,"current_range_meters":6800,"station_id":"","pricing_plan_id":"cebpf4jnsgd1na2vs0mg"},{"bike_id":"78261630-81de-4445-a894-6fd44a6e8e63","system_id":"levelo_inurba_marseille","lat":43.28677,"lon":5.39996,"is_reserved":false,"is_disabled":true,"rental_uris":{"android":"levelo://app?vid=78261630-81de-4445-a894-6fd44a6e8e63","ios":"levelo://app?vid=78261630-81de-4445-a894-6fd44a6e8e63"},"vehicle_type_id":"4","last_reported":1777091231,"current_range_meters":6800,"station_id":"ce4bho92rcd13ifvqh3g","pricing_plan_id":"cebpf4jnsgd1na2vs0mg"},{"bike_id":"f8d22c6f-5995-456e-a194-e41100cef2a5","system_id":"levelo_inurba_marseille","lat":43.3081,"lon":5.38158,"is_reserved":false,"is_disabled":false,"rental_uris":{"android":"levelo://app?vid=f8d22c6f-5995-456e-a194-e41100cef2a5","ios":"levelo://app?vid=f8d22c6f-5995-456e-a194-e41100cef2a5"},"vehicle_type_id":"4","last_reported":1777091231,"current_range_meters":6800,"station_id":"ce4bgt12rcd13ifvqce0","pricing_plan_id":"cebpf4jnsgd1na2vs0mg"},{"bike_id":"4af5f932-71ad-4954-ac3b-fecb2a352994","system_id":"levelo_inurba_marseille","lat":43.32336,"lon":5.36731,"is_reserved":false,"is_disabled":false,"rental_uris":{"android":"levelo://app?vid=4af5f932-71ad-4954-ac3b-fecb2a352994","ios":"levelo://app?vid=4af5f932-71ad-4954-ac3b-fecb2a352994"},"vehicle_type_id":"4","last_reported":1777091231,"current_range_meters":6800,"station_id":"ce4bhsh2rcd13ifvqi2g","pricing_plan_id":"cebpf4jnsgd1na2vs0mg"},{"bike_id":"1370c3f0-6074-43de-a93b-f7f87c829b3b","system_id":"levelo_inurba_marseille","lat":43.2912,"lon":5.39985,"is_reserved":false,"is_disabled":false,"rental_uris":{"android":"levelo://app?vid=1370c3f0-6074-43de-a93b-f7f87c829b3b","ios":"levelo://app?vid=1370c3f0-6074-43de-a93b-f7f87c829b3b"},"vehicle_type_id":"4","last_reported":1777091231,"current_range_meters":6800,"station_id":"","pricing_plan_id":"cebpf4jnsgd1na2vs0mg"},{"bike_id":"60be4b0d-4c83-4300-8220-7b23e159ba6b","system_id":"levelo_inurba_marseille","lat":43.24812,"lon":5.37453,"is_reserved":false,"is_disabled":false,"rental_uris":{"android":"levelo://app?vid=60be4b0d-4c83-4300-8220-7b23e159ba6b","ios":"levelo://app?vid=60be4b0d-4c83-4300-8220-7b23e159ba6b"},"vehicle_type_id":"4","last_reported":1777091231,"current_range_meters":6800,"station_id":"ce4bhgh2rcd13ifvqfb0","pricing_plan_id":"cebpf4jnsgd1na2vs0mg"},{"bike_id":"05483cf0-c1ae-4465-a083-0bc3c7400548","system_id":"levelo_inurba_marseille","lat":43.27662,"lon":5.38874,"is_reserved":false,"is_disabled":true,"rental_uris":{"android":"levelo://app?vid=05483cf0-c1ae-4465-a083-0bc3c7400548","ios":"levelo://app?vid=05483cf0-c1ae-4465-a083-0bc3c7400548"},"vehicle_type_id":"4","last_reported":1777091231,"current_range_meters":6800,"station_id":"ce4bhi12rcd13ifvqfo0","pricing_plan_id":"cebpf4jnsgd1na2vs0mg"},{"bike_id":"4d5b4915-5fc0-4782-a3a4-e445cc2cf470","system_id":"levelo_inurba_marseille","lat":43.29871,"lon":5.42101,"is_reserved":false,"is_disabled":false,"rental_uris":{"android":"levelo://app?vid=4d5b4915-5fc0-4782-a3a4-e445cc2cf470","ios":"levelo://app?vid=4d5b4915-5fc0-4782-a3a4-e445cc2cf470"},"vehicle_type_id":"4","last_reported":1777091231,"current_range_meters":6800,"station_id":"st_d6tc004otcvc738tfe70","pricing_plan_id":"cebpf4jnsgd1na2vs0mg"},{"bike_id":"ea4e001a-09d6-4f9d-8d3d-9f93e3b94c6f","system_id":"levelo_inurba_marseille","lat":43.28482,"lon":5.38422,"is_reserved":false,"is_disabled":false,"rental_uris":{"android":"levelo://app?vid=ea4e001a-09d6-4f9d-8d3d-9f93e3b94c6f","ios":"levelo://app?vid=ea4e001a-09d6-4f9d-8d3d-9f93e3b94c6f"},"vehicle_type_id":"4","last_reported":1777091231,"current_range_meters":6800,"station_id":"ce4bh512rcd13ifvqe3g","pricing_plan_id":"cebpf4jnsgd1na2vs0mg"},{"bike_id":"25da488e-77a1-4b15-a23b-57f58235fca3","system_id":"levelo_inurba_marseille","lat":43.26058,"lon":5.39392,"is_reserved":false,"is_disabled":false,"rental_uris":{"android":"levelo://app?vid=25da488e-77a1-4b15-a23b-57f58235fca3","ios":"levelo://app?vid=25da488e-77a1-4b15-a23b-57f58235fca3"},"vehicle_type_id":"4","last_reported":1777091231,"current_range_meters":6800,"station_id":"ce4bhh92rcd13ifvqfj0","pricing_plan_id":"cebpf4jnsgd1na2vs0mg"},{"bike_id":"0b699cb5-c7d3-46f8-b93f-0f4e6d620e9a","system_id":"levelo_inurba_marseille","lat":43.29845,"lon":5.44102,"is_reserved":false,"is_disabled":false,"rental_uris":{"android":"levelo://app?vid=0b699cb5-c7d3-46f8-b93f-0f4e6d620e9a","ios":"levelo://app?vid=0b699cb5-c7d3-46f8-b93f-0f4e6d620e9a"},"vehicle_type_id":"4","last_reported":1777091231,"current_range_meters":6800,"station_id":"st_d3jp68qikq2c7381ktn0","pricing_plan_id":"cebpf4jnsgd1na2vs0mg"},{"bike_id":"68385ad1-5a71-4622-9ac2-dcc837084f17","system_id":"levelo_inurba_marseille","lat":43.24073,"lon":5.37766,"is_reserved":false,"is_disabled":false,"rental_uris":{"android":"levelo://app?vid=68385ad1-5a71-4622-9ac2-dcc837084f17","ios":"levelo://app?vid=68385ad1-5a71-4622-9ac2-dcc837084f17"},"vehicle_type_id":"4","last_reported":1777091231,"current_range_meters":6800,"station_id":"ce4bhnp2rcd13ifvqgvg","pricing_plan_id":"cebpf4jnsgd1na2vs0mg"},{"bike_id":"4aef6f02-85ed-4897-bae4-8a210fd16538","system_id":"levelo_inurba_marseille","lat":43.24475,"lon":5.42534,"is_reserved":false,"is_disabled":false,"rental_uris":{"android":"levelo://app?vid=4aef6f02-85ed-4897-bae4-8a210fd16538","ios":"levelo://app?vid=4aef6f02-85ed-4897-bae4-8a210fd16538"},"vehicle_type_id":"4","last_reported":1777091231,"current_range_meters":6800,"station_id":"st_d4a3vfp97mjs738cd8kg","pricing_plan_id":"cebpf4jnsgd1na2vs0mg"},{"bike_id":"c7ac0306-6afc-4781-8692-f962ddfe1a23","system_id":"levelo_inurba_marseille","lat":43.32372,"lon":5.36712,"is_reserved":false,"is_disabled":false,"rental_uris":{"android":"levelo://app?vid=c7ac0306-6afc-4781-8692-f962ddfe1a23","ios":"levelo://app?vid=c7ac0306-6afc-4781-8692-f962ddfe1a23"},"vehicle_type_id":"4","last_reported":1777091231,"current_range_meters":6800,"station_id":"","pricing_plan_id":"cebpf4jnsgd1na2vs0mg"},{"bike_id":"e3c71021-397a-4900-81d6-5376627ff33b","system_id":"levelo_inurba_marseille","lat":43.30656,"lon":5.40071,"is_reserved":false,"is_disabled":false,"rental_uris":{"android":"levelo://app?vid=e3c71021-397a-4900-81d6-5376627ff33b","ios":"levelo://app?vid=e3c71021-397a-4900-81d6-5376627ff33b"},"vehicle_type_id":"4","last_reported":1777091231,"current_range_meters":6800,"station_id":"ce4bh112rcd13ifvqda0","pricing_plan_id":"cebpf4jnsgd1na2vs0mg"},{"bike_id":"f8b71621-9ee0-4284-b9b2-be8fa047ba8a","system_id":"levelo_inurba_marseille","lat":43.30125,"lon":5.4312,"is_reserved":false,"is_disabled":false,"rental_uris":{"android":"levelo://app?vid=f8b71621-9ee0-4284-b9b2-be8fa047ba8a","ios":"levelo://app?vid=f8b71621-9ee0-4284-b9b2-be8fa047ba8a"},"vehicle_type_id":"4","last_reported":1777091231,"current_range_meters":6800,"station_id":"st_d3js3co5814s73ftftug","pricing_plan_id":"cebpf4jnsgd1na2vs0mg"},{"bike_id":"69d2096f-f03f-4046-b00c-afd6c4c71c90","system_id":"levelo_inurba_marseille","lat":43.3116,"lon":5.38733,"is_reserved":false,"is_disabled":false,"rental_uris":{"android":"levelo://app?vid=69d2096f-f03f-4046-b00c-afd6c4c71c90","ios":"levelo://app?vid=69d2096f-f03f-4046-b00c-afd6c4c71c90"},"vehicle_type_id":"4","last_reported":1777091231,"current_range_meters":6800,"station_id":"ce4bgv12rcd13ifvqcp0","pricing_plan_id":"cebpf4jnsgd1na2vs0mg"},{"bike_id":"afc4cbb5-169b-4703-a752-402550e6087c","system_id":"levelo_inurba_marseille","lat":43.3026,"lon":5.40031,"is_reserved":false,"is_disabled":false,"rental_uris":{"android":"levelo://app?vid=afc4cbb5-169b-4703-a752-402550e6087c","ios":"levelo://app?vid=afc4cbb5-169b-4703-a752-402550e6087c"},"vehicle_type_id":"4","last_reported":1777091231,"current_range_meters":6800,"station_id":"ce4bgvh2rcd13ifvqcs0","pricing_plan_id":"cebpf4jnsgd1na2vs0mg"},{"bike_id":"09b78e7e-bea9-496c-bf25-203b27509dc1","system_id":"levelo_inurba_marseille","lat":43.28029,"lon":5.36957,"is_reserved":false,"is_disabled":false,"rental_uris":{"android":"levelo://app?vid=09b78e7e-bea9-496c-bf25-203b27509dc1","ios":"levelo://app?vid=09b78e7e-bea9-496c-bf25-203b27509dc1"},"vehicle_type_id":"4","last_reported":1777091231,"current_range_meters":7200,"station_id":"ce4bha12rcd13ifvqef0","pricing_plan_id":"cebpf4jnsgd1na2vs0mg"},{"bike_id":"27cd71a7-0940-4415-a67f-21597fbf1cd9","system_id":"levelo_inurba_marseille","lat":43.33028,"lon":5.39091,"is_reserved":false,"is_disabled":false,"rental_uris":{"android":"levelo://app?vid=27cd71a7-0940-4415-a67f-21597fbf1cd9","ios":"levelo://app?vid=27cd71a7-0940-4415-a67f-21597fbf1cd9"},"vehicle_type_id":"4","last_reported":1777091231,"current_range_meters":7200,"station_id":"ce4bhr92rcd13ifvqhrg","pricing_plan_id":"cebpf4jnsgd1na2vs0mg"},{"bike_id":"a4f29091-c169-44d5-86ae-0fae6e6376be","system_id":"levelo_inurba_marseille","lat":43.30192,"lon":5.38071,"is_reserved":false,"is_disabled":false,"rental_uris":{"android":"levelo://app?vid=a4f29091-c169-44d5-86ae-0fae6e6376be","ios":"levelo://app?vid=a4f29091-c169-44d5-86ae-0fae6e6376be"},"vehicle_type_id":"4","last_reported":1777091231,"current_range_meters":7200,"station_id":"","pricing_plan_id":"cebpf4jnsgd1na2vs0mg"},{"bike_id":"c0b94be2-5b7f-46a7-92c1-b0ac9bd48cbc","system_id":"levelo_inurba_marseille","lat":43.30556,"lon":5.36511,"is_reserved":false,"is_disabled":false,"rental_uris":{"android":"levelo://app?vid=c0b94be2-5b7f-46a7-92c1-b0ac9bd48cbc","ios":"levelo://app?vid=c0b94be2-5b7f-46a7-92c1-b0ac9bd48cbc"},"vehicle_type_id":"4","last_reported":1777091231,"current_range_meters":7200,"station_id":"ce4bgs12rcd13ifvqcag","pricing_plan_id":"cebpf4jnsgd1na2vs0mg"},{"bike_id":"87d16eab-f62b-4609-a92f-7cb9e2844076","system_id":"levelo_inurba_marseille","lat":43.28099,"lon":5.37853,"is_reserved":false,"is_disabled":false,"rental_uris":{"android":"levelo://app?vid=87d16eab-f62b-4609-a92f-7cb9e2844076","ios":"levelo://app?vid=87d16eab-f62b-4609-a92f-7cb9e2844076"},"vehicle_type_id":"4","last_reported":1777091231,"current_range_meters":7200,"station_id":"ce4bha12rcd13ifvqee0","pricing_plan_id":"cebpf4jnsgd1na2vs0mg"},{"bike_id":"45ad0d0e-efdd-4c05-bbcd-19b309dc3892","system_id":"levelo_inurba_marseille","lat":43.27979,"lon":5.41673,"is_reserved":false,"is_disabled":false,"rental_uris":{"android":"levelo://app?vid=45ad0d0e-efdd-4c05-bbcd-19b309dc3892","ios":"levelo://app?vid=45ad0d0e-efdd-4c05-bbcd-19b309dc3892"},"vehicle_type_id":"4","last_reported":1777091231,"current_range_meters":7200,"station_id":"ce4bho12rcd13ifvqh1g","pricing_plan_id":"cebpf4jnsgd1na2vs0mg"},{"bike_id":"3806eb63-4038-466d-ac03-ee4e2f1be1a5","system_id":"levelo_inurba_marseille","lat":43.2848,"lon":5.38434,"is_reserved":false,"is_disabled":false,"rental_uris":{"android":"levelo://app?vid=3806eb63-4038-466d-ac03-ee4e2f1be1a5","ios":"levelo://app?vid=3806eb63-4038-466d-ac03-ee4e2f1be1a5"},"vehicle_type_id":"4","last_reported":1777091231,"current_range_meters":7200,"station_id":"ce4bh512rcd13ifvqe3g","pricing_plan_id":"cebpf4jnsgd1na2vs0mg"},{"bike_id":"a3dee876-3af2-46d4-9131-1dd0997e500a","system_id":"levelo_inurba_marseille","lat":43.24405,"lon":5.37107,"is_reserved":false,"is_disabled":true,"rental_uris":{"android":"levelo://app?vid=a3dee876-3af2-46d4-9131-1dd0997e500a","ios":"levelo://app?vid=a3dee876-3af2-46d4-9131-1dd0997e500a"},"vehicle_type_id":"4","last_reported":1777091231,"current_range_meters":7200,"station_id":"ce4bhhh2rcd13ifvqfk0","pricing_plan_id":"cebpf4jnsgd1na2vs0mg"},{"bike_id":"6b2e1d1c-fd42-4733-96e6-328f1ce6b9e3","system_id":"levelo_inurba_marseille","lat":43.2783,"lon":5.4072,"is_reserved":false,"is_disabled":false,"rental_uris":{"android":"levelo://app?vid=6b2e1d1c-fd42-4733-96e6-328f1ce6b9e3","ios":"levelo://app?vid=6b2e1d1c-fd42-4733-96e6-328f1ce6b9e3"},"vehicle_type_id":"4","last_reported":1777091231,"current_range_meters":7200,"station_id":"ce4bhnh2rcd13ifvqgtg","pricing_plan_id":"cebpf4jnsgd1na2vs0mg"},{"bike_id":"eb2e4ff8-b616-4d1f-ac33-59451b8d9a41","system_id":"levelo_inurba_marseille","lat":43.25091,"lon":5.39521,"is_reserved":false,"is_disabled":false,"rental_uris":{"android":"levelo://app?vid=eb2e4ff8-b616-4d1f-ac33-59451b8d9a41","ios":"levelo://app?vid=eb2e4ff8-b616-4d1f-ac33-59451b8d9a41"},"vehicle_type_id":"4","last_reported":1777091231,"current_range_meters":7200,"station_id":"ce4bhm12rcd13ifvqgkg","pricing_plan_id":"cebpf4jnsgd1na2vs0mg"},{"bike_id":"7d84ddb3-748e-4f77-9ad4-ce79510747ad","system_id":"levelo_inurba_marseille","lat":43.28621,"lon":5.39883,"is_reserved":false,"is_disabled":false,"rental_uris":{"android":"levelo://app?vid=7d84ddb3-748e-4f77-9ad4-ce79510747ad","ios":"levelo://app?vid=7d84ddb3-748e-4f77-9ad4-ce79510747ad"},"vehicle_type_id":"4","last_reported":1777091231,"current_range_meters":7200,"station_id":"st_d4a7ka997mjs738ck50g","pricing_plan_id":"cebpf4jnsgd1na2vs0mg"},{"bike_id":"a49cc85a-db02-4da4-9fff-21ab4ec25f52","system_id":"levelo_inurba_marseille","lat":43.23196,"lon":5.35555,"is_reserved":false,"is_disabled":false,"rental_uris":{"android":"levelo://app?vid=a49cc85a-db02-4da4-9fff-21ab4ec25f52","ios":"levelo://app?vid=a49cc85a-db02-4da4-9fff-21ab4ec25f52"},"vehicle_type_id":"4","last_reported":1777091231,"current_range_meters":7200,"station_id":"ce4bhu92rcd13ifvqi70","pricing_plan_id":"cebpf4jnsgd1na2vs0mg"},{"bike_id":"943f89d5-dcf9-4800-92e0-46da1eca3387","system_id":"levelo_inurba_marseille","lat":43.28562,"lon":5.39493,"is_reserved":false,"is_disabled":false,"rental_uris":{"android":"levelo://app?vid=943f89d5-dcf9-4800-92e0-46da1eca3387","ios":"levelo://app?vid=943f89d5-dcf9-4800-92e0-46da1eca3387"},"vehicle_type_id":"4","last_reported":1777091231,"current_range_meters":7200,"station_id":"ce4bh292rcd13ifvqdg0","pricing_plan_id":"cebpf4jnsgd1na2vs0mg"},{"bike_id":"9e736a24-151b-4861-9d3c-68515cd11e0f","system_id":"levelo_inurba_marseille","lat":43.32114,"lon":5.36775,"is_reserved":false,"is_disabled":false,"rental_uris":{"android":"levelo://app?vid=9e736a24-151b-4861-9d3c-68515cd11e0f","ios":"levelo://app?vid=9e736a24-151b-4861-9d3c-68515cd11e0f"},"vehicle_type_id":"4","last_reported":1777091231,"current_range_meters":7200,"station_id":"ce4bhrh2rcd13ifvqhug","pricing_plan_id":"cebpf4jnsgd1na2vs0mg"},{"bike_id":"6d736f2d-1c30-4796-bb08-21a9d9f14eca","system_id":"levelo_inurba_marseille","lat":43.28072,"lon":5.3965,"is_reserved":false,"is_disabled":false,"rental_uris":{"android":"levelo://app?vid=6d736f2d-1c30-4796-bb08-21a9d9f14eca","ios":"levelo://app?vid=6d736f2d-1c30-4796-bb08-21a9d9f14eca"},"vehicle_type_id":"4","last_reported":1777091231,"current_range_meters":7200,"station_id":"ce4bho12rcd13ifvqh2g","pricing_plan_id":"cebpf4jnsgd1na2vs0mg"},{"bike_id":"261b4d20-3fce-4a9a-b1df-f7d9447249df","system_id":"levelo_inurba_marseille","lat":43.28482,"lon":5.484,"is_reserved":false,"is_disabled":false,"rental_uris":{"android":"levelo://app?vid=261b4d20-3fce-4a9a-b1df-f7d9447249df","ios":"levelo://app?vid=261b4d20-3fce-4a9a-b1df-f7d9447249df"},"vehicle_type_id":"4","last_reported":1777091231,"current_range_meters":7200,"station_id":"st_d3svhcjqgbts73a3dn0g","pricing_plan_id":"cebpf4jnsgd1na2vs0mg"},{"bike_id":"bf0fa334-c947-45a1-9615-86143d68cd5b","system_id":"levelo_inurba_marseille","lat":43.23178,"lon":5.39994,"is_reserved":false,"is_disabled":false,"rental_uris":{"android":"levelo://app?vid=bf0fa334-c947-45a1-9615-86143d68cd5b","ios":"levelo://app?vid=bf0fa334-c947-45a1-9615-86143d68cd5b"},"vehicle_type_id":"4","last_reported":1777091231,"current_range_meters":7200,"station_id":"ce4bhn12rcd13ifvqgqg","pricing_plan_id":"cebpf4jnsgd1na2vs0mg"},{"bike_id":"42fefd69-5bfa-4242-8c1c-e87ebadeadf4","system_id":"levelo_inurba_marseille","lat":43.31044,"lon":5.37175,"is_reserved":false,"is_disabled":false,"rental_uris":{"android":"levelo://app?vid=42fefd69-5bfa-4242-8c1c-e87ebadeadf4","ios":"levelo://app?vid=42fefd69-5bfa-4242-8c1c-e87ebadeadf4"},"vehicle_type_id":"4","last_reported":1777091231,"current_range_meters":7200,"station_id":"st_d4kl2rp97mjs73e7tdfg","pricing_plan_id":"cebpf4jnsgd1na2vs0mg"},{"bike_id":"5f4d22fe-104c-4f36-a551-988d331d9f95","system_id":"levelo_inurba_marseille","lat":43.30066,"lon":5.37407,"is_reserved":false,"is_disabled":false,"rental_uris":{"android":"levelo://app?vid=5f4d22fe-104c-4f36-a551-988d331d9f95","ios":"levelo://app?vid=5f4d22fe-104c-4f36-a551-988d331d9f95"},"vehicle_type_id":"4","last_reported":1777091231,"current_range_meters":7200,"station_id":"","pricing_plan_id":"cebpf4jnsgd1na2vs0mg"},{"bike_id":"428acf4a-2133-4c59-8c54-5262942ad7a8","system_id":"levelo_inurba_marseille","lat":43.30426,"lon":5.39749,"is_reserved":false,"is_disabled":false,"rental_uris":{"android":"levelo://app?vid=428acf4a-2133-4c59-8c54-5262942ad7a8","ios":"levelo://app?vid=428acf4a-2133-4c59-8c54-5262942ad7a8"},"vehicle_type_id":"4","last_reported":1777091231,"current_range_meters":7200,"station_id":"ce4bh092rcd13ifvqd20","pricing_plan_id":"cebpf4jnsgd1na2vs0mg"},{"bike_id":"4b57bdde-5505-4903-af3b-0a23fa383390","system_id":"levelo_inurba_marseille","lat":43.287167,"lon":5.379357,"is_reserved":false,"is_disabled":false,"rental_uris":{"android":"levelo://app?vid=4b57bdde-5505-4903-af3b-0a23fa383390","ios":"levelo://app?vid=4b57bdde-5505-4903-af3b-0a23fa383390"},"vehicle_type_id":"4","last_reported":1777091231,"current_range_meters":7200,"station_id":"ce4bh9p2rcd13ifvqec0","pricing_plan_id":"cebpf4jnsgd1na2vs0mg"},{"bike_id":"1b686d96-24d1-4d4e-ba01-cdad82b348cc","system_id":"levelo_inurba_marseille","lat":43.29039,"lon":5.3863,"is_reserved":false,"is_disabled":true,"rental_uris":{"android":"levelo://app?vid=1b686d96-24d1-4d4e-ba01-cdad82b348cc","ios":"levelo://app?vid=1b686d96-24d1-4d4e-ba01-cdad82b348cc"},"vehicle_type_id":"4","last_reported":1777091231,"current_range_meters":8000,"station_id":"ce4bh4p2rcd13ifvqe0g","pricing_plan_id":"cebpf4jnsgd1na2vs0mg"},{"bike_id":"0ce641a1-ca62-4f05-b894-4a72f77b98f2","system_id":"levelo_inurba_marseille","lat":43.32341,"lon":5.36764,"is_reserved":false,"is_disabled":false,"rental_uris":{"android":"levelo://app?vid=0ce641a1-ca62-4f05-b894-4a72f77b98f2","ios":"levelo://app?vid=0ce641a1-ca62-4f05-b894-4a72f77b98f2"},"vehicle_type_id":"4","last_reported":1777091231,"current_range_meters":8000,"station_id":"ce4bhsh2rcd13ifvqi2g","pricing_plan_id":"cebpf4jnsgd1na2vs0mg"},{"bike_id":"5eddcf62-d28d-47a6-9895-da2f94ffd6fd","system_id":"levelo_inurba_marseille","lat":43.286,"lon":5.38361,"is_reserved":false,"is_disabled":false,"rental_uris":{"android":"levelo://app?vid=5eddcf62-d28d-47a6-9895-da2f94ffd6fd","ios":"levelo://app?vid=5eddcf62-d28d-47a6-9895-da2f94ffd6fd"},"vehicle_type_id":"4","last_reported":1777091231,"current_range_meters":8000,"station_id":"","pricing_plan_id":"cebpf4jnsgd1na2vs0mg"},{"bike_id":"4e7f60dc-2079-4f51-9d09-01d31cdd2f9b","system_id":"levelo_inurba_marseille","lat":43.24636,"lon":5.43146,"is_reserved":false,"is_disabled":false,"rental_uris":{"android":"levelo://app?vid=4e7f60dc-2079-4f51-9d09-01d31cdd2f9b","ios":"levelo://app?vid=4e7f60dc-2079-4f51-9d09-01d31cdd2f9b"},"vehicle_type_id":"4","last_reported":1777091231,"current_range_meters":8000,"station_id":"st_d2m6c4gdas8pm72e190g","pricing_plan_id":"cebpf4jnsgd1na2vs0mg"},{"bike_id":"1d368fe1-0c8f-4a40-864c-b54082c58fa1","system_id":"levelo_inurba_marseille","lat":43.33547,"lon":5.37446,"is_reserved":false,"is_disabled":false,"rental_uris":{"android":"levelo://app?vid=1d368fe1-0c8f-4a40-864c-b54082c58fa1","ios":"levelo://app?vid=1d368fe1-0c8f-4a40-864c-b54082c58fa1"},"vehicle_type_id":"4","last_reported":1777091231,"current_range_meters":8000,"station_id":"st_d46tts09ee8s73dlu43g","pricing_plan_id":"cebpf4jnsgd1na2vs0mg"},{"bike_id":"f645e30b-5616-45b3-a17d-faf4a49d971d","system_id":"levelo_inurba_marseille","lat":43.31,"lon":5.37533,"is_reserved":false,"is_disabled":false,"rental_uris":{"android":"levelo://app?vid=f645e30b-5616-45b3-a17d-faf4a49d971d","ios":"levelo://app?vid=f645e30b-5616-45b3-a17d-faf4a49d971d"},"vehicle_type_id":"4","last_reported":1777091231,"current_range_meters":8000,"station_id":"","pricing_plan_id":"cebpf4jnsgd1na2vs0mg"},{"bike_id":"ae7282dc-cc1a-426a-a9a8-57dbb9c1e81e","system_id":"levelo_inurba_marseille","lat":43.27611,"lon":5.36112,"is_reserved":false,"is_disabled":false,"rental_uris":{"android":"levelo://app?vid=ae7282dc-cc1a-426a-a9a8-57dbb9c1e81e","ios":"levelo://app?vid=ae7282dc-cc1a-426a-a9a8-57dbb9c1e81e"},"vehicle_type_id":"4","last_reported":1777091231,"current_range_meters":8000,"station_id":"ce4bgj92rcd13ifvqbe0","pricing_plan_id":"cebpf4jnsgd1na2vs0mg"},{"bike_id":"90610949-5042-40f1-8252-076aeddd7d81","system_id":"levelo_inurba_marseille","lat":43.31906,"lon":5.36818,"is_reserved":false,"is_disabled":false,"rental_uris":{"android":"levelo://app?vid=90610949-5042-40f1-8252-076aeddd7d81","ios":"levelo://app?vid=90610949-5042-40f1-8252-076aeddd7d81"},"vehicle_type_id":"4","last_reported":1777091231,"current_range_meters":8000,"station_id":"st_d6o2h0d0559c73evc1b0","pricing_plan_id":"cebpf4jnsgd1na2vs0mg"},{"bike_id":"407712e6-0b06-4ca2-b23f-80f8b532c9f9","system_id":"levelo_inurba_marseille","lat":43.29552,"lon":5.3999,"is_reserved":false,"is_disabled":false,"rental_uris":{"android":"levelo://app?vid=407712e6-0b06-4ca2-b23f-80f8b532c9f9","ios":"levelo://app?vid=407712e6-0b06-4ca2-b23f-80f8b532c9f9"},"vehicle_type_id":"4","last_reported":1777091231,"current_range_meters":8000,"station_id":"ce4bh312rcd13ifvqdj0","pricing_plan_id":"cebpf4jnsgd1na2vs0mg"},{"bike_id":"405d89e2-0467-4e9d-bab0-646a0dfd4750","system_id":"levelo_inurba_marseille","lat":43.30257,"lon":5.40064,"is_reserved":false,"is_disabled":false,"rental_uris":{"android":"levelo://app?vid=405d89e2-0467-4e9d-bab0-646a0dfd4750","ios":"levelo://app?vid=405d89e2-0467-4e9d-bab0-646a0dfd4750"},"vehicle_type_id":"4","last_reported":1777091231,"current_range_meters":8000,"station_id":"ce4bgvh2rcd13ifvqcs0","pricing_plan_id":"cebpf4jnsgd1na2vs0mg"},{"bike_id":"46b0ffab-d905-4b98-bc39-0175d6c37233","system_id":"levelo_inurba_marseille","lat":43.30895,"lon":5.39645,"is_reserved":false,"is_disabled":false,"rental_uris":{"android":"levelo://app?vid=46b0ffab-d905-4b98-bc39-0175d6c37233","ios":"levelo://app?vid=46b0ffab-d905-4b98-bc39-0175d6c37233"},"vehicle_type_id":"4","last_reported":1777091231,"current_range_meters":8000,"station_id":"ce4bh012rcd13ifvqcv0","pricing_plan_id":"cebpf4jnsgd1na2vs0mg"},{"bike_id":"ce3f30fe-0390-437f-888f-b9cc7637e87e","system_id":"levelo_inurba_marseille","lat":43.25118,"lon":5.40323,"is_reserved":false,"is_disabled":false,"rental_uris":{"android":"levelo://app?vid=ce3f30fe-0390-437f-888f-b9cc7637e87e","ios":"levelo://app?vid=ce3f30fe-0390-437f-888f-b9cc7637e87e"},"vehicle_type_id":"4","last_reported":1777091231,"current_range_meters":8000,"station_id":"ce4bhlh2rcd13ifvqgig","pricing_plan_id":"cebpf4jnsgd1na2vs0mg"},{"bike_id":"6104ca58-5874-4a35-9b5a-b2642f450fd9","system_id":"levelo_inurba_marseille","lat":43.25079,"lon":5.39526,"is_reserved":false,"is_disabled":false,"rental_uris":{"android":"levelo://app?vid=6104ca58-5874-4a35-9b5a-b2642f450fd9","ios":"levelo://app?vid=6104ca58-5874-4a35-9b5a-b2642f450fd9"},"vehicle_type_id":"4","last_reported":1777091231,"current_range_meters":8000,"station_id":"ce4bhm12rcd13ifvqgkg","pricing_plan_id":"cebpf4jnsgd1na2vs0mg"},{"bike_id":"f43d4928-2045-486c-a490-907c83e092ec","system_id":"levelo_inurba_marseille","lat":43.31185,"lon":5.38729,"is_reserved":false,"is_disabled":false,"rental_uris":{"android":"levelo://app?vid=f43d4928-2045-486c-a490-907c83e092ec","ios":"levelo://app?vid=f43d4928-2045-486c-a490-907c83e092ec"},"vehicle_type_id":"4","last_reported":1777091231,"current_range_meters":8000,"station_id":"ce4bgv12rcd13ifvqcp0","pricing_plan_id":"cebpf4jnsgd1na2vs0mg"},{"bike_id":"419b8d0a-c51e-441d-afb9-ec5ef12e7f85","system_id":"levelo_inurba_marseille","lat":43.27083,"lon":5.42255,"is_reserved":false,"is_disabled":false,"rental_uris":{"android":"levelo://app?vid=419b8d0a-c51e-441d-afb9-ec5ef12e7f85","ios":"levelo://app?vid=419b8d0a-c51e-441d-afb9-ec5ef12e7f85"},"vehicle_type_id":"4","last_reported":1777091231,"current_range_meters":8000,"station_id":"ce4bhk92rcd13ifvqgb0","pricing_plan_id":"cebpf4jnsgd1na2vs0mg"},{"bike_id":"acc8afff-425e-4ea3-8324-a21c82fcea4e","system_id":"levelo_inurba_marseille","lat":43.3032,"lon":5.40438,"is_reserved":false,"is_disabled":false,"rental_uris":{"android":"levelo://app?vid=acc8afff-425e-4ea3-8324-a21c82fcea4e","ios":"levelo://app?vid=acc8afff-425e-4ea3-8324-a21c82fcea4e"},"vehicle_type_id":"4","last_reported":1777091231,"current_range_meters":8000,"station_id":"ce4bh012rcd13ifvqd10","pricing_plan_id":"cebpf4jnsgd1na2vs0mg"},{"bike_id":"5091d3df-140a-4a96-ba1e-f44ab742c57b","system_id":"levelo_inurba_marseille","lat":43.23197,"lon":5.4,"is_reserved":false,"is_disabled":true,"rental_uris":{"android":"levelo://app?vid=5091d3df-140a-4a96-ba1e-f44ab742c57b","ios":"levelo://app?vid=5091d3df-140a-4a96-ba1e-f44ab742c57b"},"vehicle_type_id":"4","last_reported":1777091231,"current_range_meters":8000,"station_id":"ce4bhn12rcd13ifvqgqg","pricing_plan_id":"cebpf4jnsgd1na2vs0mg"},{"bike_id":"adb1da41-68a9-4fb9-bff7-0b633f4063fa","system_id":"levelo_inurba_marseille","lat":43.26936,"lon":5.38663,"is_reserved":false,"is_disabled":false,"rental_uris":{"android":"levelo://app?vid=adb1da41-68a9-4fb9-bff7-0b633f4063fa","ios":"levelo://app?vid=adb1da41-68a9-4fb9-bff7-0b633f4063fa"},"vehicle_type_id":"4","last_reported":1777091231,"current_range_meters":8000,"station_id":"ce4bhh92rcd13ifvqfh0","pricing_plan_id":"cebpf4jnsgd1na2vs0mg"},{"bike_id":"6a382a26-93df-4b4f-99b6-0161544321ed","system_id":"levelo_inurba_marseille","lat":43.28273,"lon":5.35077,"is_reserved":false,"is_disabled":true,"rental_uris":{"android":"levelo://app?vid=6a382a26-93df-4b4f-99b6-0161544321ed","ios":"levelo://app?vid=6a382a26-93df-4b4f-99b6-0161544321ed"},"vehicle_type_id":"4","last_reported":1777091231,"current_range_meters":8400,"station_id":"ce4bhbp2rcd13ifvqerg","pricing_plan_id":"cebpf4jnsgd1na2vs0mg"},{"bike_id":"39d20de9-2e9e-49e6-9382-dbbbe646a8ae","system_id":"levelo_inurba_marseille","lat":43.30804,"lon":5.38157,"is_reserved":false,"is_disabled":false,"rental_uris":{"android":"levelo://app?vid=39d20de9-2e9e-49e6-9382-dbbbe646a8ae","ios":"levelo://app?vid=39d20de9-2e9e-49e6-9382-dbbbe646a8ae"},"vehicle_type_id":"4","last_reported":1777091231,"current_range_meters":8400,"station_id":"ce4bgt12rcd13ifvqce0","pricing_plan_id":"cebpf4jnsgd1na2vs0mg"},{"bike_id":"7c7a6e62-e130-431f-b3ec-a07feec308d8","system_id":"levelo_inurba_marseille","lat":43.22703,"lon":5.34817,"is_reserved":false,"is_disabled":false,"rental_uris":{"android":"levelo://app?vid=7c7a6e62-e130-431f-b3ec-a07feec308d8","ios":"levelo://app?vid=7c7a6e62-e130-431f-b3ec-a07feec308d8"},"vehicle_type_id":"4","last_reported":1777091231,"current_range_meters":8400,"station_id":"","pricing_plan_id":"cebpf4jnsgd1na2vs0mg"},{"bike_id":"3bb719ff-b88d-42af-ad9e-aef72a3f1ba8","system_id":"levelo_inurba_marseille","lat":43.28416,"lon":5.37522,"is_reserved":false,"is_disabled":false,"rental_uris":{"android":"levelo://app?vid=3bb719ff-b88d-42af-ad9e-aef72a3f1ba8","ios":"levelo://app?vid=3bb719ff-b88d-42af-ad9e-aef72a3f1ba8"},"vehicle_type_id":"4","last_reported":1777091231,"current_range_meters":8400,"station_id":"ce4bh412rcd13ifvqds0","pricing_plan_id":"cebpf4jnsgd1na2vs0mg"},{"bike_id":"95430d5b-44ff-449b-9e09-8a6c48d6930c","system_id":"levelo_inurba_marseille","lat":43.29733,"lon":5.37794,"is_reserved":false,"is_disabled":false,"rental_uris":{"android":"levelo://app?vid=95430d5b-44ff-449b-9e09-8a6c48d6930c","ios":"levelo://app?vid=95430d5b-44ff-449b-9e09-8a6c48d6930c"},"vehicle_type_id":"4","last_reported":1777091231,"current_range_meters":8400,"station_id":"","pricing_plan_id":"cebpf4jnsgd1na2vs0mg"},{"bike_id":"89b4dec0-82be-4d44-8bf9-961143360cc0","system_id":"levelo_inurba_marseille","lat":43.21759,"lon":5.34607,"is_reserved":false,"is_disabled":false,"rental_uris":{"android":"levelo://app?vid=89b4dec0-82be-4d44-8bf9-961143360cc0","ios":"levelo://app?vid=89b4dec0-82be-4d44-8bf9-961143360cc0"},"vehicle_type_id":"4","last_reported":1777091231,"current_range_meters":8400,"station_id":"st_cvj6r9ubvosntc0bgbag","pricing_plan_id":"cebpf4jnsgd1na2vs0mg"},{"bike_id":"541dbded-315f-4ca8-ac49-47fcb4294bb7","system_id":"levelo_inurba_marseille","lat":43.33549,"lon":5.37457,"is_reserved":false,"is_disabled":false,"rental_uris":{"android":"levelo://app?vid=541dbded-315f-4ca8-ac49-47fcb4294bb7","ios":"levelo://app?vid=541dbded-315f-4ca8-ac49-47fcb4294bb7"},"vehicle_type_id":"4","last_reported":1777091231,"current_range_meters":8400,"station_id":"st_d46tts09ee8s73dlu43g","pricing_plan_id":"cebpf4jnsgd1na2vs0mg"},{"bike_id":"92aa62cf-f128-49f7-9b7e-a1b28669bee8","system_id":"levelo_inurba_marseille","lat":43.24664,"lon":5.38162,"is_reserved":false,"is_disabled":false,"rental_uris":{"android":"levelo://app?vid=92aa62cf-f128-49f7-9b7e-a1b28669bee8","ios":"levelo://app?vid=92aa62cf-f128-49f7-9b7e-a1b28669bee8"},"vehicle_type_id":"4","last_reported":1777091231,"current_range_meters":8400,"station_id":"ce4bhih2rcd13ifvqfr0","pricing_plan_id":"cebpf4jnsgd1na2vs0mg"},{"bike_id":"80d34ee4-9695-41ba-bcd8-fb44ac5753a6","system_id":"levelo_inurba_marseille","lat":43.28517,"lon":5.44109,"is_reserved":false,"is_disabled":false,"rental_uris":{"android":"levelo://app?vid=80d34ee4-9695-41ba-bcd8-fb44ac5753a6","ios":"levelo://app?vid=80d34ee4-9695-41ba-bcd8-fb44ac5753a6"},"vehicle_type_id":"4","last_reported":1777091231,"current_range_meters":8400,"station_id":"st_d3j3df2ikq2c7380ej80","pricing_plan_id":"cebpf4jnsgd1na2vs0mg"},{"bike_id":"bc0099df-f306-483b-886d-f98614947259","system_id":"levelo_inurba_marseille","lat":43.33155,"lon":5.37699,"is_reserved":false,"is_disabled":false,"rental_uris":{"android":"levelo://app?vid=bc0099df-f306-483b-886d-f98614947259","ios":"levelo://app?vid=bc0099df-f306-483b-886d-f98614947259"},"vehicle_type_id":"4","last_reported":1777091231,"current_range_meters":8800,"station_id":"st_d46cu089ee8s73dldbu0","pricing_plan_id":"cebpf4jnsgd1na2vs0mg"},{"bike_id":"413e4623-e4a6-44c0-8fe0-f06c3e224af8","system_id":"levelo_inurba_marseille","lat":43.31901,"lon":5.36807,"is_reserved":false,"is_disabled":false,"rental_uris":{"android":"levelo://app?vid=413e4623-e4a6-44c0-8fe0-f06c3e224af8","ios":"levelo://app?vid=413e4623-e4a6-44c0-8fe0-f06c3e224af8"},"vehicle_type_id":"4","last_reported":1777091231,"current_range_meters":8800,"station_id":"st_d6o2h0d0559c73evc1b0","pricing_plan_id":"cebpf4jnsgd1na2vs0mg"},{"bike_id":"4a896773-d468-4674-ab8d-3b89a54fe152","system_id":"levelo_inurba_marseille","lat":43.31766,"lon":5.39008,"is_reserved":false,"is_disabled":false,"rental_uris":{"android":"levelo://app?vid=4a896773-d468-4674-ab8d-3b89a54fe152","ios":"levelo://app?vid=4a896773-d468-4674-ab8d-3b89a54fe152"},"vehicle_type_id":"4","last_reported":1777091231,"current_range_meters":8800,"station_id":"ce4bhqp2rcd13ifvqhng","pricing_plan_id":"cebpf4jnsgd1na2vs0mg"},{"bike_id":"335d7250-451d-4620-bf87-cc5a457d5216","system_id":"levelo_inurba_marseille","lat":43.28578,"lon":5.38344,"is_reserved":false,"is_disabled":false,"rental_uris":{"android":"levelo://app?vid=335d7250-451d-4620-bf87-cc5a457d5216","ios":"levelo://app?vid=335d7250-451d-4620-bf87-cc5a457d5216"},"vehicle_type_id":"4","last_reported":1777091231,"current_range_meters":8800,"station_id":"","pricing_plan_id":"cebpf4jnsgd1na2vs0mg"},{"bike_id":"bcfbc128-d285-4d78-bf51-560ef0a60c72","system_id":"levelo_inurba_marseille","lat":43.28471,"lon":5.48401,"is_reserved":false,"is_disabled":false,"rental_uris":{"android":"levelo://app?vid=bcfbc128-d285-4d78-bf51-560ef0a60c72","ios":"levelo://app?vid=bcfbc128-d285-4d78-bf51-560ef0a60c72"},"vehicle_type_id":"4","last_reported":1777091231,"current_range_meters":8800,"station_id":"st_d3svhcjqgbts73a3dn0g","pricing_plan_id":"cebpf4jnsgd1na2vs0mg"},{"bike_id":"f9b98806-d74c-46ef-8642-07dd46c19f4b","system_id":"levelo_inurba_marseille","lat":43.28708,"lon":5.46694,"is_reserved":false,"is_disabled":false,"rental_uris":{"android":"levelo://app?vid=f9b98806-d74c-46ef-8642-07dd46c19f4b","ios":"levelo://app?vid=f9b98806-d74c-46ef-8642-07dd46c19f4b"},"vehicle_type_id":"4","last_reported":1777091231,"current_range_meters":8800,"station_id":"st_d6tc3vkotcvc738tfjhg","pricing_plan_id":"cebpf4jnsgd1na2vs0mg"},{"bike_id":"1a5575a4-8724-451b-8aed-7e6b880fe791","system_id":"levelo_inurba_marseille","lat":43.28697,"lon":5.40006,"is_reserved":false,"is_disabled":false,"rental_uris":{"android":"levelo://app?vid=1a5575a4-8724-451b-8aed-7e6b880fe791","ios":"levelo://app?vid=1a5575a4-8724-451b-8aed-7e6b880fe791"},"vehicle_type_id":"4","last_reported":1777091231,"current_range_meters":8800,"station_id":"ce4bho92rcd13ifvqh3g","pricing_plan_id":"cebpf4jnsgd1na2vs0mg"},{"bike_id":"8240ae53-3b21-4495-b553-933fb2bb4a99","system_id":"levelo_inurba_marseille","lat":43.32672,"lon":5.39879,"is_reserved":false,"is_disabled":false,"rental_uris":{"android":"levelo://app?vid=8240ae53-3b21-4495-b553-933fb2bb4a99","ios":"levelo://app?vid=8240ae53-3b21-4495-b553-933fb2bb4a99"},"vehicle_type_id":"4","last_reported":1777091231,"current_range_meters":8800,"station_id":"","pricing_plan_id":"cebpf4jnsgd1na2vs0mg"},{"bike_id":"998d8e4e-7e93-494d-adb3-57b994dc7798","system_id":"levelo_inurba_marseille","lat":43.27375,"lon":5.36254,"is_reserved":false,"is_disabled":true,"rental_uris":{"android":"levelo://app?vid=998d8e4e-7e93-494d-adb3-57b994dc7798","ios":"levelo://app?vid=998d8e4e-7e93-494d-adb3-57b994dc7798"},"vehicle_type_id":"4","last_reported":1777091231,"current_range_meters":8800,"station_id":"ce4bhbh2rcd13ifvqeo0","pricing_plan_id":"cebpf4jnsgd1na2vs0mg"},{"bike_id":"fd49c6c8-309b-4094-a542-f795fb68b18f","system_id":"levelo_inurba_marseille","lat":43.31397,"lon":5.36655,"is_reserved":false,"is_disabled":true,"rental_uris":{"android":"levelo://app?vid=fd49c6c8-309b-4094-a542-f795fb68b18f","ios":"levelo://app?vid=fd49c6c8-309b-4094-a542-f795fb68b18f"},"vehicle_type_id":"4","last_reported":1777091231,"current_range_meters":8800,"station_id":"ce4bgr92rcd13ifvqc6g","pricing_plan_id":"cebpf4jnsgd1na2vs0mg"},{"bike_id":"90fac789-06e9-4c33-94b9-e82543e03c21","system_id":"levelo_inurba_marseille","lat":43.2738,"lon":5.36263,"is_reserved":false,"is_disabled":true,"rental_uris":{"android":"levelo://app?vid=90fac789-06e9-4c33-94b9-e82543e03c21","ios":"levelo://app?vid=90fac789-06e9-4c33-94b9-e82543e03c21"},"vehicle_type_id":"4","last_reported":1777091231,"current_range_meters":8800,"station_id":"ce4bhbh2rcd13ifvqeo0","pricing_plan_id":"cebpf4jnsgd1na2vs0mg"},{"bike_id":"915f3511-b21b-4a84-8018-3a43f6b1a303","system_id":"levelo_inurba_marseille","lat":43.27063,"lon":5.4227,"is_reserved":false,"is_disabled":false,"rental_uris":{"android":"levelo://app?vid=915f3511-b21b-4a84-8018-3a43f6b1a303","ios":"levelo://app?vid=915f3511-b21b-4a84-8018-3a43f6b1a303"},"vehicle_type_id":"4","last_reported":1777091231,"current_range_meters":8800,"station_id":"ce4bhk92rcd13ifvqgb0","pricing_plan_id":"cebpf4jnsgd1na2vs0mg"},{"bike_id":"7aac87d3-c898-490d-9663-7b756f122524","system_id":"levelo_inurba_marseille","lat":43.31745,"lon":5.39008,"is_reserved":false,"is_disabled":false,"rental_uris":{"android":"levelo://app?vid=7aac87d3-c898-490d-9663-7b756f122524","ios":"levelo://app?vid=7aac87d3-c898-490d-9663-7b756f122524"},"vehicle_type_id":"4","last_reported":1777091231,"current_range_meters":8800,"station_id":"ce4bhqp2rcd13ifvqhng","pricing_plan_id":"cebpf4jnsgd1na2vs0mg"},{"bike_id":"8ef457cc-e324-448d-a2e0-f061d054fb1a","system_id":"levelo_inurba_marseille","lat":43.3136,"lon":5.385,"is_reserved":false,"is_disabled":false,"rental_uris":{"android":"levelo://app?vid=8ef457cc-e324-448d-a2e0-f061d054fb1a","ios":"levelo://app?vid=8ef457cc-e324-448d-a2e0-f061d054fb1a"},"vehicle_type_id":"4","last_reported":1777091231,"current_range_meters":8800,"station_id":"","pricing_plan_id":"cebpf4jnsgd1na2vs0mg"},{"bike_id":"2d2eb6c7-567b-4081-915b-6aaebffb8679","system_id":"levelo_inurba_marseille","lat":43.31704,"lon":5.40457,"is_reserved":false,"is_disabled":false,"rental_uris":{"android":"levelo://app?vid=2d2eb6c7-567b-4081-915b-6aaebffb8679","ios":"levelo://app?vid=2d2eb6c7-567b-4081-915b-6aaebffb8679"},"vehicle_type_id":"4","last_reported":1777091231,"current_range_meters":9200,"station_id":"ce4bh012rcd13ifvqd00","pricing_plan_id":"cebpf4jnsgd1na2vs0mg"},{"bike_id":"8812caca-97c2-4eea-aa79-aaeec67d8039","system_id":"levelo_inurba_marseille","lat":43.28198,"lon":5.3906,"is_reserved":false,"is_disabled":false,"rental_uris":{"android":"levelo://app?vid=8812caca-97c2-4eea-aa79-aaeec67d8039","ios":"levelo://app?vid=8812caca-97c2-4eea-aa79-aaeec67d8039"},"vehicle_type_id":"4","last_reported":1777091231,"current_range_meters":9200,"station_id":"ce4bhn92rcd13ifvqgsg","pricing_plan_id":"cebpf4jnsgd1na2vs0mg"},{"bike_id":"5687bcf3-d7dc-457c-91e4-c37491638fcd","system_id":"levelo_inurba_marseille","lat":43.24175,"lon":5.36383,"is_reserved":false,"is_disabled":false,"rental_uris":{"android":"levelo://app?vid=5687bcf3-d7dc-457c-91e4-c37491638fcd","ios":"levelo://app?vid=5687bcf3-d7dc-457c-91e4-c37491638fcd"},"vehicle_type_id":"4","last_reported":1777091231,"current_range_meters":9200,"station_id":"cpo36qri1sfpv3e86is0","pricing_plan_id":"cebpf4jnsgd1na2vs0mg"},{"bike_id":"ff00abd6-8d85-4e4f-adcc-a8f9f9a33a82","system_id":"levelo_inurba_marseille","lat":43.25869,"lon":5.399,"is_reserved":false,"is_disabled":false,"rental_uris":{"android":"levelo://app?vid=ff00abd6-8d85-4e4f-adcc-a8f9f9a33a82","ios":"levelo://app?vid=ff00abd6-8d85-4e4f-adcc-a8f9f9a33a82"},"vehicle_type_id":"4","last_reported":1777091231,"current_range_meters":9200,"station_id":"ce4bhl92rcd13ifvqghg","pricing_plan_id":"cebpf4jnsgd1na2vs0mg"},{"bike_id":"47cdfd85-c850-4193-aaa5-b5a23a2b2f3d","system_id":"levelo_inurba_marseille","lat":43.31096,"lon":5.37235,"is_reserved":false,"is_disabled":false,"rental_uris":{"android":"levelo://app?vid=47cdfd85-c850-4193-aaa5-b5a23a2b2f3d","ios":"levelo://app?vid=47cdfd85-c850-4193-aaa5-b5a23a2b2f3d"},"vehicle_type_id":"4","last_reported":1777091231,"current_range_meters":9200,"station_id":"st_d4kl2rp97mjs73e7tdfg","pricing_plan_id":"cebpf4jnsgd1na2vs0mg"},{"bike_id":"7b548114-61f6-4f44-8ad1-8c83ed4c23dc","system_id":"levelo_inurba_marseille","lat":43.24591,"lon":5.41789,"is_reserved":false,"is_disabled":false,"rental_uris":{"android":"levelo://app?vid=7b548114-61f6-4f44-8ad1-8c83ed4c23dc","ios":"levelo://app?vid=7b548114-61f6-4f44-8ad1-8c83ed4c23dc"},"vehicle_type_id":"4","last_reported":1777091231,"current_range_meters":9200,"station_id":"","pricing_plan_id":"cebpf4jnsgd1na2vs0mg"},{"bike_id":"548e4a82-32b2-49d2-a8d0-a6b1676f8a48","system_id":"levelo_inurba_marseille","lat":43.32495,"lon":5.36581,"is_reserved":false,"is_disabled":false,"rental_uris":{"android":"levelo://app?vid=548e4a82-32b2-49d2-a8d0-a6b1676f8a48","ios":"levelo://app?vid=548e4a82-32b2-49d2-a8d0-a6b1676f8a48"},"vehicle_type_id":"4","last_reported":1777091231,"current_range_meters":9200,"station_id":"ce4bhs12rcd13ifvqhvg","pricing_plan_id":"cebpf4jnsgd1na2vs0mg"},{"bike_id":"d1d5c7cf-8e64-4123-ad8a-ccd792fc4d10","system_id":"levelo_inurba_marseille","lat":43.29346,"lon":5.39874,"is_reserved":false,"is_disabled":false,"rental_uris":{"android":"levelo://app?vid=d1d5c7cf-8e64-4123-ad8a-ccd792fc4d10","ios":"levelo://app?vid=d1d5c7cf-8e64-4123-ad8a-ccd792fc4d10"},"vehicle_type_id":"4","last_reported":1777091231,"current_range_meters":9200,"station_id":"","pricing_plan_id":"cebpf4jnsgd1na2vs0mg"},{"bike_id":"a57a8300-1cb0-4622-a978-4ada7aea982c","system_id":"levelo_inurba_marseille","lat":43.29257,"lon":5.40168,"is_reserved":false,"is_disabled":false,"rental_uris":{"android":"levelo://app?vid=a57a8300-1cb0-4622-a978-4ada7aea982c","ios":"levelo://app?vid=a57a8300-1cb0-4622-a978-4ada7aea982c"},"vehicle_type_id":"4","last_reported":1777091231,"current_range_meters":9200,"station_id":"ce4bh312rcd13ifvqdk0","pricing_plan_id":"cebpf4jnsgd1na2vs0mg"},{"bike_id":"fea5a28c-0167-4a62-9062-e629ed9b3e8f","system_id":"levelo_inurba_marseille","lat":43.28474,"lon":5.48399,"is_reserved":false,"is_disabled":false,"rental_uris":{"android":"levelo://app?vid=fea5a28c-0167-4a62-9062-e629ed9b3e8f","ios":"levelo://app?vid=fea5a28c-0167-4a62-9062-e629ed9b3e8f"},"vehicle_type_id":"4","last_reported":1777091231,"current_range_meters":9200,"station_id":"st_d3svhcjqgbts73a3dn0g","pricing_plan_id":"cebpf4jnsgd1na2vs0mg"},{"bike_id":"73b29586-6035-4b17-8f89-10c778399a16","system_id":"levelo_inurba_marseille","lat":43.32003,"lon":5.38171,"is_reserved":false,"is_disabled":false,"rental_uris":{"android":"levelo://app?vid=73b29586-6035-4b17-8f89-10c778399a16","ios":"levelo://app?vid=73b29586-6035-4b17-8f89-10c778399a16"},"vehicle_type_id":"4","last_reported":1777091231,"current_range_meters":9200,"station_id":"ce4bhr12rcd13ifvqhpg","pricing_plan_id":"cebpf4jnsgd1na2vs0mg"},{"bike_id":"6c49f1f2-72b4-4d09-b041-7df21a09aa02","system_id":"levelo_inurba_marseille","lat":43.27804,"lon":5.39602,"is_reserved":false,"is_disabled":false,"rental_uris":{"android":"levelo://app?vid=6c49f1f2-72b4-4d09-b041-7df21a09aa02","ios":"levelo://app?vid=6c49f1f2-72b4-4d09-b041-7df21a09aa02"},"vehicle_type_id":"4","last_reported":1777091231,"current_range_meters":9200,"station_id":"","pricing_plan_id":"cebpf4jnsgd1na2vs0mg"},{"bike_id":"0cc6ece2-102c-4c80-bec5-f4b16857b331","system_id":"levelo_inurba_marseille","lat":43.32289,"lon":5.38932,"is_reserved":false,"is_disabled":false,"rental_uris":{"android":"levelo://app?vid=0cc6ece2-102c-4c80-bec5-f4b16857b331","ios":"levelo://app?vid=0cc6ece2-102c-4c80-bec5-f4b16857b331"},"vehicle_type_id":"4","last_reported":1777091231,"current_range_meters":9200,"station_id":"","pricing_plan_id":"cebpf4jnsgd1na2vs0mg"},{"bike_id":"519fb48c-f09e-41ff-8483-9edb1cdaef92","system_id":"levelo_inurba_marseille","lat":43.28276,"lon":5.35062,"is_reserved":false,"is_disabled":false,"rental_uris":{"android":"levelo://app?vid=519fb48c-f09e-41ff-8483-9edb1cdaef92","ios":"levelo://app?vid=519fb48c-f09e-41ff-8483-9edb1cdaef92"},"vehicle_type_id":"4","last_reported":1777091231,"current_range_meters":9600,"station_id":"ce4bhbp2rcd13ifvqerg","pricing_plan_id":"cebpf4jnsgd1na2vs0mg"},{"bike_id":"308f68c0-c326-4383-b2d4-3d5ce68f7df6","system_id":"levelo_inurba_marseille","lat":43.27985,"lon":5.36383,"is_reserved":false,"is_disabled":false,"rental_uris":{"android":"levelo://app?vid=308f68c0-c326-4383-b2d4-3d5ce68f7df6","ios":"levelo://app?vid=308f68c0-c326-4383-b2d4-3d5ce68f7df6"},"vehicle_type_id":"4","last_reported":1777091231,"current_range_meters":9600,"station_id":"","pricing_plan_id":"cebpf4jnsgd1na2vs0mg"},{"bike_id":"8d715502-1f4d-495a-aba7-e255ad4122f8","system_id":"levelo_inurba_marseille","lat":43.23959,"lon":5.36624,"is_reserved":false,"is_disabled":false,"rental_uris":{"android":"levelo://app?vid=8d715502-1f4d-495a-aba7-e255ad4122f8","ios":"levelo://app?vid=8d715502-1f4d-495a-aba7-e255ad4122f8"},"vehicle_type_id":"4","last_reported":1777091231,"current_range_meters":9600,"station_id":"ce4bhi12rcd13ifvqfp0","pricing_plan_id":"cebpf4jnsgd1na2vs0mg"},{"bike_id":"6b404645-3784-4552-b362-ce2273282500","system_id":"levelo_inurba_marseille","lat":43.28478,"lon":5.38534,"is_reserved":false,"is_disabled":true,"rental_uris":{"android":"levelo://app?vid=6b404645-3784-4552-b362-ce2273282500","ios":"levelo://app?vid=6b404645-3784-4552-b362-ce2273282500"},"vehicle_type_id":"4","last_reported":1777091231,"current_range_meters":9600,"station_id":"ce4bh8p2rcd13ifvqeb0","pricing_plan_id":"cebpf4jnsgd1na2vs0mg"},{"bike_id":"9a7c39d8-ef30-4694-b180-b6fe0a089530","system_id":"levelo_inurba_marseille","lat":43.30123,"lon":5.43113,"is_reserved":false,"is_disabled":false,"rental_uris":{"android":"levelo://app?vid=9a7c39d8-ef30-4694-b180-b6fe0a089530","ios":"levelo://app?vid=9a7c39d8-ef30-4694-b180-b6fe0a089530"},"vehicle_type_id":"4","last_reported":1777091231,"current_range_meters":9600,"station_id":"st_d3js3co5814s73ftftug","pricing_plan_id":"cebpf4jnsgd1na2vs0mg"},{"bike_id":"7459470c-4b17-48af-8156-835feb1e353c","system_id":"levelo_inurba_marseille","lat":43.25017,"lon":5.38911,"is_reserved":false,"is_disabled":true,"rental_uris":{"android":"levelo://app?vid=7459470c-4b17-48af-8156-835feb1e353c","ios":"levelo://app?vid=7459470c-4b17-48af-8156-835feb1e353c"},"vehicle_type_id":"4","last_reported":1777091231,"current_range_meters":9600,"station_id":"ce4bhgp2rcd13ifvqfd0","pricing_plan_id":"cebpf4jnsgd1na2vs0mg"},{"bike_id":"7ac59c81-01df-4b8e-9807-86f926b0041a","system_id":"levelo_inurba_marseille","lat":43.28135,"lon":5.3912,"is_reserved":false,"is_disabled":false,"rental_uris":{"android":"levelo://app?vid=7ac59c81-01df-4b8e-9807-86f926b0041a","ios":"levelo://app?vid=7ac59c81-01df-4b8e-9807-86f926b0041a"},"vehicle_type_id":"4","last_reported":1777091231,"current_range_meters":9600,"station_id":"","pricing_plan_id":"cebpf4jnsgd1na2vs0mg"},{"bike_id":"ace34436-51fe-4536-a1f6-cfa009f56977","system_id":"levelo_inurba_marseille","lat":43.33545,"lon":5.37465,"is_reserved":false,"is_disabled":false,"rental_uris":{"android":"levelo://app?vid=ace34436-51fe-4536-a1f6-cfa009f56977","ios":"levelo://app?vid=ace34436-51fe-4536-a1f6-cfa009f56977"},"vehicle_type_id":"4","last_reported":1777091231,"current_range_meters":9600,"station_id":"st_d46tts09ee8s73dlu43g","pricing_plan_id":"cebpf4jnsgd1na2vs0mg"},{"bike_id":"a7abb83b-d8f7-4b04-81c9-42ce1f31f52a","system_id":"levelo_inurba_marseille","lat":43.27642,"lon":5.36131,"is_reserved":false,"is_disabled":false,"rental_uris":{"android":"levelo://app?vid=a7abb83b-d8f7-4b04-81c9-42ce1f31f52a","ios":"levelo://app?vid=a7abb83b-d8f7-4b04-81c9-42ce1f31f52a"},"vehicle_type_id":"4","last_reported":1777091231,"current_range_meters":9600,"station_id":"ce4bgj92rcd13ifvqbe0","pricing_plan_id":"cebpf4jnsgd1na2vs0mg"},{"bike_id":"12351776-ce4e-4c65-be2a-084ee71a31ed","system_id":"levelo_inurba_marseille","lat":43.24101,"lon":5.37784,"is_reserved":false,"is_disabled":false,"rental_uris":{"android":"levelo://app?vid=12351776-ce4e-4c65-be2a-084ee71a31ed","ios":"levelo://app?vid=12351776-ce4e-4c65-be2a-084ee71a31ed"},"vehicle_type_id":"4","last_reported":1777091231,"current_range_meters":9600,"station_id":"ce4bhnp2rcd13ifvqgvg","pricing_plan_id":"cebpf4jnsgd1na2vs0mg"},{"bike_id":"071d1e71-48c5-45bd-bc37-ce81033af5ba","system_id":"levelo_inurba_marseille","lat":43.31531,"lon":5.38035,"is_reserved":false,"is_disabled":false,"rental_uris":{"android":"levelo://app?vid=071d1e71-48c5-45bd-bc37-ce81033af5ba","ios":"levelo://app?vid=071d1e71-48c5-45bd-bc37-ce81033af5ba"},"vehicle_type_id":"4","last_reported":1777091231,"current_range_meters":9600,"station_id":"ce4bhsp2rcd13ifvqi50","pricing_plan_id":"cebpf4jnsgd1na2vs0mg"},{"bike_id":"270b3504-7efc-4ad9-a72b-907087bacf0e","system_id":"levelo_inurba_marseille","lat":43.23135,"lon":5.43746,"is_reserved":false,"is_disabled":false,"rental_uris":{"android":"levelo://app?vid=270b3504-7efc-4ad9-a72b-907087bacf0e","ios":"levelo://app?vid=270b3504-7efc-4ad9-a72b-907087bacf0e"},"vehicle_type_id":"4","last_reported":1777091231,"current_range_meters":9600,"station_id":"ce4bhmp2rcd13ifvqgog","pricing_plan_id":"cebpf4jnsgd1na2vs0mg"},{"bike_id":"7fe2aa8f-dda0-4c61-b217-1e7d68af4fd9","system_id":"levelo_inurba_marseille","lat":43.28935,"lon":5.36381,"is_reserved":false,"is_disabled":false,"rental_uris":{"android":"levelo://app?vid=7fe2aa8f-dda0-4c61-b217-1e7d68af4fd9","ios":"levelo://app?vid=7fe2aa8f-dda0-4c61-b217-1e7d68af4fd9"},"vehicle_type_id":"4","last_reported":1777091231,"current_range_meters":9600,"station_id":"ce4bhc92rcd13ifvqetg","pricing_plan_id":"cebpf4jnsgd1na2vs0mg"},{"bike_id":"7982f82c-7b04-427d-ac3f-ac5a5673dae7","system_id":"levelo_inurba_marseille","lat":43.29385,"lon":5.37835,"is_reserved":false,"is_disabled":false,"rental_uris":{"android":"levelo://app?vid=7982f82c-7b04-427d-ac3f-ac5a5673dae7","ios":"levelo://app?vid=7982f82c-7b04-427d-ac3f-ac5a5673dae7"},"vehicle_type_id":"4","last_reported":1777091231,"current_range_meters":9600,"station_id":"ce4bgjh2rcd13ifvqbf0","pricing_plan_id":"cebpf4jnsgd1na2vs0mg"},{"bike_id":"26669f21-c2bc-4bde-9041-60db37f3e93e","system_id":"levelo_inurba_marseille","lat":43.25598,"lon":5.38243,"is_reserved":false,"is_disabled":true,"rental_uris":{"android":"levelo://app?vid=26669f21-c2bc-4bde-9041-60db37f3e93e","ios":"levelo://app?vid=26669f21-c2bc-4bde-9041-60db37f3e93e"},"vehicle_type_id":"4","last_reported":1777091231,"current_range_meters":9600,"station_id":"ce4bhih2rcd13ifvqfs0","pricing_plan_id":"cebpf4jnsgd1na2vs0mg"},{"bike_id":"7d507d55-089b-4da6-9cba-e3bba178d923","system_id":"levelo_inurba_marseille","lat":43.2321,"lon":5.39987,"is_reserved":false,"is_disabled":false,"rental_uris":{"android":"levelo://app?vid=7d507d55-089b-4da6-9cba-e3bba178d923","ios":"levelo://app?vid=7d507d55-089b-4da6-9cba-e3bba178d923"},"vehicle_type_id":"4","last_reported":1777091231,"current_range_meters":9600,"station_id":"ce4bhn12rcd13ifvqgqg","pricing_plan_id":"cebpf4jnsgd1na2vs0mg"},{"bike_id":"277cb698-baa6-4a43-a192-a4201e8f2dc8","system_id":"levelo_inurba_marseille","lat":43.2895,"lon":5.36395,"is_reserved":false,"is_disabled":false,"rental_uris":{"android":"levelo://app?vid=277cb698-baa6-4a43-a192-a4201e8f2dc8","ios":"levelo://app?vid=277cb698-baa6-4a43-a192-a4201e8f2dc8"},"vehicle_type_id":"4","last_reported":1777091231,"current_range_meters":9600,"station_id":"ce4bhc92rcd13ifvqetg","pricing_plan_id":"cebpf4jnsgd1na2vs0mg"},{"bike_id":"249dd16a-78dd-49c2-a20b-b7a469479db6","system_id":"levelo_inurba_marseille","lat":43.30345,"lon":5.42512,"is_reserved":false,"is_disabled":false,"rental_uris":{"android":"levelo://app?vid=249dd16a-78dd-49c2-a20b-b7a469479db6","ios":"levelo://app?vid=249dd16a-78dd-49c2-a20b-b7a469479db6"},"vehicle_type_id":"4","last_reported":1777091231,"current_range_meters":9600,"station_id":"","pricing_plan_id":"cebpf4jnsgd1na2vs0mg"},{"bike_id":"a28acdbc-a7a8-459e-8894-ea9ca11bb640","system_id":"levelo_inurba_marseille","lat":43.29509,"lon":5.40008,"is_reserved":false,"is_disabled":false,"rental_uris":{"android":"levelo://app?vid=a28acdbc-a7a8-459e-8894-ea9ca11bb640","ios":"levelo://app?vid=a28acdbc-a7a8-459e-8894-ea9ca11bb640"},"vehicle_type_id":"4","last_reported":1777091231,"current_range_meters":9600,"station_id":"","pricing_plan_id":"cebpf4jnsgd1na2vs0mg"},{"bike_id":"21a3f8f3-34c5-4c0c-823a-1742ab6e391f","system_id":"levelo_inurba_marseille","lat":43.24813,"lon":5.3746,"is_reserved":false,"is_disabled":false,"rental_uris":{"android":"levelo://app?vid=21a3f8f3-34c5-4c0c-823a-1742ab6e391f","ios":"levelo://app?vid=21a3f8f3-34c5-4c0c-823a-1742ab6e391f"},"vehicle_type_id":"4","last_reported":1777091231,"current_range_meters":9600,"station_id":"ce4bhgh2rcd13ifvqfb0","pricing_plan_id":"cebpf4jnsgd1na2vs0mg"},{"bike_id":"cce80fbc-3222-4c68-bed9-b1b9c4481f66","system_id":"levelo_inurba_marseille","lat":43.31395,"lon":5.41375,"is_reserved":false,"is_disabled":false,"rental_uris":{"android":"levelo://app?vid=cce80fbc-3222-4c68-bed9-b1b9c4481f66","ios":"levelo://app?vid=cce80fbc-3222-4c68-bed9-b1b9c4481f66"},"vehicle_type_id":"4","last_reported":1777091231,"current_range_meters":9600,"station_id":"","pricing_plan_id":"cebpf4jnsgd1na2vs0mg"},{"bike_id":"2f710462-2ba2-4301-8cc5-a4befb983b20","system_id":"levelo_inurba_marseille","lat":43.26939,"lon":5.38923,"is_reserved":false,"is_disabled":true,"rental_uris":{"android":"levelo://app?vid=2f710462-2ba2-4301-8cc5-a4befb983b20","ios":"levelo://app?vid=2f710462-2ba2-4301-8cc5-a4befb983b20"},"vehicle_type_id":"4","last_reported":1777091231,"current_range_meters":9600,"station_id":"ce4bhhh2rcd13ifvqfl0","pricing_plan_id":"cebpf4jnsgd1na2vs0mg"},{"bike_id":"bb33fcb6-548e-44a7-91d0-cf5af9db8266","system_id":"levelo_inurba_marseille","lat":43.30889,"lon":5.39651,"is_reserved":false,"is_disabled":false,"rental_uris":{"android":"levelo://app?vid=bb33fcb6-548e-44a7-91d0-cf5af9db8266","ios":"levelo://app?vid=bb33fcb6-548e-44a7-91d0-cf5af9db8266"},"vehicle_type_id":"4","last_reported":1777091231,"current_range_meters":9600,"station_id":"ce4bh012rcd13ifvqcv0","pricing_plan_id":"cebpf4jnsgd1na2vs0mg"},{"bike_id":"07408139-0e0b-42d2-ac2d-94af4e4d3d13","system_id":"levelo_inurba_marseille","lat":43.2648,"lon":5.39546,"is_reserved":false,"is_disabled":true,"rental_uris":{"android":"levelo://app?vid=07408139-0e0b-42d2-ac2d-94af4e4d3d13","ios":"levelo://app?vid=07408139-0e0b-42d2-ac2d-94af4e4d3d13"},"vehicle_type_id":"4","last_reported":1777091231,"current_range_meters":10000,"station_id":"ce4bhi12rcd13ifvqfq0","pricing_plan_id":"cebpf4jnsgd1na2vs0mg"},{"bike_id":"97f0351e-0015-4f6a-a402-604cdb115786","system_id":"levelo_inurba_marseille","lat":43.21193,"lon":5.35086,"is_reserved":false,"is_disabled":false,"rental_uris":{"android":"levelo://app?vid=97f0351e-0015-4f6a-a402-604cdb115786","ios":"levelo://app?vid=97f0351e-0015-4f6a-a402-604cdb115786"},"vehicle_type_id":"4","last_reported":1777091231,"current_range_meters":10000,"station_id":"st_cvj6sg6p6f1abm77japg","pricing_plan_id":"cebpf4jnsgd1na2vs0mg"},{"bike_id":"78f5b0da-7ef9-451f-b7a0-89eb969d26f6","system_id":"levelo_inurba_marseille","lat":43.29877,"lon":5.37457,"is_reserved":false,"is_disabled":false,"rental_uris":{"android":"levelo://app?vid=78f5b0da-7ef9-451f-b7a0-89eb969d26f6","ios":"levelo://app?vid=78f5b0da-7ef9-451f-b7a0-89eb969d26f6"},"vehicle_type_id":"4","last_reported":1777091231,"current_range_meters":10000,"station_id":"","pricing_plan_id":"cebpf4jnsgd1na2vs0mg"},{"bike_id":"06558e5b-846f-4e20-b375-c8972d75dc5a","system_id":"levelo_inurba_marseille","lat":43.27338,"lon":5.43142,"is_reserved":false,"is_disabled":false,"rental_uris":{"android":"levelo://app?vid=06558e5b-846f-4e20-b375-c8972d75dc5a","ios":"levelo://app?vid=06558e5b-846f-4e20-b375-c8972d75dc5a"},"vehicle_type_id":"4","last_reported":1777091231,"current_range_meters":10000,"station_id":"","pricing_plan_id":"cebpf4jnsgd1na2vs0mg"},{"bike_id":"239c2cce-d0a5-4107-b397-20f4b18ed462","system_id":"levelo_inurba_marseille","lat":43.30908,"lon":5.39607,"is_reserved":false,"is_disabled":false,"rental_uris":{"android":"levelo://app?vid=239c2cce-d0a5-4107-b397-20f4b18ed462","ios":"levelo://app?vid=239c2cce-d0a5-4107-b397-20f4b18ed462"},"vehicle_type_id":"4","last_reported":1777091231,"current_range_meters":10000,"station_id":"ce4bh012rcd13ifvqcv0","pricing_plan_id":"cebpf4jnsgd1na2vs0mg"},{"bike_id":"01ab20ba-1010-4f3e-8686-567609147797","system_id":"levelo_inurba_marseille","lat":43.30163,"lon":5.38092,"is_reserved":false,"is_disabled":false,"rental_uris":{"android":"levelo://app?vid=01ab20ba-1010-4f3e-8686-567609147797","ios":"levelo://app?vid=01ab20ba-1010-4f3e-8686-567609147797"},"vehicle_type_id":"4","last_reported":1777091231,"current_range_meters":10000,"station_id":"ce4bgjp2rcd13ifvqbh0","pricing_plan_id":"cebpf4jnsgd1na2vs0mg"},{"bike_id":"f9dddfb1-1c61-4ee1-8dfd-ee5cdb8396bf","system_id":"levelo_inurba_marseille","lat":43.30937,"lon":5.40153,"is_reserved":false,"is_disabled":false,"rental_uris":{"android":"levelo://app?vid=f9dddfb1-1c61-4ee1-8dfd-ee5cdb8396bf","ios":"levelo://app?vid=f9dddfb1-1c61-4ee1-8dfd-ee5cdb8396bf"},"vehicle_type_id":"4","last_reported":1777091231,"current_range_meters":10000,"station_id":"ce4bgvp2rcd13ifvqct0","pricing_plan_id":"cebpf4jnsgd1na2vs0mg"},{"bike_id":"e79bde01-2f2e-4687-9114-2908a926683e","system_id":"levelo_inurba_marseille","lat":43.33558,"lon":5.37476,"is_reserved":false,"is_disabled":false,"rental_uris":{"android":"levelo://app?vid=e79bde01-2f2e-4687-9114-2908a926683e","ios":"levelo://app?vid=e79bde01-2f2e-4687-9114-2908a926683e"},"vehicle_type_id":"4","last_reported":1777091231,"current_range_meters":10000,"station_id":"st_d46tts09ee8s73dlu43g","pricing_plan_id":"cebpf4jnsgd1na2vs0mg"},{"bike_id":"fda983b3-301e-40f3-bb07-e5c67ab620e4","system_id":"levelo_inurba_marseille","lat":43.25074,"lon":5.40469,"is_reserved":false,"is_disabled":false,"rental_uris":{"android":"levelo://app?vid=fda983b3-301e-40f3-bb07-e5c67ab620e4","ios":"levelo://app?vid=fda983b3-301e-40f3-bb07-e5c67ab620e4"},"vehicle_type_id":"4","last_reported":1777091231,"current_range_meters":10000,"station_id":"","pricing_plan_id":"cebpf4jnsgd1na2vs0mg"},{"bike_id":"797c513f-0048-40cd-aad6-a940fd0a81f9","system_id":"levelo_inurba_marseille","lat":43.29,"lon":5.35624,"is_reserved":false,"is_disabled":true,"rental_uris":{"android":"levelo://app?vid=797c513f-0048-40cd-aad6-a940fd0a81f9","ios":"levelo://app?vid=797c513f-0048-40cd-aad6-a940fd0a81f9"},"vehicle_type_id":"4","last_reported":1777091231,"current_range_meters":10000,"station_id":"ce4bhb92rcd13ifvqen0","pricing_plan_id":"cebpf4jnsgd1na2vs0mg"},{"bike_id":"28beee9b-88ca-4683-a9bb-fe061e3b3bf4","system_id":"levelo_inurba_marseille","lat":43.30768,"lon":5.38143,"is_reserved":false,"is_disabled":false,"rental_uris":{"android":"levelo://app?vid=28beee9b-88ca-4683-a9bb-fe061e3b3bf4","ios":"levelo://app?vid=28beee9b-88ca-4683-a9bb-fe061e3b3bf4"},"vehicle_type_id":"4","last_reported":1777091231,"current_range_meters":10000,"station_id":"ce4bgt12rcd13ifvqce0","pricing_plan_id":"cebpf4jnsgd1na2vs0mg"},{"bike_id":"3833eaec-fd7f-4fbe-8fe3-066d011f3340","system_id":"levelo_inurba_marseille","lat":43.24166,"lon":5.36394,"is_reserved":false,"is_disabled":false,"rental_uris":{"android":"levelo://app?vid=3833eaec-fd7f-4fbe-8fe3-066d011f3340","ios":"levelo://app?vid=3833eaec-fd7f-4fbe-8fe3-066d011f3340"},"vehicle_type_id":"4","last_reported":1777091231,"current_range_meters":10000,"station_id":"cpo36qri1sfpv3e86is0","pricing_plan_id":"cebpf4jnsgd1na2vs0mg"},{"bike_id":"f1cffc7b-9140-4f3f-acd5-1357e8e47054","system_id":"levelo_inurba_marseille","lat":43.22527,"lon":5.34831,"is_reserved":false,"is_disabled":false,"rental_uris":{"android":"levelo://app?vid=f1cffc7b-9140-4f3f-acd5-1357e8e47054","ios":"levelo://app?vid=f1cffc7b-9140-4f3f-acd5-1357e8e47054"},"vehicle_type_id":"4","last_reported":1777091231,"current_range_meters":10000,"station_id":"st_cvj5dfep6f1abm77gieg","pricing_plan_id":"cebpf4jnsgd1na2vs0mg"},{"bike_id":"05a33fd5-e436-4ad0-a907-865e546c41d5","system_id":"levelo_inurba_marseille","lat":43.28384,"lon":5.35008,"is_reserved":false,"is_disabled":true,"rental_uris":{"android":"levelo://app?vid=05a33fd5-e436-4ad0-a907-865e546c41d5","ios":"levelo://app?vid=05a33fd5-e436-4ad0-a907-865e546c41d5"},"vehicle_type_id":"4","last_reported":1777091231,"current_range_meters":10000,"station_id":"","pricing_plan_id":"cebpf4jnsgd1na2vs0mg"},{"bike_id":"c2a537c1-9bde-45c2-a368-61c3a253457d","system_id":"levelo_inurba_marseille","lat":43.32366,"lon":5.38883,"is_reserved":false,"is_disabled":false,"rental_uris":{"android":"levelo://app?vid=c2a537c1-9bde-45c2-a368-61c3a253457d","ios":"levelo://app?vid=c2a537c1-9bde-45c2-a368-61c3a253457d"},"vehicle_type_id":"4","last_reported":1777091231,"current_range_meters":10000,"station_id":"ce4bhqp2rcd13ifvqhog","pricing_plan_id":"cebpf4jnsgd1na2vs0mg"},{"bike_id":"5fdff1d7-b2d7-4e39-ad7f-00ed09411d1d","system_id":"levelo_inurba_marseille","lat":43.28486,"lon":5.48387,"is_reserved":false,"is_disabled":false,"rental_uris":{"android":"levelo://app?vid=5fdff1d7-b2d7-4e39-ad7f-00ed09411d1d","ios":"levelo://app?vid=5fdff1d7-b2d7-4e39-ad7f-00ed09411d1d"},"vehicle_type_id":"4","last_reported":1777091231,"current_range_meters":10800,"station_id":"st_d3svhcjqgbts73a3dn0g","pricing_plan_id":"cebpf4jnsgd1na2vs0mg"},{"bike_id":"0cd2fd7c-6402-466e-aa1b-fa186d7a7ed3","system_id":"levelo_inurba_marseille","lat":43.33194,"lon":5.37792,"is_reserved":false,"is_disabled":false,"rental_uris":{"android":"levelo://app?vid=0cd2fd7c-6402-466e-aa1b-fa186d7a7ed3","ios":"levelo://app?vid=0cd2fd7c-6402-466e-aa1b-fa186d7a7ed3"},"vehicle_type_id":"4","last_reported":1777091231,"current_range_meters":10800,"station_id":"","pricing_plan_id":"cebpf4jnsgd1na2vs0mg"},{"bike_id":"573ee542-4c98-4f07-b857-a13bd4094cb1","system_id":"levelo_inurba_marseille","lat":43.31038,"lon":5.39408,"is_reserved":false,"is_disabled":false,"rental_uris":{"android":"levelo://app?vid=573ee542-4c98-4f07-b857-a13bd4094cb1","ios":"levelo://app?vid=573ee542-4c98-4f07-b857-a13bd4094cb1"},"vehicle_type_id":"4","last_reported":1777091231,"current_range_meters":10800,"station_id":"","pricing_plan_id":"cebpf4jnsgd1na2vs0mg"},