{"last_updated":1732100908,"ttl":60,"version":"2.2","data":{"bikes":[{"bike_id":"cf2b14df-624f-4874-a035-fbf497ed7ded","system_id":"levelo_inurba_marseille","lat":43.30945,"lon":5.39029,"is_reserved":false,"is_disabled":true,"rental_uris":{"android":"levelo://app?vid=cf2b14df-624f-4874-a035-fbf497ed7ded","ios":"levelo://app?vid=cf2b14df-624f-4874-a035-fbf497ed7ded"},"vehicle_type_id":"4","last_reported":1732100908,"current_range_meters":0,"station_id":"ce4bgup2rcd13ifvqco0","pricing_plan_id":"cebpf4jnsgd1na2vs0mg"},{"bike_id":"b21da081-9879-40dd-84c5-23f42e6f5e53","system_id":"levelo_inurba_marseille","lat":43.27948,"lon":5.41049,"is_reserved":false,"is_disabled":true,"rental_uris":{"android":"levelo://app?vid=b21da081-9879-40dd-84c5-23f42e6f5e53","ios":"levelo://app?vid=b21da081-9879-40dd-84c5-23f42e6f5e53"},"vehicle_type_id":"4","last_reported":1732100908,"current_range_meters":13600,"station_id":"ce4bhnp2rcd13ifvqh0g","pricing_plan_id":"cebpf4jnsgd1na2vs0mg"},{"bike_id":"c9c0886d-6933-4753-9864-998e063335cf","system_id":"levelo_inurba_marseille","lat":43.25012,"lon":5.38915,"is_reserved":false,"is_disabled":true,"rental_uris":{"android":"levelo://app?vid=c9c0886d-6933-4753-9864-998e063335cf","ios":"levelo://app?vid=c9c0886d-6933-4753-9864-998e063335cf"},"vehicle_type_id":"4","last_reported":1732100908,"current_range_meters":38400,"station_id":"ce4bhgp2rcd13ifvqfd0","pricing_plan_id":"cebpf4jnsgd1na2vs0mg"},{"bike_id":"740ae0f4-690e-4909-a4ab-8443a16c90b8","system_id":"levelo_inurba_marseille","lat":43.28032,"lon":5.36947,"is_reserved":false,"is_disabled":false,"rental_uris":{"android":"levelo://app?vid=740ae0f4-690e-4909-a4ab-8443a16c90b8","ios":"levelo://app?vid=740ae0f4-690e-4909-a4ab-8443a16c90b8"},"vehicle_type_id":"4","last_reported":1732100908,"current_range_meters":37600,"station_id":"ce4bha12rcd13ifvqef0","pricing_plan_id":"cebpf4jnsgd1na2vs0mg"},{"bike_id":"35287b6f-5229-4071-966e-4bfca0ae7163","system_id":"levelo_inurba_marseille","lat":43.27901,"lon":5.38012,"is_reserved":false,"is_disabled":false,"rental_uris":{"android":"levelo://app?vid=35287b6f-5229-4071-966e-4bfca0ae7163","ios":"levelo://app?vid=35287b6f-5229-4071-966e-4bfca0ae7163"},"vehicle_type_id":"4","last_reported":1732100908,"current_range_meters":36800,"station_id":"ce4bhf92rcd13ifvqf50","pricing_plan_id":"cebpf4jnsgd1na2vs0mg"},{"bike_id":"81d34042-a037-42c7-9436-1187b5706698","system_id":"levelo_inurba_marseille","lat":43.3102,"lon":5.40299,"is_reserved":false,"is_disabled":false,"rental_uris":{"android":"levelo://app?vid=81d34042-a037-42c7-9436-1187b5706698","ios":"levelo://app?vid=81d34042-a037-42c7-9436-1187b5706698"},"vehicle_type_id":"4","last_reported":1732100908,"current_range_meters":17600,"station_id":"","pricing_plan_id":"cebpf4jnsgd1na2vs0mg"},{"bike_id":"beab6fbf-c410-445e-ac19-e4db447e6dba","system_id":"levelo_inurba_marseille","lat":43.2502,"lon":5.38073,"is_reserved":false,"is_disabled":true,"rental_uris":{"android":"levelo://app?vid=beab6fbf-c410-445e-ac19-e4db447e6dba","ios":"levelo://app?vid=beab6fbf-c410-445e-ac19-e4db447e6dba"},"vehicle_type_id":"4","last_reported":1732100908,"current_range_meters":28400,"station_id":"","pricing_plan_id":"cebpf4jnsgd1na2vs0mg"},{"bike_id":"6c1d2c5a-d9cb-4d90-9268-e16f8e5ad91b","system_id":"levelo_inurba_marseille","lat":43.29297,"lon":5.3745,"is_reserved":false,"is_disabled":false,"rental_uris":{"android":"levelo://app?vid=6c1d2c5a-d9cb-4d90-9268-e16f8e5ad91b","ios":"levelo://app?vid=6c1d2c5a-d9cb-4d90-9268-e16f8e5ad91b"},"vehicle_type_id":"4","last_reported":1732100908,"current_range_meters":25600,"station_id":"ce4bgi12rcd13ifvqb70","pricing_plan_id":"cebpf4jnsgd1na2vs0mg"},{"bike_id":"d73f3565-4e8d-482e-af33-f7db37119510","system_id":"levelo_inurba_marseille","lat":43.29293,"lon":5.37457,"is_reserved":false,"is_disabled":false,"rental_uris":{"android":"levelo://app?vid=d73f3565-4e8d-482e-af33-f7db37119510","ios":"levelo://app?vid=d73f3565-4e8d-482e-af33-f7db37119510"},"vehicle_type_id":"4","last_reported":1732100908,"current_range_meters":27600,"station_id":"ce4bgi12rcd13ifvqb70","pricing_plan_id":"cebpf4jnsgd1na2vs0mg"},{"bike_id":"40fc52d6-2e09-4367-929e-73ab4b3da594","system_id":"levelo_inurba_marseille","lat":43.33025,"lon":5.39049,"is_reserved":false,"is_disabled":false,"rental_uris":{"android":"levelo://app?vid=40fc52d6-2e09-4367-929e-73ab4b3da594","ios":"levelo://app?vid=40fc52d6-2e09-4367-929e-73ab4b3da594"},"vehicle_type_id":"4","last_reported":1732100908,"current_range_meters":8400,"station_id":"ce4bhr92rcd13ifvqhrg","pricing_plan_id":"cebpf4jnsgd1na2vs0mg"},{"bike_id":"cd98ff06-7dbe-4eb4-a506-4d608a6f1598","system_id":"levelo_inurba_marseille","lat":43.29292,"lon":5.37446,"is_reserved":false,"is_disabled":false,"rental_uris":{"android":"levelo://app?vid=cd98ff06-7dbe-4eb4-a506-4d608a6f1598","ios":"levelo://app?vid=cd98ff06-7dbe-4eb4-a506-4d608a6f1598"},"vehicle_type_id":"4","last_reported":1732100908,"current_range_meters":32400,"station_id":"ce4bgi12rcd13ifvqb70","pricing_plan_id":"cebpf4jnsgd1na2vs0mg"},{"bike_id":"84d4df27-2b97-423b-bf7d-6029ee544425","system_id":"levelo_inurba_marseille","lat":43.32473,"lon":5.36574,"is_reserved":false,"is_disabled":false,"rental_uris":{"android":"levelo://app?vid=84d4df27-2b97-423b-bf7d-6029ee544425","ios":"levelo://app?vid=84d4df27-2b97-423b-bf7d-6029ee544425"},"vehicle_type_id":"4","last_reported":1732100908,"current_range_meters":39200,"station_id":"ce4bhs12rcd13ifvqhvg","pricing_plan_id":"cebpf4jnsgd1na2vs0mg"},{"bike_id":"7f1ca9bf-5c43-42eb-96e9-110222669271","system_id":"levelo_inurba_marseille","lat":43.28155,"lon":5.42649,"is_reserved":false,"is_disabled":false,"rental_uris":{"android":"levelo://app?vid=7f1ca9bf-5c43-42eb-96e9-110222669271","ios":"levelo://app?vid=7f1ca9bf-5c43-42eb-96e9-110222669271"},"vehicle_type_id":"4","last_reported":1732100908,"current_range_meters":35600,"station_id":"ce4bhnh2rcd13ifvqgug","pricing_plan_id":"cebpf4jnsgd1na2vs0mg"},{"bike_id":"fed94823-67f3-4adc-962b-1350a7a918b6","system_id":"levelo_inurba_marseille","lat":43.31223,"lon":5.36887,"is_reserved":false,"is_disabled":false,"rental_uris":{"android":"levelo://app?vid=fed94823-67f3-4adc-962b-1350a7a918b6","ios":"levelo://app?vid=fed94823-67f3-4adc-962b-1350a7a918b6"},"vehicle_type_id":"4","last_reported":1732100908,"current_range_meters":6800,"station_id":"ce4bgl92rcd13ifvqbq0","pricing_plan_id":"cebpf4jnsgd1na2vs0mg"},{"bike_id":"c927b74d-29b7-42c1-8253-95810c18b6dc","system_id":"levelo_inurba_marseille","lat":43.25928,"lon":5.40905,"is_reserved":false,"is_disabled":true,"rental_uris":{"android":"levelo://app?vid=c927b74d-29b7-42c1-8253-95810c18b6dc","ios":"levelo://app?vid=c927b74d-29b7-42c1-8253-95810c18b6dc"},"vehicle_type_id":"4","last_reported":1732100908,"current_range_meters":33200,"station_id":"ce4bhm92rcd13ifvqglg","pricing_plan_id":"cebpf4jnsgd1na2vs0mg"},{"bike_id":"1b7b80e3-15a6-4777-83a8-ffaadf4cb087","system_id":"levelo_inurba_marseille","lat":43.30411,"lon":5.41288,"is_reserved":false,"is_disabled":false,"rental_uris":{"android":"levelo://app?vid=1b7b80e3-15a6-4777-83a8-ffaadf4cb087","ios":"levelo://app?vid=1b7b80e3-15a6-4777-83a8-ffaadf4cb087"},"vehicle_type_id":"4","last_reported":1732100908,"current_range_meters":20400,"station_id":"ce4bhop2rcd13ifvqh8g","pricing_plan_id":"cebpf4jnsgd1na2vs0mg"},{"bike_id":"c59f5a7a-0d2e-47ed-8cda-fade781169c6","system_id":"levelo_inurba_marseille","lat":43.32539,"lon":5.41442,"is_reserved":false,"is_disabled":false,"rental_uris":{"android":"levelo://app?vid=c59f5a7a-0d2e-47ed-8cda-fade781169c6","ios":"levelo://app?vid=c59f5a7a-0d2e-47ed-8cda-fade781169c6"},"vehicle_type_id":"4","last_reported":1732100908,"current_range_meters":38800,"station_id":"ce4bhq12rcd13ifvqhhg","pricing_plan_id":"cebpf4jnsgd1na2vs0mg"},{"bike_id":"ace2321e-dc44-46b1-8190-82cf28ab7822","system_id":"levelo_inurba_marseille","lat":43.29864,"lon":5.39732,"is_reserved":false,"is_disabled":false,"rental_uris":{"android":"levelo://app?vid=ace2321e-dc44-46b1-8190-82cf28ab7822","ios":"levelo://app?vid=ace2321e-dc44-46b1-8190-82cf28ab7822"},"vehicle_type_id":"4","last_reported":1732100908,"current_range_meters":34000,"station_id":"ce4bh0h2rcd13ifvqd50","pricing_plan_id":"cebpf4jnsgd1na2vs0mg"},{"bike_id":"cd3c4b1e-8c00-4360-85b9-156a2c6811b0","system_id":"levelo_inurba_marseille","lat":43.31363,"lon":5.38485,"is_reserved":false,"is_disabled":true,"rental_uris":{"android":"levelo://app?vid=cd3c4b1e-8c00-4360-85b9-156a2c6811b0","ios":"levelo://app?vid=cd3c4b1e-8c00-4360-85b9-156a2c6811b0"},"vehicle_type_id":"4","last_reported":1732100908,"current_range_meters":1200,"station_id":"ce4bgt92rcd13ifvqcf0","pricing_plan_id":"cebpf4jnsgd1na2vs0mg"},{"bike_id":"0ea93326-5034-4b5e-97b8-0a33b4d38611","system_id":"levelo_inurba_marseille","lat":43.30152,"lon":5.38103,"is_reserved":false,"is_disabled":true,"rental_uris":{"android":"levelo://app?vid=0ea93326-5034-4b5e-97b8-0a33b4d38611","ios":"levelo://app?vid=0ea93326-5034-4b5e-97b8-0a33b4d38611"},"vehicle_type_id":"4","last_reported":1732100908,"current_range_meters":0,"station_id":"","pricing_plan_id":"cebpf4jnsgd1na2vs0mg"},{"bike_id":"5c689fbf-ff05-4da8-aabf-314e2bacb301","system_id":"levelo_inurba_marseille","lat":43.28487,"lon":5.38569,"is_reserved":false,"is_disabled":false,"rental_uris":{"android":"levelo://app?vid=5c689fbf-ff05-4da8-aabf-314e2bacb301","ios":"levelo://app?vid=5c689fbf-ff05-4da8-aabf-314e2bacb301"},"vehicle_type_id":"4","last_reported":1732100908,"current_range_meters":38400,"station_id":"ce4bh8p2rcd13ifvqeb0","pricing_plan_id":"cebpf4jnsgd1na2vs0mg"},{"bike_id":"af57dc68-4ad9-42c1-93ba-cfa50b89bd8f","system_id":"levelo_inurba_marseille","lat":43.30879,"lon":5.37197,"is_reserved":false,"is_disabled":true,"rental_uris":{"android":"levelo://app?vid=af57dc68-4ad9-42c1-93ba-cfa50b89bd8f","ios":"levelo://app?vid=af57dc68-4ad9-42c1-93ba-cfa50b89bd8f"},"vehicle_type_id":"4","last_reported":1732100908,"current_range_meters":400,"station_id":"ce4bguh2rcd13ifvqckg","pricing_plan_id":"cebpf4jnsgd1na2vs0mg"},{"bike_id":"596d2ed0-3f2c-4573-b1ca-3b1dbdf5ed08","system_id":"levelo_inurba_marseille","lat":43.29866,"lon":5.39729,"is_reserved":false,"is_disabled":false,"rental_uris":{"android":"levelo://app?vid=596d2ed0-3f2c-4573-b1ca-3b1dbdf5ed08","ios":"levelo://app?vid=596d2ed0-3f2c-4573-b1ca-3b1dbdf5ed08"},"vehicle_type_id":"4","last_reported":1732100908,"current_range_meters":36800,"station_id":"ce4bh0h2rcd13ifvqd50","pricing_plan_id":"cebpf4jnsgd1na2vs0mg"},{"bike_id":"6c024e5a-4d0c-40bc-a416-c2822efa2fcc","system_id":"levelo_inurba_marseille","lat":43.30882,"lon":5.37188,"is_reserved":false,"is_disabled":false,"rental_uris":{"android":"levelo://app?vid=6c024e5a-4d0c-40bc-a416-c2822efa2fcc","ios":"levelo://app?vid=6c024e5a-4d0c-40bc-a416-c2822efa2fcc"},"vehicle_type_id":"4","last_reported":1732100908,"current_range_meters":38800,"station_id":"ce4bguh2rcd13ifvqckg","pricing_plan_id":"cebpf4jnsgd1na2vs0mg"},{"bike_id":"1139b44c-141f-4492-8578-07982e493cef","system_id":"levelo_inurba_marseille","lat":43.30154,"lon":5.38086,"is_reserved":false,"is_disabled":false,"rental_uris":{"android":"levelo://app?vid=1139b44c-141f-4492-8578-07982e493cef","ios":"levelo://app?vid=1139b44c-141f-4492-8578-07982e493cef"},"vehicle_type_id":"4","last_reported":1732100908,"current_range_meters":38000,"station_id":"ce4bgjp2rcd13ifvqbh0","pricing_plan_id":"cebpf4jnsgd1na2vs0mg"},{"bike_id":"67daab72-ac6b-4c94-aa9a-8bd26c97ff18","system_id":"levelo_inurba_marseille","lat":43.30416,"lon":5.41285,"is_reserved":false,"is_disabled":false,"rental_uris":{"android":"levelo://app?vid=67daab72-ac6b-4c94-aa9a-8bd26c97ff18","ios":"levelo://app?vid=67daab72-ac6b-4c94-aa9a-8bd26c97ff18"},"vehicle_type_id":"4","last_reported":1732100908,"current_range_meters":29600,"station_id":"ce4bhop2rcd13ifvqh8g","pricing_plan_id":"cebpf4jnsgd1na2vs0mg"},{"bike_id":"dbe74249-58cd-403e-a63d-5e0a1c17b552","system_id":"levelo_inurba_marseille","lat":43.24093,"lon":5.37745,"is_reserved":false,"is_disabled":true,"rental_uris":{"android":"levelo://app?vid=dbe74249-58cd-403e-a63d-5e0a1c17b552","ios":"levelo://app?vid=dbe74249-58cd-403e-a63d-5e0a1c17b552"},"vehicle_type_id":"4","last_reported":1732100908,"current_range_meters":0,"station_id":"","pricing_plan_id":"cebpf4jnsgd1na2vs0mg"},{"bike_id":"e4624f32-fae1-428f-a986-44f323453b9a","system_id":"levelo_inurba_marseille","lat":43.29554,"lon":5.42291,"is_reserved":false,"is_disabled":false,"rental_uris":{"android":"levelo://app?vid=e4624f32-fae1-428f-a986-44f323453b9a","ios":"levelo://app?vid=e4624f32-fae1-428f-a986-44f323453b9a"},"vehicle_type_id":"4","last_reported":1732100908,"current_range_meters":30400,"station_id":"ce4bhph2rcd13ifvqhdg","pricing_plan_id":"cebpf4jnsgd1na2vs0mg"},{"bike_id":"c856e729-2063-41ef-bd6b-84efb18c43f5","system_id":"levelo_inurba_marseille","lat":43.25082,"lon":5.39493,"is_reserved":false,"is_disabled":false,"rental_uris":{"android":"levelo://app?vid=c856e729-2063-41ef-bd6b-84efb18c43f5","ios":"levelo://app?vid=c856e729-2063-41ef-bd6b-84efb18c43f5"},"vehicle_type_id":"4","last_reported":1732100908,"current_range_meters":12000,"station_id":"ce4bhm12rcd13ifvqgkg","pricing_plan_id":"cebpf4jnsgd1na2vs0mg"},{"bike_id":"55db4e9c-f0d2-4245-9de7-4c27c3e222c2","system_id":"levelo_inurba_marseille","lat":43.25584,"lon":5.38239,"is_reserved":false,"is_disabled":false,"rental_uris":{"android":"levelo://app?vid=55db4e9c-f0d2-4245-9de7-4c27c3e222c2","ios":"levelo://app?vid=55db4e9c-f0d2-4245-9de7-4c27c3e222c2"},"vehicle_type_id":"4","last_reported":1732100908,"current_range_meters":29600,"station_id":"ce4bhih2rcd13ifvqfs0","pricing_plan_id":"cebpf4jnsgd1na2vs0mg"},{"bike_id":"dfb656ce-a952-4232-be58-58af15a24d97","system_id":"levelo_inurba_marseille","lat":43.23155,"lon":5.4371,"is_reserved":false,"is_disabled":false,"rental_uris":{"android":"levelo://app?vid=dfb656ce-a952-4232-be58-58af15a24d97","ios":"levelo://app?vid=dfb656ce-a952-4232-be58-58af15a24d97"},"vehicle_type_id":"4","last_reported":1732100908,"current_range_meters":20800,"station_id":"ce4bhmp2rcd13ifvqgog","pricing_plan_id":"cebpf4jnsgd1na2vs0mg"},{"bike_id":"5c3000a0-a190-4007-a723-aa2707fd1ce3","system_id":"levelo_inurba_marseille","lat":43.22928,"lon":5.35378,"is_reserved":false,"is_disabled":false,"rental_uris":{"android":"levelo://app?vid=5c3000a0-a190-4007-a723-aa2707fd1ce3","ios":"levelo://app?vid=5c3000a0-a190-4007-a723-aa2707fd1ce3"},"vehicle_type_id":"4","last_reported":1732100908,"current_range_meters":38800,"station_id":"cpo3532slgdg3j2ikp40","pricing_plan_id":"cebpf4jnsgd1na2vs0mg"},{"bike_id":"07dfa307-72b1-4fd3-aaec-cc158bba164b","system_id":"levelo_inurba_marseille","lat":43.30883,"lon":5.36835,"is_reserved":false,"is_disabled":false,"rental_uris":{"android":"levelo://app?vid=07dfa307-72b1-4fd3-aaec-cc158bba164b","ios":"levelo://app?vid=07dfa307-72b1-4fd3-aaec-cc158bba164b"},"vehicle_type_id":"4","last_reported":1732100908,"current_range_meters":38400,"station_id":"","pricing_plan_id":"cebpf4jnsgd1na2vs0mg"},{"bike_id":"80c97958-4d55-4d04-b0ef-a5b1a09d0125","system_id":"levelo_inurba_marseille","lat":43.31338,"lon":5.36717,"is_reserved":false,"is_disabled":false,"rental_uris":{"android":"levelo://app?vid=80c97958-4d55-4d04-b0ef-a5b1a09d0125","ios":"levelo://app?vid=80c97958-4d55-4d04-b0ef-a5b1a09d0125"},"vehicle_type_id":"4","last_reported":1732100908,"current_range_meters":25600,"station_id":"ce4bgr92rcd13ifvqc6g","pricing_plan_id":"cebpf4jnsgd1na2vs0mg"},{"bike_id":"39e18cdf-7002-47ce-9771-c51d43131c04","system_id":"levelo_inurba_marseille","lat":43.29027,"lon":5.37543,"is_reserved":false,"is_disabled":false,"rental_uris":{"android":"levelo://app?vid=39e18cdf-7002-47ce-9771-c51d43131c04","ios":"levelo://app?vid=39e18cdf-7002-47ce-9771-c51d43131c04"},"vehicle_type_id":"4","last_reported":1732100908,"current_range_meters":2000,"station_id":"ce4bh692rcd13ifvqe90","pricing_plan_id":"cebpf4jnsgd1na2vs0mg"},{"bike_id":"ee2c1471-927f-47bd-9306-c798c41b58b5","system_id":"levelo_inurba_marseille","lat":43.30534,"lon":5.36716,"is_reserved":false,"is_disabled":false,"rental_uris":{"android":"levelo://app?vid=ee2c1471-927f-47bd-9306-c798c41b58b5","ios":"levelo://app?vid=ee2c1471-927f-47bd-9306-c798c41b58b5"},"vehicle_type_id":"4","last_reported":1732100908,"current_range_meters":5600,"station_id":"ce4bgrp2rcd13ifvqc9g","pricing_plan_id":"cebpf4jnsgd1na2vs0mg"},{"bike_id":"a1268cd6-3fef-4d8d-a3c3-f2c3e15b42cc","system_id":"levelo_inurba_marseille","lat":43.29841,"lon":5.36269,"is_reserved":false,"is_disabled":false,"rental_uris":{"android":"levelo://app?vid=a1268cd6-3fef-4d8d-a3c3-f2c3e15b42cc","ios":"levelo://app?vid=a1268cd6-3fef-4d8d-a3c3-f2c3e15b42cc"},"vehicle_type_id":"4","last_reported":1732100908,"current_range_meters":24000,"station_id":"ce4bgpp2rcd13ifvqc3g","pricing_plan_id":"cebpf4jnsgd1na2vs0mg"},{"bike_id":"a34fbb42-94e6-4ce6-8078-c4d064670b61","system_id":"levelo_inurba_marseille","lat":43.2418,"lon":5.39733,"is_reserved":false,"is_disabled":false,"rental_uris":{"android":"levelo://app?vid=a34fbb42-94e6-4ce6-8078-c4d064670b61","ios":"levelo://app?vid=a34fbb42-94e6-4ce6-8078-c4d064670b61"},"vehicle_type_id":"4","last_reported":1732100908,"current_range_meters":25600,"station_id":"ce4bhn12rcd13ifvqgpg","pricing_plan_id":"cebpf4jnsgd1na2vs0mg"},{"bike_id":"323f8ada-1479-4782-9eeb-af80cb01ce8c","system_id":"levelo_inurba_marseille","lat":43.31988,"lon":5.3815,"is_reserved":false,"is_disabled":false,"rental_uris":{"android":"levelo://app?vid=323f8ada-1479-4782-9eeb-af80cb01ce8c","ios":"levelo://app?vid=323f8ada-1479-4782-9eeb-af80cb01ce8c"},"vehicle_type_id":"4","last_reported":1732100908,"current_range_meters":22000,"station_id":"ce4bhr12rcd13ifvqhpg","pricing_plan_id":"cebpf4jnsgd1na2vs0mg"},{"bike_id":"772ce743-8958-4198-b3ba-b6e0d96fa296","system_id":"levelo_inurba_marseille","lat":43.2417,"lon":5.36392,"is_reserved":false,"is_disabled":false,"rental_uris":{"android":"levelo://app?vid=772ce743-8958-4198-b3ba-b6e0d96fa296","ios":"levelo://app?vid=772ce743-8958-4198-b3ba-b6e0d96fa296"},"vehicle_type_id":"4","last_reported":1732100908,"current_range_meters":10800,"station_id":"cpo36qri1sfpv3e86is0","pricing_plan_id":"cebpf4jnsgd1na2vs0mg"},{"bike_id":"b93c0c25-aef6-4958-b72d-ff68ccab430e","system_id":"levelo_inurba_marseille","lat":43.29519,"lon":5.37498,"is_reserved":false,"is_disabled":false,"rental_uris":{"android":"levelo://app?vid=b93c0c25-aef6-4958-b72d-ff68ccab430e","ios":"levelo://app?vid=b93c0c25-aef6-4958-b72d-ff68ccab430e"},"vehicle_type_id":"4","last_reported":1732100908,"current_range_meters":10000,"station_id":"ce4bgkp2rcd13ifvqbmg","pricing_plan_id":"cebpf4jnsgd1na2vs0mg"},{"bike_id":"dacb41ab-9cbc-49ad-a722-34f958036c71","system_id":"levelo_inurba_marseille","lat":43.30154,"lon":5.38083,"is_reserved":false,"is_disabled":false,"rental_uris":{"android":"levelo://app?vid=dacb41ab-9cbc-49ad-a722-34f958036c71","ios":"levelo://app?vid=dacb41ab-9cbc-49ad-a722-34f958036c71"},"vehicle_type_id":"4","last_reported":1732100908,"current_range_meters":25600,"station_id":"ce4bgjp2rcd13ifvqbh0","pricing_plan_id":"cebpf4jnsgd1na2vs0mg"},{"bike_id":"3b1d62f8-a2e9-40bf-864e-d3ff5d8aeef2","system_id":"levelo_inurba_marseille","lat":43.2707,"lon":5.4228,"is_reserved":false,"is_disabled":false,"rental_uris":{"android":"levelo://app?vid=3b1d62f8-a2e9-40bf-864e-d3ff5d8aeef2","ios":"levelo://app?vid=3b1d62f8-a2e9-40bf-864e-d3ff5d8aeef2"},"vehicle_type_id":"4","last_reported":1732100908,"current_range_meters":38800,"station_id":"ce4bhk92rcd13ifvqgb0","pricing_plan_id":"cebpf4jnsgd1na2vs0mg"},{"bike_id":"e3511c0c-eb2b-4100-bb2d-c5ebcd644bea","system_id":"levelo_inurba_marseille","lat":43.23958,"lon":5.36632,"is_reserved":false,"is_disabled":false,"rental_uris":{"android":"levelo://app?vid=e3511c0c-eb2b-4100-bb2d-c5ebcd644bea","ios":"levelo://app?vid=e3511c0c-eb2b-4100-bb2d-c5ebcd644bea"},"vehicle_type_id":"4","last_reported":1732100908,"current_range_meters":30400,"station_id":"ce4bhi12rcd13ifvqfp0","pricing_plan_id":"cebpf4jnsgd1na2vs0mg"},{"bike_id":"f73f0531-61ad-4376-a662-e4dc98c37327","system_id":"levelo_inurba_marseille","lat":43.30955,"lon":5.39025,"is_reserved":false,"is_disabled":false,"rental_uris":{"android":"levelo://app?vid=f73f0531-61ad-4376-a662-e4dc98c37327","ios":"levelo://app?vid=f73f0531-61ad-4376-a662-e4dc98c37327"},"vehicle_type_id":"4","last_reported":1732100908,"current_range_meters":33200,"station_id":"ce4bgup2rcd13ifvqco0","pricing_plan_id":"cebpf4jnsgd1na2vs0mg"},{"bike_id":"0b638473-1411-434e-9d66-cbfde13ae8a3","system_id":"levelo_inurba_marseille","lat":43.29942,"lon":5.36542,"is_reserved":false,"is_disabled":false,"rental_uris":{"android":"levelo://app?vid=0b638473-1411-434e-9d66-cbfde13ae8a3","ios":"levelo://app?vid=0b638473-1411-434e-9d66-cbfde13ae8a3"},"vehicle_type_id":"4","last_reported":1732100908,"current_range_meters":28400,"station_id":"ce4bgm92rcd13ifvqbr0","pricing_plan_id":"cebpf4jnsgd1na2vs0mg"},{"bike_id":"32da3231-70fc-4657-816e-67ea407fc940","system_id":"levelo_inurba_marseille","lat":43.2998,"lon":5.38488,"is_reserved":false,"is_disabled":false,"rental_uris":{"android":"levelo://app?vid=32da3231-70fc-4657-816e-67ea407fc940","ios":"levelo://app?vid=32da3231-70fc-4657-816e-67ea407fc940"},"vehicle_type_id":"4","last_reported":1732100908,"current_range_meters":23200,"station_id":"ce4bgj92rcd13ifvqbd0","pricing_plan_id":"cebpf4jnsgd1na2vs0mg"},{"bike_id":"1f55eea0-c55e-472f-8e6f-76429626f2a9","system_id":"levelo_inurba_marseille","lat":43.31921,"lon":5.4078,"is_reserved":false,"is_disabled":false,"rental_uris":{"android":"levelo://app?vid=1f55eea0-c55e-472f-8e6f-76429626f2a9","ios":"levelo://app?vid=1f55eea0-c55e-472f-8e6f-76429626f2a9"},"vehicle_type_id":"4","last_reported":1732100908,"current_range_meters":22400,"station_id":"ce4bhq92rcd13ifvqhkg","pricing_plan_id":"cebpf4jnsgd1na2vs0mg"},{"bike_id":"b5d07668-f4d3-418f-bdfd-25a8d6036cc9","system_id":"levelo_inurba_marseille","lat":43.30646,"lon":5.40102,"is_reserved":false,"is_disabled":false,"rental_uris":{"android":"levelo://app?vid=b5d07668-f4d3-418f-bdfd-25a8d6036cc9","ios":"levelo://app?vid=b5d07668-f4d3-418f-bdfd-25a8d6036cc9"},"vehicle_type_id":"4","last_reported":1732100908,"current_range_meters":36800,"station_id":"ce4bh112rcd13ifvqda0","pricing_plan_id":"cebpf4jnsgd1na2vs0mg"},{"bike_id":"a204aee1-8f0f-4775-b915-592e22ac8351","system_id":"levelo_inurba_marseille","lat":43.29259,"lon":5.40906,"is_reserved":false,"is_disabled":false,"rental_uris":{"android":"levelo://app?vid=a204aee1-8f0f-4775-b915-592e22ac8351","ios":"levelo://app?vid=a204aee1-8f0f-4775-b915-592e22ac8351"},"vehicle_type_id":"4","last_reported":1732100908,"current_range_meters":34800,"station_id":"ce4bh192rcd13ifvqdc0","pricing_plan_id":"cebpf4jnsgd1na2vs0mg"},{"bike_id":"33e4c791-af81-4159-9acb-9a5ba3c67096","system_id":"levelo_inurba_marseille","lat":43.30908,"lon":5.37156,"is_reserved":false,"is_disabled":false,"rental_uris":{"android":"levelo://app?vid=33e4c791-af81-4159-9acb-9a5ba3c67096","ios":"levelo://app?vid=33e4c791-af81-4159-9acb-9a5ba3c67096"},"vehicle_type_id":"4","last_reported":1732100908,"current_range_meters":25600,"station_id":"ce4bguh2rcd13ifvqckg","pricing_plan_id":"cebpf4jnsgd1na2vs0mg"},{"bike_id":"b5494c49-ca30-4ace-a87c-0383b5612197","system_id":"levelo_inurba_marseille","lat":43.29626,"lon":5.37719,"is_reserved":false,"is_disabled":false,"rental_uris":{"android":"levelo://app?vid=b5494c49-ca30-4ace-a87c-0383b5612197","ios":"levelo://app?vid=b5494c49-ca30-4ace-a87c-0383b5612197"},"vehicle_type_id":"4","last_reported":1732100908,"current_range_meters":8400,"station_id":"ce4bgi92rcd13ifvqb90","pricing_plan_id":"cebpf4jnsgd1na2vs0mg"},{"bike_id":"0dc4a3bf-2fba-424f-bfdf-6329c2972485","system_id":"levelo_inurba_marseille","lat":43.26686,"lon":5.3827,"is_reserved":false,"is_disabled":false,"rental_uris":{"android":"levelo://app?vid=0dc4a3bf-2fba-424f-bfdf-6329c2972485","ios":"levelo://app?vid=0dc4a3bf-2fba-424f-bfdf-6329c2972485"},"vehicle_type_id":"4","last_reported":1732100908,"current_range_meters":25600,"station_id":"ce4bhg92rcd13ifvqf90","pricing_plan_id":"cebpf4jnsgd1na2vs0mg"},{"bike_id":"e571dd94-eb8e-4900-ba72-f113018d8f8b","system_id":"levelo_inurba_marseille","lat":43.2466,"lon":5.38171,"is_reserved":false,"is_disabled":false,"rental_uris":{"android":"levelo://app?vid=e571dd94-eb8e-4900-ba72-f113018d8f8b","ios":"levelo://app?vid=e571dd94-eb8e-4900-ba72-f113018d8f8b"},"vehicle_type_id":"4","last_reported":1732100908,"current_range_meters":22400,"station_id":"ce4bhih2rcd13ifvqfr0","pricing_plan_id":"cebpf4jnsgd1na2vs0mg"},{"bike_id":"f0c626cd-034a-449a-82c5-17ea4355eb16","system_id":"levelo_inurba_marseille","lat":43.281596,"lon":5.426573,"is_reserved":false,"is_disabled":false,"rental_uris":{"android":"levelo://app?vid=f0c626cd-034a-449a-82c5-17ea4355eb16","ios":"levelo://app?vid=f0c626cd-034a-449a-82c5-17ea4355eb16"},"vehicle_type_id":"4","last_reported":1732100908,"current_range_meters":33200,"station_id":"ce4bhnh2rcd13ifvqgug","pricing_plan_id":"cebpf4jnsgd1na2vs0mg"},{"bike_id":"a762cc61-65e0-4035-ba60-378190deb55e","system_id":"levelo_inurba_marseille","lat":43.30418,"lon":5.41285,"is_reserved":false,"is_disabled":false,"rental_uris":{"android":"levelo://app?vid=a762cc61-65e0-4035-ba60-378190deb55e","ios":"levelo://app?vid=a762cc61-65e0-4035-ba60-378190deb55e"},"vehicle_type_id":"4","last_reported":1732100908,"current_range_meters":21600,"station_id":"ce4bhop2rcd13ifvqh8g","pricing_plan_id":"cebpf4jnsgd1na2vs0mg"},{"bike_id":"111163ee-ef9b-4fdf-a727-a62ed3ba6b98","system_id":"levelo_inurba_marseille","lat":43.27809,"lon":5.40715,"is_reserved":false,"is_disabled":false,"rental_uris":{"android":"levelo://app?vid=111163ee-ef9b-4fdf-a727-a62ed3ba6b98","ios":"levelo://app?vid=111163ee-ef9b-4fdf-a727-a62ed3ba6b98"},"vehicle_type_id":"4","last_reported":1732100908,"current_range_meters":38800,"station_id":"ce4bhnh2rcd13ifvqgtg","pricing_plan_id":"cebpf4jnsgd1na2vs0mg"},{"bike_id":"d674a550-723f-4e20-a0c2-89aa344c2ade","system_id":"levelo_inurba_marseille","lat":43.28211,"lon":5.44376,"is_reserved":false,"is_disabled":true,"rental_uris":{"android":"levelo://app?vid=d674a550-723f-4e20-a0c2-89aa344c2ade","ios":"levelo://app?vid=d674a550-723f-4e20-a0c2-89aa344c2ade"},"vehicle_type_id":"4","last_reported":1732100908,"current_range_meters":0,"station_id":"","pricing_plan_id":"cebpf4jnsgd1na2vs0mg"},{"bike_id":"675720b2-7990-45a4-9637-93c894b9ac8b","system_id":"levelo_inurba_marseille","lat":43.30153,"lon":5.38079,"is_reserved":false,"is_disabled":false,"rental_uris":{"android":"levelo://app?vid=675720b2-7990-45a4-9637-93c894b9ac8b","ios":"levelo://app?vid=675720b2-7990-45a4-9637-93c894b9ac8b"},"vehicle_type_id":"4","last_reported":1732100908,"current_range_meters":15200,"station_id":"ce4bgjp2rcd13ifvqbh0","pricing_plan_id":"cebpf4jnsgd1na2vs0mg"},{"bike_id":"f6e3a69c-1ce2-40ac-adae-39d4cef78cc6","system_id":"levelo_inurba_marseille","lat":43.3053,"lon":5.36704,"is_reserved":false,"is_disabled":false,"rental_uris":{"android":"levelo://app?vid=f6e3a69c-1ce2-40ac-adae-39d4cef78cc6","ios":"levelo://app?vid=f6e3a69c-1ce2-40ac-adae-39d4cef78cc6"},"vehicle_type_id":"4","last_reported":1732100908,"current_range_meters":11600,"station_id":"ce4bgrp2rcd13ifvqc9g","pricing_plan_id":"cebpf4jnsgd1na2vs0mg"},{"bike_id":"6ff2b797-23e9-4a9c-8cd0-6471cc01eec6","system_id":"levelo_inurba_marseille","lat":43.25723,"lon":5.41109,"is_reserved":false,"is_disabled":true,"rental_uris":{"android":"levelo://app?vid=6ff2b797-23e9-4a9c-8cd0-6471cc01eec6","ios":"levelo://app?vid=6ff2b797-23e9-4a9c-8cd0-6471cc01eec6"},"vehicle_type_id":"4","last_reported":1732100908,"current_range_meters":31200,"station_id":"ce4bhkp2rcd13ifvqgd0","pricing_plan_id":"cebpf4jnsgd1na2vs0mg"},{"bike_id":"f5cf085e-8694-4c6f-ba9c-aa6e0d3c58c6","system_id":"levelo_inurba_marseille","lat":43.33682,"lon":5.35546,"is_reserved":false,"is_disabled":true,"rental_uris":{"android":"levelo://app?vid=f5cf085e-8694-4c6f-ba9c-aa6e0d3c58c6","ios":"levelo://app?vid=f5cf085e-8694-4c6f-ba9c-aa6e0d3c58c6"},"vehicle_type_id":"4","last_reported":1732100908,"current_range_meters":12000,"station_id":"","pricing_plan_id":"cebpf4jnsgd1na2vs0mg"},{"bike_id":"3d2beca7-eef0-4bae-98e1-8b3de347272c","system_id":"levelo_inurba_marseille","lat":43.23192,"lon":5.35554,"is_reserved":false,"is_disabled":false,"rental_uris":{"android":"levelo://app?vid=3d2beca7-eef0-4bae-98e1-8b3de347272c","ios":"levelo://app?vid=3d2beca7-eef0-4bae-98e1-8b3de347272c"},"vehicle_type_id":"4","last_reported":1732100908,"current_range_meters":38000,"station_id":"ce4bhu92rcd13ifvqi70","pricing_plan_id":"cebpf4jnsgd1na2vs0mg"},{"bike_id":"945fc5ee-927b-4ce1-af79-0f398b84b5a9","system_id":"levelo_inurba_marseille","lat":43.28695,"lon":5.39989,"is_reserved":false,"is_disabled":false,"rental_uris":{"android":"levelo://app?vid=945fc5ee-927b-4ce1-af79-0f398b84b5a9","ios":"levelo://app?vid=945fc5ee-927b-4ce1-af79-0f398b84b5a9"},"vehicle_type_id":"4","last_reported":1732100908,"current_range_meters":17200,"station_id":"ce4bho92rcd13ifvqh3g","pricing_plan_id":"cebpf4jnsgd1na2vs0mg"},{"bike_id":"036e760d-b5fe-42e0-b5cd-ddfc49845e30","system_id":"levelo_inurba_marseille","lat":43.2692,"lon":5.38913,"is_reserved":false,"is_disabled":false,"rental_uris":{"android":"levelo://app?vid=036e760d-b5fe-42e0-b5cd-ddfc49845e30","ios":"levelo://app?vid=036e760d-b5fe-42e0-b5cd-ddfc49845e30"},"vehicle_type_id":"4","last_reported":1732100908,"current_range_meters":20000,"station_id":"ce4bhhh2rcd13ifvqfl0","pricing_plan_id":"cebpf4jnsgd1na2vs0mg"},{"bike_id":"afadbd90-4ea9-4e99-ae1e-98e25bda988a","system_id":"levelo_inurba_marseille","lat":43.30463,"lon":5.37909,"is_reserved":false,"is_disabled":false,"rental_uris":{"android":"levelo://app?vid=afadbd90-4ea9-4e99-ae1e-98e25bda988a","ios":"levelo://app?vid=afadbd90-4ea9-4e99-ae1e-98e25bda988a"},"vehicle_type_id":"4","last_reported":1732100908,"current_range_meters":28000,"station_id":"ce4bgup2rcd13ifvqcn0","pricing_plan_id":"cebpf4jnsgd1na2vs0mg"},{"bike_id":"e008ea5b-9c85-47a4-8557-75f660f9a13d","system_id":"levelo_inurba_marseille","lat":43.24389,"lon":5.37051,"is_reserved":false,"is_disabled":false,"rental_uris":{"android":"levelo://app?vid=e008ea5b-9c85-47a4-8557-75f660f9a13d","ios":"levelo://app?vid=e008ea5b-9c85-47a4-8557-75f660f9a13d"},"vehicle_type_id":"4","last_reported":1732100908,"current_range_meters":39200,"station_id":"ce4bhhh2rcd13ifvqfk0","pricing_plan_id":"cebpf4jnsgd1na2vs0mg"},{"bike_id":"f327ad99-a507-4865-ac80-317fae91b821","system_id":"levelo_inurba_marseille","lat":43.28258,"lon":5.35071,"is_reserved":false,"is_disabled":false,"rental_uris":{"android":"levelo://app?vid=f327ad99-a507-4865-ac80-317fae91b821","ios":"levelo://app?vid=f327ad99-a507-4865-ac80-317fae91b821"},"vehicle_type_id":"4","last_reported":1732100908,"current_range_meters":30400,"station_id":"ce4bhbp2rcd13ifvqerg","pricing_plan_id":"cebpf4jnsgd1na2vs0mg"},{"bike_id":"7c198087-fd49-4f92-b95a-9ce06988bc39","system_id":"levelo_inurba_marseille","lat":43.31327,"lon":5.39695,"is_reserved":false,"is_disabled":false,"rental_uris":{"android":"levelo://app?vid=7c198087-fd49-4f92-b95a-9ce06988bc39","ios":"levelo://app?vid=7c198087-fd49-4f92-b95a-9ce06988bc39"},"vehicle_type_id":"4","last_reported":1732100908,"current_range_meters":32400,"station_id":"ce4bgvp2rcd13ifvqcu0","pricing_plan_id":"cebpf4jnsgd1na2vs0mg"},{"bike_id":"ae6ce63e-7f4d-4d23-bb78-d0c68051d17d","system_id":"levelo_inurba_marseille","lat":43.30186,"lon":5.36599,"is_reserved":false,"is_disabled":false,"rental_uris":{"android":"levelo://app?vid=ae6ce63e-7f4d-4d23-bb78-d0c68051d17d","ios":"levelo://app?vid=ae6ce63e-7f4d-4d23-bb78-d0c68051d17d"},"vehicle_type_id":"4","last_reported":1732100908,"current_range_meters":34000,"station_id":"ce4bgrh2rcd13ifvqc8g","pricing_plan_id":"cebpf4jnsgd1na2vs0mg"},{"bike_id":"241d784b-4d0c-4875-b884-dc2576b22a9d","system_id":"levelo_inurba_marseille","lat":43.336,"lon":5.4103,"is_reserved":false,"is_disabled":false,"rental_uris":{"android":"levelo://app?vid=241d784b-4d0c-4875-b884-dc2576b22a9d","ios":"levelo://app?vid=241d784b-4d0c-4875-b884-dc2576b22a9d"},"vehicle_type_id":"4","last_reported":1732100908,"current_range_meters":38800,"station_id":"ce4bhqh2rcd13ifvqhmg","pricing_plan_id":"cebpf4jnsgd1na2vs0mg"},{"bike_id":"e9ffc940-f065-44a6-ba59-685dbdfab9cd","system_id":"levelo_inurba_marseille","lat":43.29582,"lon":5.37521,"is_reserved":false,"is_disabled":false,"rental_uris":{"android":"levelo://app?vid=e9ffc940-f065-44a6-ba59-685dbdfab9cd","ios":"levelo://app?vid=e9ffc940-f065-44a6-ba59-685dbdfab9cd"},"vehicle_type_id":"4","last_reported":1732100908,"current_range_meters":10800,"station_id":"ce4bgh92rcd13ifvqb50","pricing_plan_id":"cebpf4jnsgd1na2vs0mg"},{"bike_id":"a53d5179-303f-4b0c-b63c-286f519ba35d","system_id":"levelo_inurba_marseille","lat":43.26944,"lon":5.38632,"is_reserved":false,"is_disabled":false,"rental_uris":{"android":"levelo://app?vid=a53d5179-303f-4b0c-b63c-286f519ba35d","ios":"levelo://app?vid=a53d5179-303f-4b0c-b63c-286f519ba35d"},"vehicle_type_id":"4","last_reported":1732100908,"current_range_meters":3200,"station_id":"ce4bhh92rcd13ifvqfh0","pricing_plan_id":"cebpf4jnsgd1na2vs0mg"},{"bike_id":"26b63fb5-6be1-4fc5-92e0-6030f516e096","system_id":"levelo_inurba_marseille","lat":43.31756,"lon":5.39019,"is_reserved":false,"is_disabled":false,"rental_uris":{"android":"levelo://app?vid=26b63fb5-6be1-4fc5-92e0-6030f516e096","ios":"levelo://app?vid=26b63fb5-6be1-4fc5-92e0-6030f516e096"},"vehicle_type_id":"4","last_reported":1732100908,"current_range_meters":16800,"station_id":"ce4bhqp2rcd13ifvqhng","pricing_plan_id":"cebpf4jnsgd1na2vs0mg"},{"bike_id":"d37cb7b9-0847-49fe-852a-c61eaf0e2196","system_id":"levelo_inurba_marseille","lat":43.29549,"lon":5.4228,"is_reserved":false,"is_disabled":true,"rental_uris":{"android":"levelo://app?vid=d37cb7b9-0847-49fe-852a-c61eaf0e2196","ios":"levelo://app?vid=d37cb7b9-0847-49fe-852a-c61eaf0e2196"},"vehicle_type_id":"4","last_reported":1732100908,"current_range_meters":0,"station_id":"ce4bhph2rcd13ifvqhdg","pricing_plan_id":"cebpf4jnsgd1na2vs0mg"},{"bike_id":"eceff765-15e5-4f96-905e-187218294f68","system_id":"levelo_inurba_marseille","lat":43.25502,"lon":5.3765,"is_reserved":false,"is_disabled":false,"rental_uris":{"android":"levelo://app?vid=eceff765-15e5-4f96-905e-187218294f68","ios":"levelo://app?vid=eceff765-15e5-4f96-905e-187218294f68"},"vehicle_type_id":"4","last_reported":1732100908,"current_range_meters":38000,"station_id":"ce4bhh12rcd13ifvqff0","pricing_plan_id":"cebpf4jnsgd1na2vs0mg"},{"bike_id":"b18e2003-31f5-433a-8253-d60207d05cea","system_id":"levelo_inurba_marseille","lat":43.25579,"lon":5.38231,"is_reserved":false,"is_disabled":false,"rental_uris":{"android":"levelo://app?vid=b18e2003-31f5-433a-8253-d60207d05cea","ios":"levelo://app?vid=b18e2003-31f5-433a-8253-d60207d05cea"},"vehicle_type_id":"4","last_reported":1732100908,"current_range_meters":36800,"station_id":"ce4bhih2rcd13ifvqfs0","pricing_plan_id":"cebpf4jnsgd1na2vs0mg"},{"bike_id":"b577db40-99a8-416c-97ee-c118609a215a","system_id":"levelo_inurba_marseille","lat":43.26034,"lon":5.3755,"is_reserved":false,"is_disabled":false,"rental_uris":{"android":"levelo://app?vid=b577db40-99a8-416c-97ee-c118609a215a","ios":"levelo://app?vid=b577db40-99a8-416c-97ee-c118609a215a"},"vehicle_type_id":"4","last_reported":1732100908,"current_range_meters":36000,"station_id":"","pricing_plan_id":"cebpf4jnsgd1na2vs0mg"},{"bike_id":"f31fd669-b56e-4cd4-a617-abb79ad4b803","system_id":"levelo_inurba_marseille","lat":43.29419,"lon":5.38614,"is_reserved":false,"is_disabled":false,"rental_uris":{"android":"levelo://app?vid=f31fd669-b56e-4cd4-a617-abb79ad4b803","ios":"levelo://app?vid=f31fd669-b56e-4cd4-a617-abb79ad4b803"},"vehicle_type_id":"4","last_reported":1732100908,"current_range_meters":20400,"station_id":"ce4bh2h2rcd13ifvqdh0","pricing_plan_id":"cebpf4jnsgd1na2vs0mg"},{"bike_id":"cdaafd2d-0da1-4fac-9881-15c66a7cd7c0","system_id":"levelo_inurba_marseille","lat":43.2315,"lon":5.43707,"is_reserved":false,"is_disabled":true,"rental_uris":{"android":"levelo://app?vid=cdaafd2d-0da1-4fac-9881-15c66a7cd7c0","ios":"levelo://app?vid=cdaafd2d-0da1-4fac-9881-15c66a7cd7c0"},"vehicle_type_id":"4","last_reported":1732100908,"current_range_meters":0,"station_id":"ce4bhmp2rcd13ifvqgog","pricing_plan_id":"cebpf4jnsgd1na2vs0mg"},{"bike_id":"80ed2145-0455-4da8-ae4a-e36065982ce3","system_id":"levelo_inurba_marseille","lat":43.32357,"lon":5.38877,"is_reserved":false,"is_disabled":false,"rental_uris":{"android":"levelo://app?vid=80ed2145-0455-4da8-ae4a-e36065982ce3","ios":"levelo://app?vid=80ed2145-0455-4da8-ae4a-e36065982ce3"},"vehicle_type_id":"4","last_reported":1732100908,"current_range_meters":8800,"station_id":"ce4bhqp2rcd13ifvqhog","pricing_plan_id":"cebpf4jnsgd1na2vs0mg"},{"bike_id":"151ea067-14d1-432d-a994-9465d614138c","system_id":"levelo_inurba_marseille","lat":43.31364,"lon":5.38496,"is_reserved":false,"is_disabled":false,"rental_uris":{"android":"levelo://app?vid=151ea067-14d1-432d-a994-9465d614138c","ios":"levelo://app?vid=151ea067-14d1-432d-a994-9465d614138c"},"vehicle_type_id":"4","last_reported":1732100908,"current_range_meters":10000,"station_id":"ce4bgt92rcd13ifvqcf0","pricing_plan_id":"cebpf4jnsgd1na2vs0mg"},{"bike_id":"8d5ad0a8-268e-4afd-be61-7919f93826c7","system_id":"levelo_inurba_marseille","lat":43.29911,"lon":5.37482,"is_reserved":false,"is_disabled":true,"rental_uris":{"android":"levelo://app?vid=8d5ad0a8-268e-4afd-be61-7919f93826c7","ios":"levelo://app?vid=8d5ad0a8-268e-4afd-be61-7919f93826c7"},"vehicle_type_id":"4","last_reported":1732100908,"current_range_meters":38000,"station_id":"ce4bgjh2rcd13ifvqbg0","pricing_plan_id":"cebpf4jnsgd1na2vs0mg"},{"bike_id":"f198b97b-88d4-49aa-b205-4610520421a6","system_id":"levelo_inurba_marseille","lat":43.33026,"lon":5.39039,"is_reserved":false,"is_disabled":false,"rental_uris":{"android":"levelo://app?vid=f198b97b-88d4-49aa-b205-4610520421a6","ios":"levelo://app?vid=f198b97b-88d4-49aa-b205-4610520421a6"},"vehicle_type_id":"4","last_reported":1732100908,"current_range_meters":30000,"station_id":"ce4bhr92rcd13ifvqhrg","pricing_plan_id":"cebpf4jnsgd1na2vs0mg"},{"bike_id":"20231e00-bfca-448e-9021-13e01c2711d0","system_id":"levelo_inurba_marseille","lat":43.25862,"lon":5.39897,"is_reserved":false,"is_disabled":false,"rental_uris":{"android":"levelo://app?vid=20231e00-bfca-448e-9021-13e01c2711d0","ios":"levelo://app?vid=20231e00-bfca-448e-9021-13e01c2711d0"},"vehicle_type_id":"4","last_reported":1732100908,"current_range_meters":27600,"station_id":"ce4bhl92rcd13ifvqghg","pricing_plan_id":"cebpf4jnsgd1na2vs0mg"},{"bike_id":"4a9a7800-13f1-427a-9c81-000b981e4c98","system_id":"levelo_inurba_marseille","lat":43.27364,"lon":5.36255,"is_reserved":false,"is_disabled":true,"rental_uris":{"android":"levelo://app?vid=4a9a7800-13f1-427a-9c81-000b981e4c98","ios":"levelo://app?vid=4a9a7800-13f1-427a-9c81-000b981e4c98"},"vehicle_type_id":"4","last_reported":1732100908,"current_range_meters":0,"station_id":"ce4bhbh2rcd13ifvqeo0","pricing_plan_id":"cebpf4jnsgd1na2vs0mg"},{"bike_id":"80f5374f-d71c-49c0-bff2-ba689fdaae85","system_id":"levelo_inurba_marseille","lat":43.23148,"lon":5.43716,"is_reserved":false,"is_disabled":false,"rental_uris":{"android":"levelo://app?vid=80f5374f-d71c-49c0-bff2-ba689fdaae85","ios":"levelo://app?vid=80f5374f-d71c-49c0-bff2-ba689fdaae85"},"vehicle_type_id":"4","last_reported":1732100908,"current_range_meters":2800,"station_id":"ce4bhmp2rcd13ifvqgog","pricing_plan_id":"cebpf4jnsgd1na2vs0mg"},{"bike_id":"6a9c3b42-bbed-4a17-9d21-9d400d11f331","system_id":"levelo_inurba_marseille","lat":43.3248,"lon":5.36554,"is_reserved":false,"is_disabled":false,"rental_uris":{"android":"levelo://app?vid=6a9c3b42-bbed-4a17-9d21-9d400d11f331","ios":"levelo://app?vid=6a9c3b42-bbed-4a17-9d21-9d400d11f331"},"vehicle_type_id":"4","last_reported":1732100908,"current_range_meters":38000,"station_id":"ce4bhs12rcd13ifvqhvg","pricing_plan_id":"cebpf4jnsgd1na2vs0mg"},{"bike_id":"7d3c1b57-5722-493d-af8a-36155bbf6d08","system_id":"levelo_inurba_marseille","lat":43.28458,"lon":5.35889,"is_reserved":false,"is_disabled":false,"rental_uris":{"android":"levelo://app?vid=7d3c1b57-5722-493d-af8a-36155bbf6d08","ios":"levelo://app?vid=7d3c1b57-5722-493d-af8a-36155bbf6d08"},"vehicle_type_id":"4","last_reported":1732100908,"current_range_meters":34000,"station_id":"ce4bhah2rcd13ifvqei0","pricing_plan_id":"cebpf4jnsgd1na2vs0mg"},{"bike_id":"0b7593af-e6ee-4848-abb2-31e64b4af67b","system_id":"levelo_inurba_marseille","lat":43.27418,"lon":5.39422,"is_reserved":false,"is_disabled":false,"rental_uris":{"android":"levelo://app?vid=0b7593af-e6ee-4848-abb2-31e64b4af67b","ios":"levelo://app?vid=0b7593af-e6ee-4848-abb2-31e64b4af67b"},"vehicle_type_id":"4","last_reported":1732100908,"current_range_meters":38800,"station_id":"ce4bhdp2rcd13ifvqf20","pricing_plan_id":"cebpf4jnsgd1na2vs0mg"},{"bike_id":"80df4d45-89ed-4904-9050-358183baefa2","system_id":"levelo_inurba_marseille","lat":43.30302,"lon":5.36899,"is_reserved":false,"is_disabled":false,"rental_uris":{"android":"levelo://app?vid=80df4d45-89ed-4904-9050-358183baefa2","ios":"levelo://app?vid=80df4d45-89ed-4904-9050-358183baefa2"},"vehicle_type_id":"4","last_reported":1732100908,"current_range_meters":12800,"station_id":"ce4bgqh2rcd13ifvqc5g","pricing_plan_id":"cebpf4jnsgd1na2vs0mg"},{"bike_id":"b2d17292-5c24-4820-86e8-ea9c55c7a642","system_id":"levelo_inurba_marseille","lat":43.26208,"lon":5.37444,"is_reserved":false,"is_disabled":false,"rental_uris":{"android":"levelo://app?vid=b2d17292-5c24-4820-86e8-ea9c55c7a642","ios":"levelo://app?vid=b2d17292-5c24-4820-86e8-ea9c55c7a642"},"vehicle_type_id":"4","last_reported":1732100908,"current_range_meters":17200,"station_id":"ce4bhgp2rcd13ifvqfc0","pricing_plan_id":"cebpf4jnsgd1na2vs0mg"},{"bike_id":"4bd268f3-b708-480d-b1f5-141d19aa9947","system_id":"levelo_inurba_marseille","lat":43.24466,"lon":5.378,"is_reserved":false,"is_disabled":true,"rental_uris":{"android":"levelo://app?vid=4bd268f3-b708-480d-b1f5-141d19aa9947","ios":"levelo://app?vid=4bd268f3-b708-480d-b1f5-141d19aa9947"},"vehicle_type_id":"4","last_reported":1732100908,"current_range_meters":0,"station_id":"","pricing_plan_id":"cebpf4jnsgd1na2vs0mg"},{"bike_id":"9b4d52a8-a22b-418c-a556-65afaca3a235","system_id":"levelo_inurba_marseille","lat":43.33756,"lon":5.37452,"is_reserved":false,"is_disabled":false,"rental_uris":{"android":"levelo://app?vid=9b4d52a8-a22b-418c-a556-65afaca3a235","ios":"levelo://app?vid=9b4d52a8-a22b-418c-a556-65afaca3a235"},"vehicle_type_id":"4","last_reported":1732100908,"current_range_meters":16800,"station_id":"","pricing_plan_id":"cebpf4jnsgd1na2vs0mg"},{"bike_id":"4a480100-024d-48c9-89da-2b1b4df99533","system_id":"levelo_inurba_marseille","lat":43.30138,"lon":5.37428,"is_reserved":false,"is_disabled":false,"rental_uris":{"android":"levelo://app?vid=4a480100-024d-48c9-89da-2b1b4df99533","ios":"levelo://app?vid=4a480100-024d-48c9-89da-2b1b4df99533"},"vehicle_type_id":"4","last_reported":1732100908,"current_range_meters":20000,"station_id":"ce4bgs92rcd13ifvqcc0","pricing_plan_id":"cebpf4jnsgd1na2vs0mg"},{"bike_id":"f76f1bd5-bbe9-4d85-980d-71b40537899a","system_id":"levelo_inurba_marseille","lat":43.3096,"lon":5.390297,"is_reserved":false,"is_disabled":false,"rental_uris":{"android":"levelo://app?vid=f76f1bd5-bbe9-4d85-980d-71b40537899a","ios":"levelo://app?vid=f76f1bd5-bbe9-4d85-980d-71b40537899a"},"vehicle_type_id":"4","last_reported":1732100908,"current_range_meters":31200,"station_id":"ce4bgup2rcd13ifvqco0","pricing_plan_id":"cebpf4jnsgd1na2vs0mg"},{"bike_id":"e74e8692-56b5-455e-b107-3674a73c30f0","system_id":"levelo_inurba_marseille","lat":43.29266,"lon":5.36836,"is_reserved":false,"is_disabled":true,"rental_uris":{"android":"levelo://app?vid=e74e8692-56b5-455e-b107-3674a73c30f0","ios":"levelo://app?vid=e74e8692-56b5-455e-b107-3674a73c30f0"},"vehicle_type_id":"4","last_reported":1732100908,"current_range_meters":0,"station_id":"ce4bhbp2rcd13ifvqesg","pricing_plan_id":"cebpf4jnsgd1na2vs0mg"},{"bike_id":"c3696782-8a90-4d1a-b11c-65de884cbc48","system_id":"levelo_inurba_marseille","lat":43.29617,"lon":5.37724,"is_reserved":false,"is_disabled":false,"rental_uris":{"android":"levelo://app?vid=c3696782-8a90-4d1a-b11c-65de884cbc48","ios":"levelo://app?vid=c3696782-8a90-4d1a-b11c-65de884cbc48"},"vehicle_type_id":"4","last_reported":1732100908,"current_range_meters":27600,"station_id":"ce4bgi92rcd13ifvqb90","pricing_plan_id":"cebpf4jnsgd1na2vs0mg"},{"bike_id":"b8e0ff19-cfbf-49c3-a9f8-f8dcefd4b613","system_id":"levelo_inurba_marseille","lat":43.27667,"lon":5.38893,"is_reserved":false,"is_disabled":true,"rental_uris":{"android":"levelo://app?vid=b8e0ff19-cfbf-49c3-a9f8-f8dcefd4b613","ios":"levelo://app?vid=b8e0ff19-cfbf-49c3-a9f8-f8dcefd4b613"},"vehicle_type_id":"4","last_reported":1732100908,"current_range_meters":33200,"station_id":"ce4bhi12rcd13ifvqfo0","pricing_plan_id":"cebpf4jnsgd1na2vs0mg"},{"bike_id":"6062c814-b29e-4547-857c-6b4aba6ee686","system_id":"levelo_inurba_marseille","lat":43.31339,"lon":5.3672,"is_reserved":false,"is_disabled":false,"rental_uris":{"android":"levelo://app?vid=6062c814-b29e-4547-857c-6b4aba6ee686","ios":"levelo://app?vid=6062c814-b29e-4547-857c-6b4aba6ee686"},"vehicle_type_id":"4","last_reported":1732100908,"current_range_meters":32400,"station_id":"ce4bgr92rcd13ifvqc6g","pricing_plan_id":"cebpf4jnsgd1na2vs0mg"},{"bike_id":"2ce31dc3-b983-4123-b98d-386926f16aae","system_id":"levelo_inurba_marseille","lat":43.26568,"lon":5.38998,"is_reserved":false,"is_disabled":false,"rental_uris":{"android":"levelo://app?vid=2ce31dc3-b983-4123-b98d-386926f16aae","ios":"levelo://app?vid=2ce31dc3-b983-4123-b98d-386926f16aae"},"vehicle_type_id":"4","last_reported":1732100908,"current_range_meters":20800,"station_id":"ce4bhe12rcd13ifvqf30","pricing_plan_id":"cebpf4jnsgd1na2vs0mg"},{"bike_id":"93df6ddb-116b-49af-8d27-10fad5b24377","system_id":"levelo_inurba_marseille","lat":43.29729,"lon":5.37683,"is_reserved":false,"is_disabled":false,"rental_uris":{"android":"levelo://app?vid=93df6ddb-116b-49af-8d27-10fad5b24377","ios":"levelo://app?vid=93df6ddb-116b-49af-8d27-10fad5b24377"},"vehicle_type_id":"4","last_reported":1732100908,"current_range_meters":26800,"station_id":"ce4bgkh2rcd13ifvqbl0","pricing_plan_id":"cebpf4jnsgd1na2vs0mg"},{"bike_id":"ef7e91ae-59cd-4b72-8c71-e7c24c1721e4","system_id":"levelo_inurba_marseille","lat":43.30604,"lon":5.37223,"is_reserved":false,"is_disabled":false,"rental_uris":{"android":"levelo://app?vid=ef7e91ae-59cd-4b72-8c71-e7c24c1721e4","ios":"levelo://app?vid=ef7e91ae-59cd-4b72-8c71-e7c24c1721e4"},"vehicle_type_id":"4","last_reported":1732100908,"current_range_meters":25200,"station_id":"ce4bgqh2rcd13ifvqc4g","pricing_plan_id":"cebpf4jnsgd1na2vs0mg"},{"bike_id":"2393d6b7-6971-4d1d-9f18-7aeb901fe3d7","system_id":"levelo_inurba_marseille","lat":43.2973,"lon":5.37687,"is_reserved":false,"is_disabled":false,"rental_uris":{"android":"levelo://app?vid=2393d6b7-6971-4d1d-9f18-7aeb901fe3d7","ios":"levelo://app?vid=2393d6b7-6971-4d1d-9f18-7aeb901fe3d7"},"vehicle_type_id":"4","last_reported":1732100908,"current_range_meters":27600,"station_id":"ce4bgkh2rcd13ifvqbl0","pricing_plan_id":"cebpf4jnsgd1na2vs0mg"},{"bike_id":"d0d10073-2f85-4b83-bd2a-5cd40e041e30","system_id":"levelo_inurba_marseille","lat":43.29258,"lon":5.409,"is_reserved":false,"is_disabled":false,"rental_uris":{"android":"levelo://app?vid=d0d10073-2f85-4b83-bd2a-5cd40e041e30","ios":"levelo://app?vid=d0d10073-2f85-4b83-bd2a-5cd40e041e30"},"vehicle_type_id":"4","last_reported":1732100908,"current_range_meters":7200,"station_id":"ce4bh192rcd13ifvqdc0","pricing_plan_id":"cebpf4jnsgd1na2vs0mg"},{"bike_id":"270c5586-8f9b-4bce-8727-3cf2154b0f5a","system_id":"levelo_inurba_marseille","lat":43.26943,"lon":5.38631,"is_reserved":false,"is_disabled":false,"rental_uris":{"android":"levelo://app?vid=270c5586-8f9b-4bce-8727-3cf2154b0f5a","ios":"levelo://app?vid=270c5586-8f9b-4bce-8727-3cf2154b0f5a"},"vehicle_type_id":"4","last_reported":1732100908,"current_range_meters":17600,"station_id":"ce4bhh92rcd13ifvqfh0","pricing_plan_id":"cebpf4jnsgd1na2vs0mg"},{"bike_id":"0b733133-03c9-4766-961e-92b775b50bbc","system_id":"levelo_inurba_marseille","lat":43.28222,"lon":5.4429,"is_reserved":false,"is_disabled":true,"rental_uris":{"android":"levelo://app?vid=0b733133-03c9-4766-961e-92b775b50bbc","ios":"levelo://app?vid=0b733133-03c9-4766-961e-92b775b50bbc"},"vehicle_type_id":"4","last_reported":1732100908,"current_range_meters":0,"station_id":"","pricing_plan_id":"cebpf4jnsgd1na2vs0mg"},{"bike_id":"e4c11769-2c19-46a4-a622-9a2180bb2646","system_id":"levelo_inurba_marseille","lat":43.23148,"lon":5.43708,"is_reserved":false,"is_disabled":false,"rental_uris":{"android":"levelo://app?vid=e4c11769-2c19-46a4-a622-9a2180bb2646","ios":"levelo://app?vid=e4c11769-2c19-46a4-a622-9a2180bb2646"},"vehicle_type_id":"4","last_reported":1732100908,"current_range_meters":39200,"station_id":"ce4bhmp2rcd13ifvqgog","pricing_plan_id":"cebpf4jnsgd1na2vs0mg"},{"bike_id":"ec5599da-c22b-4771-a15a-f07f55bc39c9","system_id":"levelo_inurba_marseille","lat":43.29722,"lon":5.37689,"is_reserved":false,"is_disabled":false,"rental_uris":{"android":"levelo://app?vid=ec5599da-c22b-4771-a15a-f07f55bc39c9","ios":"levelo://app?vid=ec5599da-c22b-4771-a15a-f07f55bc39c9"},"vehicle_type_id":"4","last_reported":1732100908,"current_range_meters":4800,"station_id":"ce4bgkh2rcd13ifvqbl0","pricing_plan_id":"cebpf4jnsgd1na2vs0mg"},{"bike_id":"5336a5b5-c183-420b-aff7-591cf3ddcaab","system_id":"levelo_inurba_marseille","lat":43.30468,"lon":5.37905,"is_reserved":false,"is_disabled":true,"rental_uris":{"android":"levelo://app?vid=5336a5b5-c183-420b-aff7-591cf3ddcaab","ios":"levelo://app?vid=5336a5b5-c183-420b-aff7-591cf3ddcaab"},"vehicle_type_id":"4","last_reported":1732100908,"current_range_meters":36800,"station_id":"ce4bgup2rcd13ifvqcn0","pricing_plan_id":"cebpf4jnsgd1na2vs0mg"},{"bike_id":"f9a7c24d-fb35-4027-a8c1-115c4703f22f","system_id":"levelo_inurba_marseille","lat":43.29699,"lon":5.36618,"is_reserved":false,"is_disabled":false,"rental_uris":{"android":"levelo://app?vid=f9a7c24d-fb35-4027-a8c1-115c4703f22f","ios":"levelo://app?vid=f9a7c24d-fb35-4027-a8c1-115c4703f22f"},"vehicle_type_id":"4","last_reported":1732100908,"current_range_meters":32800,"station_id":"ce4bgn12rcd13ifvqbt0","pricing_plan_id":"cebpf4jnsgd1na2vs0mg"},{"bike_id":"c3724d37-5f76-45fd-89a9-51b88d294840","system_id":"levelo_inurba_marseille","lat":43.30268,"lon":5.37715,"is_reserved":false,"is_disabled":false,"rental_uris":{"android":"levelo://app?vid=c3724d37-5f76-45fd-89a9-51b88d294840","ios":"levelo://app?vid=c3724d37-5f76-45fd-89a9-51b88d294840"},"vehicle_type_id":"4","last_reported":1732100908,"current_range_meters":12800,"station_id":"ce4bguh2rcd13ifvqcj0","pricing_plan_id":"cebpf4jnsgd1na2vs0mg"},{"bike_id":"a0def0fa-9d20-4399-a927-69261f1f4952","system_id":"levelo_inurba_marseille","lat":43.29004,"lon":5.35608,"is_reserved":false,"is_disabled":false,"rental_uris":{"android":"levelo://app?vid=a0def0fa-9d20-4399-a927-69261f1f4952","ios":"levelo://app?vid=a0def0fa-9d20-4399-a927-69261f1f4952"},"vehicle_type_id":"4","last_reported":1732100908,"current_range_meters":18800,"station_id":"ce4bhb92rcd13ifvqen0","pricing_plan_id":"cebpf4jnsgd1na2vs0mg"},{"bike_id":"1904e4d6-e1e0-456f-9800-8b0e0e7107b4","system_id":"levelo_inurba_marseille","lat":43.23159,"lon":5.43709,"is_reserved":false,"is_disabled":true,"rental_uris":{"android":"levelo://app?vid=1904e4d6-e1e0-456f-9800-8b0e0e7107b4","ios":"levelo://app?vid=1904e4d6-e1e0-456f-9800-8b0e0e7107b4"},"vehicle_type_id":"4","last_reported":1732100908,"current_range_meters":0,"station_id":"ce4bhmp2rcd13ifvqgog","pricing_plan_id":"cebpf4jnsgd1na2vs0mg"},{"bike_id":"2bb4d3df-ce00-4b9f-88b5-817fd0bd8861","system_id":"levelo_inurba_marseille","lat":43.30144,"lon":5.37416,"is_reserved":false,"is_disabled":false,"rental_uris":{"android":"levelo://app?vid=2bb4d3df-ce00-4b9f-88b5-817fd0bd8861","ios":"levelo://app?vid=2bb4d3df-ce00-4b9f-88b5-817fd0bd8861"},"vehicle_type_id":"4","last_reported":1732100908,"current_range_meters":29600,"station_id":"ce4bgs92rcd13ifvqcc0","pricing_plan_id":"cebpf4jnsgd1na2vs0mg"},{"bike_id":"4588fbc9-1a37-47f1-b887-390230da00b4","system_id":"levelo_inurba_marseille","lat":43.29566,"lon":5.3752,"is_reserved":false,"is_disabled":false,"rental_uris":{"android":"levelo://app?vid=4588fbc9-1a37-47f1-b887-390230da00b4","ios":"levelo://app?vid=4588fbc9-1a37-47f1-b887-390230da00b4"},"vehicle_type_id":"4","last_reported":1732100908,"current_range_meters":32800,"station_id":"ce4bgh92rcd13ifvqb50","pricing_plan_id":"cebpf4jnsgd1na2vs0mg"},{"bike_id":"3a4fa403-18c4-4c28-bf14-b7b166e74ddb","system_id":"levelo_inurba_marseille","lat":43.32106,"lon":5.36788,"is_reserved":false,"is_disabled":false,"rental_uris":{"android":"levelo://app?vid=3a4fa403-18c4-4c28-bf14-b7b166e74ddb","ios":"levelo://app?vid=3a4fa403-18c4-4c28-bf14-b7b166e74ddb"},"vehicle_type_id":"4","last_reported":1732100908,"current_range_meters":27600,"station_id":"ce4bhrh2rcd13ifvqhug","pricing_plan_id":"cebpf4jnsgd1na2vs0mg"},{"bike_id":"1eff5ce5-2d56-4465-a12c-60db9ec2175a","system_id":"levelo_inurba_marseille","lat":43.22928,"lon":5.35375,"is_reserved":false,"is_disabled":false,"rental_uris":{"android":"levelo://app?vid=1eff5ce5-2d56-4465-a12c-60db9ec2175a","ios":"levelo://app?vid=1eff5ce5-2d56-4465-a12c-60db9ec2175a"},"vehicle_type_id":"4","last_reported":1732100908,"current_range_meters":16800,"station_id":"cpo3532slgdg3j2ikp40","pricing_plan_id":"cebpf4jnsgd1na2vs0mg"},{"bike_id":"6ac38c08-263b-4dbc-9230-678d7993bb91","system_id":"levelo_inurba_marseille","lat":43.29296,"lon":5.37174,"is_reserved":false,"is_disabled":false,"rental_uris":{"android":"levelo://app?vid=6ac38c08-263b-4dbc-9230-678d7993bb91","ios":"levelo://app?vid=6ac38c08-263b-4dbc-9230-678d7993bb91"},"vehicle_type_id":"4","last_reported":1732100908,"current_range_meters":24400,"station_id":"ce4bgh92rcd13ifvqb40","pricing_plan_id":"cebpf4jnsgd1na2vs0mg"},{"bike_id":"c3c2d32f-751e-4619-947c-1795c4766032","system_id":"levelo_inurba_marseille","lat":43.2997,"lon":5.38476,"is_reserved":false,"is_disabled":false,"rental_uris":{"android":"levelo://app?vid=c3c2d32f-751e-4619-947c-1795c4766032","ios":"levelo://app?vid=c3c2d32f-751e-4619-947c-1795c4766032"},"vehicle_type_id":"4","last_reported":1732100908,"current_range_meters":20800,"station_id":"ce4bgj92rcd13ifvqbd0","pricing_plan_id":"cebpf4jnsgd1na2vs0mg"},{"bike_id":"f1126846-151c-41db-a723-1b5f4b356b87","system_id":"levelo_inurba_marseille","lat":43.32363,"lon":5.38884,"is_reserved":false,"is_disabled":false,"rental_uris":{"android":"levelo://app?vid=f1126846-151c-41db-a723-1b5f4b356b87","ios":"levelo://app?vid=f1126846-151c-41db-a723-1b5f4b356b87"},"vehicle_type_id":"4","last_reported":1732100908,"current_range_meters":14800,"station_id":"ce4bhqp2rcd13ifvqhog","pricing_plan_id":"cebpf4jnsgd1na2vs0mg"},{"bike_id":"edd8393d-f730-4c0a-8833-206512122d9a","system_id":"levelo_inurba_marseille","lat":43.337444,"lon":5.374475,"is_reserved":false,"is_disabled":false,"rental_uris":{"android":"levelo://app?vid=edd8393d-f730-4c0a-8833-206512122d9a","ios":"levelo://app?vid=edd8393d-f730-4c0a-8833-206512122d9a"},"vehicle_type_id":"4","last_reported":1732100908,"current_range_meters":36400,"station_id":"ce4bh0h2rcd13ifvqd50","pricing_plan_id":"cebpf4jnsgd1na2vs0mg"},{"bike_id":"9f3572b0-c0a7-43aa-8c1e-c100148af63b","system_id":"levelo_inurba_marseille","lat":43.29187,"lon":5.35792,"is_reserved":false,"is_disabled":true,"rental_uris":{"android":"levelo://app?vid=9f3572b0-c0a7-43aa-8c1e-c100148af63b","ios":"levelo://app?vid=9f3572b0-c0a7-43aa-8c1e-c100148af63b"},"vehicle_type_id":"4","last_reported":1732100908,"current_range_meters":38000,"station_id":"ce4bhb12rcd13ifvqel0","pricing_plan_id":"cebpf4jnsgd1na2vs0mg"},{"bike_id":"954054ad-77ac-46c3-a1b5-c8fc266a522b","system_id":"levelo_inurba_marseille","lat":43.31719,"lon":5.42418,"is_reserved":false,"is_disabled":false,"rental_uris":{"android":"levelo://app?vid=954054ad-77ac-46c3-a1b5-c8fc266a522b","ios":"levelo://app?vid=954054ad-77ac-46c3-a1b5-c8fc266a522b"},"vehicle_type_id":"4","last_reported":1732100908,"current_range_meters":38800,"station_id":"ce4bhp92rcd13ifvqhbg","pricing_plan_id":"cebpf4jnsgd1na2vs0mg"},{"bike_id":"9c4a655e-2680-4a60-a844-6a2ea62fb4b1","system_id":"levelo_inurba_marseille","lat":43.26063,"lon":5.39395,"is_reserved":false,"is_disabled":false,"rental_uris":{"android":"levelo://app?vid=9c4a655e-2680-4a60-a844-6a2ea62fb4b1","ios":"levelo://app?vid=9c4a655e-2680-4a60-a844-6a2ea62fb4b1"},"vehicle_type_id":"4","last_reported":1732100908,"current_range_meters":24800,"station_id":"ce4bhh92rcd13ifvqfj0","pricing_plan_id":"cebpf4jnsgd1na2vs0mg"},{"bike_id":"2d983866-913c-4390-ae48-1873d10c9730","system_id":"levelo_inurba_marseille","lat":43.2481,"lon":5.37453,"is_reserved":false,"is_disabled":false,"rental_uris":{"android":"levelo://app?vid=2d983866-913c-4390-ae48-1873d10c9730","ios":"levelo://app?vid=2d983866-913c-4390-ae48-1873d10c9730"},"vehicle_type_id":"4","last_reported":1732100908,"current_range_meters":22800,"station_id":"ce4bhgh2rcd13ifvqfb0","pricing_plan_id":"cebpf4jnsgd1na2vs0mg"},{"bike_id":"f4314a8a-82cc-4e28-9519-7b232ac298b7","system_id":"levelo_inurba_marseille","lat":43.29902,"lon":5.37478,"is_reserved":false,"is_disabled":false,"rental_uris":{"android":"levelo://app?vid=f4314a8a-82cc-4e28-9519-7b232ac298b7","ios":"levelo://app?vid=f4314a8a-82cc-4e28-9519-7b232ac298b7"},"vehicle_type_id":"4","last_reported":1732100908,"current_range_meters":38800,"station_id":"ce4bgjh2rcd13ifvqbg0","pricing_plan_id":"cebpf4jnsgd1na2vs0mg"},{"bike_id":"ab4e4513-a5ae-44ef-974c-6eba881d20c5","system_id":"levelo_inurba_marseille","lat":43.30268,"lon":5.37715,"is_reserved":false,"is_disabled":false,"rental_uris":{"android":"levelo://app?vid=ab4e4513-a5ae-44ef-974c-6eba881d20c5","ios":"levelo://app?vid=ab4e4513-a5ae-44ef-974c-6eba881d20c5"},"vehicle_type_id":"4","last_reported":1732100908,"current_range_meters":24400,"station_id":"ce4bguh2rcd13ifvqcj0","pricing_plan_id":"cebpf4jnsgd1na2vs0mg"},{"bike_id":"e840fe4f-47a0-4d31-8133-7c332a3d517a","system_id":"levelo_inurba_marseille","lat":43.31078,"lon":5.42432,"is_reserved":false,"is_disabled":true,"rental_uris":{"android":"levelo://app?vid=e840fe4f-47a0-4d31-8133-7c332a3d517a","ios":"levelo://app?vid=e840fe4f-47a0-4d31-8133-7c332a3d517a"},"vehicle_type_id":"4","last_reported":1732100908,"current_range_meters":11600,"station_id":"ce4bhp92rcd13ifvqhag","pricing_plan_id":"cebpf4jnsgd1na2vs0mg"},{"bike_id":"c22dd1f9-7b3b-464c-9af2-5aa098cee4ad","system_id":"levelo_inurba_marseille","lat":43.30882,"lon":5.37188,"is_reserved":false,"is_disabled":false,"rental_uris":{"android":"levelo://app?vid=c22dd1f9-7b3b-464c-9af2-5aa098cee4ad","ios":"levelo://app?vid=c22dd1f9-7b3b-464c-9af2-5aa098cee4ad"},"vehicle_type_id":"4","last_reported":1732100908,"current_range_meters":38800,"station_id":"ce4bguh2rcd13ifvqckg","pricing_plan_id":"cebpf4jnsgd1na2vs0mg"},{"bike_id":"2f3af32e-225c-483d-90fe-fd999b9cdd7b","system_id":"levelo_inurba_marseille","lat":43.27069,"lon":5.42278,"is_reserved":false,"is_disabled":false,"rental_uris":{"android":"levelo://app?vid=2f3af32e-225c-483d-90fe-fd999b9cdd7b","ios":"levelo://app?vid=2f3af32e-225c-483d-90fe-fd999b9cdd7b"},"vehicle_type_id":"4","last_reported":1732100908,"current_range_meters":33200,"station_id":"ce4bhk92rcd13ifvqgb0","pricing_plan_id":"cebpf4jnsgd1na2vs0mg"},{"bike_id":"a1cf6f06-44aa-4bc8-9eb2-8055a5e207a9","system_id":"levelo_inurba_marseille","lat":43.32479,"lon":5.36575,"is_reserved":false,"is_disabled":false,"rental_uris":{"android":"levelo://app?vid=a1cf6f06-44aa-4bc8-9eb2-8055a5e207a9","ios":"levelo://app?vid=a1cf6f06-44aa-4bc8-9eb2-8055a5e207a9"},"vehicle_type_id":"4","last_reported":1732100908,"current_range_meters":39200,"station_id":"ce4bhs12rcd13ifvqhvg","pricing_plan_id":"cebpf4jnsgd1na2vs0mg"},{"bike_id":"98b32e58-9186-4741-afff-13e77a09e04c","system_id":"levelo_inurba_marseille","lat":43.337444,"lon":5.374475,"is_reserved":false,"is_disabled":false,"rental_uris":{"android":"levelo://app?vid=98b32e58-9186-4741-afff-13e77a09e04c","ios":"levelo://app?vid=98b32e58-9186-4741-afff-13e77a09e04c"},"vehicle_type_id":"4","last_reported":1732100908,"current_range_meters":27200,"station_id":"ce4bhm12rcd13ifvqgkg","pricing_plan_id":"cebpf4jnsgd1na2vs0mg"},{"bike_id":"0f3dd770-bf12-4007-b453-9c5e0b444e28","system_id":"levelo_inurba_marseille","lat":43.27915,"lon":5.39577,"is_reserved":false,"is_disabled":false,"rental_uris":{"android":"levelo://app?vid=0f3dd770-bf12-4007-b453-9c5e0b444e28","ios":"levelo://app?vid=0f3dd770-bf12-4007-b453-9c5e0b444e28"},"vehicle_type_id":"4","last_reported":1732100908,"current_range_meters":34800,"station_id":"ce4bhf92rcd13ifvqf40","pricing_plan_id":"cebpf4jnsgd1na2vs0mg"},{"bike_id":"7bec47bd-edd4-4415-924c-dbdf57e3d376","system_id":"levelo_inurba_marseille","lat":43.3135,"lon":5.36711,"is_reserved":false,"is_disabled":false,"rental_uris":{"android":"levelo://app?vid=7bec47bd-edd4-4415-924c-dbdf57e3d376","ios":"levelo://app?vid=7bec47bd-edd4-4415-924c-dbdf57e3d376"},"vehicle_type_id":"4","last_reported":1732100908,"current_range_meters":38800,"station_id":"ce4bgr92rcd13ifvqc6g","pricing_plan_id":"cebpf4jnsgd1na2vs0mg"},{"bike_id":"bd3d0ea8-7d56-4858-8e5d-b32a9764d3b4","system_id":"levelo_inurba_marseille","lat":43.30148,"lon":5.38077,"is_reserved":false,"is_disabled":true,"rental_uris":{"android":"levelo://app?vid=bd3d0ea8-7d56-4858-8e5d-b32a9764d3b4","ios":"levelo://app?vid=bd3d0ea8-7d56-4858-8e5d-b32a9764d3b4"},"vehicle_type_id":"4","last_reported":1732100908,"current_range_meters":24000,"station_id":"ce4bgjp2rcd13ifvqbh0","pricing_plan_id":"cebpf4jnsgd1na2vs0mg"},{"bike_id":"2a527e39-3526-4d79-adec-fe1e770d1765","system_id":"levelo_inurba_marseille","lat":43.2603,"lon":5.37545,"is_reserved":false,"is_disabled":false,"rental_uris":{"android":"levelo://app?vid=2a527e39-3526-4d79-adec-fe1e770d1765","ios":"levelo://app?vid=2a527e39-3526-4d79-adec-fe1e770d1765"},"vehicle_type_id":"4","last_reported":1732100908,"current_range_meters":38800,"station_id":"ce4bhgh2rcd13ifvqfa0","pricing_plan_id":"cebpf4jnsgd1na2vs0mg"},{"bike_id":"9275ecce-bb8b-4ee9-b129-0d51bdd59369","system_id":"levelo_inurba_marseille","lat":43.28,"lon":5.40015,"is_reserved":false,"is_disabled":false,"rental_uris":{"android":"levelo://app?vid=9275ecce-bb8b-4ee9-b129-0d51bdd59369","ios":"levelo://app?vid=9275ecce-bb8b-4ee9-b129-0d51bdd59369"},"vehicle_type_id":"4","last_reported":1732100908,"current_range_meters":38000,"station_id":"ce4bho92rcd13ifvqh4g","pricing_plan_id":"cebpf4jnsgd1na2vs0mg"},{"bike_id":"05725ad4-e1a4-4023-9f02-37bc3fcd6926","system_id":"levelo_inurba_marseille","lat":43.2315,"lon":5.43703,"is_reserved":false,"is_disabled":false,"rental_uris":{"android":"levelo://app?vid=05725ad4-e1a4-4023-9f02-37bc3fcd6926","ios":"levelo://app?vid=05725ad4-e1a4-4023-9f02-37bc3fcd6926"},"vehicle_type_id":"4","last_reported":1732100908,"current_range_meters":38800,"station_id":"ce4bhmp2rcd13ifvqgog","pricing_plan_id":"cebpf4jnsgd1na2vs0mg"},{"bike_id":"07aefd15-a845-40e1-b682-f0d6059f2cb6","system_id":"levelo_inurba_marseille","lat":43.31998,"lon":5.38156,"is_reserved":false,"is_disabled":false,"rental_uris":{"android":"levelo://app?vid=07aefd15-a845-40e1-b682-f0d6059f2cb6","ios":"levelo://app?vid=07aefd15-a845-40e1-b682-f0d6059f2cb6"},"vehicle_type_id":"4","last_reported":1732100908,"current_range_meters":39200,"station_id":"ce4bhr12rcd13ifvqhpg","pricing_plan_id":"cebpf4jnsgd1na2vs0mg"},{"bike_id":"f37974f3-d73d-4fbf-9d7f-6ab29c4abc3c","system_id":"levelo_inurba_marseille","lat":43.29709,"lon":5.36601,"is_reserved":false,"is_disabled":false,"rental_uris":{"android":"levelo://app?vid=f37974f3-d73d-4fbf-9d7f-6ab29c4abc3c","ios":"levelo://app?vid=f37974f3-d73d-4fbf-9d7f-6ab29c4abc3c"},"vehicle_type_id":"4","last_reported":1732100908,"current_range_meters":16000,"station_id":"ce4bgn12rcd13ifvqbt0","pricing_plan_id":"cebpf4jnsgd1na2vs0mg"},{"bike_id":"5b5f4604-3a82-4584-a08b-4bc79bf3d12b","system_id":"levelo_inurba_marseille","lat":43.30885,"lon":5.36854,"is_reserved":false,"is_disabled":false,"rental_uris":{"android":"levelo://app?vid=5b5f4604-3a82-4584-a08b-4bc79bf3d12b","ios":"levelo://app?vid=5b5f4604-3a82-4584-a08b-4bc79bf3d12b"},"vehicle_type_id":"4","last_reported":1732100908,"current_range_meters":19600,"station_id":"","pricing_plan_id":"cebpf4jnsgd1na2vs0mg"},{"bike_id":"4be42907-a17d-4528-aadb-4ee1624a0554","system_id":"levelo_inurba_marseille","lat":43.28031,"lon":5.36938,"is_reserved":false,"is_disabled":false,"rental_uris":{"android":"levelo://app?vid=4be42907-a17d-4528-aadb-4ee1624a0554","ios":"levelo://app?vid=4be42907-a17d-4528-aadb-4ee1624a0554"},"vehicle_type_id":"4","last_reported":1732100908,"current_range_meters":38000,"station_id":"ce4bha12rcd13ifvqef0","pricing_plan_id":"cebpf4jnsgd1na2vs0mg"},{"bike_id":"14dc42b1-dea4-4592-b266-4ff0b37bebb2","system_id":"levelo_inurba_marseille","lat":43.31685,"lon":5.40479,"is_reserved":false,"is_disabled":false,"rental_uris":{"android":"levelo://app?vid=14dc42b1-dea4-4592-b266-4ff0b37bebb2","ios":"levelo://app?vid=14dc42b1-dea4-4592-b266-4ff0b37bebb2"},"vehicle_type_id":"4","last_reported":1732100908,"current_range_meters":16400,"station_id":"ce4bh012rcd13ifvqd00","pricing_plan_id":"cebpf4jnsgd1na2vs0mg"},{"bike_id":"392cf7cd-9024-40f6-b624-36b5ec0412f9","system_id":"levelo_inurba_marseille","lat":43.31343,"lon":5.36728,"is_reserved":false,"is_disabled":false,"rental_uris":{"android":"levelo://app?vid=392cf7cd-9024-40f6-b624-36b5ec0412f9","ios":"levelo://app?vid=392cf7cd-9024-40f6-b624-36b5ec0412f9"},"vehicle_type_id":"4","last_reported":1732100908,"current_range_meters":13600,"station_id":"ce4bgr92rcd13ifvqc6g","pricing_plan_id":"cebpf4jnsgd1na2vs0mg"},{"bike_id":"efaa20f7-d2fb-4778-9ca3-b17e9193d440","system_id":"levelo_inurba_marseille","lat":43.337143,"lon":5.391699,"is_reserved":false,"is_disabled":false,"rental_uris":{"android":"levelo://app?vid=efaa20f7-d2fb-4778-9ca3-b17e9193d440","ios":"levelo://app?vid=efaa20f7-d2fb-4778-9ca3-b17e9193d440"},"vehicle_type_id":"4","last_reported":1732100908,"current_range_meters":35200,"station_id":"ce4bhr92rcd13ifvqhsg","pricing_plan_id":"cebpf4jnsgd1na2vs0mg"},{"bike_id":"cbb19e09-aa20-4763-8e71-dc123172ec07","system_id":"levelo_inurba_marseille","lat":43.23152,"lon":5.4371,"is_reserved":false,"is_disabled":true,"rental_uris":{"android":"levelo://app?vid=cbb19e09-aa20-4763-8e71-dc123172ec07","ios":"levelo://app?vid=cbb19e09-aa20-4763-8e71-dc123172ec07"},"vehicle_type_id":"4","last_reported":1732100908,"current_range_meters":38800,"station_id":"ce4bhmp2rcd13ifvqgog","pricing_plan_id":"cebpf4jnsgd1na2vs0mg"},{"bike_id":"e618b7f4-2eec-46c3-bf6f-e2c2df521150","system_id":"levelo_inurba_marseille","lat":43.33608,"lon":5.41019,"is_reserved":false,"is_disabled":false,"rental_uris":{"android":"levelo://app?vid=e618b7f4-2eec-46c3-bf6f-e2c2df521150","ios":"levelo://app?vid=e618b7f4-2eec-46c3-bf6f-e2c2df521150"},"vehicle_type_id":"4","last_reported":1732100908,"current_range_meters":38800,"station_id":"ce4bhqh2rcd13ifvqhmg","pricing_plan_id":"cebpf4jnsgd1na2vs0mg"},{"bike_id":"028e5427-36e2-49e1-b3db-260058fffb58","system_id":"levelo_inurba_marseille","lat":43.25574,"lon":5.38238,"is_reserved":false,"is_disabled":false,"rental_uris":{"android":"levelo://app?vid=028e5427-36e2-49e1-b3db-260058fffb58","ios":"levelo://app?vid=028e5427-36e2-49e1-b3db-260058fffb58"},"vehicle_type_id":"4","last_reported":1732100908,"current_range_meters":28400,"station_id":"ce4bhih2rcd13ifvqfs0","pricing_plan_id":"cebpf4jnsgd1na2vs0mg"},{"bike_id":"87ab87c3-b0c0-433f-bc72-370f3dff3d3b","system_id":"levelo_inurba_marseille","lat":43.29734,"lon":5.37692,"is_reserved":false,"is_disabled":false,"rental_uris":{"android":"levelo://app?vid=87ab87c3-b0c0-433f-bc72-370f3dff3d3b","ios":"levelo://app?vid=87ab87c3-b0c0-433f-bc72-370f3dff3d3b"},"vehicle_type_id":"4","last_reported":1732100908,"current_range_meters":33200,"station_id":"ce4bgkh2rcd13ifvqbl0","pricing_plan_id":"cebpf4jnsgd1na2vs0mg"},{"bike_id":"9f50f02e-0ebb-4b3e-923a-11e699523a69","system_id":"levelo_inurba_marseille","lat":43.29713,"lon":5.36613,"is_reserved":false,"is_disabled":false,"rental_uris":{"android":"levelo://app?vid=9f50f02e-0ebb-4b3e-923a-11e699523a69","ios":"levelo://app?vid=9f50f02e-0ebb-4b3e-923a-11e699523a69"},"vehicle_type_id":"4","last_reported":1732100908,"current_range_meters":9600,"station_id":"ce4bgn12rcd13ifvqbt0","pricing_plan_id":"cebpf4jnsgd1na2vs0mg"},{"bike_id":"9e5155cc-9158-47b5-bb3f-3254ca5454c2","system_id":"levelo_inurba_marseille","lat":43.31321,"lon":5.36748,"is_reserved":false,"is_disabled":false,"rental_uris":{"android":"levelo://app?vid=9e5155cc-9158-47b5-bb3f-3254ca5454c2","ios":"levelo://app?vid=9e5155cc-9158-47b5-bb3f-3254ca5454c2"},"vehicle_type_id":"4","last_reported":1732100908,"current_range_meters":38800,"station_id":"ce4bgr92rcd13ifvqc6g","pricing_plan_id":"cebpf4jnsgd1na2vs0mg"},{"bike_id":"401c2a19-8b43-4a12-92ed-f8e71f230e4b","system_id":"levelo_inurba_marseille","lat":43.30149,"lon":5.38086,"is_reserved":false,"is_disabled":false,"rental_uris":{"android":"levelo://app?vid=401c2a19-8b43-4a12-92ed-f8e71f230e4b","ios":"levelo://app?vid=401c2a19-8b43-4a12-92ed-f8e71f230e4b"},"vehicle_type_id":"4","last_reported":1732100908,"current_range_meters":30800,"station_id":"ce4bgjp2rcd13ifvqbh0","pricing_plan_id":"cebpf4jnsgd1na2vs0mg"},{"bike_id":"d844fd78-dab2-432a-a1c7-259ceea58301","system_id":"levelo_inurba_marseille","lat":43.29187,"lon":5.35799,"is_reserved":false,"is_disabled":true,"rental_uris":{"android":"levelo://app?vid=d844fd78-dab2-432a-a1c7-259ceea58301","ios":"levelo://app?vid=d844fd78-dab2-432a-a1c7-259ceea58301"},"vehicle_type_id":"4","last_reported":1732100908,"current_range_meters":38800,"station_id":"ce4bhb12rcd13ifvqel0","pricing_plan_id":"cebpf4jnsgd1na2vs0mg"},{"bike_id":"ae28f309-442b-481a-b36d-497f21a8e6e0","system_id":"levelo_inurba_marseille","lat":43.31759,"lon":5.39017,"is_reserved":false,"is_disabled":false,"rental_uris":{"android":"levelo://app?vid=ae28f309-442b-481a-b36d-497f21a8e6e0","ios":"levelo://app?vid=ae28f309-442b-481a-b36d-497f21a8e6e0"},"vehicle_type_id":"4","last_reported":1732100908,"current_range_meters":38800,"station_id":"ce4bhqp2rcd13ifvqhng","pricing_plan_id":"cebpf4jnsgd1na2vs0mg"},{"bike_id":"b2462233-9b75-4705-9ce2-c8ccbc6aef31","system_id":"levelo_inurba_marseille","lat":43.2794,"lon":5.41037,"is_reserved":false,"is_disabled":false,"rental_uris":{"android":"levelo://app?vid=b2462233-9b75-4705-9ce2-c8ccbc6aef31","ios":"levelo://app?vid=b2462233-9b75-4705-9ce2-c8ccbc6aef31"},"vehicle_type_id":"4","last_reported":1732100908,"current_range_meters":14400,"station_id":"ce4bhnp2rcd13ifvqh0g","pricing_plan_id":"cebpf4jnsgd1na2vs0mg"},{"bike_id":"eb31963b-4b61-411c-a88a-07e8f7439c2a","system_id":"levelo_inurba_marseille","lat":43.3361,"lon":5.4103,"is_reserved":false,"is_disabled":false,"rental_uris":{"android":"levelo://app?vid=eb31963b-4b61-411c-a88a-07e8f7439c2a","ios":"levelo://app?vid=eb31963b-4b61-411c-a88a-07e8f7439c2a"},"vehicle_type_id":"4","last_reported":1732100908,"current_range_meters":12400,"station_id":"ce4bhqh2rcd13ifvqhmg","pricing_plan_id":"cebpf4jnsgd1na2vs0mg"},{"bike_id":"b6a5dd45-3299-4794-bb3d-6c5c2b5a78a1","system_id":"levelo_inurba_marseille","lat":43.33023,"lon":5.39041,"is_reserved":false,"is_disabled":false,"rental_uris":{"android":"levelo://app?vid=b6a5dd45-3299-4794-bb3d-6c5c2b5a78a1","ios":"levelo://app?vid=b6a5dd45-3299-4794-bb3d-6c5c2b5a78a1"},"vehicle_type_id":"4","last_reported":1732100908,"current_range_meters":38400,"station_id":"ce4bhr92rcd13ifvqhrg","pricing_plan_id":"cebpf4jnsgd1na2vs0mg"},{"bike_id":"ea3698ba-4aa8-4712-b521-18ff56838777","system_id":"levelo_inurba_marseille","lat":43.25492,"lon":5.37644,"is_reserved":false,"is_disabled":false,"rental_uris":{"android":"levelo://app?vid=ea3698ba-4aa8-4712-b521-18ff56838777","ios":"levelo://app?vid=ea3698ba-4aa8-4712-b521-18ff56838777"},"vehicle_type_id":"4","last_reported":1732100908,"current_range_meters":37600,"station_id":"ce4bhh12rcd13ifvqff0","pricing_plan_id":"cebpf4jnsgd1na2vs0mg"},{"bike_id":"422724e5-20b6-4c82-99a6-14994c43927d","system_id":"levelo_inurba_marseille","lat":43.29003,"lon":5.35608,"is_reserved":false,"is_disabled":false,"rental_uris":{"android":"levelo://app?vid=422724e5-20b6-4c82-99a6-14994c43927d","ios":"levelo://app?vid=422724e5-20b6-4c82-99a6-14994c43927d"},"vehicle_type_id":"4","last_reported":1732100908,"current_range_meters":37600,"station_id":"ce4bhb92rcd13ifvqen0","pricing_plan_id":"cebpf4jnsgd1na2vs0mg"},{"bike_id":"04cb8d4e-f12b-468c-bbe8-d94ff6beef73","system_id":"levelo_inurba_marseille","lat":43.28403,"lon":5.37523,"is_reserved":false,"is_disabled":false,"rental_uris":{"android":"levelo://app?vid=04cb8d4e-f12b-468c-bbe8-d94ff6beef73","ios":"levelo://app?vid=04cb8d4e-f12b-468c-bbe8-d94ff6beef73"},"vehicle_type_id":"4","last_reported":1732100908,"current_range_meters":26000,"station_id":"ce4bh412rcd13ifvqds0","pricing_plan_id":"cebpf4jnsgd1na2vs0mg"},{"bike_id":"97a35da9-3917-40ad-b9e7-9f7cbd6aff5c","system_id":"levelo_inurba_marseille","lat":43.30134,"lon":5.39875,"is_reserved":false,"is_disabled":true,"rental_uris":{"android":"levelo://app?vid=97a35da9-3917-40ad-b9e7-9f7cbd6aff5c","ios":"levelo://app?vid=97a35da9-3917-40ad-b9e7-9f7cbd6aff5c"},"vehicle_type_id":"4","last_reported":1732100908,"current_range_meters":28400,"station_id":"ce4bh0h2rcd13ifvqd40","pricing_plan_id":"cebpf4jnsgd1na2vs0mg"},{"bike_id":"0227366f-4b96-4ec6-b83a-f587254b2af6","system_id":"levelo_inurba_marseille","lat":43.31755,"lon":5.39018,"is_reserved":false,"is_disabled":false,"rental_uris":{"android":"levelo://app?vid=0227366f-4b96-4ec6-b83a-f587254b2af6","ios":"levelo://app?vid=0227366f-4b96-4ec6-b83a-f587254b2af6"},"vehicle_type_id":"4","last_reported":1732100908,"current_range_meters":25600,"station_id":"ce4bhqp2rcd13ifvqhng","pricing_plan_id":"cebpf4jnsgd1na2vs0mg"},{"bike_id":"44f1c56e-9ee5-48c3-9f67-5ed57fbc1b5d","system_id":"levelo_inurba_marseille","lat":43.258246,"lon":5.394401,"is_reserved":false,"is_disabled":false,"rental_uris":{"android":"levelo://app?vid=44f1c56e-9ee5-48c3-9f67-5ed57fbc1b5d","ios":"levelo://app?vid=44f1c56e-9ee5-48c3-9f67-5ed57fbc1b5d"},"vehicle_type_id":"4","last_reported":1732100908,"current_range_meters":32000,"station_id":"ce4bhip2rcd13ifvqft0","pricing_plan_id":"cebpf4jnsgd1na2vs0mg"},{"bike_id":"e5951ee3-4a5a-4ebb-b469-096c5188dfa3","system_id":"levelo_inurba_marseille","lat":43.23191,"lon":5.35561,"is_reserved":false,"is_disabled":true,"rental_uris":{"android":"levelo://app?vid=e5951ee3-4a5a-4ebb-b469-096c5188dfa3","ios":"levelo://app?vid=e5951ee3-4a5a-4ebb-b469-096c5188dfa3"},"vehicle_type_id":"4","last_reported":1732100908,"current_range_meters":0,"station_id":"ce4bhu92rcd13ifvqi70","pricing_plan_id":"cebpf4jnsgd1na2vs0mg"},{"bike_id":"b2f6b9cf-69db-40ab-8230-689c41a2c16c","system_id":"levelo_inurba_marseille","lat":43.24161,"lon":5.36403,"is_reserved":false,"is_disabled":false,"rental_uris":{"android":"levelo://app?vid=b2f6b9cf-69db-40ab-8230-689c41a2c16c","ios":"levelo://app?vid=b2f6b9cf-69db-40ab-8230-689c41a2c16c"},"vehicle_type_id":"4","last_reported":1732100908,"current_range_meters":38000,"station_id":"cpo36qri1sfpv3e86is0","pricing_plan_id":"cebpf4jnsgd1na2vs0mg"},{"bike_id":"b8ccf5c1-5ac6-47e7-b7ff-56c39cc2dd57","system_id":"levelo_inurba_marseille","lat":43.33601,"lon":5.41018,"is_reserved":false,"is_disabled":false,"rental_uris":{"android":"levelo://app?vid=b8ccf5c1-5ac6-47e7-b7ff-56c39cc2dd57","ios":"levelo://app?vid=b8ccf5c1-5ac6-47e7-b7ff-56c39cc2dd57"},"vehicle_type_id":"4","last_reported":1732100908,"current_range_meters":13600,"station_id":"ce4bhqh2rcd13ifvqhmg","pricing_plan_id":"cebpf4jnsgd1na2vs0mg"},{"bike_id":"2910f69a-6dac-4d69-a60d-e4f1b8cce200","system_id":"levelo_inurba_marseille","lat":43.27811,"lon":5.4072,"is_reserved":false,"is_disabled":true,"rental_uris":{"android":"levelo://app?vid=2910f69a-6dac-4d69-a60d-e4f1b8cce200","ios":"levelo://app?vid=2910f69a-6dac-4d69-a60d-e4f1b8cce200"},"vehicle_type_id":"4","last_reported":1732100908,"current_range_meters":14000,"station_id":"ce4bhnh2rcd13ifvqgtg","pricing_plan_id":"cebpf4jnsgd1na2vs0mg"},{"bike_id":"91c17263-4df2-4352-9b3b-823b9898abbd","system_id":"levelo_inurba_marseille","lat":43.30524,"lon":5.36713,"is_reserved":false,"is_disabled":false,"rental_uris":{"android":"levelo://app?vid=91c17263-4df2-4352-9b3b-823b9898abbd","ios":"levelo://app?vid=91c17263-4df2-4352-9b3b-823b9898abbd"},"vehicle_type_id":"4","last_reported":1732100908,"current_range_meters":37600,"station_id":"ce4bgrp2rcd13ifvqc9g","pricing_plan_id":"cebpf4jnsgd1na2vs0mg"},{"bike_id":"da118503-6ab7-4c94-98bc-2b63accd50d2","system_id":"levelo_inurba_marseille","lat":43.31083,"lon":5.42433,"is_reserved":false,"is_disabled":false,"rental_uris":{"android":"levelo://app?vid=da118503-6ab7-4c94-98bc-2b63accd50d2","ios":"levelo://app?vid=da118503-6ab7-4c94-98bc-2b63accd50d2"},"vehicle_type_id":"4","last_reported":1732100908,"current_range_meters":38800,"station_id":"ce4bhp92rcd13ifvqhag","pricing_plan_id":"cebpf4jnsgd1na2vs0mg"},{"bike_id":"f55181d4-2053-40e2-9cda-06227a4b9bdf","system_id":"levelo_inurba_marseille","lat":43.32478,"lon":5.36554,"is_reserved":false,"is_disabled":false,"rental_uris":{"android":"levelo://app?vid=f55181d4-2053-40e2-9cda-06227a4b9bdf","ios":"levelo://app?vid=f55181d4-2053-40e2-9cda-06227a4b9bdf"},"vehicle_type_id":"4","last_reported":1732100908,"current_range_meters":38400,"station_id":"ce4bhs12rcd13ifvqhvg","pricing_plan_id":"cebpf4jnsgd1na2vs0mg"},{"bike_id":"7ccf2f24-0143-407d-973b-322d37cb2794","system_id":"levelo_inurba_marseille","lat":43.32106,"lon":5.36771,"is_reserved":false,"is_disabled":false,"rental_uris":{"android":"levelo://app?vid=7ccf2f24-0143-407d-973b-322d37cb2794","ios":"levelo://app?vid=7ccf2f24-0143-407d-973b-322d37cb2794"},"vehicle_type_id":"4","last_reported":1732100908,"current_range_meters":26800,"station_id":"ce4bhrh2rcd13ifvqhug","pricing_plan_id":"cebpf4jnsgd1na2vs0mg"},{"bike_id":"1f58a098-e7ea-4ea8-8ed7-a4f95f7c3a27","system_id":"levelo_inurba_marseille","lat":43.27068,"lon":5.42275,"is_reserved":false,"is_disabled":false,"rental_uris":{"android":"levelo://app?vid=1f58a098-e7ea-4ea8-8ed7-a4f95f7c3a27","ios":"levelo://app?vid=1f58a098-e7ea-4ea8-8ed7-a4f95f7c3a27"},"vehicle_type_id":"4","last_reported":1732100908,"current_range_meters":4400,"station_id":"ce4bhk92rcd13ifvqgb0","pricing_plan_id":"cebpf4jnsgd1na2vs0mg"},{"bike_id":"72176621-6bc2-4d31-b4dd-fcc8d8c59bd8","system_id":"levelo_inurba_marseille","lat":43.26564,"lon":5.38997,"is_reserved":false,"is_disabled":false,"rental_uris":{"android":"levelo://app?vid=72176621-6bc2-4d31-b4dd-fcc8d8c59bd8","ios":"levelo://app?vid=72176621-6bc2-4d31-b4dd-fcc8d8c59bd8"},"vehicle_type_id":"4","last_reported":1732100908,"current_range_meters":8000,"station_id":"ce4bhe12rcd13ifvqf30","pricing_plan_id":"cebpf4jnsgd1na2vs0mg"},{"bike_id":"4c8ed69d-903a-47a6-a719-b8a1ba33ec6e","system_id":"levelo_inurba_marseille","lat":43.26025,"lon":5.37553,"is_reserved":false,"is_disabled":false,"rental_uris":{"android":"levelo://app?vid=4c8ed69d-903a-47a6-a719-b8a1ba33ec6e","ios":"levelo://app?vid=4c8ed69d-903a-47a6-a719-b8a1ba33ec6e"},"vehicle_type_id":"4","last_reported":1732100908,"current_range_meters":24000,"station_id":"ce4bhgh2rcd13ifvqfa0","pricing_plan_id":"cebpf4jnsgd1na2vs0mg"},{"bike_id":"18375270-5c96-4148-9480-b075066f6b66","system_id":"levelo_inurba_marseille","lat":43.30537,"lon":5.36525,"is_reserved":false,"is_disabled":true,"rental_uris":{"android":"levelo://app?vid=18375270-5c96-4148-9480-b075066f6b66","ios":"levelo://app?vid=18375270-5c96-4148-9480-b075066f6b66"},"vehicle_type_id":"4","last_reported":1732100908,"current_range_meters":25200,"station_id":"ce4bgs12rcd13ifvqcag","pricing_plan_id":"cebpf4jnsgd1na2vs0mg"},{"bike_id":"945080aa-4cee-4e24-b18d-3cb2d2f5680c","system_id":"levelo_inurba_marseille","lat":43.32538,"lon":5.41421,"is_reserved":false,"is_disabled":false,"rental_uris":{"android":"levelo://app?vid=945080aa-4cee-4e24-b18d-3cb2d2f5680c","ios":"levelo://app?vid=945080aa-4cee-4e24-b18d-3cb2d2f5680c"},"vehicle_type_id":"4","last_reported":1732100908,"current_range_meters":38800,"station_id":"ce4bhq12rcd13ifvqhhg","pricing_plan_id":"cebpf4jnsgd1na2vs0mg"},{"bike_id":"b84181a1-2802-4ec2-a40a-353da3be1193","system_id":"levelo_inurba_marseille","lat":43.22933,"lon":5.35377,"is_reserved":false,"is_disabled":false,"rental_uris":{"android":"levelo://app?vid=b84181a1-2802-4ec2-a40a-353da3be1193","ios":"levelo://app?vid=b84181a1-2802-4ec2-a40a-353da3be1193"},"vehicle_type_id":"4","last_reported":1732100908,"current_range_meters":36000,"station_id":"cpo3532slgdg3j2ikp40","pricing_plan_id":"cebpf4jnsgd1na2vs0mg"},{"bike_id":"cde5eb04-35f5-4971-aec4-8004f9b2dcd9","system_id":"levelo_inurba_marseille","lat":43.28271,"lon":5.35069,"is_reserved":false,"is_disabled":true,"rental_uris":{"android":"levelo://app?vid=cde5eb04-35f5-4971-aec4-8004f9b2dcd9","ios":"levelo://app?vid=cde5eb04-35f5-4971-aec4-8004f9b2dcd9"},"vehicle_type_id":"4","last_reported":1732100908,"current_range_meters":0,"station_id":"ce4bhbp2rcd13ifvqerg","pricing_plan_id":"cebpf4jnsgd1na2vs0mg"},{"bike_id":"daf04fcd-c935-4aac-a351-f6674c5ab957","system_id":"levelo_inurba_marseille","lat":43.2603,"lon":5.37546,"is_reserved":false,"is_disabled":false,"rental_uris":{"android":"levelo://app?vid=daf04fcd-c935-4aac-a351-f6674c5ab957","ios":"levelo://app?vid=daf04fcd-c935-4aac-a351-f6674c5ab957"},"vehicle_type_id":"4","last_reported":1732100908,"current_range_meters":25600,"station_id":"ce4bhgh2rcd13ifvqfa0","pricing_plan_id":"cebpf4jnsgd1na2vs0mg"},{"bike_id":"745c81c8-f72f-42a3-97c1-f5402c23afe2","system_id":"levelo_inurba_marseille","lat":43.27958,"lon":5.38724,"is_reserved":false,"is_disabled":true,"rental_uris":{"android":"levelo://app?vid=745c81c8-f72f-42a3-97c1-f5402c23afe2","ios":"levelo://app?vid=745c81c8-f72f-42a3-97c1-f5402c23afe2"},"vehicle_type_id":"4","last_reported":1732100908,"current_range_meters":800,"station_id":"ce4bhg12rcd13ifvqf80","pricing_plan_id":"cebpf4jnsgd1na2vs0mg"},{"bike_id":"1c9e9de5-2ff5-4add-89fe-1071060c7096","system_id":"levelo_inurba_marseille","lat":43.25085,"lon":5.39518,"is_reserved":false,"is_disabled":false,"rental_uris":{"android":"levelo://app?vid=1c9e9de5-2ff5-4add-89fe-1071060c7096","ios":"levelo://app?vid=1c9e9de5-2ff5-4add-89fe-1071060c7096"},"vehicle_type_id":"4","last_reported":1732100908,"current_range_meters":20000,"station_id":"ce4bhm12rcd13ifvqgkg","pricing_plan_id":"cebpf4jnsgd1na2vs0mg"},{"bike_id":"1e32d089-9836-4b1d-b09a-6f77cbbbcbf2","system_id":"levelo_inurba_marseille","lat":43.30901,"lon":5.36852,"is_reserved":false,"is_disabled":false,"rental_uris":{"android":"levelo://app?vid=1e32d089-9836-4b1d-b09a-6f77cbbbcbf2","ios":"levelo://app?vid=1e32d089-9836-4b1d-b09a-6f77cbbbcbf2"},"vehicle_type_id":"4","last_reported":1732100908,"current_range_meters":38800,"station_id":"ce4bgn92rcd13ifvqbvg","pricing_plan_id":"cebpf4jnsgd1na2vs0mg"},{"bike_id":"70a6da6f-de32-4f19-92c6-1d2942f844c0","system_id":"levelo_inurba_marseille","lat":43.33598,"lon":5.41023,"is_reserved":false,"is_disabled":false,"rental_uris":{"android":"levelo://app?vid=70a6da6f-de32-4f19-92c6-1d2942f844c0","ios":"levelo://app?vid=70a6da6f-de32-4f19-92c6-1d2942f844c0"},"vehicle_type_id":"4","last_reported":1732100908,"current_range_meters":26800,"station_id":"ce4bhqh2rcd13ifvqhmg","pricing_plan_id":"cebpf4jnsgd1na2vs0mg"},{"bike_id":"bd0f3ed6-4cba-4f56-9205-c76f2a9cc9c8","system_id":"levelo_inurba_marseille","lat":43.30179,"lon":5.36615,"is_reserved":false,"is_disabled":false,"rental_uris":{"android":"levelo://app?vid=bd0f3ed6-4cba-4f56-9205-c76f2a9cc9c8","ios":"levelo://app?vid=bd0f3ed6-4cba-4f56-9205-c76f2a9cc9c8"},"vehicle_type_id":"4","last_reported":1732100908,"current_range_meters":39200,"station_id":"ce4bgrh2rcd13ifvqc8g","pricing_plan_id":"cebpf4jnsgd1na2vs0mg"},{"bike_id":"cc45f913-e418-458e-bfc7-e7263140b856","system_id":"levelo_inurba_marseille","lat":43.279,"lon":5.38006,"is_reserved":false,"is_disabled":false,"rental_uris":{"android":"levelo://app?vid=cc45f913-e418-458e-bfc7-e7263140b856","ios":"levelo://app?vid=cc45f913-e418-458e-bfc7-e7263140b856"},"vehicle_type_id":"4","last_reported":1732100908,"current_range_meters":32800,"station_id":"ce4bhf92rcd13ifvqf50","pricing_plan_id":"cebpf4jnsgd1na2vs0mg"},{"bike_id":"c3bc0f64-f384-48a7-9517-04f95522a7e3","system_id":"levelo_inurba_marseille","lat":43.318242,"lon":5.37611,"is_reserved":false,"is_disabled":true,"rental_uris":{"android":"levelo://app?vid=c3bc0f64-f384-48a7-9517-04f95522a7e3","ios":"levelo://app?vid=c3bc0f64-f384-48a7-9517-04f95522a7e3"},"vehicle_type_id":"4","last_reported":1732100908,"current_range_meters":11200,"station_id":"","pricing_plan_id":"cebpf4jnsgd1na2vs0mg"},{"bike_id":"89429ed2-f839-4749-bcb9-3e5230fe3bfb","system_id":"levelo_inurba_marseille","lat":43.33711,"lon":5.39182,"is_reserved":false,"is_disabled":false,"rental_uris":{"android":"levelo://app?vid=89429ed2-f839-4749-bcb9-3e5230fe3bfb","ios":"levelo://app?vid=89429ed2-f839-4749-bcb9-3e5230fe3bfb"},"vehicle_type_id":"4","last_reported":1732100908,"current_range_meters":32400,"station_id":"ce4bhr92rcd13ifvqhsg","pricing_plan_id":"cebpf4jnsgd1na2vs0mg"},{"bike_id":"563fc93e-cf08-4502-93a3-b0870400f6e4","system_id":"levelo_inurba_marseille","lat":43.33608,"lon":5.4102,"is_reserved":false,"is_disabled":false,"rental_uris":{"android":"levelo://app?vid=563fc93e-cf08-4502-93a3-b0870400f6e4","ios":"levelo://app?vid=563fc93e-cf08-4502-93a3-b0870400f6e4"},"vehicle_type_id":"4","last_reported":1732100908,"current_range_meters":30800,"station_id":"ce4bhqh2rcd13ifvqhmg","pricing_plan_id":"cebpf4jnsgd1na2vs0mg"},{"bike_id":"bb8bc886-b16d-46c8-b54d-72fcf2a3b828","system_id":"levelo_inurba_marseille","lat":43.31335,"lon":5.36728,"is_reserved":false,"is_disabled":false,"rental_uris":{"android":"levelo://app?vid=bb8bc886-b16d-46c8-b54d-72fcf2a3b828","ios":"levelo://app?vid=bb8bc886-b16d-46c8-b54d-72fcf2a3b828"},"vehicle_type_id":"4","last_reported":1732100908,"current_range_meters":28800,"station_id":"ce4bgr92rcd13ifvqc6g","pricing_plan_id":"cebpf4jnsgd1na2vs0mg"},{"bike_id":"28a1bdc2-51eb-4a09-9ce0-3f693df9f09d","system_id":"levelo_inurba_marseille","lat":43.30148,"lon":5.38076,"is_reserved":false,"is_disabled":true,"rental_uris":{"android":"levelo://app?vid=28a1bdc2-51eb-4a09-9ce0-3f693df9f09d","ios":"levelo://app?vid=28a1bdc2-51eb-4a09-9ce0-3f693df9f09d"},"vehicle_type_id":"4","last_reported":1732100908,"current_range_meters":4400,"station_id":"ce4bgjp2rcd13ifvqbh0","pricing_plan_id":"cebpf4jnsgd1na2vs0mg"},{"bike_id":"16ff428c-a201-4a64-b99c-c0f7c0d8fe65","system_id":"levelo_inurba_marseille","lat":43.30906,"lon":5.36848,"is_reserved":false,"is_disabled":false,"rental_uris":{"android":"levelo://app?vid=16ff428c-a201-4a64-b99c-c0f7c0d8fe65","ios":"levelo://app?vid=16ff428c-a201-4a64-b99c-c0f7c0d8fe65"},"vehicle_type_id":"4","last_reported":1732100908,"current_range_meters":27600,"station_id":"ce4bgn92rcd13ifvqbvg","pricing_plan_id":"cebpf4jnsgd1na2vs0mg"},{"bike_id":"f2a17f14-1fa1-422a-bde2-ce7d9e7d2a68","system_id":"levelo_inurba_marseille","lat":43.29557,"lon":5.42283,"is_reserved":false,"is_disabled":false,"rental_uris":{"android":"levelo://app?vid=f2a17f14-1fa1-422a-bde2-ce7d9e7d2a68","ios":"levelo://app?vid=f2a17f14-1fa1-422a-bde2-ce7d9e7d2a68"},"vehicle_type_id":"4","last_reported":1732100908,"current_range_meters":9200,"station_id":"ce4bhph2rcd13ifvqhdg","pricing_plan_id":"cebpf4jnsgd1na2vs0mg"},{"bike_id":"a288582f-e609-4b1f-9e1f-4b407176785e","system_id":"levelo_inurba_marseille","lat":43.29914,"lon":5.37459,"is_reserved":false,"is_disabled":true,"rental_uris":{"android":"levelo://app?vid=a288582f-e609-4b1f-9e1f-4b407176785e","ios":"levelo://app?vid=a288582f-e609-4b1f-9e1f-4b407176785e"},"vehicle_type_id":"4","last_reported":1732100908,"current_range_meters":0,"station_id":"ce4bgjh2rcd13ifvqbg0","pricing_plan_id":"cebpf4jnsgd1na2vs0mg"},{"bike_id":"e4f77a96-f0ac-4062-8b43-1f0b690f48fa","system_id":"levelo_inurba_marseille","lat":43.28937,"lon":5.36405,"is_reserved":false,"is_disabled":false,"rental_uris":{"android":"levelo://app?vid=e4f77a96-f0ac-4062-8b43-1f0b690f48fa","ios":"levelo://app?vid=e4f77a96-f0ac-4062-8b43-1f0b690f48fa"},"vehicle_type_id":"4","last_reported":1732100908,"current_range_meters":30000,"station_id":"ce4bhc92rcd13ifvqetg","pricing_plan_id":"cebpf4jnsgd1na2vs0mg"},{"bike_id":"79d8c574-9062-423c-8a03-76b3dbc58333","system_id":"levelo_inurba_marseille","lat":43.27833,"lon":5.392,"is_reserved":false,"is_disabled":true,"rental_uris":{"android":"levelo://app?vid=79d8c574-9062-423c-8a03-76b3dbc58333","ios":"levelo://app?vid=79d8c574-9062-423c-8a03-76b3dbc58333"},"vehicle_type_id":"4","last_reported":1732100908,"current_range_meters":0,"station_id":"ce4bhjp2rcd13ifvqga0","pricing_plan_id":"cebpf4jnsgd1na2vs0mg"},{"bike_id":"7770b1cc-2a54-4d08-8255-6bed2fc397aa","system_id":"levelo_inurba_marseille","lat":43.2319,"lon":5.35544,"is_reserved":false,"is_disabled":false,"rental_uris":{"android":"levelo://app?vid=7770b1cc-2a54-4d08-8255-6bed2fc397aa","ios":"levelo://app?vid=7770b1cc-2a54-4d08-8255-6bed2fc397aa"},"vehicle_type_id":"4","last_reported":1732100908,"current_range_meters":25600,"station_id":"ce4bhu92rcd13ifvqi70","pricing_plan_id":"cebpf4jnsgd1na2vs0mg"},{"bike_id":"d39d1d49-f351-4613-bd9b-96c6f7c54870","system_id":"levelo_inurba_marseille","lat":43.2919,"lon":5.35815,"is_reserved":false,"is_disabled":false,"rental_uris":{"android":"levelo://app?vid=d39d1d49-f351-4613-bd9b-96c6f7c54870","ios":"levelo://app?vid=d39d1d49-f351-4613-bd9b-96c6f7c54870"},"vehicle_type_id":"4","last_reported":1732100908,"current_range_meters":38000,"station_id":"ce4bhb12rcd13ifvqel0","pricing_plan_id":"cebpf4jnsgd1na2vs0mg"},{"bike_id":"785815f2-518f-44b5-9b80-230876969e80","system_id":"levelo_inurba_marseille","lat":43.27969,"lon":5.38723,"is_reserved":false,"is_disabled":false,"rental_uris":{"android":"levelo://app?vid=785815f2-518f-44b5-9b80-230876969e80","ios":"levelo://app?vid=785815f2-518f-44b5-9b80-230876969e80"},"vehicle_type_id":"4","last_reported":1732100908,"current_range_meters":3200,"station_id":"ce4bhg12rcd13ifvqf80","pricing_plan_id":"cebpf4jnsgd1na2vs0mg"},{"bike_id":"e311dd6c-d07e-4a76-b879-0f24c94f5344","system_id":"levelo_inurba_marseille","lat":43.30872,"lon":5.37188,"is_reserved":false,"is_disabled":false,"rental_uris":{"android":"levelo://app?vid=e311dd6c-d07e-4a76-b879-0f24c94f5344","ios":"levelo://app?vid=e311dd6c-d07e-4a76-b879-0f24c94f5344"},"vehicle_type_id":"4","last_reported":1732100908,"current_range_meters":38800,"station_id":"ce4bguh2rcd13ifvqckg","pricing_plan_id":"cebpf4jnsgd1na2vs0mg"},{"bike_id":"cc8e956e-baec-49b0-a80a-b39c2d029b51","system_id":"levelo_inurba_marseille","lat":43.27493,"lon":5.424587,"is_reserved":false,"is_disabled":false,"rental_uris":{"android":"levelo://app?vid=cc8e956e-baec-49b0-a80a-b39c2d029b51","ios":"levelo://app?vid=cc8e956e-baec-49b0-a80a-b39c2d029b51"},"vehicle_type_id":"4","last_reported":1732100908,"current_range_meters":32800,"station_id":"ce4bhn92rcd13ifvqgrg","pricing_plan_id":"cebpf4jnsgd1na2vs0mg"},{"bike_id":"3d25d818-80cf-415a-996a-afc2d01ce97b","system_id":"levelo_inurba_marseille","lat":43.2779,"lon":5.40731,"is_reserved":false,"is_disabled":false,"rental_uris":{"android":"levelo://app?vid=3d25d818-80cf-415a-996a-afc2d01ce97b","ios":"levelo://app?vid=3d25d818-80cf-415a-996a-afc2d01ce97b"},"vehicle_type_id":"4","last_reported":1732100908,"current_range_meters":9600,"station_id":"ce4bhnh2rcd13ifvqgtg","pricing_plan_id":"cebpf4jnsgd1na2vs0mg"},{"bike_id":"ad39a7d8-4bd9-4555-8a96-26aebb5c379c","system_id":"levelo_inurba_marseille","lat":43.23147,"lon":5.43714,"is_reserved":false,"is_disabled":false,"rental_uris":{"android":"levelo://app?vid=ad39a7d8-4bd9-4555-8a96-26aebb5c379c","ios":"levelo://app?vid=ad39a7d8-4bd9-4555-8a96-26aebb5c379c"},"vehicle_type_id":"4","last_reported":1732100908,"current_range_meters":18800,"station_id":"ce4bhmp2rcd13ifvqgog","pricing_plan_id":"cebpf4jnsgd1na2vs0mg"},{"bike_id":"83c3d2b4-6d0d-4355-84fd-74ac4ec760ea","system_id":"levelo_inurba_marseille","lat":43.31086,"lon":5.42429,"is_reserved":false,"is_disabled":false,"rental_uris":{"android":"levelo://app?vid=83c3d2b4-6d0d-4355-84fd-74ac4ec760ea","ios":"levelo://app?vid=83c3d2b4-6d0d-4355-84fd-74ac4ec760ea"},"vehicle_type_id":"4","last_reported":1732100908,"current_range_meters":38800,"station_id":"ce4bhp92rcd13ifvqhag","pricing_plan_id":"cebpf4jnsgd1na2vs0mg"},{"bike_id":"a1227d8e-4fd9-4bf7-b2e6-9b1cda0428da","system_id":"levelo_inurba_marseille","lat":43.25967,"lon":5.41628,"is_reserved":false,"is_disabled":false,"rental_uris":{"android":"levelo://app?vid=a1227d8e-4fd9-4bf7-b2e6-9b1cda0428da","ios":"levelo://app?vid=a1227d8e-4fd9-4bf7-b2e6-9b1cda0428da"},"vehicle_type_id":"4","last_reported":1732100908,"current_range_meters":24000,"station_id":"","pricing_plan_id":"cebpf4jnsgd1na2vs0mg"},{"bike_id":"32b29fb2-dfde-4d04-b087-989cd944a33c","system_id":"levelo_inurba_marseille","lat":43.2315,"lon":5.43716,"is_reserved":false,"is_disabled":false,"rental_uris":{"android":"levelo://app?vid=32b29fb2-dfde-4d04-b087-989cd944a33c","ios":"levelo://app?vid=32b29fb2-dfde-4d04-b087-989cd944a33c"},"vehicle_type_id":"4","last_reported":1732100908,"current_range_meters":10000,"station_id":"ce4bhmp2rcd13ifvqgog","pricing_plan_id":"cebpf4jnsgd1na2vs0mg"},{"bike_id":"b8cbe70f-c0c4-425a-92bc-e2c2d0ee2565","system_id":"levelo_inurba_marseille","lat":43.30462,"lon":5.37915,"is_reserved":false,"is_disabled":false,"rental_uris":{"android":"levelo://app?vid=b8cbe70f-c0c4-425a-92bc-e2c2d0ee2565","ios":"levelo://app?vid=b8cbe70f-c0c4-425a-92bc-e2c2d0ee2565"},"vehicle_type_id":"4","last_reported":1732100908,"current_range_meters":38800,"station_id":"ce4bgup2rcd13ifvqcn0","pricing_plan_id":"cebpf4jnsgd1na2vs0mg"},{"bike_id":"4cefba89-e125-4369-940d-42f92e089204","system_id":"levelo_inurba_marseille","lat":43.27054,"lon":5.40259,"is_reserved":false,"is_disabled":false,"rental_uris":{"android":"levelo://app?vid=4cefba89-e125-4369-940d-42f92e089204","ios":"levelo://app?vid=4cefba89-e125-4369-940d-42f92e089204"},"vehicle_type_id":"4","last_reported":1732100908,"current_range_meters":38400,"station_id":"ce4bhk92rcd13ifvqgc0","pricing_plan_id":"cebpf4jnsgd1na2vs0mg"},{"bike_id":"7f609ce0-ac1e-47fa-80dc-a5b3222494c6","system_id":"levelo_inurba_marseille","lat":43.30151,"lon":5.38077,"is_reserved":false,"is_disabled":false,"rental_uris":{"android":"levelo://app?vid=7f609ce0-ac1e-47fa-80dc-a5b3222494c6","ios":"levelo://app?vid=7f609ce0-ac1e-47fa-80dc-a5b3222494c6"},"vehicle_type_id":"4","last_reported":1732100908,"current_range_meters":30800,"station_id":"ce4bgjp2rcd13ifvqbh0","pricing_plan_id":"cebpf4jnsgd1na2vs0mg"},{"bike_id":"70e45deb-eed3-49f4-9eaf-c2d5a025d29c","system_id":"levelo_inurba_marseille","lat":43.31364,"lon":5.38494,"is_reserved":false,"is_disabled":false,"rental_uris":{"android":"levelo://app?vid=70e45deb-eed3-49f4-9eaf-c2d5a025d29c","ios":"levelo://app?vid=70e45deb-eed3-49f4-9eaf-c2d5a025d29c"},"vehicle_type_id":"4","last_reported":1732100908,"current_range_meters":16400,"station_id":"ce4bgt92rcd13ifvqcf0","pricing_plan_id":"cebpf4jnsgd1na2vs0mg"},{"bike_id":"dbc3af97-eb68-4588-b9be-32f6c1cd4c7b","system_id":"levelo_inurba_marseille","lat":43.23149,"lon":5.43713,"is_reserved":false,"is_disabled":false,"rental_uris":{"android":"levelo://app?vid=dbc3af97-eb68-4588-b9be-32f6c1cd4c7b","ios":"levelo://app?vid=dbc3af97-eb68-4588-b9be-32f6c1cd4c7b"},"vehicle_type_id":"4","last_reported":1732100908,"current_range_meters":29600,"station_id":"ce4bhmp2rcd13ifvqgog","pricing_plan_id":"cebpf4jnsgd1na2vs0mg"},{"bike_id":"d5ec382c-9ec2-4bd8-b3c1-3dce498dc0fa","system_id":"levelo_inurba_marseille","lat":43.25818,"lon":5.39431,"is_reserved":false,"is_disabled":false,"rental_uris":{"android":"levelo://app?vid=d5ec382c-9ec2-4bd8-b3c1-3dce498dc0fa","ios":"levelo://app?vid=d5ec382c-9ec2-4bd8-b3c1-3dce498dc0fa"},"vehicle_type_id":"4","last_reported":1732100908,"current_range_meters":32400,"station_id":"ce4bhip2rcd13ifvqft0","pricing_plan_id":"cebpf4jnsgd1na2vs0mg"},{"bike_id":"bfb7d937-cb3c-4371-b1ff-7c6786307653","system_id":"levelo_inurba_marseille","lat":43.27937,"lon":5.41035,"is_reserved":false,"is_disabled":false,"rental_uris":{"android":"levelo://app?vid=bfb7d937-cb3c-4371-b1ff-7c6786307653","ios":"levelo://app?vid=bfb7d937-cb3c-4371-b1ff-7c6786307653"},"vehicle_type_id":"4","last_reported":1732100908,"current_range_meters":14800,"station_id":"ce4bhnp2rcd13ifvqh0g","pricing_plan_id":"cebpf4jnsgd1na2vs0mg"},{"bike_id":"34fbb780-c0fa-45cf-bcf9-ca38bcd2e858","system_id":"levelo_inurba_marseille","lat":43.3302,"lon":5.39037,"is_reserved":false,"is_disabled":false,"rental_uris":{"android":"levelo://app?vid=34fbb780-c0fa-45cf-bcf9-ca38bcd2e858","ios":"levelo://app?vid=34fbb780-c0fa-45cf-bcf9-ca38bcd2e858"},"vehicle_type_id":"4","last_reported":1732100908,"current_range_meters":8000,"station_id":"ce4bhr92rcd13ifvqhrg","pricing_plan_id":"cebpf4jnsgd1na2vs0mg"},{"bike_id":"e7d077a8-0703-4981-a76f-da6fe0481e04","system_id":"levelo_inurba_marseille","lat":43.24719,"lon":5.37759,"is_reserved":false,"is_disabled":true,"rental_uris":{"android":"levelo://app?vid=e7d077a8-0703-4981-a76f-da6fe0481e04","ios":"levelo://app?vid=e7d077a8-0703-4981-a76f-da6fe0481e04"},"vehicle_type_id":"4","last_reported":1732100908,"current_range_meters":0,"station_id":"","pricing_plan_id":"cebpf4jnsgd1na2vs0mg"},{"bike_id":"b1f6881e-7318-4a75-90e8-fac75fb95399","system_id":"levelo_inurba_marseille","lat":43.28528,"lon":5.46061,"is_reserved":false,"is_disabled":false,"rental_uris":{"android":"levelo://app?vid=b1f6881e-7318-4a75-90e8-fac75fb95399","ios":"levelo://app?vid=b1f6881e-7318-4a75-90e8-fac75fb95399"},"vehicle_type_id":"4","last_reported":1732100908,"current_range_meters":18000,"station_id":"","pricing_plan_id":"cebpf4jnsgd1na2vs0mg"},{"bike_id":"1d123241-9533-4334-92fc-6eb2294ad133","system_id":"levelo_inurba_marseille","lat":43.29567,"lon":5.37513,"is_reserved":false,"is_disabled":true,"rental_uris":{"android":"levelo://app?vid=1d123241-9533-4334-92fc-6eb2294ad133","ios":"levelo://app?vid=1d123241-9533-4334-92fc-6eb2294ad133"},"vehicle_type_id":"4","last_reported":1732100908,"current_range_meters":25200,"station_id":"ce4bgh92rcd13ifvqb50","pricing_plan_id":"cebpf4jnsgd1na2vs0mg"},{"bike_id":"b0e57ada-b97f-4146-9934-db386523df58","system_id":"levelo_inurba_marseille","lat":43.29617,"lon":5.37729,"is_reserved":false,"is_disabled":false,"rental_uris":{"android":"levelo://app?vid=b0e57ada-b97f-4146-9934-db386523df58","ios":"levelo://app?vid=b0e57ada-b97f-4146-9934-db386523df58"},"vehicle_type_id":"4","last_reported":1732100908,"current_range_meters":34800,"station_id":"ce4bgi92rcd13ifvqb90","pricing_plan_id":"cebpf4jnsgd1na2vs0mg"},{"bike_id":"18b8f091-c34a-472c-8dc3-5f3caf056c58","system_id":"levelo_inurba_marseille","lat":43.337444,"lon":5.374475,"is_reserved":false,"is_disabled":true,"rental_uris":{"android":"levelo://app?vid=18b8f091-c34a-472c-8dc3-5f3caf056c58","ios":"levelo://app?vid=18b8f091-c34a-472c-8dc3-5f3caf056c58"},"vehicle_type_id":"4","last_reported":1732100908,"current_range_meters":35200,"station_id":"","pricing_plan_id":"cebpf4jnsgd1na2vs0mg"},{"bike_id":"9044f75c-15b5-4f34-bbd2-226c9f41adac","system_id":"levelo_inurba_marseille","lat":43.27609,"lon":5.36106,"is_reserved":false,"is_disabled":true,"rental_uris":{"android":"levelo://app?vid=9044f75c-15b5-4f34-bbd2-226c9f41adac","ios":"levelo://app?vid=9044f75c-15b5-4f34-bbd2-226c9f41adac"},