{"last_updated":1753359814,"ttl":60,"version":"2.2","data":{"bikes":[{"bike_id":"6ebeeadb-4ac1-4a01-93ef-733597b3a4af","system_id":"levelo_inurba_marseille","lat":43.27373,"lon":5.3626,"is_reserved":false,"is_disabled":false,"rental_uris":{"android":"levelo://app?vid=6ebeeadb-4ac1-4a01-93ef-733597b3a4af","ios":"levelo://app?vid=6ebeeadb-4ac1-4a01-93ef-733597b3a4af"},"vehicle_type_id":"4","last_reported":1753359814,"current_range_meters":2800,"station_id":"ce4bhbh2rcd13ifvqeo0","pricing_plan_id":"cebpf4jnsgd1na2vs0mg"},{"bike_id":"98d81ccc-d5a8-49fb-be26-1aa0d7cea6bd","system_id":"levelo_inurba_marseille","lat":43.286155,"lon":5.350976,"is_reserved":false,"is_disabled":false,"rental_uris":{"android":"levelo://app?vid=98d81ccc-d5a8-49fb-be26-1aa0d7cea6bd","ios":"levelo://app?vid=98d81ccc-d5a8-49fb-be26-1aa0d7cea6bd"},"vehicle_type_id":"4","last_reported":1753359814,"current_range_meters":2800,"station_id":"ce4bhch2rcd13ifvqeug","pricing_plan_id":"cebpf4jnsgd1na2vs0mg"},{"bike_id":"26ed0d82-15b5-4382-9176-7d5cf0e8623c","system_id":"levelo_inurba_marseille","lat":43.292428,"lon":5.360818,"is_reserved":false,"is_disabled":false,"rental_uris":{"android":"levelo://app?vid=26ed0d82-15b5-4382-9176-7d5cf0e8623c","ios":"levelo://app?vid=26ed0d82-15b5-4382-9176-7d5cf0e8623c"},"vehicle_type_id":"4","last_reported":1753359814,"current_range_meters":3200,"station_id":"ce4bhbh2rcd13ifvqeqg","pricing_plan_id":"cebpf4jnsgd1na2vs0mg"},{"bike_id":"1d1ecf3a-87e7-45ab-924b-da52c5959a6a","system_id":"levelo_inurba_marseille","lat":43.2762,"lon":5.36105,"is_reserved":false,"is_disabled":false,"rental_uris":{"android":"levelo://app?vid=1d1ecf3a-87e7-45ab-924b-da52c5959a6a","ios":"levelo://app?vid=1d1ecf3a-87e7-45ab-924b-da52c5959a6a"},"vehicle_type_id":"4","last_reported":1753359814,"current_range_meters":3200,"station_id":"ce4bgj92rcd13ifvqbe0","pricing_plan_id":"cebpf4jnsgd1na2vs0mg"},{"bike_id":"457d72ca-9215-45b7-94bb-1edaa299662b","system_id":"levelo_inurba_marseille","lat":43.30891,"lon":5.36847,"is_reserved":false,"is_disabled":false,"rental_uris":{"android":"levelo://app?vid=457d72ca-9215-45b7-94bb-1edaa299662b","ios":"levelo://app?vid=457d72ca-9215-45b7-94bb-1edaa299662b"},"vehicle_type_id":"4","last_reported":1753359814,"current_range_meters":3600,"station_id":"ce4bgn92rcd13ifvqbvg","pricing_plan_id":"cebpf4jnsgd1na2vs0mg"},{"bike_id":"aa5ecfe4-a1ef-42fd-bfe0-97b5f50f7f9f","system_id":"levelo_inurba_marseille","lat":43.29538,"lon":5.38519,"is_reserved":false,"is_disabled":false,"rental_uris":{"android":"levelo://app?vid=aa5ecfe4-a1ef-42fd-bfe0-97b5f50f7f9f","ios":"levelo://app?vid=aa5ecfe4-a1ef-42fd-bfe0-97b5f50f7f9f"},"vehicle_type_id":"4","last_reported":1753359814,"current_range_meters":3600,"station_id":"ce4bgih2rcd13ifvqba0","pricing_plan_id":"cebpf4jnsgd1na2vs0mg"},{"bike_id":"55a60a9c-8c81-4307-9be6-b950f5b76625","system_id":"levelo_inurba_marseille","lat":43.29569,"lon":5.39978,"is_reserved":false,"is_disabled":false,"rental_uris":{"android":"levelo://app?vid=55a60a9c-8c81-4307-9be6-b950f5b76625","ios":"levelo://app?vid=55a60a9c-8c81-4307-9be6-b950f5b76625"},"vehicle_type_id":"4","last_reported":1753359814,"current_range_meters":4000,"station_id":"ce4bh312rcd13ifvqdj0","pricing_plan_id":"cebpf4jnsgd1na2vs0mg"},{"bike_id":"cfe5918e-2c06-485f-97d3-cb6768f2a43f","system_id":"levelo_inurba_marseille","lat":43.23145,"lon":5.43715,"is_reserved":false,"is_disabled":false,"rental_uris":{"android":"levelo://app?vid=cfe5918e-2c06-485f-97d3-cb6768f2a43f","ios":"levelo://app?vid=cfe5918e-2c06-485f-97d3-cb6768f2a43f"},"vehicle_type_id":"4","last_reported":1753359814,"current_range_meters":4000,"station_id":"ce4bhmp2rcd13ifvqgog","pricing_plan_id":"cebpf4jnsgd1na2vs0mg"},{"bike_id":"120a5db3-d4cf-4ad7-953b-2fcab68b773a","system_id":"levelo_inurba_marseille","lat":43.26493,"lon":5.39538,"is_reserved":false,"is_disabled":false,"rental_uris":{"android":"levelo://app?vid=120a5db3-d4cf-4ad7-953b-2fcab68b773a","ios":"levelo://app?vid=120a5db3-d4cf-4ad7-953b-2fcab68b773a"},"vehicle_type_id":"4","last_reported":1753359814,"current_range_meters":3600,"station_id":"ce4bhi12rcd13ifvqfq0","pricing_plan_id":"cebpf4jnsgd1na2vs0mg"},{"bike_id":"9ae7d50c-a3ea-4136-8080-315c191e000a","system_id":"levelo_inurba_marseille","lat":43.28757,"lon":5.38411,"is_reserved":false,"is_disabled":false,"rental_uris":{"android":"levelo://app?vid=9ae7d50c-a3ea-4136-8080-315c191e000a","ios":"levelo://app?vid=9ae7d50c-a3ea-4136-8080-315c191e000a"},"vehicle_type_id":"4","last_reported":1753359814,"current_range_meters":4000,"station_id":"","pricing_plan_id":"cebpf4jnsgd1na2vs0mg"},{"bike_id":"2773a8e3-b888-438d-8cd2-1936ce976ed5","system_id":"levelo_inurba_marseille","lat":43.30559,"lon":5.36556,"is_reserved":false,"is_disabled":false,"rental_uris":{"android":"levelo://app?vid=2773a8e3-b888-438d-8cd2-1936ce976ed5","ios":"levelo://app?vid=2773a8e3-b888-438d-8cd2-1936ce976ed5"},"vehicle_type_id":"4","last_reported":1753359814,"current_range_meters":4400,"station_id":"ce4bgs12rcd13ifvqcag","pricing_plan_id":"cebpf4jnsgd1na2vs0mg"},{"bike_id":"1e1d0f98-3430-4abf-8131-dc60bed30488","system_id":"levelo_inurba_marseille","lat":43.30302,"lon":5.36885,"is_reserved":false,"is_disabled":false,"rental_uris":{"android":"levelo://app?vid=1e1d0f98-3430-4abf-8131-dc60bed30488","ios":"levelo://app?vid=1e1d0f98-3430-4abf-8131-dc60bed30488"},"vehicle_type_id":"4","last_reported":1753359814,"current_range_meters":4400,"station_id":"ce4bgqh2rcd13ifvqc5g","pricing_plan_id":"cebpf4jnsgd1na2vs0mg"},{"bike_id":"c8cbe188-8c80-4aac-881d-65feb870e521","system_id":"levelo_inurba_marseille","lat":43.33019,"lon":5.38044,"is_reserved":false,"is_disabled":false,"rental_uris":{"android":"levelo://app?vid=c8cbe188-8c80-4aac-881d-65feb870e521","ios":"levelo://app?vid=c8cbe188-8c80-4aac-881d-65feb870e521"},"vehicle_type_id":"4","last_reported":1753359814,"current_range_meters":4400,"station_id":"","pricing_plan_id":"cebpf4jnsgd1na2vs0mg"},{"bike_id":"0c97e069-4410-4cc6-9da4-f3791248c8ac","system_id":"levelo_inurba_marseille","lat":43.26954,"lon":5.38629,"is_reserved":false,"is_disabled":false,"rental_uris":{"android":"levelo://app?vid=0c97e069-4410-4cc6-9da4-f3791248c8ac","ios":"levelo://app?vid=0c97e069-4410-4cc6-9da4-f3791248c8ac"},"vehicle_type_id":"4","last_reported":1753359814,"current_range_meters":4800,"station_id":"ce4bhh92rcd13ifvqfh0","pricing_plan_id":"cebpf4jnsgd1na2vs0mg"},{"bike_id":"f6bdedcd-1e4e-4b68-a29e-c00f7fcd51cd","system_id":"levelo_inurba_marseille","lat":43.30898,"lon":5.39638,"is_reserved":false,"is_disabled":false,"rental_uris":{"android":"levelo://app?vid=f6bdedcd-1e4e-4b68-a29e-c00f7fcd51cd","ios":"levelo://app?vid=f6bdedcd-1e4e-4b68-a29e-c00f7fcd51cd"},"vehicle_type_id":"4","last_reported":1753359814,"current_range_meters":5600,"station_id":"ce4bh012rcd13ifvqcv0","pricing_plan_id":"cebpf4jnsgd1na2vs0mg"},{"bike_id":"31d1e210-f2ad-420f-a7ce-a5cf7d533e4b","system_id":"levelo_inurba_marseille","lat":43.26949,"lon":5.38627,"is_reserved":false,"is_disabled":false,"rental_uris":{"android":"levelo://app?vid=31d1e210-f2ad-420f-a7ce-a5cf7d533e4b","ios":"levelo://app?vid=31d1e210-f2ad-420f-a7ce-a5cf7d533e4b"},"vehicle_type_id":"4","last_reported":1753359814,"current_range_meters":5600,"station_id":"ce4bhh92rcd13ifvqfh0","pricing_plan_id":"cebpf4jnsgd1na2vs0mg"},{"bike_id":"9f995f57-d64c-49da-9fe7-2d706f5329fd","system_id":"levelo_inurba_marseille","lat":43.25495,"lon":5.37649,"is_reserved":false,"is_disabled":false,"rental_uris":{"android":"levelo://app?vid=9f995f57-d64c-49da-9fe7-2d706f5329fd","ios":"levelo://app?vid=9f995f57-d64c-49da-9fe7-2d706f5329fd"},"vehicle_type_id":"4","last_reported":1753359814,"current_range_meters":5600,"station_id":"ce4bhh12rcd13ifvqff0","pricing_plan_id":"cebpf4jnsgd1na2vs0mg"},{"bike_id":"8cfe3cf4-1b94-4e72-b124-80f33a837c7c","system_id":"levelo_inurba_marseille","lat":43.26551,"lon":5.37294,"is_reserved":false,"is_disabled":false,"rental_uris":{"android":"levelo://app?vid=8cfe3cf4-1b94-4e72-b124-80f33a837c7c","ios":"levelo://app?vid=8cfe3cf4-1b94-4e72-b124-80f33a837c7c"},"vehicle_type_id":"4","last_reported":1753359814,"current_range_meters":6000,"station_id":"ce4bhg12rcd13ifvqf70","pricing_plan_id":"cebpf4jnsgd1na2vs0mg"},{"bike_id":"1a579b3b-c934-4d41-9b1f-4d189ac04334","system_id":"levelo_inurba_marseille","lat":43.29081,"lon":5.37165,"is_reserved":false,"is_disabled":false,"rental_uris":{"android":"levelo://app?vid=1a579b3b-c934-4d41-9b1f-4d189ac04334","ios":"levelo://app?vid=1a579b3b-c934-4d41-9b1f-4d189ac04334"},"vehicle_type_id":"4","last_reported":1753359814,"current_range_meters":6000,"station_id":"ce4bh5p2rcd13ifvqe4g","pricing_plan_id":"cebpf4jnsgd1na2vs0mg"},{"bike_id":"c9dbd36b-479c-4a5c-b200-3aa7673340d9","system_id":"levelo_inurba_marseille","lat":43.241448,"lon":5.363743,"is_reserved":false,"is_disabled":false,"rental_uris":{"android":"levelo://app?vid=c9dbd36b-479c-4a5c-b200-3aa7673340d9","ios":"levelo://app?vid=c9dbd36b-479c-4a5c-b200-3aa7673340d9"},"vehicle_type_id":"4","last_reported":1753359814,"current_range_meters":6400,"station_id":"","pricing_plan_id":"cebpf4jnsgd1na2vs0mg"},{"bike_id":"19f94cab-8c46-40cf-b793-bc5bbe124bc3","system_id":"levelo_inurba_marseille","lat":43.25581,"lon":5.38227,"is_reserved":false,"is_disabled":false,"rental_uris":{"android":"levelo://app?vid=19f94cab-8c46-40cf-b793-bc5bbe124bc3","ios":"levelo://app?vid=19f94cab-8c46-40cf-b793-bc5bbe124bc3"},"vehicle_type_id":"4","last_reported":1753359814,"current_range_meters":6400,"station_id":"ce4bhih2rcd13ifvqfs0","pricing_plan_id":"cebpf4jnsgd1na2vs0mg"},{"bike_id":"2d17efa5-eac9-464e-934b-291a84c1b8c5","system_id":"levelo_inurba_marseille","lat":43.30953,"lon":5.39036,"is_reserved":false,"is_disabled":false,"rental_uris":{"android":"levelo://app?vid=2d17efa5-eac9-464e-934b-291a84c1b8c5","ios":"levelo://app?vid=2d17efa5-eac9-464e-934b-291a84c1b8c5"},"vehicle_type_id":"4","last_reported":1753359814,"current_range_meters":6400,"station_id":"ce4bgup2rcd13ifvqco0","pricing_plan_id":"cebpf4jnsgd1na2vs0mg"},{"bike_id":"b80b6855-f21a-423a-b5a7-852ae3800bc4","system_id":"levelo_inurba_marseille","lat":43.2846,"lon":5.358864,"is_reserved":false,"is_disabled":false,"rental_uris":{"android":"levelo://app?vid=b80b6855-f21a-423a-b5a7-852ae3800bc4","ios":"levelo://app?vid=b80b6855-f21a-423a-b5a7-852ae3800bc4"},"vehicle_type_id":"4","last_reported":1753359814,"current_range_meters":6400,"station_id":"","pricing_plan_id":"cebpf4jnsgd1na2vs0mg"},{"bike_id":"aa5097b6-6968-4aec-b711-e7780938924b","system_id":"levelo_inurba_marseille","lat":43.329804,"lon":5.359103,"is_reserved":false,"is_disabled":false,"rental_uris":{"android":"levelo://app?vid=aa5097b6-6968-4aec-b711-e7780938924b","ios":"levelo://app?vid=aa5097b6-6968-4aec-b711-e7780938924b"},"vehicle_type_id":"4","last_reported":1753359814,"current_range_meters":6400,"station_id":"","pricing_plan_id":"cebpf4jnsgd1na2vs0mg"},{"bike_id":"eae09811-4613-4ea1-928a-110f69669da7","system_id":"levelo_inurba_marseille","lat":43.2418,"lon":5.39731,"is_reserved":false,"is_disabled":false,"rental_uris":{"android":"levelo://app?vid=eae09811-4613-4ea1-928a-110f69669da7","ios":"levelo://app?vid=eae09811-4613-4ea1-928a-110f69669da7"},"vehicle_type_id":"4","last_reported":1753359814,"current_range_meters":6800,"station_id":"ce4bhn12rcd13ifvqgpg","pricing_plan_id":"cebpf4jnsgd1na2vs0mg"},{"bike_id":"34f53268-a728-4d12-8df1-09a4221d1bc6","system_id":"levelo_inurba_marseille","lat":43.25581,"lon":5.3823,"is_reserved":false,"is_disabled":false,"rental_uris":{"android":"levelo://app?vid=34f53268-a728-4d12-8df1-09a4221d1bc6","ios":"levelo://app?vid=34f53268-a728-4d12-8df1-09a4221d1bc6"},"vehicle_type_id":"4","last_reported":1753359814,"current_range_meters":6800,"station_id":"ce4bhih2rcd13ifvqfs0","pricing_plan_id":"cebpf4jnsgd1na2vs0mg"},{"bike_id":"e657b3b5-2c76-4269-98e0-510faf524eca","system_id":"levelo_inurba_marseille","lat":43.31088,"lon":5.42414,"is_reserved":false,"is_disabled":false,"rental_uris":{"android":"levelo://app?vid=e657b3b5-2c76-4269-98e0-510faf524eca","ios":"levelo://app?vid=e657b3b5-2c76-4269-98e0-510faf524eca"},"vehicle_type_id":"4","last_reported":1753359814,"current_range_meters":7200,"station_id":"ce4bhp92rcd13ifvqhag","pricing_plan_id":"cebpf4jnsgd1na2vs0mg"},{"bike_id":"b4efa93e-00bc-411f-bc4e-f52db6a7a398","system_id":"levelo_inurba_marseille","lat":43.29028,"lon":5.38653,"is_reserved":false,"is_disabled":false,"rental_uris":{"android":"levelo://app?vid=b4efa93e-00bc-411f-bc4e-f52db6a7a398","ios":"levelo://app?vid=b4efa93e-00bc-411f-bc4e-f52db6a7a398"},"vehicle_type_id":"4","last_reported":1753359814,"current_range_meters":7200,"station_id":"ce4bh4p2rcd13ifvqe0g","pricing_plan_id":"cebpf4jnsgd1na2vs0mg"},{"bike_id":"49817bfa-2976-4626-b9b0-d6e3f4481d9b","system_id":"levelo_inurba_marseille","lat":43.30373,"lon":5.424858,"is_reserved":false,"is_disabled":false,"rental_uris":{"android":"levelo://app?vid=49817bfa-2976-4626-b9b0-d6e3f4481d9b","ios":"levelo://app?vid=49817bfa-2976-4626-b9b0-d6e3f4481d9b"},"vehicle_type_id":"4","last_reported":1753359814,"current_range_meters":7200,"station_id":"ce4bhoh2rcd13ifvqh6g","pricing_plan_id":"cebpf4jnsgd1na2vs0mg"},{"bike_id":"ce515b35-9564-429b-a4fa-87a1d317e3cb","system_id":"levelo_inurba_marseille","lat":43.26968,"lon":5.38622,"is_reserved":false,"is_disabled":true,"rental_uris":{"android":"levelo://app?vid=ce515b35-9564-429b-a4fa-87a1d317e3cb","ios":"levelo://app?vid=ce515b35-9564-429b-a4fa-87a1d317e3cb"},"vehicle_type_id":"4","last_reported":1753359814,"current_range_meters":7200,"station_id":"ce4bhh92rcd13ifvqfh0","pricing_plan_id":"cebpf4jnsgd1na2vs0mg"},{"bike_id":"1386f05a-0db3-4722-99eb-60bf17795365","system_id":"levelo_inurba_marseille","lat":43.27559,"lon":5.38425,"is_reserved":false,"is_disabled":false,"rental_uris":{"android":"levelo://app?vid=1386f05a-0db3-4722-99eb-60bf17795365","ios":"levelo://app?vid=1386f05a-0db3-4722-99eb-60bf17795365"},"vehicle_type_id":"4","last_reported":1753359814,"current_range_meters":8000,"station_id":"ce4bhh92rcd13ifvqfi0","pricing_plan_id":"cebpf4jnsgd1na2vs0mg"},{"bike_id":"ab87e1f7-abe2-4879-8847-579f441a056a","system_id":"levelo_inurba_marseille","lat":43.310846,"lon":5.424351,"is_reserved":false,"is_disabled":false,"rental_uris":{"android":"levelo://app?vid=ab87e1f7-abe2-4879-8847-579f441a056a","ios":"levelo://app?vid=ab87e1f7-abe2-4879-8847-579f441a056a"},"vehicle_type_id":"4","last_reported":1753359814,"current_range_meters":8000,"station_id":"ce4bhp92rcd13ifvqhag","pricing_plan_id":"cebpf4jnsgd1na2vs0mg"},{"bike_id":"502a3ffb-eb72-497f-a853-5a82b174643b","system_id":"levelo_inurba_marseille","lat":43.29032,"lon":5.37566,"is_reserved":false,"is_disabled":false,"rental_uris":{"android":"levelo://app?vid=502a3ffb-eb72-497f-a853-5a82b174643b","ios":"levelo://app?vid=502a3ffb-eb72-497f-a853-5a82b174643b"},"vehicle_type_id":"4","last_reported":1753359814,"current_range_meters":8000,"station_id":"ce4bh692rcd13ifvqe90","pricing_plan_id":"cebpf4jnsgd1na2vs0mg"},{"bike_id":"fede94e0-44d3-4b0a-a475-7ac15effb423","system_id":"levelo_inurba_marseille","lat":43.30545,"lon":5.36724,"is_reserved":false,"is_disabled":false,"rental_uris":{"android":"levelo://app?vid=fede94e0-44d3-4b0a-a475-7ac15effb423","ios":"levelo://app?vid=fede94e0-44d3-4b0a-a475-7ac15effb423"},"vehicle_type_id":"4","last_reported":1753359814,"current_range_meters":8400,"station_id":"ce4bgrp2rcd13ifvqc9g","pricing_plan_id":"cebpf4jnsgd1na2vs0mg"},{"bike_id":"4331bb6c-f229-4e47-9185-da36a99a6e11","system_id":"levelo_inurba_marseille","lat":43.25114,"lon":5.40318,"is_reserved":false,"is_disabled":false,"rental_uris":{"android":"levelo://app?vid=4331bb6c-f229-4e47-9185-da36a99a6e11","ios":"levelo://app?vid=4331bb6c-f229-4e47-9185-da36a99a6e11"},"vehicle_type_id":"4","last_reported":1753359814,"current_range_meters":8400,"station_id":"ce4bhlh2rcd13ifvqgig","pricing_plan_id":"cebpf4jnsgd1na2vs0mg"},{"bike_id":"9f5496c4-39fb-4625-8b86-a091cbb79a5d","system_id":"levelo_inurba_marseille","lat":43.30205,"lon":5.3694,"is_reserved":false,"is_disabled":false,"rental_uris":{"android":"levelo://app?vid=9f5496c4-39fb-4625-8b86-a091cbb79a5d","ios":"levelo://app?vid=9f5496c4-39fb-4625-8b86-a091cbb79a5d"},"vehicle_type_id":"4","last_reported":1753359814,"current_range_meters":8400,"station_id":"ce4bgrp2rcd13ifvqc9g","pricing_plan_id":"cebpf4jnsgd1na2vs0mg"},{"bike_id":"da053e6a-15f2-492e-8bc1-42b1d66cc329","system_id":"levelo_inurba_marseille","lat":43.283481,"lon":5.432892,"is_reserved":false,"is_disabled":false,"rental_uris":{"android":"levelo://app?vid=da053e6a-15f2-492e-8bc1-42b1d66cc329","ios":"levelo://app?vid=da053e6a-15f2-492e-8bc1-42b1d66cc329"},"vehicle_type_id":"4","last_reported":1753359814,"current_range_meters":8400,"station_id":"","pricing_plan_id":"cebpf4jnsgd1na2vs0mg"},{"bike_id":"1682ddd5-bdef-4b9c-8b80-cab27cdfed7d","system_id":"levelo_inurba_marseille","lat":43.28267,"lon":5.3506,"is_reserved":false,"is_disabled":false,"rental_uris":{"android":"levelo://app?vid=1682ddd5-bdef-4b9c-8b80-cab27cdfed7d","ios":"levelo://app?vid=1682ddd5-bdef-4b9c-8b80-cab27cdfed7d"},"vehicle_type_id":"4","last_reported":1753359814,"current_range_meters":8800,"station_id":"ce4bhbp2rcd13ifvqerg","pricing_plan_id":"cebpf4jnsgd1na2vs0mg"},{"bike_id":"036957cc-afd8-4057-a5e8-9bb011cbefa8","system_id":"levelo_inurba_marseille","lat":43.28931,"lon":5.36632,"is_reserved":false,"is_disabled":false,"rental_uris":{"android":"levelo://app?vid=036957cc-afd8-4057-a5e8-9bb011cbefa8","ios":"levelo://app?vid=036957cc-afd8-4057-a5e8-9bb011cbefa8"},"vehicle_type_id":"4","last_reported":1753359814,"current_range_meters":8800,"station_id":"ce4bhap2rcd13ifvqek0","pricing_plan_id":"cebpf4jnsgd1na2vs0mg"},{"bike_id":"f8c41f8d-cf58-4010-9bba-20984db1c592","system_id":"levelo_inurba_marseille","lat":43.2841,"lon":5.37509,"is_reserved":false,"is_disabled":false,"rental_uris":{"android":"levelo://app?vid=f8c41f8d-cf58-4010-9bba-20984db1c592","ios":"levelo://app?vid=f8c41f8d-cf58-4010-9bba-20984db1c592"},"vehicle_type_id":"4","last_reported":1753359814,"current_range_meters":8800,"station_id":"ce4bh412rcd13ifvqds0","pricing_plan_id":"cebpf4jnsgd1na2vs0mg"},{"bike_id":"f5d542e3-dbf1-496f-a024-017cb8c639f6","system_id":"levelo_inurba_marseille","lat":43.23186,"lon":5.35579,"is_reserved":false,"is_disabled":false,"rental_uris":{"android":"levelo://app?vid=f5d542e3-dbf1-496f-a024-017cb8c639f6","ios":"levelo://app?vid=f5d542e3-dbf1-496f-a024-017cb8c639f6"},"vehicle_type_id":"4","last_reported":1753359814,"current_range_meters":8800,"station_id":"ce4bhu92rcd13ifvqi70","pricing_plan_id":"cebpf4jnsgd1na2vs0mg"},{"bike_id":"66cca62f-5084-4c38-b393-24ba25bea6dd","system_id":"levelo_inurba_marseille","lat":43.309095,"lon":5.368478,"is_reserved":false,"is_disabled":false,"rental_uris":{"android":"levelo://app?vid=66cca62f-5084-4c38-b393-24ba25bea6dd","ios":"levelo://app?vid=66cca62f-5084-4c38-b393-24ba25bea6dd"},"vehicle_type_id":"4","last_reported":1753359814,"current_range_meters":9200,"station_id":"ce4bgn92rcd13ifvqbvg","pricing_plan_id":"cebpf4jnsgd1na2vs0mg"},{"bike_id":"1712eb0b-0136-48f3-a9de-e534140482ba","system_id":"levelo_inurba_marseille","lat":43.29096,"lon":5.38136,"is_reserved":false,"is_disabled":false,"rental_uris":{"android":"levelo://app?vid=1712eb0b-0136-48f3-a9de-e534140482ba","ios":"levelo://app?vid=1712eb0b-0136-48f3-a9de-e534140482ba"},"vehicle_type_id":"4","last_reported":1753359814,"current_range_meters":9200,"station_id":"ce4bh512rcd13ifvqe2g","pricing_plan_id":"cebpf4jnsgd1na2vs0mg"},{"bike_id":"dec93502-9771-4f3a-879a-cbdfb860df89","system_id":"levelo_inurba_marseille","lat":43.27651,"lon":5.38418,"is_reserved":false,"is_disabled":false,"rental_uris":{"android":"levelo://app?vid=dec93502-9771-4f3a-879a-cbdfb860df89","ios":"levelo://app?vid=dec93502-9771-4f3a-879a-cbdfb860df89"},"vehicle_type_id":"4","last_reported":1753359814,"current_range_meters":9200,"station_id":"","pricing_plan_id":"cebpf4jnsgd1na2vs0mg"},{"bike_id":"7b7524ae-8ecd-499f-93b7-a6de3bab91d4","system_id":"levelo_inurba_marseille","lat":43.29898,"lon":5.43679,"is_reserved":false,"is_disabled":false,"rental_uris":{"android":"levelo://app?vid=7b7524ae-8ecd-499f-93b7-a6de3bab91d4","ios":"levelo://app?vid=7b7524ae-8ecd-499f-93b7-a6de3bab91d4"},"vehicle_type_id":"4","last_reported":1753359814,"current_range_meters":9200,"station_id":"ce4bhpp2rcd13ifvqhfg","pricing_plan_id":"cebpf4jnsgd1na2vs0mg"},{"bike_id":"e0980581-56b0-4603-bb3d-d9fd38b4528a","system_id":"levelo_inurba_marseille","lat":43.27569,"lon":5.38444,"is_reserved":false,"is_disabled":false,"rental_uris":{"android":"levelo://app?vid=e0980581-56b0-4603-bb3d-d9fd38b4528a","ios":"levelo://app?vid=e0980581-56b0-4603-bb3d-d9fd38b4528a"},"vehicle_type_id":"4","last_reported":1753359814,"current_range_meters":9600,"station_id":"ce4bhh92rcd13ifvqfi0","pricing_plan_id":"cebpf4jnsgd1na2vs0mg"},{"bike_id":"7250624a-63df-4e44-9e5a-1056e5f8a90f","system_id":"levelo_inurba_marseille","lat":43.29275,"lon":5.40346,"is_reserved":false,"is_disabled":false,"rental_uris":{"android":"levelo://app?vid=7250624a-63df-4e44-9e5a-1056e5f8a90f","ios":"levelo://app?vid=7250624a-63df-4e44-9e5a-1056e5f8a90f"},"vehicle_type_id":"4","last_reported":1753359814,"current_range_meters":9600,"station_id":"","pricing_plan_id":"cebpf4jnsgd1na2vs0mg"},{"bike_id":"b982e5a3-88f5-4403-a53a-38d90073ed80","system_id":"levelo_inurba_marseille","lat":43.29465,"lon":5.43234,"is_reserved":false,"is_disabled":false,"rental_uris":{"android":"levelo://app?vid=b982e5a3-88f5-4403-a53a-38d90073ed80","ios":"levelo://app?vid=b982e5a3-88f5-4403-a53a-38d90073ed80"},"vehicle_type_id":"4","last_reported":1753359814,"current_range_meters":9600,"station_id":"","pricing_plan_id":"cebpf4jnsgd1na2vs0mg"},{"bike_id":"0c21ef54-bd62-4cdc-b6db-77f8a2362fb2","system_id":"levelo_inurba_marseille","lat":43.29787,"lon":5.37103,"is_reserved":false,"is_disabled":false,"rental_uris":{"android":"levelo://app?vid=0c21ef54-bd62-4cdc-b6db-77f8a2362fb2","ios":"levelo://app?vid=0c21ef54-bd62-4cdc-b6db-77f8a2362fb2"},"vehicle_type_id":"4","last_reported":1753359814,"current_range_meters":9600,"station_id":"ce4bgop2rcd13ifvqc1g","pricing_plan_id":"cebpf4jnsgd1na2vs0mg"},{"bike_id":"50b0bc7e-7df0-4e78-9ce2-9712acf8e0d5","system_id":"levelo_inurba_marseille","lat":43.25579,"lon":5.38245,"is_reserved":false,"is_disabled":false,"rental_uris":{"android":"levelo://app?vid=50b0bc7e-7df0-4e78-9ce2-9712acf8e0d5","ios":"levelo://app?vid=50b0bc7e-7df0-4e78-9ce2-9712acf8e0d5"},"vehicle_type_id":"4","last_reported":1753359814,"current_range_meters":9600,"station_id":"ce4bhih2rcd13ifvqfs0","pricing_plan_id":"cebpf4jnsgd1na2vs0mg"},{"bike_id":"00e05eb2-6117-4d28-881f-600287179374","system_id":"levelo_inurba_marseille","lat":43.29223,"lon":5.36069,"is_reserved":false,"is_disabled":false,"rental_uris":{"android":"levelo://app?vid=00e05eb2-6117-4d28-881f-600287179374","ios":"levelo://app?vid=00e05eb2-6117-4d28-881f-600287179374"},"vehicle_type_id":"4","last_reported":1753359814,"current_range_meters":10000,"station_id":"ce4bhbh2rcd13ifvqeqg","pricing_plan_id":"cebpf4jnsgd1na2vs0mg"},{"bike_id":"bbc2b271-396f-4875-9f1d-0fcc163d87b6","system_id":"levelo_inurba_marseille","lat":43.29061,"lon":5.39876,"is_reserved":false,"is_disabled":false,"rental_uris":{"android":"levelo://app?vid=bbc2b271-396f-4875-9f1d-0fcc163d87b6","ios":"levelo://app?vid=bbc2b271-396f-4875-9f1d-0fcc163d87b6"},"vehicle_type_id":"4","last_reported":1753359814,"current_range_meters":10000,"station_id":"","pricing_plan_id":"cebpf4jnsgd1na2vs0mg"},{"bike_id":"44b63d28-058a-4692-87c2-9f341c954b44","system_id":"levelo_inurba_marseille","lat":43.31235,"lon":5.36886,"is_reserved":false,"is_disabled":false,"rental_uris":{"android":"levelo://app?vid=44b63d28-058a-4692-87c2-9f341c954b44","ios":"levelo://app?vid=44b63d28-058a-4692-87c2-9f341c954b44"},"vehicle_type_id":"4","last_reported":1753359814,"current_range_meters":10000,"station_id":"ce4bgl92rcd13ifvqbq0","pricing_plan_id":"cebpf4jnsgd1na2vs0mg"},{"bike_id":"d9da2bda-5b7c-4eea-a743-d9fabbce8d74","system_id":"levelo_inurba_marseille","lat":43.30194,"lon":5.36616,"is_reserved":false,"is_disabled":false,"rental_uris":{"android":"levelo://app?vid=d9da2bda-5b7c-4eea-a743-d9fabbce8d74","ios":"levelo://app?vid=d9da2bda-5b7c-4eea-a743-d9fabbce8d74"},"vehicle_type_id":"4","last_reported":1753359814,"current_range_meters":10000,"station_id":"ce4bgrh2rcd13ifvqc8g","pricing_plan_id":"cebpf4jnsgd1na2vs0mg"},{"bike_id":"fdb610f8-756d-4f3c-85c8-3111ef7472fa","system_id":"levelo_inurba_marseille","lat":43.29988,"lon":5.38878,"is_reserved":false,"is_disabled":false,"rental_uris":{"android":"levelo://app?vid=fdb610f8-756d-4f3c-85c8-3111ef7472fa","ios":"levelo://app?vid=fdb610f8-756d-4f3c-85c8-3111ef7472fa"},"vehicle_type_id":"4","last_reported":1753359814,"current_range_meters":10000,"station_id":"","pricing_plan_id":"cebpf4jnsgd1na2vs0mg"},{"bike_id":"28ec1fb8-ab4a-4ccb-85eb-bde12401246b","system_id":"levelo_inurba_marseille","lat":43.27922,"lon":5.38017,"is_reserved":false,"is_disabled":false,"rental_uris":{"android":"levelo://app?vid=28ec1fb8-ab4a-4ccb-85eb-bde12401246b","ios":"levelo://app?vid=28ec1fb8-ab4a-4ccb-85eb-bde12401246b"},"vehicle_type_id":"4","last_reported":1753359814,"current_range_meters":10800,"station_id":"ce4bhf92rcd13ifvqf50","pricing_plan_id":"cebpf4jnsgd1na2vs0mg"},{"bike_id":"f3217e35-0bb5-43ab-beb0-dd5e233a7114","system_id":"levelo_inurba_marseille","lat":43.25578,"lon":5.382244,"is_reserved":false,"is_disabled":true,"rental_uris":{"android":"levelo://app?vid=f3217e35-0bb5-43ab-beb0-dd5e233a7114","ios":"levelo://app?vid=f3217e35-0bb5-43ab-beb0-dd5e233a7114"},"vehicle_type_id":"4","last_reported":1753359814,"current_range_meters":10800,"station_id":"ce4bhih2rcd13ifvqfs0","pricing_plan_id":"cebpf4jnsgd1na2vs0mg"},{"bike_id":"b5ce8d93-17c0-45a5-b2b1-eefce45c2d79","system_id":"levelo_inurba_marseille","lat":43.317963,"lon":5.435072,"is_reserved":false,"is_disabled":false,"rental_uris":{"android":"levelo://app?vid=b5ce8d93-17c0-45a5-b2b1-eefce45c2d79","ios":"levelo://app?vid=b5ce8d93-17c0-45a5-b2b1-eefce45c2d79"},"vehicle_type_id":"4","last_reported":1753359814,"current_range_meters":10800,"station_id":"","pricing_plan_id":"cebpf4jnsgd1na2vs0mg"},{"bike_id":"7c5cdd0f-87ef-4b77-a742-5a1b151530d6","system_id":"levelo_inurba_marseille","lat":43.25492,"lon":5.37649,"is_reserved":false,"is_disabled":false,"rental_uris":{"android":"levelo://app?vid=7c5cdd0f-87ef-4b77-a742-5a1b151530d6","ios":"levelo://app?vid=7c5cdd0f-87ef-4b77-a742-5a1b151530d6"},"vehicle_type_id":"4","last_reported":1753359814,"current_range_meters":10800,"station_id":"ce4bhh12rcd13ifvqff0","pricing_plan_id":"cebpf4jnsgd1na2vs0mg"},{"bike_id":"714f67a2-cf40-457b-bea8-18695eb0aaf8","system_id":"levelo_inurba_marseille","lat":43.26782,"lon":5.39414,"is_reserved":false,"is_disabled":false,"rental_uris":{"android":"levelo://app?vid=714f67a2-cf40-457b-bea8-18695eb0aaf8","ios":"levelo://app?vid=714f67a2-cf40-457b-bea8-18695eb0aaf8"},"vehicle_type_id":"4","last_reported":1753359814,"current_range_meters":11200,"station_id":"ce4bhh12rcd13ifvqfg0","pricing_plan_id":"cebpf4jnsgd1na2vs0mg"},{"bike_id":"b8686370-07d6-42e8-95ca-8ae3dc7ed795","system_id":"levelo_inurba_marseille","lat":43.29571,"lon":5.37535,"is_reserved":false,"is_disabled":false,"rental_uris":{"android":"levelo://app?vid=b8686370-07d6-42e8-95ca-8ae3dc7ed795","ios":"levelo://app?vid=b8686370-07d6-42e8-95ca-8ae3dc7ed795"},"vehicle_type_id":"4","last_reported":1753359814,"current_range_meters":11200,"station_id":"ce4bgh92rcd13ifvqb50","pricing_plan_id":"cebpf4jnsgd1na2vs0mg"},{"bike_id":"dd6953d6-728e-4b42-8717-b12c1f2a04a6","system_id":"levelo_inurba_marseille","lat":43.29598,"lon":5.38105,"is_reserved":false,"is_disabled":false,"rental_uris":{"android":"levelo://app?vid=dd6953d6-728e-4b42-8717-b12c1f2a04a6","ios":"levelo://app?vid=dd6953d6-728e-4b42-8717-b12c1f2a04a6"},"vehicle_type_id":"4","last_reported":1753359814,"current_range_meters":11200,"station_id":"ce4bgl12rcd13ifvqbo0","pricing_plan_id":"cebpf4jnsgd1na2vs0mg"},{"bike_id":"a492f476-7189-46fe-9e39-551e35f2b2bc","system_id":"levelo_inurba_marseille","lat":43.288545,"lon":5.358527,"is_reserved":false,"is_disabled":false,"rental_uris":{"android":"levelo://app?vid=a492f476-7189-46fe-9e39-551e35f2b2bc","ios":"levelo://app?vid=a492f476-7189-46fe-9e39-551e35f2b2bc"},"vehicle_type_id":"4","last_reported":1753359814,"current_range_meters":11200,"station_id":"","pricing_plan_id":"cebpf4jnsgd1na2vs0mg"},{"bike_id":"cb00a46e-3921-485f-ac3a-37b11f439c6e","system_id":"levelo_inurba_marseille","lat":43.28267,"lon":5.35063,"is_reserved":false,"is_disabled":false,"rental_uris":{"android":"levelo://app?vid=cb00a46e-3921-485f-ac3a-37b11f439c6e","ios":"levelo://app?vid=cb00a46e-3921-485f-ac3a-37b11f439c6e"},"vehicle_type_id":"4","last_reported":1753359814,"current_range_meters":11600,"station_id":"ce4bhbp2rcd13ifvqerg","pricing_plan_id":"cebpf4jnsgd1na2vs0mg"},{"bike_id":"674df432-eba2-41a5-a16c-d34b13d50f5e","system_id":"levelo_inurba_marseille","lat":43.33912,"lon":5.40717,"is_reserved":false,"is_disabled":true,"rental_uris":{"android":"levelo://app?vid=674df432-eba2-41a5-a16c-d34b13d50f5e","ios":"levelo://app?vid=674df432-eba2-41a5-a16c-d34b13d50f5e"},"vehicle_type_id":"4","last_reported":1753359814,"current_range_meters":11600,"station_id":"","pricing_plan_id":"cebpf4jnsgd1na2vs0mg"},{"bike_id":"76a40df4-b83a-47db-ab83-e50bc94d5bdc","system_id":"levelo_inurba_marseille","lat":43.23181,"lon":5.39978,"is_reserved":false,"is_disabled":false,"rental_uris":{"android":"levelo://app?vid=76a40df4-b83a-47db-ab83-e50bc94d5bdc","ios":"levelo://app?vid=76a40df4-b83a-47db-ab83-e50bc94d5bdc"},"vehicle_type_id":"4","last_reported":1753359814,"current_range_meters":11600,"station_id":"ce4bhn12rcd13ifvqgqg","pricing_plan_id":"cebpf4jnsgd1na2vs0mg"},{"bike_id":"5156debd-332e-44e5-88f7-da66cfafcce1","system_id":"levelo_inurba_marseille","lat":43.31078,"lon":5.38363,"is_reserved":false,"is_disabled":false,"rental_uris":{"android":"levelo://app?vid=5156debd-332e-44e5-88f7-da66cfafcce1","ios":"levelo://app?vid=5156debd-332e-44e5-88f7-da66cfafcce1"},"vehicle_type_id":"4","last_reported":1753359814,"current_range_meters":11600,"station_id":"ce4bgv92rcd13ifvqcr0","pricing_plan_id":"cebpf4jnsgd1na2vs0mg"},{"bike_id":"d6c19923-1f9a-4a05-b57d-368f93693f4c","system_id":"levelo_inurba_marseille","lat":43.337623,"lon":5.374345,"is_reserved":false,"is_disabled":false,"rental_uris":{"android":"levelo://app?vid=d6c19923-1f9a-4a05-b57d-368f93693f4c","ios":"levelo://app?vid=d6c19923-1f9a-4a05-b57d-368f93693f4c"},"vehicle_type_id":"4","last_reported":1753359814,"current_range_meters":11600,"station_id":"","pricing_plan_id":"cebpf4jnsgd1na2vs0mg"},{"bike_id":"0c1d8e8e-ac84-41b1-83be-c0e44e0d628a","system_id":"levelo_inurba_marseille","lat":43.29355,"lon":5.37861,"is_reserved":false,"is_disabled":false,"rental_uris":{"android":"levelo://app?vid=0c1d8e8e-ac84-41b1-83be-c0e44e0d628a","ios":"levelo://app?vid=0c1d8e8e-ac84-41b1-83be-c0e44e0d628a"},"vehicle_type_id":"4","last_reported":1753359814,"current_range_meters":11200,"station_id":"ce4bgjh2rcd13ifvqbf0","pricing_plan_id":"cebpf4jnsgd1na2vs0mg"},{"bike_id":"74667481-5f03-4636-8b5a-495e4f40157d","system_id":"levelo_inurba_marseille","lat":43.30983,"lon":5.37367,"is_reserved":false,"is_disabled":false,"rental_uris":{"android":"levelo://app?vid=74667481-5f03-4636-8b5a-495e4f40157d","ios":"levelo://app?vid=74667481-5f03-4636-8b5a-495e4f40157d"},"vehicle_type_id":"4","last_reported":1753359814,"current_range_meters":12000,"station_id":"","pricing_plan_id":"cebpf4jnsgd1na2vs0mg"},{"bike_id":"ae131367-d818-44a0-9e1d-4aa65dcdb16a","system_id":"levelo_inurba_marseille","lat":43.27535,"lon":5.39675,"is_reserved":false,"is_disabled":false,"rental_uris":{"android":"levelo://app?vid=ae131367-d818-44a0-9e1d-4aa65dcdb16a","ios":"levelo://app?vid=ae131367-d818-44a0-9e1d-4aa65dcdb16a"},"vehicle_type_id":"4","last_reported":1753359814,"current_range_meters":12000,"station_id":"","pricing_plan_id":"cebpf4jnsgd1na2vs0mg"},{"bike_id":"3cd09fc8-9554-4236-8496-0931a7be09d1","system_id":"levelo_inurba_marseille","lat":43.21189,"lon":5.35094,"is_reserved":false,"is_disabled":false,"rental_uris":{"android":"levelo://app?vid=3cd09fc8-9554-4236-8496-0931a7be09d1","ios":"levelo://app?vid=3cd09fc8-9554-4236-8496-0931a7be09d1"},"vehicle_type_id":"4","last_reported":1753359814,"current_range_meters":12000,"station_id":"st_cvj6sg6p6f1abm77japg","pricing_plan_id":"cebpf4jnsgd1na2vs0mg"},{"bike_id":"c7e1fe9d-6478-4d3f-bad0-cef4cb2f3d77","system_id":"levelo_inurba_marseille","lat":43.28618,"lon":5.35122,"is_reserved":false,"is_disabled":false,"rental_uris":{"android":"levelo://app?vid=c7e1fe9d-6478-4d3f-bad0-cef4cb2f3d77","ios":"levelo://app?vid=c7e1fe9d-6478-4d3f-bad0-cef4cb2f3d77"},"vehicle_type_id":"4","last_reported":1753359814,"current_range_meters":12000,"station_id":"ce4bhch2rcd13ifvqeug","pricing_plan_id":"cebpf4jnsgd1na2vs0mg"},{"bike_id":"75921511-23bf-408f-9470-1062209789d6","system_id":"levelo_inurba_marseille","lat":43.25572,"lon":5.3823,"is_reserved":false,"is_disabled":false,"rental_uris":{"android":"levelo://app?vid=75921511-23bf-408f-9470-1062209789d6","ios":"levelo://app?vid=75921511-23bf-408f-9470-1062209789d6"},"vehicle_type_id":"4","last_reported":1753359814,"current_range_meters":12400,"station_id":"ce4bhih2rcd13ifvqfs0","pricing_plan_id":"cebpf4jnsgd1na2vs0mg"},{"bike_id":"898f759e-ad02-4cee-9706-18388c2e677c","system_id":"levelo_inurba_marseille","lat":43.29384,"lon":5.37852,"is_reserved":false,"is_disabled":false,"rental_uris":{"android":"levelo://app?vid=898f759e-ad02-4cee-9706-18388c2e677c","ios":"levelo://app?vid=898f759e-ad02-4cee-9706-18388c2e677c"},"vehicle_type_id":"4","last_reported":1753359814,"current_range_meters":12400,"station_id":"ce4bgjh2rcd13ifvqbf0","pricing_plan_id":"cebpf4jnsgd1na2vs0mg"},{"bike_id":"bf4046f4-4ac0-46a1-bdc8-16a4897efae9","system_id":"levelo_inurba_marseille","lat":43.30556,"lon":5.36536,"is_reserved":false,"is_disabled":false,"rental_uris":{"android":"levelo://app?vid=bf4046f4-4ac0-46a1-bdc8-16a4897efae9","ios":"levelo://app?vid=bf4046f4-4ac0-46a1-bdc8-16a4897efae9"},"vehicle_type_id":"4","last_reported":1753359814,"current_range_meters":12400,"station_id":"ce4bgs12rcd13ifvqcag","pricing_plan_id":"cebpf4jnsgd1na2vs0mg"},{"bike_id":"c4ad6f72-f15e-4eb4-ada9-7def29e4fcc5","system_id":"levelo_inurba_marseille","lat":43.31342,"lon":5.36712,"is_reserved":false,"is_disabled":false,"rental_uris":{"android":"levelo://app?vid=c4ad6f72-f15e-4eb4-ada9-7def29e4fcc5","ios":"levelo://app?vid=c4ad6f72-f15e-4eb4-ada9-7def29e4fcc5"},"vehicle_type_id":"4","last_reported":1753359814,"current_range_meters":12400,"station_id":"ce4bgr92rcd13ifvqc6g","pricing_plan_id":"cebpf4jnsgd1na2vs0mg"},{"bike_id":"9b48eec5-4386-4a89-a4a8-38893c15e8e6","system_id":"levelo_inurba_marseille","lat":43.29558,"lon":5.37513,"is_reserved":false,"is_disabled":false,"rental_uris":{"android":"levelo://app?vid=9b48eec5-4386-4a89-a4a8-38893c15e8e6","ios":"levelo://app?vid=9b48eec5-4386-4a89-a4a8-38893c15e8e6"},"vehicle_type_id":"4","last_reported":1753359814,"current_range_meters":12400,"station_id":"ce4bgh92rcd13ifvqb50","pricing_plan_id":"cebpf4jnsgd1na2vs0mg"},{"bike_id":"b89d6267-55af-48a1-8887-3f0adc5ff195","system_id":"levelo_inurba_marseille","lat":43.301319,"lon":5.39874,"is_reserved":false,"is_disabled":false,"rental_uris":{"android":"levelo://app?vid=b89d6267-55af-48a1-8887-3f0adc5ff195","ios":"levelo://app?vid=b89d6267-55af-48a1-8887-3f0adc5ff195"},"vehicle_type_id":"4","last_reported":1753359814,"current_range_meters":12400,"station_id":"","pricing_plan_id":"cebpf4jnsgd1na2vs0mg"},{"bike_id":"bf3b1b67-3fa4-463d-8c9b-38e22101f7ff","system_id":"levelo_inurba_marseille","lat":43.31713,"lon":5.43707,"is_reserved":false,"is_disabled":false,"rental_uris":{"android":"levelo://app?vid=bf3b1b67-3fa4-463d-8c9b-38e22101f7ff","ios":"levelo://app?vid=bf3b1b67-3fa4-463d-8c9b-38e22101f7ff"},"vehicle_type_id":"4","last_reported":1753359814,"current_range_meters":12400,"station_id":"ce4bhp92rcd13ifvqhcg","pricing_plan_id":"cebpf4jnsgd1na2vs0mg"},{"bike_id":"e0619653-60a9-4d50-840a-e5cb642a4cc3","system_id":"levelo_inurba_marseille","lat":43.23178,"lon":5.40008,"is_reserved":false,"is_disabled":false,"rental_uris":{"android":"levelo://app?vid=e0619653-60a9-4d50-840a-e5cb642a4cc3","ios":"levelo://app?vid=e0619653-60a9-4d50-840a-e5cb642a4cc3"},"vehicle_type_id":"4","last_reported":1753359814,"current_range_meters":12400,"station_id":"ce4bhn12rcd13ifvqgqg","pricing_plan_id":"cebpf4jnsgd1na2vs0mg"},{"bike_id":"6a79a396-2f47-4b1c-9dce-b0d5464f72e4","system_id":"levelo_inurba_marseille","lat":43.22928,"lon":5.35388,"is_reserved":false,"is_disabled":false,"rental_uris":{"android":"levelo://app?vid=6a79a396-2f47-4b1c-9dce-b0d5464f72e4","ios":"levelo://app?vid=6a79a396-2f47-4b1c-9dce-b0d5464f72e4"},"vehicle_type_id":"4","last_reported":1753359814,"current_range_meters":12400,"station_id":"cpo3532slgdg3j2ikp40","pricing_plan_id":"cebpf4jnsgd1na2vs0mg"},{"bike_id":"68884031-788f-45c5-82e4-e82d848ed8dc","system_id":"levelo_inurba_marseille","lat":43.30197,"lon":5.36619,"is_reserved":false,"is_disabled":false,"rental_uris":{"android":"levelo://app?vid=68884031-788f-45c5-82e4-e82d848ed8dc","ios":"levelo://app?vid=68884031-788f-45c5-82e4-e82d848ed8dc"},"vehicle_type_id":"4","last_reported":1753359814,"current_range_meters":12800,"station_id":"ce4bgrh2rcd13ifvqc8g","pricing_plan_id":"cebpf4jnsgd1na2vs0mg"},{"bike_id":"c3b7093a-c6fc-4872-a465-95918521be48","system_id":"levelo_inurba_marseille","lat":43.31497,"lon":5.37302,"is_reserved":false,"is_disabled":false,"rental_uris":{"android":"levelo://app?vid=c3b7093a-c6fc-4872-a465-95918521be48","ios":"levelo://app?vid=c3b7093a-c6fc-4872-a465-95918521be48"},"vehicle_type_id":"4","last_reported":1753359814,"current_range_meters":12800,"station_id":"ce4bgt12rcd13ifvqcd0","pricing_plan_id":"cebpf4jnsgd1na2vs0mg"},{"bike_id":"5ac85406-65d0-4336-aa89-4b04b2e6689e","system_id":"levelo_inurba_marseille","lat":43.33252,"lon":5.41976,"is_reserved":false,"is_disabled":false,"rental_uris":{"android":"levelo://app?vid=5ac85406-65d0-4336-aa89-4b04b2e6689e","ios":"levelo://app?vid=5ac85406-65d0-4336-aa89-4b04b2e6689e"},"vehicle_type_id":"4","last_reported":1753359814,"current_range_meters":12800,"station_id":"","pricing_plan_id":"cebpf4jnsgd1na2vs0mg"},{"bike_id":"c056311f-78c9-4e18-8685-91c659ddb125","system_id":"levelo_inurba_marseille","lat":43.31607,"lon":5.38967,"is_reserved":false,"is_disabled":false,"rental_uris":{"android":"levelo://app?vid=c056311f-78c9-4e18-8685-91c659ddb125","ios":"levelo://app?vid=c056311f-78c9-4e18-8685-91c659ddb125"},"vehicle_type_id":"4","last_reported":1753359814,"current_range_meters":12800,"station_id":"","pricing_plan_id":"cebpf4jnsgd1na2vs0mg"},{"bike_id":"6bb1f31c-9335-4f39-9585-31374a4775f9","system_id":"levelo_inurba_marseille","lat":43.325583,"lon":5.379059,"is_reserved":false,"is_disabled":false,"rental_uris":{"android":"levelo://app?vid=6bb1f31c-9335-4f39-9585-31374a4775f9","ios":"levelo://app?vid=6bb1f31c-9335-4f39-9585-31374a4775f9"},"vehicle_type_id":"4","last_reported":1753359814,"current_range_meters":12800,"station_id":"","pricing_plan_id":"cebpf4jnsgd1na2vs0mg"},{"bike_id":"ce59a62d-17ec-416f-b54d-751bd3f6f3dd","system_id":"levelo_inurba_marseille","lat":43.2707,"lon":5.42261,"is_reserved":false,"is_disabled":false,"rental_uris":{"android":"levelo://app?vid=ce59a62d-17ec-416f-b54d-751bd3f6f3dd","ios":"levelo://app?vid=ce59a62d-17ec-416f-b54d-751bd3f6f3dd"},"vehicle_type_id":"4","last_reported":1753359814,"current_range_meters":12800,"station_id":"ce4bhk92rcd13ifvqgb0","pricing_plan_id":"cebpf4jnsgd1na2vs0mg"},{"bike_id":"2006d6ab-c619-4a15-b9f3-97c1160843f0","system_id":"levelo_inurba_marseille","lat":43.2816,"lon":5.36101,"is_reserved":false,"is_disabled":false,"rental_uris":{"android":"levelo://app?vid=2006d6ab-c619-4a15-b9f3-97c1160843f0","ios":"levelo://app?vid=2006d6ab-c619-4a15-b9f3-97c1160843f0"},"vehicle_type_id":"4","last_reported":1753359814,"current_range_meters":12800,"station_id":"","pricing_plan_id":"cebpf4jnsgd1na2vs0mg"},{"bike_id":"4d701b5b-6e45-4d1a-8a0d-d10304c2cbea","system_id":"levelo_inurba_marseille","lat":43.33773,"lon":5.37421,"is_reserved":false,"is_disabled":false,"rental_uris":{"android":"levelo://app?vid=4d701b5b-6e45-4d1a-8a0d-d10304c2cbea","ios":"levelo://app?vid=4d701b5b-6e45-4d1a-8a0d-d10304c2cbea"},"vehicle_type_id":"4","last_reported":1753359814,"current_range_meters":13600,"station_id":"","pricing_plan_id":"cebpf4jnsgd1na2vs0mg"},{"bike_id":"efce9bd7-0f84-4c4c-8629-017c0e0428bd","system_id":"levelo_inurba_marseille","lat":43.25579,"lon":5.38234,"is_reserved":false,"is_disabled":false,"rental_uris":{"android":"levelo://app?vid=efce9bd7-0f84-4c4c-8629-017c0e0428bd","ios":"levelo://app?vid=efce9bd7-0f84-4c4c-8629-017c0e0428bd"},"vehicle_type_id":"4","last_reported":1753359814,"current_range_meters":13600,"station_id":"ce4bhih2rcd13ifvqfs0","pricing_plan_id":"cebpf4jnsgd1na2vs0mg"},{"bike_id":"73bc619c-388b-4e53-b673-b41ce665db81","system_id":"levelo_inurba_marseille","lat":43.25118,"lon":5.40318,"is_reserved":false,"is_disabled":false,"rental_uris":{"android":"levelo://app?vid=73bc619c-388b-4e53-b673-b41ce665db81","ios":"levelo://app?vid=73bc619c-388b-4e53-b673-b41ce665db81"},"vehicle_type_id":"4","last_reported":1753359814,"current_range_meters":13600,"station_id":"ce4bhlh2rcd13ifvqgig","pricing_plan_id":"cebpf4jnsgd1na2vs0mg"},{"bike_id":"effeb500-6e69-4888-a750-57ae7c962c80","system_id":"levelo_inurba_marseille","lat":43.3235,"lon":5.36742,"is_reserved":false,"is_disabled":false,"rental_uris":{"android":"levelo://app?vid=effeb500-6e69-4888-a750-57ae7c962c80","ios":"levelo://app?vid=effeb500-6e69-4888-a750-57ae7c962c80"},"vehicle_type_id":"4","last_reported":1753359814,"current_range_meters":13600,"station_id":"ce4bhsh2rcd13ifvqi2g","pricing_plan_id":"cebpf4jnsgd1na2vs0mg"},{"bike_id":"cf7b0671-fb94-4201-8e7b-d09f1ced3c64","system_id":"levelo_inurba_marseille","lat":43.30556,"lon":5.36697,"is_reserved":false,"is_disabled":false,"rental_uris":{"android":"levelo://app?vid=cf7b0671-fb94-4201-8e7b-d09f1ced3c64","ios":"levelo://app?vid=cf7b0671-fb94-4201-8e7b-d09f1ced3c64"},"vehicle_type_id":"4","last_reported":1753359814,"current_range_meters":13600,"station_id":"ce4bgrp2rcd13ifvqc9g","pricing_plan_id":"cebpf4jnsgd1na2vs0mg"},{"bike_id":"93206b8d-2492-4fc2-80d9-c4a5e3f58a23","system_id":"levelo_inurba_marseille","lat":43.30202,"lon":5.36615,"is_reserved":false,"is_disabled":false,"rental_uris":{"android":"levelo://app?vid=93206b8d-2492-4fc2-80d9-c4a5e3f58a23","ios":"levelo://app?vid=93206b8d-2492-4fc2-80d9-c4a5e3f58a23"},"vehicle_type_id":"4","last_reported":1753359814,"current_range_meters":14000,"station_id":"ce4bgrh2rcd13ifvqc8g","pricing_plan_id":"cebpf4jnsgd1na2vs0mg"},{"bike_id":"18b86593-4f21-41ed-81b3-f3a5b378dc91","system_id":"levelo_inurba_marseille","lat":43.31248,"lon":5.38126,"is_reserved":false,"is_disabled":false,"rental_uris":{"android":"levelo://app?vid=18b86593-4f21-41ed-81b3-f3a5b378dc91","ios":"levelo://app?vid=18b86593-4f21-41ed-81b3-f3a5b378dc91"},"vehicle_type_id":"4","last_reported":1753359814,"current_range_meters":14000,"station_id":"","pricing_plan_id":"cebpf4jnsgd1na2vs0mg"},{"bike_id":"3c5af6d0-910f-4152-bb01-15232620e629","system_id":"levelo_inurba_marseille","lat":43.302783,"lon":5.377047,"is_reserved":false,"is_disabled":false,"rental_uris":{"android":"levelo://app?vid=3c5af6d0-910f-4152-bb01-15232620e629","ios":"levelo://app?vid=3c5af6d0-910f-4152-bb01-15232620e629"},"vehicle_type_id":"4","last_reported":1753359814,"current_range_meters":14000,"station_id":"ce4bguh2rcd13ifvqcj0","pricing_plan_id":"cebpf4jnsgd1na2vs0mg"},{"bike_id":"67e6c277-a142-495a-a2a9-0aeb243846d8","system_id":"levelo_inurba_marseille","lat":43.26203,"lon":5.37432,"is_reserved":false,"is_disabled":false,"rental_uris":{"android":"levelo://app?vid=67e6c277-a142-495a-a2a9-0aeb243846d8","ios":"levelo://app?vid=67e6c277-a142-495a-a2a9-0aeb243846d8"},"vehicle_type_id":"4","last_reported":1753359814,"current_range_meters":14000,"station_id":"ce4bhgp2rcd13ifvqfc0","pricing_plan_id":"cebpf4jnsgd1na2vs0mg"},{"bike_id":"374de938-354f-4a6c-a822-5dbb644dda13","system_id":"levelo_inurba_marseille","lat":43.30208,"lon":5.39462,"is_reserved":false,"is_disabled":false,"rental_uris":{"android":"levelo://app?vid=374de938-354f-4a6c-a822-5dbb644dda13","ios":"levelo://app?vid=374de938-354f-4a6c-a822-5dbb644dda13"},"vehicle_type_id":"4","last_reported":1753359814,"current_range_meters":14000,"station_id":"ce4bh0p2rcd13ifvqd70","pricing_plan_id":"cebpf4jnsgd1na2vs0mg"},{"bike_id":"887289fc-766b-455a-9edc-3eeee86a5b52","system_id":"levelo_inurba_marseille","lat":43.2952,"lon":5.39407,"is_reserved":false,"is_disabled":false,"rental_uris":{"android":"levelo://app?vid=887289fc-766b-455a-9edc-3eeee86a5b52","ios":"levelo://app?vid=887289fc-766b-455a-9edc-3eeee86a5b52"},"vehicle_type_id":"4","last_reported":1753359814,"current_range_meters":14000,"station_id":"ce4bh292rcd13ifvqdf0","pricing_plan_id":"cebpf4jnsgd1na2vs0mg"},{"bike_id":"9895e2eb-7bb1-4ca2-98ab-08583f99b87d","system_id":"levelo_inurba_marseille","lat":43.28414,"lon":5.34993,"is_reserved":false,"is_disabled":false,"rental_uris":{"android":"levelo://app?vid=9895e2eb-7bb1-4ca2-98ab-08583f99b87d","ios":"levelo://app?vid=9895e2eb-7bb1-4ca2-98ab-08583f99b87d"},"vehicle_type_id":"4","last_reported":1753359814,"current_range_meters":14000,"station_id":"ce4bhbh2rcd13ifvqepg","pricing_plan_id":"cebpf4jnsgd1na2vs0mg"},{"bike_id":"5254d746-bf2c-4042-b956-76a940639ba4","system_id":"levelo_inurba_marseille","lat":43.3136,"lon":5.36732,"is_reserved":false,"is_disabled":false,"rental_uris":{"android":"levelo://app?vid=5254d746-bf2c-4042-b956-76a940639ba4","ios":"levelo://app?vid=5254d746-bf2c-4042-b956-76a940639ba4"},"vehicle_type_id":"4","last_reported":1753359814,"current_range_meters":14000,"station_id":"ce4bgr92rcd13ifvqc6g","pricing_plan_id":"cebpf4jnsgd1na2vs0mg"},{"bike_id":"7fa54891-8b09-4ea4-a9bc-9435bede8289","system_id":"levelo_inurba_marseille","lat":43.288053,"lon":5.39143,"is_reserved":false,"is_disabled":false,"rental_uris":{"android":"levelo://app?vid=7fa54891-8b09-4ea4-a9bc-9435bede8289","ios":"levelo://app?vid=7fa54891-8b09-4ea4-a9bc-9435bede8289"},"vehicle_type_id":"4","last_reported":1753359814,"current_range_meters":14000,"station_id":"ce4bh392rcd13ifvqdm0","pricing_plan_id":"cebpf4jnsgd1na2vs0mg"},{"bike_id":"f4bc89ed-241d-4eca-b46f-4a676df87af3","system_id":"levelo_inurba_marseille","lat":43.305422,"lon":5.365452,"is_reserved":false,"is_disabled":false,"rental_uris":{"android":"levelo://app?vid=f4bc89ed-241d-4eca-b46f-4a676df87af3","ios":"levelo://app?vid=f4bc89ed-241d-4eca-b46f-4a676df87af3"},"vehicle_type_id":"4","last_reported":1753359814,"current_range_meters":14000,"station_id":"ce4bgs12rcd13ifvqcag","pricing_plan_id":"cebpf4jnsgd1na2vs0mg"},{"bike_id":"c5de8f71-b38f-4bb5-b804-bf684958ffd7","system_id":"levelo_inurba_marseille","lat":43.2794,"lon":5.41049,"is_reserved":false,"is_disabled":false,"rental_uris":{"android":"levelo://app?vid=c5de8f71-b38f-4bb5-b804-bf684958ffd7","ios":"levelo://app?vid=c5de8f71-b38f-4bb5-b804-bf684958ffd7"},"vehicle_type_id":"4","last_reported":1753359814,"current_range_meters":14400,"station_id":"ce4bhnp2rcd13ifvqh0g","pricing_plan_id":"cebpf4jnsgd1na2vs0mg"},{"bike_id":"35dd1c22-4bda-4510-8dd8-0d637075e742","system_id":"levelo_inurba_marseille","lat":43.31229,"lon":5.36852,"is_reserved":false,"is_disabled":false,"rental_uris":{"android":"levelo://app?vid=35dd1c22-4bda-4510-8dd8-0d637075e742","ios":"levelo://app?vid=35dd1c22-4bda-4510-8dd8-0d637075e742"},"vehicle_type_id":"4","last_reported":1753359814,"current_range_meters":14400,"station_id":"ce4bgl92rcd13ifvqbq0","pricing_plan_id":"cebpf4jnsgd1na2vs0mg"},{"bike_id":"0c79d08c-f63c-4789-b3e3-deb590b82297","system_id":"levelo_inurba_marseille","lat":43.31236,"lon":5.36894,"is_reserved":false,"is_disabled":false,"rental_uris":{"android":"levelo://app?vid=0c79d08c-f63c-4789-b3e3-deb590b82297","ios":"levelo://app?vid=0c79d08c-f63c-4789-b3e3-deb590b82297"},"vehicle_type_id":"4","last_reported":1753359814,"current_range_meters":14400,"station_id":"ce4bgl92rcd13ifvqbq0","pricing_plan_id":"cebpf4jnsgd1na2vs0mg"},{"bike_id":"5bf271e9-b85e-4ede-9d32-02d7c28374e7","system_id":"levelo_inurba_marseille","lat":43.32475,"lon":5.36587,"is_reserved":false,"is_disabled":false,"rental_uris":{"android":"levelo://app?vid=5bf271e9-b85e-4ede-9d32-02d7c28374e7","ios":"levelo://app?vid=5bf271e9-b85e-4ede-9d32-02d7c28374e7"},"vehicle_type_id":"4","last_reported":1753359814,"current_range_meters":14400,"station_id":"ce4bhs12rcd13ifvqhvg","pricing_plan_id":"cebpf4jnsgd1na2vs0mg"},{"bike_id":"3af1dfbf-1ce9-4c16-a673-77d42ec9d980","system_id":"levelo_inurba_marseille","lat":43.29257,"lon":5.40905,"is_reserved":false,"is_disabled":false,"rental_uris":{"android":"levelo://app?vid=3af1dfbf-1ce9-4c16-a673-77d42ec9d980","ios":"levelo://app?vid=3af1dfbf-1ce9-4c16-a673-77d42ec9d980"},"vehicle_type_id":"4","last_reported":1753359814,"current_range_meters":14400,"station_id":"ce4bh192rcd13ifvqdc0","pricing_plan_id":"cebpf4jnsgd1na2vs0mg"},{"bike_id":"971f361f-7d35-467c-b730-ff0e872917fc","system_id":"levelo_inurba_marseille","lat":43.25008,"lon":5.38943,"is_reserved":false,"is_disabled":false,"rental_uris":{"android":"levelo://app?vid=971f361f-7d35-467c-b730-ff0e872917fc","ios":"levelo://app?vid=971f361f-7d35-467c-b730-ff0e872917fc"},"vehicle_type_id":"4","last_reported":1753359814,"current_range_meters":14400,"station_id":"ce4bhgp2rcd13ifvqfd0","pricing_plan_id":"cebpf4jnsgd1na2vs0mg"},{"bike_id":"1ad257b5-7f83-42c1-867f-92635ff1abbf","system_id":"levelo_inurba_marseille","lat":43.22935,"lon":5.35371,"is_reserved":false,"is_disabled":false,"rental_uris":{"android":"levelo://app?vid=1ad257b5-7f83-42c1-867f-92635ff1abbf","ios":"levelo://app?vid=1ad257b5-7f83-42c1-867f-92635ff1abbf"},"vehicle_type_id":"4","last_reported":1753359814,"current_range_meters":14400,"station_id":"cpo3532slgdg3j2ikp40","pricing_plan_id":"cebpf4jnsgd1na2vs0mg"},{"bike_id":"77be17ea-a677-46d6-a392-fbc6761621fc","system_id":"levelo_inurba_marseille","lat":43.30527,"lon":5.3654,"is_reserved":false,"is_disabled":false,"rental_uris":{"android":"levelo://app?vid=77be17ea-a677-46d6-a392-fbc6761621fc","ios":"levelo://app?vid=77be17ea-a677-46d6-a392-fbc6761621fc"},"vehicle_type_id":"4","last_reported":1753359814,"current_range_meters":14800,"station_id":"ce4bgs12rcd13ifvqcag","pricing_plan_id":"cebpf4jnsgd1na2vs0mg"},{"bike_id":"1bfcaa6f-748c-4fb4-bf6d-63c34fb0a301","system_id":"levelo_inurba_marseille","lat":43.27971,"lon":5.38756,"is_reserved":false,"is_disabled":false,"rental_uris":{"android":"levelo://app?vid=1bfcaa6f-748c-4fb4-bf6d-63c34fb0a301","ios":"levelo://app?vid=1bfcaa6f-748c-4fb4-bf6d-63c34fb0a301"},"vehicle_type_id":"4","last_reported":1753359814,"current_range_meters":14800,"station_id":"ce4bhg12rcd13ifvqf80","pricing_plan_id":"cebpf4jnsgd1na2vs0mg"},{"bike_id":"461c90fa-2a60-4510-baf8-a4d54a9f7c39","system_id":"levelo_inurba_marseille","lat":43.291946,"lon":5.357887,"is_reserved":false,"is_disabled":false,"rental_uris":{"android":"levelo://app?vid=461c90fa-2a60-4510-baf8-a4d54a9f7c39","ios":"levelo://app?vid=461c90fa-2a60-4510-baf8-a4d54a9f7c39"},"vehicle_type_id":"4","last_reported":1753359814,"current_range_meters":14800,"station_id":"ce4bhb12rcd13ifvqel0","pricing_plan_id":"cebpf4jnsgd1na2vs0mg"},{"bike_id":"30d24d52-40c7-4682-8e34-1ec79fb59cd3","system_id":"levelo_inurba_marseille","lat":43.30908,"lon":5.36841,"is_reserved":false,"is_disabled":false,"rental_uris":{"android":"levelo://app?vid=30d24d52-40c7-4682-8e34-1ec79fb59cd3","ios":"levelo://app?vid=30d24d52-40c7-4682-8e34-1ec79fb59cd3"},"vehicle_type_id":"4","last_reported":1753359814,"current_range_meters":14800,"station_id":"ce4bgn92rcd13ifvqbvg","pricing_plan_id":"cebpf4jnsgd1na2vs0mg"},{"bike_id":"66b7c8f1-fa5c-4176-9a72-87f1afd7a6b4","system_id":"levelo_inurba_marseille","lat":43.26505,"lon":5.39531,"is_reserved":false,"is_disabled":false,"rental_uris":{"android":"levelo://app?vid=66b7c8f1-fa5c-4176-9a72-87f1afd7a6b4","ios":"levelo://app?vid=66b7c8f1-fa5c-4176-9a72-87f1afd7a6b4"},"vehicle_type_id":"4","last_reported":1753359814,"current_range_meters":14800,"station_id":"ce4bhi12rcd13ifvqfq0","pricing_plan_id":"cebpf4jnsgd1na2vs0mg"},{"bike_id":"76c65f84-3b49-4269-890c-8259fe6ade74","system_id":"levelo_inurba_marseille","lat":43.32371,"lon":5.3677,"is_reserved":false,"is_disabled":false,"rental_uris":{"android":"levelo://app?vid=76c65f84-3b49-4269-890c-8259fe6ade74","ios":"levelo://app?vid=76c65f84-3b49-4269-890c-8259fe6ade74"},"vehicle_type_id":"4","last_reported":1753359814,"current_range_meters":14800,"station_id":"ce4bhsh2rcd13ifvqi2g","pricing_plan_id":"cebpf4jnsgd1na2vs0mg"},{"bike_id":"9437277c-d886-4a0b-9535-11724bd91051","system_id":"levelo_inurba_marseille","lat":43.27081,"lon":5.42261,"is_reserved":false,"is_disabled":false,"rental_uris":{"android":"levelo://app?vid=9437277c-d886-4a0b-9535-11724bd91051","ios":"levelo://app?vid=9437277c-d886-4a0b-9535-11724bd91051"},"vehicle_type_id":"4","last_reported":1753359814,"current_range_meters":14800,"station_id":"ce4bhk92rcd13ifvqgb0","pricing_plan_id":"cebpf4jnsgd1na2vs0mg"},{"bike_id":"91aec608-65a2-46d7-8eae-82ca0d0c4724","system_id":"levelo_inurba_marseille","lat":43.295195,"lon":5.394021,"is_reserved":false,"is_disabled":false,"rental_uris":{"android":"levelo://app?vid=91aec608-65a2-46d7-8eae-82ca0d0c4724","ios":"levelo://app?vid=91aec608-65a2-46d7-8eae-82ca0d0c4724"},"vehicle_type_id":"4","last_reported":1753359814,"current_range_meters":15200,"station_id":"ce4bh292rcd13ifvqdf0","pricing_plan_id":"cebpf4jnsgd1na2vs0mg"},{"bike_id":"117dcbed-8614-4961-9fd2-1bb0f93da578","system_id":"levelo_inurba_marseille","lat":43.27439,"lon":5.39416,"is_reserved":false,"is_disabled":false,"rental_uris":{"android":"levelo://app?vid=117dcbed-8614-4961-9fd2-1bb0f93da578","ios":"levelo://app?vid=117dcbed-8614-4961-9fd2-1bb0f93da578"},"vehicle_type_id":"4","last_reported":1753359814,"current_range_meters":15200,"station_id":"ce4bhdp2rcd13ifvqf20","pricing_plan_id":"cebpf4jnsgd1na2vs0mg"},{"bike_id":"81df7d6f-832b-40f6-ad7c-3d213cee8b09","system_id":"levelo_inurba_marseille","lat":43.24062,"lon":5.37757,"is_reserved":false,"is_disabled":false,"rental_uris":{"android":"levelo://app?vid=81df7d6f-832b-40f6-ad7c-3d213cee8b09","ios":"levelo://app?vid=81df7d6f-832b-40f6-ad7c-3d213cee8b09"},"vehicle_type_id":"4","last_reported":1753359814,"current_range_meters":16000,"station_id":"ce4bhnp2rcd13ifvqgvg","pricing_plan_id":"cebpf4jnsgd1na2vs0mg"},{"bike_id":"3732a7aa-01b3-4684-9090-23b2e7de27f8","system_id":"levelo_inurba_marseille","lat":43.32482,"lon":5.36561,"is_reserved":false,"is_disabled":false,"rental_uris":{"android":"levelo://app?vid=3732a7aa-01b3-4684-9090-23b2e7de27f8","ios":"levelo://app?vid=3732a7aa-01b3-4684-9090-23b2e7de27f8"},"vehicle_type_id":"4","last_reported":1753359814,"current_range_meters":16000,"station_id":"ce4bhs12rcd13ifvqhvg","pricing_plan_id":"cebpf4jnsgd1na2vs0mg"},{"bike_id":"4b8efed3-9e53-47c8-bfa4-f1fb0beb03b1","system_id":"levelo_inurba_marseille","lat":43.29568,"lon":5.36707,"is_reserved":false,"is_disabled":false,"rental_uris":{"android":"levelo://app?vid=4b8efed3-9e53-47c8-bfa4-f1fb0beb03b1","ios":"levelo://app?vid=4b8efed3-9e53-47c8-bfa4-f1fb0beb03b1"},"vehicle_type_id":"4","last_reported":1753359814,"current_range_meters":16000,"station_id":"ce4bgph2rcd13ifvqc2g","pricing_plan_id":"cebpf4jnsgd1na2vs0mg"},{"bike_id":"a971b066-21a4-4400-a773-1d2d8e1d6b7c","system_id":"levelo_inurba_marseille","lat":43.31349,"lon":5.36731,"is_reserved":false,"is_disabled":false,"rental_uris":{"android":"levelo://app?vid=a971b066-21a4-4400-a773-1d2d8e1d6b7c","ios":"levelo://app?vid=a971b066-21a4-4400-a773-1d2d8e1d6b7c"},"vehicle_type_id":"4","last_reported":1753359814,"current_range_meters":16000,"station_id":"ce4bgr92rcd13ifvqc6g","pricing_plan_id":"cebpf4jnsgd1na2vs0mg"},{"bike_id":"eaea15aa-98ae-4f78-b37a-80e2e4524837","system_id":"levelo_inurba_marseille","lat":43.297916,"lon":5.381026,"is_reserved":false,"is_disabled":false,"rental_uris":{"android":"levelo://app?vid=eaea15aa-98ae-4f78-b37a-80e2e4524837","ios":"levelo://app?vid=eaea15aa-98ae-4f78-b37a-80e2e4524837"},"vehicle_type_id":"4","last_reported":1753359814,"current_range_meters":16000,"station_id":"","pricing_plan_id":"cebpf4jnsgd1na2vs0mg"},{"bike_id":"5f824980-27aa-4ef2-856d-b766bebead8a","system_id":"levelo_inurba_marseille","lat":43.22508,"lon":5.34775,"is_reserved":false,"is_disabled":false,"rental_uris":{"android":"levelo://app?vid=5f824980-27aa-4ef2-856d-b766bebead8a","ios":"levelo://app?vid=5f824980-27aa-4ef2-856d-b766bebead8a"},"vehicle_type_id":"4","last_reported":1753359814,"current_range_meters":16000,"station_id":"st_cvj5dfep6f1abm77gieg","pricing_plan_id":"cebpf4jnsgd1na2vs0mg"},{"bike_id":"049090a0-5a65-4a18-949f-04fbd94a901c","system_id":"levelo_inurba_marseille","lat":43.30309,"lon":5.368489,"is_reserved":false,"is_disabled":false,"rental_uris":{"android":"levelo://app?vid=049090a0-5a65-4a18-949f-04fbd94a901c","ios":"levelo://app?vid=049090a0-5a65-4a18-949f-04fbd94a901c"},"vehicle_type_id":"4","last_reported":1753359814,"current_range_meters":16000,"station_id":"ce4bgn92rcd13ifvqbvg","pricing_plan_id":"cebpf4jnsgd1na2vs0mg"},{"bike_id":"59ab0a16-45b7-4601-95a2-aa562d5214e4","system_id":"levelo_inurba_marseille","lat":43.26499,"lon":5.39533,"is_reserved":false,"is_disabled":false,"rental_uris":{"android":"levelo://app?vid=59ab0a16-45b7-4601-95a2-aa562d5214e4","ios":"levelo://app?vid=59ab0a16-45b7-4601-95a2-aa562d5214e4"},"vehicle_type_id":"4","last_reported":1753359814,"current_range_meters":16000,"station_id":"ce4bhi12rcd13ifvqfq0","pricing_plan_id":"cebpf4jnsgd1na2vs0mg"},{"bike_id":"35a86048-76dd-4de0-afb2-7da8772fad44","system_id":"levelo_inurba_marseille","lat":43.21533,"lon":5.34752,"is_reserved":false,"is_disabled":false,"rental_uris":{"android":"levelo://app?vid=35a86048-76dd-4de0-afb2-7da8772fad44","ios":"levelo://app?vid=35a86048-76dd-4de0-afb2-7da8772fad44"},"vehicle_type_id":"4","last_reported":1753359814,"current_range_meters":16000,"station_id":"","pricing_plan_id":"cebpf4jnsgd1na2vs0mg"},{"bike_id":"de993af1-8c6e-4fcd-aa11-3cbf2991a890","system_id":"levelo_inurba_marseille","lat":43.23198,"lon":5.35561,"is_reserved":false,"is_disabled":false,"rental_uris":{"android":"levelo://app?vid=de993af1-8c6e-4fcd-aa11-3cbf2991a890","ios":"levelo://app?vid=de993af1-8c6e-4fcd-aa11-3cbf2991a890"},"vehicle_type_id":"4","last_reported":1753359814,"current_range_meters":16000,"station_id":"ce4bhu92rcd13ifvqi70","pricing_plan_id":"cebpf4jnsgd1na2vs0mg"},{"bike_id":"d206759c-9f11-475e-a1e7-8daabbf11a1a","system_id":"levelo_inurba_marseille","lat":43.2649,"lon":5.39554,"is_reserved":false,"is_disabled":false,"rental_uris":{"android":"levelo://app?vid=d206759c-9f11-475e-a1e7-8daabbf11a1a","ios":"levelo://app?vid=d206759c-9f11-475e-a1e7-8daabbf11a1a"},"vehicle_type_id":"4","last_reported":1753359814,"current_range_meters":16000,"station_id":"ce4bhi12rcd13ifvqfq0","pricing_plan_id":"cebpf4jnsgd1na2vs0mg"},{"bike_id":"f7887d65-ccd9-450b-a7b8-6b6ff3617783","system_id":"levelo_inurba_marseille","lat":43.31187,"lon":5.38705,"is_reserved":false,"is_disabled":false,"rental_uris":{"android":"levelo://app?vid=f7887d65-ccd9-450b-a7b8-6b6ff3617783","ios":"levelo://app?vid=f7887d65-ccd9-450b-a7b8-6b6ff3617783"},"vehicle_type_id":"4","last_reported":1753359814,"current_range_meters":16000,"station_id":"ce4bgv12rcd13ifvqcp0","pricing_plan_id":"cebpf4jnsgd1na2vs0mg"},{"bike_id":"27b5acbc-b1fd-4385-9be5-bae49e9e4f6a","system_id":"levelo_inurba_marseille","lat":43.24804,"lon":5.37462,"is_reserved":false,"is_disabled":false,"rental_uris":{"android":"levelo://app?vid=27b5acbc-b1fd-4385-9be5-bae49e9e4f6a","ios":"levelo://app?vid=27b5acbc-b1fd-4385-9be5-bae49e9e4f6a"},"vehicle_type_id":"4","last_reported":1753359814,"current_range_meters":16000,"station_id":"ce4bhgh2rcd13ifvqfb0","pricing_plan_id":"cebpf4jnsgd1na2vs0mg"},{"bike_id":"fbda76a5-068e-4d90-b9ba-25721acd9298","system_id":"levelo_inurba_marseille","lat":43.29029,"lon":5.43981,"is_reserved":false,"is_disabled":false,"rental_uris":{"android":"levelo://app?vid=fbda76a5-068e-4d90-b9ba-25721acd9298","ios":"levelo://app?vid=fbda76a5-068e-4d90-b9ba-25721acd9298"},"vehicle_type_id":"4","last_reported":1753359814,"current_range_meters":16400,"station_id":"","pricing_plan_id":"cebpf4jnsgd1na2vs0mg"},{"bike_id":"b019dc5a-ef64-4ed3-a8c3-92e505fe3503","system_id":"levelo_inurba_marseille","lat":43.29579,"lon":5.38121,"is_reserved":false,"is_disabled":false,"rental_uris":{"android":"levelo://app?vid=b019dc5a-ef64-4ed3-a8c3-92e505fe3503","ios":"levelo://app?vid=b019dc5a-ef64-4ed3-a8c3-92e505fe3503"},"vehicle_type_id":"4","last_reported":1753359814,"current_range_meters":16400,"station_id":"ce4bgl12rcd13ifvqbo0","pricing_plan_id":"cebpf4jnsgd1na2vs0mg"},{"bike_id":"451c8b55-6be2-42fe-a6f2-5298fefb419a","system_id":"levelo_inurba_marseille","lat":43.28147,"lon":5.4265,"is_reserved":false,"is_disabled":false,"rental_uris":{"android":"levelo://app?vid=451c8b55-6be2-42fe-a6f2-5298fefb419a","ios":"levelo://app?vid=451c8b55-6be2-42fe-a6f2-5298fefb419a"},"vehicle_type_id":"4","last_reported":1753359814,"current_range_meters":16400,"station_id":"ce4bhnh2rcd13ifvqgug","pricing_plan_id":"cebpf4jnsgd1na2vs0mg"},{"bike_id":"819bb1b6-06bc-4eb2-b94e-4388d87b087b","system_id":"levelo_inurba_marseille","lat":43.297153,"lon":5.366069,"is_reserved":false,"is_disabled":false,"rental_uris":{"android":"levelo://app?vid=819bb1b6-06bc-4eb2-b94e-4388d87b087b","ios":"levelo://app?vid=819bb1b6-06bc-4eb2-b94e-4388d87b087b"},"vehicle_type_id":"4","last_reported":1753359814,"current_range_meters":16400,"station_id":"ce4bgn12rcd13ifvqbt0","pricing_plan_id":"cebpf4jnsgd1na2vs0mg"},{"bike_id":"21e2ca38-b71b-4619-8953-c81d3dc8acc8","system_id":"levelo_inurba_marseille","lat":43.29275,"lon":5.36841,"is_reserved":false,"is_disabled":false,"rental_uris":{"android":"levelo://app?vid=21e2ca38-b71b-4619-8953-c81d3dc8acc8","ios":"levelo://app?vid=21e2ca38-b71b-4619-8953-c81d3dc8acc8"},"vehicle_type_id":"4","last_reported":1753359814,"current_range_meters":16400,"station_id":"ce4bhbp2rcd13ifvqesg","pricing_plan_id":"cebpf4jnsgd1na2vs0mg"},{"bike_id":"f7f07796-c7c9-4a74-80e9-fb85744448b8","system_id":"levelo_inurba_marseille","lat":43.22921,"lon":5.35384,"is_reserved":false,"is_disabled":false,"rental_uris":{"android":"levelo://app?vid=f7f07796-c7c9-4a74-80e9-fb85744448b8","ios":"levelo://app?vid=f7f07796-c7c9-4a74-80e9-fb85744448b8"},"vehicle_type_id":"4","last_reported":1753359814,"current_range_meters":16400,"station_id":"cpo3532slgdg3j2ikp40","pricing_plan_id":"cebpf4jnsgd1na2vs0mg"},{"bike_id":"e401289a-83cf-4377-aa07-419b9b37079e","system_id":"levelo_inurba_marseille","lat":43.23068,"lon":5.355,"is_reserved":false,"is_disabled":false,"rental_uris":{"android":"levelo://app?vid=e401289a-83cf-4377-aa07-419b9b37079e","ios":"levelo://app?vid=e401289a-83cf-4377-aa07-419b9b37079e"},"vehicle_type_id":"4","last_reported":1753359814,"current_range_meters":16400,"station_id":"cpo3342slgdg3j2ifvpg","pricing_plan_id":"cebpf4jnsgd1na2vs0mg"},{"bike_id":"ebb123bb-75bf-4d19-a2cc-5323162c0d78","system_id":"levelo_inurba_marseille","lat":43.28273,"lon":5.35084,"is_reserved":false,"is_disabled":false,"rental_uris":{"android":"levelo://app?vid=ebb123bb-75bf-4d19-a2cc-5323162c0d78","ios":"levelo://app?vid=ebb123bb-75bf-4d19-a2cc-5323162c0d78"},"vehicle_type_id":"4","last_reported":1753359814,"current_range_meters":16400,"station_id":"ce4bhbp2rcd13ifvqerg","pricing_plan_id":"cebpf4jnsgd1na2vs0mg"},{"bike_id":"c6aa9af9-9a2d-4c74-a251-ede8df9515d7","system_id":"levelo_inurba_marseille","lat":43.312389,"lon":5.368731,"is_reserved":false,"is_disabled":false,"rental_uris":{"android":"levelo://app?vid=c6aa9af9-9a2d-4c74-a251-ede8df9515d7","ios":"levelo://app?vid=c6aa9af9-9a2d-4c74-a251-ede8df9515d7"},"vehicle_type_id":"4","last_reported":1753359814,"current_range_meters":16400,"station_id":"","pricing_plan_id":"cebpf4jnsgd1na2vs0mg"},{"bike_id":"55c34f11-7726-4f75-9264-c2784ef1e47e","system_id":"levelo_inurba_marseille","lat":43.24998,"lon":5.38927,"is_reserved":false,"is_disabled":false,"rental_uris":{"android":"levelo://app?vid=55c34f11-7726-4f75-9264-c2784ef1e47e","ios":"levelo://app?vid=55c34f11-7726-4f75-9264-c2784ef1e47e"},"vehicle_type_id":"4","last_reported":1753359814,"current_range_meters":16400,"station_id":"ce4bhgp2rcd13ifvqfd0","pricing_plan_id":"cebpf4jnsgd1na2vs0mg"},{"bike_id":"1f39eb17-34c7-4235-9069-0f68f613789c","system_id":"levelo_inurba_marseille","lat":43.26886,"lon":5.36871,"is_reserved":false,"is_disabled":false,"rental_uris":{"android":"levelo://app?vid=1f39eb17-34c7-4235-9069-0f68f613789c","ios":"levelo://app?vid=1f39eb17-34c7-4235-9069-0f68f613789c"},"vehicle_type_id":"4","last_reported":1753359814,"current_range_meters":16800,"station_id":"","pricing_plan_id":"cebpf4jnsgd1na2vs0mg"},{"bike_id":"72395ef7-f2d0-4336-a74d-d88b6ab9722b","system_id":"levelo_inurba_marseille","lat":43.2758,"lon":5.36071,"is_reserved":false,"is_disabled":false,"rental_uris":{"android":"levelo://app?vid=72395ef7-f2d0-4336-a74d-d88b6ab9722b","ios":"levelo://app?vid=72395ef7-f2d0-4336-a74d-d88b6ab9722b"},"vehicle_type_id":"4","last_reported":1753359814,"current_range_meters":16800,"station_id":"ce4bgj92rcd13ifvqbe0","pricing_plan_id":"cebpf4jnsgd1na2vs0mg"},{"bike_id":"cd46d7a3-2aff-40e0-9e50-73919cfa0e11","system_id":"levelo_inurba_marseille","lat":43.27369,"lon":5.36257,"is_reserved":false,"is_disabled":false,"rental_uris":{"android":"levelo://app?vid=cd46d7a3-2aff-40e0-9e50-73919cfa0e11","ios":"levelo://app?vid=cd46d7a3-2aff-40e0-9e50-73919cfa0e11"},"vehicle_type_id":"4","last_reported":1753359814,"current_range_meters":16800,"station_id":"ce4bhbh2rcd13ifvqeo0","pricing_plan_id":"cebpf4jnsgd1na2vs0mg"},{"bike_id":"33ce2ff8-7e21-4229-9288-7ac129269db8","system_id":"levelo_inurba_marseille","lat":43.321,"lon":5.36759,"is_reserved":false,"is_disabled":false,"rental_uris":{"android":"levelo://app?vid=33ce2ff8-7e21-4229-9288-7ac129269db8","ios":"levelo://app?vid=33ce2ff8-7e21-4229-9288-7ac129269db8"},"vehicle_type_id":"4","last_reported":1753359814,"current_range_meters":16800,"station_id":"ce4bhrh2rcd13ifvqhug","pricing_plan_id":"cebpf4jnsgd1na2vs0mg"},{"bike_id":"f6d45704-875b-4204-b745-8e5786541bb6","system_id":"levelo_inurba_marseille","lat":43.30182,"lon":5.36614,"is_reserved":false,"is_disabled":false,"rental_uris":{"android":"levelo://app?vid=f6d45704-875b-4204-b745-8e5786541bb6","ios":"levelo://app?vid=f6d45704-875b-4204-b745-8e5786541bb6"},"vehicle_type_id":"4","last_reported":1753359814,"current_range_meters":16800,"station_id":"ce4bgrh2rcd13ifvqc8g","pricing_plan_id":"cebpf4jnsgd1na2vs0mg"},{"bike_id":"0aa2d153-96d1-4d69-83b8-d39119aa9dd5","system_id":"levelo_inurba_marseille","lat":43.33523,"lon":5.36229,"is_reserved":false,"is_disabled":false,"rental_uris":{"android":"levelo://app?vid=0aa2d153-96d1-4d69-83b8-d39119aa9dd5","ios":"levelo://app?vid=0aa2d153-96d1-4d69-83b8-d39119aa9dd5"},"vehicle_type_id":"4","last_reported":1753359814,"current_range_meters":16800,"station_id":"","pricing_plan_id":"cebpf4jnsgd1na2vs0mg"},{"bike_id":"ad2b3f28-365d-46e3-be09-f15478484c5d","system_id":"levelo_inurba_marseille","lat":43.29958,"lon":5.41324,"is_reserved":false,"is_disabled":false,"rental_uris":{"android":"levelo://app?vid=ad2b3f28-365d-46e3-be09-f15478484c5d","ios":"levelo://app?vid=ad2b3f28-365d-46e3-be09-f15478484c5d"},"vehicle_type_id":"4","last_reported":1753359814,"current_range_meters":16800,"station_id":"ce4bhp12rcd13ifvqh9g","pricing_plan_id":"cebpf4jnsgd1na2vs0mg"},{"bike_id":"f7fd22de-3bea-4ca6-b2fe-24c79f63c756","system_id":"levelo_inurba_marseille","lat":43.24391,"lon":5.37062,"is_reserved":false,"is_disabled":false,"rental_uris":{"android":"levelo://app?vid=f7fd22de-3bea-4ca6-b2fe-24c79f63c756","ios":"levelo://app?vid=f7fd22de-3bea-4ca6-b2fe-24c79f63c756"},"vehicle_type_id":"4","last_reported":1753359814,"current_range_meters":16800,"station_id":"ce4bhhh2rcd13ifvqfk0","pricing_plan_id":"cebpf4jnsgd1na2vs0mg"},{"bike_id":"9951dd0f-c5ee-4fad-9d0e-bde8754fcbd6","system_id":"levelo_inurba_marseille","lat":43.28665,"lon":5.36349,"is_reserved":false,"is_disabled":false,"rental_uris":{"android":"levelo://app?vid=9951dd0f-c5ee-4fad-9d0e-bde8754fcbd6","ios":"levelo://app?vid=9951dd0f-c5ee-4fad-9d0e-bde8754fcbd6"},"vehicle_type_id":"4","last_reported":1753359814,"current_range_meters":16400,"station_id":"ce4bhah2rcd13ifvqej0","pricing_plan_id":"cebpf4jnsgd1na2vs0mg"},{"bike_id":"630f322e-ea39-413c-8ed4-096ccef376bc","system_id":"levelo_inurba_marseille","lat":43.29613,"lon":5.36941,"is_reserved":false,"is_disabled":false,"rental_uris":{"android":"levelo://app?vid=630f322e-ea39-413c-8ed4-096ccef376bc","ios":"levelo://app?vid=630f322e-ea39-413c-8ed4-096ccef376bc"},"vehicle_type_id":"4","last_reported":1753359814,"current_range_meters":16800,"station_id":"","pricing_plan_id":"cebpf4jnsgd1na2vs0mg"},{"bike_id":"df52031d-f6ba-4af3-a318-cddaa787b97a","system_id":"levelo_inurba_marseille","lat":43.27064,"lon":5.40273,"is_reserved":false,"is_disabled":false,"rental_uris":{"android":"levelo://app?vid=df52031d-f6ba-4af3-a318-cddaa787b97a","ios":"levelo://app?vid=df52031d-f6ba-4af3-a318-cddaa787b97a"},"vehicle_type_id":"4","last_reported":1753359814,"current_range_meters":16800,"station_id":"ce4bhk92rcd13ifvqgc0","pricing_plan_id":"cebpf4jnsgd1na2vs0mg"},{"bike_id":"f2ca3887-7e82-498b-8c49-e80cd18a3051","system_id":"levelo_inurba_marseille","lat":43.239633,"lon":5.366388,"is_reserved":false,"is_disabled":false,"rental_uris":{"android":"levelo://app?vid=f2ca3887-7e82-498b-8c49-e80cd18a3051","ios":"levelo://app?vid=f2ca3887-7e82-498b-8c49-e80cd18a3051"},"vehicle_type_id":"4","last_reported":1753359814,"current_range_meters":17200,"station_id":"ce4bhi12rcd13ifvqfp0","pricing_plan_id":"cebpf4jnsgd1na2vs0mg"},{"bike_id":"0f853751-4264-4f28-a6f5-6e22f8e1306a","system_id":"levelo_inurba_marseille","lat":43.2668,"lon":5.38252,"is_reserved":false,"is_disabled":false,"rental_uris":{"android":"levelo://app?vid=0f853751-4264-4f28-a6f5-6e22f8e1306a","ios":"levelo://app?vid=0f853751-4264-4f28-a6f5-6e22f8e1306a"},"vehicle_type_id":"4","last_reported":1753359814,"current_range_meters":17200,"station_id":"ce4bhg92rcd13ifvqf90","pricing_plan_id":"cebpf4jnsgd1na2vs0mg"},{"bike_id":"fca1ca0f-236e-4c52-9204-2d9a1417d423","system_id":"levelo_inurba_marseille","lat":43.2893,"lon":5.36641,"is_reserved":false,"is_disabled":false,"rental_uris":{"android":"levelo://app?vid=fca1ca0f-236e-4c52-9204-2d9a1417d423","ios":"levelo://app?vid=fca1ca0f-236e-4c52-9204-2d9a1417d423"},"vehicle_type_id":"4","last_reported":1753359814,"current_range_meters":17200,"station_id":"ce4bhap2rcd13ifvqek0","pricing_plan_id":"cebpf4jnsgd1na2vs0mg"},{"bike_id":"8bf2041f-a165-47bf-84f1-41526695fbf0","system_id":"levelo_inurba_marseille","lat":43.24165,"lon":5.36404,"is_reserved":false,"is_disabled":false,"rental_uris":{"android":"levelo://app?vid=8bf2041f-a165-47bf-84f1-41526695fbf0","ios":"levelo://app?vid=8bf2041f-a165-47bf-84f1-41526695fbf0"},"vehicle_type_id":"4","last_reported":1753359814,"current_range_meters":17200,"station_id":"cpo36qri1sfpv3e86is0","pricing_plan_id":"cebpf4jnsgd1na2vs0mg"},{"bike_id":"be1112aa-92c6-4f71-9978-f794b04ae2fe","system_id":"levelo_inurba_marseille","lat":43.27843,"lon":5.40713,"is_reserved":false,"is_disabled":false,"rental_uris":{"android":"levelo://app?vid=be1112aa-92c6-4f71-9978-f794b04ae2fe","ios":"levelo://app?vid=be1112aa-92c6-4f71-9978-f794b04ae2fe"},"vehicle_type_id":"4","last_reported":1753359814,"current_range_meters":17200,"station_id":"ce4bhnh2rcd13ifvqgtg","pricing_plan_id":"cebpf4jnsgd1na2vs0mg"},{"bike_id":"baa679c7-1b6d-4676-96c3-960ef9b813e3","system_id":"levelo_inurba_marseille","lat":43.293663,"lon":5.378435,"is_reserved":false,"is_disabled":false,"rental_uris":{"android":"levelo://app?vid=baa679c7-1b6d-4676-96c3-960ef9b813e3","ios":"levelo://app?vid=baa679c7-1b6d-4676-96c3-960ef9b813e3"},"vehicle_type_id":"4","last_reported":1753359814,"current_range_meters":17200,"station_id":"ce4bgjh2rcd13ifvqbf0","pricing_plan_id":"cebpf4jnsgd1na2vs0mg"},{"bike_id":"784eeebd-2893-4f27-84ae-c797089b4166","system_id":"levelo_inurba_marseille","lat":43.22503,"lon":5.34783,"is_reserved":false,"is_disabled":false,"rental_uris":{"android":"levelo://app?vid=784eeebd-2893-4f27-84ae-c797089b4166","ios":"levelo://app?vid=784eeebd-2893-4f27-84ae-c797089b4166"},"vehicle_type_id":"4","last_reported":1753359814,"current_range_meters":17200,"station_id":"st_cvj5dfep6f1abm77gieg","pricing_plan_id":"cebpf4jnsgd1na2vs0mg"},{"bike_id":"481351de-e3d5-4a6f-aa67-c1762e7ed223","system_id":"levelo_inurba_marseille","lat":43.27077,"lon":5.42275,"is_reserved":false,"is_disabled":false,"rental_uris":{"android":"levelo://app?vid=481351de-e3d5-4a6f-aa67-c1762e7ed223","ios":"levelo://app?vid=481351de-e3d5-4a6f-aa67-c1762e7ed223"},"vehicle_type_id":"4","last_reported":1753359814,"current_range_meters":17200,"station_id":"ce4bhk92rcd13ifvqgb0","pricing_plan_id":"cebpf4jnsgd1na2vs0mg"},{"bike_id":"d2c1d56d-6a3a-4ae3-b7ab-84022ad7ad84","system_id":"levelo_inurba_marseille","lat":43.29827,"lon":5.37614,"is_reserved":false,"is_disabled":false,"rental_uris":{"android":"levelo://app?vid=d2c1d56d-6a3a-4ae3-b7ab-84022ad7ad84","ios":"levelo://app?vid=d2c1d56d-6a3a-4ae3-b7ab-84022ad7ad84"},"vehicle_type_id":"4","last_reported":1753359814,"current_range_meters":17200,"station_id":"","pricing_plan_id":"cebpf4jnsgd1na2vs0mg"},{"bike_id":"004caa60-5416-45ed-af27-37525982f43c","system_id":"levelo_inurba_marseille","lat":43.2731,"lon":5.39071,"is_reserved":false,"is_disabled":false,"rental_uris":{"android":"levelo://app?vid=004caa60-5416-45ed-af27-37525982f43c","ios":"levelo://app?vid=004caa60-5416-45ed-af27-37525982f43c"},"vehicle_type_id":"4","last_reported":1753359814,"current_range_meters":17200,"station_id":"ce4bhgp2rcd13ifvqfe0","pricing_plan_id":"cebpf4jnsgd1na2vs0mg"},{"bike_id":"0a7e2862-d8ec-4c77-89d9-cfcdd51f8d75","system_id":"levelo_inurba_marseille","lat":43.31361,"lon":5.37573,"is_reserved":false,"is_disabled":false,"rental_uris":{"android":"levelo://app?vid=0a7e2862-d8ec-4c77-89d9-cfcdd51f8d75","ios":"levelo://app?vid=0a7e2862-d8ec-4c77-89d9-cfcdd51f8d75"},"vehicle_type_id":"4","last_reported":1753359814,"current_range_meters":17200,"station_id":"","pricing_plan_id":"cebpf4jnsgd1na2vs0mg"},{"bike_id":"9e71a50e-df43-4a48-bc37-13460235be7b","system_id":"levelo_inurba_marseille","lat":43.24166,"lon":5.36411,"is_reserved":false,"is_disabled":false,"rental_uris":{"android":"levelo://app?vid=9e71a50e-df43-4a48-bc37-13460235be7b","ios":"levelo://app?vid=9e71a50e-df43-4a48-bc37-13460235be7b"},"vehicle_type_id":"4","last_reported":1753359814,"current_range_meters":17200,"station_id":"cpo36qri1sfpv3e86is0","pricing_plan_id":"cebpf4jnsgd1na2vs0mg"},{"bike_id":"922e3d66-ae7e-4439-a5cf-23b2217d76cd","system_id":"levelo_inurba_marseille","lat":43.2593,"lon":5.40883,"is_reserved":false,"is_disabled":false,"rental_uris":{"android":"levelo://app?vid=922e3d66-ae7e-4439-a5cf-23b2217d76cd","ios":"levelo://app?vid=922e3d66-ae7e-4439-a5cf-23b2217d76cd"},"vehicle_type_id":"4","last_reported":1753359814,"current_range_meters":17200,"station_id":"ce4bhm92rcd13ifvqglg","pricing_plan_id":"cebpf4jnsgd1na2vs0mg"},{"bike_id":"b63b11be-5ecd-48c8-a48d-2b0558b136c7","system_id":"levelo_inurba_marseille","lat":43.2921,"lon":5.3604,"is_reserved":false,"is_disabled":false,"rental_uris":{"android":"levelo://app?vid=b63b11be-5ecd-48c8-a48d-2b0558b136c7","ios":"levelo://app?vid=b63b11be-5ecd-48c8-a48d-2b0558b136c7"},"vehicle_type_id":"4","last_reported":1753359814,"current_range_meters":17200,"station_id":"ce4bhbh2rcd13ifvqeqg","pricing_plan_id":"cebpf4jnsgd1na2vs0mg"},{"bike_id":"cf776233-7766-4109-aadc-a0d3c334d400","system_id":"levelo_inurba_marseille","lat":43.24063,"lon":5.37758,"is_reserved":false,"is_disabled":false,"rental_uris":{"android":"levelo://app?vid=cf776233-7766-4109-aadc-a0d3c334d400","ios":"levelo://app?vid=cf776233-7766-4109-aadc-a0d3c334d400"},"vehicle_type_id":"4","last_reported":1753359814,"current_range_meters":17600,"station_id":"ce4bhnp2rcd13ifvqgvg","pricing_plan_id":"cebpf4jnsgd1na2vs0mg"},{"bike_id":"0c521b94-f5ab-4996-b214-e39582733139","system_id":"levelo_inurba_marseille","lat":43.30156,"lon":5.3806,"is_reserved":false,"is_disabled":false,"rental_uris":{"android":"levelo://app?vid=0c521b94-f5ab-4996-b214-e39582733139","ios":"levelo://app?vid=0c521b94-f5ab-4996-b214-e39582733139"},"vehicle_type_id":"4","last_reported":1753359814,"current_range_meters":17600,"station_id":"ce4bgjp2rcd13ifvqbh0","pricing_plan_id":"cebpf4jnsgd1na2vs0mg"},{"bike_id":"cce97cc9-8e50-4658-b524-40f46b8ca52d","system_id":"levelo_inurba_marseille","lat":43.32295,"lon":5.38272,"is_reserved":false,"is_disabled":false,"rental_uris":{"android":"levelo://app?vid=cce97cc9-8e50-4658-b524-40f46b8ca52d","ios":"levelo://app?vid=cce97cc9-8e50-4658-b524-40f46b8ca52d"},"vehicle_type_id":"4","last_reported":1753359814,"current_range_meters":17600,"station_id":"ce4bhr12rcd13ifvqhqg","pricing_plan_id":"cebpf4jnsgd1na2vs0mg"},{"bike_id":"f78b69a5-7f99-469b-9809-db12b867eb2e","system_id":"levelo_inurba_marseille","lat":43.24163,"lon":5.36407,"is_reserved":false,"is_disabled":false,"rental_uris":{"android":"levelo://app?vid=f78b69a5-7f99-469b-9809-db12b867eb2e","ios":"levelo://app?vid=f78b69a5-7f99-469b-9809-db12b867eb2e"},"vehicle_type_id":"4","last_reported":1753359814,"current_range_meters":18000,"station_id":"cpo36qri1sfpv3e86is0","pricing_plan_id":"cebpf4jnsgd1na2vs0mg"},{"bike_id":"0628fd4d-24b2-4e30-81f5-ada4c64c1d06","system_id":"levelo_inurba_marseille","lat":43.30463,"lon":5.37915,"is_reserved":false,"is_disabled":false,"rental_uris":{"android":"levelo://app?vid=0628fd4d-24b2-4e30-81f5-ada4c64c1d06","ios":"levelo://app?vid=0628fd4d-24b2-4e30-81f5-ada4c64c1d06"},"vehicle_type_id":"4","last_reported":1753359814,"current_range_meters":17600,"station_id":"ce4bgup2rcd13ifvqcn0","pricing_plan_id":"cebpf4jnsgd1na2vs0mg"},{"bike_id":"d8ab8225-ebfc-48f1-9981-f15e3b9960ea","system_id":"levelo_inurba_marseille","lat":43.22926,"lon":5.35373,"is_reserved":false,"is_disabled":false,"rental_uris":{"android":"levelo://app?vid=d8ab8225-ebfc-48f1-9981-f15e3b9960ea","ios":"levelo://app?vid=d8ab8225-ebfc-48f1-9981-f15e3b9960ea"},"vehicle_type_id":"4","last_reported":1753359814,"current_range_meters":17600,"station_id":"cpo3532slgdg3j2ikp40","pricing_plan_id":"cebpf4jnsgd1na2vs0mg"},{"bike_id":"bfddca7c-3825-4dd2-81c9-335257a69f7c","system_id":"levelo_inurba_marseille","lat":43.29581,"lon":5.36737,"is_reserved":false,"is_disabled":false,"rental_uris":{"android":"levelo://app?vid=bfddca7c-3825-4dd2-81c9-335257a69f7c","ios":"levelo://app?vid=bfddca7c-3825-4dd2-81c9-335257a69f7c"},"vehicle_type_id":"4","last_reported":1753359814,"current_range_meters":18000,"station_id":"ce4bgph2rcd13ifvqc2g","pricing_plan_id":"cebpf4jnsgd1na2vs0mg"},{"bike_id":"b45149a7-0c00-46b8-8aae-a55b7b8f0b97","system_id":"levelo_inurba_marseille","lat":43.24391,"lon":5.37058,"is_reserved":false,"is_disabled":false,"rental_uris":{"android":"levelo://app?vid=b45149a7-0c00-46b8-8aae-a55b7b8f0b97","ios":"levelo://app?vid=b45149a7-0c00-46b8-8aae-a55b7b8f0b97"},"vehicle_type_id":"4","last_reported":1753359814,"current_range_meters":18000,"station_id":"ce4bhhh2rcd13ifvqfk0","pricing_plan_id":"cebpf4jnsgd1na2vs0mg"},{"bike_id":"ce193c8e-90e0-4599-95e2-d02b7d163b03","system_id":"levelo_inurba_marseille","lat":43.24065,"lon":5.37737,"is_reserved":false,"is_disabled":false,"rental_uris":{"android":"levelo://app?vid=ce193c8e-90e0-4599-95e2-d02b7d163b03","ios":"levelo://app?vid=ce193c8e-90e0-4599-95e2-d02b7d163b03"},"vehicle_type_id":"4","last_reported":1753359814,"current_range_meters":18000,"station_id":"ce4bhnp2rcd13ifvqgvg","pricing_plan_id":"cebpf4jnsgd1na2vs0mg"},{"bike_id":"ed4b2c41-0c97-4f55-9b50-5affa45973e5","system_id":"levelo_inurba_marseille","lat":43.24399,"lon":5.3706,"is_reserved":false,"is_disabled":false,"rental_uris":{"android":"levelo://app?vid=ed4b2c41-0c97-4f55-9b50-5affa45973e5","ios":"levelo://app?vid=ed4b2c41-0c97-4f55-9b50-5affa45973e5"},"vehicle_type_id":"4","last_reported":1753359814,"current_range_meters":18000,"station_id":"ce4bhhh2rcd13ifvqfk0","pricing_plan_id":"cebpf4jnsgd1na2vs0mg"},{"bike_id":"49f093e1-fd31-4e12-ba59-89f571e19d2c","system_id":"levelo_inurba_marseille","lat":43.29172,"lon":5.37142,"is_reserved":false,"is_disabled":false,"rental_uris":{"android":"levelo://app?vid=49f093e1-fd31-4e12-ba59-89f571e19d2c","ios":"levelo://app?vid=49f093e1-fd31-4e12-ba59-89f571e19d2c"},"vehicle_type_id":"4","last_reported":1753359814,"current_range_meters":18000,"station_id":"ce4bha92rcd13ifvqeh0","pricing_plan_id":"cebpf4jnsgd1na2vs0mg"},{"bike_id":"0aca8709-ed97-4e7c-96dc-d1aaa82865d8","system_id":"levelo_inurba_marseille","lat":43.30537,"lon":5.36554,"is_reserved":false,"is_disabled":false,"rental_uris":{"android":"levelo://app?vid=0aca8709-ed97-4e7c-96dc-d1aaa82865d8","ios":"levelo://app?vid=0aca8709-ed97-4e7c-96dc-d1aaa82865d8"},"vehicle_type_id":"4","last_reported":1753359814,"current_range_meters":18000,"station_id":"ce4bgs12rcd13ifvqcag","pricing_plan_id":"cebpf4jnsgd1na2vs0mg"},{"bike_id":"261d4bb0-7bb9-4c80-93f3-cd6f68b7285e","system_id":"levelo_inurba_marseille","lat":43.31495,"lon":5.36933,"is_reserved":false,"is_disabled":false,"rental_uris":{"android":"levelo://app?vid=261d4bb0-7bb9-4c80-93f3-cd6f68b7285e","ios":"levelo://app?vid=261d4bb0-7bb9-4c80-93f3-cd6f68b7285e"},"vehicle_type_id":"4","last_reported":1753359814,"current_range_meters":18000,"station_id":"","pricing_plan_id":"cebpf4jnsgd1na2vs0mg"},{"bike_id":"22832dd9-6f40-41f0-84f7-20d5b045fc09","system_id":"levelo_inurba_marseille","lat":43.303776,"lon":5.425199,"is_reserved":false,"is_disabled":false,"rental_uris":{"android":"levelo://app?vid=22832dd9-6f40-41f0-84f7-20d5b045fc09","ios":"levelo://app?vid=22832dd9-6f40-41f0-84f7-20d5b045fc09"},"vehicle_type_id":"4","last_reported":1753359814,"current_range_meters":18000,"station_id":"ce4bhoh2rcd13ifvqh6g","pricing_plan_id":"cebpf4jnsgd1na2vs0mg"},{"bike_id":"3af470b2-022a-46ae-a380-49b49e6a3c69","system_id":"levelo_inurba_marseille","lat":43.30452,"lon":5.37929,"is_reserved":false,"is_disabled":false,"rental_uris":{"android":"levelo://app?vid=3af470b2-022a-46ae-a380-49b49e6a3c69","ios":"levelo://app?vid=3af470b2-022a-46ae-a380-49b49e6a3c69"},"vehicle_type_id":"4","last_reported":1753359814,"current_range_meters":18000,"station_id":"ce4bgup2rcd13ifvqcn0","pricing_plan_id":"cebpf4jnsgd1na2vs0mg"},{"bike_id":"a5f26410-e494-485c-942c-13c32ef34607","system_id":"levelo_inurba_marseille","lat":43.291,"lon":5.38136,"is_reserved":false,"is_disabled":false,"rental_uris":{"android":"levelo://app?vid=a5f26410-e494-485c-942c-13c32ef34607","ios":"levelo://app?vid=a5f26410-e494-485c-942c-13c32ef34607"},"vehicle_type_id":"4","last_reported":1753359814,"current_range_meters":18000,"station_id":"ce4bh512rcd13ifvqe2g","pricing_plan_id":"cebpf4jnsgd1na2vs0mg"},{"bike_id":"ad25e224-b15c-4949-92a3-53289b1bd1fb","system_id":"levelo_inurba_marseille","lat":43.2875,"lon":5.38498,"is_reserved":false,"is_disabled":false,"rental_uris":{"android":"levelo://app?vid=ad25e224-b15c-4949-92a3-53289b1bd1fb","ios":"levelo://app?vid=ad25e224-b15c-4949-92a3-53289b1bd1fb"},"vehicle_type_id":"4","last_reported":1753359814,"current_range_meters":18000,"station_id":"","pricing_plan_id":"cebpf4jnsgd1na2vs0mg"},{"bike_id":"bf7d1b61-ac9b-4b95-98cd-1e59bc7507e1","system_id":"levelo_inurba_marseille","lat":43.27912,"lon":5.38007,"is_reserved":false,"is_disabled":false,"rental_uris":{"android":"levelo://app?vid=bf7d1b61-ac9b-4b95-98cd-1e59bc7507e1","ios":"levelo://app?vid=bf7d1b61-ac9b-4b95-98cd-1e59bc7507e1"},"vehicle_type_id":"4","last_reported":1753359814,"current_range_meters":18000,"station_id":"ce4bhf92rcd13ifvqf50","pricing_plan_id":"cebpf4jnsgd1na2vs0mg"},{"bike_id":"74054fd4-1ac3-4c18-b1e8-192aa565524c","system_id":"levelo_inurba_marseille","lat":43.2842,"lon":5.34973,"is_reserved":false,"is_disabled":false,"rental_uris":{"android":"levelo://app?vid=74054fd4-1ac3-4c18-b1e8-192aa565524c","ios":"levelo://app?vid=74054fd4-1ac3-4c18-b1e8-192aa565524c"},"vehicle_type_id":"4","last_reported":1753359814,"current_range_meters":18800,"station_id":"ce4bhbh2rcd13ifvqepg","pricing_plan_id":"cebpf4jnsgd1na2vs0mg"},{"bike_id":"6d162757-3924-4476-9818-84d10836cd88","system_id":"levelo_inurba_marseille","lat":43.31235,"lon":5.36882,"is_reserved":false,"is_disabled":false,"rental_uris":{"android":"levelo://app?vid=6d162757-3924-4476-9818-84d10836cd88","ios":"levelo://app?vid=6d162757-3924-4476-9818-84d10836cd88"},"vehicle_type_id":"4","last_reported":1753359814,"current_range_meters":18800,"station_id":"ce4bgl92rcd13ifvqbq0","pricing_plan_id":"cebpf4jnsgd1na2vs0mg"},{"bike_id":"b0a60fe1-1353-481b-91e3-03996d1455e6","system_id":"levelo_inurba_marseille","lat":43.3194,"lon":5.37439,"is_reserved":false,"is_disabled":false,"rental_uris":{"android":"levelo://app?vid=b0a60fe1-1353-481b-91e3-03996d1455e6","ios":"levelo://app?vid=b0a60fe1-1353-481b-91e3-03996d1455e6"},"vehicle_type_id":"4","last_reported":1753359814,"current_range_meters":18800,"station_id":"","pricing_plan_id":"cebpf4jnsgd1na2vs0mg"},{"bike_id":"afd3e666-bb85-4c36-8470-0bbf81923d6f","system_id":"levelo_inurba_marseille","lat":43.25111,"lon":5.4032,"is_reserved":false,"is_disabled":false,"rental_uris":{"android":"levelo://app?vid=afd3e666-bb85-4c36-8470-0bbf81923d6f","ios":"levelo://app?vid=afd3e666-bb85-4c36-8470-0bbf81923d6f"},"vehicle_type_id":"4","last_reported":1753359814,"current_range_meters":18800,"station_id":"ce4bhlh2rcd13ifvqgig","pricing_plan_id":"cebpf4jnsgd1na2vs0mg"},{"bike_id":"2b5a027c-c3b7-44ed-b6a8-1015cd4eb026","system_id":"levelo_inurba_marseille","lat":43.2978,"lon":5.37099,"is_reserved":false,"is_disabled":false,"rental_uris":{"android":"levelo://app?vid=2b5a027c-c3b7-44ed-b6a8-1015cd4eb026","ios":"levelo://app?vid=2b5a027c-c3b7-44ed-b6a8-1015cd4eb026"},"vehicle_type_id":"4","last_reported":1753359814,"current_range_meters":18800,"station_id":"ce4bgop2rcd13ifvqc1g","pricing_plan_id":"cebpf4jnsgd1na2vs0mg"},{"bike_id":"1190a6a6-e0cc-4ff3-b3e2-3e7074b6085c","system_id":"levelo_inurba_marseille","lat":43.30908,"lon":5.36861,"is_reserved":false,"is_disabled":false,"rental_uris":{"android":"levelo://app?vid=1190a6a6-e0cc-4ff3-b3e2-3e7074b6085c","ios":"levelo://app?vid=1190a6a6-e0cc-4ff3-b3e2-3e7074b6085c"},"vehicle_type_id":"4","last_reported":1753359814,"current_range_meters":18800,"station_id":"ce4bgn92rcd13ifvqbvg","pricing_plan_id":"cebpf4jnsgd1na2vs0mg"},{"bike_id":"cbf0af31-9bf9-4360-8938-fc157653ee92","system_id":"levelo_inurba_marseille","lat":43.27191,"lon":5.39191,"is_reserved":false,"is_disabled":false,"rental_uris":{"android":"levelo://app?vid=cbf0af31-9bf9-4360-8938-fc157653ee92","ios":"levelo://app?vid=cbf0af31-9bf9-4360-8938-fc157653ee92"},"vehicle_type_id":"4","last_reported":1753359814,"current_range_meters":18800,"station_id":"ce4bhhp2rcd13ifvqfm0","pricing_plan_id":"cebpf4jnsgd1na2vs0mg"},{"bike_id":"869c5918-4a91-44b4-8d03-e9416913521a","system_id":"levelo_inurba_marseille","lat":43.2844,"lon":5.392,"is_reserved":false,"is_disabled":false,"rental_uris":{"android":"levelo://app?vid=869c5918-4a91-44b4-8d03-e9416913521a","ios":"levelo://app?vid=869c5918-4a91-44b4-8d03-e9416913521a"},"vehicle_type_id":"4","last_reported":1753359814,"current_range_meters":18800,"station_id":"ce4bhoh2rcd13ifvqh5g","pricing_plan_id":"cebpf4jnsgd1na2vs0mg"},{"bike_id":"562cda51-6e5d-41ef-8ee5-4bc2adad5275","system_id":"levelo_inurba_marseille","lat":43.31207,"lon":5.36859,"is_reserved":false,"is_disabled":false,"rental_uris":{"android":"levelo://app?vid=562cda51-6e5d-41ef-8ee5-4bc2adad5275","ios":"levelo://app?vid=562cda51-6e5d-41ef-8ee5-4bc2adad5275"},"vehicle_type_id":"4","last_reported":1753359814,"current_range_meters":19200,"station_id":"ce4bgl92rcd13ifvqbq0","pricing_plan_id":"cebpf4jnsgd1na2vs0mg"},{"bike_id":"975621b1-02b2-43ba-95e3-5e639ac7a8db","system_id":"levelo_inurba_marseille","lat":43.28156,"lon":5.426484,"is_reserved":false,"is_disabled":false,"rental_uris":{"android":"levelo://app?vid=975621b1-02b2-43ba-95e3-5e639ac7a8db","ios":"levelo://app?vid=975621b1-02b2-43ba-95e3-5e639ac7a8db"},"vehicle_type_id":"4","last_reported":1753359814,"current_range_meters":19200,"station_id":"ce4bhnh2rcd13ifvqgug","pricing_plan_id":"cebpf4jnsgd1na2vs0mg"},{"bike_id":"184dd696-a175-47ac-8af1-548fdbc31847","system_id":"levelo_inurba_marseille","lat":43.30565,"lon":5.36528,"is_reserved":false,"is_disabled":false,"rental_uris":{"android":"levelo://app?vid=184dd696-a175-47ac-8af1-548fdbc31847","ios":"levelo://app?vid=184dd696-a175-47ac-8af1-548fdbc31847"},"vehicle_type_id":"4","last_reported":1753359814,"current_range_meters":19200,"station_id":"ce4bgs12rcd13ifvqcag","pricing_plan_id":"cebpf4jnsgd1na2vs0mg"},{"bike_id":"21bb3fef-81ef-46bb-a48d-d85402757c94","system_id":"levelo_inurba_marseille","lat":43.25435,"lon":5.37977,"is_reserved":false,"is_disabled":false,"rental_uris":{"android":"levelo://app?vid=21bb3fef-81ef-46bb-a48d-d85402757c94","ios":"levelo://app?vid=21bb3fef-81ef-46bb-a48d-d85402757c94"},"vehicle_type_id":"4","last_reported":1753359814,"current_range_meters":19200,"station_id":"","pricing_plan_id":"cebpf4jnsgd1na2vs0mg"},{"bike_id":"45a12449-2e0c-4156-afd1-8736f20f0adb","system_id":"levelo_inurba_marseille","lat":43.29567,"lon":5.37493,"is_reserved":false,"is_disabled":false,"rental_uris":{"android":"levelo://app?vid=45a12449-2e0c-4156-afd1-8736f20f0adb","ios":"levelo://app?vid=45a12449-2e0c-4156-afd1-8736f20f0adb"},"vehicle_type_id":"4","last_reported":1753359814,"current_range_meters":19200,"station_id":"ce4bgh92rcd13ifvqb50","pricing_plan_id":"cebpf4jnsgd1na2vs0mg"},{"bike_id":"dddbef83-b47e-460f-a4ac-beade05833f1","system_id":"levelo_inurba_marseille","lat":43.22916,"lon":5.354,"is_reserved":false,"is_disabled":false,"rental_uris":{"android":"levelo://app?vid=dddbef83-b47e-460f-a4ac-beade05833f1","ios":"levelo://app?vid=dddbef83-b47e-460f-a4ac-beade05833f1"},"vehicle_type_id":"4","last_reported":1753359814,"current_range_meters":19200,"station_id":"cpo3532slgdg3j2ikp40","pricing_plan_id":"cebpf4jnsgd1na2vs0mg"},{"bike_id":"3105b080-eaef-462f-9090-9fad060b9946","system_id":"levelo_inurba_marseille","lat":43.25577,"lon":5.382406,"is_reserved":false,"is_disabled":false,"rental_uris":{"android":"levelo://app?vid=3105b080-eaef-462f-9090-9fad060b9946","ios":"levelo://app?vid=3105b080-eaef-462f-9090-9fad060b9946"},"vehicle_type_id":"4","last_reported":1753359814,"current_range_meters":19200,"station_id":"ce4bhih2rcd13ifvqfs0","pricing_plan_id":"cebpf4jnsgd1na2vs0mg"},{"bike_id":"5e096c06-5b88-4baa-aeb7-7c4d7c722e53","system_id":"levelo_inurba_marseille","lat":43.30543,"lon":5.36523,"is_reserved":false,"is_disabled":false,"rental_uris":{"android":"levelo://app?vid=5e096c06-5b88-4baa-aeb7-7c4d7c722e53","ios":"levelo://app?vid=5e096c06-5b88-4baa-aeb7-7c4d7c722e53"},"vehicle_type_id":"4","last_reported":1753359814,"current_range_meters":19200,"station_id":"ce4bgs12rcd13ifvqcag","pricing_plan_id":"cebpf4jnsgd1na2vs0mg"},{"bike_id":"393a3c95-f3fe-463b-8ba6-1ddef2d0f9eb","system_id":"levelo_inurba_marseille","lat":43.30585,"lon":5.37208,"is_reserved":false,"is_disabled":false,"rental_uris":{"android":"levelo://app?vid=393a3c95-f3fe-463b-8ba6-1ddef2d0f9eb","ios":"levelo://app?vid=393a3c95-f3fe-463b-8ba6-1ddef2d0f9eb"},"vehicle_type_id":"4","last_reported":1753359814,"current_range_meters":19600,"station_id":"ce4bgqh2rcd13ifvqc4g","pricing_plan_id":"cebpf4jnsgd1na2vs0mg"},{"bike_id":"806de4ad-b467-48b2-a10e-6cbd3133cfb4","system_id":"levelo_inurba_marseille","lat":43.23142,"lon":5.43702,"is_reserved":false,"is_disabled":false,"rental_uris":{"android":"levelo://app?vid=806de4ad-b467-48b2-a10e-6cbd3133cfb4","ios":"levelo://app?vid=806de4ad-b467-48b2-a10e-6cbd3133cfb4"},"vehicle_type_id":"4","last_reported":1753359814,"current_range_meters":19200,"station_id":"ce4bhmp2rcd13ifvqgog","pricing_plan_id":"cebpf4jnsgd1na2vs0mg"},{"bike_id":"718ba0d6-35b4-4547-bbd7-a40d597f31a2","system_id":"levelo_inurba_marseille","lat":43.31347,"lon":5.36712,"is_reserved":false,"is_disabled":false,"rental_uris":{"android":"levelo://app?vid=718ba0d6-35b4-4547-bbd7-a40d597f31a2","ios":"levelo://app?vid=718ba0d6-35b4-4547-bbd7-a40d597f31a2"},"vehicle_type_id":"4","last_reported":1753359814,"current_range_meters":19600,"station_id":"ce4bgr92rcd13ifvqc6g","pricing_plan_id":"cebpf4jnsgd1na2vs0mg"},{"bike_id":"d61dfa4e-b4da-48cb-adb5-b3e4c37be3cd","system_id":"levelo_inurba_marseille","lat":43.33145,"lon":5.41376,"is_reserved":false,"is_disabled":true,"rental_uris":{"android":"levelo://app?vid=d61dfa4e-b4da-48cb-adb5-b3e4c37be3cd","ios":"levelo://app?vid=d61dfa4e-b4da-48cb-adb5-b3e4c37be3cd"},"vehicle_type_id":"4","last_reported":1753359814,"current_range_meters":19600,"station_id":"","pricing_plan_id":"cebpf4jnsgd1na2vs0mg"},{"bike_id":"5ab72dcd-0fb6-4696-8e23-9162af9a1cc7","system_id":"levelo_inurba_marseille","lat":43.282697,"lon":5.35066,"is_reserved":false,"is_disabled":false,"rental_uris":{"android":"levelo://app?vid=5ab72dcd-0fb6-4696-8e23-9162af9a1cc7","ios":"levelo://app?vid=5ab72dcd-0fb6-4696-8e23-9162af9a1cc7"},"vehicle_type_id":"4","last_reported":1753359814,"current_range_meters":20000,"station_id":"ce4bhbp2rcd13ifvqerg","pricing_plan_id":"cebpf4jnsgd1na2vs0mg"},{"bike_id":"e84f3a10-f533-4ce5-bbe5-df5832595ecb","system_id":"levelo_inurba_marseille","lat":43.23157,"lon":5.43702,"is_reserved":false,"is_disabled":false,"rental_uris":{"android":"levelo://app?vid=e84f3a10-f533-4ce5-bbe5-df5832595ecb","ios":"levelo://app?vid=e84f3a10-f533-4ce5-bbe5-df5832595ecb"},"vehicle_type_id":"4","last_reported":1753359814,"current_range_meters":20000,"station_id":"ce4bhmp2rcd13ifvqgog","pricing_plan_id":"cebpf4jnsgd1na2vs0mg"},{"bike_id":"fd13a871-6a7c-45ab-8193-0aedb29a36fc","system_id":"levelo_inurba_marseille","lat":43.265535,"lon":5.372875,"is_reserved":false,"is_disabled":false,"rental_uris":{"android":"levelo://app?vid=fd13a871-6a7c-45ab-8193-0aedb29a36fc","ios":"levelo://app?vid=fd13a871-6a7c-45ab-8193-0aedb29a36fc"},"vehicle_type_id":"4","last_reported":1753359814,"current_range_meters":20000,"station_id":"ce4bhg12rcd13ifvqf70","pricing_plan_id":"cebpf4jnsgd1na2vs0mg"},{"bike_id":"00fc4696-e72c-4173-9cda-3ffcb5d15efb","system_id":"levelo_inurba_marseille","lat":43.30903,"lon":5.37079,"is_reserved":false,"is_disabled":false,"rental_uris":{"android":"levelo://app?vid=00fc4696-e72c-4173-9cda-3ffcb5d15efb","ios":"levelo://app?vid=00fc4696-e72c-4173-9cda-3ffcb5d15efb"},"vehicle_type_id":"4","last_reported":1753359814,"current_range_meters":20000,"station_id":"ce4bgqh2rcd13ifvqc4g","pricing_plan_id":"cebpf4jnsgd1na2vs0mg"},{"bike_id":"635d529b-81db-4d95-967c-681543329cb0","system_id":"levelo_inurba_marseille","lat":43.29905,"lon":5.43673,"is_reserved":false,"is_disabled":false,"rental_uris":{"android":"levelo://app?vid=635d529b-81db-4d95-967c-681543329cb0","ios":"levelo://app?vid=635d529b-81db-4d95-967c-681543329cb0"},"vehicle_type_id":"4","last_reported":1753359814,"current_range_meters":20000,"station_id":"ce4bhpp2rcd13ifvqhfg","pricing_plan_id":"cebpf4jnsgd1na2vs0mg"},{"bike_id":"f2fb42df-b317-4050-9c35-8b2b6533ccf7","system_id":"levelo_inurba_marseille","lat":43.32465,"lon":5.36549,"is_reserved":false,"is_disabled":false,"rental_uris":{"android":"levelo://app?vid=f2fb42df-b317-4050-9c35-8b2b6533ccf7","ios":"levelo://app?vid=f2fb42df-b317-4050-9c35-8b2b6533ccf7"},"vehicle_type_id":"4","last_reported":1753359814,"current_range_meters":20000,"station_id":"ce4bhs12rcd13ifvqhvg","pricing_plan_id":"cebpf4jnsgd1na2vs0mg"},{"bike_id":"1889fe84-ebd2-40de-a983-1f912efa1276","system_id":"levelo_inurba_marseille","lat":43.26563,"lon":5.37278,"is_reserved":false,"is_disabled":false,"rental_uris":{"android":"levelo://app?vid=1889fe84-ebd2-40de-a983-1f912efa1276","ios":"levelo://app?vid=1889fe84-ebd2-40de-a983-1f912efa1276"},"vehicle_type_id":"4","last_reported":1753359814,"current_range_meters":20400,"station_id":"ce4bhg12rcd13ifvqf70","pricing_plan_id":"cebpf4jnsgd1na2vs0mg"},{"bike_id":"7e79f9aa-e0d9-45c2-87ef-e834c7792030","system_id":"levelo_inurba_marseille","lat":43.27678,"lon":5.38865,"is_reserved":false,"is_disabled":false,"rental_uris":{"android":"levelo://app?vid=7e79f9aa-e0d9-45c2-87ef-e834c7792030","ios":"levelo://app?vid=7e79f9aa-e0d9-45c2-87ef-e834c7792030"},"vehicle_type_id":"4","last_reported":1753359814,"current_range_meters":20400,"station_id":"ce4bhi12rcd13ifvqfo0","pricing_plan_id":"cebpf4jnsgd1na2vs0mg"},{"bike_id":"cf321470-3422-4864-a2b3-8e56e10e4f67","system_id":"levelo_inurba_marseille","lat":43.27364,"lon":5.36262,"is_reserved":false,"is_disabled":false,"rental_uris":{"android":"levelo://app?vid=cf321470-3422-4864-a2b3-8e56e10e4f67","ios":"levelo://app?vid=cf321470-3422-4864-a2b3-8e56e10e4f67"},"vehicle_type_id":"4","last_reported":1753359814,"current_range_meters":20400,"station_id":"ce4bhbh2rcd13ifvqeo0","pricing_plan_id":"cebpf4jnsgd1na2vs0mg"},{"bike_id":"1c6f98e7-bffb-444b-98ce-c5a83f3b3c24","system_id":"levelo_inurba_marseille","lat":43.24809,"lon":5.37461,"is_reserved":false,"is_disabled":false,"rental_uris":{"android":"levelo://app?vid=1c6f98e7-bffb-444b-98ce-c5a83f3b3c24","ios":"levelo://app?vid=1c6f98e7-bffb-444b-98ce-c5a83f3b3c24"},"vehicle_type_id":"4","last_reported":1753359814,"current_range_meters":20400,"station_id":"ce4bhgh2rcd13ifvqfb0","pricing_plan_id":"cebpf4jnsgd1na2vs0mg"},{"bike_id":"7b758ea4-92b6-4d8f-990d-b6956b9b2022","system_id":"levelo_inurba_marseille","lat":43.28416,"lon":5.37512,"is_reserved":false,"is_disabled":false,"rental_uris":{"android":"levelo://app?vid=7b758ea4-92b6-4d8f-990d-b6956b9b2022","ios":"levelo://app?vid=7b758ea4-92b6-4d8f-990d-b6956b9b2022"},"vehicle_type_id":"4","last_reported":1753359814,"current_range_meters":20400,"station_id":"ce4bh412rcd13ifvqds0","pricing_plan_id":"cebpf4jnsgd1na2vs0mg"},{"bike_id":"6afc798f-4a06-4994-844e-ef65d6413983","system_id":"levelo_inurba_marseille","lat":43.301238,"lon":5.387855,"is_reserved":false,"is_disabled":false,"rental_uris":{"android":"levelo://app?vid=6afc798f-4a06-4994-844e-ef65d6413983","ios":"levelo://app?vid=6afc798f-4a06-4994-844e-ef65d6413983"},"vehicle_type_id":"4","last_reported":1753359814,"current_range_meters":20400,"station_id":"","pricing_plan_id":"cebpf4jnsgd1na2vs0mg"},{"bike_id":"d511a6f8-a9ca-4c92-b99d-d21cb7b84418","system_id":"levelo_inurba_marseille","lat":43.29171,"lon":5.37145,"is_reserved":false,"is_disabled":false,"rental_uris":{"android":"levelo://app?vid=d511a6f8-a9ca-4c92-b99d-d21cb7b84418","ios":"levelo://app?vid=d511a6f8-a9ca-4c92-b99d-d21cb7b84418"},"vehicle_type_id":"4","last_reported":1753359814,"current_range_meters":20400,"station_id":"ce4bha92rcd13ifvqeh0","pricing_plan_id":"cebpf4jnsgd1na2vs0mg"},{"bike_id":"7df9d1a7-db77-4e76-9f4c-a85eb1778eec","system_id":"levelo_inurba_marseille","lat":43.288506,"lon":5.35863,"is_reserved":false,"is_disabled":false,"rental_uris":{"android":"levelo://app?vid=7df9d1a7-db77-4e76-9f4c-a85eb1778eec","ios":"levelo://app?vid=7df9d1a7-db77-4e76-9f4c-a85eb1778eec"},"vehicle_type_id":"4","last_reported":1753359814,"current_range_meters":20400,"station_id":"ce4bhb12rcd13ifvqem0","pricing_plan_id":"cebpf4jnsgd1na2vs0mg"},