{"last_updated":1747321870,"ttl":60,"version":"2.2","data":{"bikes":[{"bike_id":"c0b9fd4f-e181-46ce-b0bf-f5119973334f","system_id":"levelo_inurba_marseille","lat":43.33771,"lon":5.37424,"is_reserved":false,"is_disabled":false,"rental_uris":{"android":"levelo://app?vid=c0b9fd4f-e181-46ce-b0bf-f5119973334f","ios":"levelo://app?vid=c0b9fd4f-e181-46ce-b0bf-f5119973334f"},"vehicle_type_id":"4","last_reported":1747321870,"current_range_meters":14000,"station_id":"","pricing_plan_id":"cebpf4jnsgd1na2vs0mg"},{"bike_id":"fc2577e7-1497-425b-9d4f-ab8d7dc843c6","system_id":"levelo_inurba_marseille","lat":43.33771,"lon":5.37485,"is_reserved":false,"is_disabled":true,"rental_uris":{"android":"levelo://app?vid=fc2577e7-1497-425b-9d4f-ab8d7dc843c6","ios":"levelo://app?vid=fc2577e7-1497-425b-9d4f-ab8d7dc843c6"},"vehicle_type_id":"4","last_reported":1747321870,"current_range_meters":0,"station_id":"","pricing_plan_id":"cebpf4jnsgd1na2vs0mg"},{"bike_id":"893cee9f-22ed-4823-82b3-4da288b81784","system_id":"levelo_inurba_marseille","lat":43.318027,"lon":5.36942,"is_reserved":false,"is_disabled":true,"rental_uris":{"android":"levelo://app?vid=893cee9f-22ed-4823-82b3-4da288b81784","ios":"levelo://app?vid=893cee9f-22ed-4823-82b3-4da288b81784"},"vehicle_type_id":"4","last_reported":1747321870,"current_range_meters":0,"station_id":"","pricing_plan_id":"cebpf4jnsgd1na2vs0mg"},{"bike_id":"772b6fff-1447-445e-950b-c2e27d6bb6b1","system_id":"levelo_inurba_marseille","lat":43.31139,"lon":5.37603,"is_reserved":false,"is_disabled":true,"rental_uris":{"android":"levelo://app?vid=772b6fff-1447-445e-950b-c2e27d6bb6b1","ios":"levelo://app?vid=772b6fff-1447-445e-950b-c2e27d6bb6b1"},"vehicle_type_id":"4","last_reported":1747321870,"current_range_meters":0,"station_id":"","pricing_plan_id":"cebpf4jnsgd1na2vs0mg"},{"bike_id":"792567c6-0442-4011-aff0-9c05e25deb48","system_id":"levelo_inurba_marseille","lat":43.337444,"lon":5.374475,"is_reserved":false,"is_disabled":true,"rental_uris":{"android":"levelo://app?vid=792567c6-0442-4011-aff0-9c05e25deb48","ios":"levelo://app?vid=792567c6-0442-4011-aff0-9c05e25deb48"},"vehicle_type_id":"4","last_reported":1747321870,"current_range_meters":0,"station_id":"","pricing_plan_id":"cebpf4jnsgd1na2vs0mg"},{"bike_id":"a5c0c6e2-7692-4e19-8c8d-801d36a41b8a","system_id":"levelo_inurba_marseille","lat":43.29791,"lon":5.38105,"is_reserved":false,"is_disabled":true,"rental_uris":{"android":"levelo://app?vid=a5c0c6e2-7692-4e19-8c8d-801d36a41b8a","ios":"levelo://app?vid=a5c0c6e2-7692-4e19-8c8d-801d36a41b8a"},"vehicle_type_id":"4","last_reported":1747321870,"current_range_meters":0,"station_id":"ce4bgip2rcd13ifvqbb0","pricing_plan_id":"cebpf4jnsgd1na2vs0mg"},{"bike_id":"4f1e5ed4-0c54-40e8-a6e4-929192bf029e","system_id":"levelo_inurba_marseille","lat":43.29784,"lon":5.381,"is_reserved":false,"is_disabled":true,"rental_uris":{"android":"levelo://app?vid=4f1e5ed4-0c54-40e8-a6e4-929192bf029e","ios":"levelo://app?vid=4f1e5ed4-0c54-40e8-a6e4-929192bf029e"},"vehicle_type_id":"4","last_reported":1747321870,"current_range_meters":0,"station_id":"ce4bgip2rcd13ifvqbb0","pricing_plan_id":"cebpf4jnsgd1na2vs0mg"},{"bike_id":"287d3d2a-0b08-4547-b176-eb37ca1aee5d","system_id":"levelo_inurba_marseille","lat":43.30802,"lon":5.38146,"is_reserved":false,"is_disabled":true,"rental_uris":{"android":"levelo://app?vid=287d3d2a-0b08-4547-b176-eb37ca1aee5d","ios":"levelo://app?vid=287d3d2a-0b08-4547-b176-eb37ca1aee5d"},"vehicle_type_id":"4","last_reported":1747321870,"current_range_meters":0,"station_id":"ce4bgt12rcd13ifvqce0","pricing_plan_id":"cebpf4jnsgd1na2vs0mg"},{"bike_id":"000c515a-085d-4464-903a-2969efc42604","system_id":"levelo_inurba_marseille","lat":43.316837,"lon":5.405013,"is_reserved":false,"is_disabled":true,"rental_uris":{"android":"levelo://app?vid=000c515a-085d-4464-903a-2969efc42604","ios":"levelo://app?vid=000c515a-085d-4464-903a-2969efc42604"},"vehicle_type_id":"4","last_reported":1747321870,"current_range_meters":0,"station_id":"ce4bh012rcd13ifvqd00","pricing_plan_id":"cebpf4jnsgd1na2vs0mg"},{"bike_id":"0b9aeeb7-6371-4d0d-8ffa-abe03cb9d032","system_id":"levelo_inurba_marseille","lat":43.30671,"lon":5.40093,"is_reserved":false,"is_disabled":true,"rental_uris":{"android":"levelo://app?vid=0b9aeeb7-6371-4d0d-8ffa-abe03cb9d032","ios":"levelo://app?vid=0b9aeeb7-6371-4d0d-8ffa-abe03cb9d032"},"vehicle_type_id":"4","last_reported":1747321870,"current_range_meters":0,"station_id":"ce4bh112rcd13ifvqda0","pricing_plan_id":"cebpf4jnsgd1na2vs0mg"},{"bike_id":"fd96e7df-56e5-4cfb-a034-1efd625752a4","system_id":"levelo_inurba_marseille","lat":43.29564,"lon":5.39988,"is_reserved":false,"is_disabled":true,"rental_uris":{"android":"levelo://app?vid=fd96e7df-56e5-4cfb-a034-1efd625752a4","ios":"levelo://app?vid=fd96e7df-56e5-4cfb-a034-1efd625752a4"},"vehicle_type_id":"4","last_reported":1747321870,"current_range_meters":0,"station_id":"ce4bh312rcd13ifvqdj0","pricing_plan_id":"cebpf4jnsgd1na2vs0mg"},{"bike_id":"0674e120-9768-449d-9444-2ceeb79ebf96","system_id":"levelo_inurba_marseille","lat":43.28695,"lon":5.3739,"is_reserved":false,"is_disabled":true,"rental_uris":{"android":"levelo://app?vid=0674e120-9768-449d-9444-2ceeb79ebf96","ios":"levelo://app?vid=0674e120-9768-449d-9444-2ceeb79ebf96"},"vehicle_type_id":"4","last_reported":1747321870,"current_range_meters":0,"station_id":"ce4bh3p2rcd13ifvqdq0","pricing_plan_id":"cebpf4jnsgd1na2vs0mg"},{"bike_id":"397ba072-9961-4770-a30f-b221d8cf030f","system_id":"levelo_inurba_marseille","lat":43.2846,"lon":5.38452,"is_reserved":false,"is_disabled":true,"rental_uris":{"android":"levelo://app?vid=397ba072-9961-4770-a30f-b221d8cf030f","ios":"levelo://app?vid=397ba072-9961-4770-a30f-b221d8cf030f"},"vehicle_type_id":"4","last_reported":1747321870,"current_range_meters":0,"station_id":"ce4bh512rcd13ifvqe3g","pricing_plan_id":"cebpf4jnsgd1na2vs0mg"},{"bike_id":"7c230756-586a-459b-9c08-7f78c10226d8","system_id":"levelo_inurba_marseille","lat":43.28486,"lon":5.38418,"is_reserved":false,"is_disabled":true,"rental_uris":{"android":"levelo://app?vid=7c230756-586a-459b-9c08-7f78c10226d8","ios":"levelo://app?vid=7c230756-586a-459b-9c08-7f78c10226d8"},"vehicle_type_id":"4","last_reported":1747321870,"current_range_meters":0,"station_id":"ce4bh512rcd13ifvqe3g","pricing_plan_id":"cebpf4jnsgd1na2vs0mg"},{"bike_id":"649e404e-7c33-4d66-9b03-af168b95cd98","system_id":"levelo_inurba_marseille","lat":43.29049,"lon":5.37625,"is_reserved":false,"is_disabled":true,"rental_uris":{"android":"levelo://app?vid=649e404e-7c33-4d66-9b03-af168b95cd98","ios":"levelo://app?vid=649e404e-7c33-4d66-9b03-af168b95cd98"},"vehicle_type_id":"4","last_reported":1747321870,"current_range_meters":0,"station_id":"ce4bh692rcd13ifvqe90","pricing_plan_id":"cebpf4jnsgd1na2vs0mg"},{"bike_id":"b2ab41dc-3927-44db-8129-de5525c4c3e7","system_id":"levelo_inurba_marseille","lat":43.29252,"lon":5.38428,"is_reserved":false,"is_disabled":true,"rental_uris":{"android":"levelo://app?vid=b2ab41dc-3927-44db-8129-de5525c4c3e7","ios":"levelo://app?vid=b2ab41dc-3927-44db-8129-de5525c4c3e7"},"vehicle_type_id":"4","last_reported":1747321870,"current_range_meters":0,"station_id":"ce4bh692rcd13ifvqea0","pricing_plan_id":"cebpf4jnsgd1na2vs0mg"},{"bike_id":"b81fe734-1cf7-4837-b1f5-7d9df3a913cb","system_id":"levelo_inurba_marseille","lat":43.28485,"lon":5.38565,"is_reserved":false,"is_disabled":true,"rental_uris":{"android":"levelo://app?vid=b81fe734-1cf7-4837-b1f5-7d9df3a913cb","ios":"levelo://app?vid=b81fe734-1cf7-4837-b1f5-7d9df3a913cb"},"vehicle_type_id":"4","last_reported":1747321870,"current_range_meters":0,"station_id":"ce4bh8p2rcd13ifvqeb0","pricing_plan_id":"cebpf4jnsgd1na2vs0mg"},{"bike_id":"b75a4637-a319-4cdc-a064-0fe0039b7ca9","system_id":"levelo_inurba_marseille","lat":43.282654,"lon":5.35068,"is_reserved":false,"is_disabled":true,"rental_uris":{"android":"levelo://app?vid=b75a4637-a319-4cdc-a064-0fe0039b7ca9","ios":"levelo://app?vid=b75a4637-a319-4cdc-a064-0fe0039b7ca9"},"vehicle_type_id":"4","last_reported":1747321870,"current_range_meters":0,"station_id":"ce4bhbp2rcd13ifvqerg","pricing_plan_id":"cebpf4jnsgd1na2vs0mg"},{"bike_id":"9d1087f0-2c5c-4e0d-9389-9177b98ab599","system_id":"levelo_inurba_marseille","lat":43.28625,"lon":5.35111,"is_reserved":false,"is_disabled":true,"rental_uris":{"android":"levelo://app?vid=9d1087f0-2c5c-4e0d-9389-9177b98ab599","ios":"levelo://app?vid=9d1087f0-2c5c-4e0d-9389-9177b98ab599"},"vehicle_type_id":"4","last_reported":1747321870,"current_range_meters":0,"station_id":"ce4bhch2rcd13ifvqeug","pricing_plan_id":"cebpf4jnsgd1na2vs0mg"},{"bike_id":"4256f064-25f4-4422-ae55-ab2134d4d51d","system_id":"levelo_inurba_marseille","lat":43.26553,"lon":5.39028,"is_reserved":false,"is_disabled":true,"rental_uris":{"android":"levelo://app?vid=4256f064-25f4-4422-ae55-ab2134d4d51d","ios":"levelo://app?vid=4256f064-25f4-4422-ae55-ab2134d4d51d"},"vehicle_type_id":"4","last_reported":1747321870,"current_range_meters":0,"station_id":"ce4bhe12rcd13ifvqf30","pricing_plan_id":"cebpf4jnsgd1na2vs0mg"},{"bike_id":"82d11789-f76c-4d9e-ab27-bfaed6431fb0","system_id":"levelo_inurba_marseille","lat":43.26555,"lon":5.37282,"is_reserved":false,"is_disabled":true,"rental_uris":{"android":"levelo://app?vid=82d11789-f76c-4d9e-ab27-bfaed6431fb0","ios":"levelo://app?vid=82d11789-f76c-4d9e-ab27-bfaed6431fb0"},"vehicle_type_id":"4","last_reported":1747321870,"current_range_meters":0,"station_id":"ce4bhg12rcd13ifvqf70","pricing_plan_id":"cebpf4jnsgd1na2vs0mg"},{"bike_id":"2c372eb0-d6f6-48b8-aa8f-a5a15cef6dc3","system_id":"levelo_inurba_marseille","lat":43.2721,"lon":5.39185,"is_reserved":false,"is_disabled":true,"rental_uris":{"android":"levelo://app?vid=2c372eb0-d6f6-48b8-aa8f-a5a15cef6dc3","ios":"levelo://app?vid=2c372eb0-d6f6-48b8-aa8f-a5a15cef6dc3"},"vehicle_type_id":"4","last_reported":1747321870,"current_range_meters":0,"station_id":"ce4bhhp2rcd13ifvqfm0","pricing_plan_id":"cebpf4jnsgd1na2vs0mg"},{"bike_id":"a1dc1686-bcd8-4ed0-b326-bc4877c1e14c","system_id":"levelo_inurba_marseille","lat":43.28074,"lon":5.39661,"is_reserved":false,"is_disabled":true,"rental_uris":{"android":"levelo://app?vid=a1dc1686-bcd8-4ed0-b326-bc4877c1e14c","ios":"levelo://app?vid=a1dc1686-bcd8-4ed0-b326-bc4877c1e14c"},"vehicle_type_id":"4","last_reported":1747321870,"current_range_meters":0,"station_id":"ce4bho12rcd13ifvqh2g","pricing_plan_id":"cebpf4jnsgd1na2vs0mg"},{"bike_id":"9314dddf-072c-4cc0-8876-ed2b90349374","system_id":"levelo_inurba_marseille","lat":43.32525,"lon":5.41445,"is_reserved":false,"is_disabled":true,"rental_uris":{"android":"levelo://app?vid=9314dddf-072c-4cc0-8876-ed2b90349374","ios":"levelo://app?vid=9314dddf-072c-4cc0-8876-ed2b90349374"},"vehicle_type_id":"4","last_reported":1747321870,"current_range_meters":0,"station_id":"ce4bhq12rcd13ifvqhhg","pricing_plan_id":"cebpf4jnsgd1na2vs0mg"},{"bike_id":"d9ea497c-bc40-4c05-9b6a-bc0f46958bd5","system_id":"levelo_inurba_marseille","lat":43.32473,"lon":5.36569,"is_reserved":false,"is_disabled":true,"rental_uris":{"android":"levelo://app?vid=d9ea497c-bc40-4c05-9b6a-bc0f46958bd5","ios":"levelo://app?vid=d9ea497c-bc40-4c05-9b6a-bc0f46958bd5"},"vehicle_type_id":"4","last_reported":1747321870,"current_range_meters":0,"station_id":"ce4bhs12rcd13ifvqhvg","pricing_plan_id":"cebpf4jnsgd1na2vs0mg"},{"bike_id":"2b8fbf5f-4106-421b-bd48-29543ccb14db","system_id":"levelo_inurba_marseille","lat":43.23683,"lon":5.36306,"is_reserved":false,"is_disabled":true,"rental_uris":{"android":"levelo://app?vid=2b8fbf5f-4106-421b-bd48-29543ccb14db","ios":"levelo://app?vid=2b8fbf5f-4106-421b-bd48-29543ccb14db"},"vehicle_type_id":"4","last_reported":1747321870,"current_range_meters":400,"station_id":"","pricing_plan_id":"cebpf4jnsgd1na2vs0mg"},{"bike_id":"83c6f5a9-1524-49a3-812b-7bb4924cc3af","system_id":"levelo_inurba_marseille","lat":43.30158,"lon":5.38081,"is_reserved":false,"is_disabled":true,"rental_uris":{"android":"levelo://app?vid=83c6f5a9-1524-49a3-812b-7bb4924cc3af","ios":"levelo://app?vid=83c6f5a9-1524-49a3-812b-7bb4924cc3af"},"vehicle_type_id":"4","last_reported":1747321870,"current_range_meters":400,"station_id":"ce4bgjp2rcd13ifvqbh0","pricing_plan_id":"cebpf4jnsgd1na2vs0mg"},{"bike_id":"0eb8518c-cb52-43e0-a3a3-1960a8a6d25d","system_id":"levelo_inurba_marseille","lat":43.29726,"lon":5.37712,"is_reserved":false,"is_disabled":true,"rental_uris":{"android":"levelo://app?vid=0eb8518c-cb52-43e0-a3a3-1960a8a6d25d","ios":"levelo://app?vid=0eb8518c-cb52-43e0-a3a3-1960a8a6d25d"},"vehicle_type_id":"4","last_reported":1747321870,"current_range_meters":400,"station_id":"ce4bgkh2rcd13ifvqbl0","pricing_plan_id":"cebpf4jnsgd1na2vs0mg"},{"bike_id":"3eb20a2d-9347-45c0-81a7-6053f604c8a6","system_id":"levelo_inurba_marseille","lat":43.29026,"lon":5.37572,"is_reserved":false,"is_disabled":true,"rental_uris":{"android":"levelo://app?vid=3eb20a2d-9347-45c0-81a7-6053f604c8a6","ios":"levelo://app?vid=3eb20a2d-9347-45c0-81a7-6053f604c8a6"},"vehicle_type_id":"4","last_reported":1747321870,"current_range_meters":400,"station_id":"ce4bh692rcd13ifvqe90","pricing_plan_id":"cebpf4jnsgd1na2vs0mg"},{"bike_id":"36873412-500d-4c3e-9f59-732fe5a0029f","system_id":"levelo_inurba_marseille","lat":43.29163,"lon":5.371677,"is_reserved":false,"is_disabled":true,"rental_uris":{"android":"levelo://app?vid=36873412-500d-4c3e-9f59-732fe5a0029f","ios":"levelo://app?vid=36873412-500d-4c3e-9f59-732fe5a0029f"},"vehicle_type_id":"4","last_reported":1747321870,"current_range_meters":400,"station_id":"ce4bha92rcd13ifvqeh0","pricing_plan_id":"cebpf4jnsgd1na2vs0mg"},{"bike_id":"216db5de-80c7-4c79-9f3b-ff2f38a35b1b","system_id":"levelo_inurba_marseille","lat":43.28263,"lon":5.35062,"is_reserved":false,"is_disabled":true,"rental_uris":{"android":"levelo://app?vid=216db5de-80c7-4c79-9f3b-ff2f38a35b1b","ios":"levelo://app?vid=216db5de-80c7-4c79-9f3b-ff2f38a35b1b"},"vehicle_type_id":"4","last_reported":1747321870,"current_range_meters":400,"station_id":"ce4bhbp2rcd13ifvqerg","pricing_plan_id":"cebpf4jnsgd1na2vs0mg"},{"bike_id":"77cad93a-b9b2-4f76-8202-a4ebef3edef0","system_id":"levelo_inurba_marseille","lat":43.28614,"lon":5.35105,"is_reserved":false,"is_disabled":true,"rental_uris":{"android":"levelo://app?vid=77cad93a-b9b2-4f76-8202-a4ebef3edef0","ios":"levelo://app?vid=77cad93a-b9b2-4f76-8202-a4ebef3edef0"},"vehicle_type_id":"4","last_reported":1747321870,"current_range_meters":400,"station_id":"ce4bhch2rcd13ifvqeug","pricing_plan_id":"cebpf4jnsgd1na2vs0mg"},{"bike_id":"57a1d57d-b51c-470b-89c5-8d50ea9c3838","system_id":"levelo_inurba_marseille","lat":43.27917,"lon":5.39577,"is_reserved":false,"is_disabled":true,"rental_uris":{"android":"levelo://app?vid=57a1d57d-b51c-470b-89c5-8d50ea9c3838","ios":"levelo://app?vid=57a1d57d-b51c-470b-89c5-8d50ea9c3838"},"vehicle_type_id":"4","last_reported":1747321870,"current_range_meters":400,"station_id":"ce4bhf92rcd13ifvqf40","pricing_plan_id":"cebpf4jnsgd1na2vs0mg"},{"bike_id":"b6412257-bdb8-4c76-9ccd-d462c2488c59","system_id":"levelo_inurba_marseille","lat":43.25719,"lon":5.41113,"is_reserved":false,"is_disabled":true,"rental_uris":{"android":"levelo://app?vid=b6412257-bdb8-4c76-9ccd-d462c2488c59","ios":"levelo://app?vid=b6412257-bdb8-4c76-9ccd-d462c2488c59"},"vehicle_type_id":"4","last_reported":1747321870,"current_range_meters":400,"station_id":"ce4bhkp2rcd13ifvqgd0","pricing_plan_id":"cebpf4jnsgd1na2vs0mg"},{"bike_id":"c5a6793b-e5de-49b6-bd08-08f7415d5dea","system_id":"levelo_inurba_marseille","lat":43.25122,"lon":5.40315,"is_reserved":false,"is_disabled":true,"rental_uris":{"android":"levelo://app?vid=c5a6793b-e5de-49b6-bd08-08f7415d5dea","ios":"levelo://app?vid=c5a6793b-e5de-49b6-bd08-08f7415d5dea"},"vehicle_type_id":"4","last_reported":1747321870,"current_range_meters":400,"station_id":"ce4bhlh2rcd13ifvqgig","pricing_plan_id":"cebpf4jnsgd1na2vs0mg"},{"bike_id":"52d91600-ff45-4faa-8aef-29dec3859d31","system_id":"levelo_inurba_marseille","lat":43.30471,"lon":5.37921,"is_reserved":false,"is_disabled":true,"rental_uris":{"android":"levelo://app?vid=52d91600-ff45-4faa-8aef-29dec3859d31","ios":"levelo://app?vid=52d91600-ff45-4faa-8aef-29dec3859d31"},"vehicle_type_id":"4","last_reported":1747321870,"current_range_meters":800,"station_id":"ce4bgup2rcd13ifvqcn0","pricing_plan_id":"cebpf4jnsgd1na2vs0mg"},{"bike_id":"386860ab-488e-4111-86b1-32d251c6e7e6","system_id":"levelo_inurba_marseille","lat":43.28359,"lon":5.386405,"is_reserved":false,"is_disabled":true,"rental_uris":{"android":"levelo://app?vid=386860ab-488e-4111-86b1-32d251c6e7e6","ios":"levelo://app?vid=386860ab-488e-4111-86b1-32d251c6e7e6"},"vehicle_type_id":"4","last_reported":1747321870,"current_range_meters":800,"station_id":"ce4bh492rcd13ifvqdvg","pricing_plan_id":"cebpf4jnsgd1na2vs0mg"},{"bike_id":"e1ec3af1-f442-47cf-a319-b95533a36306","system_id":"levelo_inurba_marseille","lat":43.2804,"lon":5.36941,"is_reserved":false,"is_disabled":true,"rental_uris":{"android":"levelo://app?vid=e1ec3af1-f442-47cf-a319-b95533a36306","ios":"levelo://app?vid=e1ec3af1-f442-47cf-a319-b95533a36306"},"vehicle_type_id":"4","last_reported":1747321870,"current_range_meters":800,"station_id":"ce4bha12rcd13ifvqef0","pricing_plan_id":"cebpf4jnsgd1na2vs0mg"},{"bike_id":"28e8a854-8802-4865-9599-afe6e03ac4ce","system_id":"levelo_inurba_marseille","lat":43.28925,"lon":5.36659,"is_reserved":false,"is_disabled":true,"rental_uris":{"android":"levelo://app?vid=28e8a854-8802-4865-9599-afe6e03ac4ce","ios":"levelo://app?vid=28e8a854-8802-4865-9599-afe6e03ac4ce"},"vehicle_type_id":"4","last_reported":1747321870,"current_range_meters":800,"station_id":"ce4bhap2rcd13ifvqek0","pricing_plan_id":"cebpf4jnsgd1na2vs0mg"},{"bike_id":"f25419af-79fa-43b0-af4a-a0738706a661","system_id":"levelo_inurba_marseille","lat":43.2808,"lon":5.39663,"is_reserved":false,"is_disabled":true,"rental_uris":{"android":"levelo://app?vid=f25419af-79fa-43b0-af4a-a0738706a661","ios":"levelo://app?vid=f25419af-79fa-43b0-af4a-a0738706a661"},"vehicle_type_id":"4","last_reported":1747321870,"current_range_meters":800,"station_id":"ce4bho12rcd13ifvqh2g","pricing_plan_id":"cebpf4jnsgd1na2vs0mg"},{"bike_id":"50f0eb23-5b0e-487e-8419-b1da69e5d44e","system_id":"levelo_inurba_marseille","lat":43.28626,"lon":5.38173,"is_reserved":false,"is_disabled":true,"rental_uris":{"android":"levelo://app?vid=50f0eb23-5b0e-487e-8419-b1da69e5d44e","ios":"levelo://app?vid=50f0eb23-5b0e-487e-8419-b1da69e5d44e"},"vehicle_type_id":"4","last_reported":1747321870,"current_range_meters":1200,"station_id":"","pricing_plan_id":"cebpf4jnsgd1na2vs0mg"},{"bike_id":"ce4325af-2448-4172-bdec-81d552ee0b62","system_id":"levelo_inurba_marseille","lat":43.26175,"lon":5.42051,"is_reserved":false,"is_disabled":true,"rental_uris":{"android":"levelo://app?vid=ce4325af-2448-4172-bdec-81d552ee0b62","ios":"levelo://app?vid=ce4325af-2448-4172-bdec-81d552ee0b62"},"vehicle_type_id":"4","last_reported":1747321870,"current_range_meters":1200,"station_id":"","pricing_plan_id":"cebpf4jnsgd1na2vs0mg"},{"bike_id":"dbd0ebc5-870e-417d-a86b-bfb27ba67365","system_id":"levelo_inurba_marseille","lat":43.29537,"lon":5.38555,"is_reserved":false,"is_disabled":true,"rental_uris":{"android":"levelo://app?vid=dbd0ebc5-870e-417d-a86b-bfb27ba67365","ios":"levelo://app?vid=dbd0ebc5-870e-417d-a86b-bfb27ba67365"},"vehicle_type_id":"4","last_reported":1747321870,"current_range_meters":1200,"station_id":"ce4bgih2rcd13ifvqba0","pricing_plan_id":"cebpf4jnsgd1na2vs0mg"},{"bike_id":"f61dcaf1-d30f-4159-9a51-70bbb1a76f19","system_id":"levelo_inurba_marseille","lat":43.2957,"lon":5.3996,"is_reserved":false,"is_disabled":true,"rental_uris":{"android":"levelo://app?vid=f61dcaf1-d30f-4159-9a51-70bbb1a76f19","ios":"levelo://app?vid=f61dcaf1-d30f-4159-9a51-70bbb1a76f19"},"vehicle_type_id":"4","last_reported":1747321870,"current_range_meters":1200,"station_id":"ce4bh312rcd13ifvqdj0","pricing_plan_id":"cebpf4jnsgd1na2vs0mg"},{"bike_id":"4baab9ae-bb5a-4868-b47d-d200beafcd70","system_id":"levelo_inurba_marseille","lat":43.27065,"lon":5.40265,"is_reserved":false,"is_disabled":true,"rental_uris":{"android":"levelo://app?vid=4baab9ae-bb5a-4868-b47d-d200beafcd70","ios":"levelo://app?vid=4baab9ae-bb5a-4868-b47d-d200beafcd70"},"vehicle_type_id":"4","last_reported":1747321870,"current_range_meters":1200,"station_id":"ce4bhk92rcd13ifvqgc0","pricing_plan_id":"cebpf4jnsgd1na2vs0mg"},{"bike_id":"3157680f-1443-42f0-a32c-d8428c389da8","system_id":"levelo_inurba_marseille","lat":43.29786,"lon":5.39363,"is_reserved":false,"is_disabled":true,"rental_uris":{"android":"levelo://app?vid=3157680f-1443-42f0-a32c-d8428c389da8","ios":"levelo://app?vid=3157680f-1443-42f0-a32c-d8428c389da8"},"vehicle_type_id":"4","last_reported":1747321870,"current_range_meters":1200,"station_id":"chh1huq6cuj3fo74tm60","pricing_plan_id":"cebpf4jnsgd1na2vs0mg"},{"bike_id":"851a190c-13f1-498a-a15d-7fab2ba26b20","system_id":"levelo_inurba_marseille","lat":43.27946,"lon":5.41682,"is_reserved":false,"is_disabled":true,"rental_uris":{"android":"levelo://app?vid=851a190c-13f1-498a-a15d-7fab2ba26b20","ios":"levelo://app?vid=851a190c-13f1-498a-a15d-7fab2ba26b20"},"vehicle_type_id":"4","last_reported":1747321870,"current_range_meters":1600,"station_id":"","pricing_plan_id":"cebpf4jnsgd1na2vs0mg"},{"bike_id":"2be3972a-3185-4ae6-81cb-9a75ce85d210","system_id":"levelo_inurba_marseille","lat":43.29556,"lon":5.39385,"is_reserved":false,"is_disabled":true,"rental_uris":{"android":"levelo://app?vid=2be3972a-3185-4ae6-81cb-9a75ce85d210","ios":"levelo://app?vid=2be3972a-3185-4ae6-81cb-9a75ce85d210"},"vehicle_type_id":"4","last_reported":1747321870,"current_range_meters":1600,"station_id":"ce4bh292rcd13ifvqdf0","pricing_plan_id":"cebpf4jnsgd1na2vs0mg"},{"bike_id":"beeaa7e2-fa2f-489a-a0fc-1550348a16f2","system_id":"levelo_inurba_marseille","lat":43.27175,"lon":5.40997,"is_reserved":false,"is_disabled":true,"rental_uris":{"android":"levelo://app?vid=beeaa7e2-fa2f-489a-a0fc-1550348a16f2","ios":"levelo://app?vid=beeaa7e2-fa2f-489a-a0fc-1550348a16f2"},"vehicle_type_id":"4","last_reported":1747321870,"current_range_meters":1600,"station_id":"ce4bhl12rcd13ifvqgf0","pricing_plan_id":"cebpf4jnsgd1na2vs0mg"},{"bike_id":"cd2f90f5-02ca-4882-8515-825da0d77f2f","system_id":"levelo_inurba_marseille","lat":43.2972,"lon":5.37705,"is_reserved":false,"is_disabled":true,"rental_uris":{"android":"levelo://app?vid=cd2f90f5-02ca-4882-8515-825da0d77f2f","ios":"levelo://app?vid=cd2f90f5-02ca-4882-8515-825da0d77f2f"},"vehicle_type_id":"4","last_reported":1747321870,"current_range_meters":2000,"station_id":"ce4bgkh2rcd13ifvqbl0","pricing_plan_id":"cebpf4jnsgd1na2vs0mg"},{"bike_id":"d805c266-e964-4fbd-aa05-19511acd6f8b","system_id":"levelo_inurba_marseille","lat":43.31229,"lon":5.36815,"is_reserved":false,"is_disabled":true,"rental_uris":{"android":"levelo://app?vid=d805c266-e964-4fbd-aa05-19511acd6f8b","ios":"levelo://app?vid=d805c266-e964-4fbd-aa05-19511acd6f8b"},"vehicle_type_id":"4","last_reported":1747321870,"current_range_meters":2000,"station_id":"ce4bgl92rcd13ifvqbq0","pricing_plan_id":"cebpf4jnsgd1na2vs0mg"},{"bike_id":"6e6150f4-71c1-493c-b17b-6951a2a3d9c2","system_id":"levelo_inurba_marseille","lat":43.308114,"lon":5.381508,"is_reserved":false,"is_disabled":true,"rental_uris":{"android":"levelo://app?vid=6e6150f4-71c1-493c-b17b-6951a2a3d9c2","ios":"levelo://app?vid=6e6150f4-71c1-493c-b17b-6951a2a3d9c2"},"vehicle_type_id":"4","last_reported":1747321870,"current_range_meters":2000,"station_id":"ce4bgt12rcd13ifvqce0","pricing_plan_id":"cebpf4jnsgd1na2vs0mg"},{"bike_id":"d7d760b2-9582-429f-828e-9212e11b58c6","system_id":"levelo_inurba_marseille","lat":43.31703,"lon":5.40473,"is_reserved":false,"is_disabled":true,"rental_uris":{"android":"levelo://app?vid=d7d760b2-9582-429f-828e-9212e11b58c6","ios":"levelo://app?vid=d7d760b2-9582-429f-828e-9212e11b58c6"},"vehicle_type_id":"4","last_reported":1747321870,"current_range_meters":2000,"station_id":"ce4bh012rcd13ifvqd00","pricing_plan_id":"cebpf4jnsgd1na2vs0mg"},{"bike_id":"eae64c20-e1f7-44a0-a3b5-6f884169811b","system_id":"levelo_inurba_marseille","lat":43.29533,"lon":5.3904,"is_reserved":false,"is_disabled":false,"rental_uris":{"android":"levelo://app?vid=eae64c20-e1f7-44a0-a3b5-6f884169811b","ios":"levelo://app?vid=eae64c20-e1f7-44a0-a3b5-6f884169811b"},"vehicle_type_id":"4","last_reported":1747321870,"current_range_meters":2800,"station_id":"ce4bh3p2rcd13ifvqdp0","pricing_plan_id":"cebpf4jnsgd1na2vs0mg"},{"bike_id":"3394a0d8-6fd6-4806-9358-abe8edcd5408","system_id":"levelo_inurba_marseille","lat":43.29261,"lon":5.37597,"is_reserved":false,"is_disabled":false,"rental_uris":{"android":"levelo://app?vid=3394a0d8-6fd6-4806-9358-abe8edcd5408","ios":"levelo://app?vid=3394a0d8-6fd6-4806-9358-abe8edcd5408"},"vehicle_type_id":"4","last_reported":1747321870,"current_range_meters":3200,"station_id":"ce4bgi12rcd13ifvqb80","pricing_plan_id":"cebpf4jnsgd1na2vs0mg"},{"bike_id":"2960b8b7-f0df-4f55-9d00-11a639418f64","system_id":"levelo_inurba_marseille","lat":43.25501,"lon":5.37648,"is_reserved":false,"is_disabled":false,"rental_uris":{"android":"levelo://app?vid=2960b8b7-f0df-4f55-9d00-11a639418f64","ios":"levelo://app?vid=2960b8b7-f0df-4f55-9d00-11a639418f64"},"vehicle_type_id":"4","last_reported":1747321870,"current_range_meters":3200,"station_id":"ce4bhh12rcd13ifvqff0","pricing_plan_id":"cebpf4jnsgd1na2vs0mg"},{"bike_id":"85bb37dc-8847-45ab-bb1b-a33f84600219","system_id":"levelo_inurba_marseille","lat":43.23963,"lon":5.3663,"is_reserved":false,"is_disabled":false,"rental_uris":{"android":"levelo://app?vid=85bb37dc-8847-45ab-bb1b-a33f84600219","ios":"levelo://app?vid=85bb37dc-8847-45ab-bb1b-a33f84600219"},"vehicle_type_id":"4","last_reported":1747321870,"current_range_meters":3200,"station_id":"ce4bhi12rcd13ifvqfp0","pricing_plan_id":"cebpf4jnsgd1na2vs0mg"},{"bike_id":"cbbbcea0-3558-46e3-9e24-c44f69976f1b","system_id":"levelo_inurba_marseille","lat":43.25871,"lon":5.39894,"is_reserved":false,"is_disabled":false,"rental_uris":{"android":"levelo://app?vid=cbbbcea0-3558-46e3-9e24-c44f69976f1b","ios":"levelo://app?vid=cbbbcea0-3558-46e3-9e24-c44f69976f1b"},"vehicle_type_id":"4","last_reported":1747321870,"current_range_meters":3200,"station_id":"ce4bhl92rcd13ifvqghg","pricing_plan_id":"cebpf4jnsgd1na2vs0mg"},{"bike_id":"8e6b2ae0-b698-4344-b896-d94261592933","system_id":"levelo_inurba_marseille","lat":43.30518,"lon":5.36523,"is_reserved":false,"is_disabled":false,"rental_uris":{"android":"levelo://app?vid=8e6b2ae0-b698-4344-b896-d94261592933","ios":"levelo://app?vid=8e6b2ae0-b698-4344-b896-d94261592933"},"vehicle_type_id":"4","last_reported":1747321870,"current_range_meters":3600,"station_id":"","pricing_plan_id":"cebpf4jnsgd1na2vs0mg"},{"bike_id":"faaadef9-925f-4e9e-b48d-38e54db95de2","system_id":"levelo_inurba_marseille","lat":43.311284,"lon":5.37762,"is_reserved":false,"is_disabled":false,"rental_uris":{"android":"levelo://app?vid=faaadef9-925f-4e9e-b48d-38e54db95de2","ios":"levelo://app?vid=faaadef9-925f-4e9e-b48d-38e54db95de2"},"vehicle_type_id":"4","last_reported":1747321870,"current_range_meters":3600,"station_id":"ce4bgt92rcd13ifvqcg0","pricing_plan_id":"cebpf4jnsgd1na2vs0mg"},{"bike_id":"5afb15af-91e1-4bce-93df-0609840c87bc","system_id":"levelo_inurba_marseille","lat":43.28046,"lon":5.36949,"is_reserved":false,"is_disabled":false,"rental_uris":{"android":"levelo://app?vid=5afb15af-91e1-4bce-93df-0609840c87bc","ios":"levelo://app?vid=5afb15af-91e1-4bce-93df-0609840c87bc"},"vehicle_type_id":"4","last_reported":1747321870,"current_range_meters":3600,"station_id":"ce4bha12rcd13ifvqef0","pricing_plan_id":"cebpf4jnsgd1na2vs0mg"},{"bike_id":"44ef691f-fd94-4ea7-bea6-1486055d01e7","system_id":"levelo_inurba_marseille","lat":43.32335,"lon":5.40623,"is_reserved":false,"is_disabled":false,"rental_uris":{"android":"levelo://app?vid=44ef691f-fd94-4ea7-bea6-1486055d01e7","ios":"levelo://app?vid=44ef691f-fd94-4ea7-bea6-1486055d01e7"},"vehicle_type_id":"4","last_reported":1747321870,"current_range_meters":3600,"station_id":"ce4bhq92rcd13ifvqhjg","pricing_plan_id":"cebpf4jnsgd1na2vs0mg"},{"bike_id":"e2a34c6c-aa68-45e9-80af-3ff58b76496d","system_id":"levelo_inurba_marseille","lat":43.26782,"lon":5.39417,"is_reserved":false,"is_disabled":false,"rental_uris":{"android":"levelo://app?vid=e2a34c6c-aa68-45e9-80af-3ff58b76496d","ios":"levelo://app?vid=e2a34c6c-aa68-45e9-80af-3ff58b76496d"},"vehicle_type_id":"4","last_reported":1747321870,"current_range_meters":4000,"station_id":"ce4bhh12rcd13ifvqfg0","pricing_plan_id":"cebpf4jnsgd1na2vs0mg"},{"bike_id":"bd2a9b1e-da3d-40e4-b4e4-420ee1ebccc2","system_id":"levelo_inurba_marseille","lat":43.275687,"lon":5.384228,"is_reserved":false,"is_disabled":false,"rental_uris":{"android":"levelo://app?vid=bd2a9b1e-da3d-40e4-b4e4-420ee1ebccc2","ios":"levelo://app?vid=bd2a9b1e-da3d-40e4-b4e4-420ee1ebccc2"},"vehicle_type_id":"4","last_reported":1747321870,"current_range_meters":4000,"station_id":"ce4bhh92rcd13ifvqfi0","pricing_plan_id":"cebpf4jnsgd1na2vs0mg"},{"bike_id":"ba0a7d25-ef9a-4c11-ad07-bc800a4ba9fe","system_id":"levelo_inurba_marseille","lat":43.28613,"lon":5.3513,"is_reserved":false,"is_disabled":false,"rental_uris":{"android":"levelo://app?vid=ba0a7d25-ef9a-4c11-ad07-bc800a4ba9fe","ios":"levelo://app?vid=ba0a7d25-ef9a-4c11-ad07-bc800a4ba9fe"},"vehicle_type_id":"4","last_reported":1747321870,"current_range_meters":4400,"station_id":"ce4bhch2rcd13ifvqeug","pricing_plan_id":"cebpf4jnsgd1na2vs0mg"},{"bike_id":"49481e7b-7342-45c8-be85-77f668bcfbbc","system_id":"levelo_inurba_marseille","lat":43.273392,"lon":5.390745,"is_reserved":false,"is_disabled":false,"rental_uris":{"android":"levelo://app?vid=49481e7b-7342-45c8-be85-77f668bcfbbc","ios":"levelo://app?vid=49481e7b-7342-45c8-be85-77f668bcfbbc"},"vehicle_type_id":"4","last_reported":1747321870,"current_range_meters":4400,"station_id":"ce4bhe12rcd13ifvqf30","pricing_plan_id":"cebpf4jnsgd1na2vs0mg"},{"bike_id":"4d182661-33c1-465d-9cc5-3859d8fc1577","system_id":"levelo_inurba_marseille","lat":43.24804,"lon":5.37453,"is_reserved":false,"is_disabled":false,"rental_uris":{"android":"levelo://app?vid=4d182661-33c1-465d-9cc5-3859d8fc1577","ios":"levelo://app?vid=4d182661-33c1-465d-9cc5-3859d8fc1577"},"vehicle_type_id":"4","last_reported":1747321870,"current_range_meters":4400,"station_id":"ce4bhgh2rcd13ifvqfb0","pricing_plan_id":"cebpf4jnsgd1na2vs0mg"},{"bike_id":"4f44fc50-24d4-4926-93c0-6332d6d4e948","system_id":"levelo_inurba_marseille","lat":43.28358,"lon":5.38623,"is_reserved":false,"is_disabled":false,"rental_uris":{"android":"levelo://app?vid=4f44fc50-24d4-4926-93c0-6332d6d4e948","ios":"levelo://app?vid=4f44fc50-24d4-4926-93c0-6332d6d4e948"},"vehicle_type_id":"4","last_reported":1747321870,"current_range_meters":4800,"station_id":"ce4bh492rcd13ifvqdvg","pricing_plan_id":"cebpf4jnsgd1na2vs0mg"},{"bike_id":"2fc40216-e230-41bd-a3cc-75aeea34c208","system_id":"levelo_inurba_marseille","lat":43.26572,"lon":5.38998,"is_reserved":false,"is_disabled":false,"rental_uris":{"android":"levelo://app?vid=2fc40216-e230-41bd-a3cc-75aeea34c208","ios":"levelo://app?vid=2fc40216-e230-41bd-a3cc-75aeea34c208"},"vehicle_type_id":"4","last_reported":1747321870,"current_range_meters":4800,"station_id":"ce4bhe12rcd13ifvqf30","pricing_plan_id":"cebpf4jnsgd1na2vs0mg"},{"bike_id":"52ad7e1b-c2c8-45f8-b6ff-1e8c88a00ff2","system_id":"levelo_inurba_marseille","lat":43.32334,"lon":5.4062,"is_reserved":false,"is_disabled":false,"rental_uris":{"android":"levelo://app?vid=52ad7e1b-c2c8-45f8-b6ff-1e8c88a00ff2","ios":"levelo://app?vid=52ad7e1b-c2c8-45f8-b6ff-1e8c88a00ff2"},"vehicle_type_id":"4","last_reported":1747321870,"current_range_meters":4800,"station_id":"ce4bhq92rcd13ifvqhjg","pricing_plan_id":"cebpf4jnsgd1na2vs0mg"},{"bike_id":"67bbf5f3-3c96-4dfa-a0e7-72bbfc7dedb1","system_id":"levelo_inurba_marseille","lat":43.2959,"lon":5.37512,"is_reserved":false,"is_disabled":false,"rental_uris":{"android":"levelo://app?vid=67bbf5f3-3c96-4dfa-a0e7-72bbfc7dedb1","ios":"levelo://app?vid=67bbf5f3-3c96-4dfa-a0e7-72bbfc7dedb1"},"vehicle_type_id":"4","last_reported":1747321870,"current_range_meters":6000,"station_id":"ce4bgh92rcd13ifvqb50","pricing_plan_id":"cebpf4jnsgd1na2vs0mg"},{"bike_id":"939fa39f-f570-4b75-b2d6-d85b90e32652","system_id":"levelo_inurba_marseille","lat":43.2926,"lon":5.40914,"is_reserved":false,"is_disabled":false,"rental_uris":{"android":"levelo://app?vid=939fa39f-f570-4b75-b2d6-d85b90e32652","ios":"levelo://app?vid=939fa39f-f570-4b75-b2d6-d85b90e32652"},"vehicle_type_id":"4","last_reported":1747321870,"current_range_meters":6000,"station_id":"ce4bh192rcd13ifvqdc0","pricing_plan_id":"cebpf4jnsgd1na2vs0mg"},{"bike_id":"ac8bd790-d509-4a49-98b5-acede237a3d7","system_id":"levelo_inurba_marseille","lat":43.27977,"lon":5.38732,"is_reserved":false,"is_disabled":false,"rental_uris":{"android":"levelo://app?vid=ac8bd790-d509-4a49-98b5-acede237a3d7","ios":"levelo://app?vid=ac8bd790-d509-4a49-98b5-acede237a3d7"},"vehicle_type_id":"4","last_reported":1747321870,"current_range_meters":6000,"station_id":"ce4bhg12rcd13ifvqf80","pricing_plan_id":"cebpf4jnsgd1na2vs0mg"},{"bike_id":"410a3af3-0c1c-47ba-9802-e5b6e012e3ea","system_id":"levelo_inurba_marseille","lat":43.26491,"lon":5.39549,"is_reserved":false,"is_disabled":false,"rental_uris":{"android":"levelo://app?vid=410a3af3-0c1c-47ba-9802-e5b6e012e3ea","ios":"levelo://app?vid=410a3af3-0c1c-47ba-9802-e5b6e012e3ea"},"vehicle_type_id":"4","last_reported":1747321870,"current_range_meters":6000,"station_id":"ce4bhi12rcd13ifvqfq0","pricing_plan_id":"cebpf4jnsgd1na2vs0mg"},{"bike_id":"169128ee-8d67-4fcc-89e8-b062ebaf97b2","system_id":"levelo_inurba_marseille","lat":43.2705,"lon":5.40267,"is_reserved":false,"is_disabled":false,"rental_uris":{"android":"levelo://app?vid=169128ee-8d67-4fcc-89e8-b062ebaf97b2","ios":"levelo://app?vid=169128ee-8d67-4fcc-89e8-b062ebaf97b2"},"vehicle_type_id":"4","last_reported":1747321870,"current_range_meters":6000,"station_id":"ce4bhk92rcd13ifvqgc0","pricing_plan_id":"cebpf4jnsgd1na2vs0mg"},{"bike_id":"e64d0eef-59d1-420e-8ebf-8a9b7465588f","system_id":"levelo_inurba_marseille","lat":43.28462,"lon":5.35889,"is_reserved":false,"is_disabled":false,"rental_uris":{"android":"levelo://app?vid=e64d0eef-59d1-420e-8ebf-8a9b7465588f","ios":"levelo://app?vid=e64d0eef-59d1-420e-8ebf-8a9b7465588f"},"vehicle_type_id":"4","last_reported":1747321870,"current_range_meters":6400,"station_id":"ce4bhah2rcd13ifvqei0","pricing_plan_id":"cebpf4jnsgd1na2vs0mg"},{"bike_id":"a885c5c6-51a3-4c10-9d81-6ef34ad63f9a","system_id":"levelo_inurba_marseille","lat":43.28269,"lon":5.35063,"is_reserved":false,"is_disabled":false,"rental_uris":{"android":"levelo://app?vid=a885c5c6-51a3-4c10-9d81-6ef34ad63f9a","ios":"levelo://app?vid=a885c5c6-51a3-4c10-9d81-6ef34ad63f9a"},"vehicle_type_id":"4","last_reported":1747321870,"current_range_meters":6400,"station_id":"ce4bhbp2rcd13ifvqerg","pricing_plan_id":"cebpf4jnsgd1na2vs0mg"},{"bike_id":"c635c003-c837-45b6-bdbe-cb6571da725e","system_id":"levelo_inurba_marseille","lat":43.2693,"lon":5.38914,"is_reserved":false,"is_disabled":false,"rental_uris":{"android":"levelo://app?vid=c635c003-c837-45b6-bdbe-cb6571da725e","ios":"levelo://app?vid=c635c003-c837-45b6-bdbe-cb6571da725e"},"vehicle_type_id":"4","last_reported":1747321870,"current_range_meters":6400,"station_id":"ce4bhhh2rcd13ifvqfl0","pricing_plan_id":"cebpf4jnsgd1na2vs0mg"},{"bike_id":"0b781258-e708-430b-a51b-90fe59fd8f01","system_id":"levelo_inurba_marseille","lat":43.27948,"lon":5.41052,"is_reserved":false,"is_disabled":false,"rental_uris":{"android":"levelo://app?vid=0b781258-e708-430b-a51b-90fe59fd8f01","ios":"levelo://app?vid=0b781258-e708-430b-a51b-90fe59fd8f01"},"vehicle_type_id":"4","last_reported":1747321870,"current_range_meters":6400,"station_id":"ce4bhnp2rcd13ifvqh0g","pricing_plan_id":"cebpf4jnsgd1na2vs0mg"},{"bike_id":"6db4eae3-7d52-4408-b15a-37ef9b3865ce","system_id":"levelo_inurba_marseille","lat":43.27306,"lon":5.39082,"is_reserved":false,"is_disabled":false,"rental_uris":{"android":"levelo://app?vid=6db4eae3-7d52-4408-b15a-37ef9b3865ce","ios":"levelo://app?vid=6db4eae3-7d52-4408-b15a-37ef9b3865ce"},"vehicle_type_id":"4","last_reported":1747321870,"current_range_meters":6800,"station_id":"","pricing_plan_id":"cebpf4jnsgd1na2vs0mg"},{"bike_id":"d8c7d13a-0fdd-4a12-9346-968302b08e78","system_id":"levelo_inurba_marseille","lat":43.295897,"lon":5.402247,"is_reserved":false,"is_disabled":false,"rental_uris":{"android":"levelo://app?vid=d8c7d13a-0fdd-4a12-9346-968302b08e78","ios":"levelo://app?vid=d8c7d13a-0fdd-4a12-9346-968302b08e78"},"vehicle_type_id":"4","last_reported":1747321870,"current_range_meters":6800,"station_id":"ce4bh0h2rcd13ifvqd60","pricing_plan_id":"cebpf4jnsgd1na2vs0mg"},{"bike_id":"14067067-c100-41e2-94ae-95e19035c82d","system_id":"levelo_inurba_marseille","lat":43.29631,"lon":5.40603,"is_reserved":false,"is_disabled":false,"rental_uris":{"android":"levelo://app?vid=14067067-c100-41e2-94ae-95e19035c82d","ios":"levelo://app?vid=14067067-c100-41e2-94ae-95e19035c82d"},"vehicle_type_id":"4","last_reported":1747321870,"current_range_meters":6800,"station_id":"ce4bh0h2rcd13ifvqd60","pricing_plan_id":"cebpf4jnsgd1na2vs0mg"},{"bike_id":"17a8dab2-c26e-4b21-aba1-f468aa9b3f43","system_id":"levelo_inurba_marseille","lat":43.27371,"lon":5.36257,"is_reserved":false,"is_disabled":false,"rental_uris":{"android":"levelo://app?vid=17a8dab2-c26e-4b21-aba1-f468aa9b3f43","ios":"levelo://app?vid=17a8dab2-c26e-4b21-aba1-f468aa9b3f43"},"vehicle_type_id":"4","last_reported":1747321870,"current_range_meters":6800,"station_id":"ce4bhbh2rcd13ifvqeo0","pricing_plan_id":"cebpf4jnsgd1na2vs0mg"},{"bike_id":"66038b63-a461-463a-bbda-12a73a45aba4","system_id":"levelo_inurba_marseille","lat":43.23178,"lon":5.39993,"is_reserved":false,"is_disabled":false,"rental_uris":{"android":"levelo://app?vid=66038b63-a461-463a-bbda-12a73a45aba4","ios":"levelo://app?vid=66038b63-a461-463a-bbda-12a73a45aba4"},"vehicle_type_id":"4","last_reported":1747321870,"current_range_meters":6800,"station_id":"ce4bhn12rcd13ifvqgqg","pricing_plan_id":"cebpf4jnsgd1na2vs0mg"},{"bike_id":"fb7a4e91-28b3-42b3-91d7-9cf9af9057b7","system_id":"levelo_inurba_marseille","lat":43.26574,"lon":5.37265,"is_reserved":false,"is_disabled":false,"rental_uris":{"android":"levelo://app?vid=fb7a4e91-28b3-42b3-91d7-9cf9af9057b7","ios":"levelo://app?vid=fb7a4e91-28b3-42b3-91d7-9cf9af9057b7"},"vehicle_type_id":"4","last_reported":1747321870,"current_range_meters":7200,"station_id":"ce4bhg12rcd13ifvqf70","pricing_plan_id":"cebpf4jnsgd1na2vs0mg"},{"bike_id":"e3faef6f-635a-4b6b-b2b3-c0b918604df6","system_id":"levelo_inurba_marseille","lat":43.299129,"lon":5.436621,"is_reserved":false,"is_disabled":false,"rental_uris":{"android":"levelo://app?vid=e3faef6f-635a-4b6b-b2b3-c0b918604df6","ios":"levelo://app?vid=e3faef6f-635a-4b6b-b2b3-c0b918604df6"},"vehicle_type_id":"4","last_reported":1747321870,"current_range_meters":7200,"station_id":"ce4bhpp2rcd13ifvqhfg","pricing_plan_id":"cebpf4jnsgd1na2vs0mg"},{"bike_id":"dab255dd-e558-45f8-a68f-467960e22029","system_id":"levelo_inurba_marseille","lat":43.27377,"lon":5.36288,"is_reserved":false,"is_disabled":false,"rental_uris":{"android":"levelo://app?vid=dab255dd-e558-45f8-a68f-467960e22029","ios":"levelo://app?vid=dab255dd-e558-45f8-a68f-467960e22029"},"vehicle_type_id":"4","last_reported":1747321870,"current_range_meters":8000,"station_id":"ce4bhbh2rcd13ifvqeo0","pricing_plan_id":"cebpf4jnsgd1na2vs0mg"},{"bike_id":"1d774fd4-d9fe-42e0-b701-37196646cbb9","system_id":"levelo_inurba_marseille","lat":43.2842,"lon":5.34991,"is_reserved":false,"is_disabled":false,"rental_uris":{"android":"levelo://app?vid=1d774fd4-d9fe-42e0-b701-37196646cbb9","ios":"levelo://app?vid=1d774fd4-d9fe-42e0-b701-37196646cbb9"},"vehicle_type_id":"4","last_reported":1747321870,"current_range_meters":8000,"station_id":"ce4bhbh2rcd13ifvqepg","pricing_plan_id":"cebpf4jnsgd1na2vs0mg"},{"bike_id":"d5ddcfd4-cc60-4a84-bc76-55f25a231b05","system_id":"levelo_inurba_marseille","lat":43.26566,"lon":5.37299,"is_reserved":false,"is_disabled":false,"rental_uris":{"android":"levelo://app?vid=d5ddcfd4-cc60-4a84-bc76-55f25a231b05","ios":"levelo://app?vid=d5ddcfd4-cc60-4a84-bc76-55f25a231b05"},"vehicle_type_id":"4","last_reported":1747321870,"current_range_meters":8000,"station_id":"ce4bhg12rcd13ifvqf70","pricing_plan_id":"cebpf4jnsgd1na2vs0mg"},{"bike_id":"c1f914c7-a720-4399-8861-ed1caf686dae","system_id":"levelo_inurba_marseille","lat":43.279453,"lon":5.41046,"is_reserved":false,"is_disabled":false,"rental_uris":{"android":"levelo://app?vid=c1f914c7-a720-4399-8861-ed1caf686dae","ios":"levelo://app?vid=c1f914c7-a720-4399-8861-ed1caf686dae"},"vehicle_type_id":"4","last_reported":1747321870,"current_range_meters":8000,"station_id":"ce4bhnp2rcd13ifvqh0g","pricing_plan_id":"cebpf4jnsgd1na2vs0mg"},{"bike_id":"179484d2-0f50-4718-bf8f-da3ed0d103c9","system_id":"levelo_inurba_marseille","lat":43.28078,"lon":5.39659,"is_reserved":false,"is_disabled":false,"rental_uris":{"android":"levelo://app?vid=179484d2-0f50-4718-bf8f-da3ed0d103c9","ios":"levelo://app?vid=179484d2-0f50-4718-bf8f-da3ed0d103c9"},"vehicle_type_id":"4","last_reported":1747321870,"current_range_meters":8000,"station_id":"ce4bho12rcd13ifvqh2g","pricing_plan_id":"cebpf4jnsgd1na2vs0mg"},{"bike_id":"a4cd157a-d96a-4a33-8759-8787d4c637a6","system_id":"levelo_inurba_marseille","lat":43.27121,"lon":5.39975,"is_reserved":false,"is_disabled":false,"rental_uris":{"android":"levelo://app?vid=a4cd157a-d96a-4a33-8759-8787d4c637a6","ios":"levelo://app?vid=a4cd157a-d96a-4a33-8759-8787d4c637a6"},"vehicle_type_id":"4","last_reported":1747321870,"current_range_meters":8400,"station_id":"","pricing_plan_id":"cebpf4jnsgd1na2vs0mg"},{"bike_id":"e91c1f8f-f954-463c-8507-b61046b1e2b3","system_id":"levelo_inurba_marseille","lat":43.29268,"lon":5.37636,"is_reserved":false,"is_disabled":false,"rental_uris":{"android":"levelo://app?vid=e91c1f8f-f954-463c-8507-b61046b1e2b3","ios":"levelo://app?vid=e91c1f8f-f954-463c-8507-b61046b1e2b3"},"vehicle_type_id":"4","last_reported":1747321870,"current_range_meters":8400,"station_id":"ce4bgi12rcd13ifvqb80","pricing_plan_id":"cebpf4jnsgd1na2vs0mg"},{"bike_id":"cfd284e0-27b0-48d5-b8bd-566d5a35776a","system_id":"levelo_inurba_marseille","lat":43.2857,"lon":5.39512,"is_reserved":false,"is_disabled":false,"rental_uris":{"android":"levelo://app?vid=cfd284e0-27b0-48d5-b8bd-566d5a35776a","ios":"levelo://app?vid=cfd284e0-27b0-48d5-b8bd-566d5a35776a"},"vehicle_type_id":"4","last_reported":1747321870,"current_range_meters":8400,"station_id":"ce4bh292rcd13ifvqdg0","pricing_plan_id":"cebpf4jnsgd1na2vs0mg"},{"bike_id":"e87f7a61-fbc4-4422-9a2a-c2ffa98ae88f","system_id":"levelo_inurba_marseille","lat":43.2804,"lon":5.36945,"is_reserved":false,"is_disabled":false,"rental_uris":{"android":"levelo://app?vid=e87f7a61-fbc4-4422-9a2a-c2ffa98ae88f","ios":"levelo://app?vid=e87f7a61-fbc4-4422-9a2a-c2ffa98ae88f"},"vehicle_type_id":"4","last_reported":1747321870,"current_range_meters":8400,"station_id":"ce4bha12rcd13ifvqef0","pricing_plan_id":"cebpf4jnsgd1na2vs0mg"},{"bike_id":"34c6d641-1204-4fa1-9c68-59968a78ccbb","system_id":"levelo_inurba_marseille","lat":43.28627,"lon":5.35096,"is_reserved":false,"is_disabled":false,"rental_uris":{"android":"levelo://app?vid=34c6d641-1204-4fa1-9c68-59968a78ccbb","ios":"levelo://app?vid=34c6d641-1204-4fa1-9c68-59968a78ccbb"},"vehicle_type_id":"4","last_reported":1747321870,"current_range_meters":8400,"station_id":"ce4bhch2rcd13ifvqeug","pricing_plan_id":"cebpf4jnsgd1na2vs0mg"},{"bike_id":"0c4d88aa-d524-4ae2-bf44-37a32f7f889d","system_id":"levelo_inurba_marseille","lat":43.28613,"lon":5.35103,"is_reserved":false,"is_disabled":false,"rental_uris":{"android":"levelo://app?vid=0c4d88aa-d524-4ae2-bf44-37a32f7f889d","ios":"levelo://app?vid=0c4d88aa-d524-4ae2-bf44-37a32f7f889d"},"vehicle_type_id":"4","last_reported":1747321870,"current_range_meters":8400,"station_id":"ce4bhch2rcd13ifvqeug","pricing_plan_id":"cebpf4jnsgd1na2vs0mg"},{"bike_id":"73174a1e-b779-4402-b8c8-f72bd450c25f","system_id":"levelo_inurba_marseille","lat":43.265537,"lon":5.373023,"is_reserved":false,"is_disabled":false,"rental_uris":{"android":"levelo://app?vid=73174a1e-b779-4402-b8c8-f72bd450c25f","ios":"levelo://app?vid=73174a1e-b779-4402-b8c8-f72bd450c25f"},"vehicle_type_id":"4","last_reported":1747321870,"current_range_meters":8400,"station_id":"ce4bhg12rcd13ifvqf70","pricing_plan_id":"cebpf4jnsgd1na2vs0mg"},{"bike_id":"f19d70aa-4768-4d6c-bad8-48f1edf5252c","system_id":"levelo_inurba_marseille","lat":43.31726,"lon":5.42394,"is_reserved":false,"is_disabled":false,"rental_uris":{"android":"levelo://app?vid=f19d70aa-4768-4d6c-bad8-48f1edf5252c","ios":"levelo://app?vid=f19d70aa-4768-4d6c-bad8-48f1edf5252c"},"vehicle_type_id":"4","last_reported":1747321870,"current_range_meters":8400,"station_id":"ce4bhp92rcd13ifvqhbg","pricing_plan_id":"cebpf4jnsgd1na2vs0mg"},{"bike_id":"827adc3c-2abb-4b17-8a83-427b677e1af2","system_id":"levelo_inurba_marseille","lat":43.276153,"lon":5.361065,"is_reserved":false,"is_disabled":false,"rental_uris":{"android":"levelo://app?vid=827adc3c-2abb-4b17-8a83-427b677e1af2","ios":"levelo://app?vid=827adc3c-2abb-4b17-8a83-427b677e1af2"},"vehicle_type_id":"4","last_reported":1747321870,"current_range_meters":8800,"station_id":"ce4bgj92rcd13ifvqbe0","pricing_plan_id":"cebpf4jnsgd1na2vs0mg"},{"bike_id":"7876859a-349a-49de-ab35-99b143a4bcae","system_id":"levelo_inurba_marseille","lat":43.25573,"lon":5.38251,"is_reserved":false,"is_disabled":false,"rental_uris":{"android":"levelo://app?vid=7876859a-349a-49de-ab35-99b143a4bcae","ios":"levelo://app?vid=7876859a-349a-49de-ab35-99b143a4bcae"},"vehicle_type_id":"4","last_reported":1747321870,"current_range_meters":8800,"station_id":"ce4bhih2rcd13ifvqfs0","pricing_plan_id":"cebpf4jnsgd1na2vs0mg"},{"bike_id":"f141b136-aadf-4a94-923e-4b198f8dbce8","system_id":"levelo_inurba_marseille","lat":43.26235,"lon":5.40462,"is_reserved":false,"is_disabled":false,"rental_uris":{"android":"levelo://app?vid=f141b136-aadf-4a94-923e-4b198f8dbce8","ios":"levelo://app?vid=f141b136-aadf-4a94-923e-4b198f8dbce8"},"vehicle_type_id":"4","last_reported":1747321870,"current_range_meters":8800,"station_id":"ce4bhmh2rcd13ifvqgmg","pricing_plan_id":"cebpf4jnsgd1na2vs0mg"},{"bike_id":"3e2223ce-7bde-4ec4-9252-679cd1be4927","system_id":"levelo_inurba_marseille","lat":43.23135,"lon":5.43716,"is_reserved":false,"is_disabled":false,"rental_uris":{"android":"levelo://app?vid=3e2223ce-7bde-4ec4-9252-679cd1be4927","ios":"levelo://app?vid=3e2223ce-7bde-4ec4-9252-679cd1be4927"},"vehicle_type_id":"4","last_reported":1747321870,"current_range_meters":8800,"station_id":"ce4bhmp2rcd13ifvqgog","pricing_plan_id":"cebpf4jnsgd1na2vs0mg"},{"bike_id":"7cad8bbf-afe9-4767-8543-3e633fd367b9","system_id":"levelo_inurba_marseille","lat":43.27812,"lon":5.40717,"is_reserved":false,"is_disabled":false,"rental_uris":{"android":"levelo://app?vid=7cad8bbf-afe9-4767-8543-3e633fd367b9","ios":"levelo://app?vid=7cad8bbf-afe9-4767-8543-3e633fd367b9"},"vehicle_type_id":"4","last_reported":1747321870,"current_range_meters":8800,"station_id":"ce4bhnh2rcd13ifvqgtg","pricing_plan_id":"cebpf4jnsgd1na2vs0mg"},{"bike_id":"e9644d12-b48e-4a2f-8ba8-7cc3dea7b648","system_id":"levelo_inurba_marseille","lat":43.32469,"lon":5.36591,"is_reserved":false,"is_disabled":false,"rental_uris":{"android":"levelo://app?vid=e9644d12-b48e-4a2f-8ba8-7cc3dea7b648","ios":"levelo://app?vid=e9644d12-b48e-4a2f-8ba8-7cc3dea7b648"},"vehicle_type_id":"4","last_reported":1747321870,"current_range_meters":8800,"station_id":"ce4bhs12rcd13ifvqhvg","pricing_plan_id":"cebpf4jnsgd1na2vs0mg"},{"bike_id":"d0a38267-df4a-4fdb-8149-634f6e0b16ba","system_id":"levelo_inurba_marseille","lat":43.2904,"lon":5.37554,"is_reserved":false,"is_disabled":false,"rental_uris":{"android":"levelo://app?vid=d0a38267-df4a-4fdb-8149-634f6e0b16ba","ios":"levelo://app?vid=d0a38267-df4a-4fdb-8149-634f6e0b16ba"},"vehicle_type_id":"4","last_reported":1747321870,"current_range_meters":9200,"station_id":"ce4bh692rcd13ifvqe90","pricing_plan_id":"cebpf4jnsgd1na2vs0mg"},{"bike_id":"d0f3b23c-0dd5-4317-94c1-8a3e00b2b653","system_id":"levelo_inurba_marseille","lat":43.27379,"lon":5.3626,"is_reserved":false,"is_disabled":false,"rental_uris":{"android":"levelo://app?vid=d0f3b23c-0dd5-4317-94c1-8a3e00b2b653","ios":"levelo://app?vid=d0f3b23c-0dd5-4317-94c1-8a3e00b2b653"},"vehicle_type_id":"4","last_reported":1747321870,"current_range_meters":9200,"station_id":"ce4bhbh2rcd13ifvqeo0","pricing_plan_id":"cebpf4jnsgd1na2vs0mg"},{"bike_id":"942324bb-9206-45e1-b38d-dd3f280e9884","system_id":"levelo_inurba_marseille","lat":43.28254,"lon":5.35063,"is_reserved":false,"is_disabled":false,"rental_uris":{"android":"levelo://app?vid=942324bb-9206-45e1-b38d-dd3f280e9884","ios":"levelo://app?vid=942324bb-9206-45e1-b38d-dd3f280e9884"},"vehicle_type_id":"4","last_reported":1747321870,"current_range_meters":9200,"station_id":"ce4bhbp2rcd13ifvqerg","pricing_plan_id":"cebpf4jnsgd1na2vs0mg"},{"bike_id":"2725bd35-e41a-42ea-adb7-55ea74be25e9","system_id":"levelo_inurba_marseille","lat":43.28272,"lon":5.35092,"is_reserved":false,"is_disabled":false,"rental_uris":{"android":"levelo://app?vid=2725bd35-e41a-42ea-adb7-55ea74be25e9","ios":"levelo://app?vid=2725bd35-e41a-42ea-adb7-55ea74be25e9"},"vehicle_type_id":"4","last_reported":1747321870,"current_range_meters":9200,"station_id":"ce4bhbp2rcd13ifvqerg","pricing_plan_id":"cebpf4jnsgd1na2vs0mg"},{"bike_id":"2d37f806-56b2-4d18-8138-8e9deece46bd","system_id":"levelo_inurba_marseille","lat":43.28639,"lon":5.351,"is_reserved":false,"is_disabled":false,"rental_uris":{"android":"levelo://app?vid=2d37f806-56b2-4d18-8138-8e9deece46bd","ios":"levelo://app?vid=2d37f806-56b2-4d18-8138-8e9deece46bd"},"vehicle_type_id":"4","last_reported":1747321870,"current_range_meters":9200,"station_id":"ce4bhch2rcd13ifvqeug","pricing_plan_id":"cebpf4jnsgd1na2vs0mg"},{"bike_id":"c9ba0601-5a4c-4d70-a19a-32e2f42ac3cf","system_id":"levelo_inurba_marseille","lat":43.28617,"lon":5.35112,"is_reserved":false,"is_disabled":false,"rental_uris":{"android":"levelo://app?vid=c9ba0601-5a4c-4d70-a19a-32e2f42ac3cf","ios":"levelo://app?vid=c9ba0601-5a4c-4d70-a19a-32e2f42ac3cf"},"vehicle_type_id":"4","last_reported":1747321870,"current_range_meters":9200,"station_id":"ce4bhch2rcd13ifvqeug","pricing_plan_id":"cebpf4jnsgd1na2vs0mg"},{"bike_id":"17d57f58-ffb0-4d77-bbe5-7f462887ac74","system_id":"levelo_inurba_marseille","lat":43.241737,"lon":5.397135,"is_reserved":false,"is_disabled":false,"rental_uris":{"android":"levelo://app?vid=17d57f58-ffb0-4d77-bbe5-7f462887ac74","ios":"levelo://app?vid=17d57f58-ffb0-4d77-bbe5-7f462887ac74"},"vehicle_type_id":"4","last_reported":1747321870,"current_range_meters":9200,"station_id":"ce4bhn12rcd13ifvqgpg","pricing_plan_id":"cebpf4jnsgd1na2vs0mg"},{"bike_id":"1843d90d-9c97-41e7-90b2-d1d5233f5056","system_id":"levelo_inurba_marseille","lat":43.30547,"lon":5.36541,"is_reserved":false,"is_disabled":false,"rental_uris":{"android":"levelo://app?vid=1843d90d-9c97-41e7-90b2-d1d5233f5056","ios":"levelo://app?vid=1843d90d-9c97-41e7-90b2-d1d5233f5056"},"vehicle_type_id":"4","last_reported":1747321870,"current_range_meters":9600,"station_id":"ce4bgs12rcd13ifvqcag","pricing_plan_id":"cebpf4jnsgd1na2vs0mg"},{"bike_id":"a7ef1a0d-0ad7-4423-85b4-6e237b39770e","system_id":"levelo_inurba_marseille","lat":43.30531,"lon":5.36542,"is_reserved":false,"is_disabled":false,"rental_uris":{"android":"levelo://app?vid=a7ef1a0d-0ad7-4423-85b4-6e237b39770e","ios":"levelo://app?vid=a7ef1a0d-0ad7-4423-85b4-6e237b39770e"},"vehicle_type_id":"4","last_reported":1747321870,"current_range_meters":9600,"station_id":"ce4bgs12rcd13ifvqcag","pricing_plan_id":"cebpf4jnsgd1na2vs0mg"},{"bike_id":"e6d5b514-3bc1-4cbb-bb12-5a9c904b751e","system_id":"levelo_inurba_marseille","lat":43.26552,"lon":5.37286,"is_reserved":false,"is_disabled":false,"rental_uris":{"android":"levelo://app?vid=e6d5b514-3bc1-4cbb-bb12-5a9c904b751e","ios":"levelo://app?vid=e6d5b514-3bc1-4cbb-bb12-5a9c904b751e"},"vehicle_type_id":"4","last_reported":1747321870,"current_range_meters":9600,"station_id":"ce4bhg12rcd13ifvqf70","pricing_plan_id":"cebpf4jnsgd1na2vs0mg"},{"bike_id":"55697a48-9aaa-468a-9813-6afc6f45d640","system_id":"levelo_inurba_marseille","lat":43.27613,"lon":5.3613,"is_reserved":false,"is_disabled":false,"rental_uris":{"android":"levelo://app?vid=55697a48-9aaa-468a-9813-6afc6f45d640","ios":"levelo://app?vid=55697a48-9aaa-468a-9813-6afc6f45d640"},"vehicle_type_id":"4","last_reported":1747321870,"current_range_meters":10000,"station_id":"ce4bgj92rcd13ifvqbe0","pricing_plan_id":"cebpf4jnsgd1na2vs0mg"},{"bike_id":"4cb494a3-63ac-4bb2-885d-6179327d4fae","system_id":"levelo_inurba_marseille","lat":43.29793,"lon":5.37112,"is_reserved":false,"is_disabled":false,"rental_uris":{"android":"levelo://app?vid=4cb494a3-63ac-4bb2-885d-6179327d4fae","ios":"levelo://app?vid=4cb494a3-63ac-4bb2-885d-6179327d4fae"},"vehicle_type_id":"4","last_reported":1747321870,"current_range_meters":10000,"station_id":"ce4bgop2rcd13ifvqc1g","pricing_plan_id":"cebpf4jnsgd1na2vs0mg"},{"bike_id":"3bdec653-c468-4744-b240-4e05ba3605e5","system_id":"levelo_inurba_marseille","lat":43.298786,"lon":5.389076,"is_reserved":false,"is_disabled":false,"rental_uris":{"android":"levelo://app?vid=3bdec653-c468-4744-b240-4e05ba3605e5","ios":"levelo://app?vid=3bdec653-c468-4744-b240-4e05ba3605e5"},"vehicle_type_id":"4","last_reported":1747321870,"current_range_meters":10000,"station_id":"ce4bh392rcd13ifvqdl0","pricing_plan_id":"cebpf4jnsgd1na2vs0mg"},{"bike_id":"8c7308bf-84fd-4edb-9b86-07fbeaf5e51b","system_id":"levelo_inurba_marseille","lat":43.31715,"lon":5.42411,"is_reserved":false,"is_disabled":false,"rental_uris":{"android":"levelo://app?vid=8c7308bf-84fd-4edb-9b86-07fbeaf5e51b","ios":"levelo://app?vid=8c7308bf-84fd-4edb-9b86-07fbeaf5e51b"},"vehicle_type_id":"4","last_reported":1747321870,"current_range_meters":10000,"station_id":"ce4bhp92rcd13ifvqhbg","pricing_plan_id":"cebpf4jnsgd1na2vs0mg"},{"bike_id":"ed215bae-85da-4a0c-b9d5-45693e89a959","system_id":"levelo_inurba_marseille","lat":43.32654,"lon":5.40993,"is_reserved":false,"is_disabled":false,"rental_uris":{"android":"levelo://app?vid=ed215bae-85da-4a0c-b9d5-45693e89a959","ios":"levelo://app?vid=ed215bae-85da-4a0c-b9d5-45693e89a959"},"vehicle_type_id":"4","last_reported":1747321870,"current_range_meters":10000,"station_id":"ce4bhpp2rcd13ifvqhgg","pricing_plan_id":"cebpf4jnsgd1na2vs0mg"},{"bike_id":"3961dd37-2a97-41a8-85af-1fd7468a063c","system_id":"levelo_inurba_marseille","lat":43.241685,"lon":5.364003,"is_reserved":false,"is_disabled":false,"rental_uris":{"android":"levelo://app?vid=3961dd37-2a97-41a8-85af-1fd7468a063c","ios":"levelo://app?vid=3961dd37-2a97-41a8-85af-1fd7468a063c"},"vehicle_type_id":"4","last_reported":1747321870,"current_range_meters":10000,"station_id":"cpo36qri1sfpv3e86is0","pricing_plan_id":"cebpf4jnsgd1na2vs0mg"},{"bike_id":"0f9b00f9-498d-4034-b369-5b9368f31ddf","system_id":"levelo_inurba_marseille","lat":43.29847,"lon":5.39783,"is_reserved":false,"is_disabled":false,"rental_uris":{"android":"levelo://app?vid=0f9b00f9-498d-4034-b369-5b9368f31ddf","ios":"levelo://app?vid=0f9b00f9-498d-4034-b369-5b9368f31ddf"},"vehicle_type_id":"4","last_reported":1747321870,"current_range_meters":10800,"station_id":"","pricing_plan_id":"cebpf4jnsgd1na2vs0mg"},{"bike_id":"7a5426de-a02a-46c3-a1ec-4eaaa28c631c","system_id":"levelo_inurba_marseille","lat":43.28263,"lon":5.35092,"is_reserved":false,"is_disabled":false,"rental_uris":{"android":"levelo://app?vid=7a5426de-a02a-46c3-a1ec-4eaaa28c631c","ios":"levelo://app?vid=7a5426de-a02a-46c3-a1ec-4eaaa28c631c"},"vehicle_type_id":"4","last_reported":1747321870,"current_range_meters":10800,"station_id":"ce4bhbp2rcd13ifvqerg","pricing_plan_id":"cebpf4jnsgd1na2vs0mg"},{"bike_id":"e047f034-a161-4746-a886-a9f84b32637b","system_id":"levelo_inurba_marseille","lat":43.28267,"lon":5.35059,"is_reserved":false,"is_disabled":false,"rental_uris":{"android":"levelo://app?vid=e047f034-a161-4746-a886-a9f84b32637b","ios":"levelo://app?vid=e047f034-a161-4746-a886-a9f84b32637b"},"vehicle_type_id":"4","last_reported":1747321870,"current_range_meters":10800,"station_id":"ce4bhbp2rcd13ifvqerg","pricing_plan_id":"cebpf4jnsgd1na2vs0mg"},{"bike_id":"bee35244-ec95-4b3d-8fae-96abe913294a","system_id":"levelo_inurba_marseille","lat":43.28653,"lon":5.35088,"is_reserved":false,"is_disabled":false,"rental_uris":{"android":"levelo://app?vid=bee35244-ec95-4b3d-8fae-96abe913294a","ios":"levelo://app?vid=bee35244-ec95-4b3d-8fae-96abe913294a"},"vehicle_type_id":"4","last_reported":1747321870,"current_range_meters":10800,"station_id":"ce4bhch2rcd13ifvqeug","pricing_plan_id":"cebpf4jnsgd1na2vs0mg"},{"bike_id":"d69eaddc-679e-400e-828b-bd5dc2b9d0ec","system_id":"levelo_inurba_marseille","lat":43.27067,"lon":5.42285,"is_reserved":false,"is_disabled":false,"rental_uris":{"android":"levelo://app?vid=d69eaddc-679e-400e-828b-bd5dc2b9d0ec","ios":"levelo://app?vid=d69eaddc-679e-400e-828b-bd5dc2b9d0ec"},"vehicle_type_id":"4","last_reported":1747321870,"current_range_meters":10800,"station_id":"ce4bhk92rcd13ifvqgb0","pricing_plan_id":"cebpf4jnsgd1na2vs0mg"},{"bike_id":"b2d39131-1cac-4410-9228-4c49207424c7","system_id":"levelo_inurba_marseille","lat":43.28152,"lon":5.42652,"is_reserved":false,"is_disabled":false,"rental_uris":{"android":"levelo://app?vid=b2d39131-1cac-4410-9228-4c49207424c7","ios":"levelo://app?vid=b2d39131-1cac-4410-9228-4c49207424c7"},"vehicle_type_id":"4","last_reported":1747321870,"current_range_meters":10800,"station_id":"ce4bhnh2rcd13ifvqgug","pricing_plan_id":"cebpf4jnsgd1na2vs0mg"},{"bike_id":"902c3167-105b-4699-b317-e21c74fee998","system_id":"levelo_inurba_marseille","lat":43.29555,"lon":5.42276,"is_reserved":false,"is_disabled":false,"rental_uris":{"android":"levelo://app?vid=902c3167-105b-4699-b317-e21c74fee998","ios":"levelo://app?vid=902c3167-105b-4699-b317-e21c74fee998"},"vehicle_type_id":"4","last_reported":1747321870,"current_range_meters":10800,"station_id":"ce4bhph2rcd13ifvqhdg","pricing_plan_id":"cebpf4jnsgd1na2vs0mg"},{"bike_id":"0f3d78b5-d474-45ec-974c-32fc1c93c162","system_id":"levelo_inurba_marseille","lat":43.32355,"lon":5.38882,"is_reserved":false,"is_disabled":false,"rental_uris":{"android":"levelo://app?vid=0f3d78b5-d474-45ec-974c-32fc1c93c162","ios":"levelo://app?vid=0f3d78b5-d474-45ec-974c-32fc1c93c162"},"vehicle_type_id":"4","last_reported":1747321870,"current_range_meters":10800,"station_id":"ce4bhqp2rcd13ifvqhog","pricing_plan_id":"cebpf4jnsgd1na2vs0mg"},{"bike_id":"5fbcd3a8-5fba-4859-a6da-5a3b617f4707","system_id":"levelo_inurba_marseille","lat":43.24166,"lon":5.3642,"is_reserved":false,"is_disabled":false,"rental_uris":{"android":"levelo://app?vid=5fbcd3a8-5fba-4859-a6da-5a3b617f4707","ios":"levelo://app?vid=5fbcd3a8-5fba-4859-a6da-5a3b617f4707"},"vehicle_type_id":"4","last_reported":1747321870,"current_range_meters":10800,"station_id":"cpo36qri1sfpv3e86is0","pricing_plan_id":"cebpf4jnsgd1na2vs0mg"},{"bike_id":"5954d13b-9a49-4937-a842-f52d3b7ce8b5","system_id":"levelo_inurba_marseille","lat":43.30077,"lon":5.39069,"is_reserved":false,"is_disabled":false,"rental_uris":{"android":"levelo://app?vid=5954d13b-9a49-4937-a842-f52d3b7ce8b5","ios":"levelo://app?vid=5954d13b-9a49-4937-a842-f52d3b7ce8b5"},"vehicle_type_id":"4","last_reported":1747321870,"current_range_meters":11200,"station_id":"ce4bh192rcd13ifvqdb0","pricing_plan_id":"cebpf4jnsgd1na2vs0mg"},{"bike_id":"93db15df-9410-4350-b145-b75da95a5ad4","system_id":"levelo_inurba_marseille","lat":43.29262,"lon":5.40921,"is_reserved":false,"is_disabled":false,"rental_uris":{"android":"levelo://app?vid=93db15df-9410-4350-b145-b75da95a5ad4","ios":"levelo://app?vid=93db15df-9410-4350-b145-b75da95a5ad4"},"vehicle_type_id":"4","last_reported":1747321870,"current_range_meters":11200,"station_id":"ce4bh192rcd13ifvqdc0","pricing_plan_id":"cebpf4jnsgd1na2vs0mg"},{"bike_id":"fc98c963-f484-4c48-9a40-b35e7fe71dad","system_id":"levelo_inurba_marseille","lat":43.28683,"lon":5.37387,"is_reserved":false,"is_disabled":false,"rental_uris":{"android":"levelo://app?vid=fc98c963-f484-4c48-9a40-b35e7fe71dad","ios":"levelo://app?vid=fc98c963-f484-4c48-9a40-b35e7fe71dad"},"vehicle_type_id":"4","last_reported":1747321870,"current_range_meters":11200,"station_id":"ce4bh3p2rcd13ifvqdq0","pricing_plan_id":"cebpf4jnsgd1na2vs0mg"},{"bike_id":"9722d689-c804-4522-a21c-ca4b386b9ba2","system_id":"levelo_inurba_marseille","lat":43.29034,"lon":5.38655,"is_reserved":false,"is_disabled":false,"rental_uris":{"android":"levelo://app?vid=9722d689-c804-4522-a21c-ca4b386b9ba2","ios":"levelo://app?vid=9722d689-c804-4522-a21c-ca4b386b9ba2"},"vehicle_type_id":"4","last_reported":1747321870,"current_range_meters":11200,"station_id":"ce4bh4p2rcd13ifvqe0g","pricing_plan_id":"cebpf4jnsgd1na2vs0mg"},{"bike_id":"fdfdb20f-4aa2-4b02-9374-5dbe07d12e6a","system_id":"levelo_inurba_marseille","lat":43.26565,"lon":5.37275,"is_reserved":false,"is_disabled":false,"rental_uris":{"android":"levelo://app?vid=fdfdb20f-4aa2-4b02-9374-5dbe07d12e6a","ios":"levelo://app?vid=fdfdb20f-4aa2-4b02-9374-5dbe07d12e6a"},"vehicle_type_id":"4","last_reported":1747321870,"current_range_meters":11200,"station_id":"ce4bhg12rcd13ifvqf70","pricing_plan_id":"cebpf4jnsgd1na2vs0mg"},{"bike_id":"170dde4d-c2df-49cf-a5af-acf3cf1dcba5","system_id":"levelo_inurba_marseille","lat":43.23162,"lon":5.43717,"is_reserved":false,"is_disabled":false,"rental_uris":{"android":"levelo://app?vid=170dde4d-c2df-49cf-a5af-acf3cf1dcba5","ios":"levelo://app?vid=170dde4d-c2df-49cf-a5af-acf3cf1dcba5"},"vehicle_type_id":"4","last_reported":1747321870,"current_range_meters":11200,"station_id":"ce4bhmp2rcd13ifvqgog","pricing_plan_id":"cebpf4jnsgd1na2vs0mg"},{"bike_id":"90d24269-d8f2-4298-a4af-176d48414863","system_id":"levelo_inurba_marseille","lat":43.29532,"lon":5.3855,"is_reserved":false,"is_disabled":false,"rental_uris":{"android":"levelo://app?vid=90d24269-d8f2-4298-a4af-176d48414863","ios":"levelo://app?vid=90d24269-d8f2-4298-a4af-176d48414863"},"vehicle_type_id":"4","last_reported":1747321870,"current_range_meters":11600,"station_id":"ce4bgih2rcd13ifvqba0","pricing_plan_id":"cebpf4jnsgd1na2vs0mg"},{"bike_id":"2936cb62-b9e6-4fe0-bef9-f58ce6e26029","system_id":"levelo_inurba_marseille","lat":43.27376,"lon":5.36264,"is_reserved":false,"is_disabled":false,"rental_uris":{"android":"levelo://app?vid=2936cb62-b9e6-4fe0-bef9-f58ce6e26029","ios":"levelo://app?vid=2936cb62-b9e6-4fe0-bef9-f58ce6e26029"},"vehicle_type_id":"4","last_reported":1747321870,"current_range_meters":11600,"station_id":"ce4bhbh2rcd13ifvqeo0","pricing_plan_id":"cebpf4jnsgd1na2vs0mg"},{"bike_id":"d8dc0a73-8bf0-49a4-947b-f3958723355d","system_id":"levelo_inurba_marseille","lat":43.28628,"lon":5.35081,"is_reserved":false,"is_disabled":false,"rental_uris":{"android":"levelo://app?vid=d8dc0a73-8bf0-49a4-947b-f3958723355d","ios":"levelo://app?vid=d8dc0a73-8bf0-49a4-947b-f3958723355d"},"vehicle_type_id":"4","last_reported":1747321870,"current_range_meters":11600,"station_id":"ce4bhch2rcd13ifvqeug","pricing_plan_id":"cebpf4jnsgd1na2vs0mg"},{"bike_id":"f7b25ce1-a89d-4c0c-8bc4-c0f867e52f74","system_id":"levelo_inurba_marseille","lat":43.26558,"lon":5.372868,"is_reserved":false,"is_disabled":false,"rental_uris":{"android":"levelo://app?vid=f7b25ce1-a89d-4c0c-8bc4-c0f867e52f74","ios":"levelo://app?vid=f7b25ce1-a89d-4c0c-8bc4-c0f867e52f74"},"vehicle_type_id":"4","last_reported":1747321870,"current_range_meters":11600,"station_id":"ce4bhg12rcd13ifvqf70","pricing_plan_id":"cebpf4jnsgd1na2vs0mg"},{"bike_id":"ee1a84bb-c076-48a2-88cb-589d6eedb53d","system_id":"levelo_inurba_marseille","lat":43.31083,"lon":5.42429,"is_reserved":false,"is_disabled":false,"rental_uris":{"android":"levelo://app?vid=ee1a84bb-c076-48a2-88cb-589d6eedb53d","ios":"levelo://app?vid=ee1a84bb-c076-48a2-88cb-589d6eedb53d"},"vehicle_type_id":"4","last_reported":1747321870,"current_range_meters":11600,"station_id":"ce4bhp92rcd13ifvqhag","pricing_plan_id":"cebpf4jnsgd1na2vs0mg"},{"bike_id":"b5d2cf5c-ce87-46bc-ac51-3594abb40874","system_id":"levelo_inurba_marseille","lat":43.30803,"lon":5.43523,"is_reserved":false,"is_disabled":false,"rental_uris":{"android":"levelo://app?vid=b5d2cf5c-ce87-46bc-ac51-3594abb40874","ios":"levelo://app?vid=b5d2cf5c-ce87-46bc-ac51-3594abb40874"},"vehicle_type_id":"4","last_reported":1747321870,"current_range_meters":11600,"station_id":"ce4bhph2rcd13ifvqheg","pricing_plan_id":"cebpf4jnsgd1na2vs0mg"},{"bike_id":"f8708533-c882-424d-919c-8da02599e742","system_id":"levelo_inurba_marseille","lat":43.32351,"lon":5.38905,"is_reserved":false,"is_disabled":false,"rental_uris":{"android":"levelo://app?vid=f8708533-c882-424d-919c-8da02599e742","ios":"levelo://app?vid=f8708533-c882-424d-919c-8da02599e742"},"vehicle_type_id":"4","last_reported":1747321870,"current_range_meters":11600,"station_id":"ce4bhqp2rcd13ifvqhog","pricing_plan_id":"cebpf4jnsgd1na2vs0mg"},{"bike_id":"ab03b17c-5401-46e7-9341-f0f0733fde3a","system_id":"levelo_inurba_marseille","lat":43.29241,"lon":5.40925,"is_reserved":false,"is_disabled":false,"rental_uris":{"android":"levelo://app?vid=ab03b17c-5401-46e7-9341-f0f0733fde3a","ios":"levelo://app?vid=ab03b17c-5401-46e7-9341-f0f0733fde3a"},"vehicle_type_id":"4","last_reported":1747321870,"current_range_meters":12000,"station_id":"ce4bh192rcd13ifvqdc0","pricing_plan_id":"cebpf4jnsgd1na2vs0mg"},{"bike_id":"3f696cdf-b084-45f5-867f-bcc7e8e6f96a","system_id":"levelo_inurba_marseille","lat":43.28653,"lon":5.36364,"is_reserved":false,"is_disabled":false,"rental_uris":{"android":"levelo://app?vid=3f696cdf-b084-45f5-867f-bcc7e8e6f96a","ios":"levelo://app?vid=3f696cdf-b084-45f5-867f-bcc7e8e6f96a"},"vehicle_type_id":"4","last_reported":1747321870,"current_range_meters":12000,"station_id":"ce4bhah2rcd13ifvqej0","pricing_plan_id":"cebpf4jnsgd1na2vs0mg"},{"bike_id":"1a1cdac1-cadf-40fc-804b-b97660377dfd","system_id":"levelo_inurba_marseille","lat":43.28424,"lon":5.35019,"is_reserved":false,"is_disabled":false,"rental_uris":{"android":"levelo://app?vid=1a1cdac1-cadf-40fc-804b-b97660377dfd","ios":"levelo://app?vid=1a1cdac1-cadf-40fc-804b-b97660377dfd"},"vehicle_type_id":"4","last_reported":1747321870,"current_range_meters":12000,"station_id":"ce4bhbh2rcd13ifvqepg","pricing_plan_id":"cebpf4jnsgd1na2vs0mg"},{"bike_id":"94425245-09df-4108-9a30-610dbcaf2585","system_id":"levelo_inurba_marseille","lat":43.317238,"lon":5.423983,"is_reserved":false,"is_disabled":false,"rental_uris":{"android":"levelo://app?vid=94425245-09df-4108-9a30-610dbcaf2585","ios":"levelo://app?vid=94425245-09df-4108-9a30-610dbcaf2585"},"vehicle_type_id":"4","last_reported":1747321870,"current_range_meters":12000,"station_id":"ce4bhp92rcd13ifvqhbg","pricing_plan_id":"cebpf4jnsgd1na2vs0mg"},{"bike_id":"77aceca8-450d-4c0b-a648-147161b2c640","system_id":"levelo_inurba_marseille","lat":43.28265,"lon":5.35074,"is_reserved":false,"is_disabled":false,"rental_uris":{"android":"levelo://app?vid=77aceca8-450d-4c0b-a648-147161b2c640","ios":"levelo://app?vid=77aceca8-450d-4c0b-a648-147161b2c640"},"vehicle_type_id":"4","last_reported":1747321870,"current_range_meters":12400,"station_id":"ce4bhbp2rcd13ifvqerg","pricing_plan_id":"cebpf4jnsgd1na2vs0mg"},{"bike_id":"28b16cce-465b-44b9-993a-fdd1931137ce","system_id":"levelo_inurba_marseille","lat":43.297566,"lon":5.380697,"is_reserved":false,"is_disabled":false,"rental_uris":{"android":"levelo://app?vid=28b16cce-465b-44b9-993a-fdd1931137ce","ios":"levelo://app?vid=28b16cce-465b-44b9-993a-fdd1931137ce"},"vehicle_type_id":"4","last_reported":1747321870,"current_range_meters":12400,"station_id":"ce4bhbp2rcd13ifvqerg","pricing_plan_id":"cebpf4jnsgd1na2vs0mg"},{"bike_id":"1ca372b2-144c-48a2-ac1f-4e82f694691e","system_id":"levelo_inurba_marseille","lat":43.2863,"lon":5.3509,"is_reserved":false,"is_disabled":false,"rental_uris":{"android":"levelo://app?vid=1ca372b2-144c-48a2-ac1f-4e82f694691e","ios":"levelo://app?vid=1ca372b2-144c-48a2-ac1f-4e82f694691e"},"vehicle_type_id":"4","last_reported":1747321870,"current_range_meters":12400,"station_id":"ce4bhch2rcd13ifvqeug","pricing_plan_id":"cebpf4jnsgd1na2vs0mg"},{"bike_id":"fbd5bdd2-2bbe-4a31-b804-e0524b858ce2","system_id":"levelo_inurba_marseille","lat":43.26554,"lon":5.37282,"is_reserved":false,"is_disabled":false,"rental_uris":{"android":"levelo://app?vid=fbd5bdd2-2bbe-4a31-b804-e0524b858ce2","ios":"levelo://app?vid=fbd5bdd2-2bbe-4a31-b804-e0524b858ce2"},"vehicle_type_id":"4","last_reported":1747321870,"current_range_meters":12400,"station_id":"ce4bhg12rcd13ifvqf70","pricing_plan_id":"cebpf4jnsgd1na2vs0mg"},{"bike_id":"5d143fa7-3fcc-4f6d-b56e-46a9140a5e84","system_id":"levelo_inurba_marseille","lat":43.29547,"lon":5.42275,"is_reserved":false,"is_disabled":false,"rental_uris":{"android":"levelo://app?vid=5d143fa7-3fcc-4f6d-b56e-46a9140a5e84","ios":"levelo://app?vid=5d143fa7-3fcc-4f6d-b56e-46a9140a5e84"},"vehicle_type_id":"4","last_reported":1747321870,"current_range_meters":12400,"station_id":"ce4bhph2rcd13ifvqhdg","pricing_plan_id":"cebpf4jnsgd1na2vs0mg"},{"bike_id":"e52494ed-992f-4886-99d5-0a13de980004","system_id":"levelo_inurba_marseille","lat":43.28415,"lon":5.35007,"is_reserved":false,"is_disabled":false,"rental_uris":{"android":"levelo://app?vid=e52494ed-992f-4886-99d5-0a13de980004","ios":"levelo://app?vid=e52494ed-992f-4886-99d5-0a13de980004"},"vehicle_type_id":"4","last_reported":1747321870,"current_range_meters":12800,"station_id":"ce4bhbh2rcd13ifvqepg","pricing_plan_id":"cebpf4jnsgd1na2vs0mg"},{"bike_id":"dc643886-ab96-41da-96d1-bd674f19bfdb","system_id":"levelo_inurba_marseille","lat":43.28625,"lon":5.35109,"is_reserved":false,"is_disabled":false,"rental_uris":{"android":"levelo://app?vid=dc643886-ab96-41da-96d1-bd674f19bfdb","ios":"levelo://app?vid=dc643886-ab96-41da-96d1-bd674f19bfdb"},"vehicle_type_id":"4","last_reported":1747321870,"current_range_meters":12800,"station_id":"ce4bhch2rcd13ifvqeug","pricing_plan_id":"cebpf4jnsgd1na2vs0mg"},{"bike_id":"314045fe-99b7-4065-8e4b-3e8526ad4535","system_id":"levelo_inurba_marseille","lat":43.30415,"lon":5.41286,"is_reserved":false,"is_disabled":false,"rental_uris":{"android":"levelo://app?vid=314045fe-99b7-4065-8e4b-3e8526ad4535","ios":"levelo://app?vid=314045fe-99b7-4065-8e4b-3e8526ad4535"},"vehicle_type_id":"4","last_reported":1747321870,"current_range_meters":12800,"station_id":"ce4bhop2rcd13ifvqh8g","pricing_plan_id":"cebpf4jnsgd1na2vs0mg"},{"bike_id":"6bfe0197-cac1-4522-a1f0-4d3835a7940b","system_id":"levelo_inurba_marseille","lat":43.32663,"lon":5.41016,"is_reserved":false,"is_disabled":false,"rental_uris":{"android":"levelo://app?vid=6bfe0197-cac1-4522-a1f0-4d3835a7940b","ios":"levelo://app?vid=6bfe0197-cac1-4522-a1f0-4d3835a7940b"},"vehicle_type_id":"4","last_reported":1747321870,"current_range_meters":12800,"station_id":"ce4bhpp2rcd13ifvqhgg","pricing_plan_id":"cebpf4jnsgd1na2vs0mg"},{"bike_id":"3265bb62-c070-4d86-a864-55dbd7d5370a","system_id":"levelo_inurba_marseille","lat":43.29567,"lon":5.39983,"is_reserved":false,"is_disabled":false,"rental_uris":{"android":"levelo://app?vid=3265bb62-c070-4d86-a864-55dbd7d5370a","ios":"levelo://app?vid=3265bb62-c070-4d86-a864-55dbd7d5370a"},"vehicle_type_id":"4","last_reported":1747321870,"current_range_meters":13600,"station_id":"ce4bh312rcd13ifvqdj0","pricing_plan_id":"cebpf4jnsgd1na2vs0mg"},{"bike_id":"1e1569d2-cd47-4021-9147-53f1253b62e7","system_id":"levelo_inurba_marseille","lat":43.25574,"lon":5.38239,"is_reserved":false,"is_disabled":false,"rental_uris":{"android":"levelo://app?vid=1e1569d2-cd47-4021-9147-53f1253b62e7","ios":"levelo://app?vid=1e1569d2-cd47-4021-9147-53f1253b62e7"},"vehicle_type_id":"4","last_reported":1747321870,"current_range_meters":13600,"station_id":"ce4bhih2rcd13ifvqfs0","pricing_plan_id":"cebpf4jnsgd1na2vs0mg"},{"bike_id":"336a7f87-187a-40d4-9a5f-8b10043266c0","system_id":"levelo_inurba_marseille","lat":43.32656,"lon":5.41007,"is_reserved":false,"is_disabled":false,"rental_uris":{"android":"levelo://app?vid=336a7f87-187a-40d4-9a5f-8b10043266c0","ios":"levelo://app?vid=336a7f87-187a-40d4-9a5f-8b10043266c0"},"vehicle_type_id":"4","last_reported":1747321870,"current_range_meters":13600,"station_id":"ce4bhpp2rcd13ifvqhgg","pricing_plan_id":"cebpf4jnsgd1na2vs0mg"},{"bike_id":"7fb74ba0-6b8f-43e7-853f-8c87140c7a24","system_id":"levelo_inurba_marseille","lat":43.27618,"lon":5.36104,"is_reserved":false,"is_disabled":false,"rental_uris":{"android":"levelo://app?vid=7fb74ba0-6b8f-43e7-853f-8c87140c7a24","ios":"levelo://app?vid=7fb74ba0-6b8f-43e7-853f-8c87140c7a24"},"vehicle_type_id":"4","last_reported":1747321870,"current_range_meters":14000,"station_id":"ce4bgj92rcd13ifvqbe0","pricing_plan_id":"cebpf4jnsgd1na2vs0mg"},{"bike_id":"c92edd87-5d00-48f0-93dd-63f0949546dd","system_id":"levelo_inurba_marseille","lat":43.28107,"lon":5.37843,"is_reserved":false,"is_disabled":false,"rental_uris":{"android":"levelo://app?vid=c92edd87-5d00-48f0-93dd-63f0949546dd","ios":"levelo://app?vid=c92edd87-5d00-48f0-93dd-63f0949546dd"},"vehicle_type_id":"4","last_reported":1747321870,"current_range_meters":14000,"station_id":"ce4bha12rcd13ifvqee0","pricing_plan_id":"cebpf4jnsgd1na2vs0mg"},{"bike_id":"59576e81-0f19-4514-a47d-f8c875761719","system_id":"levelo_inurba_marseille","lat":43.28628,"lon":5.35125,"is_reserved":false,"is_disabled":false,"rental_uris":{"android":"levelo://app?vid=59576e81-0f19-4514-a47d-f8c875761719","ios":"levelo://app?vid=59576e81-0f19-4514-a47d-f8c875761719"},"vehicle_type_id":"4","last_reported":1747321870,"current_range_meters":14000,"station_id":"ce4bhch2rcd13ifvqeug","pricing_plan_id":"cebpf4jnsgd1na2vs0mg"},{"bike_id":"d3d30e11-7945-4d99-abe7-d386db9bcd74","system_id":"levelo_inurba_marseille","lat":43.25578,"lon":5.38244,"is_reserved":false,"is_disabled":false,"rental_uris":{"android":"levelo://app?vid=d3d30e11-7945-4d99-abe7-d386db9bcd74","ios":"levelo://app?vid=d3d30e11-7945-4d99-abe7-d386db9bcd74"},"vehicle_type_id":"4","last_reported":1747321870,"current_range_meters":14000,"station_id":"ce4bhih2rcd13ifvqfs0","pricing_plan_id":"cebpf4jnsgd1na2vs0mg"},{"bike_id":"46a3e2c1-f297-4f25-9c99-f961a1accd8c","system_id":"levelo_inurba_marseille","lat":43.331536,"lon":5.391233,"is_reserved":false,"is_disabled":false,"rental_uris":{"android":"levelo://app?vid=46a3e2c1-f297-4f25-9c99-f961a1accd8c","ios":"levelo://app?vid=46a3e2c1-f297-4f25-9c99-f961a1accd8c"},"vehicle_type_id":"4","last_reported":1747321870,"current_range_meters":14400,"station_id":"","pricing_plan_id":"cebpf4jnsgd1na2vs0mg"},{"bike_id":"027f72d8-88c3-409a-9f83-3afde0954f18","system_id":"levelo_inurba_marseille","lat":43.30256,"lon":5.39692,"is_reserved":false,"is_disabled":false,"rental_uris":{"android":"levelo://app?vid=027f72d8-88c3-409a-9f83-3afde0954f18","ios":"levelo://app?vid=027f72d8-88c3-409a-9f83-3afde0954f18"},"vehicle_type_id":"4","last_reported":1747321870,"current_range_meters":14400,"station_id":"","pricing_plan_id":"cebpf4jnsgd1na2vs0mg"},{"bike_id":"f4732e44-1381-44c7-a79c-6a0c1c9dc74e","system_id":"levelo_inurba_marseille","lat":43.295758,"lon":5.375889,"is_reserved":false,"is_disabled":false,"rental_uris":{"android":"levelo://app?vid=f4732e44-1381-44c7-a79c-6a0c1c9dc74e","ios":"levelo://app?vid=f4732e44-1381-44c7-a79c-6a0c1c9dc74e"},"vehicle_type_id":"4","last_reported":1747321870,"current_range_meters":14400,"station_id":"ce4bgkh2rcd13ifvqbl0","pricing_plan_id":"cebpf4jnsgd1na2vs0mg"},{"bike_id":"51c48222-c465-4e1b-a3a8-50d0b82666b1","system_id":"levelo_inurba_marseille","lat":43.30636,"lon":5.40098,"is_reserved":false,"is_disabled":false,"rental_uris":{"android":"levelo://app?vid=51c48222-c465-4e1b-a3a8-50d0b82666b1","ios":"levelo://app?vid=51c48222-c465-4e1b-a3a8-50d0b82666b1"},"vehicle_type_id":"4","last_reported":1747321870,"current_range_meters":14400,"station_id":"ce4bh112rcd13ifvqda0","pricing_plan_id":"cebpf4jnsgd1na2vs0mg"},{"bike_id":"5d2c233a-976b-4709-bafb-3c7c34a3e716","system_id":"levelo_inurba_marseille","lat":43.28696,"lon":5.37371,"is_reserved":false,"is_disabled":false,"rental_uris":{"android":"levelo://app?vid=5d2c233a-976b-4709-bafb-3c7c34a3e716","ios":"levelo://app?vid=5d2c233a-976b-4709-bafb-3c7c34a3e716"},"vehicle_type_id":"4","last_reported":1747321870,"current_range_meters":14400,"station_id":"ce4bh3p2rcd13ifvqdq0","pricing_plan_id":"cebpf4jnsgd1na2vs0mg"},{"bike_id":"ac9a9856-1585-47e6-9447-94c11c36ce10","system_id":"levelo_inurba_marseille","lat":43.27372,"lon":5.36273,"is_reserved":false,"is_disabled":false,"rental_uris":{"android":"levelo://app?vid=ac9a9856-1585-47e6-9447-94c11c36ce10","ios":"levelo://app?vid=ac9a9856-1585-47e6-9447-94c11c36ce10"},"vehicle_type_id":"4","last_reported":1747321870,"current_range_meters":14400,"station_id":"ce4bhbh2rcd13ifvqeo0","pricing_plan_id":"cebpf4jnsgd1na2vs0mg"},{"bike_id":"c02b2aad-2e0a-4fd6-90dc-53d439cb6711","system_id":"levelo_inurba_marseille","lat":43.279816,"lon":5.387464,"is_reserved":false,"is_disabled":false,"rental_uris":{"android":"levelo://app?vid=c02b2aad-2e0a-4fd6-90dc-53d439cb6711","ios":"levelo://app?vid=c02b2aad-2e0a-4fd6-90dc-53d439cb6711"},"vehicle_type_id":"4","last_reported":1747321870,"current_range_meters":14400,"station_id":"ce4bhg12rcd13ifvqf80","pricing_plan_id":"cebpf4jnsgd1na2vs0mg"},{"bike_id":"5a2aeac5-8336-4155-b8ff-794734499844","system_id":"levelo_inurba_marseille","lat":43.25578,"lon":5.38246,"is_reserved":false,"is_disabled":false,"rental_uris":{"android":"levelo://app?vid=5a2aeac5-8336-4155-b8ff-794734499844","ios":"levelo://app?vid=5a2aeac5-8336-4155-b8ff-794734499844"},"vehicle_type_id":"4","last_reported":1747321870,"current_range_meters":14400,"station_id":"ce4bhih2rcd13ifvqfs0","pricing_plan_id":"cebpf4jnsgd1na2vs0mg"},{"bike_id":"c3acc1e9-c036-4520-87a3-7e8466cee4e3","system_id":"levelo_inurba_marseille","lat":43.3249,"lon":5.365649,"is_reserved":false,"is_disabled":false,"rental_uris":{"android":"levelo://app?vid=c3acc1e9-c036-4520-87a3-7e8466cee4e3","ios":"levelo://app?vid=c3acc1e9-c036-4520-87a3-7e8466cee4e3"},"vehicle_type_id":"4","last_reported":1747321870,"current_range_meters":14400,"station_id":"ce4bhs12rcd13ifvqhvg","pricing_plan_id":"cebpf4jnsgd1na2vs0mg"},{"bike_id":"f86bff49-f428-42a7-96af-ace44757dd4a","system_id":"levelo_inurba_marseille","lat":43.28423,"lon":5.34978,"is_reserved":false,"is_disabled":false,"rental_uris":{"android":"levelo://app?vid=f86bff49-f428-42a7-96af-ace44757dd4a","ios":"levelo://app?vid=f86bff49-f428-42a7-96af-ace44757dd4a"},"vehicle_type_id":"4","last_reported":1747321870,"current_range_meters":14800,"station_id":"","pricing_plan_id":"cebpf4jnsgd1na2vs0mg"},{"bike_id":"dd5422d6-53cb-49fb-8efb-b898f8501e90","system_id":"levelo_inurba_marseille","lat":43.27626,"lon":5.36112,"is_reserved":false,"is_disabled":false,"rental_uris":{"android":"levelo://app?vid=dd5422d6-53cb-49fb-8efb-b898f8501e90","ios":"levelo://app?vid=dd5422d6-53cb-49fb-8efb-b898f8501e90"},"vehicle_type_id":"4","last_reported":1747321870,"current_range_meters":14800,"station_id":"ce4bgj92rcd13ifvqbe0","pricing_plan_id":"cebpf4jnsgd1na2vs0mg"},{"bike_id":"e017b0ba-e27c-4a1b-a656-47af5e53b953","system_id":"levelo_inurba_marseille","lat":43.31247,"lon":5.36868,"is_reserved":false,"is_disabled":false,"rental_uris":{"android":"levelo://app?vid=e017b0ba-e27c-4a1b-a656-47af5e53b953","ios":"levelo://app?vid=e017b0ba-e27c-4a1b-a656-47af5e53b953"},"vehicle_type_id":"4","last_reported":1747321870,"current_range_meters":15200,"station_id":"ce4bgl92rcd13ifvqbq0","pricing_plan_id":"cebpf4jnsgd1na2vs0mg"},{"bike_id":"16b0e1e4-4e2b-4036-9819-eb4c693f4bf6","system_id":"levelo_inurba_marseille","lat":43.30908,"lon":5.37193,"is_reserved":false,"is_disabled":false,"rental_uris":{"android":"levelo://app?vid=16b0e1e4-4e2b-4036-9819-eb4c693f4bf6","ios":"levelo://app?vid=16b0e1e4-4e2b-4036-9819-eb4c693f4bf6"},"vehicle_type_id":"4","last_reported":1747321870,"current_range_meters":15200,"station_id":"ce4bguh2rcd13ifvqckg","pricing_plan_id":"cebpf4jnsgd1na2vs0mg"},{"bike_id":"d45b6abd-6bbb-4c18-8249-2097b1103cc8","system_id":"levelo_inurba_marseille","lat":43.28457,"lon":5.35885,"is_reserved":false,"is_disabled":false,"rental_uris":{"android":"levelo://app?vid=d45b6abd-6bbb-4c18-8249-2097b1103cc8","ios":"levelo://app?vid=d45b6abd-6bbb-4c18-8249-2097b1103cc8"},"vehicle_type_id":"4","last_reported":1747321870,"current_range_meters":15200,"station_id":"ce4bhah2rcd13ifvqei0","pricing_plan_id":"cebpf4jnsgd1na2vs0mg"},{"bike_id":"d3e453ec-d1dc-458d-b76e-59fcf95507bd","system_id":"levelo_inurba_marseille","lat":43.28272,"lon":5.3507,"is_reserved":false,"is_disabled":false,"rental_uris":{"android":"levelo://app?vid=d3e453ec-d1dc-458d-b76e-59fcf95507bd","ios":"levelo://app?vid=d3e453ec-d1dc-458d-b76e-59fcf95507bd"},"vehicle_type_id":"4","last_reported":1747321870,"current_range_meters":15200,"station_id":"ce4bhbp2rcd13ifvqerg","pricing_plan_id":"cebpf4jnsgd1na2vs0mg"},{"bike_id":"6cb55bc7-1b27-485c-a8bf-6919580eb623","system_id":"levelo_inurba_marseille","lat":43.26936,"lon":5.38911,"is_reserved":false,"is_disabled":false,"rental_uris":{"android":"levelo://app?vid=6cb55bc7-1b27-485c-a8bf-6919580eb623","ios":"levelo://app?vid=6cb55bc7-1b27-485c-a8bf-6919580eb623"},"vehicle_type_id":"4","last_reported":1747321870,"current_range_meters":15200,"station_id":"ce4bhhh2rcd13ifvqfl0","pricing_plan_id":"cebpf4jnsgd1na2vs0mg"},{"bike_id":"24c5a5c1-d9b7-46bb-8047-16602b2fa56a","system_id":"levelo_inurba_marseille","lat":43.23189,"lon":5.39988,"is_reserved":false,"is_disabled":false,"rental_uris":{"android":"levelo://app?vid=24c5a5c1-d9b7-46bb-8047-16602b2fa56a","ios":"levelo://app?vid=24c5a5c1-d9b7-46bb-8047-16602b2fa56a"},"vehicle_type_id":"4","last_reported":1747321870,"current_range_meters":15200,"station_id":"ce4bhn12rcd13ifvqgqg","pricing_plan_id":"cebpf4jnsgd1na2vs0mg"},{"bike_id":"385c5680-aa17-4953-8596-7f0cb64e8bcd","system_id":"levelo_inurba_marseille","lat":43.324911,"lon":5.365593,"is_reserved":false,"is_disabled":false,"rental_uris":{"android":"levelo://app?vid=385c5680-aa17-4953-8596-7f0cb64e8bcd","ios":"levelo://app?vid=385c5680-aa17-4953-8596-7f0cb64e8bcd"},"vehicle_type_id":"4","last_reported":1747321870,"current_range_meters":15200,"station_id":"ce4bhs12rcd13ifvqhvg","pricing_plan_id":"cebpf4jnsgd1na2vs0mg"},{"bike_id":"78f91eac-54d5-4ce7-ab66-7b75b2a0139a","system_id":"levelo_inurba_marseille","lat":43.3234,"lon":5.406263,"is_reserved":false,"is_disabled":false,"rental_uris":{"android":"levelo://app?vid=78f91eac-54d5-4ce7-ab66-7b75b2a0139a","ios":"levelo://app?vid=78f91eac-54d5-4ce7-ab66-7b75b2a0139a"},"vehicle_type_id":"4","last_reported":1747321870,"current_range_meters":16000,"station_id":"","pricing_plan_id":"cebpf4jnsgd1na2vs0mg"},{"bike_id":"e93a9cee-8b58-42a2-adaa-a88fa419924f","system_id":"levelo_inurba_marseille","lat":43.274319,"lon":5.361592,"is_reserved":false,"is_disabled":false,"rental_uris":{"android":"levelo://app?vid=e93a9cee-8b58-42a2-adaa-a88fa419924f","ios":"levelo://app?vid=e93a9cee-8b58-42a2-adaa-a88fa419924f"},"vehicle_type_id":"4","last_reported":1747321870,"current_range_meters":16000,"station_id":"ce4bhbh2rcd13ifvqeo0","pricing_plan_id":"cebpf4jnsgd1na2vs0mg"},{"bike_id":"6a5ca72e-51de-4905-96e1-5bd7c7c37213","system_id":"levelo_inurba_marseille","lat":43.27371,"lon":5.36259,"is_reserved":false,"is_disabled":false,"rental_uris":{"android":"levelo://app?vid=6a5ca72e-51de-4905-96e1-5bd7c7c37213","ios":"levelo://app?vid=6a5ca72e-51de-4905-96e1-5bd7c7c37213"},"vehicle_type_id":"4","last_reported":1747321870,"current_range_meters":16000,"station_id":"ce4bhbh2rcd13ifvqeo0","pricing_plan_id":"cebpf4jnsgd1na2vs0mg"},{"bike_id":"cdbd2e7d-fad9-4041-953e-6837aa2fd2b5","system_id":"levelo_inurba_marseille","lat":43.32359,"lon":5.38891,"is_reserved":false,"is_disabled":false,"rental_uris":{"android":"levelo://app?vid=cdbd2e7d-fad9-4041-953e-6837aa2fd2b5","ios":"levelo://app?vid=cdbd2e7d-fad9-4041-953e-6837aa2fd2b5"},"vehicle_type_id":"4","last_reported":1747321870,"current_range_meters":16000,"station_id":"ce4bhqp2rcd13ifvqhog","pricing_plan_id":"cebpf4jnsgd1na2vs0mg"},{"bike_id":"389955d0-920a-4330-b358-0dafad8fd845","system_id":"levelo_inurba_marseille","lat":43.312161,"lon":5.368594,"is_reserved":false,"is_disabled":false,"rental_uris":{"android":"levelo://app?vid=389955d0-920a-4330-b358-0dafad8fd845","ios":"levelo://app?vid=389955d0-920a-4330-b358-0dafad8fd845"},"vehicle_type_id":"4","last_reported":1747321870,"current_range_meters":16400,"station_id":"ce4bgl92rcd13ifvqbq0","pricing_plan_id":"cebpf4jnsgd1na2vs0mg"},{"bike_id":"2c6f9f29-86b5-4c98-a0eb-a23a5914f8c2","system_id":"levelo_inurba_marseille","lat":43.29972,"lon":5.385237,"is_reserved":false,"is_disabled":false,"rental_uris":{"android":"levelo://app?vid=2c6f9f29-86b5-4c98-a0eb-a23a5914f8c2","ios":"levelo://app?vid=2c6f9f29-86b5-4c98-a0eb-a23a5914f8c2"},"vehicle_type_id":"4","last_reported":1747321870,"current_range_meters":16400,"station_id":"ce4bgup2rcd13ifvqcn0","pricing_plan_id":"cebpf4jnsgd1na2vs0mg"},{"bike_id":"cae65a65-65b1-46cc-8740-d4d304520070","system_id":"levelo_inurba_marseille","lat":43.26555,"lon":5.39016,"is_reserved":false,"is_disabled":false,"rental_uris":{"android":"levelo://app?vid=cae65a65-65b1-46cc-8740-d4d304520070","ios":"levelo://app?vid=cae65a65-65b1-46cc-8740-d4d304520070"},"vehicle_type_id":"4","last_reported":1747321870,"current_range_meters":16400,"station_id":"ce4bhe12rcd13ifvqf30","pricing_plan_id":"cebpf4jnsgd1na2vs0mg"},{"bike_id":"ff0a8530-2cbf-4628-aeed-03e571f466c6","system_id":"levelo_inurba_marseille","lat":43.30413,"lon":5.41296,"is_reserved":false,"is_disabled":false,"rental_uris":{"android":"levelo://app?vid=ff0a8530-2cbf-4628-aeed-03e571f466c6","ios":"levelo://app?vid=ff0a8530-2cbf-4628-aeed-03e571f466c6"},"vehicle_type_id":"4","last_reported":1747321870,"current_range_meters":16400,"station_id":"ce4bhop2rcd13ifvqh8g","pricing_plan_id":"cebpf4jnsgd1na2vs0mg"},{"bike_id":"24662577-69c7-4d84-a260-f2892b169180","system_id":"levelo_inurba_marseille","lat":43.21748,"lon":5.34619,"is_reserved":false,"is_disabled":false,"rental_uris":{"android":"levelo://app?vid=24662577-69c7-4d84-a260-f2892b169180","ios":"levelo://app?vid=24662577-69c7-4d84-a260-f2892b169180"},"vehicle_type_id":"4","last_reported":1747321870,"current_range_meters":16400,"station_id":"st_cvj6r9ubvosntc0bgbag","pricing_plan_id":"cebpf4jnsgd1na2vs0mg"},{"bike_id":"6414c6d0-c577-4b00-8541-05cb008ccfad","system_id":"levelo_inurba_marseille","lat":43.28419,"lon":5.3499,"is_reserved":false,"is_disabled":false,"rental_uris":{"android":"levelo://app?vid=6414c6d0-c577-4b00-8541-05cb008ccfad","ios":"levelo://app?vid=6414c6d0-c577-4b00-8541-05cb008ccfad"},"vehicle_type_id":"4","last_reported":1747321870,"current_range_meters":16800,"station_id":"ce4bhbh2rcd13ifvqepg","pricing_plan_id":"cebpf4jnsgd1na2vs0mg"},{"bike_id":"6d886103-344e-431a-ac80-7f62879d2f7c","system_id":"levelo_inurba_marseille","lat":43.22929,"lon":5.35383,"is_reserved":false,"is_disabled":false,"rental_uris":{"android":"levelo://app?vid=6d886103-344e-431a-ac80-7f62879d2f7c","ios":"levelo://app?vid=6d886103-344e-431a-ac80-7f62879d2f7c"},"vehicle_type_id":"4","last_reported":1747321870,"current_range_meters":16800,"station_id":"cpo3532slgdg3j2ikp40","pricing_plan_id":"cebpf4jnsgd1na2vs0mg"},{"bike_id":"8ac46e8a-c5d9-4d3e-9caf-c063dfbfb036","system_id":"levelo_inurba_marseille","lat":43.30551,"lon":5.36543,"is_reserved":false,"is_disabled":false,"rental_uris":{"android":"levelo://app?vid=8ac46e8a-c5d9-4d3e-9caf-c063dfbfb036","ios":"levelo://app?vid=8ac46e8a-c5d9-4d3e-9caf-c063dfbfb036"},"vehicle_type_id":"4","last_reported":1747321870,"current_range_meters":17200,"station_id":"ce4bgs12rcd13ifvqcag","pricing_plan_id":"cebpf4jnsgd1na2vs0mg"},{"bike_id":"8e1ad39a-a804-40bf-957c-bbf938435424","system_id":"levelo_inurba_marseille","lat":43.302482,"lon":5.395415,"is_reserved":false,"is_disabled":false,"rental_uris":{"android":"levelo://app?vid=8e1ad39a-a804-40bf-957c-bbf938435424","ios":"levelo://app?vid=8e1ad39a-a804-40bf-957c-bbf938435424"},"vehicle_type_id":"4","last_reported":1747321870,"current_range_meters":17200,"station_id":"ce4bh0p2rcd13ifvqd70","pricing_plan_id":"cebpf4jnsgd1na2vs0mg"},{"bike_id":"97fc8da7-d1e6-4416-b7f1-ecc153cca4c9","system_id":"levelo_inurba_marseille","lat":43.28927,"lon":5.38385,"is_reserved":false,"is_disabled":false,"rental_uris":{"android":"levelo://app?vid=97fc8da7-d1e6-4416-b7f1-ecc153cca4c9","ios":"levelo://app?vid=97fc8da7-d1e6-4416-b7f1-ecc153cca4c9"},"vehicle_type_id":"4","last_reported":1747321870,"current_range_meters":17200,"station_id":"ce4bh612rcd13ifvqe6g","pricing_plan_id":"cebpf4jnsgd1na2vs0mg"},{"bike_id":"5a46edab-6bbb-4acd-be3c-584225cdf840","system_id":"levelo_inurba_marseille","lat":43.26568,"lon":5.3901,"is_reserved":false,"is_disabled":false,"rental_uris":{"android":"levelo://app?vid=5a46edab-6bbb-4acd-be3c-584225cdf840","ios":"levelo://app?vid=5a46edab-6bbb-4acd-be3c-584225cdf840"},"vehicle_type_id":"4","last_reported":1747321870,"current_range_meters":17200,"station_id":"ce4bhe12rcd13ifvqf30","pricing_plan_id":"cebpf4jnsgd1na2vs0mg"},{"bike_id":"9c69e55b-3827-4551-aa71-02fc928cda04","system_id":"levelo_inurba_marseille","lat":43.323681,"lon":5.388841,"is_reserved":false,"is_disabled":false,"rental_uris":{"android":"levelo://app?vid=9c69e55b-3827-4551-aa71-02fc928cda04","ios":"levelo://app?vid=9c69e55b-3827-4551-aa71-02fc928cda04"},"vehicle_type_id":"4","last_reported":1747321870,"current_range_meters":17200,"station_id":"ce4bhqp2rcd13ifvqhog","pricing_plan_id":"cebpf4jnsgd1na2vs0mg"},{"bike_id":"004deaad-71d8-428c-b44b-9070f09291d4","system_id":"levelo_inurba_marseille","lat":43.31829,"lon":5.37256,"is_reserved":false,"is_disabled":false,"rental_uris":{"android":"levelo://app?vid=004deaad-71d8-428c-b44b-9070f09291d4","ios":"levelo://app?vid=004deaad-71d8-428c-b44b-9070f09291d4"},"vehicle_type_id":"4","last_reported":1747321870,"current_range_meters":17600,"station_id":"","pricing_plan_id":"cebpf4jnsgd1na2vs0mg"},{"bike_id":"228e4d6a-e038-4298-91d7-ef0db8977f42","system_id":"levelo_inurba_marseille","lat":43.27624,"lon":5.3611,"is_reserved":false,"is_disabled":false,"rental_uris":{"android":"levelo://app?vid=228e4d6a-e038-4298-91d7-ef0db8977f42","ios":"levelo://app?vid=228e4d6a-e038-4298-91d7-ef0db8977f42"},"vehicle_type_id":"4","last_reported":1747321870,"current_range_meters":17600,"station_id":"ce4bgj92rcd13ifvqbe0","pricing_plan_id":"cebpf4jnsgd1na2vs0mg"},{"bike_id":"dfc581cb-2c1c-4e0a-b581-051fb4a8c8a7","system_id":"levelo_inurba_marseille","lat":43.28097,"lon":5.37843,"is_reserved":false,"is_disabled":false,"rental_uris":{"android":"levelo://app?vid=dfc581cb-2c1c-4e0a-b581-051fb4a8c8a7","ios":"levelo://app?vid=dfc581cb-2c1c-4e0a-b581-051fb4a8c8a7"},"vehicle_type_id":"4","last_reported":1747321870,"current_range_meters":17600,"station_id":"ce4bha12rcd13ifvqee0","pricing_plan_id":"cebpf4jnsgd1na2vs0mg"},{"bike_id":"8c801b9f-3818-4ceb-9573-4499ff41234b","system_id":"levelo_inurba_marseille","lat":43.28424,"lon":5.34996,"is_reserved":false,"is_disabled":false,"rental_uris":{"android":"levelo://app?vid=8c801b9f-3818-4ceb-9573-4499ff41234b","ios":"levelo://app?vid=8c801b9f-3818-4ceb-9573-4499ff41234b"},"vehicle_type_id":"4","last_reported":1747321870,"current_range_meters":17600,"station_id":"ce4bhbh2rcd13ifvqepg","pricing_plan_id":"cebpf4jnsgd1na2vs0mg"},{"bike_id":"7731b498-76fa-4e9d-a1cd-7f449dc33184","system_id":"levelo_inurba_marseille","lat":43.28619,"lon":5.35106,"is_reserved":false,"is_disabled":false,"rental_uris":{"android":"levelo://app?vid=7731b498-76fa-4e9d-a1cd-7f449dc33184","ios":"levelo://app?vid=7731b498-76fa-4e9d-a1cd-7f449dc33184"},"vehicle_type_id":"4","last_reported":1747321870,"current_range_meters":17600,"station_id":"ce4bhch2rcd13ifvqeug","pricing_plan_id":"cebpf4jnsgd1na2vs0mg"},{"bike_id":"c422c13b-c5b0-4f57-b613-977a140a0b5b","system_id":"levelo_inurba_marseille","lat":43.26175,"lon":5.379149,"is_reserved":false,"is_disabled":false,"rental_uris":{"android":"levelo://app?vid=c422c13b-c5b0-4f57-b613-977a140a0b5b","ios":"levelo://app?vid=c422c13b-c5b0-4f57-b613-977a140a0b5b"},"vehicle_type_id":"4","last_reported":1747321870,"current_range_meters":17600,"station_id":"ce4bhjp2rcd13ifvqg90","pricing_plan_id":"cebpf4jnsgd1na2vs0mg"},{"bike_id":"e93a7144-e6b6-43f7-9086-a379ca844370","system_id":"levelo_inurba_marseille","lat":43.2407,"lon":5.37764,"is_reserved":false,"is_disabled":false,"rental_uris":{"android":"levelo://app?vid=e93a7144-e6b6-43f7-9086-a379ca844370","ios":"levelo://app?vid=e93a7144-e6b6-43f7-9086-a379ca844370"},"vehicle_type_id":"4","last_reported":1747321870,"current_range_meters":17600,"station_id":"ce4bhnp2rcd13ifvqgvg","pricing_plan_id":"cebpf4jnsgd1na2vs0mg"},{"bike_id":"5b47fc8c-3496-4566-be9a-c62694c429be","system_id":"levelo_inurba_marseille","lat":43.27374,"lon":5.36249,"is_reserved":false,"is_disabled":false,"rental_uris":{"android":"levelo://app?vid=5b47fc8c-3496-4566-be9a-c62694c429be","ios":"levelo://app?vid=5b47fc8c-3496-4566-be9a-c62694c429be"},"vehicle_type_id":"4","last_reported":1747321870,"current_range_meters":18000,"station_id":"ce4bhbh2rcd13ifvqeo0","pricing_plan_id":"cebpf4jnsgd1na2vs0mg"},{"bike_id":"8937e58a-82bd-4181-b426-25cf9717cf13","system_id":"levelo_inurba_marseille","lat":43.28406,"lon":5.35006,"is_reserved":false,"is_disabled":false,"rental_uris":{"android":"levelo://app?vid=8937e58a-82bd-4181-b426-25cf9717cf13","ios":"levelo://app?vid=8937e58a-82bd-4181-b426-25cf9717cf13"},"vehicle_type_id":"4","last_reported":1747321870,"current_range_meters":18000,"station_id":"ce4bhbh2rcd13ifvqepg","pricing_plan_id":"cebpf4jnsgd1na2vs0mg"},{"bike_id":"fc9e68f9-66ae-471e-be30-c9d475deebd7","system_id":"levelo_inurba_marseille","lat":43.26552,"lon":5.37294,"is_reserved":false,"is_disabled":false,"rental_uris":{"android":"levelo://app?vid=fc9e68f9-66ae-471e-be30-c9d475deebd7","ios":"levelo://app?vid=fc9e68f9-66ae-471e-be30-c9d475deebd7"},"vehicle_type_id":"4","last_reported":1747321870,"current_range_meters":18000,"station_id":"ce4bhg12rcd13ifvqf70","pricing_plan_id":"cebpf4jnsgd1na2vs0mg"},{"bike_id":"45717c5d-527b-4bca-9865-dd45170891b3","system_id":"levelo_inurba_marseille","lat":43.25582,"lon":5.38228,"is_reserved":false,"is_disabled":false,"rental_uris":{"android":"levelo://app?vid=45717c5d-527b-4bca-9865-dd45170891b3","ios":"levelo://app?vid=45717c5d-527b-4bca-9865-dd45170891b3"},"vehicle_type_id":"4","last_reported":1747321870,"current_range_meters":18000,"station_id":"ce4bhih2rcd13ifvqfs0","pricing_plan_id":"cebpf4jnsgd1na2vs0mg"},{"bike_id":"01bd16ea-d8a8-4036-8e1a-e8dc8d28df2a","system_id":"levelo_inurba_marseille","lat":43.25105,"lon":5.40323,"is_reserved":false,"is_disabled":false,"rental_uris":{"android":"levelo://app?vid=01bd16ea-d8a8-4036-8e1a-e8dc8d28df2a","ios":"levelo://app?vid=01bd16ea-d8a8-4036-8e1a-e8dc8d28df2a"},"vehicle_type_id":"4","last_reported":1747321870,"current_range_meters":18000,"station_id":"ce4bhlh2rcd13ifvqgig","pricing_plan_id":"cebpf4jnsgd1na2vs0mg"},{"bike_id":"c1bba433-9a42-4334-9ed4-d3d41ee062fa","system_id":"levelo_inurba_marseille","lat":43.23187,"lon":5.40005,"is_reserved":false,"is_disabled":false,"rental_uris":{"android":"levelo://app?vid=c1bba433-9a42-4334-9ed4-d3d41ee062fa","ios":"levelo://app?vid=c1bba433-9a42-4334-9ed4-d3d41ee062fa"},"vehicle_type_id":"4","last_reported":1747321870,"current_range_meters":18000,"station_id":"ce4bhn12rcd13ifvqgqg","pricing_plan_id":"cebpf4jnsgd1na2vs0mg"},{"bike_id":"dc9ee82d-09b2-449b-9c47-8ca20604551a","system_id":"levelo_inurba_marseille","lat":43.2681,"lon":5.40273,"is_reserved":false,"is_disabled":false,"rental_uris":{"android":"levelo://app?vid=dc9ee82d-09b2-449b-9c47-8ca20604551a","ios":"levelo://app?vid=dc9ee82d-09b2-449b-9c47-8ca20604551a"},"vehicle_type_id":"4","last_reported":1747321870,"current_range_meters":18000,"station_id":"ce501612rcd8frsf0b60","pricing_plan_id":"cebpf4jnsgd1na2vs0mg"},{"bike_id":"46adddc3-b9f9-4cef-8ee9-b88c5e633b59","system_id":"levelo_inurba_marseille","lat":43.302434,"lon":5.374364,"is_reserved":false,"is_disabled":false,"rental_uris":{"android":"levelo://app?vid=46adddc3-b9f9-4cef-8ee9-b88c5e633b59","ios":"levelo://app?vid=46adddc3-b9f9-4cef-8ee9-b88c5e633b59"},"vehicle_type_id":"4","last_reported":1747321870,"current_range_meters":18800,"station_id":"ce4bguh2rcd13ifvqckg","pricing_plan_id":"cebpf4jnsgd1na2vs0mg"},{"bike_id":"9dc9e993-110b-4d2f-a73f-7cda8622ce6a","system_id":"levelo_inurba_marseille","lat":43.29053,"lon":5.35931,"is_reserved":false,"is_disabled":false,"rental_uris":{"android":"levelo://app?vid=9dc9e993-110b-4d2f-a73f-7cda8622ce6a","ios":"levelo://app?vid=9dc9e993-110b-4d2f-a73f-7cda8622ce6a"},"vehicle_type_id":"4","last_reported":1747321870,"current_range_meters":18800,"station_id":"ce4bha92rcd13ifvqeg0","pricing_plan_id":"cebpf4jnsgd1na2vs0mg"},{"bike_id":"da094370-d5e1-469a-acf6-c99dbb6627b8","system_id":"levelo_inurba_marseille","lat":43.27376,"lon":5.362565,"is_reserved":false,"is_disabled":false,"rental_uris":{"android":"levelo://app?vid=da094370-d5e1-469a-acf6-c99dbb6627b8","ios":"levelo://app?vid=da094370-d5e1-469a-acf6-c99dbb6627b8"},"vehicle_type_id":"4","last_reported":1747321870,"current_range_meters":18800,"station_id":"ce4bhbh2rcd13ifvqeo0","pricing_plan_id":"cebpf4jnsgd1na2vs0mg"},{"bike_id":"71061298-85e7-45bc-993b-630ac66b913f","system_id":"levelo_inurba_marseille","lat":43.26554,"lon":5.37294,"is_reserved":false,"is_disabled":false,"rental_uris":{"android":"levelo://app?vid=71061298-85e7-45bc-993b-630ac66b913f","ios":"levelo://app?vid=71061298-85e7-45bc-993b-630ac66b913f"},"vehicle_type_id":"4","last_reported":1747321870,"current_range_meters":18800,"station_id":"ce4bhg12rcd13ifvqf70","pricing_plan_id":"cebpf4jnsgd1na2vs0mg"},{"bike_id":"7dfac0e7-f231-47a1-a71f-c24c9cef445b","system_id":"levelo_inurba_marseille","lat":43.25581,"lon":5.38256,"is_reserved":false,"is_disabled":false,"rental_uris":{"android":"levelo://app?vid=7dfac0e7-f231-47a1-a71f-c24c9cef445b","ios":"levelo://app?vid=7dfac0e7-f231-47a1-a71f-c24c9cef445b"},"vehicle_type_id":"4","last_reported":1747321870,"current_range_meters":18800,"station_id":"ce4bhih2rcd13ifvqfs0","pricing_plan_id":"cebpf4jnsgd1na2vs0mg"},{"bike_id":"9ea88961-4a56-4ee2-8314-e63f6fe0e28c","system_id":"levelo_inurba_marseille","lat":43.267977,"lon":5.402559,"is_reserved":false,"is_disabled":false,"rental_uris":{"android":"levelo://app?vid=9ea88961-4a56-4ee2-8314-e63f6fe0e28c","ios":"levelo://app?vid=9ea88961-4a56-4ee2-8314-e63f6fe0e28c"},"vehicle_type_id":"4","last_reported":1747321870,"current_range_meters":18800,"station_id":"ce501612rcd8frsf0b60","pricing_plan_id":"cebpf4jnsgd1na2vs0mg"},{"bike_id":"180e10a7-ba2a-44a0-95b4-4567b94c2920","system_id":"levelo_inurba_marseille","lat":43.21733,"lon":5.3462,"is_reserved":false,"is_disabled":false,"rental_uris":{"android":"levelo://app?vid=180e10a7-ba2a-44a0-95b4-4567b94c2920","ios":"levelo://app?vid=180e10a7-ba2a-44a0-95b4-4567b94c2920"},"vehicle_type_id":"4","last_reported":1747321870,"current_range_meters":18800,"station_id":"st_cvj6r9ubvosntc0bgbag","pricing_plan_id":"cebpf4jnsgd1na2vs0mg"},{"bike_id":"24f51082-4ec6-4b32-85bd-e182323f78d3","system_id":"levelo_inurba_marseille","lat":43.31703,"lon":5.37737,"is_reserved":false,"is_disabled":false,"rental_uris":{"android":"levelo://app?vid=24f51082-4ec6-4b32-85bd-e182323f78d3","ios":"levelo://app?vid=24f51082-4ec6-4b32-85bd-e182323f78d3"},"vehicle_type_id":"4","last_reported":1747321870,"current_range_meters":19200,"station_id":"ce4bgth2rcd13ifvqch0","pricing_plan_id":"cebpf4jnsgd1na2vs0mg"},{"bike_id":"7f0f9745-72a5-48f7-84ac-4a317789039d","system_id":"levelo_inurba_marseille","lat":43.29262,"lon":5.38438,"is_reserved":false,"is_disabled":false,"rental_uris":{"android":"levelo://app?vid=7f0f9745-72a5-48f7-84ac-4a317789039d","ios":"levelo://app?vid=7f0f9745-72a5-48f7-84ac-4a317789039d"},