{"last_updated":1727536177,"ttl":60,"version":"2.2","data":{"bikes":[{"bike_id":"12f1720c-d1de-4403-8789-9e126147b303","system_id":"levelo_inurba_marseille","lat":43.29939,"lon":5.36528,"is_reserved":false,"is_disabled":false,"rental_uris":{"android":"levelo://app?vid=12f1720c-d1de-4403-8789-9e126147b303","ios":"levelo://app?vid=12f1720c-d1de-4403-8789-9e126147b303"},"vehicle_type_id":"4","last_reported":1727536177,"current_range_meters":20000,"station_id":"ce4bhbh2rcd13ifvqepg","pricing_plan_id":"cebpf4jnsgd1na2vs0mg"},{"bike_id":"304ad9dc-4264-4b8e-ba0f-4d59ecb5647f","system_id":"levelo_inurba_marseille","lat":43.28421,"lon":5.34986,"is_reserved":false,"is_disabled":false,"rental_uris":{"android":"levelo://app?vid=304ad9dc-4264-4b8e-ba0f-4d59ecb5647f","ios":"levelo://app?vid=304ad9dc-4264-4b8e-ba0f-4d59ecb5647f"},"vehicle_type_id":"4","last_reported":1727536177,"current_range_meters":6400,"station_id":"ce4bhbh2rcd13ifvqepg","pricing_plan_id":"cebpf4jnsgd1na2vs0mg"},{"bike_id":"73aa0c7e-726a-4296-bac2-f2d872d1e286","system_id":"levelo_inurba_marseille","lat":43.28005,"lon":5.40008,"is_reserved":false,"is_disabled":false,"rental_uris":{"android":"levelo://app?vid=73aa0c7e-726a-4296-bac2-f2d872d1e286","ios":"levelo://app?vid=73aa0c7e-726a-4296-bac2-f2d872d1e286"},"vehicle_type_id":"4","last_reported":1727536177,"current_range_meters":16000,"station_id":"ce4bho92rcd13ifvqh4g","pricing_plan_id":"cebpf4jnsgd1na2vs0mg"},{"bike_id":"04db4914-e8e5-48e9-b22d-dccca41b691d","system_id":"levelo_inurba_marseille","lat":43.28152,"lon":5.42652,"is_reserved":false,"is_disabled":false,"rental_uris":{"android":"levelo://app?vid=04db4914-e8e5-48e9-b22d-dccca41b691d","ios":"levelo://app?vid=04db4914-e8e5-48e9-b22d-dccca41b691d"},"vehicle_type_id":"4","last_reported":1727536177,"current_range_meters":30000,"station_id":"ce4bhnh2rcd13ifvqgug","pricing_plan_id":"cebpf4jnsgd1na2vs0mg"},{"bike_id":"e79b1740-aa69-4e0c-a4ef-fd805f5f679e","system_id":"levelo_inurba_marseille","lat":43.30141,"lon":5.37412,"is_reserved":false,"is_disabled":false,"rental_uris":{"android":"levelo://app?vid=e79b1740-aa69-4e0c-a4ef-fd805f5f679e","ios":"levelo://app?vid=e79b1740-aa69-4e0c-a4ef-fd805f5f679e"},"vehicle_type_id":"4","last_reported":1727536177,"current_range_meters":8400,"station_id":"ce4bgs92rcd13ifvqcc0","pricing_plan_id":"cebpf4jnsgd1na2vs0mg"},{"bike_id":"ab3c5666-15ff-4f92-a2d0-fcb8c81b2404","system_id":"levelo_inurba_marseille","lat":43.30601,"lon":5.37214,"is_reserved":false,"is_disabled":false,"rental_uris":{"android":"levelo://app?vid=ab3c5666-15ff-4f92-a2d0-fcb8c81b2404","ios":"levelo://app?vid=ab3c5666-15ff-4f92-a2d0-fcb8c81b2404"},"vehicle_type_id":"4","last_reported":1727536177,"current_range_meters":37600,"station_id":"ce4bgqh2rcd13ifvqc4g","pricing_plan_id":"cebpf4jnsgd1na2vs0mg"},{"bike_id":"d7513848-e19f-421e-9ea5-a612e76aa76a","system_id":"levelo_inurba_marseille","lat":43.26199,"lon":5.37928,"is_reserved":false,"is_disabled":false,"rental_uris":{"android":"levelo://app?vid=d7513848-e19f-421e-9ea5-a612e76aa76a","ios":"levelo://app?vid=d7513848-e19f-421e-9ea5-a612e76aa76a"},"vehicle_type_id":"4","last_reported":1727536177,"current_range_meters":30000,"station_id":"ce4bhjp2rcd13ifvqg90","pricing_plan_id":"cebpf4jnsgd1na2vs0mg"},{"bike_id":"a6538928-c6a1-445a-848c-2ef0f43db522","system_id":"levelo_inurba_marseille","lat":43.24803,"lon":5.37455,"is_reserved":false,"is_disabled":false,"rental_uris":{"android":"levelo://app?vid=a6538928-c6a1-445a-848c-2ef0f43db522","ios":"levelo://app?vid=a6538928-c6a1-445a-848c-2ef0f43db522"},"vehicle_type_id":"4","last_reported":1727536177,"current_range_meters":29600,"station_id":"ce4bhgh2rcd13ifvqfb0","pricing_plan_id":"cebpf4jnsgd1na2vs0mg"},{"bike_id":"e8f339a7-5e65-4275-8576-718fc09f5e43","system_id":"levelo_inurba_marseille","lat":43.27619,"lon":5.36105,"is_reserved":false,"is_disabled":false,"rental_uris":{"android":"levelo://app?vid=e8f339a7-5e65-4275-8576-718fc09f5e43","ios":"levelo://app?vid=e8f339a7-5e65-4275-8576-718fc09f5e43"},"vehicle_type_id":"4","last_reported":1727536177,"current_range_meters":14800,"station_id":"ce4bgj92rcd13ifvqbe0","pricing_plan_id":"cebpf4jnsgd1na2vs0mg"},{"bike_id":"22cedd5a-56b7-4da4-922e-ad3da806bffc","system_id":"levelo_inurba_marseille","lat":43.23967,"lon":5.36627,"is_reserved":false,"is_disabled":false,"rental_uris":{"android":"levelo://app?vid=22cedd5a-56b7-4da4-922e-ad3da806bffc","ios":"levelo://app?vid=22cedd5a-56b7-4da4-922e-ad3da806bffc"},"vehicle_type_id":"4","last_reported":1727536177,"current_range_meters":29600,"station_id":"ce4bhi12rcd13ifvqfp0","pricing_plan_id":"cebpf4jnsgd1na2vs0mg"},{"bike_id":"7d54d53e-9465-4eb7-988f-3be552d17282","system_id":"levelo_inurba_marseille","lat":43.25001,"lon":5.38933,"is_reserved":false,"is_disabled":false,"rental_uris":{"android":"levelo://app?vid=7d54d53e-9465-4eb7-988f-3be552d17282","ios":"levelo://app?vid=7d54d53e-9465-4eb7-988f-3be552d17282"},"vehicle_type_id":"4","last_reported":1727536177,"current_range_meters":16800,"station_id":"ce4bhgp2rcd13ifvqfd0","pricing_plan_id":"cebpf4jnsgd1na2vs0mg"},{"bike_id":"a86e40e4-3910-4c1c-a706-3aef26b99590","system_id":"levelo_inurba_marseille","lat":43.306263,"lon":5.400915,"is_reserved":false,"is_disabled":false,"rental_uris":{"android":"levelo://app?vid=a86e40e4-3910-4c1c-a706-3aef26b99590","ios":"levelo://app?vid=a86e40e4-3910-4c1c-a706-3aef26b99590"},"vehicle_type_id":"4","last_reported":1727536177,"current_range_meters":34800,"station_id":"ce4bh0h2rcd13ifvqd60","pricing_plan_id":"cebpf4jnsgd1na2vs0mg"},{"bike_id":"1547e9a3-7bbd-4329-b030-d952e7bf5e48","system_id":"levelo_inurba_marseille","lat":43.30593,"lon":5.39356,"is_reserved":false,"is_disabled":false,"rental_uris":{"android":"levelo://app?vid=1547e9a3-7bbd-4329-b030-d952e7bf5e48","ios":"levelo://app?vid=1547e9a3-7bbd-4329-b030-d952e7bf5e48"},"vehicle_type_id":"4","last_reported":1727536177,"current_range_meters":8800,"station_id":"ce4bh0p2rcd13ifvqd80","pricing_plan_id":"cebpf4jnsgd1na2vs0mg"},{"bike_id":"7b25ec32-2292-486a-acb1-6d81d758d4ba","system_id":"levelo_inurba_marseille","lat":43.23964,"lon":5.36625,"is_reserved":false,"is_disabled":false,"rental_uris":{"android":"levelo://app?vid=7b25ec32-2292-486a-acb1-6d81d758d4ba","ios":"levelo://app?vid=7b25ec32-2292-486a-acb1-6d81d758d4ba"},"vehicle_type_id":"4","last_reported":1727536177,"current_range_meters":24800,"station_id":"ce4bhi12rcd13ifvqfp0","pricing_plan_id":"cebpf4jnsgd1na2vs0mg"},{"bike_id":"c725e31a-3eff-4119-9ec7-83101a2661cf","system_id":"levelo_inurba_marseille","lat":43.26778,"lon":5.39417,"is_reserved":false,"is_disabled":false,"rental_uris":{"android":"levelo://app?vid=c725e31a-3eff-4119-9ec7-83101a2661cf","ios":"levelo://app?vid=c725e31a-3eff-4119-9ec7-83101a2661cf"},"vehicle_type_id":"4","last_reported":1727536177,"current_range_meters":8000,"station_id":"ce4bhh12rcd13ifvqfg0","pricing_plan_id":"cebpf4jnsgd1na2vs0mg"},{"bike_id":"c1f3d17c-c3c1-4002-8866-d243d97f97b3","system_id":"levelo_inurba_marseille","lat":43.29606,"lon":5.37712,"is_reserved":false,"is_disabled":false,"rental_uris":{"android":"levelo://app?vid=c1f3d17c-c3c1-4002-8866-d243d97f97b3","ios":"levelo://app?vid=c1f3d17c-c3c1-4002-8866-d243d97f97b3"},"vehicle_type_id":"4","last_reported":1727536177,"current_range_meters":38800,"station_id":"ce4bgi92rcd13ifvqb90","pricing_plan_id":"cebpf4jnsgd1na2vs0mg"},{"bike_id":"48cda0b0-244d-4505-b693-61ec1701b78e","system_id":"levelo_inurba_marseille","lat":43.293304,"lon":5.385831,"is_reserved":false,"is_disabled":false,"rental_uris":{"android":"levelo://app?vid=48cda0b0-244d-4505-b693-61ec1701b78e","ios":"levelo://app?vid=48cda0b0-244d-4505-b693-61ec1701b78e"},"vehicle_type_id":"4","last_reported":1727536177,"current_range_meters":22400,"station_id":"","pricing_plan_id":"cebpf4jnsgd1na2vs0mg"},{"bike_id":"3afc3938-1136-4249-8a01-c9d063a0172a","system_id":"levelo_inurba_marseille","lat":43.29272,"lon":5.36842,"is_reserved":false,"is_disabled":false,"rental_uris":{"android":"levelo://app?vid=3afc3938-1136-4249-8a01-c9d063a0172a","ios":"levelo://app?vid=3afc3938-1136-4249-8a01-c9d063a0172a"},"vehicle_type_id":"4","last_reported":1727536177,"current_range_meters":32000,"station_id":"ce4bhbp2rcd13ifvqesg","pricing_plan_id":"cebpf4jnsgd1na2vs0mg"},{"bike_id":"72777533-dc19-484d-bae4-e7f4f9270820","system_id":"levelo_inurba_marseille","lat":43.28407,"lon":5.37506,"is_reserved":false,"is_disabled":false,"rental_uris":{"android":"levelo://app?vid=72777533-dc19-484d-bae4-e7f4f9270820","ios":"levelo://app?vid=72777533-dc19-484d-bae4-e7f4f9270820"},"vehicle_type_id":"4","last_reported":1727536177,"current_range_meters":7200,"station_id":"ce4bh412rcd13ifvqds0","pricing_plan_id":"cebpf4jnsgd1na2vs0mg"},{"bike_id":"83ab67e9-9683-40ac-9b80-c07390469159","system_id":"levelo_inurba_marseille","lat":43.22928,"lon":5.35373,"is_reserved":false,"is_disabled":false,"rental_uris":{"android":"levelo://app?vid=83ab67e9-9683-40ac-9b80-c07390469159","ios":"levelo://app?vid=83ab67e9-9683-40ac-9b80-c07390469159"},"vehicle_type_id":"4","last_reported":1727536177,"current_range_meters":36800,"station_id":"cpo3532slgdg3j2ikp40","pricing_plan_id":"cebpf4jnsgd1na2vs0mg"},{"bike_id":"f08207d8-50d1-4527-b274-bf0888b74fbf","system_id":"levelo_inurba_marseille","lat":43.29191,"lon":5.35813,"is_reserved":false,"is_disabled":false,"rental_uris":{"android":"levelo://app?vid=f08207d8-50d1-4527-b274-bf0888b74fbf","ios":"levelo://app?vid=f08207d8-50d1-4527-b274-bf0888b74fbf"},"vehicle_type_id":"4","last_reported":1727536177,"current_range_meters":28000,"station_id":"ce4bhb12rcd13ifvqel0","pricing_plan_id":"cebpf4jnsgd1na2vs0mg"},{"bike_id":"7bdb6542-34d4-409e-96e4-4aeb97032ede","system_id":"levelo_inurba_marseille","lat":43.29552,"lon":5.42283,"is_reserved":false,"is_disabled":false,"rental_uris":{"android":"levelo://app?vid=7bdb6542-34d4-409e-96e4-4aeb97032ede","ios":"levelo://app?vid=7bdb6542-34d4-409e-96e4-4aeb97032ede"},"vehicle_type_id":"4","last_reported":1727536177,"current_range_meters":9600,"station_id":"ce4bhph2rcd13ifvqhdg","pricing_plan_id":"cebpf4jnsgd1na2vs0mg"},{"bike_id":"f69343f4-4c3e-41e0-a400-15f311fa0f96","system_id":"levelo_inurba_marseille","lat":43.28716,"lon":5.37946,"is_reserved":false,"is_disabled":false,"rental_uris":{"android":"levelo://app?vid=f69343f4-4c3e-41e0-a400-15f311fa0f96","ios":"levelo://app?vid=f69343f4-4c3e-41e0-a400-15f311fa0f96"},"vehicle_type_id":"4","last_reported":1727536177,"current_range_meters":24400,"station_id":"ce4bh9p2rcd13ifvqec0","pricing_plan_id":"cebpf4jnsgd1na2vs0mg"},{"bike_id":"8524a85f-8427-4a60-91b5-869fad39ff42","system_id":"levelo_inurba_marseille","lat":43.25003,"lon":5.38935,"is_reserved":false,"is_disabled":false,"rental_uris":{"android":"levelo://app?vid=8524a85f-8427-4a60-91b5-869fad39ff42","ios":"levelo://app?vid=8524a85f-8427-4a60-91b5-869fad39ff42"},"vehicle_type_id":"4","last_reported":1727536177,"current_range_meters":33200,"station_id":"ce4bhgp2rcd13ifvqfd0","pricing_plan_id":"cebpf4jnsgd1na2vs0mg"},{"bike_id":"aabc957e-046e-4e49-8748-3189de0cd217","system_id":"levelo_inurba_marseille","lat":43.26803,"lon":5.4027,"is_reserved":false,"is_disabled":false,"rental_uris":{"android":"levelo://app?vid=aabc957e-046e-4e49-8748-3189de0cd217","ios":"levelo://app?vid=aabc957e-046e-4e49-8748-3189de0cd217"},"vehicle_type_id":"4","last_reported":1727536177,"current_range_meters":28800,"station_id":"ce501612rcd8frsf0b60","pricing_plan_id":"cebpf4jnsgd1na2vs0mg"},{"bike_id":"c4b7e2cc-3cbd-457f-926b-02f4ee7760be","system_id":"levelo_inurba_marseille","lat":43.28851,"lon":5.39316,"is_reserved":false,"is_disabled":false,"rental_uris":{"android":"levelo://app?vid=c4b7e2cc-3cbd-457f-926b-02f4ee7760be","ios":"levelo://app?vid=c4b7e2cc-3cbd-457f-926b-02f4ee7760be"},"vehicle_type_id":"4","last_reported":1727536177,"current_range_meters":6400,"station_id":"ce4bh2p2rcd13ifvqdi0","pricing_plan_id":"cebpf4jnsgd1na2vs0mg"},{"bike_id":"1ce7c25b-6bd2-4b64-b4ae-543ea784fc5d","system_id":"levelo_inurba_marseille","lat":43.337444,"lon":5.374475,"is_reserved":false,"is_disabled":false,"rental_uris":{"android":"levelo://app?vid=1ce7c25b-6bd2-4b64-b4ae-543ea784fc5d","ios":"levelo://app?vid=1ce7c25b-6bd2-4b64-b4ae-543ea784fc5d"},"vehicle_type_id":"4","last_reported":1727536177,"current_range_meters":36400,"station_id":"","pricing_plan_id":"cebpf4jnsgd1na2vs0mg"},{"bike_id":"ccb0399a-af8d-4a08-a739-b071793d1a1b","system_id":"levelo_inurba_marseille","lat":43.31712,"lon":5.43704,"is_reserved":false,"is_disabled":false,"rental_uris":{"android":"levelo://app?vid=ccb0399a-af8d-4a08-a739-b071793d1a1b","ios":"levelo://app?vid=ccb0399a-af8d-4a08-a739-b071793d1a1b"},"vehicle_type_id":"4","last_reported":1727536177,"current_range_meters":19600,"station_id":"ce4bhp92rcd13ifvqhcg","pricing_plan_id":"cebpf4jnsgd1na2vs0mg"},{"bike_id":"fc2c0098-4b57-405f-937d-63d9c3866bd6","system_id":"levelo_inurba_marseille","lat":43.23775,"lon":5.36403,"is_reserved":false,"is_disabled":false,"rental_uris":{"android":"levelo://app?vid=fc2c0098-4b57-405f-937d-63d9c3866bd6","ios":"levelo://app?vid=fc2c0098-4b57-405f-937d-63d9c3866bd6"},"vehicle_type_id":"4","last_reported":1727536177,"current_range_meters":35200,"station_id":"cpo3342slgdg3j2ifvpg","pricing_plan_id":"cebpf4jnsgd1na2vs0mg"},{"bike_id":"5702cc7c-d877-4a41-b39d-bd8b3d4f542d","system_id":"levelo_inurba_marseille","lat":43.24806,"lon":5.37456,"is_reserved":false,"is_disabled":false,"rental_uris":{"android":"levelo://app?vid=5702cc7c-d877-4a41-b39d-bd8b3d4f542d","ios":"levelo://app?vid=5702cc7c-d877-4a41-b39d-bd8b3d4f542d"},"vehicle_type_id":"4","last_reported":1727536177,"current_range_meters":25200,"station_id":"ce4bhgh2rcd13ifvqfb0","pricing_plan_id":"cebpf4jnsgd1na2vs0mg"},{"bike_id":"d93a8490-4761-4daa-9c41-a9b14ca6708e","system_id":"levelo_inurba_marseille","lat":43.31888,"lon":5.40788,"is_reserved":false,"is_disabled":false,"rental_uris":{"android":"levelo://app?vid=d93a8490-4761-4daa-9c41-a9b14ca6708e","ios":"levelo://app?vid=d93a8490-4761-4daa-9c41-a9b14ca6708e"},"vehicle_type_id":"4","last_reported":1727536177,"current_range_meters":22400,"station_id":"ce4bhq12rcd13ifvqhig","pricing_plan_id":"cebpf4jnsgd1na2vs0mg"},{"bike_id":"95d4521a-146f-47be-8974-0b2c9365d001","system_id":"levelo_inurba_marseille","lat":43.30604,"lon":5.3723,"is_reserved":false,"is_disabled":false,"rental_uris":{"android":"levelo://app?vid=95d4521a-146f-47be-8974-0b2c9365d001","ios":"levelo://app?vid=95d4521a-146f-47be-8974-0b2c9365d001"},"vehicle_type_id":"4","last_reported":1727536177,"current_range_meters":20000,"station_id":"ce4bgqh2rcd13ifvqc4g","pricing_plan_id":"cebpf4jnsgd1na2vs0mg"},{"bike_id":"0c6a3edd-0259-43fd-a8d1-3d4bb6023605","system_id":"levelo_inurba_marseille","lat":43.24386,"lon":5.3705,"is_reserved":false,"is_disabled":false,"rental_uris":{"android":"levelo://app?vid=0c6a3edd-0259-43fd-a8d1-3d4bb6023605","ios":"levelo://app?vid=0c6a3edd-0259-43fd-a8d1-3d4bb6023605"},"vehicle_type_id":"4","last_reported":1727536177,"current_range_meters":39200,"station_id":"ce4bhhh2rcd13ifvqfk0","pricing_plan_id":"cebpf4jnsgd1na2vs0mg"},{"bike_id":"49fbd21a-3563-44d3-8dda-3f6f683f2b77","system_id":"levelo_inurba_marseille","lat":43.29511,"lon":5.39403,"is_reserved":false,"is_disabled":false,"rental_uris":{"android":"levelo://app?vid=49fbd21a-3563-44d3-8dda-3f6f683f2b77","ios":"levelo://app?vid=49fbd21a-3563-44d3-8dda-3f6f683f2b77"},"vehicle_type_id":"4","last_reported":1727536177,"current_range_meters":38000,"station_id":"ce4bh292rcd13ifvqdf0","pricing_plan_id":"cebpf4jnsgd1na2vs0mg"},{"bike_id":"0573582b-add4-4f47-925d-c460d5510391","system_id":"levelo_inurba_marseille","lat":43.29004,"lon":5.35609,"is_reserved":false,"is_disabled":false,"rental_uris":{"android":"levelo://app?vid=0573582b-add4-4f47-925d-c460d5510391","ios":"levelo://app?vid=0573582b-add4-4f47-925d-c460d5510391"},"vehicle_type_id":"4","last_reported":1727536177,"current_range_meters":22800,"station_id":"ce4bhb92rcd13ifvqen0","pricing_plan_id":"cebpf4jnsgd1na2vs0mg"},{"bike_id":"dffa5b28-e1e0-4c92-b940-96364a96e696","system_id":"levelo_inurba_marseille","lat":43.30254,"lon":5.40076,"is_reserved":false,"is_disabled":false,"rental_uris":{"android":"levelo://app?vid=dffa5b28-e1e0-4c92-b940-96364a96e696","ios":"levelo://app?vid=dffa5b28-e1e0-4c92-b940-96364a96e696"},"vehicle_type_id":"4","last_reported":1727536177,"current_range_meters":31200,"station_id":"ce4bgvh2rcd13ifvqcs0","pricing_plan_id":"cebpf4jnsgd1na2vs0mg"},{"bike_id":"6b0e3b67-3daf-4b03-8aa0-99e6c8dc5e62","system_id":"levelo_inurba_marseille","lat":43.28154,"lon":5.42643,"is_reserved":false,"is_disabled":false,"rental_uris":{"android":"levelo://app?vid=6b0e3b67-3daf-4b03-8aa0-99e6c8dc5e62","ios":"levelo://app?vid=6b0e3b67-3daf-4b03-8aa0-99e6c8dc5e62"},"vehicle_type_id":"4","last_reported":1727536177,"current_range_meters":20800,"station_id":"ce4bhnh2rcd13ifvqgug","pricing_plan_id":"cebpf4jnsgd1na2vs0mg"},{"bike_id":"8fe46ecc-1e67-4f19-8b8d-10a6acd8bd0b","system_id":"levelo_inurba_marseille","lat":43.25994,"lon":5.3868,"is_reserved":false,"is_disabled":false,"rental_uris":{"android":"levelo://app?vid=8fe46ecc-1e67-4f19-8b8d-10a6acd8bd0b","ios":"levelo://app?vid=8fe46ecc-1e67-4f19-8b8d-10a6acd8bd0b"},"vehicle_type_id":"4","last_reported":1727536177,"current_range_meters":8400,"station_id":"","pricing_plan_id":"cebpf4jnsgd1na2vs0mg"},{"bike_id":"f58a65d1-6aed-4a99-8d03-5255953cc508","system_id":"levelo_inurba_marseille","lat":43.3229,"lon":5.38279,"is_reserved":false,"is_disabled":false,"rental_uris":{"android":"levelo://app?vid=f58a65d1-6aed-4a99-8d03-5255953cc508","ios":"levelo://app?vid=f58a65d1-6aed-4a99-8d03-5255953cc508"},"vehicle_type_id":"4","last_reported":1727536177,"current_range_meters":38400,"station_id":"ce4bhr12rcd13ifvqhqg","pricing_plan_id":"cebpf4jnsgd1na2vs0mg"},{"bike_id":"340baa0f-e752-4632-96a4-9de762f3fb4d","system_id":"levelo_inurba_marseille","lat":43.2558,"lon":5.38228,"is_reserved":false,"is_disabled":false,"rental_uris":{"android":"levelo://app?vid=340baa0f-e752-4632-96a4-9de762f3fb4d","ios":"levelo://app?vid=340baa0f-e752-4632-96a4-9de762f3fb4d"},"vehicle_type_id":"4","last_reported":1727536177,"current_range_meters":24000,"station_id":"ce4bhih2rcd13ifvqfs0","pricing_plan_id":"cebpf4jnsgd1na2vs0mg"},{"bike_id":"225782a8-40b9-457f-bc22-acac1b248aa5","system_id":"levelo_inurba_marseille","lat":43.29929,"lon":5.36527,"is_reserved":false,"is_disabled":false,"rental_uris":{"android":"levelo://app?vid=225782a8-40b9-457f-bc22-acac1b248aa5","ios":"levelo://app?vid=225782a8-40b9-457f-bc22-acac1b248aa5"},"vehicle_type_id":"4","last_reported":1727536177,"current_range_meters":32000,"station_id":"ce4bgm92rcd13ifvqbr0","pricing_plan_id":"cebpf4jnsgd1na2vs0mg"},{"bike_id":"e4dedb62-9c81-433c-8448-a23a07ba2082","system_id":"levelo_inurba_marseille","lat":43.27203,"lon":5.39182,"is_reserved":false,"is_disabled":false,"rental_uris":{"android":"levelo://app?vid=e4dedb62-9c81-433c-8448-a23a07ba2082","ios":"levelo://app?vid=e4dedb62-9c81-433c-8448-a23a07ba2082"},"vehicle_type_id":"4","last_reported":1727536177,"current_range_meters":2800,"station_id":"ce4bhhp2rcd13ifvqfm0","pricing_plan_id":"cebpf4jnsgd1na2vs0mg"},{"bike_id":"0ed05c59-8579-4cfd-81d9-9419bb611fc3","system_id":"levelo_inurba_marseille","lat":43.29875,"lon":5.39727,"is_reserved":false,"is_disabled":false,"rental_uris":{"android":"levelo://app?vid=0ed05c59-8579-4cfd-81d9-9419bb611fc3","ios":"levelo://app?vid=0ed05c59-8579-4cfd-81d9-9419bb611fc3"},"vehicle_type_id":"4","last_reported":1727536177,"current_range_meters":11600,"station_id":"ce4bh0h2rcd13ifvqd50","pricing_plan_id":"cebpf4jnsgd1na2vs0mg"},{"bike_id":"67b9eb05-c36e-4582-9b61-98d56d57348d","system_id":"levelo_inurba_marseille","lat":43.26058,"lon":5.39397,"is_reserved":false,"is_disabled":false,"rental_uris":{"android":"levelo://app?vid=67b9eb05-c36e-4582-9b61-98d56d57348d","ios":"levelo://app?vid=67b9eb05-c36e-4582-9b61-98d56d57348d"},"vehicle_type_id":"4","last_reported":1727536177,"current_range_meters":36800,"station_id":"ce4bhh92rcd13ifvqfj0","pricing_plan_id":"cebpf4jnsgd1na2vs0mg"},{"bike_id":"8e9639bc-3ffd-42d3-9ecd-3e4dacffb4ae","system_id":"levelo_inurba_marseille","lat":43.28468,"lon":5.35883,"is_reserved":false,"is_disabled":false,"rental_uris":{"android":"levelo://app?vid=8e9639bc-3ffd-42d3-9ecd-3e4dacffb4ae","ios":"levelo://app?vid=8e9639bc-3ffd-42d3-9ecd-3e4dacffb4ae"},"vehicle_type_id":"4","last_reported":1727536177,"current_range_meters":24000,"station_id":"ce4bhah2rcd13ifvqei0","pricing_plan_id":"cebpf4jnsgd1na2vs0mg"},{"bike_id":"8e466a07-eb4f-41a8-922a-c5adbbcde617","system_id":"levelo_inurba_marseille","lat":43.30554,"lon":5.36558,"is_reserved":false,"is_disabled":false,"rental_uris":{"android":"levelo://app?vid=8e466a07-eb4f-41a8-922a-c5adbbcde617","ios":"levelo://app?vid=8e466a07-eb4f-41a8-922a-c5adbbcde617"},"vehicle_type_id":"4","last_reported":1727536177,"current_range_meters":22000,"station_id":"ce4bgs12rcd13ifvqcag","pricing_plan_id":"cebpf4jnsgd1na2vs0mg"},{"bike_id":"5e8aca01-0f4e-4162-a12a-f053d895f3b3","system_id":"levelo_inurba_marseille","lat":43.2804,"lon":5.36953,"is_reserved":false,"is_disabled":false,"rental_uris":{"android":"levelo://app?vid=5e8aca01-0f4e-4162-a12a-f053d895f3b3","ios":"levelo://app?vid=5e8aca01-0f4e-4162-a12a-f053d895f3b3"},"vehicle_type_id":"4","last_reported":1727536177,"current_range_meters":33200,"station_id":"ce4bha12rcd13ifvqef0","pricing_plan_id":"cebpf4jnsgd1na2vs0mg"},{"bike_id":"7b7972df-38f6-4844-a1ac-7273e8026644","system_id":"levelo_inurba_marseille","lat":43.2559,"lon":5.38234,"is_reserved":false,"is_disabled":false,"rental_uris":{"android":"levelo://app?vid=7b7972df-38f6-4844-a1ac-7273e8026644","ios":"levelo://app?vid=7b7972df-38f6-4844-a1ac-7273e8026644"},"vehicle_type_id":"4","last_reported":1727536177,"current_range_meters":29600,"station_id":"ce4bhih2rcd13ifvqfs0","pricing_plan_id":"cebpf4jnsgd1na2vs0mg"},{"bike_id":"e314285e-225a-4de4-ad5a-edf653eef075","system_id":"levelo_inurba_marseille","lat":43.30539,"lon":5.36519,"is_reserved":false,"is_disabled":false,"rental_uris":{"android":"levelo://app?vid=e314285e-225a-4de4-ad5a-edf653eef075","ios":"levelo://app?vid=e314285e-225a-4de4-ad5a-edf653eef075"},"vehicle_type_id":"4","last_reported":1727536177,"current_range_meters":30800,"station_id":"ce4bgs12rcd13ifvqcag","pricing_plan_id":"cebpf4jnsgd1na2vs0mg"},{"bike_id":"770d846e-e02d-4385-8269-1c165ccc198a","system_id":"levelo_inurba_marseille","lat":43.29276,"lon":5.36838,"is_reserved":false,"is_disabled":false,"rental_uris":{"android":"levelo://app?vid=770d846e-e02d-4385-8269-1c165ccc198a","ios":"levelo://app?vid=770d846e-e02d-4385-8269-1c165ccc198a"},"vehicle_type_id":"4","last_reported":1727536177,"current_range_meters":38800,"station_id":"ce4bhbp2rcd13ifvqesg","pricing_plan_id":"cebpf4jnsgd1na2vs0mg"},{"bike_id":"e28cc070-a8c1-4ff3-9c6d-44730ce24ac3","system_id":"levelo_inurba_marseille","lat":43.24386,"lon":5.37052,"is_reserved":false,"is_disabled":false,"rental_uris":{"android":"levelo://app?vid=e28cc070-a8c1-4ff3-9c6d-44730ce24ac3","ios":"levelo://app?vid=e28cc070-a8c1-4ff3-9c6d-44730ce24ac3"},"vehicle_type_id":"4","last_reported":1727536177,"current_range_meters":36800,"station_id":"ce4bhhh2rcd13ifvqfk0","pricing_plan_id":"cebpf4jnsgd1na2vs0mg"},{"bike_id":"869403bb-4fcc-4f66-8ec3-05c3e0e700b7","system_id":"levelo_inurba_marseille","lat":43.27416,"lon":5.39407,"is_reserved":false,"is_disabled":false,"rental_uris":{"android":"levelo://app?vid=869403bb-4fcc-4f66-8ec3-05c3e0e700b7","ios":"levelo://app?vid=869403bb-4fcc-4f66-8ec3-05c3e0e700b7"},"vehicle_type_id":"4","last_reported":1727536177,"current_range_meters":38800,"station_id":"ce4bhdp2rcd13ifvqf20","pricing_plan_id":"cebpf4jnsgd1na2vs0mg"},{"bike_id":"0c81cb5b-14bb-4953-9f02-c7751d2d178c","system_id":"levelo_inurba_marseille","lat":43.24388,"lon":5.37058,"is_reserved":false,"is_disabled":false,"rental_uris":{"android":"levelo://app?vid=0c81cb5b-14bb-4953-9f02-c7751d2d178c","ios":"levelo://app?vid=0c81cb5b-14bb-4953-9f02-c7751d2d178c"},"vehicle_type_id":"4","last_reported":1727536177,"current_range_meters":29600,"station_id":"ce4bhhh2rcd13ifvqfk0","pricing_plan_id":"cebpf4jnsgd1na2vs0mg"},{"bike_id":"cf2a99f0-171d-46e2-b5f9-b8e518581e33","system_id":"levelo_inurba_marseille","lat":43.23957,"lon":5.36623,"is_reserved":false,"is_disabled":false,"rental_uris":{"android":"levelo://app?vid=cf2a99f0-171d-46e2-b5f9-b8e518581e33","ios":"levelo://app?vid=cf2a99f0-171d-46e2-b5f9-b8e518581e33"},"vehicle_type_id":"4","last_reported":1727536177,"current_range_meters":37600,"station_id":"ce4bhi12rcd13ifvqfp0","pricing_plan_id":"cebpf4jnsgd1na2vs0mg"},{"bike_id":"d9bcf5b0-bb60-494c-812e-6371647d18f0","system_id":"levelo_inurba_marseille","lat":43.26781,"lon":5.39416,"is_reserved":false,"is_disabled":false,"rental_uris":{"android":"levelo://app?vid=d9bcf5b0-bb60-494c-812e-6371647d18f0","ios":"levelo://app?vid=d9bcf5b0-bb60-494c-812e-6371647d18f0"},"vehicle_type_id":"4","last_reported":1727536177,"current_range_meters":14000,"station_id":"ce4bhh12rcd13ifvqfg0","pricing_plan_id":"cebpf4jnsgd1na2vs0mg"},{"bike_id":"af27e55c-9092-4f57-a5c6-7251428e651f","system_id":"levelo_inurba_marseille","lat":43.23199,"lon":5.35547,"is_reserved":false,"is_disabled":false,"rental_uris":{"android":"levelo://app?vid=af27e55c-9092-4f57-a5c6-7251428e651f","ios":"levelo://app?vid=af27e55c-9092-4f57-a5c6-7251428e651f"},"vehicle_type_id":"4","last_reported":1727536177,"current_range_meters":16000,"station_id":"ce4bhu92rcd13ifvqi70","pricing_plan_id":"cebpf4jnsgd1na2vs0mg"},{"bike_id":"bfa7935e-840a-4bc4-8455-65e0093c1ebf","system_id":"levelo_inurba_marseille","lat":43.25589,"lon":5.382249,"is_reserved":false,"is_disabled":false,"rental_uris":{"android":"levelo://app?vid=bfa7935e-840a-4bc4-8455-65e0093c1ebf","ios":"levelo://app?vid=bfa7935e-840a-4bc4-8455-65e0093c1ebf"},"vehicle_type_id":"4","last_reported":1727536177,"current_range_meters":14400,"station_id":"ce4bhih2rcd13ifvqfs0","pricing_plan_id":"cebpf4jnsgd1na2vs0mg"},{"bike_id":"33352011-cbac-4d51-a2b2-d3596e33be5f","system_id":"levelo_inurba_marseille","lat":43.23963,"lon":5.36623,"is_reserved":false,"is_disabled":false,"rental_uris":{"android":"levelo://app?vid=33352011-cbac-4d51-a2b2-d3596e33be5f","ios":"levelo://app?vid=33352011-cbac-4d51-a2b2-d3596e33be5f"},"vehicle_type_id":"4","last_reported":1727536177,"current_range_meters":2800,"station_id":"ce4bhi12rcd13ifvqfp0","pricing_plan_id":"cebpf4jnsgd1na2vs0mg"},{"bike_id":"52f17877-110a-422d-89ae-fdeda162e6f3","system_id":"levelo_inurba_marseille","lat":43.23958,"lon":5.3663,"is_reserved":false,"is_disabled":false,"rental_uris":{"android":"levelo://app?vid=52f17877-110a-422d-89ae-fdeda162e6f3","ios":"levelo://app?vid=52f17877-110a-422d-89ae-fdeda162e6f3"},"vehicle_type_id":"4","last_reported":1727536177,"current_range_meters":10800,"station_id":"ce4bhi12rcd13ifvqfp0","pricing_plan_id":"cebpf4jnsgd1na2vs0mg"},{"bike_id":"4586a078-111c-436f-a972-3a60c3abf633","system_id":"levelo_inurba_marseille","lat":43.289956,"lon":5.386757,"is_reserved":false,"is_disabled":false,"rental_uris":{"android":"levelo://app?vid=4586a078-111c-436f-a972-3a60c3abf633","ios":"levelo://app?vid=4586a078-111c-436f-a972-3a60c3abf633"},"vehicle_type_id":"4","last_reported":1727536177,"current_range_meters":18800,"station_id":"ce4bh4p2rcd13ifvqe0g","pricing_plan_id":"cebpf4jnsgd1na2vs0mg"},{"bike_id":"7a8f28c6-ab6f-49c3-b59d-8e597cfc4655","system_id":"levelo_inurba_marseille","lat":43.33711,"lon":5.3918,"is_reserved":false,"is_disabled":false,"rental_uris":{"android":"levelo://app?vid=7a8f28c6-ab6f-49c3-b59d-8e597cfc4655","ios":"levelo://app?vid=7a8f28c6-ab6f-49c3-b59d-8e597cfc4655"},"vehicle_type_id":"4","last_reported":1727536177,"current_range_meters":13600,"station_id":"ce4bhr92rcd13ifvqhsg","pricing_plan_id":"cebpf4jnsgd1na2vs0mg"},{"bike_id":"66090a2d-c8e8-444b-97ee-580cb870764a","system_id":"levelo_inurba_marseille","lat":43.27327,"lon":5.3909,"is_reserved":false,"is_disabled":false,"rental_uris":{"android":"levelo://app?vid=66090a2d-c8e8-444b-97ee-580cb870764a","ios":"levelo://app?vid=66090a2d-c8e8-444b-97ee-580cb870764a"},"vehicle_type_id":"4","last_reported":1727536177,"current_range_meters":6800,"station_id":"ce4bhgp2rcd13ifvqfe0","pricing_plan_id":"cebpf4jnsgd1na2vs0mg"},{"bike_id":"dba628a2-1c33-4e59-b420-c7f4c15f512e","system_id":"levelo_inurba_marseille","lat":43.29971,"lon":5.3849,"is_reserved":false,"is_disabled":false,"rental_uris":{"android":"levelo://app?vid=dba628a2-1c33-4e59-b420-c7f4c15f512e","ios":"levelo://app?vid=dba628a2-1c33-4e59-b420-c7f4c15f512e"},"vehicle_type_id":"4","last_reported":1727536177,"current_range_meters":14400,"station_id":"ce4bgj92rcd13ifvqbd0","pricing_plan_id":"cebpf4jnsgd1na2vs0mg"},{"bike_id":"8706dbad-74a1-4401-bd4a-b4ae01455ac4","system_id":"levelo_inurba_marseille","lat":43.27615,"lon":5.36113,"is_reserved":false,"is_disabled":false,"rental_uris":{"android":"levelo://app?vid=8706dbad-74a1-4401-bd4a-b4ae01455ac4","ios":"levelo://app?vid=8706dbad-74a1-4401-bd4a-b4ae01455ac4"},"vehicle_type_id":"4","last_reported":1727536177,"current_range_meters":19600,"station_id":"ce4bgj92rcd13ifvqbe0","pricing_plan_id":"cebpf4jnsgd1na2vs0mg"},{"bike_id":"cb6d6ee5-6d2f-40c4-a361-1168d4a787c4","system_id":"levelo_inurba_marseille","lat":43.28451,"lon":5.35893,"is_reserved":false,"is_disabled":false,"rental_uris":{"android":"levelo://app?vid=cb6d6ee5-6d2f-40c4-a361-1168d4a787c4","ios":"levelo://app?vid=cb6d6ee5-6d2f-40c4-a361-1168d4a787c4"},"vehicle_type_id":"4","last_reported":1727536177,"current_range_meters":19600,"station_id":"ce4bhah2rcd13ifvqei0","pricing_plan_id":"cebpf4jnsgd1na2vs0mg"},{"bike_id":"cef7b0e4-df87-48ab-b380-59c7db40cc58","system_id":"levelo_inurba_marseille","lat":43.29848,"lon":5.36273,"is_reserved":false,"is_disabled":false,"rental_uris":{"android":"levelo://app?vid=cef7b0e4-df87-48ab-b380-59c7db40cc58","ios":"levelo://app?vid=cef7b0e4-df87-48ab-b380-59c7db40cc58"},"vehicle_type_id":"4","last_reported":1727536177,"current_range_meters":37600,"station_id":"ce4bgpp2rcd13ifvqc3g","pricing_plan_id":"cebpf4jnsgd1na2vs0mg"},{"bike_id":"9e0e602a-711e-4e75-a4b3-f0d70db8f823","system_id":"levelo_inurba_marseille","lat":43.23959,"lon":5.36618,"is_reserved":false,"is_disabled":false,"rental_uris":{"android":"levelo://app?vid=9e0e602a-711e-4e75-a4b3-f0d70db8f823","ios":"levelo://app?vid=9e0e602a-711e-4e75-a4b3-f0d70db8f823"},"vehicle_type_id":"4","last_reported":1727536177,"current_range_meters":19600,"station_id":"ce4bhi12rcd13ifvqfp0","pricing_plan_id":"cebpf4jnsgd1na2vs0mg"},{"bike_id":"a1663e52-4884-4761-8651-845682d6aa9d","system_id":"levelo_inurba_marseille","lat":43.22928,"lon":5.35374,"is_reserved":false,"is_disabled":false,"rental_uris":{"android":"levelo://app?vid=a1663e52-4884-4761-8651-845682d6aa9d","ios":"levelo://app?vid=a1663e52-4884-4761-8651-845682d6aa9d"},"vehicle_type_id":"4","last_reported":1727536177,"current_range_meters":32000,"station_id":"cpo3532slgdg3j2ikp40","pricing_plan_id":"cebpf4jnsgd1na2vs0mg"},{"bike_id":"ef670da1-2122-4fae-876a-6773e8b2be74","system_id":"levelo_inurba_marseille","lat":43.29587,"lon":5.38098,"is_reserved":false,"is_disabled":false,"rental_uris":{"android":"levelo://app?vid=ef670da1-2122-4fae-876a-6773e8b2be74","ios":"levelo://app?vid=ef670da1-2122-4fae-876a-6773e8b2be74"},"vehicle_type_id":"4","last_reported":1727536177,"current_range_meters":11600,"station_id":"ce4bgl12rcd13ifvqbo0","pricing_plan_id":"cebpf4jnsgd1na2vs0mg"},{"bike_id":"54905ee3-8d3a-400a-bd0e-8c677686f217","system_id":"levelo_inurba_marseille","lat":43.29796,"lon":5.38083,"is_reserved":false,"is_disabled":false,"rental_uris":{"android":"levelo://app?vid=54905ee3-8d3a-400a-bd0e-8c677686f217","ios":"levelo://app?vid=54905ee3-8d3a-400a-bd0e-8c677686f217"},"vehicle_type_id":"4","last_reported":1727536177,"current_range_meters":29600,"station_id":"ce4bgip2rcd13ifvqbb0","pricing_plan_id":"cebpf4jnsgd1na2vs0mg"},{"bike_id":"67f10b04-27c2-4902-8b8e-506c4ac38649","system_id":"levelo_inurba_marseille","lat":43.29902,"lon":5.37464,"is_reserved":false,"is_disabled":false,"rental_uris":{"android":"levelo://app?vid=67f10b04-27c2-4902-8b8e-506c4ac38649","ios":"levelo://app?vid=67f10b04-27c2-4902-8b8e-506c4ac38649"},"vehicle_type_id":"4","last_reported":1727536177,"current_range_meters":32000,"station_id":"ce4bgjh2rcd13ifvqbg0","pricing_plan_id":"cebpf4jnsgd1na2vs0mg"},{"bike_id":"bd25e0a9-02ba-4190-a423-4ed9ef86f7f9","system_id":"levelo_inurba_marseille","lat":43.30267,"lon":5.37698,"is_reserved":false,"is_disabled":false,"rental_uris":{"android":"levelo://app?vid=bd25e0a9-02ba-4190-a423-4ed9ef86f7f9","ios":"levelo://app?vid=bd25e0a9-02ba-4190-a423-4ed9ef86f7f9"},"vehicle_type_id":"4","last_reported":1727536177,"current_range_meters":37600,"station_id":"ce4bguh2rcd13ifvqcj0","pricing_plan_id":"cebpf4jnsgd1na2vs0mg"},{"bike_id":"7ef6c028-ba73-4496-82b1-62f8172c80aa","system_id":"levelo_inurba_marseille","lat":43.26554,"lon":5.37285,"is_reserved":false,"is_disabled":false,"rental_uris":{"android":"levelo://app?vid=7ef6c028-ba73-4496-82b1-62f8172c80aa","ios":"levelo://app?vid=7ef6c028-ba73-4496-82b1-62f8172c80aa"},"vehicle_type_id":"4","last_reported":1727536177,"current_range_meters":28800,"station_id":"ce4bhg12rcd13ifvqf70","pricing_plan_id":"cebpf4jnsgd1na2vs0mg"},{"bike_id":"9ff6e6a3-745d-41f4-a946-a01517dd315d","system_id":"levelo_inurba_marseille","lat":43.28032,"lon":5.36933,"is_reserved":false,"is_disabled":false,"rental_uris":{"android":"levelo://app?vid=9ff6e6a3-745d-41f4-a946-a01517dd315d","ios":"levelo://app?vid=9ff6e6a3-745d-41f4-a946-a01517dd315d"},"vehicle_type_id":"4","last_reported":1727536177,"current_range_meters":18000,"station_id":"ce4bha12rcd13ifvqef0","pricing_plan_id":"cebpf4jnsgd1na2vs0mg"},{"bike_id":"f41a44c1-6307-4ab9-886a-b31418bef7c7","system_id":"levelo_inurba_marseille","lat":43.30537,"lon":5.36717,"is_reserved":false,"is_disabled":false,"rental_uris":{"android":"levelo://app?vid=f41a44c1-6307-4ab9-886a-b31418bef7c7","ios":"levelo://app?vid=f41a44c1-6307-4ab9-886a-b31418bef7c7"},"vehicle_type_id":"4","last_reported":1727536177,"current_range_meters":28800,"station_id":"ce4bgrp2rcd13ifvqc9g","pricing_plan_id":"cebpf4jnsgd1na2vs0mg"},{"bike_id":"cb295ede-b51c-49e8-98ca-136548cdfb55","system_id":"levelo_inurba_marseille","lat":43.292328,"lon":5.365869,"is_reserved":false,"is_disabled":false,"rental_uris":{"android":"levelo://app?vid=cb295ede-b51c-49e8-98ca-136548cdfb55","ios":"levelo://app?vid=cb295ede-b51c-49e8-98ca-136548cdfb55"},"vehicle_type_id":"4","last_reported":1727536177,"current_range_meters":32000,"station_id":"","pricing_plan_id":"cebpf4jnsgd1na2vs0mg"},{"bike_id":"b678c8a6-a5f1-451b-8e4a-2a121c44354b","system_id":"levelo_inurba_marseille","lat":43.33772,"lon":5.37425,"is_reserved":false,"is_disabled":false,"rental_uris":{"android":"levelo://app?vid=b678c8a6-a5f1-451b-8e4a-2a121c44354b","ios":"levelo://app?vid=b678c8a6-a5f1-451b-8e4a-2a121c44354b"},"vehicle_type_id":"4","last_reported":1727536177,"current_range_meters":38400,"station_id":"","pricing_plan_id":"cebpf4jnsgd1na2vs0mg"},{"bike_id":"258e025d-f605-4338-84a0-17f713af0b8d","system_id":"levelo_inurba_marseille","lat":43.24803,"lon":5.37451,"is_reserved":false,"is_disabled":false,"rental_uris":{"android":"levelo://app?vid=258e025d-f605-4338-84a0-17f713af0b8d","ios":"levelo://app?vid=258e025d-f605-4338-84a0-17f713af0b8d"},"vehicle_type_id":"4","last_reported":1727536177,"current_range_meters":38800,"station_id":"ce4bhgh2rcd13ifvqfb0","pricing_plan_id":"cebpf4jnsgd1na2vs0mg"},{"bike_id":"bf15cf37-3a4c-4635-b28c-358f55c15bae","system_id":"levelo_inurba_marseille","lat":43.33752,"lon":5.37445,"is_reserved":false,"is_disabled":false,"rental_uris":{"android":"levelo://app?vid=bf15cf37-3a4c-4635-b28c-358f55c15bae","ios":"levelo://app?vid=bf15cf37-3a4c-4635-b28c-358f55c15bae"},"vehicle_type_id":"4","last_reported":1727536177,"current_range_meters":38400,"station_id":"","pricing_plan_id":"cebpf4jnsgd1na2vs0mg"},{"bike_id":"0484c58b-c8b4-4cde-a280-209896e0ccc5","system_id":"levelo_inurba_marseille","lat":43.29373,"lon":5.37835,"is_reserved":false,"is_disabled":false,"rental_uris":{"android":"levelo://app?vid=0484c58b-c8b4-4cde-a280-209896e0ccc5","ios":"levelo://app?vid=0484c58b-c8b4-4cde-a280-209896e0ccc5"},"vehicle_type_id":"4","last_reported":1727536177,"current_range_meters":28800,"station_id":"ce4bgjh2rcd13ifvqbf0","pricing_plan_id":"cebpf4jnsgd1na2vs0mg"},{"bike_id":"6aa95821-8b44-42f3-9d07-8b4a4001e2b1","system_id":"levelo_inurba_marseille","lat":43.2396,"lon":5.36621,"is_reserved":false,"is_disabled":false,"rental_uris":{"android":"levelo://app?vid=6aa95821-8b44-42f3-9d07-8b4a4001e2b1","ios":"levelo://app?vid=6aa95821-8b44-42f3-9d07-8b4a4001e2b1"},"vehicle_type_id":"4","last_reported":1727536177,"current_range_meters":33200,"station_id":"ce4bhi12rcd13ifvqfp0","pricing_plan_id":"cebpf4jnsgd1na2vs0mg"},{"bike_id":"1f313afb-1cf8-4bb7-8831-2c9f193c2d0c","system_id":"levelo_inurba_marseille","lat":43.24807,"lon":5.37457,"is_reserved":false,"is_disabled":false,"rental_uris":{"android":"levelo://app?vid=1f313afb-1cf8-4bb7-8831-2c9f193c2d0c","ios":"levelo://app?vid=1f313afb-1cf8-4bb7-8831-2c9f193c2d0c"},"vehicle_type_id":"4","last_reported":1727536177,"current_range_meters":39200,"station_id":"ce4bhgh2rcd13ifvqfb0","pricing_plan_id":"cebpf4jnsgd1na2vs0mg"},{"bike_id":"a63d4449-4f5a-4f1c-9a3c-27c8d74bd2a3","system_id":"levelo_inurba_marseille","lat":43.2439,"lon":5.37066,"is_reserved":false,"is_disabled":false,"rental_uris":{"android":"levelo://app?vid=a63d4449-4f5a-4f1c-9a3c-27c8d74bd2a3","ios":"levelo://app?vid=a63d4449-4f5a-4f1c-9a3c-27c8d74bd2a3"},"vehicle_type_id":"4","last_reported":1727536177,"current_range_meters":16000,"station_id":"ce4bhhh2rcd13ifvqfk0","pricing_plan_id":"cebpf4jnsgd1na2vs0mg"},{"bike_id":"1ea71807-c10c-43bd-9a9d-6eefe437a398","system_id":"levelo_inurba_marseille","lat":43.2481,"lon":5.3745,"is_reserved":false,"is_disabled":false,"rental_uris":{"android":"levelo://app?vid=1ea71807-c10c-43bd-9a9d-6eefe437a398","ios":"levelo://app?vid=1ea71807-c10c-43bd-9a9d-6eefe437a398"},"vehicle_type_id":"4","last_reported":1727536177,"current_range_meters":39200,"station_id":"ce4bhgh2rcd13ifvqfb0","pricing_plan_id":"cebpf4jnsgd1na2vs0mg"},{"bike_id":"8bdddc53-e2a5-46bf-b2cb-9f30e8d523e7","system_id":"levelo_inurba_marseille","lat":43.32045,"lon":5.41555,"is_reserved":false,"is_disabled":false,"rental_uris":{"android":"levelo://app?vid=8bdddc53-e2a5-46bf-b2cb-9f30e8d523e7","ios":"levelo://app?vid=8bdddc53-e2a5-46bf-b2cb-9f30e8d523e7"},"vehicle_type_id":"4","last_reported":1727536177,"current_range_meters":16400,"station_id":"ce4bhq92rcd13ifvqhkg","pricing_plan_id":"cebpf4jnsgd1na2vs0mg"},{"bike_id":"4091df96-3d66-4e85-8e3c-5f19aec6b73e","system_id":"levelo_inurba_marseille","lat":43.29303,"lon":5.3746,"is_reserved":false,"is_disabled":false,"rental_uris":{"android":"levelo://app?vid=4091df96-3d66-4e85-8e3c-5f19aec6b73e","ios":"levelo://app?vid=4091df96-3d66-4e85-8e3c-5f19aec6b73e"},"vehicle_type_id":"4","last_reported":1727536177,"current_range_meters":17600,"station_id":"ce4bgi12rcd13ifvqb70","pricing_plan_id":"cebpf4jnsgd1na2vs0mg"},{"bike_id":"520a6180-fd28-49e2-bad5-ac841dc9b03a","system_id":"levelo_inurba_marseille","lat":43.27205,"lon":5.39181,"is_reserved":false,"is_disabled":false,"rental_uris":{"android":"levelo://app?vid=520a6180-fd28-49e2-bad5-ac841dc9b03a","ios":"levelo://app?vid=520a6180-fd28-49e2-bad5-ac841dc9b03a"},"vehicle_type_id":"4","last_reported":1727536177,"current_range_meters":8800,"station_id":"ce4bhhp2rcd13ifvqfm0","pricing_plan_id":"cebpf4jnsgd1na2vs0mg"},{"bike_id":"ff16169d-88e9-464d-adae-c2e6af5c693b","system_id":"levelo_inurba_marseille","lat":43.27624,"lon":5.36113,"is_reserved":false,"is_disabled":false,"rental_uris":{"android":"levelo://app?vid=ff16169d-88e9-464d-adae-c2e6af5c693b","ios":"levelo://app?vid=ff16169d-88e9-464d-adae-c2e6af5c693b"},"vehicle_type_id":"4","last_reported":1727536177,"current_range_meters":16000,"station_id":"ce4bgj92rcd13ifvqbe0","pricing_plan_id":"cebpf4jnsgd1na2vs0mg"},{"bike_id":"bc7dc6a9-589f-4649-9e06-6ce7434d3293","system_id":"levelo_inurba_marseille","lat":43.2866,"lon":5.36351,"is_reserved":false,"is_disabled":false,"rental_uris":{"android":"levelo://app?vid=bc7dc6a9-589f-4649-9e06-6ce7434d3293","ios":"levelo://app?vid=bc7dc6a9-589f-4649-9e06-6ce7434d3293"},"vehicle_type_id":"4","last_reported":1727536177,"current_range_meters":25200,"station_id":"ce4bhah2rcd13ifvqej0","pricing_plan_id":"cebpf4jnsgd1na2vs0mg"},{"bike_id":"f8cd1665-2182-42bb-993d-799437deb95c","system_id":"levelo_inurba_marseille","lat":43.23195,"lon":5.35546,"is_reserved":false,"is_disabled":false,"rental_uris":{"android":"levelo://app?vid=f8cd1665-2182-42bb-993d-799437deb95c","ios":"levelo://app?vid=f8cd1665-2182-42bb-993d-799437deb95c"},"vehicle_type_id":"4","last_reported":1727536177,"current_range_meters":7200,"station_id":"ce4bhu92rcd13ifvqi70","pricing_plan_id":"cebpf4jnsgd1na2vs0mg"},{"bike_id":"bd1b70fa-a6e2-4db0-84a7-3df96ccc609d","system_id":"levelo_inurba_marseille","lat":43.2742,"lon":5.39403,"is_reserved":false,"is_disabled":false,"rental_uris":{"android":"levelo://app?vid=bd1b70fa-a6e2-4db0-84a7-3df96ccc609d","ios":"levelo://app?vid=bd1b70fa-a6e2-4db0-84a7-3df96ccc609d"},"vehicle_type_id":"4","last_reported":1727536177,"current_range_meters":33200,"station_id":"ce4bhdp2rcd13ifvqf20","pricing_plan_id":"cebpf4jnsgd1na2vs0mg"},{"bike_id":"8a228f78-61f7-4381-9d75-70ccef72225a","system_id":"levelo_inurba_marseille","lat":43.32542,"lon":5.41448,"is_reserved":false,"is_disabled":false,"rental_uris":{"android":"levelo://app?vid=8a228f78-61f7-4381-9d75-70ccef72225a","ios":"levelo://app?vid=8a228f78-61f7-4381-9d75-70ccef72225a"},"vehicle_type_id":"4","last_reported":1727536177,"current_range_meters":38400,"station_id":"ce4bhq12rcd13ifvqhhg","pricing_plan_id":"cebpf4jnsgd1na2vs0mg"},{"bike_id":"b39b27b0-7b90-4ed2-b6fe-6cd51e89b2cc","system_id":"levelo_inurba_marseille","lat":43.24391,"lon":5.37055,"is_reserved":false,"is_disabled":false,"rental_uris":{"android":"levelo://app?vid=b39b27b0-7b90-4ed2-b6fe-6cd51e89b2cc","ios":"levelo://app?vid=b39b27b0-7b90-4ed2-b6fe-6cd51e89b2cc"},"vehicle_type_id":"4","last_reported":1727536177,"current_range_meters":7200,"station_id":"ce4bhhh2rcd13ifvqfk0","pricing_plan_id":"cebpf4jnsgd1na2vs0mg"},{"bike_id":"26033cd7-8fc4-4ccc-b7d7-d2e3e6a650bc","system_id":"levelo_inurba_marseille","lat":43.28833,"lon":5.38458,"is_reserved":false,"is_disabled":false,"rental_uris":{"android":"levelo://app?vid=26033cd7-8fc4-4ccc-b7d7-d2e3e6a650bc","ios":"levelo://app?vid=26033cd7-8fc4-4ccc-b7d7-d2e3e6a650bc"},"vehicle_type_id":"4","last_reported":1727536177,"current_range_meters":22800,"station_id":"ce4bh612rcd13ifvqe6g","pricing_plan_id":"cebpf4jnsgd1na2vs0mg"},{"bike_id":"c20aa169-0982-4da6-8a27-37e8c5a04ddc","system_id":"levelo_inurba_marseille","lat":43.24388,"lon":5.37063,"is_reserved":false,"is_disabled":false,"rental_uris":{"android":"levelo://app?vid=c20aa169-0982-4da6-8a27-37e8c5a04ddc","ios":"levelo://app?vid=c20aa169-0982-4da6-8a27-37e8c5a04ddc"},"vehicle_type_id":"4","last_reported":1727536177,"current_range_meters":5600,"station_id":"ce4bhhh2rcd13ifvqfk0","pricing_plan_id":"cebpf4jnsgd1na2vs0mg"},{"bike_id":"99bb6fa2-89c2-4568-9c0a-689af12c3ce7","system_id":"levelo_inurba_marseille","lat":43.27314,"lon":5.39095,"is_reserved":false,"is_disabled":false,"rental_uris":{"android":"levelo://app?vid=99bb6fa2-89c2-4568-9c0a-689af12c3ce7","ios":"levelo://app?vid=99bb6fa2-89c2-4568-9c0a-689af12c3ce7"},"vehicle_type_id":"4","last_reported":1727536177,"current_range_meters":37600,"station_id":"ce4bhgp2rcd13ifvqfe0","pricing_plan_id":"cebpf4jnsgd1na2vs0mg"},{"bike_id":"2697e386-b510-4a2e-b0c4-dba0d3171de0","system_id":"levelo_inurba_marseille","lat":43.26564,"lon":5.39,"is_reserved":false,"is_disabled":false,"rental_uris":{"android":"levelo://app?vid=2697e386-b510-4a2e-b0c4-dba0d3171de0","ios":"levelo://app?vid=2697e386-b510-4a2e-b0c4-dba0d3171de0"},"vehicle_type_id":"4","last_reported":1727536177,"current_range_meters":26000,"station_id":"ce4bhe12rcd13ifvqf30","pricing_plan_id":"cebpf4jnsgd1na2vs0mg"},{"bike_id":"20556842-0278-434a-bc70-eb6082d461ed","system_id":"levelo_inurba_marseille","lat":43.29002,"lon":5.35614,"is_reserved":false,"is_disabled":false,"rental_uris":{"android":"levelo://app?vid=20556842-0278-434a-bc70-eb6082d461ed","ios":"levelo://app?vid=20556842-0278-434a-bc70-eb6082d461ed"},"vehicle_type_id":"4","last_reported":1727536177,"current_range_meters":32400,"station_id":"ce4bhb92rcd13ifvqen0","pricing_plan_id":"cebpf4jnsgd1na2vs0mg"},{"bike_id":"8d9fbe04-9875-44e1-b319-d5c9afafae04","system_id":"levelo_inurba_marseille","lat":43.28929,"lon":5.36637,"is_reserved":false,"is_disabled":false,"rental_uris":{"android":"levelo://app?vid=8d9fbe04-9875-44e1-b319-d5c9afafae04","ios":"levelo://app?vid=8d9fbe04-9875-44e1-b319-d5c9afafae04"},"vehicle_type_id":"4","last_reported":1727536177,"current_range_meters":5600,"station_id":"ce4bhap2rcd13ifvqek0","pricing_plan_id":"cebpf4jnsgd1na2vs0mg"},{"bike_id":"3b170ecf-4bbb-421f-886d-94818fba1de8","system_id":"levelo_inurba_marseille","lat":43.28485,"lon":5.4002,"is_reserved":false,"is_disabled":false,"rental_uris":{"android":"levelo://app?vid=3b170ecf-4bbb-421f-886d-94818fba1de8","ios":"levelo://app?vid=3b170ecf-4bbb-421f-886d-94818fba1de8"},"vehicle_type_id":"4","last_reported":1727536177,"current_range_meters":36800,"station_id":"ce4bh2h2rcd13ifvqdh0","pricing_plan_id":"cebpf4jnsgd1na2vs0mg"},{"bike_id":"ea02b117-a88e-4a39-9496-a56eb50997fd","system_id":"levelo_inurba_marseille","lat":43.32337,"lon":5.40622,"is_reserved":false,"is_disabled":false,"rental_uris":{"android":"levelo://app?vid=ea02b117-a88e-4a39-9496-a56eb50997fd","ios":"levelo://app?vid=ea02b117-a88e-4a39-9496-a56eb50997fd"},"vehicle_type_id":"4","last_reported":1727536177,"current_range_meters":16000,"station_id":"ce4bhq92rcd13ifvqhjg","pricing_plan_id":"cebpf4jnsgd1na2vs0mg"},{"bike_id":"cf99e933-ce42-40c9-9a34-af35e054d766","system_id":"levelo_inurba_marseille","lat":43.27912,"lon":5.39575,"is_reserved":false,"is_disabled":false,"rental_uris":{"android":"levelo://app?vid=cf99e933-ce42-40c9-9a34-af35e054d766","ios":"levelo://app?vid=cf99e933-ce42-40c9-9a34-af35e054d766"},"vehicle_type_id":"4","last_reported":1727536177,"current_range_meters":2800,"station_id":"ce4bhf92rcd13ifvqf40","pricing_plan_id":"cebpf4jnsgd1na2vs0mg"},{"bike_id":"1b5c59f8-89a9-4e46-93f7-af2461aa251a","system_id":"levelo_inurba_marseille","lat":43.23963,"lon":5.36626,"is_reserved":false,"is_disabled":false,"rental_uris":{"android":"levelo://app?vid=1b5c59f8-89a9-4e46-93f7-af2461aa251a","ios":"levelo://app?vid=1b5c59f8-89a9-4e46-93f7-af2461aa251a"},"vehicle_type_id":"4","last_reported":1727536177,"current_range_meters":10000,"station_id":"ce4bhi12rcd13ifvqfp0","pricing_plan_id":"cebpf4jnsgd1na2vs0mg"},{"bike_id":"4b0459dc-d40e-4be4-a7f8-e8b872a7ba5f","system_id":"levelo_inurba_marseille","lat":43.27174,"lon":5.40991,"is_reserved":false,"is_disabled":false,"rental_uris":{"android":"levelo://app?vid=4b0459dc-d40e-4be4-a7f8-e8b872a7ba5f","ios":"levelo://app?vid=4b0459dc-d40e-4be4-a7f8-e8b872a7ba5f"},"vehicle_type_id":"4","last_reported":1727536177,"current_range_meters":36400,"station_id":"ce4bhl12rcd13ifvqgf0","pricing_plan_id":"cebpf4jnsgd1na2vs0mg"},{"bike_id":"b5c7e673-61ed-44ba-a105-9ee00bde35ad","system_id":"levelo_inurba_marseille","lat":43.26784,"lon":5.39413,"is_reserved":false,"is_disabled":false,"rental_uris":{"android":"levelo://app?vid=b5c7e673-61ed-44ba-a105-9ee00bde35ad","ios":"levelo://app?vid=b5c7e673-61ed-44ba-a105-9ee00bde35ad"},"vehicle_type_id":"4","last_reported":1727536177,"current_range_meters":2800,"station_id":"ce4bhh12rcd13ifvqfg0","pricing_plan_id":"cebpf4jnsgd1na2vs0mg"},{"bike_id":"1e8e08dd-bf40-4eab-a2aa-38384395ddd4","system_id":"levelo_inurba_marseille","lat":43.29271,"lon":5.3684,"is_reserved":false,"is_disabled":false,"rental_uris":{"android":"levelo://app?vid=1e8e08dd-bf40-4eab-a2aa-38384395ddd4","ios":"levelo://app?vid=1e8e08dd-bf40-4eab-a2aa-38384395ddd4"},"vehicle_type_id":"4","last_reported":1727536177,"current_range_meters":24800,"station_id":"ce4bhbp2rcd13ifvqesg","pricing_plan_id":"cebpf4jnsgd1na2vs0mg"},{"bike_id":"28fd6afa-8ab7-494a-b25a-1a23b319519f","system_id":"levelo_inurba_marseille","lat":43.3171,"lon":5.43708,"is_reserved":false,"is_disabled":false,"rental_uris":{"android":"levelo://app?vid=28fd6afa-8ab7-494a-b25a-1a23b319519f","ios":"levelo://app?vid=28fd6afa-8ab7-494a-b25a-1a23b319519f"},"vehicle_type_id":"4","last_reported":1727536177,"current_range_meters":36800,"station_id":"ce4bhp92rcd13ifvqhcg","pricing_plan_id":"cebpf4jnsgd1na2vs0mg"},{"bike_id":"efb7512e-f5e3-4233-a1c4-abffdc2fe16d","system_id":"levelo_inurba_marseille","lat":43.30258,"lon":5.40053,"is_reserved":false,"is_disabled":false,"rental_uris":{"android":"levelo://app?vid=efb7512e-f5e3-4233-a1c4-abffdc2fe16d","ios":"levelo://app?vid=efb7512e-f5e3-4233-a1c4-abffdc2fe16d"},"vehicle_type_id":"4","last_reported":1727536177,"current_range_meters":32400,"station_id":"ce4bgvh2rcd13ifvqcs0","pricing_plan_id":"cebpf4jnsgd1na2vs0mg"},{"bike_id":"7970cc5c-71d4-49dc-84a3-c7802c0712fe","system_id":"levelo_inurba_marseille","lat":43.32106,"lon":5.36765,"is_reserved":false,"is_disabled":false,"rental_uris":{"android":"levelo://app?vid=7970cc5c-71d4-49dc-84a3-c7802c0712fe","ios":"levelo://app?vid=7970cc5c-71d4-49dc-84a3-c7802c0712fe"},"vehicle_type_id":"4","last_reported":1727536177,"current_range_meters":38000,"station_id":"ce4bhrh2rcd13ifvqhug","pricing_plan_id":"cebpf4jnsgd1na2vs0mg"},{"bike_id":"34ac2c08-da5e-403b-aae3-e126fb73c9c8","system_id":"levelo_inurba_marseille","lat":43.23155,"lon":5.43707,"is_reserved":false,"is_disabled":false,"rental_uris":{"android":"levelo://app?vid=34ac2c08-da5e-403b-aae3-e126fb73c9c8","ios":"levelo://app?vid=34ac2c08-da5e-403b-aae3-e126fb73c9c8"},"vehicle_type_id":"4","last_reported":1727536177,"current_range_meters":34800,"station_id":"ce4bhmp2rcd13ifvqgog","pricing_plan_id":"cebpf4jnsgd1na2vs0mg"},{"bike_id":"b7edec61-05a9-4448-8725-131f3fa0925d","system_id":"levelo_inurba_marseille","lat":43.30129,"lon":5.37423,"is_reserved":false,"is_disabled":false,"rental_uris":{"android":"levelo://app?vid=b7edec61-05a9-4448-8725-131f3fa0925d","ios":"levelo://app?vid=b7edec61-05a9-4448-8725-131f3fa0925d"},"vehicle_type_id":"4","last_reported":1727536177,"current_range_meters":38800,"station_id":"ce4bgs92rcd13ifvqcc0","pricing_plan_id":"cebpf4jnsgd1na2vs0mg"},{"bike_id":"9e0a2b38-0ab1-4e80-a0dd-8e9e498b2d05","system_id":"levelo_inurba_marseille","lat":43.28671,"lon":5.38645,"is_reserved":false,"is_disabled":false,"rental_uris":{"android":"levelo://app?vid=9e0a2b38-0ab1-4e80-a0dd-8e9e498b2d05","ios":"levelo://app?vid=9e0a2b38-0ab1-4e80-a0dd-8e9e498b2d05"},"vehicle_type_id":"4","last_reported":1727536177,"current_range_meters":20000,"station_id":"ce4bh492rcd13ifvqdug","pricing_plan_id":"cebpf4jnsgd1na2vs0mg"},{"bike_id":"02ef45a7-b188-48ae-b0a6-dc0b01983eae","system_id":"levelo_inurba_marseille","lat":43.32107,"lon":5.36765,"is_reserved":false,"is_disabled":false,"rental_uris":{"android":"levelo://app?vid=02ef45a7-b188-48ae-b0a6-dc0b01983eae","ios":"levelo://app?vid=02ef45a7-b188-48ae-b0a6-dc0b01983eae"},"vehicle_type_id":"4","last_reported":1727536177,"current_range_meters":26800,"station_id":"ce4bhrh2rcd13ifvqhug","pricing_plan_id":"cebpf4jnsgd1na2vs0mg"},{"bike_id":"1be7e18a-5f25-49d3-a703-ec5ed043d36b","system_id":"levelo_inurba_marseille","lat":43.24546,"lon":5.39523,"is_reserved":false,"is_disabled":false,"rental_uris":{"android":"levelo://app?vid=1be7e18a-5f25-49d3-a703-ec5ed043d36b","ios":"levelo://app?vid=1be7e18a-5f25-49d3-a703-ec5ed043d36b"},"vehicle_type_id":"4","last_reported":1727536177,"current_range_meters":14800,"station_id":"ce4bhlp2rcd13ifvqgjg","pricing_plan_id":"cebpf4jnsgd1na2vs0mg"},{"bike_id":"ceda1303-8e1d-4d6f-8792-80ce6a3025d5","system_id":"levelo_inurba_marseille","lat":43.31709,"lon":5.43698,"is_reserved":false,"is_disabled":false,"rental_uris":{"android":"levelo://app?vid=ceda1303-8e1d-4d6f-8792-80ce6a3025d5","ios":"levelo://app?vid=ceda1303-8e1d-4d6f-8792-80ce6a3025d5"},"vehicle_type_id":"4","last_reported":1727536177,"current_range_meters":6000,"station_id":"ce4bhp92rcd13ifvqhcg","pricing_plan_id":"cebpf4jnsgd1na2vs0mg"},{"bike_id":"61e10d90-1bb9-4c62-abe7-5b2652018e77","system_id":"levelo_inurba_marseille","lat":43.30318,"lon":5.3691,"is_reserved":false,"is_disabled":false,"rental_uris":{"android":"levelo://app?vid=61e10d90-1bb9-4c62-abe7-5b2652018e77","ios":"levelo://app?vid=61e10d90-1bb9-4c62-abe7-5b2652018e77"},"vehicle_type_id":"4","last_reported":1727536177,"current_range_meters":36400,"station_id":"ce4bgqh2rcd13ifvqc5g","pricing_plan_id":"cebpf4jnsgd1na2vs0mg"},{"bike_id":"e0fff07a-0ae3-4b34-a278-0e70841c608e","system_id":"levelo_inurba_marseille","lat":43.28946,"lon":5.36641,"is_reserved":false,"is_disabled":false,"rental_uris":{"android":"levelo://app?vid=e0fff07a-0ae3-4b34-a278-0e70841c608e","ios":"levelo://app?vid=e0fff07a-0ae3-4b34-a278-0e70841c608e"},"vehicle_type_id":"4","last_reported":1727536177,"current_range_meters":13600,"station_id":"ce4bhap2rcd13ifvqek0","pricing_plan_id":"cebpf4jnsgd1na2vs0mg"},{"bike_id":"c049a602-ba08-44c1-a4f9-1cbd185f086f","system_id":"levelo_inurba_marseille","lat":43.2293,"lon":5.35377,"is_reserved":false,"is_disabled":false,"rental_uris":{"android":"levelo://app?vid=c049a602-ba08-44c1-a4f9-1cbd185f086f","ios":"levelo://app?vid=c049a602-ba08-44c1-a4f9-1cbd185f086f"},"vehicle_type_id":"4","last_reported":1727536177,"current_range_meters":4400,"station_id":"cpo3532slgdg3j2ikp40","pricing_plan_id":"cebpf4jnsgd1na2vs0mg"},{"bike_id":"2617c06e-e17f-43d0-bd86-b5a25b7cd217","system_id":"levelo_inurba_marseille","lat":43.27417,"lon":5.39404,"is_reserved":false,"is_disabled":false,"rental_uris":{"android":"levelo://app?vid=2617c06e-e17f-43d0-bd86-b5a25b7cd217","ios":"levelo://app?vid=2617c06e-e17f-43d0-bd86-b5a25b7cd217"},"vehicle_type_id":"4","last_reported":1727536177,"current_range_meters":8000,"station_id":"ce4bhdp2rcd13ifvqf20","pricing_plan_id":"cebpf4jnsgd1na2vs0mg"},{"bike_id":"43dd1069-83ce-41bb-89ed-a3e3e21bac60","system_id":"levelo_inurba_marseille","lat":43.29922,"lon":5.37492,"is_reserved":false,"is_disabled":false,"rental_uris":{"android":"levelo://app?vid=43dd1069-83ce-41bb-89ed-a3e3e21bac60","ios":"levelo://app?vid=43dd1069-83ce-41bb-89ed-a3e3e21bac60"},"vehicle_type_id":"4","last_reported":1727536177,"current_range_meters":21600,"station_id":"ce4bgjh2rcd13ifvqbg0","pricing_plan_id":"cebpf4jnsgd1na2vs0mg"},{"bike_id":"8770e67e-4482-4e4a-bacb-50ceb4e6c2f3","system_id":"levelo_inurba_marseille","lat":43.27376,"lon":5.36244,"is_reserved":false,"is_disabled":false,"rental_uris":{"android":"levelo://app?vid=8770e67e-4482-4e4a-bacb-50ceb4e6c2f3","ios":"levelo://app?vid=8770e67e-4482-4e4a-bacb-50ceb4e6c2f3"},"vehicle_type_id":"4","last_reported":1727536177,"current_range_meters":8800,"station_id":"ce4bhbh2rcd13ifvqeo0","pricing_plan_id":"cebpf4jnsgd1na2vs0mg"},{"bike_id":"d9b0248e-4fe9-4b6d-8c8d-c5e07ed87016","system_id":"levelo_inurba_marseille","lat":43.294435,"lon":5.428417,"is_reserved":false,"is_disabled":false,"rental_uris":{"android":"levelo://app?vid=d9b0248e-4fe9-4b6d-8c8d-c5e07ed87016","ios":"levelo://app?vid=d9b0248e-4fe9-4b6d-8c8d-c5e07ed87016"},"vehicle_type_id":"4","last_reported":1727536177,"current_range_meters":22000,"station_id":"","pricing_plan_id":"cebpf4jnsgd1na2vs0mg"},{"bike_id":"aef6d9ef-4004-4c54-8510-07f7cfe9276c","system_id":"levelo_inurba_marseille","lat":43.29272,"lon":5.36844,"is_reserved":false,"is_disabled":false,"rental_uris":{"android":"levelo://app?vid=aef6d9ef-4004-4c54-8510-07f7cfe9276c","ios":"levelo://app?vid=aef6d9ef-4004-4c54-8510-07f7cfe9276c"},"vehicle_type_id":"4","last_reported":1727536177,"current_range_meters":16000,"station_id":"ce4bhbp2rcd13ifvqesg","pricing_plan_id":"cebpf4jnsgd1na2vs0mg"},{"bike_id":"9efdf05c-571e-4c3a-a0bf-af0e0fbc032d","system_id":"levelo_inurba_marseille","lat":43.25092,"lon":5.39515,"is_reserved":false,"is_disabled":false,"rental_uris":{"android":"levelo://app?vid=9efdf05c-571e-4c3a-a0bf-af0e0fbc032d","ios":"levelo://app?vid=9efdf05c-571e-4c3a-a0bf-af0e0fbc032d"},"vehicle_type_id":"4","last_reported":1727536177,"current_range_meters":24000,"station_id":"ce4bhm12rcd13ifvqgkg","pricing_plan_id":"cebpf4jnsgd1na2vs0mg"},{"bike_id":"d31f8daa-636d-44cc-87f9-977814eb38d0","system_id":"levelo_inurba_marseille","lat":43.3055,"lon":5.36706,"is_reserved":false,"is_disabled":false,"rental_uris":{"android":"levelo://app?vid=d31f8daa-636d-44cc-87f9-977814eb38d0","ios":"levelo://app?vid=d31f8daa-636d-44cc-87f9-977814eb38d0"},"vehicle_type_id":"4","last_reported":1727536177,"current_range_meters":25200,"station_id":"ce4bgrp2rcd13ifvqc9g","pricing_plan_id":"cebpf4jnsgd1na2vs0mg"},{"bike_id":"f0ad7526-68c6-4af1-b92f-da72af4b2ac6","system_id":"levelo_inurba_marseille","lat":43.32336,"lon":5.40623,"is_reserved":false,"is_disabled":false,"rental_uris":{"android":"levelo://app?vid=f0ad7526-68c6-4af1-b92f-da72af4b2ac6","ios":"levelo://app?vid=f0ad7526-68c6-4af1-b92f-da72af4b2ac6"},"vehicle_type_id":"4","last_reported":1727536177,"current_range_meters":20400,"station_id":"ce4bhq92rcd13ifvqhjg","pricing_plan_id":"cebpf4jnsgd1na2vs0mg"},{"bike_id":"dead5596-4944-4785-b8f7-33b9d143839f","system_id":"levelo_inurba_marseille","lat":43.29909,"lon":5.37466,"is_reserved":false,"is_disabled":false,"rental_uris":{"android":"levelo://app?vid=dead5596-4944-4785-b8f7-33b9d143839f","ios":"levelo://app?vid=dead5596-4944-4785-b8f7-33b9d143839f"},"vehicle_type_id":"4","last_reported":1727536177,"current_range_meters":14000,"station_id":"ce4bgjh2rcd13ifvqbg0","pricing_plan_id":"cebpf4jnsgd1na2vs0mg"},{"bike_id":"55a93634-216e-4c4e-b9a1-ac6307e160b7","system_id":"levelo_inurba_marseille","lat":43.29708,"lon":5.36597,"is_reserved":false,"is_disabled":false,"rental_uris":{"android":"levelo://app?vid=55a93634-216e-4c4e-b9a1-ac6307e160b7","ios":"levelo://app?vid=55a93634-216e-4c4e-b9a1-ac6307e160b7"},"vehicle_type_id":"4","last_reported":1727536177,"current_range_meters":38800,"station_id":"ce4bgn12rcd13ifvqbt0","pricing_plan_id":"cebpf4jnsgd1na2vs0mg"},{"bike_id":"b5db97cb-c283-4d08-9755-ab0ebe4f6f3f","system_id":"levelo_inurba_marseille","lat":43.278169,"lon":5.407231,"is_reserved":false,"is_disabled":false,"rental_uris":{"android":"levelo://app?vid=b5db97cb-c283-4d08-9755-ab0ebe4f6f3f","ios":"levelo://app?vid=b5db97cb-c283-4d08-9755-ab0ebe4f6f3f"},"vehicle_type_id":"4","last_reported":1727536177,"current_range_meters":28400,"station_id":"ce4bhnh2rcd13ifvqgtg","pricing_plan_id":"cebpf4jnsgd1na2vs0mg"},{"bike_id":"56c6fca7-8e0c-46c5-884f-c1475c6fa8f9","system_id":"levelo_inurba_marseille","lat":43.28702,"lon":5.39977,"is_reserved":false,"is_disabled":false,"rental_uris":{"android":"levelo://app?vid=56c6fca7-8e0c-46c5-884f-c1475c6fa8f9","ios":"levelo://app?vid=56c6fca7-8e0c-46c5-884f-c1475c6fa8f9"},"vehicle_type_id":"4","last_reported":1727536177,"current_range_meters":8400,"station_id":"ce4bho92rcd13ifvqh3g","pricing_plan_id":"cebpf4jnsgd1na2vs0mg"},{"bike_id":"0701cf2a-674c-4c9d-af1e-6650acbaaf74","system_id":"levelo_inurba_marseille","lat":43.2838,"lon":5.37294,"is_reserved":false,"is_disabled":false,"rental_uris":{"android":"levelo://app?vid=0701cf2a-674c-4c9d-af1e-6650acbaaf74","ios":"levelo://app?vid=0701cf2a-674c-4c9d-af1e-6650acbaaf74"},"vehicle_type_id":"4","last_reported":1727536177,"current_range_meters":16000,"station_id":"","pricing_plan_id":"cebpf4jnsgd1na2vs0mg"},{"bike_id":"c90e7e67-8d02-4651-b169-c2a63d673b91","system_id":"levelo_inurba_marseille","lat":43.27905,"lon":5.3801,"is_reserved":false,"is_disabled":false,"rental_uris":{"android":"levelo://app?vid=c90e7e67-8d02-4651-b169-c2a63d673b91","ios":"levelo://app?vid=c90e7e67-8d02-4651-b169-c2a63d673b91"},"vehicle_type_id":"4","last_reported":1727536177,"current_range_meters":38800,"station_id":"ce4bhf92rcd13ifvqf50","pricing_plan_id":"cebpf4jnsgd1na2vs0mg"},{"bike_id":"48dd8be6-53cb-4e56-80e9-0a26cb8e43ce","system_id":"levelo_inurba_marseille","lat":43.28149,"lon":5.42637,"is_reserved":false,"is_disabled":false,"rental_uris":{"android":"levelo://app?vid=48dd8be6-53cb-4e56-80e9-0a26cb8e43ce","ios":"levelo://app?vid=48dd8be6-53cb-4e56-80e9-0a26cb8e43ce"},"vehicle_type_id":"4","last_reported":1727536177,"current_range_meters":33200,"station_id":"ce4bhnh2rcd13ifvqgug","pricing_plan_id":"cebpf4jnsgd1na2vs0mg"},{"bike_id":"e53ded64-24dd-4210-8b02-c5bdc664c3f5","system_id":"levelo_inurba_marseille","lat":43.29275,"lon":5.40114,"is_reserved":false,"is_disabled":false,"rental_uris":{"android":"levelo://app?vid=e53ded64-24dd-4210-8b02-c5bdc664c3f5","ios":"levelo://app?vid=e53ded64-24dd-4210-8b02-c5bdc664c3f5"},"vehicle_type_id":"4","last_reported":1727536177,"current_range_meters":26800,"station_id":"ce4bh312rcd13ifvqdk0","pricing_plan_id":"cebpf4jnsgd1na2vs0mg"},{"bike_id":"fea752ad-c97e-4799-af9d-1dd3b9c9a5d6","system_id":"levelo_inurba_marseille","lat":43.27057,"lon":5.40258,"is_reserved":false,"is_disabled":false,"rental_uris":{"android":"levelo://app?vid=fea752ad-c97e-4799-af9d-1dd3b9c9a5d6","ios":"levelo://app?vid=fea752ad-c97e-4799-af9d-1dd3b9c9a5d6"},"vehicle_type_id":"4","last_reported":1727536177,"current_range_meters":7200,"station_id":"ce4bhk92rcd13ifvqgc0","pricing_plan_id":"cebpf4jnsgd1na2vs0mg"},{"bike_id":"7527620b-f2c1-4ee7-b6e5-81667e94301f","system_id":"levelo_inurba_marseille","lat":43.29263,"lon":5.40901,"is_reserved":false,"is_disabled":false,"rental_uris":{"android":"levelo://app?vid=7527620b-f2c1-4ee7-b6e5-81667e94301f","ios":"levelo://app?vid=7527620b-f2c1-4ee7-b6e5-81667e94301f"},"vehicle_type_id":"4","last_reported":1727536177,"current_range_meters":24000,"station_id":"ce4bh192rcd13ifvqdc0","pricing_plan_id":"cebpf4jnsgd1na2vs0mg"},{"bike_id":"d7713c3f-fb0c-4d6c-9d04-de27346429f6","system_id":"levelo_inurba_marseille","lat":43.23964,"lon":5.36626,"is_reserved":false,"is_disabled":false,"rental_uris":{"android":"levelo://app?vid=d7713c3f-fb0c-4d6c-9d04-de27346429f6","ios":"levelo://app?vid=d7713c3f-fb0c-4d6c-9d04-de27346429f6"},"vehicle_type_id":"4","last_reported":1727536177,"current_range_meters":3600,"station_id":"ce4bhi12rcd13ifvqfp0","pricing_plan_id":"cebpf4jnsgd1na2vs0mg"},{"bike_id":"6cdca13d-24d1-4302-912a-54d18c748242","system_id":"levelo_inurba_marseille","lat":43.31083,"lon":5.40132,"is_reserved":false,"is_disabled":false,"rental_uris":{"android":"levelo://app?vid=6cdca13d-24d1-4302-912a-54d18c748242","ios":"levelo://app?vid=6cdca13d-24d1-4302-912a-54d18c748242"},"vehicle_type_id":"4","last_reported":1727536177,"current_range_meters":8800,"station_id":"","pricing_plan_id":"cebpf4jnsgd1na2vs0mg"},{"bike_id":"5b31bd95-065f-48cf-8252-7cdf54fb6237","system_id":"levelo_inurba_marseille","lat":43.2997,"lon":5.38491,"is_reserved":false,"is_disabled":false,"rental_uris":{"android":"levelo://app?vid=5b31bd95-065f-48cf-8252-7cdf54fb6237","ios":"levelo://app?vid=5b31bd95-065f-48cf-8252-7cdf54fb6237"},"vehicle_type_id":"4","last_reported":1727536177,"current_range_meters":10800,"station_id":"ce4bgj92rcd13ifvqbd0","pricing_plan_id":"cebpf4jnsgd1na2vs0mg"},{"bike_id":"2166c8a3-614e-4744-98fa-2d6cf909c1e1","system_id":"levelo_inurba_marseille","lat":43.291748,"lon":5.371465,"is_reserved":false,"is_disabled":false,"rental_uris":{"android":"levelo://app?vid=2166c8a3-614e-4744-98fa-2d6cf909c1e1","ios":"levelo://app?vid=2166c8a3-614e-4744-98fa-2d6cf909c1e1"},"vehicle_type_id":"4","last_reported":1727536177,"current_range_meters":38400,"station_id":"ce4bha92rcd13ifvqeh0","pricing_plan_id":"cebpf4jnsgd1na2vs0mg"},{"bike_id":"580eae4b-c29a-4361-8836-6d2828108f37","system_id":"levelo_inurba_marseille","lat":43.28702,"lon":5.39989,"is_reserved":false,"is_disabled":false,"rental_uris":{"android":"levelo://app?vid=580eae4b-c29a-4361-8836-6d2828108f37","ios":"levelo://app?vid=580eae4b-c29a-4361-8836-6d2828108f37"},"vehicle_type_id":"4","last_reported":1727536177,"current_range_meters":20800,"station_id":"ce4bho92rcd13ifvqh3g","pricing_plan_id":"cebpf4jnsgd1na2vs0mg"},{"bike_id":"b49d23a5-c31c-43f1-8c3e-42b6961ed155","system_id":"levelo_inurba_marseille","lat":43.27814,"lon":5.40711,"is_reserved":false,"is_disabled":false,"rental_uris":{"android":"levelo://app?vid=b49d23a5-c31c-43f1-8c3e-42b6961ed155","ios":"levelo://app?vid=b49d23a5-c31c-43f1-8c3e-42b6961ed155"},"vehicle_type_id":"4","last_reported":1727536177,"current_range_meters":30800,"station_id":"ce4bhnh2rcd13ifvqgtg","pricing_plan_id":"cebpf4jnsgd1na2vs0mg"},{"bike_id":"da2e7afb-45a7-4193-9960-716c0aa1657b","system_id":"levelo_inurba_marseille","lat":43.32286,"lon":5.38263,"is_reserved":false,"is_disabled":false,"rental_uris":{"android":"levelo://app?vid=da2e7afb-45a7-4193-9960-716c0aa1657b","ios":"levelo://app?vid=da2e7afb-45a7-4193-9960-716c0aa1657b"},"vehicle_type_id":"4","last_reported":1727536177,"current_range_meters":39200,"station_id":"ce4bhr12rcd13ifvqhqg","pricing_plan_id":"cebpf4jnsgd1na2vs0mg"},{"bike_id":"f4e15ca9-1898-48d3-a2a3-178470996f4e","system_id":"levelo_inurba_marseille","lat":43.26205,"lon":5.37926,"is_reserved":false,"is_disabled":false,"rental_uris":{"android":"levelo://app?vid=f4e15ca9-1898-48d3-a2a3-178470996f4e","ios":"levelo://app?vid=f4e15ca9-1898-48d3-a2a3-178470996f4e"},"vehicle_type_id":"4","last_reported":1727536177,"current_range_meters":36800,"station_id":"ce4bhjp2rcd13ifvqg90","pricing_plan_id":"cebpf4jnsgd1na2vs0mg"},{"bike_id":"3aa501c7-6f37-46a5-80ee-95c7838b1e6c","system_id":"levelo_inurba_marseille","lat":43.261597,"lon":5.379234,"is_reserved":false,"is_disabled":false,"rental_uris":{"android":"levelo://app?vid=3aa501c7-6f37-46a5-80ee-95c7838b1e6c","ios":"levelo://app?vid=3aa501c7-6f37-46a5-80ee-95c7838b1e6c"},"vehicle_type_id":"4","last_reported":1727536177,"current_range_meters":15200,"station_id":"ce4bhjp2rcd13ifvqg90","pricing_plan_id":"cebpf4jnsgd1na2vs0mg"},{"bike_id":"35c08cab-216f-482a-86dc-2cb7ada5e040","system_id":"levelo_inurba_marseille","lat":43.31685,"lon":5.40476,"is_reserved":false,"is_disabled":false,"rental_uris":{"android":"levelo://app?vid=35c08cab-216f-482a-86dc-2cb7ada5e040","ios":"levelo://app?vid=35c08cab-216f-482a-86dc-2cb7ada5e040"},"vehicle_type_id":"4","last_reported":1727536177,"current_range_meters":22000,"station_id":"ce4bh012rcd13ifvqd00","pricing_plan_id":"cebpf4jnsgd1na2vs0mg"},{"bike_id":"3407da71-e9f5-4375-9956-506983640a2f","system_id":"levelo_inurba_marseille","lat":43.28994,"lon":5.37592,"is_reserved":false,"is_disabled":false,"rental_uris":{"android":"levelo://app?vid=3407da71-e9f5-4375-9956-506983640a2f","ios":"levelo://app?vid=3407da71-e9f5-4375-9956-506983640a2f"},"vehicle_type_id":"4","last_reported":1727536177,"current_range_meters":28400,"station_id":"ce4bh692rcd13ifvqe90","pricing_plan_id":"cebpf4jnsgd1na2vs0mg"},{"bike_id":"ff9fc0f2-8256-4aba-8154-e5e381eb0599","system_id":"levelo_inurba_marseille","lat":43.29708,"lon":5.3661,"is_reserved":false,"is_disabled":false,"rental_uris":{"android":"levelo://app?vid=ff9fc0f2-8256-4aba-8154-e5e381eb0599","ios":"levelo://app?vid=ff9fc0f2-8256-4aba-8154-e5e381eb0599"},"vehicle_type_id":"4","last_reported":1727536177,"current_range_meters":38800,"station_id":"ce4bgn12rcd13ifvqbt0","pricing_plan_id":"cebpf4jnsgd1na2vs0mg"},{"bike_id":"65768cd7-63c4-42bd-95bb-2f7bc170252f","system_id":"levelo_inurba_marseille","lat":43.29836,"lon":5.36278,"is_reserved":false,"is_disabled":false,"rental_uris":{"android":"levelo://app?vid=65768cd7-63c4-42bd-95bb-2f7bc170252f","ios":"levelo://app?vid=65768cd7-63c4-42bd-95bb-2f7bc170252f"},"vehicle_type_id":"4","last_reported":1727536177,"current_range_meters":39200,"station_id":"ce4bgpp2rcd13ifvqc3g","pricing_plan_id":"cebpf4jnsgd1na2vs0mg"},{"bike_id":"a02cf478-334b-44d3-b2d7-a8416949c057","system_id":"levelo_inurba_marseille","lat":43.30136,"lon":5.38785,"is_reserved":false,"is_disabled":false,"rental_uris":{"android":"levelo://app?vid=a02cf478-334b-44d3-b2d7-a8416949c057","ios":"levelo://app?vid=a02cf478-334b-44d3-b2d7-a8416949c057"},"vehicle_type_id":"4","last_reported":1727536177,"current_range_meters":18800,"station_id":"ce4bghh2rcd13ifvqb60","pricing_plan_id":"cebpf4jnsgd1na2vs0mg"},{"bike_id":"d683260e-cf35-4f18-b4a8-e7e6cd00a9bd","system_id":"levelo_inurba_marseille","lat":43.24992,"lon":5.38938,"is_reserved":false,"is_disabled":false,"rental_uris":{"android":"levelo://app?vid=d683260e-cf35-4f18-b4a8-e7e6cd00a9bd","ios":"levelo://app?vid=d683260e-cf35-4f18-b4a8-e7e6cd00a9bd"},"vehicle_type_id":"4","last_reported":1727536177,"current_range_meters":24000,"station_id":"ce4bhgp2rcd13ifvqfd0","pricing_plan_id":"cebpf4jnsgd1na2vs0mg"},{"bike_id":"b219ffa8-062f-4555-aee7-940d50357d55","system_id":"levelo_inurba_marseille","lat":43.32544,"lon":5.41441,"is_reserved":false,"is_disabled":false,"rental_uris":{"android":"levelo://app?vid=b219ffa8-062f-4555-aee7-940d50357d55","ios":"levelo://app?vid=b219ffa8-062f-4555-aee7-940d50357d55"},"vehicle_type_id":"4","last_reported":1727536177,"current_range_meters":35600,"station_id":"ce4bhq12rcd13ifvqhhg","pricing_plan_id":"cebpf4jnsgd1na2vs0mg"},{"bike_id":"275b0a25-1a9f-498c-9202-be550b06c3de","system_id":"levelo_inurba_marseille","lat":43.32291,"lon":5.38279,"is_reserved":false,"is_disabled":false,"rental_uris":{"android":"levelo://app?vid=275b0a25-1a9f-498c-9202-be550b06c3de","ios":"levelo://app?vid=275b0a25-1a9f-498c-9202-be550b06c3de"},"vehicle_type_id":"4","last_reported":1727536177,"current_range_meters":29600,"station_id":"ce4bhr12rcd13ifvqhqg","pricing_plan_id":"cebpf4jnsgd1na2vs0mg"},{"bike_id":"a840744e-f5ba-493b-a121-a825bd5d67de","system_id":"levelo_inurba_marseille","lat":43.2737,"lon":5.36255,"is_reserved":false,"is_disabled":false,"rental_uris":{"android":"levelo://app?vid=a840744e-f5ba-493b-a121-a825bd5d67de","ios":"levelo://app?vid=a840744e-f5ba-493b-a121-a825bd5d67de"},"vehicle_type_id":"4","last_reported":1727536177,"current_range_meters":32000,"station_id":"ce4bhbh2rcd13ifvqeo0","pricing_plan_id":"cebpf4jnsgd1na2vs0mg"},{"bike_id":"e0448498-1923-4013-96e2-5aec4fc93af7","system_id":"levelo_inurba_marseille","lat":43.24804,"lon":5.37454,"is_reserved":false,"is_disabled":false,"rental_uris":{"android":"levelo://app?vid=e0448498-1923-4013-96e2-5aec4fc93af7","ios":"levelo://app?vid=e0448498-1923-4013-96e2-5aec4fc93af7"},"vehicle_type_id":"4","last_reported":1727536177,"current_range_meters":38800,"station_id":"ce4bhgh2rcd13ifvqfb0","pricing_plan_id":"cebpf4jnsgd1na2vs0mg"},{"bike_id":"67ad384a-3a16-4e29-9113-32c6258c1182","system_id":"levelo_inurba_marseille","lat":43.30538,"lon":5.36685,"is_reserved":false,"is_disabled":false,"rental_uris":{"android":"levelo://app?vid=67ad384a-3a16-4e29-9113-32c6258c1182","ios":"levelo://app?vid=67ad384a-3a16-4e29-9113-32c6258c1182"},"vehicle_type_id":"4","last_reported":1727536177,"current_range_meters":38800,"station_id":"ce4bgrp2rcd13ifvqc9g","pricing_plan_id":"cebpf4jnsgd1na2vs0mg"},{"bike_id":"aff760a9-21da-4539-9258-1e08fa1134f3","system_id":"levelo_inurba_marseille","lat":43.23961,"lon":5.36628,"is_reserved":false,"is_disabled":false,"rental_uris":{"android":"levelo://app?vid=aff760a9-21da-4539-9258-1e08fa1134f3","ios":"levelo://app?vid=aff760a9-21da-4539-9258-1e08fa1134f3"},"vehicle_type_id":"4","last_reported":1727536177,"current_range_meters":35600,"station_id":"ce4bhi12rcd13ifvqfp0","pricing_plan_id":"cebpf4jnsgd1na2vs0mg"},{"bike_id":"0c3f0369-7cdf-4cba-a0db-09435ab8c8da","system_id":"levelo_inurba_marseille","lat":43.23191,"lon":5.39991,"is_reserved":false,"is_disabled":false,"rental_uris":{"android":"levelo://app?vid=0c3f0369-7cdf-4cba-a0db-09435ab8c8da","ios":"levelo://app?vid=0c3f0369-7cdf-4cba-a0db-09435ab8c8da"},"vehicle_type_id":"4","last_reported":1727536177,"current_range_meters":30400,"station_id":"ce4bhn12rcd13ifvqgqg","pricing_plan_id":"cebpf4jnsgd1na2vs0mg"},{"bike_id":"deb7980f-58a8-4033-8835-655c6a4e78f7","system_id":"levelo_inurba_marseille","lat":43.27566,"lon":5.38399,"is_reserved":false,"is_disabled":false,"rental_uris":{"android":"levelo://app?vid=deb7980f-58a8-4033-8835-655c6a4e78f7","ios":"levelo://app?vid=deb7980f-58a8-4033-8835-655c6a4e78f7"},"vehicle_type_id":"4","last_reported":1727536177,"current_range_meters":38800,"station_id":"ce4bhh92rcd13ifvqfi0","pricing_plan_id":"cebpf4jnsgd1na2vs0mg"},{"bike_id":"02f25695-5a17-4ed6-b6a9-b2ee9d2bf28d","system_id":"levelo_inurba_marseille","lat":43.30534,"lon":5.37215,"is_reserved":false,"is_disabled":false,"rental_uris":{"android":"levelo://app?vid=02f25695-5a17-4ed6-b6a9-b2ee9d2bf28d","ios":"levelo://app?vid=02f25695-5a17-4ed6-b6a9-b2ee9d2bf28d"},"vehicle_type_id":"4","last_reported":1727536177,"current_range_meters":26800,"station_id":"","pricing_plan_id":"cebpf4jnsgd1na2vs0mg"},{"bike_id":"9ef80c8e-5ce5-4b39-8720-9968a49186b6","system_id":"levelo_inurba_marseille","lat":43.27558,"lon":5.3842,"is_reserved":false,"is_disabled":false,"rental_uris":{"android":"levelo://app?vid=9ef80c8e-5ce5-4b39-8720-9968a49186b6","ios":"levelo://app?vid=9ef80c8e-5ce5-4b39-8720-9968a49186b6"},"vehicle_type_id":"4","last_reported":1727536177,"current_range_meters":8000,"station_id":"ce4bhh92rcd13ifvqfi0","pricing_plan_id":"cebpf4jnsgd1na2vs0mg"},{"bike_id":"06981e52-06f2-48c7-8865-e14ca565f9df","system_id":"levelo_inurba_marseille","lat":43.29725,"lon":5.37691,"is_reserved":false,"is_disabled":false,"rental_uris":{"android":"levelo://app?vid=06981e52-06f2-48c7-8865-e14ca565f9df","ios":"levelo://app?vid=06981e52-06f2-48c7-8865-e14ca565f9df"},"vehicle_type_id":"4","last_reported":1727536177,"current_range_meters":38800,"station_id":"ce4bgkh2rcd13ifvqbl0","pricing_plan_id":"cebpf4jnsgd1na2vs0mg"},{"bike_id":"bc20af5c-be7b-4c51-b09b-2e170ca1b5b9","system_id":"levelo_inurba_marseille","lat":43.25489,"lon":5.37643,"is_reserved":false,"is_disabled":false,"rental_uris":{"android":"levelo://app?vid=bc20af5c-be7b-4c51-b09b-2e170ca1b5b9","ios":"levelo://app?vid=bc20af5c-be7b-4c51-b09b-2e170ca1b5b9"},"vehicle_type_id":"4","last_reported":1727536177,"current_range_meters":36800,"station_id":"ce4bhh12rcd13ifvqff0","pricing_plan_id":"cebpf4jnsgd1na2vs0mg"},{"bike_id":"9b52d133-3ae6-480f-8970-62594af3ac2c","system_id":"levelo_inurba_marseille","lat":43.2926,"lon":5.36847,"is_reserved":false,"is_disabled":false,"rental_uris":{"android":"levelo://app?vid=9b52d133-3ae6-480f-8970-62594af3ac2c","ios":"levelo://app?vid=9b52d133-3ae6-480f-8970-62594af3ac2c"},"vehicle_type_id":"4","last_reported":1727536177,"current_range_meters":36400,"station_id":"ce4bhbp2rcd13ifvqesg","pricing_plan_id":"cebpf4jnsgd1na2vs0mg"},{"bike_id":"1cdd532a-306b-47d0-8a3b-e164107a50fd","system_id":"levelo_inurba_marseille","lat":43.24995,"lon":5.38929,"is_reserved":false,"is_disabled":false,"rental_uris":{"android":"levelo://app?vid=1cdd532a-306b-47d0-8a3b-e164107a50fd","ios":"levelo://app?vid=1cdd532a-306b-47d0-8a3b-e164107a50fd"},"vehicle_type_id":"4","last_reported":1727536177,"current_range_meters":20800,"station_id":"ce4bhgp2rcd13ifvqfd0","pricing_plan_id":"cebpf4jnsgd1na2vs0mg"},{"bike_id":"d8e32f1c-4c32-4777-922d-4d90b15b71c7","system_id":"levelo_inurba_marseille","lat":43.30863,"lon":5.3685,"is_reserved":false,"is_disabled":false,"rental_uris":{"android":"levelo://app?vid=d8e32f1c-4c32-4777-922d-4d90b15b71c7","ios":"levelo://app?vid=d8e32f1c-4c32-4777-922d-4d90b15b71c7"},"vehicle_type_id":"4","last_reported":1727536177,"current_range_meters":9200,"station_id":"ce4bgn92rcd13ifvqbvg","pricing_plan_id":"cebpf4jnsgd1na2vs0mg"},{"bike_id":"43e8b98a-6b96-4ac9-96ba-b5cb73b65a5f","system_id":"levelo_inurba_marseille","lat":43.29266,"lon":5.40916,"is_reserved":false,"is_disabled":false,"rental_uris":{"android":"levelo://app?vid=43e8b98a-6b96-4ac9-96ba-b5cb73b65a5f","ios":"levelo://app?vid=43e8b98a-6b96-4ac9-96ba-b5cb73b65a5f"},"vehicle_type_id":"4","last_reported":1727536177,"current_range_meters":16400,"station_id":"ce4bh192rcd13ifvqdc0","pricing_plan_id":"cebpf4jnsgd1na2vs0mg"},{"bike_id":"b470945e-f45c-4291-ac95-d7061c9aab44","system_id":"levelo_inurba_marseille","lat":43.27368,"lon":5.41212,"is_reserved":false,"is_disabled":false,"rental_uris":{"android":"levelo://app?vid=b470945e-f45c-4291-ac95-d7061c9aab44","ios":"levelo://app?vid=b470945e-f45c-4291-ac95-d7061c9aab44"},"vehicle_type_id":"4","last_reported":1727536177,"current_range_meters":28000,"station_id":"","pricing_plan_id":"cebpf4jnsgd1na2vs0mg"},{"bike_id":"baa06c7d-efad-4a9a-bc59-5e1715d1039c","system_id":"levelo_inurba_marseille","lat":43.22931,"lon":5.35374,"is_reserved":false,"is_disabled":false,"rental_uris":{"android":"levelo://app?vid=baa06c7d-efad-4a9a-bc59-5e1715d1039c","ios":"levelo://app?vid=baa06c7d-efad-4a9a-bc59-5e1715d1039c"},"vehicle_type_id":"4","last_reported":1727536177,"current_range_meters":22800,"station_id":"cpo3532slgdg3j2ikp40","pricing_plan_id":"cebpf4jnsgd1na2vs0mg"},{"bike_id":"4fe63150-6aac-4b8a-b00e-c491b8a86778","system_id":"levelo_inurba_marseille","lat":43.29198,"lon":5.3932,"is_reserved":false,"is_disabled":false,"rental_uris":{"android":"levelo://app?vid=4fe63150-6aac-4b8a-b00e-c491b8a86778","ios":"levelo://app?vid=4fe63150-6aac-4b8a-b00e-c491b8a86778"},"vehicle_type_id":"4","last_reported":1727536177,"current_range_meters":15200,"station_id":"ce4bh192rcd13ifvqdd0","pricing_plan_id":"cebpf4jnsgd1na2vs0mg"},{"bike_id":"b0fe7254-626d-4b76-9b4c-5d0de167237a","system_id":"levelo_inurba_marseille","lat":43.29702,"lon":5.36599,"is_reserved":false,"is_disabled":false,"rental_uris":{"android":"levelo://app?vid=b0fe7254-626d-4b76-9b4c-5d0de167237a","ios":"levelo://app?vid=b0fe7254-626d-4b76-9b4c-5d0de167237a"},"vehicle_type_id":"4","last_reported":1727536177,"current_range_meters":12000,"station_id":"ce4bgn12rcd13ifvqbt0","pricing_plan_id":"cebpf4jnsgd1na2vs0mg"},{"bike_id":"7dcf7d31-80dd-417e-bfc4-d1a913525566","system_id":"levelo_inurba_marseille","lat":43.29686,"lon":5.373,"is_reserved":false,"is_disabled":false,"rental_uris":{"android":"levelo://app?vid=7dcf7d31-80dd-417e-bfc4-d1a913525566","ios":"levelo://app?vid=7dcf7d31-80dd-417e-bfc4-d1a913525566"},"vehicle_type_id":"4","last_reported":1727536177,"current_range_meters":29600,"station_id":"ce4bgk12rcd13ifvqbj0","pricing_plan_id":"cebpf4jnsgd1na2vs0mg"},{"bike_id":"e4361fa2-90d9-45ff-9d8a-e7b112f4e011","system_id":"levelo_inurba_marseille","lat":43.2851,"lon":5.39136,"is_reserved":false,"is_disabled":false,"rental_uris":{"android":"levelo://app?vid=e4361fa2-90d9-45ff-9d8a-e7b112f4e011","ios":"levelo://app?vid=e4361fa2-90d9-45ff-9d8a-e7b112f4e011"},"vehicle_type_id":"4","last_reported":1727536177,"current_range_meters":32400,"station_id":"ce4bh3p2rcd13ifvqdp0","pricing_plan_id":"cebpf4jnsgd1na2vs0mg"},{"bike_id":"9fc48a26-8aad-4268-9901-325f7d66f2cd","system_id":"levelo_inurba_marseille","lat":43.255798,"lon":5.382311,"is_reserved":false,"is_disabled":false,"rental_uris":{"android":"levelo://app?vid=9fc48a26-8aad-4268-9901-325f7d66f2cd","ios":"levelo://app?vid=9fc48a26-8aad-4268-9901-325f7d66f2cd"},"vehicle_type_id":"4","last_reported":1727536177,"current_range_meters":38400,"station_id":"ce4bhih2rcd13ifvqfs0","pricing_plan_id":"cebpf4jnsgd1na2vs0mg"},{"bike_id":"65f828c7-d12b-47c9-87f8-27b2e7121317","system_id":"levelo_inurba_marseille","lat":43.249986,"lon":5.389271,"is_reserved":false,"is_disabled":false,"rental_uris":{"android":"levelo://app?vid=65f828c7-d12b-47c9-87f8-27b2e7121317","ios":"levelo://app?vid=65f828c7-d12b-47c9-87f8-27b2e7121317"},"vehicle_type_id":"4","last_reported":1727536177,"current_range_meters":13600,"station_id":"ce4bhgp2rcd13ifvqfd0","pricing_plan_id":"cebpf4jnsgd1na2vs0mg"},{"bike_id":"119b1756-239e-4ffb-be16-70a9d802ff66","system_id":"levelo_inurba_marseille","lat":43.2984,"lon":5.36255,"is_reserved":false,"is_disabled":false,"rental_uris":{"android":"levelo://app?vid=119b1756-239e-4ffb-be16-70a9d802ff66","ios":"levelo://app?vid=119b1756-239e-4ffb-be16-70a9d802ff66"},"vehicle_type_id":"4","last_reported":1727536177,"current_range_meters":30800,"station_id":"ce4bgpp2rcd13ifvqc3g","pricing_plan_id":"cebpf4jnsgd1na2vs0mg"},{"bike_id":"cab45fd0-efbe-42f4-815f-9d32eba24a97","system_id":"levelo_inurba_marseille","lat":43.279019,"lon":5.412108,"is_reserved":false,"is_disabled":false,"rental_uris":{"android":"levelo://app?vid=cab45fd0-efbe-42f4-815f-9d32eba24a97","ios":"levelo://app?vid=cab45fd0-efbe-42f4-815f-9d32eba24a97"},"vehicle_type_id":"4","last_reported":1727536177,"current_range_meters":18800,"station_id":"","pricing_plan_id":"cebpf4jnsgd1na2vs0mg"},{"bike_id":"6eff8d2d-61fa-4715-9388-b30a052d3e98","system_id":"levelo_inurba_marseille","lat":43.337444,"lon":5.374475,"is_reserved":false,"is_disabled":false,"rental_uris":{"android":"levelo://app?vid=6eff8d2d-61fa-4715-9388-b30a052d3e98","ios":"levelo://app?vid=6eff8d2d-61fa-4715-9388-b30a052d3e98"},"vehicle_type_id":"4","last_reported":1727536177,"current_range_meters":32400,"station_id":"","pricing_plan_id":"cebpf4jnsgd1na2vs0mg"},{"bike_id":"637ea54b-676e-4687-a372-f778f0655b85","system_id":"levelo_inurba_marseille","lat":43.27224,"lon":5.40081,"is_reserved":false,"is_disabled":false,"rental_uris":{"android":"levelo://app?vid=637ea54b-676e-4687-a372-f778f0655b85","ios":"levelo://app?vid=637ea54b-676e-4687-a372-f778f0655b85"},"vehicle_type_id":"4","last_reported":1727536177,"current_range_meters":25200,"station_id":"","pricing_plan_id":"cebpf4jnsgd1na2vs0mg"},{"bike_id":"0e9d1c58-4554-4ac9-9479-939eb029950d","system_id":"levelo_inurba_marseille","lat":43.3054,"lon":5.36695,"is_reserved":false,"is_disabled":false,"rental_uris":{"android":"levelo://app?vid=0e9d1c58-4554-4ac9-9479-939eb029950d","ios":"levelo://app?vid=0e9d1c58-4554-4ac9-9479-939eb029950d"},"vehicle_type_id":"4","last_reported":1727536177,"current_range_meters":3600,"station_id":"ce4bgrp2rcd13ifvqc9g","pricing_plan_id":"cebpf4jnsgd1na2vs0mg"},{"bike_id":"b8960b3a-c99b-47dc-b1ac-2453653d9fb5","system_id":"levelo_inurba_marseille","lat":43.23195,"lon":5.35553,"is_reserved":false,"is_disabled":false,"rental_uris":{"android":"levelo://app?vid=b8960b3a-c99b-47dc-b1ac-2453653d9fb5","ios":"levelo://app?vid=b8960b3a-c99b-47dc-b1ac-2453653d9fb5"},"vehicle_type_id":"4","last_reported":1727536177,"current_range_meters":30800,"station_id":"ce4bhu92rcd13ifvqi70","pricing_plan_id":"cebpf4jnsgd1na2vs0mg"},{"bike_id":"e10d7d9b-88ad-4d2c-bf42-128fcac5e21d","system_id":"levelo_inurba_marseille","lat":43.2781,"lon":5.40711,"is_reserved":false,"is_disabled":false,"rental_uris":{"android":"levelo://app?vid=e10d7d9b-88ad-4d2c-bf42-128fcac5e21d","ios":"levelo://app?vid=e10d7d9b-88ad-4d2c-bf42-128fcac5e21d"},"vehicle_type_id":"4","last_reported":1727536177,"current_range_meters":30000,"station_id":"ce4bhnh2rcd13ifvqgtg","pricing_plan_id":"cebpf4jnsgd1na2vs0mg"},{"bike_id":"71bc78ab-6baa-4586-a0a2-e4061186044d","system_id":"levelo_inurba_marseille","lat":43.2794,"lon":5.41052,"is_reserved":false,"is_disabled":false,"rental_uris":{"android":"levelo://app?vid=71bc78ab-6baa-4586-a0a2-e4061186044d","ios":"levelo://app?vid=71bc78ab-6baa-4586-a0a2-e4061186044d"},"vehicle_type_id":"4","last_reported":1727536177,"current_range_meters":19200,"station_id":"ce4bhnp2rcd13ifvqh0g","pricing_plan_id":"cebpf4jnsgd1na2vs0mg"},{"bike_id":"49103c36-092f-43a6-a665-96ac4218adb8","system_id":"levelo_inurba_marseille","lat":43.32289,"lon":5.38264,"is_reserved":false,"is_disabled":false,"rental_uris":{"android":"levelo://app?vid=49103c36-092f-43a6-a665-96ac4218adb8","ios":"levelo://app?vid=49103c36-092f-43a6-a665-96ac4218adb8"},"vehicle_type_id":"4","last_reported":1727536177,"current_range_meters":39200,"station_id":"ce4bhr12rcd13ifvqhqg","pricing_plan_id":"cebpf4jnsgd1na2vs0mg"},{"bike_id":"56ea770a-c744-43df-b8a4-0c60e5641818","system_id":"levelo_inurba_marseille","lat":43.29371,"lon":5.37838,"is_reserved":false,"is_disabled":false,"rental_uris":{"android":"levelo://app?vid=56ea770a-c744-43df-b8a4-0c60e5641818","ios":"levelo://app?vid=56ea770a-c744-43df-b8a4-0c60e5641818"},"vehicle_type_id":"4","last_reported":1727536177,"current_range_meters":4800,"station_id":"ce4bgjh2rcd13ifvqbf0","pricing_plan_id":"cebpf4jnsgd1na2vs0mg"},{"bike_id":"034f10b5-c26f-43f9-8ca9-2b79442eb450","system_id":"levelo_inurba_marseille","lat":43.26649,"lon":5.38182,"is_reserved":false,"is_disabled":false,"rental_uris":{"android":"levelo://app?vid=034f10b5-c26f-43f9-8ca9-2b79442eb450","ios":"levelo://app?vid=034f10b5-c26f-43f9-8ca9-2b79442eb450"},"vehicle_type_id":"4","last_reported":1727536177,"current_range_meters":33200,"station_id":"ce4bhgp2rcd13ifvqfc0","pricing_plan_id":"cebpf4jnsgd1na2vs0mg"},{"bike_id":"94681d55-b446-4ca3-8de0-d2a684415b97","system_id":"levelo_inurba_marseille","lat":43.32485,"lon":5.36563,"is_reserved":false,"is_disabled":false,"rental_uris":{"android":"levelo://app?vid=94681d55-b446-4ca3-8de0-d2a684415b97","ios":"levelo://app?vid=94681d55-b446-4ca3-8de0-d2a684415b97"},"vehicle_type_id":"4","last_reported":1727536177,"current_range_meters":8400,"station_id":"ce4bhs12rcd13ifvqhvg","pricing_plan_id":"cebpf4jnsgd1na2vs0mg"},{"bike_id":"6f0f9c32-de70-4574-9b89-cca29ab0554e","system_id":"levelo_inurba_marseille","lat":43.337444,"lon":5.374475,"is_reserved":false,"is_disabled":false,"rental_uris":{"android":"levelo://app?vid=6f0f9c32-de70-4574-9b89-cca29ab0554e","ios":"levelo://app?vid=6f0f9c32-de70-4574-9b89-cca29ab0554e"},"vehicle_type_id":"4","last_reported":1727536177,"current_range_meters":30400,"station_id":"","pricing_plan_id":"cebpf4jnsgd1na2vs0mg"},{"bike_id":"44839918-e841-4578-a34d-4d8014b09bc8","system_id":"levelo_inurba_marseille","lat":43.31232,"lon":5.36867,"is_reserved":false,"is_disabled":false,"rental_uris":{"android":"levelo://app?vid=44839918-e841-4578-a34d-4d8014b09bc8","ios":"levelo://app?vid=44839918-e841-4578-a34d-4d8014b09bc8"},"vehicle_type_id":"4","last_reported":1727536177,"current_range_meters":38800,"station_id":"ce4bgl92rcd13ifvqbq0","pricing_plan_id":"cebpf4jnsgd1na2vs0mg"},{"bike_id":"fecd1f7a-fcd4-42bd-9449-f81c3865d9cc","system_id":"levelo_inurba_marseille","lat":43.27374,"lon":5.36254,"is_reserved":false,"is_disabled":false,"rental_uris":{"android":"levelo://app?vid=fecd1f7a-fcd4-42bd-9449-f81c3865d9cc","ios":"levelo://app?vid=fecd1f7a-fcd4-42bd-9449-f81c3865d9cc"},"vehicle_type_id":"4","last_reported":1727536177,"current_range_meters":38800,"station_id":"ce4bhbh2rcd13ifvqeo0","pricing_plan_id":"cebpf4jnsgd1na2vs0mg"},{"bike_id":"0687a646-be72-47a3-8907-22e0afb02a46","system_id":"levelo_inurba_marseille","lat":43.23963,"lon":5.36625,"is_reserved":false,"is_disabled":false,"rental_uris":{"android":"levelo://app?vid=0687a646-be72-47a3-8907-22e0afb02a46","ios":"levelo://app?vid=0687a646-be72-47a3-8907-22e0afb02a46"},"vehicle_type_id":"4","last_reported":1727536177,"current_range_meters":36000,"station_id":"ce4bhi12rcd13ifvqfp0","pricing_plan_id":"cebpf4jnsgd1na2vs0mg"},{"bike_id":"af6fcdd9-c61c-414b-a315-774016c60154","system_id":"levelo_inurba_marseille","lat":43.29276,"lon":5.36848,"is_reserved":false,"is_disabled":false,"rental_uris":{"android":"levelo://app?vid=af6fcdd9-c61c-414b-a315-774016c60154","ios":"levelo://app?vid=af6fcdd9-c61c-414b-a315-774016c60154"},"vehicle_type_id":"4","last_reported":1727536177,"current_range_meters":6800,"station_id":"ce4bhbp2rcd13ifvqesg","pricing_plan_id":"cebpf4jnsgd1na2vs0mg"},{"bike_id":"3c0e52f0-00aa-40bb-8426-1b318e0e9ceb","system_id":"levelo_inurba_marseille","lat":43.28826,"lon":5.37738,"is_reserved":false,"is_disabled":false,"rental_uris":{"android":"levelo://app?vid=3c0e52f0-00aa-40bb-8426-1b318e0e9ceb","ios":"levelo://app?vid=3c0e52f0-00aa-40bb-8426-1b318e0e9ceb"},"vehicle_type_id":"4","last_reported":1727536177,"current_range_meters":12000,"station_id":"ce4bh4p2rcd13ifvqe0g","pricing_plan_id":"cebpf4jnsgd1na2vs0mg"},{"bike_id":"90c05d40-f5db-4a12-95b3-f8d41ae2e51b","system_id":"levelo_inurba_marseille","lat":43.32377,"lon":5.3892,"is_reserved":false,"is_disabled":false,"rental_uris":{"android":"levelo://app?vid=90c05d40-f5db-4a12-95b3-f8d41ae2e51b","ios":"levelo://app?vid=90c05d40-f5db-4a12-95b3-f8d41ae2e51b"},"vehicle_type_id":"4","last_reported":1727536177,"current_range_meters":34000,"station_id":"ce4bhqp2rcd13ifvqhog","pricing_plan_id":"cebpf4jnsgd1na2vs0mg"},{"bike_id":"f230a5e3-4d32-4845-a4c2-3824511a3552","system_id":"levelo_inurba_marseille","lat":43.23195,"lon":5.35556,"is_reserved":false,"is_disabled":false,"rental_uris":{"android":"levelo://app?vid=f230a5e3-4d32-4845-a4c2-3824511a3552","ios":"levelo://app?vid=f230a5e3-4d32-4845-a4c2-3824511a3552"},"vehicle_type_id":"4","last_reported":1727536177,"current_range_meters":16000,"station_id":"ce4bhu92rcd13ifvqi70","pricing_plan_id":"cebpf4jnsgd1na2vs0mg"},{"bike_id":"562e412e-8be2-4e1c-b600-8a894e431f5f","system_id":"levelo_inurba_marseille","lat":43.293675,"lon":5.378268,"is_reserved":false,"is_disabled":false,"rental_uris":{"android":"levelo://app?vid=562e412e-8be2-4e1c-b600-8a894e431f5f","ios":"levelo://app?vid=562e412e-8be2-4e1c-b600-8a894e431f5f"},"vehicle_type_id":"4","last_reported":1727536177,"current_range_meters":24800,"station_id":"ce4bgjh2rcd13ifvqbf0","pricing_plan_id":"cebpf4jnsgd1na2vs0mg"},{"bike_id":"8f9a8eac-ef3b-4b28-a5ee-f9849e5f5e48","system_id":"levelo_inurba_marseille","lat":43.2984,"lon":5.36272,"is_reserved":false,"is_disabled":false,"rental_uris":{"android":"levelo://app?vid=8f9a8eac-ef3b-4b28-a5ee-f9849e5f5e48","ios":"levelo://app?vid=8f9a8eac-ef3b-4b28-a5ee-f9849e5f5e48"},"vehicle_type_id":"4","last_reported":1727536177,"current_range_meters":16800,"station_id":"ce4bgpp2rcd13ifvqc3g","pricing_plan_id":"cebpf4jnsgd1na2vs0mg"},{"bike_id":"154acbff-e53a-4480-a758-a53dbe8f0288","system_id":"levelo_inurba_marseille","lat":43.27432,"lon":5.39407,"is_reserved":false,"is_disabled":false,"rental_uris":{"android":"levelo://app?vid=154acbff-e53a-4480-a758-a53dbe8f0288","ios":"levelo://app?vid=154acbff-e53a-4480-a758-a53dbe8f0288"},"vehicle_type_id":"4","last_reported":1727536177,"current_range_meters":3200,"station_id":"ce4bhdp2rcd13ifvqf20","pricing_plan_id":"cebpf4jnsgd1na2vs0mg"},{"bike_id":"e4eaeb27-47b9-44e2-bb54-1467b9b29a60","system_id":"levelo_inurba_marseille","lat":43.27808,"lon":5.40704,"is_reserved":false,"is_disabled":false,"rental_uris":{"android":"levelo://app?vid=e4eaeb27-47b9-44e2-bb54-1467b9b29a60","ios":"levelo://app?vid=e4eaeb27-47b9-44e2-bb54-1467b9b29a60"},"vehicle_type_id":"4","last_reported":1727536177,"current_range_meters":31200,"station_id":"ce4bhnh2rcd13ifvqgtg","pricing_plan_id":"cebpf4jnsgd1na2vs0mg"},{"bike_id":"9fcb71b8-23d8-4fcd-abcf-98182e2b2bbc","system_id":"levelo_inurba_marseille","lat":43.28031,"lon":5.3694,"is_reserved":false,"is_disabled":false,"rental_uris":{"android":"levelo://app?vid=9fcb71b8-23d8-4fcd-abcf-98182e2b2bbc","ios":"levelo://app?vid=9fcb71b8-23d8-4fcd-abcf-98182e2b2bbc"},"vehicle_type_id":"4","last_reported":1727536177,"current_range_meters":35200,"station_id":"ce4bha12rcd13ifvqef0","pricing_plan_id":"cebpf4jnsgd1na2vs0mg"},{"bike_id":"d2b6519e-4831-42d3-8222-3751a37cc1b0","system_id":"levelo_inurba_marseille","lat":43.29895,"lon":5.43659,"is_reserved":false,"is_disabled":false,"rental_uris":{"android":"levelo://app?vid=d2b6519e-4831-42d3-8222-3751a37cc1b0","ios":"levelo://app?vid=d2b6519e-4831-42d3-8222-3751a37cc1b0"},"vehicle_type_id":"4","last_reported":1727536177,"current_range_meters":39200,"station_id":"ce4bhpp2rcd13ifvqhfg","pricing_plan_id":"cebpf4jnsgd1na2vs0mg"},{"bike_id":"a3892bf0-31bf-40f2-9594-e76055c6adde","system_id":"levelo_inurba_marseille","lat":43.24388,"lon":5.37053,"is_reserved":false,"is_disabled":false,"rental_uris":{"android":"levelo://app?vid=a3892bf0-31bf-40f2-9594-e76055c6adde","ios":"levelo://app?vid=a3892bf0-31bf-40f2-9594-e76055c6adde"},"vehicle_type_id":"4","last_reported":1727536177,"current_range_meters":11600,"station_id":"ce4bhhh2rcd13ifvqfk0","pricing_plan_id":"cebpf4jnsgd1na2vs0mg"},{"bike_id":"3a5f9264-6b3c-485e-b58f-1d9f4a7d0f21","system_id":"levelo_inurba_marseille","lat":43.296021,"lon":5.381047,"is_reserved":false,"is_disabled":false,"rental_uris":{"android":"levelo://app?vid=3a5f9264-6b3c-485e-b58f-1d9f4a7d0f21","ios":"levelo://app?vid=3a5f9264-6b3c-485e-b58f-1d9f4a7d0f21"},"vehicle_type_id":"4","last_reported":1727536177,"current_range_meters":16800,"station_id":"ce4bgl12rcd13ifvqbo0","pricing_plan_id":"cebpf4jnsgd1na2vs0mg"},{"bike_id":"3539b667-cc8c-460c-9bba-552db0cc66e8","system_id":"levelo_inurba_marseille","lat":43.2743,"lon":5.39404,"is_reserved":false,"is_disabled":false,"rental_uris":{"android":"levelo://app?vid=3539b667-cc8c-460c-9bba-552db0cc66e8","ios":"levelo://app?vid=3539b667-cc8c-460c-9bba-552db0cc66e8"},"vehicle_type_id":"4","last_reported":1727536177,"current_range_meters":6000,"station_id":"ce4bhdp2rcd13ifvqf20","pricing_plan_id":"cebpf4jnsgd1na2vs0mg"},{"bike_id":"9d933d2a-f72c-492c-ae3d-eb238dac3442","system_id":"levelo_inurba_marseille","lat":43.317589,"lon":5.390251,"is_reserved":false,"is_disabled":false,"rental_uris":{"android":"levelo://app?vid=9d933d2a-f72c-492c-ae3d-eb238dac3442","ios":"levelo://app?vid=9d933d2a-f72c-492c-ae3d-eb238dac3442"},"vehicle_type_id":"4","last_reported":1727536177,"current_range_meters":17200,"station_id":"ce4bhqp2rcd13ifvqhng","pricing_plan_id":"cebpf4jnsgd1na2vs0mg"},{"bike_id":"235d66bc-acd7-4ca5-9917-44c43db9e9ff","system_id":"levelo_inurba_marseille","lat":43.29975,"lon":5.38487,"is_reserved":false,"is_disabled":false,"rental_uris":{"android":"levelo://app?vid=235d66bc-acd7-4ca5-9917-44c43db9e9ff","ios":"levelo://app?vid=235d66bc-acd7-4ca5-9917-44c43db9e9ff"},"vehicle_type_id":"4","last_reported":1727536177,"current_range_meters":32000,"station_id":"ce4bgj92rcd13ifvqbd0","pricing_plan_id":"cebpf4jnsgd1na2vs0mg"},{"bike_id":"2d43d9be-98e9-4a97-be09-26ee786e7222","system_id":"levelo_inurba_marseille","lat":43.30894,"lon":5.37196,"is_reserved":false,"is_disabled":false,"rental_uris":{"android":"levelo://app?vid=2d43d9be-98e9-4a97-be09-26ee786e7222","ios":"levelo://app?vid=2d43d9be-98e9-4a97-be09-26ee786e7222"},"vehicle_type_id":"4","last_reported":1727536177,"current_range_meters":37600,"station_id":"ce4bguh2rcd13ifvqckg","pricing_plan_id":"cebpf4jnsgd1na2vs0mg"},{"bike_id":"a01c167d-b0a8-417d-983c-973ea4c07ac2","system_id":"levelo_inurba_marseille","lat":43.29266,"lon":5.36846,"is_reserved":false,"is_disabled":false,"rental_uris":{"android":"levelo://app?vid=a01c167d-b0a8-417d-983c-973ea4c07ac2","ios":"levelo://app?vid=a01c167d-b0a8-417d-983c-973ea4c07ac2"},"vehicle_type_id":"4","last_reported":1727536177,"current_range_meters":8000,"station_id":"ce4bhbp2rcd13ifvqesg","pricing_plan_id":"cebpf4jnsgd1na2vs0mg"},{"bike_id":"ee1ec0f3-cbe4-4b1b-a224-e1c6e98305b3","system_id":"levelo_inurba_marseille","lat":43.30532,"lon":5.36711,"is_reserved":false,"is_disabled":false,"rental_uris":{"android":"levelo://app?vid=ee1ec0f3-cbe4-4b1b-a224-e1c6e98305b3","ios":"levelo://app?vid=ee1ec0f3-cbe4-4b1b-a224-e1c6e98305b3"},"vehicle_type_id":"4","last_reported":1727536177,"current_range_meters":4000,"station_id":"ce4bgrp2rcd13ifvqc9g","pricing_plan_id":"cebpf4jnsgd1na2vs0mg"},{"bike_id":"18a1cccc-5db3-4284-98c9-52fb2e4bb9fe","system_id":"levelo_inurba_marseille","lat":43.28032,"lon":5.36934,"is_reserved":false,"is_disabled":false,"rental_uris":{"android":"levelo://app?vid=18a1cccc-5db3-4284-98c9-52fb2e4bb9fe","ios":"levelo://app?vid=18a1cccc-5db3-4284-98c9-52fb2e4bb9fe"},"vehicle_type_id":"4","last_reported":1727536177,"current_range_meters":20800,"station_id":"ce4bha12rcd13ifvqef0","pricing_plan_id":"cebpf4jnsgd1na2vs0mg"},{"bike_id":"549f9389-2a24-4e39-a656-511c4f266c8d","system_id":"levelo_inurba_marseille","lat":43.297603,"lon":5.381226,"is_reserved":false,"is_disabled":false,"rental_uris":{"android":"levelo://app?vid=549f9389-2a24-4e39-a656-511c4f266c8d","ios":"levelo://app?vid=549f9389-2a24-4e39-a656-511c4f266c8d"},"vehicle_type_id":"4","last_reported":1727536177,"current_range_meters":24000,"station_id":"ce4bgip2rcd13ifvqbb0","pricing_plan_id":"cebpf4jnsgd1na2vs0mg"},{"bike_id":"2222e792-7fec-4280-a57d-3ad23acffe59","system_id":"levelo_inurba_marseille","lat":43.29516,"lon":5.37479,"is_reserved":false,"is_disabled":false,"rental_uris":{"android":"levelo://app?vid=2222e792-7fec-4280-a57d-3ad23acffe59","ios":"levelo://app?vid=2222e792-7fec-4280-a57d-3ad23acffe59"},"vehicle_type_id":"4","last_reported":1727536177,"current_range_meters":17600,"station_id":"ce4bgkp2rcd13ifvqbmg","pricing_plan_id":"cebpf4jnsgd1na2vs0mg"},{"bike_id":"ae420688-5730-4c04-90f7-fb439220597f","system_id":"levelo_inurba_marseille","lat":43.337444,"lon":5.374475,"is_reserved":false,"is_disabled":false,"rental_uris":{"android":"levelo://app?vid=ae420688-5730-4c04-90f7-fb439220597f","ios":"levelo://app?vid=ae420688-5730-4c04-90f7-fb439220597f"},"vehicle_type_id":"4","last_reported":1727536177,"current_range_meters":32800,"station_id":"","pricing_plan_id":"cebpf4jnsgd1na2vs0mg"},{"bike_id":"b86a2766-cd50-4389-966e-1f7a04656275","system_id":"levelo_inurba_marseille","lat":43.29843,"lon":5.36257,"is_reserved":false,"is_disabled":false,"rental_uris":{"android":"levelo://app?vid=b86a2766-cd50-4389-966e-1f7a04656275","ios":"levelo://app?vid=b86a2766-cd50-4389-966e-1f7a04656275"},"vehicle_type_id":"4","last_reported":1727536177,"current_range_meters":36400,"station_id":"ce4bgpp2rcd13ifvqc3g","pricing_plan_id":"cebpf4jnsgd1na2vs0mg"},{"bike_id":"f602a99a-8945-4d4f-8888-b097e0039ba6","system_id":"levelo_inurba_marseille","lat":43.29607,"lon":5.40008,"is_reserved":false,"is_disabled":false,"rental_uris":{"android":"levelo://app?vid=f602a99a-8945-4d4f-8888-b097e0039ba6","ios":"levelo://app?vid=f602a99a-8945-4d4f-8888-b097e0039ba6"},"vehicle_type_id":"4","last_reported":1727536177,"current_range_meters":26800,"station_id":"ce4bh312rcd13ifvqdj0","pricing_plan_id":"cebpf4jnsgd1na2vs0mg"},{"bike_id":"86a71ee8-d43f-4ebe-bee2-169dfe2232ae","system_id":"levelo_inurba_marseille","lat":43.23965,"lon":5.36626,"is_reserved":false,"is_disabled":false,"rental_uris":{"android":"levelo://app?vid=86a71ee8-d43f-4ebe-bee2-169dfe2232ae","ios":"levelo://app?vid=86a71ee8-d43f-4ebe-bee2-169dfe2232ae"},"vehicle_type_id":"4","last_reported":1727536177,"current_range_meters":38000,"station_id":"ce4bhi12rcd13ifvqfp0","pricing_plan_id":"cebpf4jnsgd1na2vs0mg"},{"bike_id":"d53498d5-999c-40cf-9e13-56d27b5c03a5","system_id":"levelo_inurba_marseille","lat":43.273712,"lon":5.362658,"is_reserved":false,"is_disabled":false,"rental_uris":{"android":"levelo://app?vid=d53498d5-999c-40cf-9e13-56d27b5c03a5","ios":"levelo://app?vid=d53498d5-999c-40cf-9e13-56d27b5c03a5"},"vehicle_type_id":"4","last_reported":1727536177,"current_range_meters":26800,"station_id":"ce4bhbh2rcd13ifvqeo0","pricing_plan_id":"cebpf4jnsgd1na2vs0mg"},{"bike_id":"2120281d-853d-4458-aec2-de006de68b30","system_id":"levelo_inurba_marseille","lat":43.25581,"lon":5.38221,"is_reserved":false,"is_disabled":false,"rental_uris":{"android":"levelo://app?vid=2120281d-853d-4458-aec2-de006de68b30","ios":"levelo://app?vid=2120281d-853d-4458-aec2-de006de68b30"},"vehicle_type_id":"4","last_reported":1727536177,"current_range_meters":8000,"station_id":"ce4bhih2rcd13ifvqfs0","pricing_plan_id":"cebpf4jnsgd1na2vs0mg"},{"bike_id":"f6151e32-418e-4582-a07d-e581cb14ba12","system_id":"levelo_inurba_marseille","lat":43.29899,"lon":5.43655,"is_reserved":false,"is_disabled":false,"rental_uris":{"android":"levelo://app?vid=f6151e32-418e-4582-a07d-e581cb14ba12","ios":"levelo://app?vid=f6151e32-418e-4582-a07d-e581cb14ba12"},"vehicle_type_id":"4","last_reported":1727536177,"current_range_meters":35200,"station_id":"ce4bhpp2rcd13ifvqhfg","pricing_plan_id":"cebpf4jnsgd1na2vs0mg"},