{"last_updated":1743423579,"ttl":60,"version":"2.2","data":{"bikes":[{"bike_id":"7ae00488-7529-458e-a61e-46f0c357d5da","system_id":"levelo_inurba_marseille","lat":43.29613,"lon":5.3811,"is_reserved":false,"is_disabled":false,"rental_uris":{"android":"levelo://app?vid=7ae00488-7529-458e-a61e-46f0c357d5da","ios":"levelo://app?vid=7ae00488-7529-458e-a61e-46f0c357d5da"},"vehicle_type_id":"4","last_reported":1743423579,"current_range_meters":2800,"station_id":"ce4bgl12rcd13ifvqbo0","pricing_plan_id":"cebpf4jnsgd1na2vs0mg"},{"bike_id":"2ed1c81c-1940-422a-badc-c4d42d81c867","system_id":"levelo_inurba_marseille","lat":43.295982,"lon":5.381154,"is_reserved":false,"is_disabled":false,"rental_uris":{"android":"levelo://app?vid=2ed1c81c-1940-422a-badc-c4d42d81c867","ios":"levelo://app?vid=2ed1c81c-1940-422a-badc-c4d42d81c867"},"vehicle_type_id":"4","last_reported":1743423579,"current_range_meters":2800,"station_id":"ce4bgl12rcd13ifvqbo0","pricing_plan_id":"cebpf4jnsgd1na2vs0mg"},{"bike_id":"c82d5dd1-4f66-4fdc-8b9d-012172fac7dd","system_id":"levelo_inurba_marseille","lat":43.22946,"lon":5.35373,"is_reserved":false,"is_disabled":false,"rental_uris":{"android":"levelo://app?vid=c82d5dd1-4f66-4fdc-8b9d-012172fac7dd","ios":"levelo://app?vid=c82d5dd1-4f66-4fdc-8b9d-012172fac7dd"},"vehicle_type_id":"4","last_reported":1743423579,"current_range_meters":3200,"station_id":"cpo3532slgdg3j2ikp40","pricing_plan_id":"cebpf4jnsgd1na2vs0mg"},{"bike_id":"4c7259a4-a869-457f-95ef-ea0d0ade0bec","system_id":"levelo_inurba_marseille","lat":43.28975,"lon":5.37828,"is_reserved":false,"is_disabled":false,"rental_uris":{"android":"levelo://app?vid=4c7259a4-a869-457f-95ef-ea0d0ade0bec","ios":"levelo://app?vid=4c7259a4-a869-457f-95ef-ea0d0ade0bec"},"vehicle_type_id":"4","last_reported":1743423579,"current_range_meters":3600,"station_id":"ce4bh9p2rcd13ifvqed0","pricing_plan_id":"cebpf4jnsgd1na2vs0mg"},{"bike_id":"96ac20e8-5840-4579-b371-184ec6253952","system_id":"levelo_inurba_marseille","lat":43.27494,"lon":5.41136,"is_reserved":false,"is_disabled":false,"rental_uris":{"android":"levelo://app?vid=96ac20e8-5840-4579-b371-184ec6253952","ios":"levelo://app?vid=96ac20e8-5840-4579-b371-184ec6253952"},"vehicle_type_id":"4","last_reported":1743423579,"current_range_meters":3600,"station_id":"","pricing_plan_id":"cebpf4jnsgd1na2vs0mg"},{"bike_id":"e84badb5-e53d-4311-a19c-f481be356ca8","system_id":"levelo_inurba_marseille","lat":43.31481,"lon":5.37313,"is_reserved":false,"is_disabled":false,"rental_uris":{"android":"levelo://app?vid=e84badb5-e53d-4311-a19c-f481be356ca8","ios":"levelo://app?vid=e84badb5-e53d-4311-a19c-f481be356ca8"},"vehicle_type_id":"4","last_reported":1743423579,"current_range_meters":3600,"station_id":"ce4bgt12rcd13ifvqcd0","pricing_plan_id":"cebpf4jnsgd1na2vs0mg"},{"bike_id":"f3b8dc09-43b0-4b44-90ad-5f7ecdb381c6","system_id":"levelo_inurba_marseille","lat":43.29219,"lon":5.36056,"is_reserved":false,"is_disabled":false,"rental_uris":{"android":"levelo://app?vid=f3b8dc09-43b0-4b44-90ad-5f7ecdb381c6","ios":"levelo://app?vid=f3b8dc09-43b0-4b44-90ad-5f7ecdb381c6"},"vehicle_type_id":"4","last_reported":1743423579,"current_range_meters":3600,"station_id":"ce4bhbh2rcd13ifvqeqg","pricing_plan_id":"cebpf4jnsgd1na2vs0mg"},{"bike_id":"5190d183-08bc-41b4-9115-2ec99501baa0","system_id":"levelo_inurba_marseille","lat":43.291,"lon":5.38133,"is_reserved":false,"is_disabled":false,"rental_uris":{"android":"levelo://app?vid=5190d183-08bc-41b4-9115-2ec99501baa0","ios":"levelo://app?vid=5190d183-08bc-41b4-9115-2ec99501baa0"},"vehicle_type_id":"4","last_reported":1743423579,"current_range_meters":4000,"station_id":"ce4bh512rcd13ifvqe2g","pricing_plan_id":"cebpf4jnsgd1na2vs0mg"},{"bike_id":"42bc7b23-0e2f-4d72-b583-40bcdabb28c7","system_id":"levelo_inurba_marseille","lat":43.29543,"lon":5.3738,"is_reserved":false,"is_disabled":true,"rental_uris":{"android":"levelo://app?vid=42bc7b23-0e2f-4d72-b583-40bcdabb28c7","ios":"levelo://app?vid=42bc7b23-0e2f-4d72-b583-40bcdabb28c7"},"vehicle_type_id":"4","last_reported":1743423579,"current_range_meters":4000,"station_id":"","pricing_plan_id":"cebpf4jnsgd1na2vs0mg"},{"bike_id":"cfbdea25-314d-4c52-b270-796ce5c6b0bb","system_id":"levelo_inurba_marseille","lat":43.27582,"lon":5.38412,"is_reserved":false,"is_disabled":false,"rental_uris":{"android":"levelo://app?vid=cfbdea25-314d-4c52-b270-796ce5c6b0bb","ios":"levelo://app?vid=cfbdea25-314d-4c52-b270-796ce5c6b0bb"},"vehicle_type_id":"4","last_reported":1743423579,"current_range_meters":4000,"station_id":"ce4bhh92rcd13ifvqfi0","pricing_plan_id":"cebpf4jnsgd1na2vs0mg"},{"bike_id":"a2d16333-5183-407f-9f28-1543760230d9","system_id":"levelo_inurba_marseille","lat":43.28405,"lon":5.34984,"is_reserved":false,"is_disabled":false,"rental_uris":{"android":"levelo://app?vid=a2d16333-5183-407f-9f28-1543760230d9","ios":"levelo://app?vid=a2d16333-5183-407f-9f28-1543760230d9"},"vehicle_type_id":"4","last_reported":1743423579,"current_range_meters":4000,"station_id":"ce4bhbh2rcd13ifvqepg","pricing_plan_id":"cebpf4jnsgd1na2vs0mg"},{"bike_id":"f9f53151-180a-4ad9-981c-4bbf9dcec44f","system_id":"levelo_inurba_marseille","lat":43.23149,"lon":5.43715,"is_reserved":false,"is_disabled":false,"rental_uris":{"android":"levelo://app?vid=f9f53151-180a-4ad9-981c-4bbf9dcec44f","ios":"levelo://app?vid=f9f53151-180a-4ad9-981c-4bbf9dcec44f"},"vehicle_type_id":"4","last_reported":1743423579,"current_range_meters":4000,"station_id":"ce4bhmp2rcd13ifvqgog","pricing_plan_id":"cebpf4jnsgd1na2vs0mg"},{"bike_id":"34e2ca18-dc70-4b43-89cb-2266d11140ae","system_id":"levelo_inurba_marseille","lat":43.28614,"lon":5.35104,"is_reserved":false,"is_disabled":false,"rental_uris":{"android":"levelo://app?vid=34e2ca18-dc70-4b43-89cb-2266d11140ae","ios":"levelo://app?vid=34e2ca18-dc70-4b43-89cb-2266d11140ae"},"vehicle_type_id":"4","last_reported":1743423579,"current_range_meters":4000,"station_id":"ce4bhch2rcd13ifvqeug","pricing_plan_id":"cebpf4jnsgd1na2vs0mg"},{"bike_id":"ed4261d8-7df1-4c07-946a-7d6e4353af23","system_id":"levelo_inurba_marseille","lat":43.30145,"lon":5.3809,"is_reserved":false,"is_disabled":false,"rental_uris":{"android":"levelo://app?vid=ed4261d8-7df1-4c07-946a-7d6e4353af23","ios":"levelo://app?vid=ed4261d8-7df1-4c07-946a-7d6e4353af23"},"vehicle_type_id":"4","last_reported":1743423579,"current_range_meters":4000,"station_id":"ce4bgjp2rcd13ifvqbh0","pricing_plan_id":"cebpf4jnsgd1na2vs0mg"},{"bike_id":"84d3a2c5-df48-4379-a9bd-e0bf027d5b57","system_id":"levelo_inurba_marseille","lat":43.31357,"lon":5.38501,"is_reserved":false,"is_disabled":false,"rental_uris":{"android":"levelo://app?vid=84d3a2c5-df48-4379-a9bd-e0bf027d5b57","ios":"levelo://app?vid=84d3a2c5-df48-4379-a9bd-e0bf027d5b57"},"vehicle_type_id":"4","last_reported":1743423579,"current_range_meters":4000,"station_id":"ce4bgt92rcd13ifvqcf0","pricing_plan_id":"cebpf4jnsgd1na2vs0mg"},{"bike_id":"f3e68cb3-b790-4f29-a5ca-61fdea0699fa","system_id":"levelo_inurba_marseille","lat":43.284193,"lon":5.374997,"is_reserved":false,"is_disabled":false,"rental_uris":{"android":"levelo://app?vid=f3e68cb3-b790-4f29-a5ca-61fdea0699fa","ios":"levelo://app?vid=f3e68cb3-b790-4f29-a5ca-61fdea0699fa"},"vehicle_type_id":"4","last_reported":1743423579,"current_range_meters":6000,"station_id":"ce4bgk12rcd13ifvqbi0","pricing_plan_id":"cebpf4jnsgd1na2vs0mg"},{"bike_id":"73afafe3-88a1-48c1-bba3-949c00846a06","system_id":"levelo_inurba_marseille","lat":43.29798,"lon":5.38078,"is_reserved":false,"is_disabled":false,"rental_uris":{"android":"levelo://app?vid=73afafe3-88a1-48c1-bba3-949c00846a06","ios":"levelo://app?vid=73afafe3-88a1-48c1-bba3-949c00846a06"},"vehicle_type_id":"4","last_reported":1743423579,"current_range_meters":4400,"station_id":"ce4bgip2rcd13ifvqbb0","pricing_plan_id":"cebpf4jnsgd1na2vs0mg"},{"bike_id":"d0ed36b4-3c5a-4da6-8fb4-955c321dd03a","system_id":"levelo_inurba_marseille","lat":43.2751,"lon":5.41028,"is_reserved":false,"is_disabled":false,"rental_uris":{"android":"levelo://app?vid=d0ed36b4-3c5a-4da6-8fb4-955c321dd03a","ios":"levelo://app?vid=d0ed36b4-3c5a-4da6-8fb4-955c321dd03a"},"vehicle_type_id":"4","last_reported":1743423579,"current_range_meters":4400,"station_id":"","pricing_plan_id":"cebpf4jnsgd1na2vs0mg"},{"bike_id":"fd24c065-e7d8-4283-8a7f-92882773572e","system_id":"levelo_inurba_marseille","lat":43.29284,"lon":5.38437,"is_reserved":false,"is_disabled":false,"rental_uris":{"android":"levelo://app?vid=fd24c065-e7d8-4283-8a7f-92882773572e","ios":"levelo://app?vid=fd24c065-e7d8-4283-8a7f-92882773572e"},"vehicle_type_id":"4","last_reported":1743423579,"current_range_meters":4800,"station_id":"ce4bh692rcd13ifvqea0","pricing_plan_id":"cebpf4jnsgd1na2vs0mg"},{"bike_id":"09652dc6-223f-491a-a1ce-7f1a323d102e","system_id":"levelo_inurba_marseille","lat":43.30559,"lon":5.36509,"is_reserved":false,"is_disabled":false,"rental_uris":{"android":"levelo://app?vid=09652dc6-223f-491a-a1ce-7f1a323d102e","ios":"levelo://app?vid=09652dc6-223f-491a-a1ce-7f1a323d102e"},"vehicle_type_id":"4","last_reported":1743423579,"current_range_meters":4800,"station_id":"ce4bgs12rcd13ifvqcag","pricing_plan_id":"cebpf4jnsgd1na2vs0mg"},{"bike_id":"e54b28ff-dd21-4e72-832d-4f591e2e2ca1","system_id":"levelo_inurba_marseille","lat":43.26676,"lon":5.382667,"is_reserved":false,"is_disabled":false,"rental_uris":{"android":"levelo://app?vid=e54b28ff-dd21-4e72-832d-4f591e2e2ca1","ios":"levelo://app?vid=e54b28ff-dd21-4e72-832d-4f591e2e2ca1"},"vehicle_type_id":"4","last_reported":1743423579,"current_range_meters":4800,"station_id":"ce4bhg92rcd13ifvqf90","pricing_plan_id":"cebpf4jnsgd1na2vs0mg"},{"bike_id":"292f8a19-f233-4e51-9a26-c3a52018dc73","system_id":"levelo_inurba_marseille","lat":43.27063,"lon":5.42267,"is_reserved":false,"is_disabled":false,"rental_uris":{"android":"levelo://app?vid=292f8a19-f233-4e51-9a26-c3a52018dc73","ios":"levelo://app?vid=292f8a19-f233-4e51-9a26-c3a52018dc73"},"vehicle_type_id":"4","last_reported":1743423579,"current_range_meters":4800,"station_id":"ce4bhk92rcd13ifvqgb0","pricing_plan_id":"cebpf4jnsgd1na2vs0mg"},{"bike_id":"a31e1ae7-38f5-4dd5-b256-feb703a99b23","system_id":"levelo_inurba_marseille","lat":43.29545,"lon":5.39029,"is_reserved":false,"is_disabled":false,"rental_uris":{"android":"levelo://app?vid=a31e1ae7-38f5-4dd5-b256-feb703a99b23","ios":"levelo://app?vid=a31e1ae7-38f5-4dd5-b256-feb703a99b23"},"vehicle_type_id":"4","last_reported":1743423579,"current_range_meters":5600,"station_id":"ce4bh3p2rcd13ifvqdp0","pricing_plan_id":"cebpf4jnsgd1na2vs0mg"},{"bike_id":"312f8c6d-7d05-4283-9f98-0d56f60844a5","system_id":"levelo_inurba_marseille","lat":43.28272,"lon":5.35072,"is_reserved":false,"is_disabled":false,"rental_uris":{"android":"levelo://app?vid=312f8c6d-7d05-4283-9f98-0d56f60844a5","ios":"levelo://app?vid=312f8c6d-7d05-4283-9f98-0d56f60844a5"},"vehicle_type_id":"4","last_reported":1743423579,"current_range_meters":5600,"station_id":"ce4bhbp2rcd13ifvqerg","pricing_plan_id":"cebpf4jnsgd1na2vs0mg"},{"bike_id":"384b53be-0dd1-4ff6-96b3-76e22c52ec3c","system_id":"levelo_inurba_marseille","lat":43.27641,"lon":5.42253,"is_reserved":false,"is_disabled":false,"rental_uris":{"android":"levelo://app?vid=384b53be-0dd1-4ff6-96b3-76e22c52ec3c","ios":"levelo://app?vid=384b53be-0dd1-4ff6-96b3-76e22c52ec3c"},"vehicle_type_id":"4","last_reported":1743423579,"current_range_meters":5600,"station_id":"","pricing_plan_id":"cebpf4jnsgd1na2vs0mg"},{"bike_id":"93b55f3d-b1dd-4f3f-b1f6-f78029e736da","system_id":"levelo_inurba_marseille","lat":43.23157,"lon":5.43724,"is_reserved":false,"is_disabled":false,"rental_uris":{"android":"levelo://app?vid=93b55f3d-b1dd-4f3f-b1f6-f78029e736da","ios":"levelo://app?vid=93b55f3d-b1dd-4f3f-b1f6-f78029e736da"},"vehicle_type_id":"4","last_reported":1743423579,"current_range_meters":6000,"station_id":"ce4bhmp2rcd13ifvqgog","pricing_plan_id":"cebpf4jnsgd1na2vs0mg"},{"bike_id":"76d4ed16-8625-4a14-a5f1-d28ac2574c13","system_id":"levelo_inurba_marseille","lat":43.24539,"lon":5.39534,"is_reserved":false,"is_disabled":false,"rental_uris":{"android":"levelo://app?vid=76d4ed16-8625-4a14-a5f1-d28ac2574c13","ios":"levelo://app?vid=76d4ed16-8625-4a14-a5f1-d28ac2574c13"},"vehicle_type_id":"4","last_reported":1743423579,"current_range_meters":6000,"station_id":"ce4bhlp2rcd13ifvqgjg","pricing_plan_id":"cebpf4jnsgd1na2vs0mg"},{"bike_id":"36438f87-de35-42e6-84d1-312e6a8359ec","system_id":"levelo_inurba_marseille","lat":43.24169,"lon":5.39693,"is_reserved":false,"is_disabled":false,"rental_uris":{"android":"levelo://app?vid=36438f87-de35-42e6-84d1-312e6a8359ec","ios":"levelo://app?vid=36438f87-de35-42e6-84d1-312e6a8359ec"},"vehicle_type_id":"4","last_reported":1743423579,"current_range_meters":6000,"station_id":"ce4bhn12rcd13ifvqgpg","pricing_plan_id":"cebpf4jnsgd1na2vs0mg"},{"bike_id":"bc1ef0c2-17d8-427e-a10c-9b9658a85853","system_id":"levelo_inurba_marseille","lat":43.24179,"lon":5.39715,"is_reserved":false,"is_disabled":true,"rental_uris":{"android":"levelo://app?vid=bc1ef0c2-17d8-427e-a10c-9b9658a85853","ios":"levelo://app?vid=bc1ef0c2-17d8-427e-a10c-9b9658a85853"},"vehicle_type_id":"4","last_reported":1743423579,"current_range_meters":6000,"station_id":"ce4bhn12rcd13ifvqgpg","pricing_plan_id":"cebpf4jnsgd1na2vs0mg"},{"bike_id":"e72673f4-b2fe-426b-b390-f70125747c61","system_id":"levelo_inurba_marseille","lat":43.24084,"lon":5.37751,"is_reserved":false,"is_disabled":false,"rental_uris":{"android":"levelo://app?vid=e72673f4-b2fe-426b-b390-f70125747c61","ios":"levelo://app?vid=e72673f4-b2fe-426b-b390-f70125747c61"},"vehicle_type_id":"4","last_reported":1743423579,"current_range_meters":6000,"station_id":"ce4bhnp2rcd13ifvqgvg","pricing_plan_id":"cebpf4jnsgd1na2vs0mg"},{"bike_id":"a0de125d-9dc9-4de1-9bdb-11a476693100","system_id":"levelo_inurba_marseille","lat":43.231512,"lon":5.43713,"is_reserved":false,"is_disabled":false,"rental_uris":{"android":"levelo://app?vid=a0de125d-9dc9-4de1-9bdb-11a476693100","ios":"levelo://app?vid=a0de125d-9dc9-4de1-9bdb-11a476693100"},"vehicle_type_id":"4","last_reported":1743423579,"current_range_meters":6400,"station_id":"ce4bhmp2rcd13ifvqgog","pricing_plan_id":"cebpf4jnsgd1na2vs0mg"},{"bike_id":"b4f8a49c-a9d1-4682-8c09-20820c62e7e8","system_id":"levelo_inurba_marseille","lat":43.26805,"lon":5.40256,"is_reserved":false,"is_disabled":false,"rental_uris":{"android":"levelo://app?vid=b4f8a49c-a9d1-4682-8c09-20820c62e7e8","ios":"levelo://app?vid=b4f8a49c-a9d1-4682-8c09-20820c62e7e8"},"vehicle_type_id":"4","last_reported":1743423579,"current_range_meters":6400,"station_id":"ce501612rcd8frsf0b60","pricing_plan_id":"cebpf4jnsgd1na2vs0mg"},{"bike_id":"fb5a3640-c2bd-4d5a-a532-631ac7449c3d","system_id":"levelo_inurba_marseille","lat":43.28013,"lon":5.40955,"is_reserved":false,"is_disabled":false,"rental_uris":{"android":"levelo://app?vid=fb5a3640-c2bd-4d5a-a532-631ac7449c3d","ios":"levelo://app?vid=fb5a3640-c2bd-4d5a-a532-631ac7449c3d"},"vehicle_type_id":"4","last_reported":1743423579,"current_range_meters":6400,"station_id":"","pricing_plan_id":"cebpf4jnsgd1na2vs0mg"},{"bike_id":"59ee2d22-1d87-4205-899c-cc56e802ea3a","system_id":"levelo_inurba_marseille","lat":43.26681,"lon":5.38271,"is_reserved":false,"is_disabled":false,"rental_uris":{"android":"levelo://app?vid=59ee2d22-1d87-4205-899c-cc56e802ea3a","ios":"levelo://app?vid=59ee2d22-1d87-4205-899c-cc56e802ea3a"},"vehicle_type_id":"4","last_reported":1743423579,"current_range_meters":6400,"station_id":"ce4bhg92rcd13ifvqf90","pricing_plan_id":"cebpf4jnsgd1na2vs0mg"},{"bike_id":"26febead-b7d3-4531-87e0-18f41eca5408","system_id":"levelo_inurba_marseille","lat":43.29863,"lon":5.3627,"is_reserved":false,"is_disabled":false,"rental_uris":{"android":"levelo://app?vid=26febead-b7d3-4531-87e0-18f41eca5408","ios":"levelo://app?vid=26febead-b7d3-4531-87e0-18f41eca5408"},"vehicle_type_id":"4","last_reported":1743423579,"current_range_meters":6400,"station_id":"ce4bgpp2rcd13ifvqc3g","pricing_plan_id":"cebpf4jnsgd1na2vs0mg"},{"bike_id":"18a0240a-4b66-4de0-8774-60a112f77be3","system_id":"levelo_inurba_marseille","lat":43.31183,"lon":5.36827,"is_reserved":false,"is_disabled":false,"rental_uris":{"android":"levelo://app?vid=18a0240a-4b66-4de0-8774-60a112f77be3","ios":"levelo://app?vid=18a0240a-4b66-4de0-8774-60a112f77be3"},"vehicle_type_id":"4","last_reported":1743423579,"current_range_meters":6800,"station_id":"","pricing_plan_id":"cebpf4jnsgd1na2vs0mg"},{"bike_id":"6abfcf76-b46b-48ec-9741-222295465860","system_id":"levelo_inurba_marseille","lat":43.28616,"lon":5.37052,"is_reserved":false,"is_disabled":false,"rental_uris":{"android":"levelo://app?vid=6abfcf76-b46b-48ec-9741-222295465860","ios":"levelo://app?vid=6abfcf76-b46b-48ec-9741-222295465860"},"vehicle_type_id":"4","last_reported":1743423579,"current_range_meters":6800,"station_id":"ce4bh312rcd13ifvqdj0","pricing_plan_id":"cebpf4jnsgd1na2vs0mg"},{"bike_id":"3cd747c5-8902-42b2-82f0-fd971016a6ea","system_id":"levelo_inurba_marseille","lat":43.3027,"lon":5.37726,"is_reserved":false,"is_disabled":false,"rental_uris":{"android":"levelo://app?vid=3cd747c5-8902-42b2-82f0-fd971016a6ea","ios":"levelo://app?vid=3cd747c5-8902-42b2-82f0-fd971016a6ea"},"vehicle_type_id":"4","last_reported":1743423579,"current_range_meters":6800,"station_id":"ce4bguh2rcd13ifvqcj0","pricing_plan_id":"cebpf4jnsgd1na2vs0mg"},{"bike_id":"33a2857d-fc02-4112-94e5-d394d3d364f0","system_id":"levelo_inurba_marseille","lat":43.31244,"lon":5.36875,"is_reserved":false,"is_disabled":false,"rental_uris":{"android":"levelo://app?vid=33a2857d-fc02-4112-94e5-d394d3d364f0","ios":"levelo://app?vid=33a2857d-fc02-4112-94e5-d394d3d364f0"},"vehicle_type_id":"4","last_reported":1743423579,"current_range_meters":6800,"station_id":"ce4bgl92rcd13ifvqbq0","pricing_plan_id":"cebpf4jnsgd1na2vs0mg"},{"bike_id":"2201fb24-281b-488f-b78d-a2cece1a8ca9","system_id":"levelo_inurba_marseille","lat":43.30547,"lon":5.36533,"is_reserved":false,"is_disabled":false,"rental_uris":{"android":"levelo://app?vid=2201fb24-281b-488f-b78d-a2cece1a8ca9","ios":"levelo://app?vid=2201fb24-281b-488f-b78d-a2cece1a8ca9"},"vehicle_type_id":"4","last_reported":1743423579,"current_range_meters":6800,"station_id":"ce4bgs12rcd13ifvqcag","pricing_plan_id":"cebpf4jnsgd1na2vs0mg"},{"bike_id":"793b1d5c-c6f7-453b-87dd-7d15ceb7ee59","system_id":"levelo_inurba_marseille","lat":43.29214,"lon":5.3608,"is_reserved":false,"is_disabled":false,"rental_uris":{"android":"levelo://app?vid=793b1d5c-c6f7-453b-87dd-7d15ceb7ee59","ios":"levelo://app?vid=793b1d5c-c6f7-453b-87dd-7d15ceb7ee59"},"vehicle_type_id":"4","last_reported":1743423579,"current_range_meters":6800,"station_id":"ce4bhbh2rcd13ifvqeqg","pricing_plan_id":"cebpf4jnsgd1na2vs0mg"},{"bike_id":"3589b9ab-f79a-4dc4-b076-92a9c3e1673e","system_id":"levelo_inurba_marseille","lat":43.27175,"lon":5.40995,"is_reserved":false,"is_disabled":false,"rental_uris":{"android":"levelo://app?vid=3589b9ab-f79a-4dc4-b076-92a9c3e1673e","ios":"levelo://app?vid=3589b9ab-f79a-4dc4-b076-92a9c3e1673e"},"vehicle_type_id":"4","last_reported":1743423579,"current_range_meters":6800,"station_id":"ce4bhl12rcd13ifvqgf0","pricing_plan_id":"cebpf4jnsgd1na2vs0mg"},{"bike_id":"2d59f2e9-2b0d-4dfb-ae4f-753d8607f23f","system_id":"levelo_inurba_marseille","lat":43.24183,"lon":5.39733,"is_reserved":false,"is_disabled":false,"rental_uris":{"android":"levelo://app?vid=2d59f2e9-2b0d-4dfb-ae4f-753d8607f23f","ios":"levelo://app?vid=2d59f2e9-2b0d-4dfb-ae4f-753d8607f23f"},"vehicle_type_id":"4","last_reported":1743423579,"current_range_meters":6800,"station_id":"ce4bhn12rcd13ifvqgpg","pricing_plan_id":"cebpf4jnsgd1na2vs0mg"},{"bike_id":"9d8048cc-0c35-415c-802a-776b5f4ff1b5","system_id":"levelo_inurba_marseille","lat":43.31348,"lon":5.367,"is_reserved":false,"is_disabled":false,"rental_uris":{"android":"levelo://app?vid=9d8048cc-0c35-415c-802a-776b5f4ff1b5","ios":"levelo://app?vid=9d8048cc-0c35-415c-802a-776b5f4ff1b5"},"vehicle_type_id":"4","last_reported":1743423579,"current_range_meters":6800,"station_id":"ce4bgr92rcd13ifvqc6g","pricing_plan_id":"cebpf4jnsgd1na2vs0mg"},{"bike_id":"82d8e203-da64-466b-9b1d-e9f0a9bfebfe","system_id":"levelo_inurba_marseille","lat":43.32538,"lon":5.41483,"is_reserved":false,"is_disabled":true,"rental_uris":{"android":"levelo://app?vid=82d8e203-da64-466b-9b1d-e9f0a9bfebfe","ios":"levelo://app?vid=82d8e203-da64-466b-9b1d-e9f0a9bfebfe"},"vehicle_type_id":"4","last_reported":1743423579,"current_range_meters":7200,"station_id":"ce4bhq12rcd13ifvqhhg","pricing_plan_id":"cebpf4jnsgd1na2vs0mg"},{"bike_id":"85fad29d-07fa-4834-92ea-a24165516ebf","system_id":"levelo_inurba_marseille","lat":43.23118,"lon":5.35447,"is_reserved":false,"is_disabled":false,"rental_uris":{"android":"levelo://app?vid=85fad29d-07fa-4834-92ea-a24165516ebf","ios":"levelo://app?vid=85fad29d-07fa-4834-92ea-a24165516ebf"},"vehicle_type_id":"4","last_reported":1743423579,"current_range_meters":7200,"station_id":"","pricing_plan_id":"cebpf4jnsgd1na2vs0mg"},{"bike_id":"881ac01d-a955-4196-9197-e58e8628b563","system_id":"levelo_inurba_marseille","lat":43.28465,"lon":5.35899,"is_reserved":false,"is_disabled":false,"rental_uris":{"android":"levelo://app?vid=881ac01d-a955-4196-9197-e58e8628b563","ios":"levelo://app?vid=881ac01d-a955-4196-9197-e58e8628b563"},"vehicle_type_id":"4","last_reported":1743423579,"current_range_meters":7200,"station_id":"ce4bhah2rcd13ifvqei0","pricing_plan_id":"cebpf4jnsgd1na2vs0mg"},{"bike_id":"3faa5605-dbda-48c1-b683-206f2a8e0dca","system_id":"levelo_inurba_marseille","lat":43.29277,"lon":5.3766,"is_reserved":false,"is_disabled":false,"rental_uris":{"android":"levelo://app?vid=3faa5605-dbda-48c1-b683-206f2a8e0dca","ios":"levelo://app?vid=3faa5605-dbda-48c1-b683-206f2a8e0dca"},"vehicle_type_id":"4","last_reported":1743423579,"current_range_meters":7200,"station_id":"ce4bgi12rcd13ifvqb80","pricing_plan_id":"cebpf4jnsgd1na2vs0mg"},{"bike_id":"cb8c9ca5-9083-4e86-9e9f-2bc245af5095","system_id":"levelo_inurba_marseille","lat":43.28431,"lon":5.37516,"is_reserved":false,"is_disabled":false,"rental_uris":{"android":"levelo://app?vid=cb8c9ca5-9083-4e86-9e9f-2bc245af5095","ios":"levelo://app?vid=cb8c9ca5-9083-4e86-9e9f-2bc245af5095"},"vehicle_type_id":"4","last_reported":1743423579,"current_range_meters":7200,"station_id":"ce4bh412rcd13ifvqds0","pricing_plan_id":"cebpf4jnsgd1na2vs0mg"},{"bike_id":"5f043ac0-7cd9-4cf8-adee-1f3874e8e8bd","system_id":"levelo_inurba_marseille","lat":43.30558,"lon":5.36504,"is_reserved":false,"is_disabled":false,"rental_uris":{"android":"levelo://app?vid=5f043ac0-7cd9-4cf8-adee-1f3874e8e8bd","ios":"levelo://app?vid=5f043ac0-7cd9-4cf8-adee-1f3874e8e8bd"},"vehicle_type_id":"4","last_reported":1743423579,"current_range_meters":7200,"station_id":"ce4bgs12rcd13ifvqcag","pricing_plan_id":"cebpf4jnsgd1na2vs0mg"},{"bike_id":"58ba954f-d3fd-4cac-abd2-623144afb52a","system_id":"levelo_inurba_marseille","lat":43.22933,"lon":5.35372,"is_reserved":false,"is_disabled":false,"rental_uris":{"android":"levelo://app?vid=58ba954f-d3fd-4cac-abd2-623144afb52a","ios":"levelo://app?vid=58ba954f-d3fd-4cac-abd2-623144afb52a"},"vehicle_type_id":"4","last_reported":1743423579,"current_range_meters":7200,"station_id":"cpo3532slgdg3j2ikp40","pricing_plan_id":"cebpf4jnsgd1na2vs0mg"},{"bike_id":"83955281-dcf7-45af-907a-a6da928b51ec","system_id":"levelo_inurba_marseille","lat":43.29258,"lon":5.37608,"is_reserved":false,"is_disabled":false,"rental_uris":{"android":"levelo://app?vid=83955281-dcf7-45af-907a-a6da928b51ec","ios":"levelo://app?vid=83955281-dcf7-45af-907a-a6da928b51ec"},"vehicle_type_id":"4","last_reported":1743423579,"current_range_meters":7200,"station_id":"ce4bgi12rcd13ifvqb80","pricing_plan_id":"cebpf4jnsgd1na2vs0mg"},{"bike_id":"6948ac7a-e66e-4391-8210-2aedec097489","system_id":"levelo_inurba_marseille","lat":43.26214,"lon":5.37439,"is_reserved":false,"is_disabled":false,"rental_uris":{"android":"levelo://app?vid=6948ac7a-e66e-4391-8210-2aedec097489","ios":"levelo://app?vid=6948ac7a-e66e-4391-8210-2aedec097489"},"vehicle_type_id":"4","last_reported":1743423579,"current_range_meters":8000,"station_id":"ce4bhgp2rcd13ifvqfc0","pricing_plan_id":"cebpf4jnsgd1na2vs0mg"},{"bike_id":"2192b8c5-aa5f-49d8-a2e0-63f51f02bc5e","system_id":"levelo_inurba_marseille","lat":43.29576,"lon":5.39978,"is_reserved":false,"is_disabled":false,"rental_uris":{"android":"levelo://app?vid=2192b8c5-aa5f-49d8-a2e0-63f51f02bc5e","ios":"levelo://app?vid=2192b8c5-aa5f-49d8-a2e0-63f51f02bc5e"},"vehicle_type_id":"4","last_reported":1743423579,"current_range_meters":8000,"station_id":"ce4bh312rcd13ifvqdj0","pricing_plan_id":"cebpf4jnsgd1na2vs0mg"},{"bike_id":"4c450b98-8c16-4e4a-b402-d1ed58ef7aea","system_id":"levelo_inurba_marseille","lat":43.29418,"lon":5.38635,"is_reserved":false,"is_disabled":false,"rental_uris":{"android":"levelo://app?vid=4c450b98-8c16-4e4a-b402-d1ed58ef7aea","ios":"levelo://app?vid=4c450b98-8c16-4e4a-b402-d1ed58ef7aea"},"vehicle_type_id":"4","last_reported":1743423579,"current_range_meters":7200,"station_id":"ce4bh2h2rcd13ifvqdh0","pricing_plan_id":"cebpf4jnsgd1na2vs0mg"},{"bike_id":"cb298ffb-6dc7-4df0-90eb-167e08917df4","system_id":"levelo_inurba_marseille","lat":43.29033,"lon":5.39968,"is_reserved":false,"is_disabled":false,"rental_uris":{"android":"levelo://app?vid=cb298ffb-6dc7-4df0-90eb-167e08917df4","ios":"levelo://app?vid=cb298ffb-6dc7-4df0-90eb-167e08917df4"},"vehicle_type_id":"4","last_reported":1743423579,"current_range_meters":8000,"station_id":"ce4bh392rcd13ifvqdm0","pricing_plan_id":"cebpf4jnsgd1na2vs0mg"},{"bike_id":"7c011078-47b7-4a0f-b490-74bc19e19c7b","system_id":"levelo_inurba_marseille","lat":43.28974,"lon":5.37832,"is_reserved":false,"is_disabled":false,"rental_uris":{"android":"levelo://app?vid=7c011078-47b7-4a0f-b490-74bc19e19c7b","ios":"levelo://app?vid=7c011078-47b7-4a0f-b490-74bc19e19c7b"},"vehicle_type_id":"4","last_reported":1743423579,"current_range_meters":8000,"station_id":"ce4bh9p2rcd13ifvqed0","pricing_plan_id":"cebpf4jnsgd1na2vs0mg"},{"bike_id":"edc95491-3fb4-4303-99a3-3a08426a9e35","system_id":"levelo_inurba_marseille","lat":43.29229,"lon":5.36072,"is_reserved":false,"is_disabled":false,"rental_uris":{"android":"levelo://app?vid=edc95491-3fb4-4303-99a3-3a08426a9e35","ios":"levelo://app?vid=edc95491-3fb4-4303-99a3-3a08426a9e35"},"vehicle_type_id":"4","last_reported":1743423579,"current_range_meters":8000,"station_id":"ce4bhbh2rcd13ifvqeqg","pricing_plan_id":"cebpf4jnsgd1na2vs0mg"},{"bike_id":"452ee7ed-aed5-4f3a-80c1-b63ab3953967","system_id":"levelo_inurba_marseille","lat":43.2794,"lon":5.41044,"is_reserved":false,"is_disabled":false,"rental_uris":{"android":"levelo://app?vid=452ee7ed-aed5-4f3a-80c1-b63ab3953967","ios":"levelo://app?vid=452ee7ed-aed5-4f3a-80c1-b63ab3953967"},"vehicle_type_id":"4","last_reported":1743423579,"current_range_meters":8000,"station_id":"ce4bhnp2rcd13ifvqh0g","pricing_plan_id":"cebpf4jnsgd1na2vs0mg"},{"bike_id":"108d9c1e-d9d6-4e77-938e-cde4ab5281ac","system_id":"levelo_inurba_marseille","lat":43.28613,"lon":5.35112,"is_reserved":false,"is_disabled":false,"rental_uris":{"android":"levelo://app?vid=108d9c1e-d9d6-4e77-938e-cde4ab5281ac","ios":"levelo://app?vid=108d9c1e-d9d6-4e77-938e-cde4ab5281ac"},"vehicle_type_id":"4","last_reported":1743423579,"current_range_meters":8000,"station_id":"ce4bhch2rcd13ifvqeug","pricing_plan_id":"cebpf4jnsgd1na2vs0mg"},{"bike_id":"8105ab87-f1cc-4efc-8e6e-fec6554e830d","system_id":"levelo_inurba_marseille","lat":43.28267,"lon":5.35085,"is_reserved":false,"is_disabled":false,"rental_uris":{"android":"levelo://app?vid=8105ab87-f1cc-4efc-8e6e-fec6554e830d","ios":"levelo://app?vid=8105ab87-f1cc-4efc-8e6e-fec6554e830d"},"vehicle_type_id":"4","last_reported":1743423579,"current_range_meters":8000,"station_id":"ce4bhbp2rcd13ifvqerg","pricing_plan_id":"cebpf4jnsgd1na2vs0mg"},{"bike_id":"279619a8-acbc-4bff-9d66-55e627f85b01","system_id":"levelo_inurba_marseille","lat":43.29845,"lon":5.36268,"is_reserved":false,"is_disabled":false,"rental_uris":{"android":"levelo://app?vid=279619a8-acbc-4bff-9d66-55e627f85b01","ios":"levelo://app?vid=279619a8-acbc-4bff-9d66-55e627f85b01"},"vehicle_type_id":"4","last_reported":1743423579,"current_range_meters":8000,"station_id":"ce4bgpp2rcd13ifvqc3g","pricing_plan_id":"cebpf4jnsgd1na2vs0mg"},{"bike_id":"4a4bf873-80c7-477b-a617-a96db2a1a9eb","system_id":"levelo_inurba_marseille","lat":43.30237,"lon":5.40058,"is_reserved":false,"is_disabled":true,"rental_uris":{"android":"levelo://app?vid=4a4bf873-80c7-477b-a617-a96db2a1a9eb","ios":"levelo://app?vid=4a4bf873-80c7-477b-a617-a96db2a1a9eb"},"vehicle_type_id":"4","last_reported":1743423579,"current_range_meters":8000,"station_id":"ce4bgvh2rcd13ifvqcs0","pricing_plan_id":"cebpf4jnsgd1na2vs0mg"},{"bike_id":"6227088b-8ea7-4271-92b8-c845300adf9a","system_id":"levelo_inurba_marseille","lat":43.32364,"lon":5.36769,"is_reserved":false,"is_disabled":false,"rental_uris":{"android":"levelo://app?vid=6227088b-8ea7-4271-92b8-c845300adf9a","ios":"levelo://app?vid=6227088b-8ea7-4271-92b8-c845300adf9a"},"vehicle_type_id":"4","last_reported":1743423579,"current_range_meters":8000,"station_id":"ce4bhsh2rcd13ifvqi2g","pricing_plan_id":"cebpf4jnsgd1na2vs0mg"},{"bike_id":"e672d27b-9fd8-4a34-be0c-e3809200516c","system_id":"levelo_inurba_marseille","lat":43.27503,"lon":5.424508,"is_reserved":false,"is_disabled":false,"rental_uris":{"android":"levelo://app?vid=e672d27b-9fd8-4a34-be0c-e3809200516c","ios":"levelo://app?vid=e672d27b-9fd8-4a34-be0c-e3809200516c"},"vehicle_type_id":"4","last_reported":1743423579,"current_range_meters":8000,"station_id":"ce4bhn92rcd13ifvqgrg","pricing_plan_id":"cebpf4jnsgd1na2vs0mg"},{"bike_id":"581ad151-a541-416f-8ceb-5952a9da3bdb","system_id":"levelo_inurba_marseille","lat":43.23144,"lon":5.43731,"is_reserved":false,"is_disabled":false,"rental_uris":{"android":"levelo://app?vid=581ad151-a541-416f-8ceb-5952a9da3bdb","ios":"levelo://app?vid=581ad151-a541-416f-8ceb-5952a9da3bdb"},"vehicle_type_id":"4","last_reported":1743423579,"current_range_meters":8000,"station_id":"ce4bhmp2rcd13ifvqgog","pricing_plan_id":"cebpf4jnsgd1na2vs0mg"},{"bike_id":"ef45e999-a007-47ad-a36e-06606dcb9695","system_id":"levelo_inurba_marseille","lat":43.31232,"lon":5.3687,"is_reserved":false,"is_disabled":false,"rental_uris":{"android":"levelo://app?vid=ef45e999-a007-47ad-a36e-06606dcb9695","ios":"levelo://app?vid=ef45e999-a007-47ad-a36e-06606dcb9695"},"vehicle_type_id":"4","last_reported":1743423579,"current_range_meters":8000,"station_id":"ce4bgl92rcd13ifvqbq0","pricing_plan_id":"cebpf4jnsgd1na2vs0mg"},{"bike_id":"26491ca7-548d-4e79-bb88-d6aba04dfcf8","system_id":"levelo_inurba_marseille","lat":43.25077,"lon":5.39514,"is_reserved":false,"is_disabled":false,"rental_uris":{"android":"levelo://app?vid=26491ca7-548d-4e79-bb88-d6aba04dfcf8","ios":"levelo://app?vid=26491ca7-548d-4e79-bb88-d6aba04dfcf8"},"vehicle_type_id":"4","last_reported":1743423579,"current_range_meters":8400,"station_id":"ce4bhm12rcd13ifvqgkg","pricing_plan_id":"cebpf4jnsgd1na2vs0mg"},{"bike_id":"19c4d38c-721f-4a6d-8de0-ad162aee3dc3","system_id":"levelo_inurba_marseille","lat":43.29866,"lon":5.38892,"is_reserved":false,"is_disabled":true,"rental_uris":{"android":"levelo://app?vid=19c4d38c-721f-4a6d-8de0-ad162aee3dc3","ios":"levelo://app?vid=19c4d38c-721f-4a6d-8de0-ad162aee3dc3"},"vehicle_type_id":"4","last_reported":1743423579,"current_range_meters":8400,"station_id":"ce4bh392rcd13ifvqdl0","pricing_plan_id":"cebpf4jnsgd1na2vs0mg"},{"bike_id":"f73b2113-dc63-4846-87fc-f2bd54ccb8f3","system_id":"levelo_inurba_marseille","lat":43.26692,"lon":5.38242,"is_reserved":false,"is_disabled":false,"rental_uris":{"android":"levelo://app?vid=f73b2113-dc63-4846-87fc-f2bd54ccb8f3","ios":"levelo://app?vid=f73b2113-dc63-4846-87fc-f2bd54ccb8f3"},"vehicle_type_id":"4","last_reported":1743423579,"current_range_meters":8400,"station_id":"ce4bhg92rcd13ifvqf90","pricing_plan_id":"cebpf4jnsgd1na2vs0mg"},{"bike_id":"6165c5e1-15f4-4779-ba2f-91df8ba3f8c0","system_id":"levelo_inurba_marseille","lat":43.28932,"lon":5.43054,"is_reserved":false,"is_disabled":false,"rental_uris":{"android":"levelo://app?vid=6165c5e1-15f4-4779-ba2f-91df8ba3f8c0","ios":"levelo://app?vid=6165c5e1-15f4-4779-ba2f-91df8ba3f8c0"},"vehicle_type_id":"4","last_reported":1743423579,"current_range_meters":8400,"station_id":"","pricing_plan_id":"cebpf4jnsgd1na2vs0mg"},{"bike_id":"27848018-a8fe-4164-9516-452d84785e68","system_id":"levelo_inurba_marseille","lat":43.26946,"lon":5.38899,"is_reserved":false,"is_disabled":false,"rental_uris":{"android":"levelo://app?vid=27848018-a8fe-4164-9516-452d84785e68","ios":"levelo://app?vid=27848018-a8fe-4164-9516-452d84785e68"},"vehicle_type_id":"4","last_reported":1743423579,"current_range_meters":8400,"station_id":"ce4bhhh2rcd13ifvqfl0","pricing_plan_id":"cebpf4jnsgd1na2vs0mg"},{"bike_id":"e49e2499-bc96-48e0-ae45-30f98c821f2d","system_id":"levelo_inurba_marseille","lat":43.28259,"lon":5.35067,"is_reserved":false,"is_disabled":false,"rental_uris":{"android":"levelo://app?vid=e49e2499-bc96-48e0-ae45-30f98c821f2d","ios":"levelo://app?vid=e49e2499-bc96-48e0-ae45-30f98c821f2d"},"vehicle_type_id":"4","last_reported":1743423579,"current_range_meters":8400,"station_id":"ce4bhbp2rcd13ifvqerg","pricing_plan_id":"cebpf4jnsgd1na2vs0mg"},{"bike_id":"9fab5df0-7ad0-453e-a9d8-f0bd7a38fdc4","system_id":"levelo_inurba_marseille","lat":43.29048,"lon":5.39965,"is_reserved":false,"is_disabled":false,"rental_uris":{"android":"levelo://app?vid=9fab5df0-7ad0-453e-a9d8-f0bd7a38fdc4","ios":"levelo://app?vid=9fab5df0-7ad0-453e-a9d8-f0bd7a38fdc4"},"vehicle_type_id":"4","last_reported":1743423579,"current_range_meters":8400,"station_id":"ce4bh392rcd13ifvqdm0","pricing_plan_id":"cebpf4jnsgd1na2vs0mg"},{"bike_id":"0048dfd7-a92f-4da1-96eb-62772823ec37","system_id":"levelo_inurba_marseille","lat":43.28276,"lon":5.35072,"is_reserved":false,"is_disabled":false,"rental_uris":{"android":"levelo://app?vid=0048dfd7-a92f-4da1-96eb-62772823ec37","ios":"levelo://app?vid=0048dfd7-a92f-4da1-96eb-62772823ec37"},"vehicle_type_id":"4","last_reported":1743423579,"current_range_meters":8400,"station_id":"ce4bhbp2rcd13ifvqerg","pricing_plan_id":"cebpf4jnsgd1na2vs0mg"},{"bike_id":"4086e7e4-1c92-416b-b6ff-764e48724a6f","system_id":"levelo_inurba_marseille","lat":43.29039,"lon":5.39965,"is_reserved":false,"is_disabled":false,"rental_uris":{"android":"levelo://app?vid=4086e7e4-1c92-416b-b6ff-764e48724a6f","ios":"levelo://app?vid=4086e7e4-1c92-416b-b6ff-764e48724a6f"},"vehicle_type_id":"4","last_reported":1743423579,"current_range_meters":8400,"station_id":"ce4bh392rcd13ifvqdm0","pricing_plan_id":"cebpf4jnsgd1na2vs0mg"},{"bike_id":"eb0fec52-917c-47ad-b1f4-5ceabe4f93ee","system_id":"levelo_inurba_marseille","lat":43.31571,"lon":5.36514,"is_reserved":false,"is_disabled":false,"rental_uris":{"android":"levelo://app?vid=eb0fec52-917c-47ad-b1f4-5ceabe4f93ee","ios":"levelo://app?vid=eb0fec52-917c-47ad-b1f4-5ceabe4f93ee"},"vehicle_type_id":"4","last_reported":1743423579,"current_range_meters":8400,"station_id":"","pricing_plan_id":"cebpf4jnsgd1na2vs0mg"},{"bike_id":"f4ca38a2-6877-412b-a6bb-bbc1dce7d27b","system_id":"levelo_inurba_marseille","lat":43.29213,"lon":5.38083,"is_reserved":false,"is_disabled":false,"rental_uris":{"android":"levelo://app?vid=f4ca38a2-6877-412b-a6bb-bbc1dce7d27b","ios":"levelo://app?vid=f4ca38a2-6877-412b-a6bb-bbc1dce7d27b"},"vehicle_type_id":"4","last_reported":1743423579,"current_range_meters":8400,"station_id":"","pricing_plan_id":"cebpf4jnsgd1na2vs0mg"},{"bike_id":"407b633a-987e-4722-b77a-993eaa06a6b7","system_id":"levelo_inurba_marseille","lat":43.31584,"lon":5.38829,"is_reserved":false,"is_disabled":false,"rental_uris":{"android":"levelo://app?vid=407b633a-987e-4722-b77a-993eaa06a6b7","ios":"levelo://app?vid=407b633a-987e-4722-b77a-993eaa06a6b7"},"vehicle_type_id":"4","last_reported":1743423579,"current_range_meters":8800,"station_id":"","pricing_plan_id":"cebpf4jnsgd1na2vs0mg"},{"bike_id":"99e7d147-e2b6-4982-8a11-f600737d5497","system_id":"levelo_inurba_marseille","lat":43.31795,"lon":5.36802,"is_reserved":false,"is_disabled":false,"rental_uris":{"android":"levelo://app?vid=99e7d147-e2b6-4982-8a11-f600737d5497","ios":"levelo://app?vid=99e7d147-e2b6-4982-8a11-f600737d5497"},"vehicle_type_id":"4","last_reported":1743423579,"current_range_meters":8800,"station_id":"","pricing_plan_id":"cebpf4jnsgd1na2vs0mg"},{"bike_id":"b5876393-9b34-489a-9dee-70a3a1057b9f","system_id":"levelo_inurba_marseille","lat":43.29587,"lon":5.37512,"is_reserved":false,"is_disabled":false,"rental_uris":{"android":"levelo://app?vid=b5876393-9b34-489a-9dee-70a3a1057b9f","ios":"levelo://app?vid=b5876393-9b34-489a-9dee-70a3a1057b9f"},"vehicle_type_id":"4","last_reported":1743423579,"current_range_meters":8800,"station_id":"ce4bgh92rcd13ifvqb50","pricing_plan_id":"cebpf4jnsgd1na2vs0mg"},{"bike_id":"31647d2d-a912-4f0a-ae4e-c927fae7ff1e","system_id":"levelo_inurba_marseille","lat":43.282562,"lon":5.350704,"is_reserved":false,"is_disabled":false,"rental_uris":{"android":"levelo://app?vid=31647d2d-a912-4f0a-ae4e-c927fae7ff1e","ios":"levelo://app?vid=31647d2d-a912-4f0a-ae4e-c927fae7ff1e"},"vehicle_type_id":"4","last_reported":1743423579,"current_range_meters":8800,"station_id":"","pricing_plan_id":"cebpf4jnsgd1na2vs0mg"},{"bike_id":"ca0583b7-5669-4753-8262-d8e09aa9fe38","system_id":"levelo_inurba_marseille","lat":43.30539,"lon":5.36516,"is_reserved":false,"is_disabled":false,"rental_uris":{"android":"levelo://app?vid=ca0583b7-5669-4753-8262-d8e09aa9fe38","ios":"levelo://app?vid=ca0583b7-5669-4753-8262-d8e09aa9fe38"},"vehicle_type_id":"4","last_reported":1743423579,"current_range_meters":8800,"station_id":"ce4bgs12rcd13ifvqcag","pricing_plan_id":"cebpf4jnsgd1na2vs0mg"},{"bike_id":"a60e3e09-6cd5-4953-aff1-f764dfa3fcfa","system_id":"levelo_inurba_marseille","lat":43.33595,"lon":5.40973,"is_reserved":false,"is_disabled":false,"rental_uris":{"android":"levelo://app?vid=a60e3e09-6cd5-4953-aff1-f764dfa3fcfa","ios":"levelo://app?vid=a60e3e09-6cd5-4953-aff1-f764dfa3fcfa"},"vehicle_type_id":"4","last_reported":1743423579,"current_range_meters":8800,"station_id":"ce4bhqh2rcd13ifvqhmg","pricing_plan_id":"cebpf4jnsgd1na2vs0mg"},{"bike_id":"8a423c5b-57f1-4052-9547-c2b64f34ded2","system_id":"levelo_inurba_marseille","lat":43.28272,"lon":5.3508,"is_reserved":false,"is_disabled":false,"rental_uris":{"android":"levelo://app?vid=8a423c5b-57f1-4052-9547-c2b64f34ded2","ios":"levelo://app?vid=8a423c5b-57f1-4052-9547-c2b64f34ded2"},"vehicle_type_id":"4","last_reported":1743423579,"current_range_meters":8800,"station_id":"ce4bhbp2rcd13ifvqerg","pricing_plan_id":"cebpf4jnsgd1na2vs0mg"},{"bike_id":"55ed005a-cf9d-47ac-b4e6-122e563a35eb","system_id":"levelo_inurba_marseille","lat":43.302921,"lon":5.368844,"is_reserved":false,"is_disabled":false,"rental_uris":{"android":"levelo://app?vid=55ed005a-cf9d-47ac-b4e6-122e563a35eb","ios":"levelo://app?vid=55ed005a-cf9d-47ac-b4e6-122e563a35eb"},"vehicle_type_id":"4","last_reported":1743423579,"current_range_meters":8800,"station_id":"ce4bgqh2rcd13ifvqc5g","pricing_plan_id":"cebpf4jnsgd1na2vs0mg"},{"bike_id":"cd4c796a-dd7d-4683-aa9e-b566ad8e8a64","system_id":"levelo_inurba_marseille","lat":43.28615,"lon":5.35104,"is_reserved":false,"is_disabled":false,"rental_uris":{"android":"levelo://app?vid=cd4c796a-dd7d-4683-aa9e-b566ad8e8a64","ios":"levelo://app?vid=cd4c796a-dd7d-4683-aa9e-b566ad8e8a64"},"vehicle_type_id":"4","last_reported":1743423579,"current_range_meters":8800,"station_id":"ce4bhch2rcd13ifvqeug","pricing_plan_id":"cebpf4jnsgd1na2vs0mg"},{"bike_id":"77aec77e-02b4-487c-af3c-59967cc74fff","system_id":"levelo_inurba_marseille","lat":43.29803,"lon":5.38084,"is_reserved":false,"is_disabled":false,"rental_uris":{"android":"levelo://app?vid=77aec77e-02b4-487c-af3c-59967cc74fff","ios":"levelo://app?vid=77aec77e-02b4-487c-af3c-59967cc74fff"},"vehicle_type_id":"4","last_reported":1743423579,"current_range_meters":8800,"station_id":"ce4bgip2rcd13ifvqbb0","pricing_plan_id":"cebpf4jnsgd1na2vs0mg"},{"bike_id":"b8611f7d-ea9a-4ddc-9d0f-d068776895ac","system_id":"levelo_inurba_marseille","lat":43.3149,"lon":5.37313,"is_reserved":false,"is_disabled":false,"rental_uris":{"android":"levelo://app?vid=b8611f7d-ea9a-4ddc-9d0f-d068776895ac","ios":"levelo://app?vid=b8611f7d-ea9a-4ddc-9d0f-d068776895ac"},"vehicle_type_id":"4","last_reported":1743423579,"current_range_meters":8800,"station_id":"ce4bgt12rcd13ifvqcd0","pricing_plan_id":"cebpf4jnsgd1na2vs0mg"},{"bike_id":"b3e97410-c1b2-4369-b878-0aa5bbd817bc","system_id":"levelo_inurba_marseille","lat":43.28433,"lon":5.35931,"is_reserved":false,"is_disabled":true,"rental_uris":{"android":"levelo://app?vid=b3e97410-c1b2-4369-b878-0aa5bbd817bc","ios":"levelo://app?vid=b3e97410-c1b2-4369-b878-0aa5bbd817bc"},"vehicle_type_id":"4","last_reported":1743423579,"current_range_meters":9200,"station_id":"ce4bhah2rcd13ifvqei0","pricing_plan_id":"cebpf4jnsgd1na2vs0mg"},{"bike_id":"f0624621-fe6d-4b37-b117-362a3ffd5763","system_id":"levelo_inurba_marseille","lat":43.2318,"lon":5.39984,"is_reserved":false,"is_disabled":false,"rental_uris":{"android":"levelo://app?vid=f0624621-fe6d-4b37-b117-362a3ffd5763","ios":"levelo://app?vid=f0624621-fe6d-4b37-b117-362a3ffd5763"},"vehicle_type_id":"4","last_reported":1743423579,"current_range_meters":8000,"station_id":"ce4bhn12rcd13ifvqgqg","pricing_plan_id":"cebpf4jnsgd1na2vs0mg"},{"bike_id":"2644fbfd-80f7-4c6a-8510-f85559aae14b","system_id":"levelo_inurba_marseille","lat":43.28922,"lon":5.36408,"is_reserved":false,"is_disabled":true,"rental_uris":{"android":"levelo://app?vid=2644fbfd-80f7-4c6a-8510-f85559aae14b","ios":"levelo://app?vid=2644fbfd-80f7-4c6a-8510-f85559aae14b"},"vehicle_type_id":"4","last_reported":1743423579,"current_range_meters":9200,"station_id":"ce4bhc92rcd13ifvqetg","pricing_plan_id":"cebpf4jnsgd1na2vs0mg"},{"bike_id":"371f4c45-c697-4bdf-a243-45faa9e4d451","system_id":"levelo_inurba_marseille","lat":43.29202,"lon":5.39302,"is_reserved":false,"is_disabled":false,"rental_uris":{"android":"levelo://app?vid=371f4c45-c697-4bdf-a243-45faa9e4d451","ios":"levelo://app?vid=371f4c45-c697-4bdf-a243-45faa9e4d451"},"vehicle_type_id":"4","last_reported":1743423579,"current_range_meters":9200,"station_id":"ce4bh192rcd13ifvqdd0","pricing_plan_id":"cebpf4jnsgd1na2vs0mg"},{"bike_id":"3166b99c-56ba-4dc7-a436-b01ab0995a3b","system_id":"levelo_inurba_marseille","lat":43.241696,"lon":5.397193,"is_reserved":false,"is_disabled":false,"rental_uris":{"android":"levelo://app?vid=3166b99c-56ba-4dc7-a436-b01ab0995a3b","ios":"levelo://app?vid=3166b99c-56ba-4dc7-a436-b01ab0995a3b"},"vehicle_type_id":"4","last_reported":1743423579,"current_range_meters":9200,"station_id":"ce4bhn12rcd13ifvqgpg","pricing_plan_id":"cebpf4jnsgd1na2vs0mg"},{"bike_id":"0aa5d244-d05c-4693-b730-cb7287eaecdf","system_id":"levelo_inurba_marseille","lat":43.28679,"lon":5.35048,"is_reserved":false,"is_disabled":true,"rental_uris":{"android":"levelo://app?vid=0aa5d244-d05c-4693-b730-cb7287eaecdf","ios":"levelo://app?vid=0aa5d244-d05c-4693-b730-cb7287eaecdf"},"vehicle_type_id":"4","last_reported":1743423579,"current_range_meters":9200,"station_id":"","pricing_plan_id":"cebpf4jnsgd1na2vs0mg"},{"bike_id":"b7fd714f-9e42-444f-b394-b6dda2cac0dc","system_id":"levelo_inurba_marseille","lat":43.23153,"lon":5.43715,"is_reserved":false,"is_disabled":false,"rental_uris":{"android":"levelo://app?vid=b7fd714f-9e42-444f-b394-b6dda2cac0dc","ios":"levelo://app?vid=b7fd714f-9e42-444f-b394-b6dda2cac0dc"},"vehicle_type_id":"4","last_reported":1743423579,"current_range_meters":9200,"station_id":"ce4bhmp2rcd13ifvqgog","pricing_plan_id":"cebpf4jnsgd1na2vs0mg"},{"bike_id":"fb8ae3d7-aed2-4e53-b361-916b6a565d76","system_id":"levelo_inurba_marseille","lat":43.22936,"lon":5.35381,"is_reserved":false,"is_disabled":false,"rental_uris":{"android":"levelo://app?vid=fb8ae3d7-aed2-4e53-b361-916b6a565d76","ios":"levelo://app?vid=fb8ae3d7-aed2-4e53-b361-916b6a565d76"},"vehicle_type_id":"4","last_reported":1743423579,"current_range_meters":9200,"station_id":"cpo3532slgdg3j2ikp40","pricing_plan_id":"cebpf4jnsgd1na2vs0mg"},{"bike_id":"17bef81e-42b0-41a3-a518-6b9a0b3bf7b8","system_id":"levelo_inurba_marseille","lat":43.29273,"lon":5.36837,"is_reserved":false,"is_disabled":false,"rental_uris":{"android":"levelo://app?vid=17bef81e-42b0-41a3-a518-6b9a0b3bf7b8","ios":"levelo://app?vid=17bef81e-42b0-41a3-a518-6b9a0b3bf7b8"},"vehicle_type_id":"4","last_reported":1743423579,"current_range_meters":9200,"station_id":"ce4bhbp2rcd13ifvqesg","pricing_plan_id":"cebpf4jnsgd1na2vs0mg"},{"bike_id":"6ad87b50-2b1d-4845-87d7-94cf6d14cd4a","system_id":"levelo_inurba_marseille","lat":43.29358,"lon":5.37843,"is_reserved":false,"is_disabled":false,"rental_uris":{"android":"levelo://app?vid=6ad87b50-2b1d-4845-87d7-94cf6d14cd4a","ios":"levelo://app?vid=6ad87b50-2b1d-4845-87d7-94cf6d14cd4a"},"vehicle_type_id":"4","last_reported":1743423579,"current_range_meters":9200,"station_id":"ce4bgjh2rcd13ifvqbf0","pricing_plan_id":"cebpf4jnsgd1na2vs0mg"},{"bike_id":"204ecd7d-d79a-4494-8305-7c83c69add7d","system_id":"levelo_inurba_marseille","lat":43.256681,"lon":5.419754,"is_reserved":false,"is_disabled":false,"rental_uris":{"android":"levelo://app?vid=204ecd7d-d79a-4494-8305-7c83c69add7d","ios":"levelo://app?vid=204ecd7d-d79a-4494-8305-7c83c69add7d"},"vehicle_type_id":"4","last_reported":1743423579,"current_range_meters":9200,"station_id":"","pricing_plan_id":"cebpf4jnsgd1na2vs0mg"},{"bike_id":"ba1107aa-9b1f-4710-bb75-05314e757fc6","system_id":"levelo_inurba_marseille","lat":43.31704,"lon":5.37242,"is_reserved":false,"is_disabled":false,"rental_uris":{"android":"levelo://app?vid=ba1107aa-9b1f-4710-bb75-05314e757fc6","ios":"levelo://app?vid=ba1107aa-9b1f-4710-bb75-05314e757fc6"},"vehicle_type_id":"4","last_reported":1743423579,"current_range_meters":9200,"station_id":"","pricing_plan_id":"cebpf4jnsgd1na2vs0mg"},{"bike_id":"970d4a28-2e4b-453e-912d-59e6f284b811","system_id":"levelo_inurba_marseille","lat":43.32324,"lon":5.38958,"is_reserved":false,"is_disabled":true,"rental_uris":{"android":"levelo://app?vid=970d4a28-2e4b-453e-912d-59e6f284b811","ios":"levelo://app?vid=970d4a28-2e4b-453e-912d-59e6f284b811"},"vehicle_type_id":"4","last_reported":1743423579,"current_range_meters":9600,"station_id":"ce4bhqp2rcd13ifvqhog","pricing_plan_id":"cebpf4jnsgd1na2vs0mg"},{"bike_id":"121010d1-d0ea-475b-97a6-f9054736109c","system_id":"levelo_inurba_marseille","lat":43.23188,"lon":5.39992,"is_reserved":false,"is_disabled":false,"rental_uris":{"android":"levelo://app?vid=121010d1-d0ea-475b-97a6-f9054736109c","ios":"levelo://app?vid=121010d1-d0ea-475b-97a6-f9054736109c"},"vehicle_type_id":"4","last_reported":1743423579,"current_range_meters":9600,"station_id":"ce4bhn12rcd13ifvqgqg","pricing_plan_id":"cebpf4jnsgd1na2vs0mg"},{"bike_id":"baccc95b-dc02-4cb2-9118-e8e251591db6","system_id":"levelo_inurba_marseille","lat":43.28267,"lon":5.3507,"is_reserved":false,"is_disabled":false,"rental_uris":{"android":"levelo://app?vid=baccc95b-dc02-4cb2-9118-e8e251591db6","ios":"levelo://app?vid=baccc95b-dc02-4cb2-9118-e8e251591db6"},"vehicle_type_id":"4","last_reported":1743423579,"current_range_meters":9600,"station_id":"","pricing_plan_id":"cebpf4jnsgd1na2vs0mg"},{"bike_id":"783e5bda-7030-4090-8a5c-bd62ab2a5ace","system_id":"levelo_inurba_marseille","lat":43.27942,"lon":5.4105,"is_reserved":false,"is_disabled":false,"rental_uris":{"android":"levelo://app?vid=783e5bda-7030-4090-8a5c-bd62ab2a5ace","ios":"levelo://app?vid=783e5bda-7030-4090-8a5c-bd62ab2a5ace"},"vehicle_type_id":"4","last_reported":1743423579,"current_range_meters":9600,"station_id":"ce4bhnp2rcd13ifvqh0g","pricing_plan_id":"cebpf4jnsgd1na2vs0mg"},{"bike_id":"17883c73-0f61-452e-9f07-988d5933a738","system_id":"levelo_inurba_marseille","lat":43.27097,"lon":5.42271,"is_reserved":false,"is_disabled":false,"rental_uris":{"android":"levelo://app?vid=17883c73-0f61-452e-9f07-988d5933a738","ios":"levelo://app?vid=17883c73-0f61-452e-9f07-988d5933a738"},"vehicle_type_id":"4","last_reported":1743423579,"current_range_meters":9600,"station_id":"ce4bhk92rcd13ifvqgb0","pricing_plan_id":"cebpf4jnsgd1na2vs0mg"},{"bike_id":"041f4503-c288-4d97-8a8f-cafcf78d7927","system_id":"levelo_inurba_marseille","lat":43.267969,"lon":5.394158,"is_reserved":false,"is_disabled":false,"rental_uris":{"android":"levelo://app?vid=041f4503-c288-4d97-8a8f-cafcf78d7927","ios":"levelo://app?vid=041f4503-c288-4d97-8a8f-cafcf78d7927"},"vehicle_type_id":"4","last_reported":1743423579,"current_range_meters":9600,"station_id":"ce4bhh12rcd13ifvqfg0","pricing_plan_id":"cebpf4jnsgd1na2vs0mg"},{"bike_id":"2726bfdb-4638-4364-9f4e-00c2e4c7a44d","system_id":"levelo_inurba_marseille","lat":43.32107,"lon":5.36765,"is_reserved":false,"is_disabled":false,"rental_uris":{"android":"levelo://app?vid=2726bfdb-4638-4364-9f4e-00c2e4c7a44d","ios":"levelo://app?vid=2726bfdb-4638-4364-9f4e-00c2e4c7a44d"},"vehicle_type_id":"4","last_reported":1743423579,"current_range_meters":9600,"station_id":"ce4bhrh2rcd13ifvqhug","pricing_plan_id":"cebpf4jnsgd1na2vs0mg"},{"bike_id":"a4380deb-1f92-463f-95a9-67f9c7111b4c","system_id":"levelo_inurba_marseille","lat":43.30169,"lon":5.38104,"is_reserved":false,"is_disabled":true,"rental_uris":{"android":"levelo://app?vid=a4380deb-1f92-463f-95a9-67f9c7111b4c","ios":"levelo://app?vid=a4380deb-1f92-463f-95a9-67f9c7111b4c"},"vehicle_type_id":"4","last_reported":1743423579,"current_range_meters":9600,"station_id":"ce4bgjp2rcd13ifvqbh0","pricing_plan_id":"cebpf4jnsgd1na2vs0mg"},{"bike_id":"b26f9ed2-d145-4f98-9341-61ed46133cda","system_id":"levelo_inurba_marseille","lat":43.31529,"lon":5.37255,"is_reserved":false,"is_disabled":false,"rental_uris":{"android":"levelo://app?vid=b26f9ed2-d145-4f98-9341-61ed46133cda","ios":"levelo://app?vid=b26f9ed2-d145-4f98-9341-61ed46133cda"},"vehicle_type_id":"4","last_reported":1743423579,"current_range_meters":9600,"station_id":"","pricing_plan_id":"cebpf4jnsgd1na2vs0mg"},{"bike_id":"f5467d01-0417-4b7f-a5df-1cb76ab7cbcf","system_id":"levelo_inurba_marseille","lat":43.33648,"lon":5.41004,"is_reserved":false,"is_disabled":false,"rental_uris":{"android":"levelo://app?vid=f5467d01-0417-4b7f-a5df-1cb76ab7cbcf","ios":"levelo://app?vid=f5467d01-0417-4b7f-a5df-1cb76ab7cbcf"},"vehicle_type_id":"4","last_reported":1743423579,"current_range_meters":9600,"station_id":"ce4bhqh2rcd13ifvqhmg","pricing_plan_id":"cebpf4jnsgd1na2vs0mg"},{"bike_id":"c8419348-a5ec-4fe5-9186-6184359afa39","system_id":"levelo_inurba_marseille","lat":43.29041,"lon":5.39965,"is_reserved":false,"is_disabled":false,"rental_uris":{"android":"levelo://app?vid=c8419348-a5ec-4fe5-9186-6184359afa39","ios":"levelo://app?vid=c8419348-a5ec-4fe5-9186-6184359afa39"},"vehicle_type_id":"4","last_reported":1743423579,"current_range_meters":9600,"station_id":"ce4bh392rcd13ifvqdm0","pricing_plan_id":"cebpf4jnsgd1na2vs0mg"},{"bike_id":"300c707c-29a2-49e0-af53-70f8fc27684e","system_id":"levelo_inurba_marseille","lat":43.26937,"lon":5.38649,"is_reserved":false,"is_disabled":false,"rental_uris":{"android":"levelo://app?vid=300c707c-29a2-49e0-af53-70f8fc27684e","ios":"levelo://app?vid=300c707c-29a2-49e0-af53-70f8fc27684e"},"vehicle_type_id":"4","last_reported":1743423579,"current_range_meters":9600,"station_id":"ce4bhh92rcd13ifvqfh0","pricing_plan_id":"cebpf4jnsgd1na2vs0mg"},{"bike_id":"c2bfe4e5-d6f1-44a1-80af-6375f55bf609","system_id":"levelo_inurba_marseille","lat":43.2558,"lon":5.38223,"is_reserved":false,"is_disabled":false,"rental_uris":{"android":"levelo://app?vid=c2bfe4e5-d6f1-44a1-80af-6375f55bf609","ios":"levelo://app?vid=c2bfe4e5-d6f1-44a1-80af-6375f55bf609"},"vehicle_type_id":"4","last_reported":1743423579,"current_range_meters":9600,"station_id":"ce4bhih2rcd13ifvqfs0","pricing_plan_id":"cebpf4jnsgd1na2vs0mg"},{"bike_id":"abe50da3-d276-4e2d-89dc-4ba535cd6c8e","system_id":"levelo_inurba_marseille","lat":43.30906,"lon":5.36835,"is_reserved":false,"is_disabled":false,"rental_uris":{"android":"levelo://app?vid=abe50da3-d276-4e2d-89dc-4ba535cd6c8e","ios":"levelo://app?vid=abe50da3-d276-4e2d-89dc-4ba535cd6c8e"},"vehicle_type_id":"4","last_reported":1743423579,"current_range_meters":10000,"station_id":"ce4bgn92rcd13ifvqbvg","pricing_plan_id":"cebpf4jnsgd1na2vs0mg"},{"bike_id":"565da0c0-4ff1-419e-bc4c-6acea46e9961","system_id":"levelo_inurba_marseille","lat":43.32544,"lon":5.41441,"is_reserved":false,"is_disabled":false,"rental_uris":{"android":"levelo://app?vid=565da0c0-4ff1-419e-bc4c-6acea46e9961","ios":"levelo://app?vid=565da0c0-4ff1-419e-bc4c-6acea46e9961"},"vehicle_type_id":"4","last_reported":1743423579,"current_range_meters":10000,"station_id":"ce4bhq12rcd13ifvqhhg","pricing_plan_id":"cebpf4jnsgd1na2vs0mg"},{"bike_id":"443b1ee5-f3f9-4110-95a2-b62fcdfc5153","system_id":"levelo_inurba_marseille","lat":43.23075,"lon":5.35484,"is_reserved":false,"is_disabled":false,"rental_uris":{"android":"levelo://app?vid=443b1ee5-f3f9-4110-95a2-b62fcdfc5153","ios":"levelo://app?vid=443b1ee5-f3f9-4110-95a2-b62fcdfc5153"},"vehicle_type_id":"4","last_reported":1743423579,"current_range_meters":10000,"station_id":"cpo3342slgdg3j2ifvpg","pricing_plan_id":"cebpf4jnsgd1na2vs0mg"},{"bike_id":"2bf31f9f-c5c0-434c-ab3b-b017d7dc966d","system_id":"levelo_inurba_marseille","lat":43.23065,"lon":5.35485,"is_reserved":false,"is_disabled":false,"rental_uris":{"android":"levelo://app?vid=2bf31f9f-c5c0-434c-ab3b-b017d7dc966d","ios":"levelo://app?vid=2bf31f9f-c5c0-434c-ab3b-b017d7dc966d"},"vehicle_type_id":"4","last_reported":1743423579,"current_range_meters":10000,"station_id":"cpo3342slgdg3j2ifvpg","pricing_plan_id":"cebpf4jnsgd1na2vs0mg"},{"bike_id":"c5eb6efc-e4a6-4f89-aafb-76f23657e243","system_id":"levelo_inurba_marseille","lat":43.282665,"lon":5.350611,"is_reserved":false,"is_disabled":false,"rental_uris":{"android":"levelo://app?vid=c5eb6efc-e4a6-4f89-aafb-76f23657e243","ios":"levelo://app?vid=c5eb6efc-e4a6-4f89-aafb-76f23657e243"},"vehicle_type_id":"4","last_reported":1743423579,"current_range_meters":39200,"station_id":"ce4bhbp2rcd13ifvqerg","pricing_plan_id":"cebpf4jnsgd1na2vs0mg"},{"bike_id":"41e97a14-d6ee-4742-8111-dcea15b15a5b","system_id":"levelo_inurba_marseille","lat":43.2992,"lon":5.37471,"is_reserved":false,"is_disabled":false,"rental_uris":{"android":"levelo://app?vid=41e97a14-d6ee-4742-8111-dcea15b15a5b","ios":"levelo://app?vid=41e97a14-d6ee-4742-8111-dcea15b15a5b"},"vehicle_type_id":"4","last_reported":1743423579,"current_range_meters":10000,"station_id":"ce4bgjh2rcd13ifvqbg0","pricing_plan_id":"cebpf4jnsgd1na2vs0mg"},{"bike_id":"3550a36d-3c45-4392-b638-e4bfcd519444","system_id":"levelo_inurba_marseille","lat":43.29929,"lon":5.38121,"is_reserved":false,"is_disabled":false,"rental_uris":{"android":"levelo://app?vid=3550a36d-3c45-4392-b638-e4bfcd519444","ios":"levelo://app?vid=3550a36d-3c45-4392-b638-e4bfcd519444"},"vehicle_type_id":"4","last_reported":1743423579,"current_range_meters":10000,"station_id":"ce4bgj12rcd13ifvqbc0","pricing_plan_id":"cebpf4jnsgd1na2vs0mg"},{"bike_id":"d2f2ddd5-8dd4-436f-ba30-fd70dfe59da3","system_id":"levelo_inurba_marseille","lat":43.32098,"lon":5.3677,"is_reserved":false,"is_disabled":false,"rental_uris":{"android":"levelo://app?vid=d2f2ddd5-8dd4-436f-ba30-fd70dfe59da3","ios":"levelo://app?vid=d2f2ddd5-8dd4-436f-ba30-fd70dfe59da3"},"vehicle_type_id":"4","last_reported":1743423579,"current_range_meters":10800,"station_id":"ce4bhrh2rcd13ifvqhug","pricing_plan_id":"cebpf4jnsgd1na2vs0mg"},{"bike_id":"8c0baf83-fe6e-4887-8907-067a84dce884","system_id":"levelo_inurba_marseille","lat":43.28415,"lon":5.3499,"is_reserved":false,"is_disabled":true,"rental_uris":{"android":"levelo://app?vid=8c0baf83-fe6e-4887-8907-067a84dce884","ios":"levelo://app?vid=8c0baf83-fe6e-4887-8907-067a84dce884"},"vehicle_type_id":"4","last_reported":1743423579,"current_range_meters":10800,"station_id":"ce4bhbh2rcd13ifvqepg","pricing_plan_id":"cebpf4jnsgd1na2vs0mg"},{"bike_id":"e767ef34-cf95-4987-b411-c92936b80b1e","system_id":"levelo_inurba_marseille","lat":43.288369,"lon":5.384555,"is_reserved":false,"is_disabled":false,"rental_uris":{"android":"levelo://app?vid=e767ef34-cf95-4987-b411-c92936b80b1e","ios":"levelo://app?vid=e767ef34-cf95-4987-b411-c92936b80b1e"},"vehicle_type_id":"4","last_reported":1743423579,"current_range_meters":10800,"station_id":"ce4bgkh2rcd13ifvqbl0","pricing_plan_id":"cebpf4jnsgd1na2vs0mg"},{"bike_id":"0f8f638f-6c59-4dfb-ab4f-882d40e453aa","system_id":"levelo_inurba_marseille","lat":43.29256,"lon":5.42788,"is_reserved":false,"is_disabled":false,"rental_uris":{"android":"levelo://app?vid=0f8f638f-6c59-4dfb-ab4f-882d40e453aa","ios":"levelo://app?vid=0f8f638f-6c59-4dfb-ab4f-882d40e453aa"},"vehicle_type_id":"4","last_reported":1743423579,"current_range_meters":10800,"station_id":"","pricing_plan_id":"cebpf4jnsgd1na2vs0mg"},{"bike_id":"d454fb38-9af5-424b-9ef1-00b2a0e91c70","system_id":"levelo_inurba_marseille","lat":43.22928,"lon":5.35377,"is_reserved":false,"is_disabled":false,"rental_uris":{"android":"levelo://app?vid=d454fb38-9af5-424b-9ef1-00b2a0e91c70","ios":"levelo://app?vid=d454fb38-9af5-424b-9ef1-00b2a0e91c70"},"vehicle_type_id":"4","last_reported":1743423579,"current_range_meters":10800,"station_id":"cpo3532slgdg3j2ikp40","pricing_plan_id":"cebpf4jnsgd1na2vs0mg"},{"bike_id":"bbef9ff3-3e97-4306-833d-96e1492418a0","system_id":"levelo_inurba_marseille","lat":43.32354,"lon":5.38883,"is_reserved":false,"is_disabled":false,"rental_uris":{"android":"levelo://app?vid=bbef9ff3-3e97-4306-833d-96e1492418a0","ios":"levelo://app?vid=bbef9ff3-3e97-4306-833d-96e1492418a0"},"vehicle_type_id":"4","last_reported":1743423579,"current_range_meters":10800,"station_id":"ce4bhqp2rcd13ifvqhog","pricing_plan_id":"cebpf4jnsgd1na2vs0mg"},{"bike_id":"e1018b80-f053-4a21-9f47-881ae728173a","system_id":"levelo_inurba_marseille","lat":43.23151,"lon":5.43722,"is_reserved":false,"is_disabled":false,"rental_uris":{"android":"levelo://app?vid=e1018b80-f053-4a21-9f47-881ae728173a","ios":"levelo://app?vid=e1018b80-f053-4a21-9f47-881ae728173a"},"vehicle_type_id":"4","last_reported":1743423579,"current_range_meters":10800,"station_id":"ce4bhmp2rcd13ifvqgog","pricing_plan_id":"cebpf4jnsgd1na2vs0mg"},{"bike_id":"6fa97106-103e-4571-85c0-458067ed9648","system_id":"levelo_inurba_marseille","lat":43.22925,"lon":5.3538,"is_reserved":false,"is_disabled":false,"rental_uris":{"android":"levelo://app?vid=6fa97106-103e-4571-85c0-458067ed9648","ios":"levelo://app?vid=6fa97106-103e-4571-85c0-458067ed9648"},"vehicle_type_id":"4","last_reported":1743423579,"current_range_meters":11200,"station_id":"cpo3532slgdg3j2ikp40","pricing_plan_id":"cebpf4jnsgd1na2vs0mg"},{"bike_id":"bc13dc0a-b1df-49bc-8d94-766b9dbb5d31","system_id":"levelo_inurba_marseille","lat":43.267764,"lon":5.394219,"is_reserved":false,"is_disabled":false,"rental_uris":{"android":"levelo://app?vid=bc13dc0a-b1df-49bc-8d94-766b9dbb5d31","ios":"levelo://app?vid=bc13dc0a-b1df-49bc-8d94-766b9dbb5d31"},"vehicle_type_id":"4","last_reported":1743423579,"current_range_meters":10800,"station_id":"ce4bhh12rcd13ifvqfg0","pricing_plan_id":"cebpf4jnsgd1na2vs0mg"},{"bike_id":"24aeb6db-a1a4-4c4b-913d-83612f84d7f2","system_id":"levelo_inurba_marseille","lat":43.3135,"lon":5.36725,"is_reserved":false,"is_disabled":false,"rental_uris":{"android":"levelo://app?vid=24aeb6db-a1a4-4c4b-913d-83612f84d7f2","ios":"levelo://app?vid=24aeb6db-a1a4-4c4b-913d-83612f84d7f2"},"vehicle_type_id":"4","last_reported":1743423579,"current_range_meters":11200,"station_id":"ce4bgr92rcd13ifvqc6g","pricing_plan_id":"cebpf4jnsgd1na2vs0mg"},{"bike_id":"a49051c8-5f06-4471-9ba7-c2f53f6d878a","system_id":"levelo_inurba_marseille","lat":43.28417,"lon":5.34994,"is_reserved":false,"is_disabled":false,"rental_uris":{"android":"levelo://app?vid=a49051c8-5f06-4471-9ba7-c2f53f6d878a","ios":"levelo://app?vid=a49051c8-5f06-4471-9ba7-c2f53f6d878a"},"vehicle_type_id":"4","last_reported":1743423579,"current_range_meters":11200,"station_id":"ce4bhbh2rcd13ifvqepg","pricing_plan_id":"cebpf4jnsgd1na2vs0mg"},{"bike_id":"4f8748bf-a7d6-46ca-b35d-3dd5386769db","system_id":"levelo_inurba_marseille","lat":43.2796,"lon":5.38735,"is_reserved":false,"is_disabled":false,"rental_uris":{"android":"levelo://app?vid=4f8748bf-a7d6-46ca-b35d-3dd5386769db","ios":"levelo://app?vid=4f8748bf-a7d6-46ca-b35d-3dd5386769db"},"vehicle_type_id":"4","last_reported":1743423579,"current_range_meters":11200,"station_id":"ce4bhg12rcd13ifvqf80","pricing_plan_id":"cebpf4jnsgd1na2vs0mg"},{"bike_id":"8fa5fb11-10c8-4bed-b75c-83f4c72259ad","system_id":"levelo_inurba_marseille","lat":43.32376,"lon":5.3676,"is_reserved":false,"is_disabled":false,"rental_uris":{"android":"levelo://app?vid=8fa5fb11-10c8-4bed-b75c-83f4c72259ad","ios":"levelo://app?vid=8fa5fb11-10c8-4bed-b75c-83f4c72259ad"},"vehicle_type_id":"4","last_reported":1743423579,"current_range_meters":11200,"station_id":"ce4bhsh2rcd13ifvqi2g","pricing_plan_id":"cebpf4jnsgd1na2vs0mg"},{"bike_id":"5c0e63be-1fcb-4a9d-9fe1-aa707b336b8b","system_id":"levelo_inurba_marseille","lat":43.30488,"lon":5.379,"is_reserved":false,"is_disabled":false,"rental_uris":{"android":"levelo://app?vid=5c0e63be-1fcb-4a9d-9fe1-aa707b336b8b","ios":"levelo://app?vid=5c0e63be-1fcb-4a9d-9fe1-aa707b336b8b"},"vehicle_type_id":"4","last_reported":1743423579,"current_range_meters":11200,"station_id":"ce4bgup2rcd13ifvqcn0","pricing_plan_id":"cebpf4jnsgd1na2vs0mg"},{"bike_id":"5f1b71ed-f979-467c-8b94-862d7dae73db","system_id":"levelo_inurba_marseille","lat":43.29219,"lon":5.36059,"is_reserved":false,"is_disabled":false,"rental_uris":{"android":"levelo://app?vid=5f1b71ed-f979-467c-8b94-862d7dae73db","ios":"levelo://app?vid=5f1b71ed-f979-467c-8b94-862d7dae73db"},"vehicle_type_id":"4","last_reported":1743423579,"current_range_meters":11200,"station_id":"ce4bhbh2rcd13ifvqeqg","pricing_plan_id":"cebpf4jnsgd1na2vs0mg"},{"bike_id":"a54fedf0-6f0a-4100-9877-2bb71fb50fb5","system_id":"levelo_inurba_marseille","lat":43.23148,"lon":5.43728,"is_reserved":false,"is_disabled":false,"rental_uris":{"android":"levelo://app?vid=a54fedf0-6f0a-4100-9877-2bb71fb50fb5","ios":"levelo://app?vid=a54fedf0-6f0a-4100-9877-2bb71fb50fb5"},"vehicle_type_id":"4","last_reported":1743423579,"current_range_meters":11200,"station_id":"ce4bhmp2rcd13ifvqgog","pricing_plan_id":"cebpf4jnsgd1na2vs0mg"},{"bike_id":"668c01cb-7bea-48c9-8f15-6bcc0c19c832","system_id":"levelo_inurba_marseille","lat":43.262093,"lon":5.379287,"is_reserved":false,"is_disabled":true,"rental_uris":{"android":"levelo://app?vid=668c01cb-7bea-48c9-8f15-6bcc0c19c832","ios":"levelo://app?vid=668c01cb-7bea-48c9-8f15-6bcc0c19c832"},"vehicle_type_id":"4","last_reported":1743423579,"current_range_meters":11600,"station_id":"ce4bhjp2rcd13ifvqg90","pricing_plan_id":"cebpf4jnsgd1na2vs0mg"},{"bike_id":"24a26cc1-e86a-4373-bbfa-fe2533da907a","system_id":"levelo_inurba_marseille","lat":43.30547,"lon":5.36691,"is_reserved":false,"is_disabled":false,"rental_uris":{"android":"levelo://app?vid=24a26cc1-e86a-4373-bbfa-fe2533da907a","ios":"levelo://app?vid=24a26cc1-e86a-4373-bbfa-fe2533da907a"},"vehicle_type_id":"4","last_reported":1743423579,"current_range_meters":11600,"station_id":"ce4bgrp2rcd13ifvqc9g","pricing_plan_id":"cebpf4jnsgd1na2vs0mg"},{"bike_id":"92fc1d36-1fe7-4bcf-b2c5-fc0e570ebf39","system_id":"levelo_inurba_marseille","lat":43.30547,"lon":5.36536,"is_reserved":false,"is_disabled":false,"rental_uris":{"android":"levelo://app?vid=92fc1d36-1fe7-4bcf-b2c5-fc0e570ebf39","ios":"levelo://app?vid=92fc1d36-1fe7-4bcf-b2c5-fc0e570ebf39"},"vehicle_type_id":"4","last_reported":1743423579,"current_range_meters":11600,"station_id":"ce4bgs12rcd13ifvqcag","pricing_plan_id":"cebpf4jnsgd1na2vs0mg"},{"bike_id":"56bc3ee7-0e40-4a57-962b-7d61f655e6ed","system_id":"levelo_inurba_marseille","lat":43.311801,"lon":5.387152,"is_reserved":false,"is_disabled":false,"rental_uris":{"android":"levelo://app?vid=56bc3ee7-0e40-4a57-962b-7d61f655e6ed","ios":"levelo://app?vid=56bc3ee7-0e40-4a57-962b-7d61f655e6ed"},"vehicle_type_id":"4","last_reported":1743423579,"current_range_meters":11600,"station_id":"ce4bhsp2rcd13ifvqi50","pricing_plan_id":"cebpf4jnsgd1na2vs0mg"},{"bike_id":"40fc1955-f396-4e9a-9aa9-18d596af8ef1","system_id":"levelo_inurba_marseille","lat":43.24084,"lon":5.37755,"is_reserved":false,"is_disabled":false,"rental_uris":{"android":"levelo://app?vid=40fc1955-f396-4e9a-9aa9-18d596af8ef1","ios":"levelo://app?vid=40fc1955-f396-4e9a-9aa9-18d596af8ef1"},"vehicle_type_id":"4","last_reported":1743423579,"current_range_meters":11600,"station_id":"ce4bhnp2rcd13ifvqgvg","pricing_plan_id":"cebpf4jnsgd1na2vs0mg"},{"bike_id":"12aaffa5-3169-4682-a182-3974f5644d90","system_id":"levelo_inurba_marseille","lat":43.27052,"lon":5.42275,"is_reserved":false,"is_disabled":false,"rental_uris":{"android":"levelo://app?vid=12aaffa5-3169-4682-a182-3974f5644d90","ios":"levelo://app?vid=12aaffa5-3169-4682-a182-3974f5644d90"},"vehicle_type_id":"4","last_reported":1743423579,"current_range_meters":12000,"station_id":"ce4bhk92rcd13ifvqgb0","pricing_plan_id":"cebpf4jnsgd1na2vs0mg"},{"bike_id":"44c04e16-1ae6-427a-b4ce-db3a66e13208","system_id":"levelo_inurba_marseille","lat":43.28461,"lon":5.35878,"is_reserved":false,"is_disabled":false,"rental_uris":{"android":"levelo://app?vid=44c04e16-1ae6-427a-b4ce-db3a66e13208","ios":"levelo://app?vid=44c04e16-1ae6-427a-b4ce-db3a66e13208"},"vehicle_type_id":"4","last_reported":1743423579,"current_range_meters":12000,"station_id":"ce4bhah2rcd13ifvqei0","pricing_plan_id":"cebpf4jnsgd1na2vs0mg"},{"bike_id":"e3ed6a7b-116d-4bce-98f8-0c4519635233","system_id":"levelo_inurba_marseille","lat":43.31957,"lon":5.37431,"is_reserved":false,"is_disabled":false,"rental_uris":{"android":"levelo://app?vid=e3ed6a7b-116d-4bce-98f8-0c4519635233","ios":"levelo://app?vid=e3ed6a7b-116d-4bce-98f8-0c4519635233"},"vehicle_type_id":"4","last_reported":1743423579,"current_range_meters":12000,"station_id":"","pricing_plan_id":"cebpf4jnsgd1na2vs0mg"},{"bike_id":"781e4fad-e8e0-41bd-9fc7-1331b936d0b1","system_id":"levelo_inurba_marseille","lat":43.28419,"lon":5.35001,"is_reserved":false,"is_disabled":false,"rental_uris":{"android":"levelo://app?vid=781e4fad-e8e0-41bd-9fc7-1331b936d0b1","ios":"levelo://app?vid=781e4fad-e8e0-41bd-9fc7-1331b936d0b1"},"vehicle_type_id":"4","last_reported":1743423579,"current_range_meters":12000,"station_id":"ce4bhbh2rcd13ifvqepg","pricing_plan_id":"cebpf4jnsgd1na2vs0mg"},{"bike_id":"9a3e6852-1cac-4eee-8b08-e39f46b7d625","system_id":"levelo_inurba_marseille","lat":43.2816,"lon":5.42647,"is_reserved":false,"is_disabled":false,"rental_uris":{"android":"levelo://app?vid=9a3e6852-1cac-4eee-8b08-e39f46b7d625","ios":"levelo://app?vid=9a3e6852-1cac-4eee-8b08-e39f46b7d625"},"vehicle_type_id":"4","last_reported":1743423579,"current_range_meters":12000,"station_id":"ce4bhnh2rcd13ifvqgug","pricing_plan_id":"cebpf4jnsgd1na2vs0mg"},{"bike_id":"d2bb26f5-644f-41fa-a131-f7ca88ccae5a","system_id":"levelo_inurba_marseille","lat":43.31496,"lon":5.37261,"is_reserved":false,"is_disabled":false,"rental_uris":{"android":"levelo://app?vid=d2bb26f5-644f-41fa-a131-f7ca88ccae5a","ios":"levelo://app?vid=d2bb26f5-644f-41fa-a131-f7ca88ccae5a"},"vehicle_type_id":"4","last_reported":1743423579,"current_range_meters":12000,"station_id":"ce4bgt12rcd13ifvqcd0","pricing_plan_id":"cebpf4jnsgd1na2vs0mg"},{"bike_id":"58990e2d-56e6-4047-8e7f-43f642cd6cb8","system_id":"levelo_inurba_marseille","lat":43.30459,"lon":5.37891,"is_reserved":false,"is_disabled":false,"rental_uris":{"android":"levelo://app?vid=58990e2d-56e6-4047-8e7f-43f642cd6cb8","ios":"levelo://app?vid=58990e2d-56e6-4047-8e7f-43f642cd6cb8"},"vehicle_type_id":"4","last_reported":1743423579,"current_range_meters":9200,"station_id":"ce4bgup2rcd13ifvqcn0","pricing_plan_id":"cebpf4jnsgd1na2vs0mg"},{"bike_id":"2b480e4b-b8a7-4f29-8488-c72025a00414","system_id":"levelo_inurba_marseille","lat":43.30459,"lon":5.37894,"is_reserved":false,"is_disabled":false,"rental_uris":{"android":"levelo://app?vid=2b480e4b-b8a7-4f29-8488-c72025a00414","ios":"levelo://app?vid=2b480e4b-b8a7-4f29-8488-c72025a00414"},"vehicle_type_id":"4","last_reported":1743423579,"current_range_meters":12400,"station_id":"ce4bgup2rcd13ifvqcn0","pricing_plan_id":"cebpf4jnsgd1na2vs0mg"},{"bike_id":"551c7814-8076-4afd-bae1-59f4c8d83499","system_id":"levelo_inurba_marseille","lat":43.25584,"lon":5.38228,"is_reserved":false,"is_disabled":false,"rental_uris":{"android":"levelo://app?vid=551c7814-8076-4afd-bae1-59f4c8d83499","ios":"levelo://app?vid=551c7814-8076-4afd-bae1-59f4c8d83499"},"vehicle_type_id":"4","last_reported":1743423579,"current_range_meters":12400,"station_id":"ce4bhih2rcd13ifvqfs0","pricing_plan_id":"cebpf4jnsgd1na2vs0mg"},{"bike_id":"7b976bd3-c7fd-4879-a2e8-3d0c377ea7ed","system_id":"levelo_inurba_marseille","lat":43.298398,"lon":5.362777,"is_reserved":false,"is_disabled":false,"rental_uris":{"android":"levelo://app?vid=7b976bd3-c7fd-4879-a2e8-3d0c377ea7ed","ios":"levelo://app?vid=7b976bd3-c7fd-4879-a2e8-3d0c377ea7ed"},"vehicle_type_id":"4","last_reported":1743423579,"current_range_meters":12400,"station_id":"ce4bhbp2rcd13ifvqerg","pricing_plan_id":"cebpf4jnsgd1na2vs0mg"},{"bike_id":"a504bf46-cc2f-461c-a29a-6c2279237a43","system_id":"levelo_inurba_marseille","lat":43.29205,"lon":5.3581,"is_reserved":false,"is_disabled":false,"rental_uris":{"android":"levelo://app?vid=a504bf46-cc2f-461c-a29a-6c2279237a43","ios":"levelo://app?vid=a504bf46-cc2f-461c-a29a-6c2279237a43"},"vehicle_type_id":"4","last_reported":1743423579,"current_range_meters":12400,"station_id":"ce4bhb12rcd13ifvqel0","pricing_plan_id":"cebpf4jnsgd1na2vs0mg"},{"bike_id":"71ce3f55-7859-409c-a423-4ca58717f75b","system_id":"levelo_inurba_marseille","lat":43.3236,"lon":5.38887,"is_reserved":false,"is_disabled":false,"rental_uris":{"android":"levelo://app?vid=71ce3f55-7859-409c-a423-4ca58717f75b","ios":"levelo://app?vid=71ce3f55-7859-409c-a423-4ca58717f75b"},"vehicle_type_id":"4","last_reported":1743423579,"current_range_meters":12800,"station_id":"ce4bhqp2rcd13ifvqhog","pricing_plan_id":"cebpf4jnsgd1na2vs0mg"},{"bike_id":"175bf96e-f60e-4896-8750-ac5a7a12912b","system_id":"levelo_inurba_marseille","lat":43.23154,"lon":5.43722,"is_reserved":false,"is_disabled":false,"rental_uris":{"android":"levelo://app?vid=175bf96e-f60e-4896-8750-ac5a7a12912b","ios":"levelo://app?vid=175bf96e-f60e-4896-8750-ac5a7a12912b"},"vehicle_type_id":"4","last_reported":1743423579,"current_range_meters":12800,"station_id":"ce4bhmp2rcd13ifvqgog","pricing_plan_id":"cebpf4jnsgd1na2vs0mg"},{"bike_id":"ac74822a-6f30-45ed-8b29-5edf5b670444","system_id":"levelo_inurba_marseille","lat":43.24066,"lon":5.37741,"is_reserved":false,"is_disabled":false,"rental_uris":{"android":"levelo://app?vid=ac74822a-6f30-45ed-8b29-5edf5b670444","ios":"levelo://app?vid=ac74822a-6f30-45ed-8b29-5edf5b670444"},"vehicle_type_id":"4","last_reported":1743423579,"current_range_meters":12800,"station_id":"ce4bhnp2rcd13ifvqgvg","pricing_plan_id":"cebpf4jnsgd1na2vs0mg"},{"bike_id":"33ac7997-e875-45e5-a20f-760ee6b4a597","system_id":"levelo_inurba_marseille","lat":43.25913,"lon":5.40873,"is_reserved":false,"is_disabled":false,"rental_uris":{"android":"levelo://app?vid=33ac7997-e875-45e5-a20f-760ee6b4a597","ios":"levelo://app?vid=33ac7997-e875-45e5-a20f-760ee6b4a597"},"vehicle_type_id":"4","last_reported":1743423579,"current_range_meters":12800,"station_id":"ce4bhm92rcd13ifvqglg","pricing_plan_id":"cebpf4jnsgd1na2vs0mg"},{"bike_id":"7600e00f-345b-474f-bf8f-5d0482aa16fc","system_id":"levelo_inurba_marseille","lat":43.26958,"lon":5.38649,"is_reserved":false,"is_disabled":false,"rental_uris":{"android":"levelo://app?vid=7600e00f-345b-474f-bf8f-5d0482aa16fc","ios":"levelo://app?vid=7600e00f-345b-474f-bf8f-5d0482aa16fc"},"vehicle_type_id":"4","last_reported":1743423579,"current_range_meters":12800,"station_id":"ce4bhh92rcd13ifvqfh0","pricing_plan_id":"cebpf4jnsgd1na2vs0mg"},{"bike_id":"f41e2eef-3409-4d82-b478-b6958ffb7ce8","system_id":"levelo_inurba_marseille","lat":43.24165,"lon":5.36401,"is_reserved":false,"is_disabled":false,"rental_uris":{"android":"levelo://app?vid=f41e2eef-3409-4d82-b478-b6958ffb7ce8","ios":"levelo://app?vid=f41e2eef-3409-4d82-b478-b6958ffb7ce8"},"vehicle_type_id":"4","last_reported":1743423579,"current_range_meters":12800,"station_id":"cpo36qri1sfpv3e86is0","pricing_plan_id":"cebpf4jnsgd1na2vs0mg"},{"bike_id":"fd63be84-051e-408d-b006-77fc7d83d3c7","system_id":"levelo_inurba_marseille","lat":43.32247,"lon":5.39413,"is_reserved":false,"is_disabled":false,"rental_uris":{"android":"levelo://app?vid=fd63be84-051e-408d-b006-77fc7d83d3c7","ios":"levelo://app?vid=fd63be84-051e-408d-b006-77fc7d83d3c7"},"vehicle_type_id":"4","last_reported":1743423579,"current_range_meters":12800,"station_id":"","pricing_plan_id":"cebpf4jnsgd1na2vs0mg"},{"bike_id":"24f0f894-508f-40fb-aeed-32024579dc62","system_id":"levelo_inurba_marseille","lat":43.27675,"lon":5.38862,"is_reserved":false,"is_disabled":false,"rental_uris":{"android":"levelo://app?vid=24f0f894-508f-40fb-aeed-32024579dc62","ios":"levelo://app?vid=24f0f894-508f-40fb-aeed-32024579dc62"},"vehicle_type_id":"4","last_reported":1743423579,"current_range_meters":12800,"station_id":"ce4bhi12rcd13ifvqfo0","pricing_plan_id":"cebpf4jnsgd1na2vs0mg"},{"bike_id":"878d9a23-741b-4fd2-9316-5e91e2e4a0fd","system_id":"levelo_inurba_marseille","lat":43.24388,"lon":5.37057,"is_reserved":false,"is_disabled":false,"rental_uris":{"android":"levelo://app?vid=878d9a23-741b-4fd2-9316-5e91e2e4a0fd","ios":"levelo://app?vid=878d9a23-741b-4fd2-9316-5e91e2e4a0fd"},"vehicle_type_id":"4","last_reported":1743423579,"current_range_meters":13600,"station_id":"ce4bhhh2rcd13ifvqfk0","pricing_plan_id":"cebpf4jnsgd1na2vs0mg"},{"bike_id":"302c0b25-ab10-4b15-acb1-1403a8534360","system_id":"levelo_inurba_marseille","lat":43.30536,"lon":5.36536,"is_reserved":false,"is_disabled":false,"rental_uris":{"android":"levelo://app?vid=302c0b25-ab10-4b15-acb1-1403a8534360","ios":"levelo://app?vid=302c0b25-ab10-4b15-acb1-1403a8534360"},"vehicle_type_id":"4","last_reported":1743423579,"current_range_meters":13600,"station_id":"ce4bgs12rcd13ifvqcag","pricing_plan_id":"cebpf4jnsgd1na2vs0mg"},{"bike_id":"db08de12-6427-451b-a492-1705d65dd984","system_id":"levelo_inurba_marseille","lat":43.29575,"lon":5.39969,"is_reserved":false,"is_disabled":false,"rental_uris":{"android":"levelo://app?vid=db08de12-6427-451b-a492-1705d65dd984","ios":"levelo://app?vid=db08de12-6427-451b-a492-1705d65dd984"},"vehicle_type_id":"4","last_reported":1743423579,"current_range_meters":13600,"station_id":"ce4bh312rcd13ifvqdj0","pricing_plan_id":"cebpf4jnsgd1na2vs0mg"},{"bike_id":"2256a5a9-cce1-418d-8e93-736359c5f021","system_id":"levelo_inurba_marseille","lat":43.23138,"lon":5.43689,"is_reserved":false,"is_disabled":false,"rental_uris":{"android":"levelo://app?vid=2256a5a9-cce1-418d-8e93-736359c5f021","ios":"levelo://app?vid=2256a5a9-cce1-418d-8e93-736359c5f021"},"vehicle_type_id":"4","last_reported":1743423579,"current_range_meters":13600,"station_id":"ce4bhmp2rcd13ifvqgog","pricing_plan_id":"cebpf4jnsgd1na2vs0mg"},{"bike_id":"baec37f7-870b-4361-b496-4543a7cae567","system_id":"levelo_inurba_marseille","lat":43.256384,"lon":5.393604,"is_reserved":false,"is_disabled":false,"rental_uris":{"android":"levelo://app?vid=baec37f7-870b-4361-b496-4543a7cae567","ios":"levelo://app?vid=baec37f7-870b-4361-b496-4543a7cae567"},"vehicle_type_id":"4","last_reported":1743423579,"current_range_meters":13600,"station_id":"ce4bhip2rcd13ifvqft0","pricing_plan_id":"cebpf4jnsgd1na2vs0mg"},{"bike_id":"14dbde08-445d-4763-975e-ba983f0efa59","system_id":"levelo_inurba_marseille","lat":43.26787,"lon":5.39411,"is_reserved":false,"is_disabled":false,"rental_uris":{"android":"levelo://app?vid=14dbde08-445d-4763-975e-ba983f0efa59","ios":"levelo://app?vid=14dbde08-445d-4763-975e-ba983f0efa59"},"vehicle_type_id":"4","last_reported":1743423579,"current_range_meters":14000,"station_id":"ce4bhh12rcd13ifvqfg0","pricing_plan_id":"cebpf4jnsgd1na2vs0mg"},{"bike_id":"b0130801-9806-4f3e-883c-3c633f07de26","system_id":"levelo_inurba_marseille","lat":43.31222,"lon":5.36856,"is_reserved":false,"is_disabled":false,"rental_uris":{"android":"levelo://app?vid=b0130801-9806-4f3e-883c-3c633f07de26","ios":"levelo://app?vid=b0130801-9806-4f3e-883c-3c633f07de26"},"vehicle_type_id":"4","last_reported":1743423579,"current_range_meters":13600,"station_id":"ce4bgl92rcd13ifvqbq0","pricing_plan_id":"cebpf4jnsgd1na2vs0mg"},{"bike_id":"c3727a8f-3883-4457-ae61-5d2373be8ae3","system_id":"levelo_inurba_marseille","lat":43.29778,"lon":5.38099,"is_reserved":false,"is_disabled":false,"rental_uris":{"android":"levelo://app?vid=c3727a8f-3883-4457-ae61-5d2373be8ae3","ios":"levelo://app?vid=c3727a8f-3883-4457-ae61-5d2373be8ae3"},"vehicle_type_id":"4","last_reported":1743423579,"current_range_meters":14000,"station_id":"ce4bgip2rcd13ifvqbb0","pricing_plan_id":"cebpf4jnsgd1na2vs0mg"},{"bike_id":"9cb6d533-0e16-46cc-8f7f-684954ea4960","system_id":"levelo_inurba_marseille","lat":43.33024,"lon":5.39045,"is_reserved":false,"is_disabled":false,"rental_uris":{"android":"levelo://app?vid=9cb6d533-0e16-46cc-8f7f-684954ea4960","ios":"levelo://app?vid=9cb6d533-0e16-46cc-8f7f-684954ea4960"},"vehicle_type_id":"4","last_reported":1743423579,"current_range_meters":14000,"station_id":"ce4bhr92rcd13ifvqhrg","pricing_plan_id":"cebpf4jnsgd1na2vs0mg"},{"bike_id":"46e1460c-8942-4b4a-a759-c3764ae593d2","system_id":"levelo_inurba_marseille","lat":43.29904,"lon":5.37482,"is_reserved":false,"is_disabled":false,"rental_uris":{"android":"levelo://app?vid=46e1460c-8942-4b4a-a759-c3764ae593d2","ios":"levelo://app?vid=46e1460c-8942-4b4a-a759-c3764ae593d2"},"vehicle_type_id":"4","last_reported":1743423579,"current_range_meters":14000,"station_id":"ce4bgjh2rcd13ifvqbg0","pricing_plan_id":"cebpf4jnsgd1na2vs0mg"},{"bike_id":"08ec7404-2552-4f7d-b097-ca212ac85960","system_id":"levelo_inurba_marseille","lat":43.27909,"lon":5.3802,"is_reserved":false,"is_disabled":false,"rental_uris":{"android":"levelo://app?vid=08ec7404-2552-4f7d-b097-ca212ac85960","ios":"levelo://app?vid=08ec7404-2552-4f7d-b097-ca212ac85960"},"vehicle_type_id":"4","last_reported":1743423579,"current_range_meters":14000,"station_id":"ce4bhf92rcd13ifvqf50","pricing_plan_id":"cebpf4jnsgd1na2vs0mg"},{"bike_id":"7a894edd-a4a4-40de-8b70-ca9fb3d5e3fd","system_id":"levelo_inurba_marseille","lat":43.31088,"lon":5.42442,"is_reserved":false,"is_disabled":false,"rental_uris":{"android":"levelo://app?vid=7a894edd-a4a4-40de-8b70-ca9fb3d5e3fd","ios":"levelo://app?vid=7a894edd-a4a4-40de-8b70-ca9fb3d5e3fd"},"vehicle_type_id":"4","last_reported":1743423579,"current_range_meters":14400,"station_id":"ce4bhp92rcd13ifvqhag","pricing_plan_id":"cebpf4jnsgd1na2vs0mg"},{"bike_id":"b608855d-4db6-4537-ad42-2ce8a35d8326","system_id":"levelo_inurba_marseille","lat":43.284163,"lon":5.349903,"is_reserved":false,"is_disabled":false,"rental_uris":{"android":"levelo://app?vid=b608855d-4db6-4537-ad42-2ce8a35d8326","ios":"levelo://app?vid=b608855d-4db6-4537-ad42-2ce8a35d8326"},"vehicle_type_id":"4","last_reported":1743423579,"current_range_meters":14400,"station_id":"ce4bhbh2rcd13ifvqepg","pricing_plan_id":"cebpf4jnsgd1na2vs0mg"},{"bike_id":"6df0e861-e6fd-4074-b758-f7a411e79493","system_id":"levelo_inurba_marseille","lat":43.26954,"lon":5.38621,"is_reserved":false,"is_disabled":false,"rental_uris":{"android":"levelo://app?vid=6df0e861-e6fd-4074-b758-f7a411e79493","ios":"levelo://app?vid=6df0e861-e6fd-4074-b758-f7a411e79493"},"vehicle_type_id":"4","last_reported":1743423579,"current_range_meters":14400,"station_id":"ce4bhh92rcd13ifvqfh0","pricing_plan_id":"cebpf4jnsgd1na2vs0mg"},{"bike_id":"11616f39-29f1-4fc8-9d80-72b992e1abaf","system_id":"levelo_inurba_marseille","lat":43.24075,"lon":5.37743,"is_reserved":false,"is_disabled":false,"rental_uris":{"android":"levelo://app?vid=11616f39-29f1-4fc8-9d80-72b992e1abaf","ios":"levelo://app?vid=11616f39-29f1-4fc8-9d80-72b992e1abaf"},"vehicle_type_id":"4","last_reported":1743423579,"current_range_meters":14400,"station_id":"ce4bhnp2rcd13ifvqgvg","pricing_plan_id":"cebpf4jnsgd1na2vs0mg"},{"bike_id":"41e9a9d2-b957-42bc-b3a7-2c11b5e841e5","system_id":"levelo_inurba_marseille","lat":43.27563,"lon":5.38397,"is_reserved":false,"is_disabled":false,"rental_uris":{"android":"levelo://app?vid=41e9a9d2-b957-42bc-b3a7-2c11b5e841e5","ios":"levelo://app?vid=41e9a9d2-b957-42bc-b3a7-2c11b5e841e5"},"vehicle_type_id":"4","last_reported":1743423579,"current_range_meters":14400,"station_id":"ce4bhh92rcd13ifvqfi0","pricing_plan_id":"cebpf4jnsgd1na2vs0mg"},{"bike_id":"666b44e7-b710-4f18-81e8-6a0f6cb4fe3b","system_id":"levelo_inurba_marseille","lat":43.3148,"lon":5.37273,"is_reserved":false,"is_disabled":false,"rental_uris":{"android":"levelo://app?vid=666b44e7-b710-4f18-81e8-6a0f6cb4fe3b","ios":"levelo://app?vid=666b44e7-b710-4f18-81e8-6a0f6cb4fe3b"},"vehicle_type_id":"4","last_reported":1743423579,"current_range_meters":14400,"station_id":"ce4bgt12rcd13ifvqcd0","pricing_plan_id":"cebpf4jnsgd1na2vs0mg"},{"bike_id":"70d13679-76b1-4056-b208-1f24fce34b2f","system_id":"levelo_inurba_marseille","lat":43.30455,"lon":5.37901,"is_reserved":false,"is_disabled":false,"rental_uris":{"android":"levelo://app?vid=70d13679-76b1-4056-b208-1f24fce34b2f","ios":"levelo://app?vid=70d13679-76b1-4056-b208-1f24fce34b2f"},"vehicle_type_id":"4","last_reported":1743423579,"current_range_meters":14800,"station_id":"ce4bgup2rcd13ifvqcn0","pricing_plan_id":"cebpf4jnsgd1na2vs0mg"},{"bike_id":"fde46fbb-d710-4201-a9d8-18dcf0d20d0b","system_id":"levelo_inurba_marseille","lat":43.30322,"lon":5.36899,"is_reserved":false,"is_disabled":true,"rental_uris":{"android":"levelo://app?vid=fde46fbb-d710-4201-a9d8-18dcf0d20d0b","ios":"levelo://app?vid=fde46fbb-d710-4201-a9d8-18dcf0d20d0b"},"vehicle_type_id":"4","last_reported":1743423579,"current_range_meters":14800,"station_id":"ce4bgqh2rcd13ifvqc5g","pricing_plan_id":"cebpf4jnsgd1na2vs0mg"},{"bike_id":"9076cba5-1376-4918-a6a1-9514e129d8a0","system_id":"levelo_inurba_marseille","lat":43.25933,"lon":5.40884,"is_reserved":false,"is_disabled":false,"rental_uris":{"android":"levelo://app?vid=9076cba5-1376-4918-a6a1-9514e129d8a0","ios":"levelo://app?vid=9076cba5-1376-4918-a6a1-9514e129d8a0"},"vehicle_type_id":"4","last_reported":1743423579,"current_range_meters":14800,"station_id":"ce4bhm92rcd13ifvqglg","pricing_plan_id":"cebpf4jnsgd1na2vs0mg"},{"bike_id":"9f485120-6352-44f1-9de4-87fe18e81ea9","system_id":"levelo_inurba_marseille","lat":43.24805,"lon":5.37463,"is_reserved":false,"is_disabled":false,"rental_uris":{"android":"levelo://app?vid=9f485120-6352-44f1-9de4-87fe18e81ea9","ios":"levelo://app?vid=9f485120-6352-44f1-9de4-87fe18e81ea9"},"vehicle_type_id":"4","last_reported":1743423579,"current_range_meters":14800,"station_id":"ce4bhgh2rcd13ifvqfb0","pricing_plan_id":"cebpf4jnsgd1na2vs0mg"},{"bike_id":"d162ab97-160b-4082-a300-c7000c41052c","system_id":"levelo_inurba_marseille","lat":43.28416,"lon":5.34995,"is_reserved":false,"is_disabled":false,"rental_uris":{"android":"levelo://app?vid=d162ab97-160b-4082-a300-c7000c41052c","ios":"levelo://app?vid=d162ab97-160b-4082-a300-c7000c41052c"},"vehicle_type_id":"4","last_reported":1743423579,"current_range_meters":14800,"station_id":"ce4bhbh2rcd13ifvqepg","pricing_plan_id":"cebpf4jnsgd1na2vs0mg"},{"bike_id":"009644a9-0649-4ef5-9309-4363b281eee8","system_id":"levelo_inurba_marseille","lat":43.29253,"lon":5.37626,"is_reserved":false,"is_disabled":false,"rental_uris":{"android":"levelo://app?vid=009644a9-0649-4ef5-9309-4363b281eee8","ios":"levelo://app?vid=009644a9-0649-4ef5-9309-4363b281eee8"},"vehicle_type_id":"4","last_reported":1743423579,"current_range_meters":14800,"station_id":"ce4bgi12rcd13ifvqb80","pricing_plan_id":"cebpf4jnsgd1na2vs0mg"},{"bike_id":"4ae8c713-e123-47b1-a6a1-f150ec603c10","system_id":"levelo_inurba_marseille","lat":43.28263,"lon":5.35076,"is_reserved":false,"is_disabled":false,"rental_uris":{"android":"levelo://app?vid=4ae8c713-e123-47b1-a6a1-f150ec603c10","ios":"levelo://app?vid=4ae8c713-e123-47b1-a6a1-f150ec603c10"},"vehicle_type_id":"4","last_reported":1743423579,"current_range_meters":14800,"station_id":"ce4bhbp2rcd13ifvqerg","pricing_plan_id":"cebpf4jnsgd1na2vs0mg"},{"bike_id":"563f1298-5e80-43d7-bd83-8b78e60378b3","system_id":"levelo_inurba_marseille","lat":43.30487,"lon":5.36504,"is_reserved":false,"is_disabled":false,"rental_uris":{"android":"levelo://app?vid=563f1298-5e80-43d7-bd83-8b78e60378b3","ios":"levelo://app?vid=563f1298-5e80-43d7-bd83-8b78e60378b3"},"vehicle_type_id":"4","last_reported":1743423579,"current_range_meters":15200,"station_id":"ce4bgs12rcd13ifvqcag","pricing_plan_id":"cebpf4jnsgd1na2vs0mg"},{"bike_id":"da56271d-f817-4d2a-b8ba-5220152f7401","system_id":"levelo_inurba_marseille","lat":43.30909,"lon":5.36836,"is_reserved":false,"is_disabled":false,"rental_uris":{"android":"levelo://app?vid=da56271d-f817-4d2a-b8ba-5220152f7401","ios":"levelo://app?vid=da56271d-f817-4d2a-b8ba-5220152f7401"},"vehicle_type_id":"4","last_reported":1743423579,"current_range_meters":15200,"station_id":"ce4bgn92rcd13ifvqbvg","pricing_plan_id":"cebpf4jnsgd1na2vs0mg"},{"bike_id":"5250d671-0de4-4b59-9123-3fcfe4aff0c7","system_id":"levelo_inurba_marseille","lat":43.24086,"lon":5.37758,"is_reserved":false,"is_disabled":false,"rental_uris":{"android":"levelo://app?vid=5250d671-0de4-4b59-9123-3fcfe4aff0c7","ios":"levelo://app?vid=5250d671-0de4-4b59-9123-3fcfe4aff0c7"},"vehicle_type_id":"4","last_reported":1743423579,"current_range_meters":15200,"station_id":"ce4bhnp2rcd13ifvqgvg","pricing_plan_id":"cebpf4jnsgd1na2vs0mg"},{"bike_id":"0dd3a5d7-4b17-48d9-8e27-71d9609b80fa","system_id":"levelo_inurba_marseille","lat":43.28423,"lon":5.35,"is_reserved":false,"is_disabled":false,"rental_uris":{"android":"levelo://app?vid=0dd3a5d7-4b17-48d9-8e27-71d9609b80fa","ios":"levelo://app?vid=0dd3a5d7-4b17-48d9-8e27-71d9609b80fa"},"vehicle_type_id":"4","last_reported":1743423579,"current_range_meters":16000,"station_id":"ce4bhbh2rcd13ifvqepg","pricing_plan_id":"cebpf4jnsgd1na2vs0mg"},{"bike_id":"fd3cf1c0-c8b3-4e29-9792-b378b9bedb21","system_id":"levelo_inurba_marseille","lat":43.29618,"lon":5.38118,"is_reserved":false,"is_disabled":false,"rental_uris":{"android":"levelo://app?vid=fd3cf1c0-c8b3-4e29-9792-b378b9bedb21","ios":"levelo://app?vid=fd3cf1c0-c8b3-4e29-9792-b378b9bedb21"},"vehicle_type_id":"4","last_reported":1743423579,"current_range_meters":16000,"station_id":"ce4bgl12rcd13ifvqbo0","pricing_plan_id":"cebpf4jnsgd1na2vs0mg"},{"bike_id":"bcadf075-1982-4185-b43a-f20e04fedca6","system_id":"levelo_inurba_marseille","lat":43.2928,"lon":5.36845,"is_reserved":false,"is_disabled":true,"rental_uris":{"android":"levelo://app?vid=bcadf075-1982-4185-b43a-f20e04fedca6","ios":"levelo://app?vid=bcadf075-1982-4185-b43a-f20e04fedca6"},"vehicle_type_id":"4","last_reported":1743423579,"current_range_meters":16000,"station_id":"ce4bhbp2rcd13ifvqesg","pricing_plan_id":"cebpf4jnsgd1na2vs0mg"},{"bike_id":"f3e9a737-7878-4a82-a0f1-847912b96e22","system_id":"levelo_inurba_marseille","lat":43.29979,"lon":5.37178,"is_reserved":false,"is_disabled":false,"rental_uris":{"android":"levelo://app?vid=f3e9a737-7878-4a82-a0f1-847912b96e22","ios":"levelo://app?vid=f3e9a737-7878-4a82-a0f1-847912b96e22"},"vehicle_type_id":"4","last_reported":1743423579,"current_range_meters":16000,"station_id":"ce4bgr92rcd13ifvqc7g","pricing_plan_id":"cebpf4jnsgd1na2vs0mg"},{"bike_id":"bedbb3ca-c55c-43f5-8a6d-82c9286fca18","system_id":"levelo_inurba_marseille","lat":43.31996,"lon":5.38164,"is_reserved":false,"is_disabled":false,"rental_uris":{"android":"levelo://app?vid=bedbb3ca-c55c-43f5-8a6d-82c9286fca18","ios":"levelo://app?vid=bedbb3ca-c55c-43f5-8a6d-82c9286fca18"},"vehicle_type_id":"4","last_reported":1743423579,"current_range_meters":16000,"station_id":"ce4bhr12rcd13ifvqhpg","pricing_plan_id":"cebpf4jnsgd1na2vs0mg"},{"bike_id":"397ac0a5-eef7-496c-96c3-4b45673a7c91","system_id":"levelo_inurba_marseille","lat":43.2796,"lon":5.38725,"is_reserved":false,"is_disabled":false,"rental_uris":{"android":"levelo://app?vid=397ac0a5-eef7-496c-96c3-4b45673a7c91","ios":"levelo://app?vid=397ac0a5-eef7-496c-96c3-4b45673a7c91"},"vehicle_type_id":"4","last_reported":1743423579,"current_range_meters":16000,"station_id":"ce4bhg12rcd13ifvqf80","pricing_plan_id":"cebpf4jnsgd1na2vs0mg"},{"bike_id":"7d70350b-ec10-4c0a-a147-81af081c4725","system_id":"levelo_inurba_marseille","lat":43.25905,"lon":5.4091,"is_reserved":false,"is_disabled":false,"rental_uris":{"android":"levelo://app?vid=7d70350b-ec10-4c0a-a147-81af081c4725","ios":"levelo://app?vid=7d70350b-ec10-4c0a-a147-81af081c4725"},"vehicle_type_id":"4","last_reported":1743423579,"current_range_meters":16000,"station_id":"ce4bhm92rcd13ifvqglg","pricing_plan_id":"cebpf4jnsgd1na2vs0mg"},{"bike_id":"9f26f6b4-6f8c-41bd-9823-94cef41b22be","system_id":"levelo_inurba_marseille","lat":43.23197,"lon":5.40001,"is_reserved":false,"is_disabled":false,"rental_uris":{"android":"levelo://app?vid=9f26f6b4-6f8c-41bd-9823-94cef41b22be","ios":"levelo://app?vid=9f26f6b4-6f8c-41bd-9823-94cef41b22be"},"vehicle_type_id":"4","last_reported":1743423579,"current_range_meters":16000,"station_id":"ce4bhn12rcd13ifvqgqg","pricing_plan_id":"cebpf4jnsgd1na2vs0mg"},{"bike_id":"93d0659d-b501-4357-8f42-596da09b83a0","system_id":"levelo_inurba_marseille","lat":43.289752,"lon":5.398056,"is_reserved":false,"is_disabled":false,"rental_uris":{"android":"levelo://app?vid=93d0659d-b501-4357-8f42-596da09b83a0","ios":"levelo://app?vid=93d0659d-b501-4357-8f42-596da09b83a0"},"vehicle_type_id":"4","last_reported":1743423579,"current_range_meters":16000,"station_id":"ce4bgvh2rcd13ifvqcs0","pricing_plan_id":"cebpf4jnsgd1na2vs0mg"},{"bike_id":"11e32bb9-3bfa-41d7-9dfc-53368be6df61","system_id":"levelo_inurba_marseille","lat":43.31234,"lon":5.36876,"is_reserved":false,"is_disabled":false,"rental_uris":{"android":"levelo://app?vid=11e32bb9-3bfa-41d7-9dfc-53368be6df61","ios":"levelo://app?vid=11e32bb9-3bfa-41d7-9dfc-53368be6df61"},"vehicle_type_id":"4","last_reported":1743423579,"current_range_meters":16400,"station_id":"ce4bgl92rcd13ifvqbq0","pricing_plan_id":"cebpf4jnsgd1na2vs0mg"},{"bike_id":"d555a6dd-87fb-4f1f-accb-2e9da48fe4bc","system_id":"levelo_inurba_marseille","lat":43.27374,"lon":5.36253,"is_reserved":false,"is_disabled":false,"rental_uris":{"android":"levelo://app?vid=d555a6dd-87fb-4f1f-accb-2e9da48fe4bc","ios":"levelo://app?vid=d555a6dd-87fb-4f1f-accb-2e9da48fe4bc"},"vehicle_type_id":"4","last_reported":1743423579,"current_range_meters":16400,"station_id":"ce4bhbh2rcd13ifvqeo0","pricing_plan_id":"cebpf4jnsgd1na2vs0mg"},{"bike_id":"b9fc8d07-71b0-4ed9-9dfa-7e64807f203b","system_id":"levelo_inurba_marseille","lat":43.27063,"lon":5.42278,"is_reserved":false,"is_disabled":false,"rental_uris":{"android":"levelo://app?vid=b9fc8d07-71b0-4ed9-9dfa-7e64807f203b","ios":"levelo://app?vid=b9fc8d07-71b0-4ed9-9dfa-7e64807f203b"},"vehicle_type_id":"4","last_reported":1743423579,"current_range_meters":16400,"station_id":"ce4bhk92rcd13ifvqgb0","pricing_plan_id":"cebpf4jnsgd1na2vs0mg"},{"bike_id":"f114b3c1-6967-460c-91f2-4e0f2436021a","system_id":"levelo_inurba_marseille","lat":43.30548,"lon":5.36692,"is_reserved":false,"is_disabled":false,"rental_uris":{"android":"levelo://app?vid=f114b3c1-6967-460c-91f2-4e0f2436021a","ios":"levelo://app?vid=f114b3c1-6967-460c-91f2-4e0f2436021a"},"vehicle_type_id":"4","last_reported":1743423579,"current_range_meters":16400,"station_id":"ce4bgrp2rcd13ifvqc9g","pricing_plan_id":"cebpf4jnsgd1na2vs0mg"},{"bike_id":"4fc70c88-467e-4533-803a-1dc0fed0d882","system_id":"levelo_inurba_marseille","lat":43.29959,"lon":5.37154,"is_reserved":false,"is_disabled":false,"rental_uris":{"android":"levelo://app?vid=4fc70c88-467e-4533-803a-1dc0fed0d882","ios":"levelo://app?vid=4fc70c88-467e-4533-803a-1dc0fed0d882"},"vehicle_type_id":"4","last_reported":1743423579,"current_range_meters":16400,"station_id":"ce4bgr92rcd13ifvqc7g","pricing_plan_id":"cebpf4jnsgd1na2vs0mg"},{"bike_id":"0a861bce-e43b-4e0f-88cb-e1f4c36e3623","system_id":"levelo_inurba_marseille","lat":43.26705,"lon":5.38289,"is_reserved":false,"is_disabled":false,"rental_uris":{"android":"levelo://app?vid=0a861bce-e43b-4e0f-88cb-e1f4c36e3623","ios":"levelo://app?vid=0a861bce-e43b-4e0f-88cb-e1f4c36e3623"},"vehicle_type_id":"4","last_reported":1743423579,"current_range_meters":16400,"station_id":"ce4bhg92rcd13ifvqf90","pricing_plan_id":"cebpf4jnsgd1na2vs0mg"},{"bike_id":"efea8596-e131-41f5-8da7-0e50cbd06339","system_id":"levelo_inurba_marseille","lat":43.24068,"lon":5.3776,"is_reserved":false,"is_disabled":false,"rental_uris":{"android":"levelo://app?vid=efea8596-e131-41f5-8da7-0e50cbd06339","ios":"levelo://app?vid=efea8596-e131-41f5-8da7-0e50cbd06339"},"vehicle_type_id":"4","last_reported":1743423579,"current_range_meters":16400,"station_id":"ce4bhnp2rcd13ifvqgvg","pricing_plan_id":"cebpf4jnsgd1na2vs0mg"},{"bike_id":"f0ff8df1-930d-4d0d-87f8-1e0dc20a46cf","system_id":"levelo_inurba_marseille","lat":43.29841,"lon":5.36268,"is_reserved":false,"is_disabled":false,"rental_uris":{"android":"levelo://app?vid=f0ff8df1-930d-4d0d-87f8-1e0dc20a46cf","ios":"levelo://app?vid=f0ff8df1-930d-4d0d-87f8-1e0dc20a46cf"},"vehicle_type_id":"4","last_reported":1743423579,"current_range_meters":16400,"station_id":"ce4bgpp2rcd13ifvqc3g","pricing_plan_id":"cebpf4jnsgd1na2vs0mg"},{"bike_id":"1ebfe4cd-2aa6-4da0-986a-d783c44b44a1","system_id":"levelo_inurba_marseille","lat":43.289996,"lon":5.356112,"is_reserved":false,"is_disabled":true,"rental_uris":{"android":"levelo://app?vid=1ebfe4cd-2aa6-4da0-986a-d783c44b44a1","ios":"levelo://app?vid=1ebfe4cd-2aa6-4da0-986a-d783c44b44a1"},"vehicle_type_id":"4","last_reported":1743423579,"current_range_meters":16400,"station_id":"ce4bhb92rcd13ifvqen0","pricing_plan_id":"cebpf4jnsgd1na2vs0mg"},{"bike_id":"280a0250-0061-4c11-bdde-7739e6644035","system_id":"levelo_inurba_marseille","lat":43.30494,"lon":5.36716,"is_reserved":false,"is_disabled":false,"rental_uris":{"android":"levelo://app?vid=280a0250-0061-4c11-bdde-7739e6644035","ios":"levelo://app?vid=280a0250-0061-4c11-bdde-7739e6644035"},"vehicle_type_id":"4","last_reported":1743423579,"current_range_meters":16800,"station_id":"ce4bgrp2rcd13ifvqc9g","pricing_plan_id":"cebpf4jnsgd1na2vs0mg"},{"bike_id":"4871b1d7-5636-4402-9245-441a9a36f4a5","system_id":"levelo_inurba_marseille","lat":43.29541,"lon":5.38551,"is_reserved":false,"is_disabled":true,"rental_uris":{"android":"levelo://app?vid=4871b1d7-5636-4402-9245-441a9a36f4a5","ios":"levelo://app?vid=4871b1d7-5636-4402-9245-441a9a36f4a5"},"vehicle_type_id":"4","last_reported":1743423579,"current_range_meters":16800,"station_id":"ce4bgih2rcd13ifvqba0","pricing_plan_id":"cebpf4jnsgd1na2vs0mg"},{"bike_id":"e96b24b9-5928-47a9-a3af-1ab7a754a0d9","system_id":"levelo_inurba_marseille","lat":43.25914,"lon":5.40882,"is_reserved":false,"is_disabled":false,"rental_uris":{"android":"levelo://app?vid=e96b24b9-5928-47a9-a3af-1ab7a754a0d9","ios":"levelo://app?vid=e96b24b9-5928-47a9-a3af-1ab7a754a0d9"},"vehicle_type_id":"4","last_reported":1743423579,"current_range_meters":16800,"station_id":"ce4bhm92rcd13ifvqglg","pricing_plan_id":"cebpf4jnsgd1na2vs0mg"},{"bike_id":"733b8802-0ef2-4a6b-81c8-f0179c8c1668","system_id":"levelo_inurba_marseille","lat":43.31245,"lon":5.36868,"is_reserved":false,"is_disabled":false,"rental_uris":{"android":"levelo://app?vid=733b8802-0ef2-4a6b-81c8-f0179c8c1668","ios":"levelo://app?vid=733b8802-0ef2-4a6b-81c8-f0179c8c1668"},"vehicle_type_id":"4","last_reported":1743423579,"current_range_meters":16800,"station_id":"ce4bgl92rcd13ifvqbq0","pricing_plan_id":"cebpf4jnsgd1na2vs0mg"},{"bike_id":"fa583643-128b-49c6-8f9d-a6fc5befb5dd","system_id":"levelo_inurba_marseille","lat":43.3134,"lon":5.36712,"is_reserved":false,"is_disabled":false,"rental_uris":{"android":"levelo://app?vid=fa583643-128b-49c6-8f9d-a6fc5befb5dd","ios":"levelo://app?vid=fa583643-128b-49c6-8f9d-a6fc5befb5dd"},"vehicle_type_id":"4","last_reported":1743423579,"current_range_meters":16800,"station_id":"ce4bgr92rcd13ifvqc6g","pricing_plan_id":"cebpf4jnsgd1na2vs0mg"},{"bike_id":"9d8b51bf-fd65-426c-9799-839498b24ee9","system_id":"levelo_inurba_marseille","lat":43.30667,"lon":5.36625,"is_reserved":false,"is_disabled":true,"rental_uris":{"android":"levelo://app?vid=9d8b51bf-fd65-426c-9799-839498b24ee9","ios":"levelo://app?vid=9d8b51bf-fd65-426c-9799-839498b24ee9"},"vehicle_type_id":"4","last_reported":1743423579,"current_range_meters":16800,"station_id":"","pricing_plan_id":"cebpf4jnsgd1na2vs0mg"},{"bike_id":"c99fe5f8-e66d-4696-a715-aa5ff6733a94","system_id":"levelo_inurba_marseille","lat":43.26843,"lon":5.40221,"is_reserved":false,"is_disabled":true,"rental_uris":{"android":"levelo://app?vid=c99fe5f8-e66d-4696-a715-aa5ff6733a94","ios":"levelo://app?vid=c99fe5f8-e66d-4696-a715-aa5ff6733a94"},"vehicle_type_id":"4","last_reported":1743423579,"current_range_meters":16800,"station_id":"ce501612rcd8frsf0b60","pricing_plan_id":"cebpf4jnsgd1na2vs0mg"},{"bike_id":"1b63ccb2-1298-4d96-b7f3-6ad6cace00e9","system_id":"levelo_inurba_marseille","lat":43.26136,"lon":5.40096,"is_reserved":false,"is_disabled":false,"rental_uris":{"android":"levelo://app?vid=1b63ccb2-1298-4d96-b7f3-6ad6cace00e9","ios":"levelo://app?vid=1b63ccb2-1298-4d96-b7f3-6ad6cace00e9"},"vehicle_type_id":"4","last_reported":1743423579,"current_range_meters":16800,"station_id":"","pricing_plan_id":"cebpf4jnsgd1na2vs0mg"},{"bike_id":"08b0071e-1463-4449-89b6-94f7cf804781","system_id":"levelo_inurba_marseille","lat":43.31195,"lon":5.36915,"is_reserved":false,"is_disabled":true,"rental_uris":{"android":"levelo://app?vid=08b0071e-1463-4449-89b6-94f7cf804781","ios":"levelo://app?vid=08b0071e-1463-4449-89b6-94f7cf804781"},"vehicle_type_id":"4","last_reported":1743423579,"current_range_meters":16800,"station_id":"ce4bgl92rcd13ifvqbq0","pricing_plan_id":"cebpf4jnsgd1na2vs0mg"},{"bike_id":"1626c006-fc57-4811-89c0-1cdb1c834cf0","system_id":"levelo_inurba_marseille","lat":43.27821,"lon":5.40704,"is_reserved":false,"is_disabled":false,"rental_uris":{"android":"levelo://app?vid=1626c006-fc57-4811-89c0-1cdb1c834cf0","ios":"levelo://app?vid=1626c006-fc57-4811-89c0-1cdb1c834cf0"},"vehicle_type_id":"4","last_reported":1743423579,"current_range_meters":16800,"station_id":"ce4bhnh2rcd13ifvqgtg","pricing_plan_id":"cebpf4jnsgd1na2vs0mg"},{"bike_id":"f9a2a5f0-9c98-43ac-84ca-a9b38b605fa6","system_id":"levelo_inurba_marseille","lat":43.30529,"lon":5.36683,"is_reserved":false,"is_disabled":false,"rental_uris":{"android":"levelo://app?vid=f9a2a5f0-9c98-43ac-84ca-a9b38b605fa6","ios":"levelo://app?vid=f9a2a5f0-9c98-43ac-84ca-a9b38b605fa6"},"vehicle_type_id":"4","last_reported":1743423579,"current_range_meters":16800,"station_id":"ce4bgrp2rcd13ifvqc9g","pricing_plan_id":"cebpf4jnsgd1na2vs0mg"},{"bike_id":"e47bc61d-df2d-41b3-b26b-dd94e6e5e301","system_id":"levelo_inurba_marseille","lat":43.26247,"lon":5.4213,"is_reserved":false,"is_disabled":false,"rental_uris":{"android":"levelo://app?vid=e47bc61d-df2d-41b3-b26b-dd94e6e5e301","ios":"levelo://app?vid=e47bc61d-df2d-41b3-b26b-dd94e6e5e301"},"vehicle_type_id":"4","last_reported":1743423579,"current_range_meters":16800,"station_id":"","pricing_plan_id":"cebpf4jnsgd1na2vs0mg"},{"bike_id":"f74ab59f-be69-4dbf-bb7a-b8d19bcdb4f1","system_id":"levelo_inurba_marseille","lat":43.2616,"lon":5.37941,"is_reserved":false,"is_disabled":true,"rental_uris":{"android":"levelo://app?vid=f74ab59f-be69-4dbf-bb7a-b8d19bcdb4f1","ios":"levelo://app?vid=f74ab59f-be69-4dbf-bb7a-b8d19bcdb4f1"},"vehicle_type_id":"4","last_reported":1743423579,"current_range_meters":16800,"station_id":"ce4bhjp2rcd13ifvqg90","pricing_plan_id":"cebpf4jnsgd1na2vs0mg"},{"bike_id":"27773214-4312-4127-aa54-e74cba3d6d07","system_id":"levelo_inurba_marseille","lat":43.27796,"lon":5.40724,"is_reserved":false,"is_disabled":false,"rental_uris":{"android":"levelo://app?vid=27773214-4312-4127-aa54-e74cba3d6d07","ios":"levelo://app?vid=27773214-4312-4127-aa54-e74cba3d6d07"},"vehicle_type_id":"4","last_reported":1743423579,"current_range_meters":16800,"station_id":"ce4bhnh2rcd13ifvqgtg","pricing_plan_id":"cebpf4jnsgd1na2vs0mg"},