{"last_updated":1732126394,"ttl":60,"version":"2.2","data":{"bikes":[{"bike_id":"eb1fd276-641d-4de0-bfa8-6c1377f03001","system_id":"levelo_inurba_marseille","lat":43.24662,"lon":5.38166,"is_reserved":false,"is_disabled":false,"rental_uris":{"android":"levelo://app?vid=eb1fd276-641d-4de0-bfa8-6c1377f03001","ios":"levelo://app?vid=eb1fd276-641d-4de0-bfa8-6c1377f03001"},"vehicle_type_id":"4","last_reported":1732126394,"current_range_meters":12000,"station_id":"ce4bhih2rcd13ifvqfr0","pricing_plan_id":"cebpf4jnsgd1na2vs0mg"},{"bike_id":"39004a36-8f9f-444f-81ad-2fe48b614a0e","system_id":"levelo_inurba_marseille","lat":43.29038,"lon":5.3995,"is_reserved":false,"is_disabled":false,"rental_uris":{"android":"levelo://app?vid=39004a36-8f9f-444f-81ad-2fe48b614a0e","ios":"levelo://app?vid=39004a36-8f9f-444f-81ad-2fe48b614a0e"},"vehicle_type_id":"4","last_reported":1732126394,"current_range_meters":11600,"station_id":"ce4bh392rcd13ifvqdm0","pricing_plan_id":"cebpf4jnsgd1na2vs0mg"},{"bike_id":"1c795457-ec2c-4a4b-a69c-fc6b1ce6728d","system_id":"levelo_inurba_marseille","lat":43.27616,"lon":5.361,"is_reserved":false,"is_disabled":false,"rental_uris":{"android":"levelo://app?vid=1c795457-ec2c-4a4b-a69c-fc6b1ce6728d","ios":"levelo://app?vid=1c795457-ec2c-4a4b-a69c-fc6b1ce6728d"},"vehicle_type_id":"4","last_reported":1732126394,"current_range_meters":30800,"station_id":"ce4bgj92rcd13ifvqbe0","pricing_plan_id":"cebpf4jnsgd1na2vs0mg"},{"bike_id":"e934b354-bb58-4d7a-b8fd-836aee9f3244","system_id":"levelo_inurba_marseille","lat":43.30595,"lon":5.39353,"is_reserved":false,"is_disabled":true,"rental_uris":{"android":"levelo://app?vid=e934b354-bb58-4d7a-b8fd-836aee9f3244","ios":"levelo://app?vid=e934b354-bb58-4d7a-b8fd-836aee9f3244"},"vehicle_type_id":"4","last_reported":1732126394,"current_range_meters":0,"station_id":"ce4bh0p2rcd13ifvqd80","pricing_plan_id":"cebpf4jnsgd1na2vs0mg"},{"bike_id":"42b5029b-d50a-45cf-ad05-55467d9cb459","system_id":"levelo_inurba_marseille","lat":43.27421,"lon":5.39415,"is_reserved":false,"is_disabled":false,"rental_uris":{"android":"levelo://app?vid=42b5029b-d50a-45cf-ad05-55467d9cb459","ios":"levelo://app?vid=42b5029b-d50a-45cf-ad05-55467d9cb459"},"vehicle_type_id":"4","last_reported":1732126394,"current_range_meters":10000,"station_id":"ce4bhdp2rcd13ifvqf20","pricing_plan_id":"cebpf4jnsgd1na2vs0mg"},{"bike_id":"6ae683e0-6c3c-4ad4-aa56-95f80d96c525","system_id":"levelo_inurba_marseille","lat":43.3133,"lon":5.39698,"is_reserved":false,"is_disabled":false,"rental_uris":{"android":"levelo://app?vid=6ae683e0-6c3c-4ad4-aa56-95f80d96c525","ios":"levelo://app?vid=6ae683e0-6c3c-4ad4-aa56-95f80d96c525"},"vehicle_type_id":"4","last_reported":1732126394,"current_range_meters":38800,"station_id":"ce4bgvp2rcd13ifvqcu0","pricing_plan_id":"cebpf4jnsgd1na2vs0mg"},{"bike_id":"faaa07fe-d059-4c7c-8d3a-4406c48468a3","system_id":"levelo_inurba_marseille","lat":43.25108,"lon":5.40325,"is_reserved":false,"is_disabled":false,"rental_uris":{"android":"levelo://app?vid=faaa07fe-d059-4c7c-8d3a-4406c48468a3","ios":"levelo://app?vid=faaa07fe-d059-4c7c-8d3a-4406c48468a3"},"vehicle_type_id":"4","last_reported":1732126394,"current_range_meters":38800,"station_id":"ce4bhlh2rcd13ifvqgig","pricing_plan_id":"cebpf4jnsgd1na2vs0mg"},{"bike_id":"7ecbb69a-b705-459c-a148-37c838d83d53","system_id":"levelo_inurba_marseille","lat":43.24653,"lon":5.38891,"is_reserved":false,"is_disabled":false,"rental_uris":{"android":"levelo://app?vid=7ecbb69a-b705-459c-a148-37c838d83d53","ios":"levelo://app?vid=7ecbb69a-b705-459c-a148-37c838d83d53"},"vehicle_type_id":"4","last_reported":1732126394,"current_range_meters":22000,"station_id":"ce4bhg12rcd13ifvqf60","pricing_plan_id":"cebpf4jnsgd1na2vs0mg"},{"bike_id":"6b5d45a4-09e9-46d0-bbda-123049c0e03a","system_id":"levelo_inurba_marseille","lat":43.2315,"lon":5.43717,"is_reserved":false,"is_disabled":true,"rental_uris":{"android":"levelo://app?vid=6b5d45a4-09e9-46d0-bbda-123049c0e03a","ios":"levelo://app?vid=6b5d45a4-09e9-46d0-bbda-123049c0e03a"},"vehicle_type_id":"4","last_reported":1732126394,"current_range_meters":0,"station_id":"ce4bhmp2rcd13ifvqgog","pricing_plan_id":"cebpf4jnsgd1na2vs0mg"},{"bike_id":"efa3445d-2a68-4f6c-a741-070af9897f81","system_id":"levelo_inurba_marseille","lat":43.25869,"lon":5.39899,"is_reserved":false,"is_disabled":false,"rental_uris":{"android":"levelo://app?vid=efa3445d-2a68-4f6c-a741-070af9897f81","ios":"levelo://app?vid=efa3445d-2a68-4f6c-a741-070af9897f81"},"vehicle_type_id":"4","last_reported":1732126394,"current_range_meters":16000,"station_id":"ce4bhl92rcd13ifvqghg","pricing_plan_id":"cebpf4jnsgd1na2vs0mg"},{"bike_id":"730321d2-de66-475f-920a-cd577dc02cf8","system_id":"levelo_inurba_marseille","lat":43.31751,"lon":5.39033,"is_reserved":false,"is_disabled":false,"rental_uris":{"android":"levelo://app?vid=730321d2-de66-475f-920a-cd577dc02cf8","ios":"levelo://app?vid=730321d2-de66-475f-920a-cd577dc02cf8"},"vehicle_type_id":"4","last_reported":1732126394,"current_range_meters":32000,"station_id":"ce4bhqp2rcd13ifvqhng","pricing_plan_id":"cebpf4jnsgd1na2vs0mg"},{"bike_id":"f15b07d0-b8ce-4e43-b1cc-b8f8185759ef","system_id":"levelo_inurba_marseille","lat":43.30784,"lon":5.37645,"is_reserved":false,"is_disabled":false,"rental_uris":{"android":"levelo://app?vid=f15b07d0-b8ce-4e43-b1cc-b8f8185759ef","ios":"levelo://app?vid=f15b07d0-b8ce-4e43-b1cc-b8f8185759ef"},"vehicle_type_id":"4","last_reported":1732126394,"current_range_meters":10000,"station_id":"ce4bgv92rcd13ifvqcq0","pricing_plan_id":"cebpf4jnsgd1na2vs0mg"},{"bike_id":"b44d2664-c0d1-4db4-b1ff-33dfc173119e","system_id":"levelo_inurba_marseille","lat":43.26957,"lon":5.38632,"is_reserved":false,"is_disabled":false,"rental_uris":{"android":"levelo://app?vid=b44d2664-c0d1-4db4-b1ff-33dfc173119e","ios":"levelo://app?vid=b44d2664-c0d1-4db4-b1ff-33dfc173119e"},"vehicle_type_id":"4","last_reported":1732126394,"current_range_meters":37600,"station_id":"ce4bhh92rcd13ifvqfh0","pricing_plan_id":"cebpf4jnsgd1na2vs0mg"},{"bike_id":"aaa68104-60d6-454b-9438-4e38b46ffb6c","system_id":"levelo_inurba_marseille","lat":43.3081,"lon":5.37047,"is_reserved":false,"is_disabled":false,"rental_uris":{"android":"levelo://app?vid=aaa68104-60d6-454b-9438-4e38b46ffb6c","ios":"levelo://app?vid=aaa68104-60d6-454b-9438-4e38b46ffb6c"},"vehicle_type_id":"4","last_reported":1732126394,"current_range_meters":22800,"station_id":"","pricing_plan_id":"cebpf4jnsgd1na2vs0mg"},{"bike_id":"ca60ab6f-3d90-4392-8793-5c0ab60a4a7f","system_id":"levelo_inurba_marseille","lat":43.33022,"lon":5.39037,"is_reserved":false,"is_disabled":false,"rental_uris":{"android":"levelo://app?vid=ca60ab6f-3d90-4392-8793-5c0ab60a4a7f","ios":"levelo://app?vid=ca60ab6f-3d90-4392-8793-5c0ab60a4a7f"},"vehicle_type_id":"4","last_reported":1732126394,"current_range_meters":4800,"station_id":"ce4bhr92rcd13ifvqhrg","pricing_plan_id":"cebpf4jnsgd1na2vs0mg"},{"bike_id":"ae330a1c-f873-4a47-a9b5-1d31d7074080","system_id":"levelo_inurba_marseille","lat":43.31706,"lon":5.37757,"is_reserved":false,"is_disabled":false,"rental_uris":{"android":"levelo://app?vid=ae330a1c-f873-4a47-a9b5-1d31d7074080","ios":"levelo://app?vid=ae330a1c-f873-4a47-a9b5-1d31d7074080"},"vehicle_type_id":"4","last_reported":1732126394,"current_range_meters":17600,"station_id":"ce4bgth2rcd13ifvqch0","pricing_plan_id":"cebpf4jnsgd1na2vs0mg"},{"bike_id":"d2321b4c-ae3a-4b43-8bcd-12cb7984481d","system_id":"levelo_inurba_marseille","lat":43.30758,"lon":5.3702,"is_reserved":false,"is_disabled":false,"rental_uris":{"android":"levelo://app?vid=d2321b4c-ae3a-4b43-8bcd-12cb7984481d","ios":"levelo://app?vid=d2321b4c-ae3a-4b43-8bcd-12cb7984481d"},"vehicle_type_id":"4","last_reported":1732126394,"current_range_meters":27200,"station_id":"","pricing_plan_id":"cebpf4jnsgd1na2vs0mg"},{"bike_id":"7b0e69b9-cee2-4dc2-b99a-cc4846931390","system_id":"levelo_inurba_marseille","lat":43.30128,"lon":5.39851,"is_reserved":false,"is_disabled":false,"rental_uris":{"android":"levelo://app?vid=7b0e69b9-cee2-4dc2-b99a-cc4846931390","ios":"levelo://app?vid=7b0e69b9-cee2-4dc2-b99a-cc4846931390"},"vehicle_type_id":"4","last_reported":1732126394,"current_range_meters":8400,"station_id":"ce4bh0h2rcd13ifvqd40","pricing_plan_id":"cebpf4jnsgd1na2vs0mg"},{"bike_id":"a70033bc-90e9-411d-be35-0d5fcfa9b44b","system_id":"levelo_inurba_marseille","lat":43.30425,"lon":5.38879,"is_reserved":false,"is_disabled":false,"rental_uris":{"android":"levelo://app?vid=a70033bc-90e9-411d-be35-0d5fcfa9b44b","ios":"levelo://app?vid=a70033bc-90e9-411d-be35-0d5fcfa9b44b"},"vehicle_type_id":"4","last_reported":1732126394,"current_range_meters":32800,"station_id":"ce4bgk12rcd13ifvqbi0","pricing_plan_id":"cebpf4jnsgd1na2vs0mg"},{"bike_id":"1a2b45b6-17d7-4592-8140-142385f04b6a","system_id":"levelo_inurba_marseille","lat":43.25088,"lon":5.39518,"is_reserved":false,"is_disabled":false,"rental_uris":{"android":"levelo://app?vid=1a2b45b6-17d7-4592-8140-142385f04b6a","ios":"levelo://app?vid=1a2b45b6-17d7-4592-8140-142385f04b6a"},"vehicle_type_id":"4","last_reported":1732126394,"current_range_meters":10800,"station_id":"ce4bhm12rcd13ifvqgkg","pricing_plan_id":"cebpf4jnsgd1na2vs0mg"},{"bike_id":"616f4c06-6c06-46ee-be99-4446ba8b4918","system_id":"levelo_inurba_marseille","lat":43.28617,"lon":5.35108,"is_reserved":false,"is_disabled":false,"rental_uris":{"android":"levelo://app?vid=616f4c06-6c06-46ee-be99-4446ba8b4918","ios":"levelo://app?vid=616f4c06-6c06-46ee-be99-4446ba8b4918"},"vehicle_type_id":"4","last_reported":1732126394,"current_range_meters":6400,"station_id":"ce4bhch2rcd13ifvqeug","pricing_plan_id":"cebpf4jnsgd1na2vs0mg"},{"bike_id":"bffd9f2b-1ad6-450c-8979-d72efd607836","system_id":"levelo_inurba_marseille","lat":43.28269,"lon":5.35053,"is_reserved":false,"is_disabled":false,"rental_uris":{"android":"levelo://app?vid=bffd9f2b-1ad6-450c-8979-d72efd607836","ios":"levelo://app?vid=bffd9f2b-1ad6-450c-8979-d72efd607836"},"vehicle_type_id":"4","last_reported":1732126394,"current_range_meters":4400,"station_id":"ce4bhbp2rcd13ifvqerg","pricing_plan_id":"cebpf4jnsgd1na2vs0mg"},{"bike_id":"5c3000a0-a190-4007-a723-aa2707fd1ce3","system_id":"levelo_inurba_marseille","lat":43.22937,"lon":5.35389,"is_reserved":false,"is_disabled":false,"rental_uris":{"android":"levelo://app?vid=5c3000a0-a190-4007-a723-aa2707fd1ce3","ios":"levelo://app?vid=5c3000a0-a190-4007-a723-aa2707fd1ce3"},"vehicle_type_id":"4","last_reported":1732126394,"current_range_meters":38800,"station_id":"cpo3532slgdg3j2ikp40","pricing_plan_id":"cebpf4jnsgd1na2vs0mg"},{"bike_id":"4687be84-fc61-4e0c-83ff-4d26096bab5d","system_id":"levelo_inurba_marseille","lat":43.27555,"lon":5.38419,"is_reserved":false,"is_disabled":false,"rental_uris":{"android":"levelo://app?vid=4687be84-fc61-4e0c-83ff-4d26096bab5d","ios":"levelo://app?vid=4687be84-fc61-4e0c-83ff-4d26096bab5d"},"vehicle_type_id":"4","last_reported":1732126394,"current_range_meters":4000,"station_id":"ce4bhh92rcd13ifvqfi0","pricing_plan_id":"cebpf4jnsgd1na2vs0mg"},{"bike_id":"ff630b6c-df6f-414c-a543-0145fa6cafd9","system_id":"levelo_inurba_marseille","lat":43.29784,"lon":5.38081,"is_reserved":false,"is_disabled":false,"rental_uris":{"android":"levelo://app?vid=ff630b6c-df6f-414c-a543-0145fa6cafd9","ios":"levelo://app?vid=ff630b6c-df6f-414c-a543-0145fa6cafd9"},"vehicle_type_id":"4","last_reported":1732126394,"current_range_meters":16400,"station_id":"ce4bgip2rcd13ifvqbb0","pricing_plan_id":"cebpf4jnsgd1na2vs0mg"},{"bike_id":"07dfa307-72b1-4fd3-aaec-cc158bba164b","system_id":"levelo_inurba_marseille","lat":43.31924,"lon":5.37459,"is_reserved":false,"is_disabled":false,"rental_uris":{"android":"levelo://app?vid=07dfa307-72b1-4fd3-aaec-cc158bba164b","ios":"levelo://app?vid=07dfa307-72b1-4fd3-aaec-cc158bba164b"},"vehicle_type_id":"4","last_reported":1732126394,"current_range_meters":37600,"station_id":"","pricing_plan_id":"cebpf4jnsgd1na2vs0mg"},{"bike_id":"3f99adc2-ed02-4869-b23e-487905831ced","system_id":"levelo_inurba_marseille","lat":43.28461,"lon":5.35901,"is_reserved":false,"is_disabled":false,"rental_uris":{"android":"levelo://app?vid=3f99adc2-ed02-4869-b23e-487905831ced","ios":"levelo://app?vid=3f99adc2-ed02-4869-b23e-487905831ced"},"vehicle_type_id":"4","last_reported":1732126394,"current_range_meters":19200,"station_id":"ce4bhah2rcd13ifvqei0","pricing_plan_id":"cebpf4jnsgd1na2vs0mg"},{"bike_id":"3b7b9386-15f1-4e2c-9dc9-caf0231670d2","system_id":"levelo_inurba_marseille","lat":43.29587,"lon":5.38094,"is_reserved":false,"is_disabled":false,"rental_uris":{"android":"levelo://app?vid=3b7b9386-15f1-4e2c-9dc9-caf0231670d2","ios":"levelo://app?vid=3b7b9386-15f1-4e2c-9dc9-caf0231670d2"},"vehicle_type_id":"4","last_reported":1732126394,"current_range_meters":34800,"station_id":"ce4bgl12rcd13ifvqbo0","pricing_plan_id":"cebpf4jnsgd1na2vs0mg"},{"bike_id":"49888c9a-6422-425e-8158-bc8822945232","system_id":"levelo_inurba_marseille","lat":43.27812,"lon":5.40713,"is_reserved":false,"is_disabled":false,"rental_uris":{"android":"levelo://app?vid=49888c9a-6422-425e-8158-bc8822945232","ios":"levelo://app?vid=49888c9a-6422-425e-8158-bc8822945232"},"vehicle_type_id":"4","last_reported":1732126394,"current_range_meters":20400,"station_id":"ce4bhnh2rcd13ifvqgtg","pricing_plan_id":"cebpf4jnsgd1na2vs0mg"},{"bike_id":"1e551fea-8830-423d-b3f5-16cd80be6322","system_id":"levelo_inurba_marseille","lat":43.25577,"lon":5.38232,"is_reserved":false,"is_disabled":false,"rental_uris":{"android":"levelo://app?vid=1e551fea-8830-423d-b3f5-16cd80be6322","ios":"levelo://app?vid=1e551fea-8830-423d-b3f5-16cd80be6322"},"vehicle_type_id":"4","last_reported":1732126394,"current_range_meters":4800,"station_id":"ce4bhih2rcd13ifvqfs0","pricing_plan_id":"cebpf4jnsgd1na2vs0mg"},{"bike_id":"a50bd065-19b4-4a8d-96d7-f7125a2471a5","system_id":"levelo_inurba_marseille","lat":43.28934,"lon":5.39639,"is_reserved":false,"is_disabled":true,"rental_uris":{"android":"levelo://app?vid=a50bd065-19b4-4a8d-96d7-f7125a2471a5","ios":"levelo://app?vid=a50bd065-19b4-4a8d-96d7-f7125a2471a5"},"vehicle_type_id":"4","last_reported":1732126394,"current_range_meters":800,"station_id":"ce4bh3h2rcd13ifvqdn0","pricing_plan_id":"cebpf4jnsgd1na2vs0mg"},{"bike_id":"4ed49999-8f74-4bab-ab4c-5548530dc75e","system_id":"levelo_inurba_marseille","lat":43.31168,"lon":5.38722,"is_reserved":false,"is_disabled":false,"rental_uris":{"android":"levelo://app?vid=4ed49999-8f74-4bab-ab4c-5548530dc75e","ios":"levelo://app?vid=4ed49999-8f74-4bab-ab4c-5548530dc75e"},"vehicle_type_id":"4","last_reported":1732126394,"current_range_meters":7200,"station_id":"ce4bgv12rcd13ifvqcp0","pricing_plan_id":"cebpf4jnsgd1na2vs0mg"},{"bike_id":"16bfd6ee-6c41-478e-9200-26690f2eb7b5","system_id":"levelo_inurba_marseille","lat":43.29537,"lon":5.38542,"is_reserved":false,"is_disabled":false,"rental_uris":{"android":"levelo://app?vid=16bfd6ee-6c41-478e-9200-26690f2eb7b5","ios":"levelo://app?vid=16bfd6ee-6c41-478e-9200-26690f2eb7b5"},"vehicle_type_id":"4","last_reported":1732126394,"current_range_meters":32800,"station_id":"ce4bgih2rcd13ifvqba0","pricing_plan_id":"cebpf4jnsgd1na2vs0mg"},{"bike_id":"1cd0daee-d68a-4e66-9883-fbe67fd8260f","system_id":"levelo_inurba_marseille","lat":43.30598,"lon":5.37235,"is_reserved":false,"is_disabled":true,"rental_uris":{"android":"levelo://app?vid=1cd0daee-d68a-4e66-9883-fbe67fd8260f","ios":"levelo://app?vid=1cd0daee-d68a-4e66-9883-fbe67fd8260f"},"vehicle_type_id":"4","last_reported":1732126394,"current_range_meters":0,"station_id":"ce4bgqh2rcd13ifvqc4g","pricing_plan_id":"cebpf4jnsgd1na2vs0mg"},{"bike_id":"bc14e463-5825-4071-9c45-e0187e501788","system_id":"levelo_inurba_marseille","lat":43.24805,"lon":5.37457,"is_reserved":false,"is_disabled":false,"rental_uris":{"android":"levelo://app?vid=bc14e463-5825-4071-9c45-e0187e501788","ios":"levelo://app?vid=bc14e463-5825-4071-9c45-e0187e501788"},"vehicle_type_id":"4","last_reported":1732126394,"current_range_meters":37600,"station_id":"ce4bhgh2rcd13ifvqfb0","pricing_plan_id":"cebpf4jnsgd1na2vs0mg"},{"bike_id":"772ce743-8958-4198-b3ba-b6e0d96fa296","system_id":"levelo_inurba_marseille","lat":43.24168,"lon":5.36404,"is_reserved":false,"is_disabled":false,"rental_uris":{"android":"levelo://app?vid=772ce743-8958-4198-b3ba-b6e0d96fa296","ios":"levelo://app?vid=772ce743-8958-4198-b3ba-b6e0d96fa296"},"vehicle_type_id":"4","last_reported":1732126394,"current_range_meters":9200,"station_id":"cpo36qri1sfpv3e86is0","pricing_plan_id":"cebpf4jnsgd1na2vs0mg"},{"bike_id":"286d86c2-1b80-4d52-9365-2fbf185d4518","system_id":"levelo_inurba_marseille","lat":43.29069,"lon":5.3717,"is_reserved":false,"is_disabled":false,"rental_uris":{"android":"levelo://app?vid=286d86c2-1b80-4d52-9365-2fbf185d4518","ios":"levelo://app?vid=286d86c2-1b80-4d52-9365-2fbf185d4518"},"vehicle_type_id":"4","last_reported":1732126394,"current_range_meters":38000,"station_id":"ce4bh5p2rcd13ifvqe4g","pricing_plan_id":"cebpf4jnsgd1na2vs0mg"},{"bike_id":"597cb1c5-c680-49ef-9a1a-84a53b157037","system_id":"levelo_inurba_marseille","lat":43.32363,"lon":5.38886,"is_reserved":false,"is_disabled":false,"rental_uris":{"android":"levelo://app?vid=597cb1c5-c680-49ef-9a1a-84a53b157037","ios":"levelo://app?vid=597cb1c5-c680-49ef-9a1a-84a53b157037"},"vehicle_type_id":"4","last_reported":1732126394,"current_range_meters":21600,"station_id":"ce4bhqp2rcd13ifvqhog","pricing_plan_id":"cebpf4jnsgd1na2vs0mg"},{"bike_id":"9b9df015-1b17-4673-a8fc-9b71ecb979ad","system_id":"levelo_inurba_marseille","lat":43.31689,"lon":5.40471,"is_reserved":false,"is_disabled":false,"rental_uris":{"android":"levelo://app?vid=9b9df015-1b17-4673-a8fc-9b71ecb979ad","ios":"levelo://app?vid=9b9df015-1b17-4673-a8fc-9b71ecb979ad"},"vehicle_type_id":"4","last_reported":1732126394,"current_range_meters":35200,"station_id":"ce4bh012rcd13ifvqd00","pricing_plan_id":"cebpf4jnsgd1na2vs0mg"},{"bike_id":"02330a79-2e93-42f9-a52a-47c8f49bf28e","system_id":"levelo_inurba_marseille","lat":43.28412,"lon":5.37509,"is_reserved":false,"is_disabled":false,"rental_uris":{"android":"levelo://app?vid=02330a79-2e93-42f9-a52a-47c8f49bf28e","ios":"levelo://app?vid=02330a79-2e93-42f9-a52a-47c8f49bf28e"},"vehicle_type_id":"4","last_reported":1732126394,"current_range_meters":32800,"station_id":"ce4bh412rcd13ifvqds0","pricing_plan_id":"cebpf4jnsgd1na2vs0mg"},{"bike_id":"05286363-317d-4e5a-bd27-dc5666b9628b","system_id":"levelo_inurba_marseille","lat":43.24657,"lon":5.38171,"is_reserved":false,"is_disabled":false,"rental_uris":{"android":"levelo://app?vid=05286363-317d-4e5a-bd27-dc5666b9628b","ios":"levelo://app?vid=05286363-317d-4e5a-bd27-dc5666b9628b"},"vehicle_type_id":"4","last_reported":1732126394,"current_range_meters":15200,"station_id":"ce4bhih2rcd13ifvqfr0","pricing_plan_id":"cebpf4jnsgd1na2vs0mg"},{"bike_id":"e7a31be6-73fd-40e5-943d-027798b98a9d","system_id":"levelo_inurba_marseille","lat":43.26803,"lon":5.40268,"is_reserved":false,"is_disabled":false,"rental_uris":{"android":"levelo://app?vid=e7a31be6-73fd-40e5-943d-027798b98a9d","ios":"levelo://app?vid=e7a31be6-73fd-40e5-943d-027798b98a9d"},"vehicle_type_id":"4","last_reported":1732126394,"current_range_meters":38000,"station_id":"ce501612rcd8frsf0b60","pricing_plan_id":"cebpf4jnsgd1na2vs0mg"},{"bike_id":"c8e78444-aed0-42c2-bd60-bd5ebc177c5c","system_id":"levelo_inurba_marseille","lat":43.29936,"lon":5.36543,"is_reserved":false,"is_disabled":true,"rental_uris":{"android":"levelo://app?vid=c8e78444-aed0-42c2-bd60-bd5ebc177c5c","ios":"levelo://app?vid=c8e78444-aed0-42c2-bd60-bd5ebc177c5c"},"vehicle_type_id":"4","last_reported":1732126394,"current_range_meters":27600,"station_id":"ce4bgm92rcd13ifvqbr0","pricing_plan_id":"cebpf4jnsgd1na2vs0mg"},{"bike_id":"7a8e5196-676c-4e75-92d4-dd51b9f09e03","system_id":"levelo_inurba_marseille","lat":43.3043,"lon":5.38899,"is_reserved":false,"is_disabled":false,"rental_uris":{"android":"levelo://app?vid=7a8e5196-676c-4e75-92d4-dd51b9f09e03","ios":"levelo://app?vid=7a8e5196-676c-4e75-92d4-dd51b9f09e03"},"vehicle_type_id":"4","last_reported":1732126394,"current_range_meters":16800,"station_id":"ce4bgk12rcd13ifvqbi0","pricing_plan_id":"cebpf4jnsgd1na2vs0mg"},{"bike_id":"5ca67615-f25e-4075-b233-125b13c008c3","system_id":"levelo_inurba_marseille","lat":43.29507,"lon":5.39407,"is_reserved":false,"is_disabled":false,"rental_uris":{"android":"levelo://app?vid=5ca67615-f25e-4075-b233-125b13c008c3","ios":"levelo://app?vid=5ca67615-f25e-4075-b233-125b13c008c3"},"vehicle_type_id":"4","last_reported":1732126394,"current_range_meters":38800,"station_id":"ce4bh292rcd13ifvqdf0","pricing_plan_id":"cebpf4jnsgd1na2vs0mg"},{"bike_id":"4a8334a5-4056-497e-8082-55e7a74e4c36","system_id":"levelo_inurba_marseille","lat":43.30104,"lon":5.39854,"is_reserved":false,"is_disabled":false,"rental_uris":{"android":"levelo://app?vid=4a8334a5-4056-497e-8082-55e7a74e4c36","ios":"levelo://app?vid=4a8334a5-4056-497e-8082-55e7a74e4c36"},"vehicle_type_id":"4","last_reported":1732126394,"current_range_meters":38800,"station_id":"ce4bh0h2rcd13ifvqd40","pricing_plan_id":"cebpf4jnsgd1na2vs0mg"},{"bike_id":"9a401885-21a4-49d1-a4ad-3ae3e7a4ee61","system_id":"levelo_inurba_marseille","lat":43.27949,"lon":5.41049,"is_reserved":false,"is_disabled":false,"rental_uris":{"android":"levelo://app?vid=9a401885-21a4-49d1-a4ad-3ae3e7a4ee61","ios":"levelo://app?vid=9a401885-21a4-49d1-a4ad-3ae3e7a4ee61"},"vehicle_type_id":"4","last_reported":1732126394,"current_range_meters":28000,"station_id":"ce4bhnp2rcd13ifvqh0g","pricing_plan_id":"cebpf4jnsgd1na2vs0mg"},{"bike_id":"e5edd6ff-062d-4886-b157-e3f0c5d749e2","system_id":"levelo_inurba_marseille","lat":43.31272,"lon":5.40161,"is_reserved":false,"is_disabled":false,"rental_uris":{"android":"levelo://app?vid=e5edd6ff-062d-4886-b157-e3f0c5d749e2","ios":"levelo://app?vid=e5edd6ff-062d-4886-b157-e3f0c5d749e2"},"vehicle_type_id":"4","last_reported":1732126394,"current_range_meters":12800,"station_id":"ce4bh092rcd13ifvqd30","pricing_plan_id":"cebpf4jnsgd1na2vs0mg"},{"bike_id":"10815b4d-f630-46e4-b054-3a315a68514f","system_id":"levelo_inurba_marseille","lat":43.33726,"lon":5.3918,"is_reserved":false,"is_disabled":false,"rental_uris":{"android":"levelo://app?vid=10815b4d-f630-46e4-b054-3a315a68514f","ios":"levelo://app?vid=10815b4d-f630-46e4-b054-3a315a68514f"},"vehicle_type_id":"4","last_reported":1732126394,"current_range_meters":38800,"station_id":"ce4bhr92rcd13ifvqhsg","pricing_plan_id":"cebpf4jnsgd1na2vs0mg"},{"bike_id":"f97613ef-1070-428c-a396-d97a9d19549c","system_id":"levelo_inurba_marseille","lat":43.24181,"lon":5.39732,"is_reserved":false,"is_disabled":false,"rental_uris":{"android":"levelo://app?vid=f97613ef-1070-428c-a396-d97a9d19549c","ios":"levelo://app?vid=f97613ef-1070-428c-a396-d97a9d19549c"},"vehicle_type_id":"4","last_reported":1732126394,"current_range_meters":15200,"station_id":"ce4bhn12rcd13ifvqgpg","pricing_plan_id":"cebpf4jnsgd1na2vs0mg"},{"bike_id":"2c91ffc0-248f-4179-8438-64eeb591d0dd","system_id":"levelo_inurba_marseille","lat":43.30352,"lon":5.41882,"is_reserved":false,"is_disabled":false,"rental_uris":{"android":"levelo://app?vid=2c91ffc0-248f-4179-8438-64eeb591d0dd","ios":"levelo://app?vid=2c91ffc0-248f-4179-8438-64eeb591d0dd"},"vehicle_type_id":"4","last_reported":1732126394,"current_range_meters":6800,"station_id":"ce4bhop2rcd13ifvqh7g","pricing_plan_id":"cebpf4jnsgd1na2vs0mg"},{"bike_id":"efa924b8-3b7e-4a41-913c-fc64a7c8728e","system_id":"levelo_inurba_marseille","lat":43.28456,"lon":5.35883,"is_reserved":false,"is_disabled":false,"rental_uris":{"android":"levelo://app?vid=efa924b8-3b7e-4a41-913c-fc64a7c8728e","ios":"levelo://app?vid=efa924b8-3b7e-4a41-913c-fc64a7c8728e"},"vehicle_type_id":"4","last_reported":1732126394,"current_range_meters":38800,"station_id":"ce4bhah2rcd13ifvqei0","pricing_plan_id":"cebpf4jnsgd1na2vs0mg"},{"bike_id":"ec6f5527-4903-49da-98fe-7c850cffaf28","system_id":"levelo_inurba_marseille","lat":43.2621,"lon":5.37442,"is_reserved":false,"is_disabled":false,"rental_uris":{"android":"levelo://app?vid=ec6f5527-4903-49da-98fe-7c850cffaf28","ios":"levelo://app?vid=ec6f5527-4903-49da-98fe-7c850cffaf28"},"vehicle_type_id":"4","last_reported":1732126394,"current_range_meters":17600,"station_id":"ce4bhgp2rcd13ifvqfc0","pricing_plan_id":"cebpf4jnsgd1na2vs0mg"},{"bike_id":"16223921-60ae-4fd9-a1b7-d4ef1bb6071f","system_id":"levelo_inurba_marseille","lat":43.30879,"lon":5.39651,"is_reserved":false,"is_disabled":false,"rental_uris":{"android":"levelo://app?vid=16223921-60ae-4fd9-a1b7-d4ef1bb6071f","ios":"levelo://app?vid=16223921-60ae-4fd9-a1b7-d4ef1bb6071f"},"vehicle_type_id":"4","last_reported":1732126394,"current_range_meters":4000,"station_id":"ce4bh012rcd13ifvqcv0","pricing_plan_id":"cebpf4jnsgd1na2vs0mg"},{"bike_id":"0eda1e6d-e3be-4e31-a67d-35c892586290","system_id":"levelo_inurba_marseille","lat":43.29036,"lon":5.39971,"is_reserved":false,"is_disabled":false,"rental_uris":{"android":"levelo://app?vid=0eda1e6d-e3be-4e31-a67d-35c892586290","ios":"levelo://app?vid=0eda1e6d-e3be-4e31-a67d-35c892586290"},"vehicle_type_id":"4","last_reported":1732126394,"current_range_meters":32400,"station_id":"ce4bh392rcd13ifvqdm0","pricing_plan_id":"cebpf4jnsgd1na2vs0mg"},{"bike_id":"17a1ee21-a849-4433-badc-5af1a287346d","system_id":"levelo_inurba_marseille","lat":43.24587,"lon":5.37416,"is_reserved":false,"is_disabled":true,"rental_uris":{"android":"levelo://app?vid=17a1ee21-a849-4433-badc-5af1a287346d","ios":"levelo://app?vid=17a1ee21-a849-4433-badc-5af1a287346d"},"vehicle_type_id":"4","last_reported":1732126394,"current_range_meters":0,"station_id":"","pricing_plan_id":"cebpf4jnsgd1na2vs0mg"},{"bike_id":"72988ed8-3b21-48f9-9313-4c219313a03b","system_id":"levelo_inurba_marseille","lat":43.25106,"lon":5.40325,"is_reserved":false,"is_disabled":false,"rental_uris":{"android":"levelo://app?vid=72988ed8-3b21-48f9-9313-4c219313a03b","ios":"levelo://app?vid=72988ed8-3b21-48f9-9313-4c219313a03b"},"vehicle_type_id":"4","last_reported":1732126394,"current_range_meters":19600,"station_id":"ce4bhlh2rcd13ifvqgig","pricing_plan_id":"cebpf4jnsgd1na2vs0mg"},{"bike_id":"f0fa4e60-0a2b-48c7-9942-83170358dd4a","system_id":"levelo_inurba_marseille","lat":43.32294,"lon":5.38268,"is_reserved":false,"is_disabled":false,"rental_uris":{"android":"levelo://app?vid=f0fa4e60-0a2b-48c7-9942-83170358dd4a","ios":"levelo://app?vid=f0fa4e60-0a2b-48c7-9942-83170358dd4a"},"vehicle_type_id":"4","last_reported":1732126394,"current_range_meters":21600,"station_id":"ce4bhr12rcd13ifvqhqg","pricing_plan_id":"cebpf4jnsgd1na2vs0mg"},{"bike_id":"61dfba9e-63a5-43cf-9c99-4fa1413cdd88","system_id":"levelo_inurba_marseille","lat":43.29262,"lon":5.3844,"is_reserved":false,"is_disabled":false,"rental_uris":{"android":"levelo://app?vid=61dfba9e-63a5-43cf-9c99-4fa1413cdd88","ios":"levelo://app?vid=61dfba9e-63a5-43cf-9c99-4fa1413cdd88"},"vehicle_type_id":"4","last_reported":1732126394,"current_range_meters":20000,"station_id":"ce4bh692rcd13ifvqea0","pricing_plan_id":"cebpf4jnsgd1na2vs0mg"},{"bike_id":"5c5222dc-c9e9-4134-9926-f13e5276b66c","system_id":"levelo_inurba_marseille","lat":43.32363,"lon":5.38881,"is_reserved":false,"is_disabled":false,"rental_uris":{"android":"levelo://app?vid=5c5222dc-c9e9-4134-9926-f13e5276b66c","ios":"levelo://app?vid=5c5222dc-c9e9-4134-9926-f13e5276b66c"},"vehicle_type_id":"4","last_reported":1732126394,"current_range_meters":6000,"station_id":"ce4bhqp2rcd13ifvqhog","pricing_plan_id":"cebpf4jnsgd1na2vs0mg"},{"bike_id":"52e1e1e0-ba39-42dc-b98a-c75d1edc11e8","system_id":"levelo_inurba_marseille","lat":43.30267,"lon":5.37702,"is_reserved":false,"is_disabled":false,"rental_uris":{"android":"levelo://app?vid=52e1e1e0-ba39-42dc-b98a-c75d1edc11e8","ios":"levelo://app?vid=52e1e1e0-ba39-42dc-b98a-c75d1edc11e8"},"vehicle_type_id":"4","last_reported":1732126394,"current_range_meters":37600,"station_id":"ce4bguh2rcd13ifvqcj0","pricing_plan_id":"cebpf4jnsgd1na2vs0mg"},{"bike_id":"f5cf085e-8694-4c6f-ba9c-aa6e0d3c58c6","system_id":"levelo_inurba_marseille","lat":43.33644,"lon":5.35555,"is_reserved":false,"is_disabled":true,"rental_uris":{"android":"levelo://app?vid=f5cf085e-8694-4c6f-ba9c-aa6e0d3c58c6","ios":"levelo://app?vid=f5cf085e-8694-4c6f-ba9c-aa6e0d3c58c6"},"vehicle_type_id":"4","last_reported":1732126394,"current_range_meters":10800,"station_id":"","pricing_plan_id":"cebpf4jnsgd1na2vs0mg"},{"bike_id":"3d2beca7-eef0-4bae-98e1-8b3de347272c","system_id":"levelo_inurba_marseille","lat":43.23201,"lon":5.35555,"is_reserved":false,"is_disabled":false,"rental_uris":{"android":"levelo://app?vid=3d2beca7-eef0-4bae-98e1-8b3de347272c","ios":"levelo://app?vid=3d2beca7-eef0-4bae-98e1-8b3de347272c"},"vehicle_type_id":"4","last_reported":1732126394,"current_range_meters":36800,"station_id":"ce4bhu92rcd13ifvqi70","pricing_plan_id":"cebpf4jnsgd1na2vs0mg"},{"bike_id":"c2cad1a5-2b7e-4471-9705-3d11247da4da","system_id":"levelo_inurba_marseille","lat":43.27623,"lon":5.36107,"is_reserved":false,"is_disabled":false,"rental_uris":{"android":"levelo://app?vid=c2cad1a5-2b7e-4471-9705-3d11247da4da","ios":"levelo://app?vid=c2cad1a5-2b7e-4471-9705-3d11247da4da"},"vehicle_type_id":"4","last_reported":1732126394,"current_range_meters":39200,"station_id":"ce4bgj92rcd13ifvqbe0","pricing_plan_id":"cebpf4jnsgd1na2vs0mg"},{"bike_id":"6ff6157f-dc14-4691-84fd-a362e1c11c61","system_id":"levelo_inurba_marseille","lat":43.31072,"lon":5.38349,"is_reserved":false,"is_disabled":false,"rental_uris":{"android":"levelo://app?vid=6ff6157f-dc14-4691-84fd-a362e1c11c61","ios":"levelo://app?vid=6ff6157f-dc14-4691-84fd-a362e1c11c61"},"vehicle_type_id":"4","last_reported":1732126394,"current_range_meters":28800,"station_id":"ce4bgv92rcd13ifvqcr0","pricing_plan_id":"cebpf4jnsgd1na2vs0mg"},{"bike_id":"2c0403cf-6952-4b51-b277-405286f2aaa5","system_id":"levelo_inurba_marseille","lat":43.3302,"lon":5.39043,"is_reserved":false,"is_disabled":false,"rental_uris":{"android":"levelo://app?vid=2c0403cf-6952-4b51-b277-405286f2aaa5","ios":"levelo://app?vid=2c0403cf-6952-4b51-b277-405286f2aaa5"},"vehicle_type_id":"4","last_reported":1732126394,"current_range_meters":38800,"station_id":"ce4bhr92rcd13ifvqhrg","pricing_plan_id":"cebpf4jnsgd1na2vs0mg"},{"bike_id":"e57590cc-a844-462b-b95c-023047b497c3","system_id":"levelo_inurba_marseille","lat":43.26024,"lon":5.37551,"is_reserved":false,"is_disabled":true,"rental_uris":{"android":"levelo://app?vid=e57590cc-a844-462b-b95c-023047b497c3","ios":"levelo://app?vid=e57590cc-a844-462b-b95c-023047b497c3"},"vehicle_type_id":"4","last_reported":1732126394,"current_range_meters":0,"station_id":"ce4bhgh2rcd13ifvqfa0","pricing_plan_id":"cebpf4jnsgd1na2vs0mg"},{"bike_id":"02548de1-a79f-4bc6-8c03-f2b86f8bd8f9","system_id":"levelo_inurba_marseille","lat":43.32373,"lon":5.3888,"is_reserved":false,"is_disabled":false,"rental_uris":{"android":"levelo://app?vid=02548de1-a79f-4bc6-8c03-f2b86f8bd8f9","ios":"levelo://app?vid=02548de1-a79f-4bc6-8c03-f2b86f8bd8f9"},"vehicle_type_id":"4","last_reported":1732126394,"current_range_meters":11600,"station_id":"ce4bhqp2rcd13ifvqhog","pricing_plan_id":"cebpf4jnsgd1na2vs0mg"},{"bike_id":"dab210e1-0f44-440a-9c7f-956ec35da445","system_id":"levelo_inurba_marseille","lat":43.28668,"lon":5.3635,"is_reserved":false,"is_disabled":false,"rental_uris":{"android":"levelo://app?vid=dab210e1-0f44-440a-9c7f-956ec35da445","ios":"levelo://app?vid=dab210e1-0f44-440a-9c7f-956ec35da445"},"vehicle_type_id":"4","last_reported":1732126394,"current_range_meters":28000,"station_id":"ce4bhah2rcd13ifvqej0","pricing_plan_id":"cebpf4jnsgd1na2vs0mg"},{"bike_id":"d149b784-94d5-4a3d-9c05-0ad1f195a05f","system_id":"levelo_inurba_marseille","lat":43.29413,"lon":5.38631,"is_reserved":false,"is_disabled":false,"rental_uris":{"android":"levelo://app?vid=d149b784-94d5-4a3d-9c05-0ad1f195a05f","ios":"levelo://app?vid=d149b784-94d5-4a3d-9c05-0ad1f195a05f"},"vehicle_type_id":"4","last_reported":1732126394,"current_range_meters":38400,"station_id":"ce4bh2h2rcd13ifvqdh0","pricing_plan_id":"cebpf4jnsgd1na2vs0mg"},{"bike_id":"121a1664-d2f2-4f14-8e63-f0fcb4baf390","system_id":"levelo_inurba_marseille","lat":43.28716,"lon":5.39987,"is_reserved":false,"is_disabled":false,"rental_uris":{"android":"levelo://app?vid=121a1664-d2f2-4f14-8e63-f0fcb4baf390","ios":"levelo://app?vid=121a1664-d2f2-4f14-8e63-f0fcb4baf390"},"vehicle_type_id":"4","last_reported":1732126394,"current_range_meters":32000,"station_id":"ce4bho92rcd13ifvqh3g","pricing_plan_id":"cebpf4jnsgd1na2vs0mg"},{"bike_id":"c732344c-c074-4952-b8e7-ae33bc81c397","system_id":"levelo_inurba_marseille","lat":43.29982,"lon":5.38498,"is_reserved":false,"is_disabled":false,"rental_uris":{"android":"levelo://app?vid=c732344c-c074-4952-b8e7-ae33bc81c397","ios":"levelo://app?vid=c732344c-c074-4952-b8e7-ae33bc81c397"},"vehicle_type_id":"4","last_reported":1732126394,"current_range_meters":1200,"station_id":"ce4bgj92rcd13ifvqbd0","pricing_plan_id":"cebpf4jnsgd1na2vs0mg"},{"bike_id":"8d5e8e54-f87c-49b3-8720-7e21078f8fcd","system_id":"levelo_inurba_marseille","lat":43.264857,"lon":5.39544,"is_reserved":false,"is_disabled":false,"rental_uris":{"android":"levelo://app?vid=8d5e8e54-f87c-49b3-8720-7e21078f8fcd","ios":"levelo://app?vid=8d5e8e54-f87c-49b3-8720-7e21078f8fcd"},"vehicle_type_id":"4","last_reported":1732126394,"current_range_meters":38800,"station_id":"ce4bhi12rcd13ifvqfq0","pricing_plan_id":"cebpf4jnsgd1na2vs0mg"},{"bike_id":"01e79adc-7772-4a9a-b74d-df931194fa5c","system_id":"levelo_inurba_marseille","lat":43.24074,"lon":5.37763,"is_reserved":false,"is_disabled":false,"rental_uris":{"android":"levelo://app?vid=01e79adc-7772-4a9a-b74d-df931194fa5c","ios":"levelo://app?vid=01e79adc-7772-4a9a-b74d-df931194fa5c"},"vehicle_type_id":"4","last_reported":1732126394,"current_range_meters":10800,"station_id":"ce4bhnp2rcd13ifvqgvg","pricing_plan_id":"cebpf4jnsgd1na2vs0mg"},{"bike_id":"f5ffb3e5-f141-4e49-961d-7f0ec0b77112","system_id":"levelo_inurba_marseille","lat":43.28074,"lon":5.3966,"is_reserved":false,"is_disabled":false,"rental_uris":{"android":"levelo://app?vid=f5ffb3e5-f141-4e49-961d-7f0ec0b77112","ios":"levelo://app?vid=f5ffb3e5-f141-4e49-961d-7f0ec0b77112"},"vehicle_type_id":"4","last_reported":1732126394,"current_range_meters":32000,"station_id":"ce4bho12rcd13ifvqh2g","pricing_plan_id":"cebpf4jnsgd1na2vs0mg"},{"bike_id":"cdaafd2d-0da1-4fac-9881-15c66a7cd7c0","system_id":"levelo_inurba_marseille","lat":43.23159,"lon":5.43706,"is_reserved":false,"is_disabled":true,"rental_uris":{"android":"levelo://app?vid=cdaafd2d-0da1-4fac-9881-15c66a7cd7c0","ios":"levelo://app?vid=cdaafd2d-0da1-4fac-9881-15c66a7cd7c0"},"vehicle_type_id":"4","last_reported":1732126394,"current_range_meters":0,"station_id":"ce4bhmp2rcd13ifvqgog","pricing_plan_id":"cebpf4jnsgd1na2vs0mg"},{"bike_id":"571ebf17-9551-4693-af9a-d47668470fe6","system_id":"levelo_inurba_marseille","lat":43.32361,"lon":5.3888,"is_reserved":false,"is_disabled":false,"rental_uris":{"android":"levelo://app?vid=571ebf17-9551-4693-af9a-d47668470fe6","ios":"levelo://app?vid=571ebf17-9551-4693-af9a-d47668470fe6"},"vehicle_type_id":"4","last_reported":1732126394,"current_range_meters":8000,"station_id":"ce4bhqp2rcd13ifvqhog","pricing_plan_id":"cebpf4jnsgd1na2vs0mg"},{"bike_id":"8eb0dfb3-4838-47af-8db8-aafda67e191e","system_id":"levelo_inurba_marseille","lat":43.29057,"lon":5.35905,"is_reserved":false,"is_disabled":false,"rental_uris":{"android":"levelo://app?vid=8eb0dfb3-4838-47af-8db8-aafda67e191e","ios":"levelo://app?vid=8eb0dfb3-4838-47af-8db8-aafda67e191e"},"vehicle_type_id":"4","last_reported":1732126394,"current_range_meters":32000,"station_id":"ce4bha92rcd13ifvqeg0","pricing_plan_id":"cebpf4jnsgd1na2vs0mg"},{"bike_id":"8d5ad0a8-268e-4afd-be61-7919f93826c7","system_id":"levelo_inurba_marseille","lat":43.29913,"lon":5.37474,"is_reserved":false,"is_disabled":true,"rental_uris":{"android":"levelo://app?vid=8d5ad0a8-268e-4afd-be61-7919f93826c7","ios":"levelo://app?vid=8d5ad0a8-268e-4afd-be61-7919f93826c7"},"vehicle_type_id":"4","last_reported":1732126394,"current_range_meters":36800,"station_id":"ce4bgjh2rcd13ifvqbg0","pricing_plan_id":"cebpf4jnsgd1na2vs0mg"},{"bike_id":"f198b97b-88d4-49aa-b205-4610520421a6","system_id":"levelo_inurba_marseille","lat":43.33018,"lon":5.39041,"is_reserved":false,"is_disabled":false,"rental_uris":{"android":"levelo://app?vid=f198b97b-88d4-49aa-b205-4610520421a6","ios":"levelo://app?vid=f198b97b-88d4-49aa-b205-4610520421a6"},"vehicle_type_id":"4","last_reported":1732126394,"current_range_meters":39200,"station_id":"ce4bhr92rcd13ifvqhrg","pricing_plan_id":"cebpf4jnsgd1na2vs0mg"},{"bike_id":"d193791a-0512-4817-8b67-b5e89d3445fa","system_id":"levelo_inurba_marseille","lat":43.25084,"lon":5.39518,"is_reserved":false,"is_disabled":false,"rental_uris":{"android":"levelo://app?vid=d193791a-0512-4817-8b67-b5e89d3445fa","ios":"levelo://app?vid=d193791a-0512-4817-8b67-b5e89d3445fa"},"vehicle_type_id":"4","last_reported":1732126394,"current_range_meters":27600,"station_id":"","pricing_plan_id":"cebpf4jnsgd1na2vs0mg"},{"bike_id":"20b8fda3-25c0-47ec-9e06-266171433333","system_id":"levelo_inurba_marseille","lat":43.24384,"lon":5.37057,"is_reserved":false,"is_disabled":false,"rental_uris":{"android":"levelo://app?vid=20b8fda3-25c0-47ec-9e06-266171433333","ios":"levelo://app?vid=20b8fda3-25c0-47ec-9e06-266171433333"},"vehicle_type_id":"4","last_reported":1732126394,"current_range_meters":27200,"station_id":"ce4bhhh2rcd13ifvqfk0","pricing_plan_id":"cebpf4jnsgd1na2vs0mg"},{"bike_id":"cb46bcca-dad8-41f3-aed0-7cf38287d80f","system_id":"levelo_inurba_marseille","lat":43.25578,"lon":5.38239,"is_reserved":false,"is_disabled":false,"rental_uris":{"android":"levelo://app?vid=cb46bcca-dad8-41f3-aed0-7cf38287d80f","ios":"levelo://app?vid=cb46bcca-dad8-41f3-aed0-7cf38287d80f"},"vehicle_type_id":"4","last_reported":1732126394,"current_range_meters":4000,"station_id":"ce4bhih2rcd13ifvqfs0","pricing_plan_id":"cebpf4jnsgd1na2vs0mg"},{"bike_id":"3b83af0f-3929-414c-9d4e-77acb2949ed9","system_id":"levelo_inurba_marseille","lat":43.27054,"lon":5.40265,"is_reserved":false,"is_disabled":true,"rental_uris":{"android":"levelo://app?vid=3b83af0f-3929-414c-9d4e-77acb2949ed9","ios":"levelo://app?vid=3b83af0f-3929-414c-9d4e-77acb2949ed9"},"vehicle_type_id":"4","last_reported":1732126394,"current_range_meters":0,"station_id":"ce4bhk92rcd13ifvqgc0","pricing_plan_id":"cebpf4jnsgd1na2vs0mg"},{"bike_id":"c2b5fbbf-7825-4a99-a7ab-db68406d5617","system_id":"levelo_inurba_marseille","lat":43.29258,"lon":5.38439,"is_reserved":false,"is_disabled":false,"rental_uris":{"android":"levelo://app?vid=c2b5fbbf-7825-4a99-a7ab-db68406d5617","ios":"levelo://app?vid=c2b5fbbf-7825-4a99-a7ab-db68406d5617"},"vehicle_type_id":"4","last_reported":1732126394,"current_range_meters":38400,"station_id":"ce4bh692rcd13ifvqea0","pricing_plan_id":"cebpf4jnsgd1na2vs0mg"},{"bike_id":"319639f6-c364-407e-9612-56f449d4d076","system_id":"levelo_inurba_marseille","lat":43.28067,"lon":5.39661,"is_reserved":false,"is_disabled":true,"rental_uris":{"android":"levelo://app?vid=319639f6-c364-407e-9612-56f449d4d076","ios":"levelo://app?vid=319639f6-c364-407e-9612-56f449d4d076"},"vehicle_type_id":"4","last_reported":1732126394,"current_range_meters":0,"station_id":"ce4bho12rcd13ifvqh2g","pricing_plan_id":"cebpf4jnsgd1na2vs0mg"},{"bike_id":"9d1b7cbb-98fa-41ad-94a0-1a65bb16f3d3","system_id":"levelo_inurba_marseille","lat":43.31755,"lon":5.39018,"is_reserved":false,"is_disabled":false,"rental_uris":{"android":"levelo://app?vid=9d1b7cbb-98fa-41ad-94a0-1a65bb16f3d3","ios":"levelo://app?vid=9d1b7cbb-98fa-41ad-94a0-1a65bb16f3d3"},"vehicle_type_id":"4","last_reported":1732126394,"current_range_meters":9200,"station_id":"ce4bhqp2rcd13ifvqhng","pricing_plan_id":"cebpf4jnsgd1na2vs0mg"},{"bike_id":"48798d28-e765-4bca-8863-1241fbb61318","system_id":"levelo_inurba_marseille","lat":43.28695,"lon":5.37386,"is_reserved":false,"is_disabled":false,"rental_uris":{"android":"levelo://app?vid=48798d28-e765-4bca-8863-1241fbb61318","ios":"levelo://app?vid=48798d28-e765-4bca-8863-1241fbb61318"},"vehicle_type_id":"4","last_reported":1732126394,"current_range_meters":38800,"station_id":"ce4bh3p2rcd13ifvqdq0","pricing_plan_id":"cebpf4jnsgd1na2vs0mg"},{"bike_id":"1951da77-c259-424b-b12e-3b8bb4eeaeca","system_id":"levelo_inurba_marseille","lat":43.29068,"lon":5.37162,"is_reserved":false,"is_disabled":true,"rental_uris":{"android":"levelo://app?vid=1951da77-c259-424b-b12e-3b8bb4eeaeca","ios":"levelo://app?vid=1951da77-c259-424b-b12e-3b8bb4eeaeca"},"vehicle_type_id":"4","last_reported":1732126394,"current_range_meters":28400,"station_id":"ce4bh5p2rcd13ifvqe4g","pricing_plan_id":"cebpf4jnsgd1na2vs0mg"},{"bike_id":"d2ba6e6f-fbc9-41e0-a097-27014c95f949","system_id":"levelo_inurba_marseille","lat":43.30796,"lon":5.43518,"is_reserved":false,"is_disabled":false,"rental_uris":{"android":"levelo://app?vid=d2ba6e6f-fbc9-41e0-a097-27014c95f949","ios":"levelo://app?vid=d2ba6e6f-fbc9-41e0-a097-27014c95f949"},"vehicle_type_id":"4","last_reported":1732126394,"current_range_meters":30000,"station_id":"ce4bhph2rcd13ifvqheg","pricing_plan_id":"cebpf4jnsgd1na2vs0mg"},{"bike_id":"c5f1db54-11ea-4990-b832-555ec10080b9","system_id":"levelo_inurba_marseille","lat":43.265701,"lon":5.390137,"is_reserved":false,"is_disabled":false,"rental_uris":{"android":"levelo://app?vid=c5f1db54-11ea-4990-b832-555ec10080b9","ios":"levelo://app?vid=c5f1db54-11ea-4990-b832-555ec10080b9"},"vehicle_type_id":"4","last_reported":1732126394,"current_range_meters":38800,"station_id":"ce4bhe12rcd13ifvqf30","pricing_plan_id":"cebpf4jnsgd1na2vs0mg"},{"bike_id":"e848a80c-eb56-48e3-8d7f-ee6646f21ed5","system_id":"levelo_inurba_marseille","lat":43.29432,"lon":5.39748,"is_reserved":false,"is_disabled":false,"rental_uris":{"android":"levelo://app?vid=e848a80c-eb56-48e3-8d7f-ee6646f21ed5","ios":"levelo://app?vid=e848a80c-eb56-48e3-8d7f-ee6646f21ed5"},"vehicle_type_id":"4","last_reported":1732126394,"current_range_meters":29600,"station_id":"ce4bh3h2rcd13ifvqdo0","pricing_plan_id":"cebpf4jnsgd1na2vs0mg"},{"bike_id":"a858d3c9-f611-4d50-9c6e-5d3eb791536e","system_id":"levelo_inurba_marseille","lat":43.33814,"lon":5.43602,"is_reserved":false,"is_disabled":false,"rental_uris":{"android":"levelo://app?vid=a858d3c9-f611-4d50-9c6e-5d3eb791536e","ios":"levelo://app?vid=a858d3c9-f611-4d50-9c6e-5d3eb791536e"},"vehicle_type_id":"4","last_reported":1732126394,"current_range_meters":14400,"station_id":"","pricing_plan_id":"cebpf4jnsgd1na2vs0mg"},{"bike_id":"9b4d52a8-a22b-418c-a556-65afaca3a235","system_id":"levelo_inurba_marseille","lat":43.33758,"lon":5.37455,"is_reserved":false,"is_disabled":false,"rental_uris":{"android":"levelo://app?vid=9b4d52a8-a22b-418c-a556-65afaca3a235","ios":"levelo://app?vid=9b4d52a8-a22b-418c-a556-65afaca3a235"},"vehicle_type_id":"4","last_reported":1732126394,"current_range_meters":15200,"station_id":"","pricing_plan_id":"cebpf4jnsgd1na2vs0mg"},{"bike_id":"734ff50f-9424-4ab8-8cc3-954e7ed965b9","system_id":"levelo_inurba_marseille","lat":43.29223,"lon":5.36069,"is_reserved":false,"is_disabled":false,"rental_uris":{"android":"levelo://app?vid=734ff50f-9424-4ab8-8cc3-954e7ed965b9","ios":"levelo://app?vid=734ff50f-9424-4ab8-8cc3-954e7ed965b9"},"vehicle_type_id":"4","last_reported":1732126394,"current_range_meters":20400,"station_id":"ce4bhbh2rcd13ifvqeqg","pricing_plan_id":"cebpf4jnsgd1na2vs0mg"},{"bike_id":"2af4d00b-5050-4935-b5d1-08b4e90f04bf","system_id":"levelo_inurba_marseille","lat":43.29027,"lon":5.38641,"is_reserved":false,"is_disabled":false,"rental_uris":{"android":"levelo://app?vid=2af4d00b-5050-4935-b5d1-08b4e90f04bf","ios":"levelo://app?vid=2af4d00b-5050-4935-b5d1-08b4e90f04bf"},"vehicle_type_id":"4","last_reported":1732126394,"current_range_meters":38800,"station_id":"ce4bh4p2rcd13ifvqe0g","pricing_plan_id":"cebpf4jnsgd1na2vs0mg"},{"bike_id":"13210393-5d7e-42af-ac37-a29fed95f89f","system_id":"levelo_inurba_marseille","lat":43.30349,"lon":5.41882,"is_reserved":false,"is_disabled":false,"rental_uris":{"android":"levelo://app?vid=13210393-5d7e-42af-ac37-a29fed95f89f","ios":"levelo://app?vid=13210393-5d7e-42af-ac37-a29fed95f89f"},"vehicle_type_id":"4","last_reported":1732126394,"current_range_meters":8400,"station_id":"ce4bhop2rcd13ifvqh7g","pricing_plan_id":"cebpf4jnsgd1na2vs0mg"},{"bike_id":"b60cc273-b0c2-42b6-a0f5-c2faf3f8160b","system_id":"levelo_inurba_marseille","lat":43.22932,"lon":5.35378,"is_reserved":false,"is_disabled":false,"rental_uris":{"android":"levelo://app?vid=b60cc273-b0c2-42b6-a0f5-c2faf3f8160b","ios":"levelo://app?vid=b60cc273-b0c2-42b6-a0f5-c2faf3f8160b"},"vehicle_type_id":"4","last_reported":1732126394,"current_range_meters":22000,"station_id":"cpo3532slgdg3j2ikp40","pricing_plan_id":"cebpf4jnsgd1na2vs0mg"},{"bike_id":"8ae288fe-7f9e-4636-bc68-3daa0c790f34","system_id":"levelo_inurba_marseille","lat":43.24663,"lon":5.38165,"is_reserved":false,"is_disabled":true,"rental_uris":{"android":"levelo://app?vid=8ae288fe-7f9e-4636-bc68-3daa0c790f34","ios":"levelo://app?vid=8ae288fe-7f9e-4636-bc68-3daa0c790f34"},"vehicle_type_id":"4","last_reported":1732126394,"current_range_meters":0,"station_id":"ce4bhih2rcd13ifvqfr0","pricing_plan_id":"cebpf4jnsgd1na2vs0mg"},{"bike_id":"34db620f-76f5-4d04-b6de-33b93f9d9c0b","system_id":"levelo_inurba_marseille","lat":43.282675,"lon":5.350621,"is_reserved":false,"is_disabled":true,"rental_uris":{"android":"levelo://app?vid=34db620f-76f5-4d04-b6de-33b93f9d9c0b","ios":"levelo://app?vid=34db620f-76f5-4d04-b6de-33b93f9d9c0b"},"vehicle_type_id":"4","last_reported":1732126394,"current_range_meters":0,"station_id":"ce4bhbp2rcd13ifvqerg","pricing_plan_id":"cebpf4jnsgd1na2vs0mg"},{"bike_id":"f8d773ad-6117-441c-8a1f-2ad7889ac928","system_id":"levelo_inurba_marseille","lat":43.337444,"lon":5.374475,"is_reserved":false,"is_disabled":false,"rental_uris":{"android":"levelo://app?vid=f8d773ad-6117-441c-8a1f-2ad7889ac928","ios":"levelo://app?vid=f8d773ad-6117-441c-8a1f-2ad7889ac928"},"vehicle_type_id":"4","last_reported":1732126394,"current_range_meters":32400,"station_id":"","pricing_plan_id":"cebpf4jnsgd1na2vs0mg"},{"bike_id":"2196e330-a7aa-4092-bb99-58cef0d5e930","system_id":"levelo_inurba_marseille","lat":43.25092,"lon":5.39522,"is_reserved":false,"is_disabled":false,"rental_uris":{"android":"levelo://app?vid=2196e330-a7aa-4092-bb99-58cef0d5e930","ios":"levelo://app?vid=2196e330-a7aa-4092-bb99-58cef0d5e930"},"vehicle_type_id":"4","last_reported":1732126394,"current_range_meters":38800,"station_id":"ce4bhm12rcd13ifvqgkg","pricing_plan_id":"cebpf4jnsgd1na2vs0mg"},{"bike_id":"a32613c2-ce23-4c6b-99d9-f02f377bc95a","system_id":"levelo_inurba_marseille","lat":43.337444,"lon":5.374475,"is_reserved":false,"is_disabled":false,"rental_uris":{"android":"levelo://app?vid=a32613c2-ce23-4c6b-99d9-f02f377bc95a","ios":"levelo://app?vid=a32613c2-ce23-4c6b-99d9-f02f377bc95a"},"vehicle_type_id":"4","last_reported":1732126394,"current_range_meters":37600,"station_id":"","pricing_plan_id":"cebpf4jnsgd1na2vs0mg"},{"bike_id":"b62331f6-ed4a-4f1e-a5bd-22858541b98f","system_id":"levelo_inurba_marseille","lat":43.29533,"lon":5.38541,"is_reserved":false,"is_disabled":false,"rental_uris":{"android":"levelo://app?vid=b62331f6-ed4a-4f1e-a5bd-22858541b98f","ios":"levelo://app?vid=b62331f6-ed4a-4f1e-a5bd-22858541b98f"},"vehicle_type_id":"4","last_reported":1732126394,"current_range_meters":38800,"station_id":"ce4bgih2rcd13ifvqba0","pricing_plan_id":"cebpf4jnsgd1na2vs0mg"},{"bike_id":"b776332e-40d1-4fd6-9c65-32803e6de98b","system_id":"levelo_inurba_marseille","lat":43.30145,"lon":5.37416,"is_reserved":false,"is_disabled":true,"rental_uris":{"android":"levelo://app?vid=b776332e-40d1-4fd6-9c65-32803e6de98b","ios":"levelo://app?vid=b776332e-40d1-4fd6-9c65-32803e6de98b"},"vehicle_type_id":"4","last_reported":1732126394,"current_range_meters":0,"station_id":"ce4bgs92rcd13ifvqcc0","pricing_plan_id":"cebpf4jnsgd1na2vs0mg"},{"bike_id":"b1de4ed4-280f-4e86-ae53-ed82da74787c","system_id":"levelo_inurba_marseille","lat":43.32334,"lon":5.40626,"is_reserved":false,"is_disabled":false,"rental_uris":{"android":"levelo://app?vid=b1de4ed4-280f-4e86-ae53-ed82da74787c","ios":"levelo://app?vid=b1de4ed4-280f-4e86-ae53-ed82da74787c"},"vehicle_type_id":"4","last_reported":1732126394,"current_range_meters":36400,"station_id":"ce4bhq92rcd13ifvqhjg","pricing_plan_id":"cebpf4jnsgd1na2vs0mg"},{"bike_id":"f0630658-63d5-4caa-89b5-b499c469d26d","system_id":"levelo_inurba_marseille","lat":43.28048,"lon":5.36952,"is_reserved":false,"is_disabled":false,"rental_uris":{"android":"levelo://app?vid=f0630658-63d5-4caa-89b5-b499c469d26d","ios":"levelo://app?vid=f0630658-63d5-4caa-89b5-b499c469d26d"},"vehicle_type_id":"4","last_reported":1732126394,"current_range_meters":36800,"station_id":"ce4bha12rcd13ifvqef0","pricing_plan_id":"cebpf4jnsgd1na2vs0mg"},{"bike_id":"33013e43-d7c2-483b-8efa-ed2fa95b40d3","system_id":"levelo_inurba_marseille","lat":43.30298,"lon":5.36892,"is_reserved":false,"is_disabled":false,"rental_uris":{"android":"levelo://app?vid=33013e43-d7c2-483b-8efa-ed2fa95b40d3","ios":"levelo://app?vid=33013e43-d7c2-483b-8efa-ed2fa95b40d3"},"vehicle_type_id":"4","last_reported":1732126394,"current_range_meters":3200,"station_id":"ce4bgqh2rcd13ifvqc5g","pricing_plan_id":"cebpf4jnsgd1na2vs0mg"},{"bike_id":"25f67881-4d10-488f-ae2e-163cd58b570a","system_id":"levelo_inurba_marseille","lat":43.29195,"lon":5.35807,"is_reserved":false,"is_disabled":false,"rental_uris":{"android":"levelo://app?vid=25f67881-4d10-488f-ae2e-163cd58b570a","ios":"levelo://app?vid=25f67881-4d10-488f-ae2e-163cd58b570a"},"vehicle_type_id":"4","last_reported":1732126394,"current_range_meters":20000,"station_id":"ce4bhb12rcd13ifvqel0","pricing_plan_id":"cebpf4jnsgd1na2vs0mg"},{"bike_id":"53c05eee-e450-4c46-b2b0-3ddb9620f25e","system_id":"levelo_inurba_marseille","lat":43.30408,"lon":5.39982,"is_reserved":false,"is_disabled":false,"rental_uris":{"android":"levelo://app?vid=53c05eee-e450-4c46-b2b0-3ddb9620f25e","ios":"levelo://app?vid=53c05eee-e450-4c46-b2b0-3ddb9620f25e"},"vehicle_type_id":"4","last_reported":1732126394,"current_range_meters":16000,"station_id":"ce4bh0h2rcd13ifvqd50","pricing_plan_id":"cebpf4jnsgd1na2vs0mg"},{"bike_id":"1b758113-6a51-491b-b678-620870512093","system_id":"levelo_inurba_marseille","lat":43.33023,"lon":5.39037,"is_reserved":false,"is_disabled":false,"rental_uris":{"android":"levelo://app?vid=1b758113-6a51-491b-b678-620870512093","ios":"levelo://app?vid=1b758113-6a51-491b-b678-620870512093"},"vehicle_type_id":"4","last_reported":1732126394,"current_range_meters":14000,"station_id":"ce4bhr92rcd13ifvqhrg","pricing_plan_id":"cebpf4jnsgd1na2vs0mg"},{"bike_id":"7a03fe2c-2501-4593-945f-c4181e6082d2","system_id":"levelo_inurba_marseille","lat":43.29934,"lon":5.36538,"is_reserved":false,"is_disabled":false,"rental_uris":{"android":"levelo://app?vid=7a03fe2c-2501-4593-945f-c4181e6082d2","ios":"levelo://app?vid=7a03fe2c-2501-4593-945f-c4181e6082d2"},"vehicle_type_id":"4","last_reported":1732126394,"current_range_meters":32000,"station_id":"ce4bgm92rcd13ifvqbr0","pricing_plan_id":"cebpf4jnsgd1na2vs0mg"},{"bike_id":"a016d8fe-eb7d-41b4-9004-329ced9e07b5","system_id":"levelo_inurba_marseille","lat":43.3171,"lon":5.37745,"is_reserved":false,"is_disabled":false,"rental_uris":{"android":"levelo://app?vid=a016d8fe-eb7d-41b4-9004-329ced9e07b5","ios":"levelo://app?vid=a016d8fe-eb7d-41b4-9004-329ced9e07b5"},"vehicle_type_id":"4","last_reported":1732126394,"current_range_meters":6400,"station_id":"ce4bgth2rcd13ifvqch0","pricing_plan_id":"cebpf4jnsgd1na2vs0mg"},{"bike_id":"dfdc5e61-7b27-4b66-95ca-620c77fce2ee","system_id":"levelo_inurba_marseille","lat":43.260636,"lon":5.394022,"is_reserved":false,"is_disabled":false,"rental_uris":{"android":"levelo://app?vid=dfdc5e61-7b27-4b66-95ca-620c77fce2ee","ios":"levelo://app?vid=dfdc5e61-7b27-4b66-95ca-620c77fce2ee"},"vehicle_type_id":"4","last_reported":1732126394,"current_range_meters":33600,"station_id":"ce4bhh92rcd13ifvqfj0","pricing_plan_id":"cebpf4jnsgd1na2vs0mg"},{"bike_id":"5d65b627-3435-4723-9775-b5218e9b2a7a","system_id":"levelo_inurba_marseille","lat":43.27207,"lon":5.39195,"is_reserved":false,"is_disabled":true,"rental_uris":{"android":"levelo://app?vid=5d65b627-3435-4723-9775-b5218e9b2a7a","ios":"levelo://app?vid=5d65b627-3435-4723-9775-b5218e9b2a7a"},"vehicle_type_id":"4","last_reported":1732126394,"current_range_meters":10000,"station_id":"ce4bhhp2rcd13ifvqfm0","pricing_plan_id":"cebpf4jnsgd1na2vs0mg"},{"bike_id":"37c057ae-b2d1-4c1c-88db-4514cc8ecb0e","system_id":"levelo_inurba_marseille","lat":43.2957,"lon":5.37527,"is_reserved":false,"is_disabled":true,"rental_uris":{"android":"levelo://app?vid=37c057ae-b2d1-4c1c-88db-4514cc8ecb0e","ios":"levelo://app?vid=37c057ae-b2d1-4c1c-88db-4514cc8ecb0e"},"vehicle_type_id":"4","last_reported":1732126394,"current_range_meters":0,"station_id":"ce4bgh92rcd13ifvqb50","pricing_plan_id":"cebpf4jnsgd1na2vs0mg"},{"bike_id":"8818b0a7-c814-4461-bb43-5fd8c33bac08","system_id":"levelo_inurba_marseille","lat":43.3302,"lon":5.39033,"is_reserved":false,"is_disabled":false,"rental_uris":{"android":"levelo://app?vid=8818b0a7-c814-4461-bb43-5fd8c33bac08","ios":"levelo://app?vid=8818b0a7-c814-4461-bb43-5fd8c33bac08"},"vehicle_type_id":"4","last_reported":1732126394,"current_range_meters":29600,"station_id":"ce4bhr92rcd13ifvqhrg","pricing_plan_id":"cebpf4jnsgd1na2vs0mg"},{"bike_id":"1904e4d6-e1e0-456f-9800-8b0e0e7107b4","system_id":"levelo_inurba_marseille","lat":43.23153,"lon":5.4371,"is_reserved":false,"is_disabled":true,"rental_uris":{"android":"levelo://app?vid=1904e4d6-e1e0-456f-9800-8b0e0e7107b4","ios":"levelo://app?vid=1904e4d6-e1e0-456f-9800-8b0e0e7107b4"},"vehicle_type_id":"4","last_reported":1732126394,"current_range_meters":0,"station_id":"ce4bhmp2rcd13ifvqgog","pricing_plan_id":"cebpf4jnsgd1na2vs0mg"},{"bike_id":"ad09ba2a-db5a-4ef4-b375-9818098520a3","system_id":"levelo_inurba_marseille","lat":43.3015,"lon":5.37419,"is_reserved":false,"is_disabled":false,"rental_uris":{"android":"levelo://app?vid=ad09ba2a-db5a-4ef4-b375-9818098520a3","ios":"levelo://app?vid=ad09ba2a-db5a-4ef4-b375-9818098520a3"},"vehicle_type_id":"4","last_reported":1732126394,"current_range_meters":33200,"station_id":"ce4bgs92rcd13ifvqcc0","pricing_plan_id":"cebpf4jnsgd1na2vs0mg"},{"bike_id":"1eff5ce5-2d56-4465-a12c-60db9ec2175a","system_id":"levelo_inurba_marseille","lat":43.22928,"lon":5.3538,"is_reserved":false,"is_disabled":false,"rental_uris":{"android":"levelo://app?vid=1eff5ce5-2d56-4465-a12c-60db9ec2175a","ios":"levelo://app?vid=1eff5ce5-2d56-4465-a12c-60db9ec2175a"},"vehicle_type_id":"4","last_reported":1732126394,"current_range_meters":14800,"station_id":"cpo3532slgdg3j2ikp40","pricing_plan_id":"cebpf4jnsgd1na2vs0mg"},{"bike_id":"00316167-6cf8-4911-a003-1f3c6a8e82c8","system_id":"levelo_inurba_marseille","lat":43.30265,"lon":5.40079,"is_reserved":false,"is_disabled":false,"rental_uris":{"android":"levelo://app?vid=00316167-6cf8-4911-a003-1f3c6a8e82c8","ios":"levelo://app?vid=00316167-6cf8-4911-a003-1f3c6a8e82c8"},"vehicle_type_id":"4","last_reported":1732126394,"current_range_meters":12800,"station_id":"ce4bgvh2rcd13ifvqcs0","pricing_plan_id":"cebpf4jnsgd1na2vs0mg"},{"bike_id":"ce6d46e5-4223-4bce-a0db-85f63ca84039","system_id":"levelo_inurba_marseille","lat":43.30139,"lon":5.40048,"is_reserved":false,"is_disabled":false,"rental_uris":{"android":"levelo://app?vid=ce6d46e5-4223-4bce-a0db-85f63ca84039","ios":"levelo://app?vid=ce6d46e5-4223-4bce-a0db-85f63ca84039"},"vehicle_type_id":"4","last_reported":1732126394,"current_range_meters":6000,"station_id":"","pricing_plan_id":"cebpf4jnsgd1na2vs0mg"},{"bike_id":"f1126846-151c-41db-a723-1b5f4b356b87","system_id":"levelo_inurba_marseille","lat":43.32363,"lon":5.38884,"is_reserved":false,"is_disabled":true,"rental_uris":{"android":"levelo://app?vid=f1126846-151c-41db-a723-1b5f4b356b87","ios":"levelo://app?vid=f1126846-151c-41db-a723-1b5f4b356b87"},"vehicle_type_id":"4","last_reported":1732126394,"current_range_meters":12400,"station_id":"ce4bhqp2rcd13ifvqhog","pricing_plan_id":"cebpf4jnsgd1na2vs0mg"},{"bike_id":"3ff3dc15-6297-40ec-80c0-69786164c819","system_id":"levelo_inurba_marseille","lat":43.31533,"lon":5.38026,"is_reserved":false,"is_disabled":false,"rental_uris":{"android":"levelo://app?vid=3ff3dc15-6297-40ec-80c0-69786164c819","ios":"levelo://app?vid=3ff3dc15-6297-40ec-80c0-69786164c819"},"vehicle_type_id":"4","last_reported":1732126394,"current_range_meters":10800,"station_id":"ce4bhsp2rcd13ifvqi50","pricing_plan_id":"cebpf4jnsgd1na2vs0mg"},{"bike_id":"954054ad-77ac-46c3-a1b5-c8fc266a522b","system_id":"levelo_inurba_marseille","lat":43.31725,"lon":5.42397,"is_reserved":false,"is_disabled":false,"rental_uris":{"android":"levelo://app?vid=954054ad-77ac-46c3-a1b5-c8fc266a522b","ios":"levelo://app?vid=954054ad-77ac-46c3-a1b5-c8fc266a522b"},"vehicle_type_id":"4","last_reported":1732126394,"current_range_meters":39200,"station_id":"ce4bhp92rcd13ifvqhbg","pricing_plan_id":"cebpf4jnsgd1na2vs0mg"},{"bike_id":"c12befb0-d6cf-4613-8ce8-21bc491f40f6","system_id":"levelo_inurba_marseille","lat":43.29035,"lon":5.39958,"is_reserved":false,"is_disabled":true,"rental_uris":{"android":"levelo://app?vid=c12befb0-d6cf-4613-8ce8-21bc491f40f6","ios":"levelo://app?vid=c12befb0-d6cf-4613-8ce8-21bc491f40f6"},"vehicle_type_id":"4","last_reported":1732126394,"current_range_meters":0,"station_id":"ce4bh392rcd13ifvqdm0","pricing_plan_id":"cebpf4jnsgd1na2vs0mg"},{"bike_id":"9c4a655e-2680-4a60-a844-6a2ea62fb4b1","system_id":"levelo_inurba_marseille","lat":43.26066,"lon":5.39389,"is_reserved":false,"is_disabled":false,"rental_uris":{"android":"levelo://app?vid=9c4a655e-2680-4a60-a844-6a2ea62fb4b1","ios":"levelo://app?vid=9c4a655e-2680-4a60-a844-6a2ea62fb4b1"},"vehicle_type_id":"4","last_reported":1732126394,"current_range_meters":24000,"station_id":"ce4bhh92rcd13ifvqfj0","pricing_plan_id":"cebpf4jnsgd1na2vs0mg"},{"bike_id":"791e684f-2de5-4b0d-97d7-8395721ee757","system_id":"levelo_inurba_marseille","lat":43.24806,"lon":5.37453,"is_reserved":false,"is_disabled":false,"rental_uris":{"android":"levelo://app?vid=791e684f-2de5-4b0d-97d7-8395721ee757","ios":"levelo://app?vid=791e684f-2de5-4b0d-97d7-8395721ee757"},"vehicle_type_id":"4","last_reported":1732126394,"current_range_meters":36000,"station_id":"ce4bhgh2rcd13ifvqfb0","pricing_plan_id":"cebpf4jnsgd1na2vs0mg"},{"bike_id":"2d595191-ec0a-431b-9043-f48ec3e8ec34","system_id":"levelo_inurba_marseille","lat":43.29197,"lon":5.35804,"is_reserved":false,"is_disabled":false,"rental_uris":{"android":"levelo://app?vid=2d595191-ec0a-431b-9043-f48ec3e8ec34","ios":"levelo://app?vid=2d595191-ec0a-431b-9043-f48ec3e8ec34"},"vehicle_type_id":"4","last_reported":1732126394,"current_range_meters":4400,"station_id":"ce4bhb12rcd13ifvqel0","pricing_plan_id":"cebpf4jnsgd1na2vs0mg"},{"bike_id":"5a424999-1add-4697-a782-2b08b19f5e7d","system_id":"levelo_inurba_marseille","lat":43.30906,"lon":5.36842,"is_reserved":false,"is_disabled":false,"rental_uris":{"android":"levelo://app?vid=5a424999-1add-4697-a782-2b08b19f5e7d","ios":"levelo://app?vid=5a424999-1add-4697-a782-2b08b19f5e7d"},"vehicle_type_id":"4","last_reported":1732126394,"current_range_meters":15200,"station_id":"ce4bgn92rcd13ifvqbvg","pricing_plan_id":"cebpf4jnsgd1na2vs0mg"},{"bike_id":"e840fe4f-47a0-4d31-8133-7c332a3d517a","system_id":"levelo_inurba_marseille","lat":43.31078,"lon":5.42432,"is_reserved":false,"is_disabled":true,"rental_uris":{"android":"levelo://app?vid=e840fe4f-47a0-4d31-8133-7c332a3d517a","ios":"levelo://app?vid=e840fe4f-47a0-4d31-8133-7c332a3d517a"},"vehicle_type_id":"4","last_reported":1732126394,"current_range_meters":9600,"station_id":"ce4bhp92rcd13ifvqhag","pricing_plan_id":"cebpf4jnsgd1na2vs0mg"},{"bike_id":"285ae4e5-779f-42ed-a2ff-7e78942a0fb9","system_id":"levelo_inurba_marseille","lat":43.28156,"lon":5.42644,"is_reserved":false,"is_disabled":false,"rental_uris":{"android":"levelo://app?vid=285ae4e5-779f-42ed-a2ff-7e78942a0fb9","ios":"levelo://app?vid=285ae4e5-779f-42ed-a2ff-7e78942a0fb9"},"vehicle_type_id":"4","last_reported":1732126394,"current_range_meters":3600,"station_id":"ce4bhnh2rcd13ifvqgug","pricing_plan_id":"cebpf4jnsgd1na2vs0mg"},{"bike_id":"92657c08-bded-4b71-8e87-ecdafc845042","system_id":"levelo_inurba_marseille","lat":43.2767,"lon":5.38876,"is_reserved":false,"is_disabled":false,"rental_uris":{"android":"levelo://app?vid=92657c08-bded-4b71-8e87-ecdafc845042","ios":"levelo://app?vid=92657c08-bded-4b71-8e87-ecdafc845042"},"vehicle_type_id":"4","last_reported":1732126394,"current_range_meters":24000,"station_id":"ce4bhi12rcd13ifvqfo0","pricing_plan_id":"cebpf4jnsgd1na2vs0mg"},{"bike_id":"d0b25063-484d-4898-a808-84974f7eed8c","system_id":"levelo_inurba_marseille","lat":43.31697,"lon":5.37764,"is_reserved":false,"is_disabled":false,"rental_uris":{"android":"levelo://app?vid=d0b25063-484d-4898-a808-84974f7eed8c","ios":"levelo://app?vid=d0b25063-484d-4898-a808-84974f7eed8c"},"vehicle_type_id":"4","last_reported":1732126394,"current_range_meters":16800,"station_id":"ce4bgth2rcd13ifvqch0","pricing_plan_id":"cebpf4jnsgd1na2vs0mg"},{"bike_id":"f6ca9245-191f-4978-98c5-b08ce79f5b19","system_id":"levelo_inurba_marseille","lat":43.25868,"lon":5.39897,"is_reserved":false,"is_disabled":false,"rental_uris":{"android":"levelo://app?vid=f6ca9245-191f-4978-98c5-b08ce79f5b19","ios":"levelo://app?vid=f6ca9245-191f-4978-98c5-b08ce79f5b19"},"vehicle_type_id":"4","last_reported":1732126394,"current_range_meters":26000,"station_id":"ce4bhl92rcd13ifvqghg","pricing_plan_id":"cebpf4jnsgd1na2vs0mg"},{"bike_id":"60603660-d34b-4a0f-ace6-4c169e01eab7","system_id":"levelo_inurba_marseille","lat":43.26494,"lon":5.39547,"is_reserved":false,"is_disabled":false,"rental_uris":{"android":"levelo://app?vid=60603660-d34b-4a0f-ace6-4c169e01eab7","ios":"levelo://app?vid=60603660-d34b-4a0f-ace6-4c169e01eab7"},"vehicle_type_id":"4","last_reported":1732126394,"current_range_meters":39200,"station_id":"ce4bhi12rcd13ifvqfq0","pricing_plan_id":"cebpf4jnsgd1na2vs0mg"},{"bike_id":"082b9d39-45f7-4d49-921a-db168541fb46","system_id":"levelo_inurba_marseille","lat":43.29277,"lon":5.36846,"is_reserved":false,"is_disabled":false,"rental_uris":{"android":"levelo://app?vid=082b9d39-45f7-4d49-921a-db168541fb46","ios":"levelo://app?vid=082b9d39-45f7-4d49-921a-db168541fb46"},"vehicle_type_id":"4","last_reported":1732126394,"current_range_meters":8400,"station_id":"ce4bhbp2rcd13ifvqesg","pricing_plan_id":"cebpf4jnsgd1na2vs0mg"},{"bike_id":"98b32e58-9186-4741-afff-13e77a09e04c","system_id":"levelo_inurba_marseille","lat":43.25083,"lon":5.39518,"is_reserved":false,"is_disabled":false,"rental_uris":{"android":"levelo://app?vid=98b32e58-9186-4741-afff-13e77a09e04c","ios":"levelo://app?vid=98b32e58-9186-4741-afff-13e77a09e04c"},"vehicle_type_id":"4","last_reported":1732126394,"current_range_meters":25600,"station_id":"ce4bhm12rcd13ifvqgkg","pricing_plan_id":"cebpf4jnsgd1na2vs0mg"},{"bike_id":"9b3fbf62-4f4c-46b4-9c62-9854a41b7d49","system_id":"levelo_inurba_marseille","lat":43.31712,"lon":5.37763,"is_reserved":false,"is_disabled":false,"rental_uris":{"android":"levelo://app?vid=9b3fbf62-4f4c-46b4-9c62-9854a41b7d49","ios":"levelo://app?vid=9b3fbf62-4f4c-46b4-9c62-9854a41b7d49"},"vehicle_type_id":"4","last_reported":1732126394,"current_range_meters":16000,"station_id":"ce4bgth2rcd13ifvqch0","pricing_plan_id":"cebpf4jnsgd1na2vs0mg"},{"bike_id":"644be243-ce38-4463-b333-41ab1c3e967b","system_id":"levelo_inurba_marseille","lat":43.30328,"lon":5.40436,"is_reserved":false,"is_disabled":false,"rental_uris":{"android":"levelo://app?vid=644be243-ce38-4463-b333-41ab1c3e967b","ios":"levelo://app?vid=644be243-ce38-4463-b333-41ab1c3e967b"},"vehicle_type_id":"4","last_reported":1732126394,"current_range_meters":24800,"station_id":"ce4bh012rcd13ifvqd10","pricing_plan_id":"cebpf4jnsgd1na2vs0mg"},{"bike_id":"7eaf5910-b4db-4259-961f-d6ce83b4b295","system_id":"levelo_inurba_marseille","lat":43.337444,"lon":5.374475,"is_reserved":false,"is_disabled":false,"rental_uris":{"android":"levelo://app?vid=7eaf5910-b4db-4259-961f-d6ce83b4b295","ios":"levelo://app?vid=7eaf5910-b4db-4259-961f-d6ce83b4b295"},"vehicle_type_id":"4","last_reported":1732126394,"current_range_meters":37600,"station_id":"","pricing_plan_id":"cebpf4jnsgd1na2vs0mg"},{"bike_id":"eed401a7-b295-4a23-9ec5-ef961b1536c2","system_id":"levelo_inurba_marseille","lat":43.295463,"lon":5.374468,"is_reserved":false,"is_disabled":false,"rental_uris":{"android":"levelo://app?vid=eed401a7-b295-4a23-9ec5-ef961b1536c2","ios":"levelo://app?vid=eed401a7-b295-4a23-9ec5-ef961b1536c2"},"vehicle_type_id":"4","last_reported":1732126394,"current_range_meters":28800,"station_id":"ce4bgh92rcd13ifvqb50","pricing_plan_id":"cebpf4jnsgd1na2vs0mg"},{"bike_id":"12468be7-36e9-45ce-b9fa-54bfa4cd28ce","system_id":"levelo_inurba_marseille","lat":43.29681,"lon":5.37304,"is_reserved":false,"is_disabled":false,"rental_uris":{"android":"levelo://app?vid=12468be7-36e9-45ce-b9fa-54bfa4cd28ce","ios":"levelo://app?vid=12468be7-36e9-45ce-b9fa-54bfa4cd28ce"},"vehicle_type_id":"4","last_reported":1732126394,"current_range_meters":30400,"station_id":"ce4bgk12rcd13ifvqbj0","pricing_plan_id":"cebpf4jnsgd1na2vs0mg"},{"bike_id":"144b7443-439b-4eb3-a8bb-304f595a9422","system_id":"levelo_inurba_marseille","lat":43.27993,"lon":5.40023,"is_reserved":false,"is_disabled":false,"rental_uris":{"android":"levelo://app?vid=144b7443-439b-4eb3-a8bb-304f595a9422","ios":"levelo://app?vid=144b7443-439b-4eb3-a8bb-304f595a9422"},"vehicle_type_id":"4","last_reported":1732126394,"current_range_meters":39200,"station_id":"ce4bho92rcd13ifvqh4g","pricing_plan_id":"cebpf4jnsgd1na2vs0mg"},{"bike_id":"cef62867-23f4-440a-8364-39b220934f9f","system_id":"levelo_inurba_marseille","lat":43.29164,"lon":5.37153,"is_reserved":false,"is_disabled":false,"rental_uris":{"android":"levelo://app?vid=cef62867-23f4-440a-8364-39b220934f9f","ios":"levelo://app?vid=cef62867-23f4-440a-8364-39b220934f9f"},"vehicle_type_id":"4","last_reported":1732126394,"current_range_meters":34000,"station_id":"ce4bha92rcd13ifvqeh0","pricing_plan_id":"cebpf4jnsgd1na2vs0mg"},{"bike_id":"ffe4e9fb-1745-4a7f-bf2d-14037baef2a7","system_id":"levelo_inurba_marseille","lat":43.29228,"lon":5.40885,"is_reserved":false,"is_disabled":false,"rental_uris":{"android":"levelo://app?vid=ffe4e9fb-1745-4a7f-bf2d-14037baef2a7","ios":"levelo://app?vid=ffe4e9fb-1745-4a7f-bf2d-14037baef2a7"},"vehicle_type_id":"4","last_reported":1732126394,"current_range_meters":38000,"station_id":"ce4bh192rcd13ifvqdc0","pricing_plan_id":"cebpf4jnsgd1na2vs0mg"},{"bike_id":"8e7648dc-d6f6-4fce-acec-a271fdc8ed13","system_id":"levelo_inurba_marseille","lat":43.29972,"lon":5.38495,"is_reserved":false,"is_disabled":false,"rental_uris":{"android":"levelo://app?vid=8e7648dc-d6f6-4fce-acec-a271fdc8ed13","ios":"levelo://app?vid=8e7648dc-d6f6-4fce-acec-a271fdc8ed13"},"vehicle_type_id":"4","last_reported":1732126394,"current_range_meters":8800,"station_id":"ce4bgj92rcd13ifvqbd0","pricing_plan_id":"cebpf4jnsgd1na2vs0mg"},{"bike_id":"355652fe-5b40-4fa8-84ba-669e96205bc5","system_id":"levelo_inurba_marseille","lat":43.31996,"lon":5.38144,"is_reserved":false,"is_disabled":false,"rental_uris":{"android":"levelo://app?vid=355652fe-5b40-4fa8-84ba-669e96205bc5","ios":"levelo://app?vid=355652fe-5b40-4fa8-84ba-669e96205bc5"},"vehicle_type_id":"4","last_reported":1732126394,"current_range_meters":38800,"station_id":"ce4bhr12rcd13ifvqhpg","pricing_plan_id":"cebpf4jnsgd1na2vs0mg"},{"bike_id":"da92100c-6198-499c-bcb4-ce99352a2a85","system_id":"levelo_inurba_marseille","lat":43.24181,"lon":5.39728,"is_reserved":false,"is_disabled":true,"rental_uris":{"android":"levelo://app?vid=da92100c-6198-499c-bcb4-ce99352a2a85","ios":"levelo://app?vid=da92100c-6198-499c-bcb4-ce99352a2a85"},"vehicle_type_id":"4","last_reported":1732126394,"current_range_meters":0,"station_id":"ce4bhn12rcd13ifvqgpg","pricing_plan_id":"cebpf4jnsgd1na2vs0mg"},{"bike_id":"5b5f4604-3a82-4584-a08b-4bc79bf3d12b","system_id":"levelo_inurba_marseille","lat":43.30904,"lon":5.37165,"is_reserved":false,"is_disabled":false,"rental_uris":{"android":"levelo://app?vid=5b5f4604-3a82-4584-a08b-4bc79bf3d12b","ios":"levelo://app?vid=5b5f4604-3a82-4584-a08b-4bc79bf3d12b"},"vehicle_type_id":"4","last_reported":1732126394,"current_range_meters":13600,"station_id":"ce4bguh2rcd13ifvqckg","pricing_plan_id":"cebpf4jnsgd1na2vs0mg"},{"bike_id":"9578ee9f-beb9-42e9-a863-107df67e6c7b","system_id":"levelo_inurba_marseille","lat":43.25866,"lon":5.39896,"is_reserved":false,"is_disabled":false,"rental_uris":{"android":"levelo://app?vid=9578ee9f-beb9-42e9-a863-107df67e6c7b","ios":"levelo://app?vid=9578ee9f-beb9-42e9-a863-107df67e6c7b"},"vehicle_type_id":"4","last_reported":1732126394,"current_range_meters":22000,"station_id":"ce4bhl92rcd13ifvqghg","pricing_plan_id":"cebpf4jnsgd1na2vs0mg"},{"bike_id":"cae080ee-7c9f-46a0-b9fc-d77e4f0f6295","system_id":"levelo_inurba_marseille","lat":43.32055,"lon":5.41544,"is_reserved":false,"is_disabled":false,"rental_uris":{"android":"levelo://app?vid=cae080ee-7c9f-46a0-b9fc-d77e4f0f6295","ios":"levelo://app?vid=cae080ee-7c9f-46a0-b9fc-d77e4f0f6295"},"vehicle_type_id":"4","last_reported":1732126394,"current_range_meters":12000,"station_id":"ce4bhq92rcd13ifvqhkg","pricing_plan_id":"cebpf4jnsgd1na2vs0mg"},{"bike_id":"05da2104-af20-4977-8ba0-3d720dca0f09","system_id":"levelo_inurba_marseille","lat":43.29522,"lon":5.39043,"is_reserved":false,"is_disabled":false,"rental_uris":{"android":"levelo://app?vid=05da2104-af20-4977-8ba0-3d720dca0f09","ios":"levelo://app?vid=05da2104-af20-4977-8ba0-3d720dca0f09"},"vehicle_type_id":"4","last_reported":1732126394,"current_range_meters":36400,"station_id":"ce4bh3p2rcd13ifvqdp0","pricing_plan_id":"cebpf4jnsgd1na2vs0mg"},{"bike_id":"3980a002-8fbc-4856-bdfe-03a477b16162","system_id":"levelo_inurba_marseille","lat":43.268,"lon":5.40273,"is_reserved":false,"is_disabled":false,"rental_uris":{"android":"levelo://app?vid=3980a002-8fbc-4856-bdfe-03a477b16162","ios":"levelo://app?vid=3980a002-8fbc-4856-bdfe-03a477b16162"},"vehicle_type_id":"4","last_reported":1732126394,"current_range_meters":37600,"station_id":"ce501612rcd8frsf0b60","pricing_plan_id":"cebpf4jnsgd1na2vs0mg"},{"bike_id":"efaa20f7-d2fb-4778-9ca3-b17e9193d440","system_id":"levelo_inurba_marseille","lat":43.33723,"lon":5.39177,"is_reserved":false,"is_disabled":false,"rental_uris":{"android":"levelo://app?vid=efaa20f7-d2fb-4778-9ca3-b17e9193d440","ios":"levelo://app?vid=efaa20f7-d2fb-4778-9ca3-b17e9193d440"},"vehicle_type_id":"4","last_reported":1732126394,"current_range_meters":33600,"station_id":"ce4bhr92rcd13ifvqhsg","pricing_plan_id":"cebpf4jnsgd1na2vs0mg"},{"bike_id":"ea1d4a8d-18d8-4559-aa2a-3582f71fc0b4","system_id":"levelo_inurba_marseille","lat":43.24809,"lon":5.37458,"is_reserved":false,"is_disabled":true,"rental_uris":{"android":"levelo://app?vid=ea1d4a8d-18d8-4559-aa2a-3582f71fc0b4","ios":"levelo://app?vid=ea1d4a8d-18d8-4559-aa2a-3582f71fc0b4"},"vehicle_type_id":"4","last_reported":1732126394,"current_range_meters":800,"station_id":"ce4bhgh2rcd13ifvqfb0","pricing_plan_id":"cebpf4jnsgd1na2vs0mg"},{"bike_id":"7edfefb5-aa6a-4a0c-a85f-7e1704ab10a0","system_id":"levelo_inurba_marseille","lat":43.23153,"lon":5.43713,"is_reserved":false,"is_disabled":false,"rental_uris":{"android":"levelo://app?vid=7edfefb5-aa6a-4a0c-a85f-7e1704ab10a0","ios":"levelo://app?vid=7edfefb5-aa6a-4a0c-a85f-7e1704ab10a0"},"vehicle_type_id":"4","last_reported":1732126394,"current_range_meters":38800,"station_id":"ce4bhmp2rcd13ifvqgog","pricing_plan_id":"cebpf4jnsgd1na2vs0mg"},{"bike_id":"7a942108-16ea-4f98-9d80-82c238759071","system_id":"levelo_inurba_marseille","lat":43.29577,"lon":5.39966,"is_reserved":false,"is_disabled":true,"rental_uris":{"android":"levelo://app?vid=7a942108-16ea-4f98-9d80-82c238759071","ios":"levelo://app?vid=7a942108-16ea-4f98-9d80-82c238759071"},"vehicle_type_id":"4","last_reported":1732126394,"current_range_meters":38000,"station_id":"ce4bh312rcd13ifvqdj0","pricing_plan_id":"cebpf4jnsgd1na2vs0mg"},{"bike_id":"028e5427-36e2-49e1-b3db-260058fffb58","system_id":"levelo_inurba_marseille","lat":43.25581,"lon":5.38238,"is_reserved":false,"is_disabled":false,"rental_uris":{"android":"levelo://app?vid=028e5427-36e2-49e1-b3db-260058fffb58","ios":"levelo://app?vid=028e5427-36e2-49e1-b3db-260058fffb58"},"vehicle_type_id":"4","last_reported":1732126394,"current_range_meters":27200,"station_id":"ce4bhih2rcd13ifvqfs0","pricing_plan_id":"cebpf4jnsgd1na2vs0mg"},{"bike_id":"91f0893f-6c9c-447a-87d6-53127af86d60","system_id":"levelo_inurba_marseille","lat":43.2509,"lon":5.39516,"is_reserved":false,"is_disabled":false,"rental_uris":{"android":"levelo://app?vid=91f0893f-6c9c-447a-87d6-53127af86d60","ios":"levelo://app?vid=91f0893f-6c9c-447a-87d6-53127af86d60"},"vehicle_type_id":"4","last_reported":1732126394,"current_range_meters":20400,"station_id":"ce4bhm12rcd13ifvqgkg","pricing_plan_id":"cebpf4jnsgd1na2vs0mg"},{"bike_id":"767c16c0-e3f9-471d-920a-c3faaf36934a","system_id":"levelo_inurba_marseille","lat":43.2873,"lon":5.36079,"is_reserved":false,"is_disabled":true,"rental_uris":{"android":"levelo://app?vid=767c16c0-e3f9-471d-920a-c3faaf36934a","ios":"levelo://app?vid=767c16c0-e3f9-471d-920a-c3faaf36934a"},"vehicle_type_id":"4","last_reported":1732126394,"current_range_meters":0,"station_id":"cki0cbj6b192h4jlfktg","pricing_plan_id":"cebpf4jnsgd1na2vs0mg"},{"bike_id":"fd0d8868-55f6-42c2-9189-6438f84e1fcc","system_id":"levelo_inurba_marseille","lat":43.28153,"lon":5.42639,"is_reserved":false,"is_disabled":false,"rental_uris":{"android":"levelo://app?vid=fd0d8868-55f6-42c2-9189-6438f84e1fcc","ios":"levelo://app?vid=fd0d8868-55f6-42c2-9189-6438f84e1fcc"},"vehicle_type_id":"4","last_reported":1732126394,"current_range_meters":14000,"station_id":"ce4bhnh2rcd13ifvqgug","pricing_plan_id":"cebpf4jnsgd1na2vs0mg"},{"bike_id":"94d3b548-69d4-4808-a496-ba7efce94eb8","system_id":"levelo_inurba_marseille","lat":43.29517,"lon":5.39034,"is_reserved":false,"is_disabled":false,"rental_uris":{"android":"levelo://app?vid=94d3b548-69d4-4808-a496-ba7efce94eb8","ios":"levelo://app?vid=94d3b548-69d4-4808-a496-ba7efce94eb8"},"vehicle_type_id":"4","last_reported":1732126394,"current_range_meters":19600,"station_id":"ce4bh3p2rcd13ifvqdp0","pricing_plan_id":"cebpf4jnsgd1na2vs0mg"},{"bike_id":"41b66025-5082-421d-922c-552de41f1f1b","system_id":"levelo_inurba_marseille","lat":43.33795,"lon":5.37474,"is_reserved":false,"is_disabled":false,"rental_uris":{"android":"levelo://app?vid=41b66025-5082-421d-922c-552de41f1f1b","ios":"levelo://app?vid=41b66025-5082-421d-922c-552de41f1f1b"},"vehicle_type_id":"4","last_reported":1732126394,"current_range_meters":35600,"station_id":"","pricing_plan_id":"cebpf4jnsgd1na2vs0mg"},{"bike_id":"009ac959-e326-4fa0-a654-75e82873a609","system_id":"levelo_inurba_marseille","lat":43.31755,"lon":5.39018,"is_reserved":false,"is_disabled":false,"rental_uris":{"android":"levelo://app?vid=009ac959-e326-4fa0-a654-75e82873a609","ios":"levelo://app?vid=009ac959-e326-4fa0-a654-75e82873a609"},"vehicle_type_id":"4","last_reported":1732126394,"current_range_meters":39200,"station_id":"ce4bhqp2rcd13ifvqhng","pricing_plan_id":"cebpf4jnsgd1na2vs0mg"},{"bike_id":"7577f7b0-3986-4964-af34-9253d0a52f4b","system_id":"levelo_inurba_marseille","lat":43.30353,"lon":5.41888,"is_reserved":false,"is_disabled":true,"rental_uris":{"android":"levelo://app?vid=7577f7b0-3986-4964-af34-9253d0a52f4b","ios":"levelo://app?vid=7577f7b0-3986-4964-af34-9253d0a52f4b"},"vehicle_type_id":"4","last_reported":1732126394,"current_range_meters":0,"station_id":"ce4bhop2rcd13ifvqh7g","pricing_plan_id":"cebpf4jnsgd1na2vs0mg"},{"bike_id":"d9ecb4d1-069a-4252-9e5d-83ac2a27bc2e","system_id":"levelo_inurba_marseille","lat":43.28559,"lon":5.39495,"is_reserved":false,"is_disabled":false,"rental_uris":{"android":"levelo://app?vid=d9ecb4d1-069a-4252-9e5d-83ac2a27bc2e","ios":"levelo://app?vid=d9ecb4d1-069a-4252-9e5d-83ac2a27bc2e"},"vehicle_type_id":"4","last_reported":1732126394,"current_range_meters":12000,"station_id":"ce4bh292rcd13ifvqdg0","pricing_plan_id":"cebpf4jnsgd1na2vs0mg"},{"bike_id":"b6a5dd45-3299-4794-bb3d-6c5c2b5a78a1","system_id":"levelo_inurba_marseille","lat":43.33023,"lon":5.39041,"is_reserved":false,"is_disabled":false,"rental_uris":{"android":"levelo://app?vid=b6a5dd45-3299-4794-bb3d-6c5c2b5a78a1","ios":"levelo://app?vid=b6a5dd45-3299-4794-bb3d-6c5c2b5a78a1"},"vehicle_type_id":"4","last_reported":1732126394,"current_range_meters":39200,"station_id":"ce4bhr92rcd13ifvqhrg","pricing_plan_id":"cebpf4jnsgd1na2vs0mg"},{"bike_id":"92a95906-f45e-4bcd-b17b-00e0204c1221","system_id":"levelo_inurba_marseille","lat":43.25005,"lon":5.38927,"is_reserved":false,"is_disabled":false,"rental_uris":{"android":"levelo://app?vid=92a95906-f45e-4bcd-b17b-00e0204c1221","ios":"levelo://app?vid=92a95906-f45e-4bcd-b17b-00e0204c1221"},"vehicle_type_id":"4","last_reported":1732126394,"current_range_meters":32000,"station_id":"ce4bhgp2rcd13ifvqfd0","pricing_plan_id":"cebpf4jnsgd1na2vs0mg"},{"bike_id":"0cf08f2a-762a-455e-8355-389e5172d4a4","system_id":"levelo_inurba_marseille","lat":43.3033,"lon":5.40431,"is_reserved":false,"is_disabled":false,"rental_uris":{"android":"levelo://app?vid=0cf08f2a-762a-455e-8355-389e5172d4a4","ios":"levelo://app?vid=0cf08f2a-762a-455e-8355-389e5172d4a4"},"vehicle_type_id":"4","last_reported":1732126394,"current_range_meters":28000,"station_id":"ce4bh012rcd13ifvqd10","pricing_plan_id":"cebpf4jnsgd1na2vs0mg"},{"bike_id":"3242b0f3-4f3f-462c-b731-c30f560a3efa","system_id":"levelo_inurba_marseille","lat":43.31759,"lon":5.39024,"is_reserved":false,"is_disabled":false,"rental_uris":{"android":"levelo://app?vid=3242b0f3-4f3f-462c-b731-c30f560a3efa","ios":"levelo://app?vid=3242b0f3-4f3f-462c-b731-c30f560a3efa"},"vehicle_type_id":"4","last_reported":1732126394,"current_range_meters":28800,"station_id":"ce4bhqp2rcd13ifvqhng","pricing_plan_id":"cebpf4jnsgd1na2vs0mg"},{"bike_id":"0b067f3c-e55c-4de2-897c-3d262d3f1f7e","system_id":"levelo_inurba_marseille","lat":43.3133,"lon":5.39695,"is_reserved":false,"is_disabled":false,"rental_uris":{"android":"levelo://app?vid=0b067f3c-e55c-4de2-897c-3d262d3f1f7e","ios":"levelo://app?vid=0b067f3c-e55c-4de2-897c-3d262d3f1f7e"},"vehicle_type_id":"4","last_reported":1732126394,"current_range_meters":37600,"station_id":"ce4bgvp2rcd13ifvqcu0","pricing_plan_id":"cebpf4jnsgd1na2vs0mg"},{"bike_id":"d0b21541-ab60-4ee0-a8b5-96e54560b951","system_id":"levelo_inurba_marseille","lat":43.28707,"lon":5.37401,"is_reserved":false,"is_disabled":false,"rental_uris":{"android":"levelo://app?vid=d0b21541-ab60-4ee0-a8b5-96e54560b951","ios":"levelo://app?vid=d0b21541-ab60-4ee0-a8b5-96e54560b951"},"vehicle_type_id":"4","last_reported":1732126394,"current_range_meters":38400,"station_id":"ce4bh3p2rcd13ifvqdq0","pricing_plan_id":"cebpf4jnsgd1na2vs0mg"},{"bike_id":"7da372fc-3699-4a05-96fa-9342ec3ef374","system_id":"levelo_inurba_marseille","lat":43.25717,"lon":5.41115,"is_reserved":false,"is_disabled":false,"rental_uris":{"android":"levelo://app?vid=7da372fc-3699-4a05-96fa-9342ec3ef374","ios":"levelo://app?vid=7da372fc-3699-4a05-96fa-9342ec3ef374"},"vehicle_type_id":"4","last_reported":1732126394,"current_range_meters":14400,"station_id":"ce4bhkp2rcd13ifvqgd0","pricing_plan_id":"cebpf4jnsgd1na2vs0mg"},{"bike_id":"e5951ee3-4a5a-4ebb-b469-096c5188dfa3","system_id":"levelo_inurba_marseille","lat":43.23191,"lon":5.35558,"is_reserved":false,"is_disabled":true,"rental_uris":{"android":"levelo://app?vid=e5951ee3-4a5a-4ebb-b469-096c5188dfa3","ios":"levelo://app?vid=e5951ee3-4a5a-4ebb-b469-096c5188dfa3"},"vehicle_type_id":"4","last_reported":1732126394,"current_range_meters":0,"station_id":"ce4bhu92rcd13ifvqi70","pricing_plan_id":"cebpf4jnsgd1na2vs0mg"},{"bike_id":"dc5dd83c-07b3-4b2c-97ba-0c6bfce246df","system_id":"levelo_inurba_marseille","lat":43.27961,"lon":5.38756,"is_reserved":false,"is_disabled":false,"rental_uris":{"android":"levelo://app?vid=dc5dd83c-07b3-4b2c-97ba-0c6bfce246df","ios":"levelo://app?vid=dc5dd83c-07b3-4b2c-97ba-0c6bfce246df"},"vehicle_type_id":"4","last_reported":1732126394,"current_range_meters":4800,"station_id":"ce4bhg12rcd13ifvqf80","pricing_plan_id":"cebpf4jnsgd1na2vs0mg"},{"bike_id":"b2f6b9cf-69db-40ab-8230-689c41a2c16c","system_id":"levelo_inurba_marseille","lat":43.24166,"lon":5.36393,"is_reserved":false,"is_disabled":false,"rental_uris":{"android":"levelo://app?vid=b2f6b9cf-69db-40ab-8230-689c41a2c16c","ios":"levelo://app?vid=b2f6b9cf-69db-40ab-8230-689c41a2c16c"},"vehicle_type_id":"4","last_reported":1732126394,"current_range_meters":36800,"station_id":"cpo36qri1sfpv3e86is0","pricing_plan_id":"cebpf4jnsgd1na2vs0mg"},{"bike_id":"5088d695-0e9f-4773-b57e-f02f32e7ed76","system_id":"levelo_inurba_marseille","lat":43.33026,"lon":5.39043,"is_reserved":false,"is_disabled":false,"rental_uris":{"android":"levelo://app?vid=5088d695-0e9f-4773-b57e-f02f32e7ed76","ios":"levelo://app?vid=5088d695-0e9f-4773-b57e-f02f32e7ed76"},"vehicle_type_id":"4","last_reported":1732126394,"current_range_meters":11600,"station_id":"ce4bhr92rcd13ifvqhrg","pricing_plan_id":"cebpf4jnsgd1na2vs0mg"},{"bike_id":"9c1892be-248b-4e9f-850a-c27ea9582b3b","system_id":"levelo_inurba_marseille","lat":43.26553,"lon":5.37288,"is_reserved":false,"is_disabled":false,"rental_uris":{"android":"levelo://app?vid=9c1892be-248b-4e9f-850a-c27ea9582b3b","ios":"levelo://app?vid=9c1892be-248b-4e9f-850a-c27ea9582b3b"},"vehicle_type_id":"4","last_reported":1732126394,"current_range_meters":36000,"station_id":"ce4bhg12rcd13ifvqf70","pricing_plan_id":"cebpf4jnsgd1na2vs0mg"},{"bike_id":"2fdc2020-285e-4a6a-a71d-c29abfc6593b","system_id":"levelo_inurba_marseille","lat":43.29557,"lon":5.37516,"is_reserved":false,"is_disabled":true,"rental_uris":{"android":"levelo://app?vid=2fdc2020-285e-4a6a-a71d-c29abfc6593b","ios":"levelo://app?vid=2fdc2020-285e-4a6a-a71d-c29abfc6593b"},"vehicle_type_id":"4","last_reported":1732126394,"current_range_meters":9600,"station_id":"ce4bgh92rcd13ifvqb50","pricing_plan_id":"cebpf4jnsgd1na2vs0mg"},{"bike_id":"cce3c01b-5efd-464e-a383-7ff6f6faa608","system_id":"levelo_inurba_marseille","lat":43.31083,"lon":5.42431,"is_reserved":false,"is_disabled":false,"rental_uris":{"android":"levelo://app?vid=cce3c01b-5efd-464e-a383-7ff6f6faa608","ios":"levelo://app?vid=cce3c01b-5efd-464e-a383-7ff6f6faa608"},"vehicle_type_id":"4","last_reported":1732126394,"current_range_meters":39200,"station_id":"ce4bhp92rcd13ifvqhag","pricing_plan_id":"cebpf4jnsgd1na2vs0mg"},{"bike_id":"456393e9-4235-43ab-aecf-063885dcc5d7","system_id":"levelo_inurba_marseille","lat":43.27988,"lon":5.40011,"is_reserved":false,"is_disabled":false,"rental_uris":{"android":"levelo://app?vid=456393e9-4235-43ab-aecf-063885dcc5d7","ios":"levelo://app?vid=456393e9-4235-43ab-aecf-063885dcc5d7"},"vehicle_type_id":"4","last_reported":1732126394,"current_range_meters":19200,"station_id":"ce4bho92rcd13ifvqh4g","pricing_plan_id":"cebpf4jnsgd1na2vs0mg"},{"bike_id":"ada7089f-137b-4d7a-b58e-3bb83f74a373","system_id":"levelo_inurba_marseille","lat":43.30933,"lon":5.4014,"is_reserved":false,"is_disabled":false,"rental_uris":{"android":"levelo://app?vid=ada7089f-137b-4d7a-b58e-3bb83f74a373","ios":"levelo://app?vid=ada7089f-137b-4d7a-b58e-3bb83f74a373"},"vehicle_type_id":"4","last_reported":1732126394,"current_range_meters":26800,"station_id":"ce4bgvp2rcd13ifvqct0","pricing_plan_id":"cebpf4jnsgd1na2vs0mg"},{"bike_id":"036145f2-25f3-431d-8452-bf74254a5141","system_id":"levelo_inurba_marseille","lat":43.317575,"lon":5.390125,"is_reserved":false,"is_disabled":false,"rental_uris":{"android":"levelo://app?vid=036145f2-25f3-431d-8452-bf74254a5141","ios":"levelo://app?vid=036145f2-25f3-431d-8452-bf74254a5141"},"vehicle_type_id":"4","last_reported":1732126394,"current_range_meters":39200,"station_id":"ce4bhqp2rcd13ifvqhng","pricing_plan_id":"cebpf4jnsgd1na2vs0mg"},{"bike_id":"5b3ff08f-f661-47d9-adde-03f7d26f52e4","system_id":"levelo_inurba_marseille","lat":43.29529,"lon":5.37504,"is_reserved":false,"is_disabled":false,"rental_uris":{"android":"levelo://app?vid=5b3ff08f-f661-47d9-adde-03f7d26f52e4","ios":"levelo://app?vid=5b3ff08f-f661-47d9-adde-03f7d26f52e4"},"vehicle_type_id":"4","last_reported":1732126394,"current_range_meters":11200,"station_id":"ce4bgkp2rcd13ifvqbmg","pricing_plan_id":"cebpf4jnsgd1na2vs0mg"},{"bike_id":"498b7323-7ff9-44d9-bfdd-35f0f8bf33ca","system_id":"levelo_inurba_marseille","lat":43.28156,"lon":5.42641,"is_reserved":false,"is_disabled":true,"rental_uris":{"android":"levelo://app?vid=498b7323-7ff9-44d9-bfdd-35f0f8bf33ca","ios":"levelo://app?vid=498b7323-7ff9-44d9-bfdd-35f0f8bf33ca"},"vehicle_type_id":"4","last_reported":1732126394,"current_range_meters":0,"station_id":"ce4bhnh2rcd13ifvqgug","pricing_plan_id":"cebpf4jnsgd1na2vs0mg"},{"bike_id":"7a621bf3-7eb8-4f15-be0a-80bb216ff2ed","system_id":"levelo_inurba_marseille","lat":43.2926,"lon":5.38438,"is_reserved":false,"is_disabled":false,"rental_uris":{"android":"levelo://app?vid=7a621bf3-7eb8-4f15-be0a-80bb216ff2ed","ios":"levelo://app?vid=7a621bf3-7eb8-4f15-be0a-80bb216ff2ed"},"vehicle_type_id":"4","last_reported":1732126394,"current_range_meters":25600,"station_id":"ce4bh692rcd13ifvqea0","pricing_plan_id":"cebpf4jnsgd1na2vs0mg"},{"bike_id":"53a9dc86-eeb4-40f9-b170-b8108cd18322","system_id":"levelo_inurba_marseille","lat":43.29538,"lon":5.38541,"is_reserved":false,"is_disabled":false,"rental_uris":{"android":"levelo://app?vid=53a9dc86-eeb4-40f9-b170-b8108cd18322","ios":"levelo://app?vid=53a9dc86-eeb4-40f9-b170-b8108cd18322"},"vehicle_type_id":"4","last_reported":1732126394,"current_range_meters":27600,"station_id":"ce4bgih2rcd13ifvqba0","pricing_plan_id":"cebpf4jnsgd1na2vs0mg"},{"bike_id":"8e815ad8-7136-4826-99c2-72351fff4992","system_id":"levelo_inurba_marseille","lat":43.28367,"lon":5.38621,"is_reserved":false,"is_disabled":false,"rental_uris":{"android":"levelo://app?vid=8e815ad8-7136-4826-99c2-72351fff4992","ios":"levelo://app?vid=8e815ad8-7136-4826-99c2-72351fff4992"},"vehicle_type_id":"4","last_reported":1732126394,"current_range_meters":17200,"station_id":"ce4bh492rcd13ifvqdvg","pricing_plan_id":"cebpf4jnsgd1na2vs0mg"},{"bike_id":"4685a58e-5086-455f-bb83-95e644c7a2cf","system_id":"levelo_inurba_marseille","lat":43.30422,"lon":5.38885,"is_reserved":false,"is_disabled":false,"rental_uris":{"android":"levelo://app?vid=4685a58e-5086-455f-bb83-95e644c7a2cf","ios":"levelo://app?vid=4685a58e-5086-455f-bb83-95e644c7a2cf"},"vehicle_type_id":"4","last_reported":1732126394,"current_range_meters":34000,"station_id":"ce4bgk12rcd13ifvqbi0","pricing_plan_id":"cebpf4jnsgd1na2vs0mg"},{"bike_id":"4674a573-a71e-41c0-a925-5c021c5e6c25","system_id":"levelo_inurba_marseille","lat":43.29433,"lon":5.37453,"is_reserved":false,"is_disabled":true,"rental_uris":{"android":"levelo://app?vid=4674a573-a71e-41c0-a925-5c021c5e6c25","ios":"levelo://app?vid=4674a573-a71e-41c0-a925-5c021c5e6c25"},"vehicle_type_id":"4","last_reported":1732126394,"current_range_meters":0,"station_id":"","pricing_plan_id":"cebpf4jnsgd1na2vs0mg"},{"bike_id":"1f6184e6-16e9-423d-b3e0-a3aa386ef26b","system_id":"levelo_inurba_marseille","lat":43.33023,"lon":5.39036,"is_reserved":false,"is_disabled":false,"rental_uris":{"android":"levelo://app?vid=1f6184e6-16e9-423d-b3e0-a3aa386ef26b","ios":"levelo://app?vid=1f6184e6-16e9-423d-b3e0-a3aa386ef26b"},"vehicle_type_id":"4","last_reported":1732126394,"current_range_meters":35600,"station_id":"ce4bhr92rcd13ifvqhrg","pricing_plan_id":"cebpf4jnsgd1na2vs0mg"},{"bike_id":"3cd84749-4c1a-4b50-aa18-9d8d08a2f930","system_id":"levelo_inurba_marseille","lat":43.27374,"lon":5.36259,"is_reserved":false,"is_disabled":true,"rental_uris":{"android":"levelo://app?vid=3cd84749-4c1a-4b50-aa18-9d8d08a2f930","ios":"levelo://app?vid=3cd84749-4c1a-4b50-aa18-9d8d08a2f930"},"vehicle_type_id":"4","last_reported":1732126394,"current_range_meters":0,"station_id":"ce4bhbh2rcd13ifvqeo0","pricing_plan_id":"cebpf4jnsgd1na2vs0mg"},{"bike_id":"cde5eb04-35f5-4971-aec4-8004f9b2dcd9","system_id":"levelo_inurba_marseille","lat":43.28265,"lon":5.35078,"is_reserved":false,"is_disabled":true,"rental_uris":{"android":"levelo://app?vid=cde5eb04-35f5-4971-aec4-8004f9b2dcd9","ios":"levelo://app?vid=cde5eb04-35f5-4971-aec4-8004f9b2dcd9"},"vehicle_type_id":"4","last_reported":1732126394,"current_range_meters":0,"station_id":"ce4bhbp2rcd13ifvqerg","pricing_plan_id":"cebpf4jnsgd1na2vs0mg"},{"bike_id":"6c7d73c1-07a5-4217-8a46-8e23210423f0","system_id":"levelo_inurba_marseille","lat":43.29298,"lon":5.37465,"is_reserved":false,"is_disabled":false,"rental_uris":{"android":"levelo://app?vid=6c7d73c1-07a5-4217-8a46-8e23210423f0","ios":"levelo://app?vid=6c7d73c1-07a5-4217-8a46-8e23210423f0"},"vehicle_type_id":"4","last_reported":1732126394,"current_range_meters":24800,"station_id":"ce4bgi12rcd13ifvqb70","pricing_plan_id":"cebpf4jnsgd1na2vs0mg"},{"bike_id":"0e12af8f-d11c-47f1-a3b5-4bd7e6d28ea6","system_id":"levelo_inurba_marseille","lat":43.28712,"lon":5.37931,"is_reserved":false,"is_disabled":false,"rental_uris":{"android":"levelo://app?vid=0e12af8f-d11c-47f1-a3b5-4bd7e6d28ea6","ios":"levelo://app?vid=0e12af8f-d11c-47f1-a3b5-4bd7e6d28ea6"},"vehicle_type_id":"4","last_reported":1732126394,"current_range_meters":10800,"station_id":"ce4bh9p2rcd13ifvqec0","pricing_plan_id":"cebpf4jnsgd1na2vs0mg"},{"bike_id":"2891bc52-2e08-4014-b7c3-9cc7015c8756","system_id":"levelo_inurba_marseille","lat":43.30774,"lon":5.3764,"is_reserved":false,"is_disabled":false,"rental_uris":{"android":"levelo://app?vid=2891bc52-2e08-4014-b7c3-9cc7015c8756","ios":"levelo://app?vid=2891bc52-2e08-4014-b7c3-9cc7015c8756"},"vehicle_type_id":"4","last_reported":1732126394,"current_range_meters":9200,"station_id":"ce4bgv92rcd13ifvqcq0","pricing_plan_id":"cebpf4jnsgd1na2vs0mg"},{"bike_id":"af742731-7026-4f13-87bb-4c4f77211439","system_id":"levelo_inurba_marseille","lat":43.28718,"lon":5.36084,"is_reserved":false,"is_disabled":false,"rental_uris":{"android":"levelo://app?vid=af742731-7026-4f13-87bb-4c4f77211439","ios":"levelo://app?vid=af742731-7026-4f13-87bb-4c4f77211439"},"vehicle_type_id":"4","last_reported":1732126394,"current_range_meters":38000,"station_id":"cki0cbj6b192h4jlfktg","pricing_plan_id":"cebpf4jnsgd1na2vs0mg"},{"bike_id":"e4a63538-6805-482c-9a07-d98638b69e78","system_id":"levelo_inurba_marseille","lat":43.3065,"lon":5.40071,"is_reserved":false,"is_disabled":false,"rental_uris":{"android":"levelo://app?vid=e4a63538-6805-482c-9a07-d98638b69e78","ios":"levelo://app?vid=e4a63538-6805-482c-9a07-d98638b69e78"},"vehicle_type_id":"4","last_reported":1732126394,"current_range_meters":10800,"station_id":"ce4bh112rcd13ifvqda0","pricing_plan_id":"cebpf4jnsgd1na2vs0mg"},{"bike_id":"67d7676b-b4d8-495f-b52f-fd9e8fc0e6f5","system_id":"levelo_inurba_marseille","lat":43.29934,"lon":5.36531,"is_reserved":false,"is_disabled":false,"rental_uris":{"android":"levelo://app?vid=67d7676b-b4d8-495f-b52f-fd9e8fc0e6f5","ios":"levelo://app?vid=67d7676b-b4d8-495f-b52f-fd9e8fc0e6f5"},"vehicle_type_id":"4","last_reported":1732126394,"current_range_meters":38800,"station_id":"ce4bgm92rcd13ifvqbr0","pricing_plan_id":"cebpf4jnsgd1na2vs0mg"},{"bike_id":"bbf8487a-d295-4dc7-9627-c9fc18da9faa","system_id":"levelo_inurba_marseille","lat":43.3234,"lon":5.40622,"is_reserved":false,"is_disabled":false,"rental_uris":{"android":"levelo://app?vid=bbf8487a-d295-4dc7-9627-c9fc18da9faa","ios":"levelo://app?vid=bbf8487a-d295-4dc7-9627-c9fc18da9faa"},"vehicle_type_id":"4","last_reported":1732126394,"current_range_meters":25600,"station_id":"ce4bhq92rcd13ifvqhjg","pricing_plan_id":"cebpf4jnsgd1na2vs0mg"},{"bike_id":"89429ed2-f839-4749-bcb9-3e5230fe3bfb","system_id":"levelo_inurba_marseille","lat":43.33721,"lon":5.39179,"is_reserved":false,"is_disabled":false,"rental_uris":{"android":"levelo://app?vid=89429ed2-f839-4749-bcb9-3e5230fe3bfb","ios":"levelo://app?vid=89429ed2-f839-4749-bcb9-3e5230fe3bfb"},"vehicle_type_id":"4","last_reported":1732126394,"current_range_meters":33200,"station_id":"ce4bhr92rcd13ifvqhsg","pricing_plan_id":"cebpf4jnsgd1na2vs0mg"},{"bike_id":"6adf9177-7542-488d-bdab-2629211b2267","system_id":"levelo_inurba_marseille","lat":43.297849,"lon":5.371032,"is_reserved":false,"is_disabled":false,"rental_uris":{"android":"levelo://app?vid=6adf9177-7542-488d-bdab-2629211b2267","ios":"levelo://app?vid=6adf9177-7542-488d-bdab-2629211b2267"},"vehicle_type_id":"4","last_reported":1732126394,"current_range_meters":36800,"station_id":"ce4bgop2rcd13ifvqc1g","pricing_plan_id":"cebpf4jnsgd1na2vs0mg"},{"bike_id":"93c10b20-5ee3-4c31-98eb-8ea5263051ce","system_id":"levelo_inurba_marseille","lat":43.28694,"lon":5.39979,"is_reserved":false,"is_disabled":false,"rental_uris":{"android":"levelo://app?vid=93c10b20-5ee3-4c31-98eb-8ea5263051ce","ios":"levelo://app?vid=93c10b20-5ee3-4c31-98eb-8ea5263051ce"},"vehicle_type_id":"4","last_reported":1732126394,"current_range_meters":8400,"station_id":"ce4bho92rcd13ifvqh3g","pricing_plan_id":"cebpf4jnsgd1na2vs0mg"},{"bike_id":"09069445-3630-4783-a223-c9fd063d7c96","system_id":"levelo_inurba_marseille","lat":43.337444,"lon":5.374475,"is_reserved":false,"is_disabled":false,"rental_uris":{"android":"levelo://app?vid=09069445-3630-4783-a223-c9fd063d7c96","ios":"levelo://app?vid=09069445-3630-4783-a223-c9fd063d7c96"},"vehicle_type_id":"4","last_reported":1732126394,"current_range_meters":37600,"station_id":"","pricing_plan_id":"cebpf4jnsgd1na2vs0mg"},{"bike_id":"219b35e0-27a5-43a6-99fe-52bbe8904813","system_id":"levelo_inurba_marseille","lat":43.28365,"lon":5.44383,"is_reserved":false,"is_disabled":false,"rental_uris":{"android":"levelo://app?vid=219b35e0-27a5-43a6-99fe-52bbe8904813","ios":"levelo://app?vid=219b35e0-27a5-43a6-99fe-52bbe8904813"},"vehicle_type_id":"4","last_reported":1732126394,"current_range_meters":17200,"station_id":"","pricing_plan_id":"cebpf4jnsgd1na2vs0mg"},{"bike_id":"7eef5933-bcd9-43af-a991-96cd38e1654b","system_id":"levelo_inurba_marseille","lat":43.27175,"lon":5.40985,"is_reserved":false,"is_disabled":false,"rental_uris":{"android":"levelo://app?vid=7eef5933-bcd9-43af-a991-96cd38e1654b","ios":"levelo://app?vid=7eef5933-bcd9-43af-a991-96cd38e1654b"},"vehicle_type_id":"4","last_reported":1732126394,"current_range_meters":33600,"station_id":"ce4bhl12rcd13ifvqgf0","pricing_plan_id":"cebpf4jnsgd1na2vs0mg"},{"bike_id":"fdc3924a-5817-47b4-92c7-119e96d67680","system_id":"levelo_inurba_marseille","lat":43.28699,"lon":5.37392,"is_reserved":false,"is_disabled":false,"rental_uris":{"android":"levelo://app?vid=fdc3924a-5817-47b4-92c7-119e96d67680","ios":"levelo://app?vid=fdc3924a-5817-47b4-92c7-119e96d67680"},"vehicle_type_id":"4","last_reported":1732126394,"current_range_meters":38800,"station_id":"ce4bh3p2rcd13ifvqdq0","pricing_plan_id":"cebpf4jnsgd1na2vs0mg"},{"bike_id":"31cabecf-7741-4783-a8f6-22f74c7df9b2","system_id":"levelo_inurba_marseille","lat":43.31755,"lon":5.39019,"is_reserved":false,"is_disabled":false,"rental_uris":{"android":"levelo://app?vid=31cabecf-7741-4783-a8f6-22f74c7df9b2","ios":"levelo://app?vid=31cabecf-7741-4783-a8f6-22f74c7df9b2"},"vehicle_type_id":"4","last_reported":1732126394,"current_range_meters":35600,"station_id":"ce4bhqp2rcd13ifvqhng","pricing_plan_id":"cebpf4jnsgd1na2vs0mg"},{"bike_id":"a288582f-e609-4b1f-9e1f-4b407176785e","system_id":"levelo_inurba_marseille","lat":43.29907,"lon":5.37457,"is_reserved":false,"is_disabled":true,"rental_uris":{"android":"levelo://app?vid=a288582f-e609-4b1f-9e1f-4b407176785e","ios":"levelo://app?vid=a288582f-e609-4b1f-9e1f-4b407176785e"},"vehicle_type_id":"4","last_reported":1732126394,"current_range_meters":0,"station_id":"ce4bgjh2rcd13ifvqbg0","pricing_plan_id":"cebpf4jnsgd1na2vs0mg"},{"bike_id":"5c8097ec-e39c-440e-a931-dab7336881b8","system_id":"levelo_inurba_marseille","lat":43.27826,"lon":5.39208,"is_reserved":false,"is_disabled":false,"rental_uris":{"android":"levelo://app?vid=5c8097ec-e39c-440e-a931-dab7336881b8","ios":"levelo://app?vid=5c8097ec-e39c-440e-a931-dab7336881b8"},"vehicle_type_id":"4","last_reported":1732126394,"current_range_meters":38000,"station_id":"ce4bhjp2rcd13ifvqga0","pricing_plan_id":"cebpf4jnsgd1na2vs0mg"},{"bike_id":"79d8c574-9062-423c-8a03-76b3dbc58333","system_id":"levelo_inurba_marseille","lat":43.27826,"lon":5.39201,"is_reserved":false,"is_disabled":true,"rental_uris":{"android":"levelo://app?vid=79d8c574-9062-423c-8a03-76b3dbc58333","ios":"levelo://app?vid=79d8c574-9062-423c-8a03-76b3dbc58333"},"vehicle_type_id":"4","last_reported":1732126394,"current_range_meters":0,"station_id":"ce4bhjp2rcd13ifvqga0","pricing_plan_id":"cebpf4jnsgd1na2vs0mg"},{"bike_id":"7770b1cc-2a54-4d08-8255-6bed2fc397aa","system_id":"levelo_inurba_marseille","lat":43.23196,"lon":5.35554,"is_reserved":false,"is_disabled":false,"rental_uris":{"android":"levelo://app?vid=7770b1cc-2a54-4d08-8255-6bed2fc397aa","ios":"levelo://app?vid=7770b1cc-2a54-4d08-8255-6bed2fc397aa"},"vehicle_type_id":"4","last_reported":1732126394,"current_range_meters":24400,"station_id":"ce4bhu92rcd13ifvqi70","pricing_plan_id":"cebpf4jnsgd1na2vs0mg"},{"bike_id":"ae09a5b5-e00a-48d1-abe3-f88e4ac103a9","system_id":"levelo_inurba_marseille","lat":43.28426,"lon":5.34991,"is_reserved":false,"is_disabled":false,"rental_uris":{"android":"levelo://app?vid=ae09a5b5-e00a-48d1-abe3-f88e4ac103a9","ios":"levelo://app?vid=ae09a5b5-e00a-48d1-abe3-f88e4ac103a9"},"vehicle_type_id":"4","last_reported":1732126394,"current_range_meters":38000,"station_id":"ce4bhbh2rcd13ifvqepg","pricing_plan_id":"cebpf4jnsgd1na2vs0mg"},{"bike_id":"15d77772-a703-448f-ae19-f04e445b29e0","system_id":"levelo_inurba_marseille","lat":43.31323,"lon":5.39708,"is_reserved":false,"is_disabled":false,"rental_uris":{"android":"levelo://app?vid=15d77772-a703-448f-ae19-f04e445b29e0","ios":"levelo://app?vid=15d77772-a703-448f-ae19-f04e445b29e0"},"vehicle_type_id":"4","last_reported":1732126394,"current_range_meters":38800,"station_id":"ce4bgvp2rcd13ifvqcu0","pricing_plan_id":"cebpf4jnsgd1na2vs0mg"},{"bike_id":"cb8cf428-855c-4c3e-be6b-0e48b9fa85df","system_id":"levelo_inurba_marseille","lat":43.30135,"lon":5.39846,"is_reserved":false,"is_disabled":false,"rental_uris":{"android":"levelo://app?vid=cb8cf428-855c-4c3e-be6b-0e48b9fa85df","ios":"levelo://app?vid=cb8cf428-855c-4c3e-be6b-0e48b9fa85df"},"vehicle_type_id":"4","last_reported":1732126394,"current_range_meters":21600,"station_id":"ce4bh0h2rcd13ifvqd40","pricing_plan_id":"cebpf4jnsgd1na2vs0mg"},{"bike_id":"3d25d818-80cf-415a-996a-afc2d01ce97b","system_id":"levelo_inurba_marseille","lat":43.27789,"lon":5.40728,"is_reserved":false,"is_disabled":false,"rental_uris":{"android":"levelo://app?vid=3d25d818-80cf-415a-996a-afc2d01ce97b","ios":"levelo://app?vid=3d25d818-80cf-415a-996a-afc2d01ce97b"},"vehicle_type_id":"4","last_reported":1732126394,"current_range_meters":8800,"station_id":"ce4bhnh2rcd13ifvqgtg","pricing_plan_id":"cebpf4jnsgd1na2vs0mg"},{"bike_id":"11502131-907c-455a-8996-d4f705b082c7","system_id":"levelo_inurba_marseille","lat":43.26953,"lon":5.38628,"is_reserved":false,"is_disabled":false,"rental_uris":{"android":"levelo://app?vid=11502131-907c-455a-8996-d4f705b082c7","ios":"levelo://app?vid=11502131-907c-455a-8996-d4f705b082c7"},"vehicle_type_id":"4","last_reported":1732126394,"current_range_meters":22000,"station_id":"ce4bhh92rcd13ifvqfh0","pricing_plan_id":"cebpf4jnsgd1na2vs0mg"},{"bike_id":"730ba272-12e1-42d5-b0f1-1e65e233788e","system_id":"levelo_inurba_marseille","lat":43.30427,"lon":5.39745,"is_reserved":false,"is_disabled":true,"rental_uris":{"android":"levelo://app?vid=730ba272-12e1-42d5-b0f1-1e65e233788e","ios":"levelo://app?vid=730ba272-12e1-42d5-b0f1-1e65e233788e"},"vehicle_type_id":"4","last_reported":1732126394,"current_range_meters":1200,"station_id":"ce4bh092rcd13ifvqd20","pricing_plan_id":"cebpf4jnsgd1na2vs0mg"},{"bike_id":"d1be6825-a620-4528-a4f5-adad147e749d","system_id":"levelo_inurba_marseille","lat":43.25107,"lon":5.40327,"is_reserved":false,"is_disabled":false,"rental_uris":{"android":"levelo://app?vid=d1be6825-a620-4528-a4f5-adad147e749d","ios":"levelo://app?vid=d1be6825-a620-4528-a4f5-adad147e749d"},