{"last_updated":1730276026,"ttl":60,"version":"2.2","data":{"bikes":[{"bike_id":"e0594c9b-1912-4f09-958a-91f8a4561c29","system_id":"levelo_inurba_marseille","lat":43.24389,"lon":5.37045,"is_reserved":false,"is_disabled":false,"rental_uris":{"android":"levelo://app?vid=e0594c9b-1912-4f09-958a-91f8a4561c29","ios":"levelo://app?vid=e0594c9b-1912-4f09-958a-91f8a4561c29"},"vehicle_type_id":"4","last_reported":1730276027,"current_range_meters":38800,"station_id":"ce4bhhh2rcd13ifvqfk0","pricing_plan_id":"cebpf4jnsgd1na2vs0mg"},{"bike_id":"9932cb1a-63a4-4e1c-a11b-c6a6ee00d266","system_id":"levelo_inurba_marseille","lat":43.3122,"lon":5.36858,"is_reserved":false,"is_disabled":false,"rental_uris":{"android":"levelo://app?vid=9932cb1a-63a4-4e1c-a11b-c6a6ee00d266","ios":"levelo://app?vid=9932cb1a-63a4-4e1c-a11b-c6a6ee00d266"},"vehicle_type_id":"4","last_reported":1730276027,"current_range_meters":11600,"station_id":"ce4bgl92rcd13ifvqbq0","pricing_plan_id":"cebpf4jnsgd1na2vs0mg"},{"bike_id":"6daefb7d-890b-4927-bca4-1e9b57c2727d","system_id":"levelo_inurba_marseille","lat":43.27192,"lon":5.40991,"is_reserved":false,"is_disabled":false,"rental_uris":{"android":"levelo://app?vid=6daefb7d-890b-4927-bca4-1e9b57c2727d","ios":"levelo://app?vid=6daefb7d-890b-4927-bca4-1e9b57c2727d"},"vehicle_type_id":"4","last_reported":1730276027,"current_range_meters":36800,"station_id":"ce4bhl12rcd13ifvqgf0","pricing_plan_id":"cebpf4jnsgd1na2vs0mg"},{"bike_id":"e1d18b81-986d-4e87-b61a-22535be9c7fe","system_id":"levelo_inurba_marseille","lat":43.27073,"lon":5.42281,"is_reserved":false,"is_disabled":false,"rental_uris":{"android":"levelo://app?vid=e1d18b81-986d-4e87-b61a-22535be9c7fe","ios":"levelo://app?vid=e1d18b81-986d-4e87-b61a-22535be9c7fe"},"vehicle_type_id":"4","last_reported":1730276027,"current_range_meters":39200,"station_id":"ce4bhk92rcd13ifvqgb0","pricing_plan_id":"cebpf4jnsgd1na2vs0mg"},{"bike_id":"389a0521-41ae-44e7-b647-f0e587e1b12f","system_id":"levelo_inurba_marseille","lat":43.24166,"lon":5.39727,"is_reserved":false,"is_disabled":false,"rental_uris":{"android":"levelo://app?vid=389a0521-41ae-44e7-b647-f0e587e1b12f","ios":"levelo://app?vid=389a0521-41ae-44e7-b647-f0e587e1b12f"},"vehicle_type_id":"4","last_reported":1730276027,"current_range_meters":10800,"station_id":"ce4bhn12rcd13ifvqgpg","pricing_plan_id":"cebpf4jnsgd1na2vs0mg"},{"bike_id":"1a5154eb-f122-438b-b30e-b16adba008c7","system_id":"levelo_inurba_marseille","lat":43.31518,"lon":5.37279,"is_reserved":false,"is_disabled":false,"rental_uris":{"android":"levelo://app?vid=1a5154eb-f122-438b-b30e-b16adba008c7","ios":"levelo://app?vid=1a5154eb-f122-438b-b30e-b16adba008c7"},"vehicle_type_id":"4","last_reported":1730276027,"current_range_meters":6400,"station_id":"ce4bgt12rcd13ifvqcd0","pricing_plan_id":"cebpf4jnsgd1na2vs0mg"},{"bike_id":"e69003c5-61d9-410c-8600-03d60dc443c9","system_id":"levelo_inurba_marseille","lat":43.3248,"lon":5.36567,"is_reserved":false,"is_disabled":false,"rental_uris":{"android":"levelo://app?vid=e69003c5-61d9-410c-8600-03d60dc443c9","ios":"levelo://app?vid=e69003c5-61d9-410c-8600-03d60dc443c9"},"vehicle_type_id":"4","last_reported":1730276027,"current_range_meters":30400,"station_id":"ce4bhs12rcd13ifvqhvg","pricing_plan_id":"cebpf4jnsgd1na2vs0mg"},{"bike_id":"9cd28ed1-51d4-469f-80b1-db1aa7224fd9","system_id":"levelo_inurba_marseille","lat":43.31883,"lon":5.40746,"is_reserved":false,"is_disabled":false,"rental_uris":{"android":"levelo://app?vid=9cd28ed1-51d4-469f-80b1-db1aa7224fd9","ios":"levelo://app?vid=9cd28ed1-51d4-469f-80b1-db1aa7224fd9"},"vehicle_type_id":"4","last_reported":1730276027,"current_range_meters":30400,"station_id":"ce4bhq12rcd13ifvqhig","pricing_plan_id":"cebpf4jnsgd1na2vs0mg"},{"bike_id":"515e3cda-ebf4-4224-a67b-bc5f9d833f60","system_id":"levelo_inurba_marseille","lat":43.24537,"lon":5.39526,"is_reserved":false,"is_disabled":false,"rental_uris":{"android":"levelo://app?vid=515e3cda-ebf4-4224-a67b-bc5f9d833f60","ios":"levelo://app?vid=515e3cda-ebf4-4224-a67b-bc5f9d833f60"},"vehicle_type_id":"4","last_reported":1730276027,"current_range_meters":27600,"station_id":"ce4bhlp2rcd13ifvqgjg","pricing_plan_id":"cebpf4jnsgd1na2vs0mg"},{"bike_id":"a0f5d9ec-bdca-49ed-9410-eea9bb121fec","system_id":"levelo_inurba_marseille","lat":43.32663,"lon":5.40991,"is_reserved":false,"is_disabled":false,"rental_uris":{"android":"levelo://app?vid=a0f5d9ec-bdca-49ed-9410-eea9bb121fec","ios":"levelo://app?vid=a0f5d9ec-bdca-49ed-9410-eea9bb121fec"},"vehicle_type_id":"4","last_reported":1730276027,"current_range_meters":38000,"station_id":"ce4bhpp2rcd13ifvqhgg","pricing_plan_id":"cebpf4jnsgd1na2vs0mg"},{"bike_id":"45ee17fc-53d9-4ffe-8b4e-a2f7f7d6f344","system_id":"levelo_inurba_marseille","lat":43.28974,"lon":5.37836,"is_reserved":false,"is_disabled":false,"rental_uris":{"android":"levelo://app?vid=45ee17fc-53d9-4ffe-8b4e-a2f7f7d6f344","ios":"levelo://app?vid=45ee17fc-53d9-4ffe-8b4e-a2f7f7d6f344"},"vehicle_type_id":"4","last_reported":1730276027,"current_range_meters":20800,"station_id":"ce4bh9p2rcd13ifvqed0","pricing_plan_id":"cebpf4jnsgd1na2vs0mg"},{"bike_id":"b240039e-c50d-4884-bbaf-45c1fe416cf2","system_id":"levelo_inurba_marseille","lat":43.24166,"lon":5.36385,"is_reserved":false,"is_disabled":false,"rental_uris":{"android":"levelo://app?vid=b240039e-c50d-4884-bbaf-45c1fe416cf2","ios":"levelo://app?vid=b240039e-c50d-4884-bbaf-45c1fe416cf2"},"vehicle_type_id":"4","last_reported":1730276027,"current_range_meters":32800,"station_id":"cpo36qri1sfpv3e86is0","pricing_plan_id":"cebpf4jnsgd1na2vs0mg"},{"bike_id":"0f237200-9f2c-4569-b096-745ca33d76d3","system_id":"levelo_inurba_marseille","lat":43.30557,"lon":5.36542,"is_reserved":false,"is_disabled":false,"rental_uris":{"android":"levelo://app?vid=0f237200-9f2c-4569-b096-745ca33d76d3","ios":"levelo://app?vid=0f237200-9f2c-4569-b096-745ca33d76d3"},"vehicle_type_id":"4","last_reported":1730276027,"current_range_meters":31200,"station_id":"ce4bgs12rcd13ifvqcag","pricing_plan_id":"cebpf4jnsgd1na2vs0mg"},{"bike_id":"98af7aaf-680f-4013-9acb-3127feae2bb0","system_id":"levelo_inurba_marseille","lat":43.33023,"lon":5.39029,"is_reserved":false,"is_disabled":false,"rental_uris":{"android":"levelo://app?vid=98af7aaf-680f-4013-9acb-3127feae2bb0","ios":"levelo://app?vid=98af7aaf-680f-4013-9acb-3127feae2bb0"},"vehicle_type_id":"4","last_reported":1730276027,"current_range_meters":38800,"station_id":"ce4bhr92rcd13ifvqhrg","pricing_plan_id":"cebpf4jnsgd1na2vs0mg"},{"bike_id":"ba28085d-65a7-410a-b3d0-1466c1e502ea","system_id":"levelo_inurba_marseille","lat":43.30933,"lon":5.39041,"is_reserved":false,"is_disabled":false,"rental_uris":{"android":"levelo://app?vid=ba28085d-65a7-410a-b3d0-1466c1e502ea","ios":"levelo://app?vid=ba28085d-65a7-410a-b3d0-1466c1e502ea"},"vehicle_type_id":"4","last_reported":1730276027,"current_range_meters":14800,"station_id":"ce4bgup2rcd13ifvqco0","pricing_plan_id":"cebpf4jnsgd1na2vs0mg"},{"bike_id":"5607110e-580f-48db-ba88-212c55d8989d","system_id":"levelo_inurba_marseille","lat":43.23185,"lon":5.39986,"is_reserved":false,"is_disabled":false,"rental_uris":{"android":"levelo://app?vid=5607110e-580f-48db-ba88-212c55d8989d","ios":"levelo://app?vid=5607110e-580f-48db-ba88-212c55d8989d"},"vehicle_type_id":"4","last_reported":1730276027,"current_range_meters":7200,"station_id":"ce4bhn12rcd13ifvqgqg","pricing_plan_id":"cebpf4jnsgd1na2vs0mg"},{"bike_id":"a1659c31-8abb-4aae-ab4f-aa4a34574dbd","system_id":"levelo_inurba_marseille","lat":43.30534,"lon":5.38432,"is_reserved":false,"is_disabled":false,"rental_uris":{"android":"levelo://app?vid=a1659c31-8abb-4aae-ab4f-aa4a34574dbd","ios":"levelo://app?vid=a1659c31-8abb-4aae-ab4f-aa4a34574dbd"},"vehicle_type_id":"4","last_reported":1730276027,"current_range_meters":10800,"station_id":"ce4bgg92rcd13ifvqb30","pricing_plan_id":"cebpf4jnsgd1na2vs0mg"},{"bike_id":"8eec3670-e343-4f54-9e03-b212a0c41b50","system_id":"levelo_inurba_marseille","lat":43.337444,"lon":5.374475,"is_reserved":false,"is_disabled":false,"rental_uris":{"android":"levelo://app?vid=8eec3670-e343-4f54-9e03-b212a0c41b50","ios":"levelo://app?vid=8eec3670-e343-4f54-9e03-b212a0c41b50"},"vehicle_type_id":"4","last_reported":1730276027,"current_range_meters":33600,"station_id":"","pricing_plan_id":"cebpf4jnsgd1na2vs0mg"},{"bike_id":"0c074560-8ac3-46f4-bbf6-3d47e9833728","system_id":"levelo_inurba_marseille","lat":43.24999,"lon":5.3892,"is_reserved":false,"is_disabled":false,"rental_uris":{"android":"levelo://app?vid=0c074560-8ac3-46f4-bbf6-3d47e9833728","ios":"levelo://app?vid=0c074560-8ac3-46f4-bbf6-3d47e9833728"},"vehicle_type_id":"4","last_reported":1730276027,"current_range_meters":38000,"station_id":"ce4bhgp2rcd13ifvqfd0","pricing_plan_id":"cebpf4jnsgd1na2vs0mg"},{"bike_id":"23cfbedb-6938-4c37-9302-249be55a0302","system_id":"levelo_inurba_marseille","lat":43.30546,"lon":5.36703,"is_reserved":false,"is_disabled":false,"rental_uris":{"android":"levelo://app?vid=23cfbedb-6938-4c37-9302-249be55a0302","ios":"levelo://app?vid=23cfbedb-6938-4c37-9302-249be55a0302"},"vehicle_type_id":"4","last_reported":1730276027,"current_range_meters":14400,"station_id":"ce4bgrp2rcd13ifvqc9g","pricing_plan_id":"cebpf4jnsgd1na2vs0mg"},{"bike_id":"1cd8d7e3-0ce1-40bb-812b-9a4e1822ff6c","system_id":"levelo_inurba_marseille","lat":43.32473,"lon":5.36564,"is_reserved":false,"is_disabled":false,"rental_uris":{"android":"levelo://app?vid=1cd8d7e3-0ce1-40bb-812b-9a4e1822ff6c","ios":"levelo://app?vid=1cd8d7e3-0ce1-40bb-812b-9a4e1822ff6c"},"vehicle_type_id":"4","last_reported":1730276027,"current_range_meters":34000,"station_id":"ce4bhs12rcd13ifvqhvg","pricing_plan_id":"cebpf4jnsgd1na2vs0mg"},{"bike_id":"49053c6a-5530-4a22-b8b0-7532a8ef2cb5","system_id":"levelo_inurba_marseille","lat":43.29053,"lon":5.37162,"is_reserved":false,"is_disabled":false,"rental_uris":{"android":"levelo://app?vid=49053c6a-5530-4a22-b8b0-7532a8ef2cb5","ios":"levelo://app?vid=49053c6a-5530-4a22-b8b0-7532a8ef2cb5"},"vehicle_type_id":"4","last_reported":1730276027,"current_range_meters":5600,"station_id":"ce4bh5p2rcd13ifvqe4g","pricing_plan_id":"cebpf4jnsgd1na2vs0mg"},{"bike_id":"7e1dac73-d14a-4cac-9a8f-3d04b3161b4c","system_id":"levelo_inurba_marseille","lat":43.26539,"lon":5.37288,"is_reserved":false,"is_disabled":false,"rental_uris":{"android":"levelo://app?vid=7e1dac73-d14a-4cac-9a8f-3d04b3161b4c","ios":"levelo://app?vid=7e1dac73-d14a-4cac-9a8f-3d04b3161b4c"},"vehicle_type_id":"4","last_reported":1730276027,"current_range_meters":38000,"station_id":"ce4bhg12rcd13ifvqf70","pricing_plan_id":"cebpf4jnsgd1na2vs0mg"},{"bike_id":"f6572077-93fc-435f-9911-97eaf2c82e29","system_id":"levelo_inurba_marseille","lat":43.296509,"lon":5.377559,"is_reserved":false,"is_disabled":false,"rental_uris":{"android":"levelo://app?vid=f6572077-93fc-435f-9911-97eaf2c82e29","ios":"levelo://app?vid=f6572077-93fc-435f-9911-97eaf2c82e29"},"vehicle_type_id":"4","last_reported":1730276027,"current_range_meters":35200,"station_id":"ce4bgi92rcd13ifvqb90","pricing_plan_id":"cebpf4jnsgd1na2vs0mg"},{"bike_id":"caf349c8-ed3b-4304-909b-160d602b00a5","system_id":"levelo_inurba_marseille","lat":43.31709,"lon":5.37744,"is_reserved":false,"is_disabled":false,"rental_uris":{"android":"levelo://app?vid=caf349c8-ed3b-4304-909b-160d602b00a5","ios":"levelo://app?vid=caf349c8-ed3b-4304-909b-160d602b00a5"},"vehicle_type_id":"4","last_reported":1730276027,"current_range_meters":6000,"station_id":"ce4bgth2rcd13ifvqch0","pricing_plan_id":"cebpf4jnsgd1na2vs0mg"},{"bike_id":"8d1620e7-e5ab-4df0-827f-1b7a5189e865","system_id":"levelo_inurba_marseille","lat":43.27998,"lon":5.40008,"is_reserved":false,"is_disabled":false,"rental_uris":{"android":"levelo://app?vid=8d1620e7-e5ab-4df0-827f-1b7a5189e865","ios":"levelo://app?vid=8d1620e7-e5ab-4df0-827f-1b7a5189e865"},"vehicle_type_id":"4","last_reported":1730276027,"current_range_meters":38400,"station_id":"ce4bho92rcd13ifvqh4g","pricing_plan_id":"cebpf4jnsgd1na2vs0mg"},{"bike_id":"3cc74485-2795-4d4f-aa5a-b06c312e894e","system_id":"levelo_inurba_marseille","lat":43.2293,"lon":5.35376,"is_reserved":false,"is_disabled":false,"rental_uris":{"android":"levelo://app?vid=3cc74485-2795-4d4f-aa5a-b06c312e894e","ios":"levelo://app?vid=3cc74485-2795-4d4f-aa5a-b06c312e894e"},"vehicle_type_id":"4","last_reported":1730276027,"current_range_meters":38000,"station_id":"cpo3532slgdg3j2ikp40","pricing_plan_id":"cebpf4jnsgd1na2vs0mg"},{"bike_id":"197951b6-f51d-4e0e-9015-1307af51213e","system_id":"levelo_inurba_marseille","lat":43.31486,"lon":5.37307,"is_reserved":false,"is_disabled":false,"rental_uris":{"android":"levelo://app?vid=197951b6-f51d-4e0e-9015-1307af51213e","ios":"levelo://app?vid=197951b6-f51d-4e0e-9015-1307af51213e"},"vehicle_type_id":"4","last_reported":1730276027,"current_range_meters":6000,"station_id":"ce4bgt12rcd13ifvqcd0","pricing_plan_id":"cebpf4jnsgd1na2vs0mg"},{"bike_id":"83e8370a-0578-402b-b179-be4cd80c393d","system_id":"levelo_inurba_marseille","lat":43.31362,"lon":5.38502,"is_reserved":false,"is_disabled":false,"rental_uris":{"android":"levelo://app?vid=83e8370a-0578-402b-b179-be4cd80c393d","ios":"levelo://app?vid=83e8370a-0578-402b-b179-be4cd80c393d"},"vehicle_type_id":"4","last_reported":1730276027,"current_range_meters":36000,"station_id":"ce4bgt92rcd13ifvqcf0","pricing_plan_id":"cebpf4jnsgd1na2vs0mg"},{"bike_id":"cdec57fc-4a46-44d5-88fb-805e706d005b","system_id":"levelo_inurba_marseille","lat":43.31081,"lon":5.42431,"is_reserved":false,"is_disabled":false,"rental_uris":{"android":"levelo://app?vid=cdec57fc-4a46-44d5-88fb-805e706d005b","ios":"levelo://app?vid=cdec57fc-4a46-44d5-88fb-805e706d005b"},"vehicle_type_id":"4","last_reported":1730276027,"current_range_meters":17200,"station_id":"ce4bhp92rcd13ifvqhag","pricing_plan_id":"cebpf4jnsgd1na2vs0mg"},{"bike_id":"e37d3a36-22da-4c38-8336-a298da87234e","system_id":"levelo_inurba_marseille","lat":43.30545,"lon":5.38406,"is_reserved":false,"is_disabled":false,"rental_uris":{"android":"levelo://app?vid=e37d3a36-22da-4c38-8336-a298da87234e","ios":"levelo://app?vid=e37d3a36-22da-4c38-8336-a298da87234e"},"vehicle_type_id":"4","last_reported":1730276027,"current_range_meters":11200,"station_id":"ce4bgg92rcd13ifvqb30","pricing_plan_id":"cebpf4jnsgd1na2vs0mg"},{"bike_id":"1450dc9a-2a80-403d-a735-d310d6d01168","system_id":"levelo_inurba_marseille","lat":43.27578,"lon":5.36052,"is_reserved":false,"is_disabled":false,"rental_uris":{"android":"levelo://app?vid=1450dc9a-2a80-403d-a735-d310d6d01168","ios":"levelo://app?vid=1450dc9a-2a80-403d-a735-d310d6d01168"},"vehicle_type_id":"4","last_reported":1730276027,"current_range_meters":9200,"station_id":"ce4bgj92rcd13ifvqbe0","pricing_plan_id":"cebpf4jnsgd1na2vs0mg"},{"bike_id":"b064c4d6-367c-48e1-ba77-b9d395acae51","system_id":"levelo_inurba_marseille","lat":43.30464,"lon":5.37897,"is_reserved":false,"is_disabled":false,"rental_uris":{"android":"levelo://app?vid=b064c4d6-367c-48e1-ba77-b9d395acae51","ios":"levelo://app?vid=b064c4d6-367c-48e1-ba77-b9d395acae51"},"vehicle_type_id":"4","last_reported":1730276027,"current_range_meters":26800,"station_id":"ce4bgup2rcd13ifvqcn0","pricing_plan_id":"cebpf4jnsgd1na2vs0mg"},{"bike_id":"e68ce33f-f1a1-4e57-9764-2f2b65f5c8c3","system_id":"levelo_inurba_marseille","lat":43.27183,"lon":5.40992,"is_reserved":false,"is_disabled":false,"rental_uris":{"android":"levelo://app?vid=e68ce33f-f1a1-4e57-9764-2f2b65f5c8c3","ios":"levelo://app?vid=e68ce33f-f1a1-4e57-9764-2f2b65f5c8c3"},"vehicle_type_id":"4","last_reported":1730276027,"current_range_meters":27600,"station_id":"ce4bhl12rcd13ifvqgf0","pricing_plan_id":"cebpf4jnsgd1na2vs0mg"},{"bike_id":"c2ca085f-b204-4824-8fac-269bf8983484","system_id":"levelo_inurba_marseille","lat":43.276182,"lon":5.361025,"is_reserved":false,"is_disabled":false,"rental_uris":{"android":"levelo://app?vid=c2ca085f-b204-4824-8fac-269bf8983484","ios":"levelo://app?vid=c2ca085f-b204-4824-8fac-269bf8983484"},"vehicle_type_id":"4","last_reported":1730276027,"current_range_meters":34800,"station_id":"ce4bgj92rcd13ifvqbe0","pricing_plan_id":"cebpf4jnsgd1na2vs0mg"},{"bike_id":"c2553efc-7e70-4c97-9521-c60d310dbf9e","system_id":"levelo_inurba_marseille","lat":43.26682,"lon":5.38266,"is_reserved":false,"is_disabled":false,"rental_uris":{"android":"levelo://app?vid=c2553efc-7e70-4c97-9521-c60d310dbf9e","ios":"levelo://app?vid=c2553efc-7e70-4c97-9521-c60d310dbf9e"},"vehicle_type_id":"4","last_reported":1730276027,"current_range_meters":31200,"station_id":"ce4bhg92rcd13ifvqf90","pricing_plan_id":"cebpf4jnsgd1na2vs0mg"},{"bike_id":"34630d18-75dd-4aec-9bb1-0ce7aab0afdf","system_id":"levelo_inurba_marseille","lat":43.2467,"lon":5.38155,"is_reserved":false,"is_disabled":false,"rental_uris":{"android":"levelo://app?vid=34630d18-75dd-4aec-9bb1-0ce7aab0afdf","ios":"levelo://app?vid=34630d18-75dd-4aec-9bb1-0ce7aab0afdf"},"vehicle_type_id":"4","last_reported":1730276027,"current_range_meters":38800,"station_id":"ce4bhih2rcd13ifvqfr0","pricing_plan_id":"cebpf4jnsgd1na2vs0mg"},{"bike_id":"fca70fb1-2c2b-46bb-a35c-c4971041e2df","system_id":"levelo_inurba_marseille","lat":43.23185,"lon":5.39979,"is_reserved":false,"is_disabled":false,"rental_uris":{"android":"levelo://app?vid=fca70fb1-2c2b-46bb-a35c-c4971041e2df","ios":"levelo://app?vid=fca70fb1-2c2b-46bb-a35c-c4971041e2df"},"vehicle_type_id":"4","last_reported":1730276027,"current_range_meters":22400,"station_id":"ce4bhn12rcd13ifvqgqg","pricing_plan_id":"cebpf4jnsgd1na2vs0mg"},{"bike_id":"94ddc1d2-b94e-412d-840b-da90f0ce712c","system_id":"levelo_inurba_marseille","lat":43.30535,"lon":5.36552,"is_reserved":false,"is_disabled":false,"rental_uris":{"android":"levelo://app?vid=94ddc1d2-b94e-412d-840b-da90f0ce712c","ios":"levelo://app?vid=94ddc1d2-b94e-412d-840b-da90f0ce712c"},"vehicle_type_id":"4","last_reported":1730276027,"current_range_meters":39200,"station_id":"ce4bgs12rcd13ifvqcag","pricing_plan_id":"cebpf4jnsgd1na2vs0mg"},{"bike_id":"c5ab8f86-3c93-447c-b767-f885bdebd2ff","system_id":"levelo_inurba_marseille","lat":43.27064,"lon":5.42275,"is_reserved":false,"is_disabled":false,"rental_uris":{"android":"levelo://app?vid=c5ab8f86-3c93-447c-b767-f885bdebd2ff","ios":"levelo://app?vid=c5ab8f86-3c93-447c-b767-f885bdebd2ff"},"vehicle_type_id":"4","last_reported":1730276027,"current_range_meters":39200,"station_id":"ce4bhk92rcd13ifvqgb0","pricing_plan_id":"cebpf4jnsgd1na2vs0mg"},{"bike_id":"420fd99a-631e-44cf-8b76-74506f7821ab","system_id":"levelo_inurba_marseille","lat":43.25937,"lon":5.40902,"is_reserved":false,"is_disabled":false,"rental_uris":{"android":"levelo://app?vid=420fd99a-631e-44cf-8b76-74506f7821ab","ios":"levelo://app?vid=420fd99a-631e-44cf-8b76-74506f7821ab"},"vehicle_type_id":"4","last_reported":1730276027,"current_range_meters":32000,"station_id":"ce4bhm92rcd13ifvqglg","pricing_plan_id":"cebpf4jnsgd1na2vs0mg"},{"bike_id":"6bfb62a6-63c3-4bd5-8676-7b2f3dd6580d","system_id":"levelo_inurba_marseille","lat":43.28149,"lon":5.42639,"is_reserved":false,"is_disabled":false,"rental_uris":{"android":"levelo://app?vid=6bfb62a6-63c3-4bd5-8676-7b2f3dd6580d","ios":"levelo://app?vid=6bfb62a6-63c3-4bd5-8676-7b2f3dd6580d"},"vehicle_type_id":"4","last_reported":1730276027,"current_range_meters":14400,"station_id":"ce4bhnh2rcd13ifvqgug","pricing_plan_id":"cebpf4jnsgd1na2vs0mg"},{"bike_id":"70bb78fe-4bef-4d56-a833-affc0bdfc9f3","system_id":"levelo_inurba_marseille","lat":43.23193,"lon":5.35555,"is_reserved":false,"is_disabled":false,"rental_uris":{"android":"levelo://app?vid=70bb78fe-4bef-4d56-a833-affc0bdfc9f3","ios":"levelo://app?vid=70bb78fe-4bef-4d56-a833-affc0bdfc9f3"},"vehicle_type_id":"4","last_reported":1730276027,"current_range_meters":38000,"station_id":"ce4bhu92rcd13ifvqi70","pricing_plan_id":"cebpf4jnsgd1na2vs0mg"},{"bike_id":"e4233d94-ec75-499d-89c5-1d74a9d45e94","system_id":"levelo_inurba_marseille","lat":43.3046,"lon":5.379,"is_reserved":false,"is_disabled":false,"rental_uris":{"android":"levelo://app?vid=e4233d94-ec75-499d-89c5-1d74a9d45e94","ios":"levelo://app?vid=e4233d94-ec75-499d-89c5-1d74a9d45e94"},"vehicle_type_id":"4","last_reported":1730276027,"current_range_meters":39200,"station_id":"ce4bgup2rcd13ifvqcn0","pricing_plan_id":"cebpf4jnsgd1na2vs0mg"},{"bike_id":"7b48dd76-9cf8-430f-a07d-cd75cf7ca1bd","system_id":"levelo_inurba_marseille","lat":43.25002,"lon":5.3892,"is_reserved":false,"is_disabled":false,"rental_uris":{"android":"levelo://app?vid=7b48dd76-9cf8-430f-a07d-cd75cf7ca1bd","ios":"levelo://app?vid=7b48dd76-9cf8-430f-a07d-cd75cf7ca1bd"},"vehicle_type_id":"4","last_reported":1730276027,"current_range_meters":31200,"station_id":"ce4bhgp2rcd13ifvqfd0","pricing_plan_id":"cebpf4jnsgd1na2vs0mg"},{"bike_id":"cb0aad40-f9ea-47e7-9d5a-cb2111c861fe","system_id":"levelo_inurba_marseille","lat":43.33745,"lon":5.37463,"is_reserved":false,"is_disabled":false,"rental_uris":{"android":"levelo://app?vid=cb0aad40-f9ea-47e7-9d5a-cb2111c861fe","ios":"levelo://app?vid=cb0aad40-f9ea-47e7-9d5a-cb2111c861fe"},"vehicle_type_id":"4","last_reported":1730276027,"current_range_meters":38800,"station_id":"","pricing_plan_id":"cebpf4jnsgd1na2vs0mg"},{"bike_id":"6d846102-f4b5-451c-943d-abcdc965dc60","system_id":"levelo_inurba_marseille","lat":43.3008,"lon":5.39076,"is_reserved":false,"is_disabled":false,"rental_uris":{"android":"levelo://app?vid=6d846102-f4b5-451c-943d-abcdc965dc60","ios":"levelo://app?vid=6d846102-f4b5-451c-943d-abcdc965dc60"},"vehicle_type_id":"4","last_reported":1730276027,"current_range_meters":34000,"station_id":"ce4bh192rcd13ifvqdb0","pricing_plan_id":"cebpf4jnsgd1na2vs0mg"},{"bike_id":"9c4e8573-fe6e-4614-b7af-9a36717ed9b9","system_id":"levelo_inurba_marseille","lat":43.27911,"lon":5.39581,"is_reserved":false,"is_disabled":false,"rental_uris":{"android":"levelo://app?vid=9c4e8573-fe6e-4614-b7af-9a36717ed9b9","ios":"levelo://app?vid=9c4e8573-fe6e-4614-b7af-9a36717ed9b9"},"vehicle_type_id":"4","last_reported":1730276027,"current_range_meters":22800,"station_id":"ce4bhf92rcd13ifvqf40","pricing_plan_id":"cebpf4jnsgd1na2vs0mg"},{"bike_id":"5c244c3d-8fd7-4c95-b825-2f7fe2f15994","system_id":"levelo_inurba_marseille","lat":43.23193,"lon":5.35547,"is_reserved":false,"is_disabled":false,"rental_uris":{"android":"levelo://app?vid=5c244c3d-8fd7-4c95-b825-2f7fe2f15994","ios":"levelo://app?vid=5c244c3d-8fd7-4c95-b825-2f7fe2f15994"},"vehicle_type_id":"4","last_reported":1730276027,"current_range_meters":38800,"station_id":"ce4bhu92rcd13ifvqi70","pricing_plan_id":"cebpf4jnsgd1na2vs0mg"},{"bike_id":"82c2f2b2-a482-4f77-a2c1-f6babf5f01cf","system_id":"levelo_inurba_marseille","lat":43.29482,"lon":5.44496,"is_reserved":false,"is_disabled":false,"rental_uris":{"android":"levelo://app?vid=82c2f2b2-a482-4f77-a2c1-f6babf5f01cf","ios":"levelo://app?vid=82c2f2b2-a482-4f77-a2c1-f6babf5f01cf"},"vehicle_type_id":"4","last_reported":1730276027,"current_range_meters":35600,"station_id":"","pricing_plan_id":"cebpf4jnsgd1na2vs0mg"},{"bike_id":"5efd5148-f738-4c82-8164-c1739863b28d","system_id":"levelo_inurba_marseille","lat":43.26941,"lon":5.40241,"is_reserved":false,"is_disabled":false,"rental_uris":{"android":"levelo://app?vid=5efd5148-f738-4c82-8164-c1739863b28d","ios":"levelo://app?vid=5efd5148-f738-4c82-8164-c1739863b28d"},"vehicle_type_id":"4","last_reported":1730276027,"current_range_meters":16400,"station_id":"cjm6bp8fraef2m0cb0m0","pricing_plan_id":"cebpf4jnsgd1na2vs0mg"},{"bike_id":"e10ff328-93b2-4d6a-af26-12f189d78479","system_id":"levelo_inurba_marseille","lat":43.33723,"lon":5.39177,"is_reserved":false,"is_disabled":false,"rental_uris":{"android":"levelo://app?vid=e10ff328-93b2-4d6a-af26-12f189d78479","ios":"levelo://app?vid=e10ff328-93b2-4d6a-af26-12f189d78479"},"vehicle_type_id":"4","last_reported":1730276027,"current_range_meters":38800,"station_id":"ce4bhr92rcd13ifvqhsg","pricing_plan_id":"cebpf4jnsgd1na2vs0mg"},{"bike_id":"8fe952c7-d1f5-486e-a32b-0e7b70cce917","system_id":"levelo_inurba_marseille","lat":43.32358,"lon":5.38884,"is_reserved":false,"is_disabled":false,"rental_uris":{"android":"levelo://app?vid=8fe952c7-d1f5-486e-a32b-0e7b70cce917","ios":"levelo://app?vid=8fe952c7-d1f5-486e-a32b-0e7b70cce917"},"vehicle_type_id":"4","last_reported":1730276027,"current_range_meters":30800,"station_id":"ce4bhqp2rcd13ifvqhog","pricing_plan_id":"cebpf4jnsgd1na2vs0mg"},{"bike_id":"66d7efc4-2248-47d0-915c-c5c49c23ff79","system_id":"levelo_inurba_marseille","lat":43.33607,"lon":5.41022,"is_reserved":false,"is_disabled":false,"rental_uris":{"android":"levelo://app?vid=66d7efc4-2248-47d0-915c-c5c49c23ff79","ios":"levelo://app?vid=66d7efc4-2248-47d0-915c-c5c49c23ff79"},"vehicle_type_id":"4","last_reported":1730276027,"current_range_meters":38000,"station_id":"ce4bhqh2rcd13ifvqhmg","pricing_plan_id":"cebpf4jnsgd1na2vs0mg"},{"bike_id":"c6472a4b-15fb-475c-a800-9db188055ce2","system_id":"levelo_inurba_marseille","lat":43.25827,"lon":5.39436,"is_reserved":false,"is_disabled":false,"rental_uris":{"android":"levelo://app?vid=c6472a4b-15fb-475c-a800-9db188055ce2","ios":"levelo://app?vid=c6472a4b-15fb-475c-a800-9db188055ce2"},"vehicle_type_id":"4","last_reported":1730276027,"current_range_meters":14000,"station_id":"ce4bhip2rcd13ifvqft0","pricing_plan_id":"cebpf4jnsgd1na2vs0mg"},{"bike_id":"5605e7e8-7b5f-4b34-8547-b7b667c952c4","system_id":"levelo_inurba_marseille","lat":43.24677,"lon":5.38153,"is_reserved":false,"is_disabled":false,"rental_uris":{"android":"levelo://app?vid=5605e7e8-7b5f-4b34-8547-b7b667c952c4","ios":"levelo://app?vid=5605e7e8-7b5f-4b34-8547-b7b667c952c4"},"vehicle_type_id":"4","last_reported":1730276027,"current_range_meters":27200,"station_id":"ce4bhih2rcd13ifvqfr0","pricing_plan_id":"cebpf4jnsgd1na2vs0mg"},{"bike_id":"56dc04b7-06b7-4e88-ac29-730a7abdd49b","system_id":"levelo_inurba_marseille","lat":43.31361,"lon":5.38492,"is_reserved":false,"is_disabled":false,"rental_uris":{"android":"levelo://app?vid=56dc04b7-06b7-4e88-ac29-730a7abdd49b","ios":"levelo://app?vid=56dc04b7-06b7-4e88-ac29-730a7abdd49b"},"vehicle_type_id":"4","last_reported":1730276027,"current_range_meters":38400,"station_id":"ce4bgt92rcd13ifvqcf0","pricing_plan_id":"cebpf4jnsgd1na2vs0mg"},{"bike_id":"ee9927da-db62-4b18-894c-b5fe829dc733","system_id":"levelo_inurba_marseille","lat":43.30912,"lon":5.36849,"is_reserved":false,"is_disabled":false,"rental_uris":{"android":"levelo://app?vid=ee9927da-db62-4b18-894c-b5fe829dc733","ios":"levelo://app?vid=ee9927da-db62-4b18-894c-b5fe829dc733"},"vehicle_type_id":"4","last_reported":1730276027,"current_range_meters":5600,"station_id":"ce4bgn92rcd13ifvqbvg","pricing_plan_id":"cebpf4jnsgd1na2vs0mg"},{"bike_id":"92adf987-4779-4b78-ad9c-8e29ab9175f3","system_id":"levelo_inurba_marseille","lat":43.23188,"lon":5.35557,"is_reserved":false,"is_disabled":false,"rental_uris":{"android":"levelo://app?vid=92adf987-4779-4b78-ad9c-8e29ab9175f3","ios":"levelo://app?vid=92adf987-4779-4b78-ad9c-8e29ab9175f3"},"vehicle_type_id":"4","last_reported":1730276027,"current_range_meters":14000,"station_id":"ce4bhu92rcd13ifvqi70","pricing_plan_id":"cebpf4jnsgd1na2vs0mg"},{"bike_id":"9bd1f4ea-9c55-4339-bfd3-d2b9bc835d01","system_id":"levelo_inurba_marseille","lat":43.28603,"lon":5.37069,"is_reserved":false,"is_disabled":false,"rental_uris":{"android":"levelo://app?vid=9bd1f4ea-9c55-4339-bfd3-d2b9bc835d01","ios":"levelo://app?vid=9bd1f4ea-9c55-4339-bfd3-d2b9bc835d01"},"vehicle_type_id":"4","last_reported":1730276027,"current_range_meters":37600,"station_id":"ce4bht12rcd13ifvqi60","pricing_plan_id":"cebpf4jnsgd1na2vs0mg"},{"bike_id":"e546b065-2350-4d25-89c1-48d33eb67c39","system_id":"levelo_inurba_marseille","lat":43.30149,"lon":5.37418,"is_reserved":false,"is_disabled":false,"rental_uris":{"android":"levelo://app?vid=e546b065-2350-4d25-89c1-48d33eb67c39","ios":"levelo://app?vid=e546b065-2350-4d25-89c1-48d33eb67c39"},"vehicle_type_id":"4","last_reported":1730276027,"current_range_meters":36800,"station_id":"ce4bgs92rcd13ifvqcc0","pricing_plan_id":"cebpf4jnsgd1na2vs0mg"},{"bike_id":"c03f3456-93bb-418a-8ce0-ca351e254b4e","system_id":"levelo_inurba_marseille","lat":43.31756,"lon":5.39014,"is_reserved":false,"is_disabled":false,"rental_uris":{"android":"levelo://app?vid=c03f3456-93bb-418a-8ce0-ca351e254b4e","ios":"levelo://app?vid=c03f3456-93bb-418a-8ce0-ca351e254b4e"},"vehicle_type_id":"4","last_reported":1730276027,"current_range_meters":37600,"station_id":"ce4bhqp2rcd13ifvqhng","pricing_plan_id":"cebpf4jnsgd1na2vs0mg"},{"bike_id":"37cb0773-ba21-47be-9d4f-f925cfb4f6e7","system_id":"levelo_inurba_marseille","lat":43.29039,"lon":5.37721,"is_reserved":false,"is_disabled":false,"rental_uris":{"android":"levelo://app?vid=37cb0773-ba21-47be-9d4f-f925cfb4f6e7","ios":"levelo://app?vid=37cb0773-ba21-47be-9d4f-f925cfb4f6e7"},"vehicle_type_id":"4","last_reported":1730276027,"current_range_meters":28800,"station_id":"","pricing_plan_id":"cebpf4jnsgd1na2vs0mg"},{"bike_id":"3f42b5bf-2a79-45d5-b497-6ae8dd1c3625","system_id":"levelo_inurba_marseille","lat":43.27908,"lon":5.39585,"is_reserved":false,"is_disabled":false,"rental_uris":{"android":"levelo://app?vid=3f42b5bf-2a79-45d5-b497-6ae8dd1c3625","ios":"levelo://app?vid=3f42b5bf-2a79-45d5-b497-6ae8dd1c3625"},"vehicle_type_id":"4","last_reported":1730276027,"current_range_meters":38400,"station_id":"ce4bhf92rcd13ifvqf40","pricing_plan_id":"cebpf4jnsgd1na2vs0mg"},{"bike_id":"6084bb8b-15a8-4039-8d98-d9914b85d883","system_id":"levelo_inurba_marseille","lat":43.26203,"lon":5.37927,"is_reserved":false,"is_disabled":false,"rental_uris":{"android":"levelo://app?vid=6084bb8b-15a8-4039-8d98-d9914b85d883","ios":"levelo://app?vid=6084bb8b-15a8-4039-8d98-d9914b85d883"},"vehicle_type_id":"4","last_reported":1730276027,"current_range_meters":38800,"station_id":"ce4bhjp2rcd13ifvqg90","pricing_plan_id":"cebpf4jnsgd1na2vs0mg"},{"bike_id":"1b0e2bab-c76a-4b02-87ab-e2dcd0cfc1cd","system_id":"levelo_inurba_marseille","lat":43.25117,"lon":5.40321,"is_reserved":false,"is_disabled":false,"rental_uris":{"android":"levelo://app?vid=1b0e2bab-c76a-4b02-87ab-e2dcd0cfc1cd","ios":"levelo://app?vid=1b0e2bab-c76a-4b02-87ab-e2dcd0cfc1cd"},"vehicle_type_id":"4","last_reported":1730276027,"current_range_meters":8000,"station_id":"ce4bhlh2rcd13ifvqgig","pricing_plan_id":"cebpf4jnsgd1na2vs0mg"},{"bike_id":"269a4193-03a6-4fe1-93c0-2b8610ca1e7f","system_id":"levelo_inurba_marseille","lat":43.24384,"lon":5.37051,"is_reserved":false,"is_disabled":false,"rental_uris":{"android":"levelo://app?vid=269a4193-03a6-4fe1-93c0-2b8610ca1e7f","ios":"levelo://app?vid=269a4193-03a6-4fe1-93c0-2b8610ca1e7f"},"vehicle_type_id":"4","last_reported":1730276027,"current_range_meters":19200,"station_id":"ce4bhhh2rcd13ifvqfk0","pricing_plan_id":"cebpf4jnsgd1na2vs0mg"},{"bike_id":"262820ac-8685-4918-8ddc-21653da27501","system_id":"levelo_inurba_marseille","lat":43.284698,"lon":5.384222,"is_reserved":false,"is_disabled":false,"rental_uris":{"android":"levelo://app?vid=262820ac-8685-4918-8ddc-21653da27501","ios":"levelo://app?vid=262820ac-8685-4918-8ddc-21653da27501"},"vehicle_type_id":"4","last_reported":1730276027,"current_range_meters":26000,"station_id":"ce4bh512rcd13ifvqe3g","pricing_plan_id":"cebpf4jnsgd1na2vs0mg"},{"bike_id":"3928d2b2-5322-4bfc-935c-f02931565366","system_id":"levelo_inurba_marseille","lat":43.28001,"lon":5.41654,"is_reserved":false,"is_disabled":false,"rental_uris":{"android":"levelo://app?vid=3928d2b2-5322-4bfc-935c-f02931565366","ios":"levelo://app?vid=3928d2b2-5322-4bfc-935c-f02931565366"},"vehicle_type_id":"4","last_reported":1730276027,"current_range_meters":11200,"station_id":"ce4bho12rcd13ifvqh1g","pricing_plan_id":"cebpf4jnsgd1na2vs0mg"},{"bike_id":"1cac7801-6ba9-4831-9414-21a3ea12fbd0","system_id":"levelo_inurba_marseille","lat":43.30528,"lon":5.36706,"is_reserved":false,"is_disabled":false,"rental_uris":{"android":"levelo://app?vid=1cac7801-6ba9-4831-9414-21a3ea12fbd0","ios":"levelo://app?vid=1cac7801-6ba9-4831-9414-21a3ea12fbd0"},"vehicle_type_id":"4","last_reported":1730276027,"current_range_meters":36000,"station_id":"ce4bgrp2rcd13ifvqc9g","pricing_plan_id":"cebpf4jnsgd1na2vs0mg"},{"bike_id":"87d4cda7-2b7e-47cf-854a-98224e62b405","system_id":"levelo_inurba_marseille","lat":43.31222,"lon":5.36854,"is_reserved":false,"is_disabled":false,"rental_uris":{"android":"levelo://app?vid=87d4cda7-2b7e-47cf-854a-98224e62b405","ios":"levelo://app?vid=87d4cda7-2b7e-47cf-854a-98224e62b405"},"vehicle_type_id":"4","last_reported":1730276027,"current_range_meters":38800,"station_id":"ce4bgl92rcd13ifvqbq0","pricing_plan_id":"cebpf4jnsgd1na2vs0mg"},{"bike_id":"03f83e59-2404-4d0f-859e-cf566ed86623","system_id":"levelo_inurba_marseille","lat":43.309,"lon":5.36851,"is_reserved":false,"is_disabled":false,"rental_uris":{"android":"levelo://app?vid=03f83e59-2404-4d0f-859e-cf566ed86623","ios":"levelo://app?vid=03f83e59-2404-4d0f-859e-cf566ed86623"},"vehicle_type_id":"4","last_reported":1730276027,"current_range_meters":13600,"station_id":"ce4bgn92rcd13ifvqbvg","pricing_plan_id":"cebpf4jnsgd1na2vs0mg"},{"bike_id":"79f80d06-96c4-45c9-9a3f-29cf805cfe78","system_id":"levelo_inurba_marseille","lat":43.273,"lon":5.39117,"is_reserved":false,"is_disabled":false,"rental_uris":{"android":"levelo://app?vid=79f80d06-96c4-45c9-9a3f-29cf805cfe78","ios":"levelo://app?vid=79f80d06-96c4-45c9-9a3f-29cf805cfe78"},"vehicle_type_id":"4","last_reported":1730276027,"current_range_meters":33200,"station_id":"","pricing_plan_id":"cebpf4jnsgd1na2vs0mg"},{"bike_id":"4f05da02-5206-4154-9bf8-586b78a2b501","system_id":"levelo_inurba_marseille","lat":43.30536,"lon":5.36699,"is_reserved":false,"is_disabled":false,"rental_uris":{"android":"levelo://app?vid=4f05da02-5206-4154-9bf8-586b78a2b501","ios":"levelo://app?vid=4f05da02-5206-4154-9bf8-586b78a2b501"},"vehicle_type_id":"4","last_reported":1730276027,"current_range_meters":8400,"station_id":"ce4bgrp2rcd13ifvqc9g","pricing_plan_id":"cebpf4jnsgd1na2vs0mg"},{"bike_id":"eab9993c-1eac-440c-a364-251a7aed1e47","system_id":"levelo_inurba_marseille","lat":43.30948,"lon":5.39024,"is_reserved":false,"is_disabled":false,"rental_uris":{"android":"levelo://app?vid=eab9993c-1eac-440c-a364-251a7aed1e47","ios":"levelo://app?vid=eab9993c-1eac-440c-a364-251a7aed1e47"},"vehicle_type_id":"4","last_reported":1730276027,"current_range_meters":27600,"station_id":"ce4bgup2rcd13ifvqco0","pricing_plan_id":"cebpf4jnsgd1na2vs0mg"},{"bike_id":"2c665996-2d2c-41d7-bfd5-5c7e8f4cfd7b","system_id":"levelo_inurba_marseille","lat":43.3095,"lon":5.39022,"is_reserved":false,"is_disabled":false,"rental_uris":{"android":"levelo://app?vid=2c665996-2d2c-41d7-bfd5-5c7e8f4cfd7b","ios":"levelo://app?vid=2c665996-2d2c-41d7-bfd5-5c7e8f4cfd7b"},"vehicle_type_id":"4","last_reported":1730276027,"current_range_meters":12000,"station_id":"ce4bgup2rcd13ifvqco0","pricing_plan_id":"cebpf4jnsgd1na2vs0mg"},{"bike_id":"defdda9f-a11b-4b2f-8fc8-580691ee0a13","system_id":"levelo_inurba_marseille","lat":43.30553,"lon":5.36535,"is_reserved":false,"is_disabled":false,"rental_uris":{"android":"levelo://app?vid=defdda9f-a11b-4b2f-8fc8-580691ee0a13","ios":"levelo://app?vid=defdda9f-a11b-4b2f-8fc8-580691ee0a13"},"vehicle_type_id":"4","last_reported":1730276027,"current_range_meters":38800,"station_id":"ce4bgs12rcd13ifvqcag","pricing_plan_id":"cebpf4jnsgd1na2vs0mg"},{"bike_id":"c1b9fa0c-e0b0-4d90-965f-49343b4b8c16","system_id":"levelo_inurba_marseille","lat":43.31227,"lon":5.36864,"is_reserved":false,"is_disabled":false,"rental_uris":{"android":"levelo://app?vid=c1b9fa0c-e0b0-4d90-965f-49343b4b8c16","ios":"levelo://app?vid=c1b9fa0c-e0b0-4d90-965f-49343b4b8c16"},"vehicle_type_id":"4","last_reported":1730276027,"current_range_meters":38400,"station_id":"ce4bgl92rcd13ifvqbq0","pricing_plan_id":"cebpf4jnsgd1na2vs0mg"},{"bike_id":"744feebc-9a08-4810-b9b2-e3462dd21bd3","system_id":"levelo_inurba_marseille","lat":43.28437,"lon":5.39175,"is_reserved":false,"is_disabled":false,"rental_uris":{"android":"levelo://app?vid=744feebc-9a08-4810-b9b2-e3462dd21bd3","ios":"levelo://app?vid=744feebc-9a08-4810-b9b2-e3462dd21bd3"},"vehicle_type_id":"4","last_reported":1730276027,"current_range_meters":24000,"station_id":"ce4bhoh2rcd13ifvqh5g","pricing_plan_id":"cebpf4jnsgd1na2vs0mg"},{"bike_id":"a499e673-4f57-4342-9063-be4db69af0ba","system_id":"levelo_inurba_marseille","lat":43.314921,"lon":5.373029,"is_reserved":false,"is_disabled":false,"rental_uris":{"android":"levelo://app?vid=a499e673-4f57-4342-9063-be4db69af0ba","ios":"levelo://app?vid=a499e673-4f57-4342-9063-be4db69af0ba"},"vehicle_type_id":"4","last_reported":1730276027,"current_range_meters":39200,"station_id":"ce4bgt12rcd13ifvqcd0","pricing_plan_id":"cebpf4jnsgd1na2vs0mg"},{"bike_id":"54454bef-56f4-4fd7-9cf7-c57a75a8c623","system_id":"levelo_inurba_marseille","lat":43.31708,"lon":5.37744,"is_reserved":false,"is_disabled":false,"rental_uris":{"android":"levelo://app?vid=54454bef-56f4-4fd7-9cf7-c57a75a8c623","ios":"levelo://app?vid=54454bef-56f4-4fd7-9cf7-c57a75a8c623"},"vehicle_type_id":"4","last_reported":1730276027,"current_range_meters":38800,"station_id":"ce4bgth2rcd13ifvqch0","pricing_plan_id":"cebpf4jnsgd1na2vs0mg"},{"bike_id":"0654c497-4be7-4675-a9e6-72a505c542ad","system_id":"levelo_inurba_marseille","lat":43.337203,"lon":5.39189,"is_reserved":false,"is_disabled":false,"rental_uris":{"android":"levelo://app?vid=0654c497-4be7-4675-a9e6-72a505c542ad","ios":"levelo://app?vid=0654c497-4be7-4675-a9e6-72a505c542ad"},"vehicle_type_id":"4","last_reported":1730276027,"current_range_meters":29600,"station_id":"ce4bhr92rcd13ifvqhsg","pricing_plan_id":"cebpf4jnsgd1na2vs0mg"},{"bike_id":"2370a04e-d358-4a29-b67a-890bf50b34fd","system_id":"levelo_inurba_marseille","lat":43.24168,"lon":5.36399,"is_reserved":false,"is_disabled":false,"rental_uris":{"android":"levelo://app?vid=2370a04e-d358-4a29-b67a-890bf50b34fd","ios":"levelo://app?vid=2370a04e-d358-4a29-b67a-890bf50b34fd"},"vehicle_type_id":"4","last_reported":1730276027,"current_range_meters":8000,"station_id":"cpo36qri1sfpv3e86is0","pricing_plan_id":"cebpf4jnsgd1na2vs0mg"},{"bike_id":"f1c84a2f-8014-48d5-b5a7-ded715f4e6fc","system_id":"levelo_inurba_marseille","lat":43.27046,"lon":5.40261,"is_reserved":false,"is_disabled":false,"rental_uris":{"android":"levelo://app?vid=f1c84a2f-8014-48d5-b5a7-ded715f4e6fc","ios":"levelo://app?vid=f1c84a2f-8014-48d5-b5a7-ded715f4e6fc"},"vehicle_type_id":"4","last_reported":1730276027,"current_range_meters":22400,"station_id":"ce4bhk92rcd13ifvqgc0","pricing_plan_id":"cebpf4jnsgd1na2vs0mg"},{"bike_id":"a229a8e4-b487-4ce6-880f-8ce6175737ff","system_id":"levelo_inurba_marseille","lat":43.27074,"lon":5.40247,"is_reserved":false,"is_disabled":false,"rental_uris":{"android":"levelo://app?vid=a229a8e4-b487-4ce6-880f-8ce6175737ff","ios":"levelo://app?vid=a229a8e4-b487-4ce6-880f-8ce6175737ff"},"vehicle_type_id":"4","last_reported":1730276027,"current_range_meters":38800,"station_id":"ce4bhk92rcd13ifvqgc0","pricing_plan_id":"cebpf4jnsgd1na2vs0mg"},{"bike_id":"3abb7bd9-4dbb-4b2b-bce1-ade98c06f62e","system_id":"levelo_inurba_marseille","lat":43.295837,"lon":5.367439,"is_reserved":false,"is_disabled":false,"rental_uris":{"android":"levelo://app?vid=3abb7bd9-4dbb-4b2b-bce1-ade98c06f62e","ios":"levelo://app?vid=3abb7bd9-4dbb-4b2b-bce1-ade98c06f62e"},"vehicle_type_id":"4","last_reported":1730276027,"current_range_meters":38000,"station_id":"ce4bgph2rcd13ifvqc2g","pricing_plan_id":"cebpf4jnsgd1na2vs0mg"},{"bike_id":"538c6c97-8738-4e40-afde-1ced2fc6b778","system_id":"levelo_inurba_marseille","lat":43.33717,"lon":5.39178,"is_reserved":false,"is_disabled":false,"rental_uris":{"android":"levelo://app?vid=538c6c97-8738-4e40-afde-1ced2fc6b778","ios":"levelo://app?vid=538c6c97-8738-4e40-afde-1ced2fc6b778"},"vehicle_type_id":"4","last_reported":1730276027,"current_range_meters":36800,"station_id":"ce4bhr92rcd13ifvqhsg","pricing_plan_id":"cebpf4jnsgd1na2vs0mg"},{"bike_id":"dd71d7e4-db2f-4f2b-8b20-0abda516f301","system_id":"levelo_inurba_marseille","lat":43.30301,"lon":5.39208,"is_reserved":false,"is_disabled":false,"rental_uris":{"android":"levelo://app?vid=dd71d7e4-db2f-4f2b-8b20-0abda516f301","ios":"levelo://app?vid=dd71d7e4-db2f-4f2b-8b20-0abda516f301"},"vehicle_type_id":"4","last_reported":1730276027,"current_range_meters":38800,"station_id":"ce4bgkh2rcd13ifvqbk0","pricing_plan_id":"cebpf4jnsgd1na2vs0mg"},{"bike_id":"03e26363-1adc-494c-8098-91070571fba5","system_id":"levelo_inurba_marseille","lat":43.23194,"lon":5.35541,"is_reserved":false,"is_disabled":false,"rental_uris":{"android":"levelo://app?vid=03e26363-1adc-494c-8098-91070571fba5","ios":"levelo://app?vid=03e26363-1adc-494c-8098-91070571fba5"},"vehicle_type_id":"4","last_reported":1730276027,"current_range_meters":32000,"station_id":"ce4bhu92rcd13ifvqi70","pricing_plan_id":"cebpf4jnsgd1na2vs0mg"},{"bike_id":"c497513d-9d1d-4320-a1e3-875a8b21d4c5","system_id":"levelo_inurba_marseille","lat":43.27173,"lon":5.41001,"is_reserved":false,"is_disabled":false,"rental_uris":{"android":"levelo://app?vid=c497513d-9d1d-4320-a1e3-875a8b21d4c5","ios":"levelo://app?vid=c497513d-9d1d-4320-a1e3-875a8b21d4c5"},"vehicle_type_id":"4","last_reported":1730276027,"current_range_meters":33200,"station_id":"ce4bhl12rcd13ifvqgf0","pricing_plan_id":"cebpf4jnsgd1na2vs0mg"},{"bike_id":"3f296890-19ce-46b6-884b-d2e34dba8783","system_id":"levelo_inurba_marseille","lat":43.24807,"lon":5.37455,"is_reserved":false,"is_disabled":false,"rental_uris":{"android":"levelo://app?vid=3f296890-19ce-46b6-884b-d2e34dba8783","ios":"levelo://app?vid=3f296890-19ce-46b6-884b-d2e34dba8783"},"vehicle_type_id":"4","last_reported":1730276027,"current_range_meters":38400,"station_id":"ce4bhgh2rcd13ifvqfb0","pricing_plan_id":"cebpf4jnsgd1na2vs0mg"},{"bike_id":"07db3fac-6e28-436c-af3e-dde1a581b97f","system_id":"levelo_inurba_marseille","lat":43.26954,"lon":5.38628,"is_reserved":false,"is_disabled":false,"rental_uris":{"android":"levelo://app?vid=07db3fac-6e28-436c-af3e-dde1a581b97f","ios":"levelo://app?vid=07db3fac-6e28-436c-af3e-dde1a581b97f"},"vehicle_type_id":"4","last_reported":1730276027,"current_range_meters":16000,"station_id":"ce4bhh92rcd13ifvqfh0","pricing_plan_id":"cebpf4jnsgd1na2vs0mg"},{"bike_id":"e9141b44-30ab-459c-94b2-99dbe6b7a845","system_id":"levelo_inurba_marseille","lat":43.2955,"lon":5.42284,"is_reserved":false,"is_disabled":false,"rental_uris":{"android":"levelo://app?vid=e9141b44-30ab-459c-94b2-99dbe6b7a845","ios":"levelo://app?vid=e9141b44-30ab-459c-94b2-99dbe6b7a845"},"vehicle_type_id":"4","last_reported":1730276027,"current_range_meters":36800,"station_id":"ce4bhph2rcd13ifvqhdg","pricing_plan_id":"cebpf4jnsgd1na2vs0mg"},{"bike_id":"9457fcf1-a03e-4c74-98c8-ef5ae310513c","system_id":"levelo_inurba_marseille","lat":43.30308,"lon":5.36892,"is_reserved":false,"is_disabled":false,"rental_uris":{"android":"levelo://app?vid=9457fcf1-a03e-4c74-98c8-ef5ae310513c","ios":"levelo://app?vid=9457fcf1-a03e-4c74-98c8-ef5ae310513c"},"vehicle_type_id":"4","last_reported":1730276027,"current_range_meters":26000,"station_id":"ce4bgqh2rcd13ifvqc5g","pricing_plan_id":"cebpf4jnsgd1na2vs0mg"},{"bike_id":"75313b0b-fea0-43a4-930b-001fbd31ad06","system_id":"levelo_inurba_marseille","lat":43.3361,"lon":5.41008,"is_reserved":false,"is_disabled":false,"rental_uris":{"android":"levelo://app?vid=75313b0b-fea0-43a4-930b-001fbd31ad06","ios":"levelo://app?vid=75313b0b-fea0-43a4-930b-001fbd31ad06"},"vehicle_type_id":"4","last_reported":1730276027,"current_range_meters":12400,"station_id":"ce4bhqh2rcd13ifvqhmg","pricing_plan_id":"cebpf4jnsgd1na2vs0mg"},{"bike_id":"8fc8f69f-228e-4754-8013-e3713d197b92","system_id":"levelo_inurba_marseille","lat":43.24675,"lon":5.38146,"is_reserved":false,"is_disabled":false,"rental_uris":{"android":"levelo://app?vid=8fc8f69f-228e-4754-8013-e3713d197b92","ios":"levelo://app?vid=8fc8f69f-228e-4754-8013-e3713d197b92"},"vehicle_type_id":"4","last_reported":1730276027,"current_range_meters":38800,"station_id":"ce4bhih2rcd13ifvqfr0","pricing_plan_id":"cebpf4jnsgd1na2vs0mg"},{"bike_id":"6b778970-7ca1-4912-8b3b-f071e3ca997e","system_id":"levelo_inurba_marseille","lat":43.31274,"lon":5.40169,"is_reserved":false,"is_disabled":false,"rental_uris":{"android":"levelo://app?vid=6b778970-7ca1-4912-8b3b-f071e3ca997e","ios":"levelo://app?vid=6b778970-7ca1-4912-8b3b-f071e3ca997e"},"vehicle_type_id":"4","last_reported":1730276027,"current_range_meters":36400,"station_id":"ce4bh092rcd13ifvqd30","pricing_plan_id":"cebpf4jnsgd1na2vs0mg"},{"bike_id":"a306c469-7544-4489-af82-e9fb1e9b4215","system_id":"levelo_inurba_marseille","lat":43.23187,"lon":5.39973,"is_reserved":false,"is_disabled":false,"rental_uris":{"android":"levelo://app?vid=a306c469-7544-4489-af82-e9fb1e9b4215","ios":"levelo://app?vid=a306c469-7544-4489-af82-e9fb1e9b4215"},"vehicle_type_id":"4","last_reported":1730276027,"current_range_meters":38800,"station_id":"ce4bhn12rcd13ifvqgqg","pricing_plan_id":"cebpf4jnsgd1na2vs0mg"},{"bike_id":"7a4d6c6c-3990-47c6-9c5b-9359b7b1ecd0","system_id":"levelo_inurba_marseille","lat":43.30305,"lon":5.36902,"is_reserved":false,"is_disabled":false,"rental_uris":{"android":"levelo://app?vid=7a4d6c6c-3990-47c6-9c5b-9359b7b1ecd0","ios":"levelo://app?vid=7a4d6c6c-3990-47c6-9c5b-9359b7b1ecd0"},"vehicle_type_id":"4","last_reported":1730276027,"current_range_meters":35200,"station_id":"ce4bgqh2rcd13ifvqc5g","pricing_plan_id":"cebpf4jnsgd1na2vs0mg"},{"bike_id":"a14f2776-8da6-4ecd-ab54-39c8f8594472","system_id":"levelo_inurba_marseille","lat":43.30146,"lon":5.38081,"is_reserved":false,"is_disabled":false,"rental_uris":{"android":"levelo://app?vid=a14f2776-8da6-4ecd-ab54-39c8f8594472","ios":"levelo://app?vid=a14f2776-8da6-4ecd-ab54-39c8f8594472"},"vehicle_type_id":"4","last_reported":1730276027,"current_range_meters":38400,"station_id":"ce4bgjp2rcd13ifvqbh0","pricing_plan_id":"cebpf4jnsgd1na2vs0mg"},{"bike_id":"b72913b6-9d4a-45c6-9992-146504dc2537","system_id":"levelo_inurba_marseille","lat":43.31226,"lon":5.36844,"is_reserved":false,"is_disabled":false,"rental_uris":{"android":"levelo://app?vid=b72913b6-9d4a-45c6-9992-146504dc2537","ios":"levelo://app?vid=b72913b6-9d4a-45c6-9992-146504dc2537"},"vehicle_type_id":"4","last_reported":1730276027,"current_range_meters":28400,"station_id":"ce4bgl92rcd13ifvqbq0","pricing_plan_id":"cebpf4jnsgd1na2vs0mg"},{"bike_id":"2d63dadb-e2aa-4bcb-ac49-00dc0d00b8e4","system_id":"levelo_inurba_marseille","lat":43.30524,"lon":5.36714,"is_reserved":false,"is_disabled":false,"rental_uris":{"android":"levelo://app?vid=2d63dadb-e2aa-4bcb-ac49-00dc0d00b8e4","ios":"levelo://app?vid=2d63dadb-e2aa-4bcb-ac49-00dc0d00b8e4"},"vehicle_type_id":"4","last_reported":1730276027,"current_range_meters":26000,"station_id":"ce4bgrp2rcd13ifvqc9g","pricing_plan_id":"cebpf4jnsgd1na2vs0mg"},{"bike_id":"78516755-0ef3-4ca1-9cf7-4fd485721544","system_id":"levelo_inurba_marseille","lat":43.293,"lon":5.37149,"is_reserved":false,"is_disabled":false,"rental_uris":{"android":"levelo://app?vid=78516755-0ef3-4ca1-9cf7-4fd485721544","ios":"levelo://app?vid=78516755-0ef3-4ca1-9cf7-4fd485721544"},"vehicle_type_id":"4","last_reported":1730276027,"current_range_meters":26000,"station_id":"ce4bgh92rcd13ifvqb40","pricing_plan_id":"cebpf4jnsgd1na2vs0mg"},{"bike_id":"0f3937a5-d38c-4c50-a9e9-36b7ab0a7b30","system_id":"levelo_inurba_marseille","lat":43.26678,"lon":5.38263,"is_reserved":false,"is_disabled":false,"rental_uris":{"android":"levelo://app?vid=0f3937a5-d38c-4c50-a9e9-36b7ab0a7b30","ios":"levelo://app?vid=0f3937a5-d38c-4c50-a9e9-36b7ab0a7b30"},"vehicle_type_id":"4","last_reported":1730276027,"current_range_meters":30400,"station_id":"ce4bhg92rcd13ifvqf90","pricing_plan_id":"cebpf4jnsgd1na2vs0mg"},{"bike_id":"28be2e90-3ac6-4686-ae54-ecfc500be0fc","system_id":"levelo_inurba_marseille","lat":43.24807,"lon":5.3745,"is_reserved":false,"is_disabled":false,"rental_uris":{"android":"levelo://app?vid=28be2e90-3ac6-4686-ae54-ecfc500be0fc","ios":"levelo://app?vid=28be2e90-3ac6-4686-ae54-ecfc500be0fc"},"vehicle_type_id":"4","last_reported":1730276027,"current_range_meters":34800,"station_id":"ce4bhgh2rcd13ifvqfb0","pricing_plan_id":"cebpf4jnsgd1na2vs0mg"},{"bike_id":"65ebd49a-94e0-4731-b170-9f1ac0fc0675","system_id":"levelo_inurba_marseille","lat":43.31535,"lon":5.38029,"is_reserved":false,"is_disabled":false,"rental_uris":{"android":"levelo://app?vid=65ebd49a-94e0-4731-b170-9f1ac0fc0675","ios":"levelo://app?vid=65ebd49a-94e0-4731-b170-9f1ac0fc0675"},"vehicle_type_id":"4","last_reported":1730276027,"current_range_meters":26800,"station_id":"ce4bhsp2rcd13ifvqi50","pricing_plan_id":"cebpf4jnsgd1na2vs0mg"},{"bike_id":"d8727bac-17ee-4f4a-ac67-5aef09323d56","system_id":"levelo_inurba_marseille","lat":43.31319,"lon":5.36715,"is_reserved":false,"is_disabled":false,"rental_uris":{"android":"levelo://app?vid=d8727bac-17ee-4f4a-ac67-5aef09323d56","ios":"levelo://app?vid=d8727bac-17ee-4f4a-ac67-5aef09323d56"},"vehicle_type_id":"4","last_reported":1730276027,"current_range_meters":6000,"station_id":"ce4bgr92rcd13ifvqc6g","pricing_plan_id":"cebpf4jnsgd1na2vs0mg"},{"bike_id":"adc4ccfa-08cc-485d-bffe-b868b40b0ee8","system_id":"levelo_inurba_marseille","lat":43.30851,"lon":5.38088,"is_reserved":false,"is_disabled":false,"rental_uris":{"android":"levelo://app?vid=adc4ccfa-08cc-485d-bffe-b868b40b0ee8","ios":"levelo://app?vid=adc4ccfa-08cc-485d-bffe-b868b40b0ee8"},"vehicle_type_id":"4","last_reported":1730276027,"current_range_meters":2800,"station_id":"","pricing_plan_id":"cebpf4jnsgd1na2vs0mg"},{"bike_id":"5a684be4-7c13-402d-b8cd-679b4ca5b676","system_id":"levelo_inurba_marseille","lat":43.3142,"lon":5.3667,"is_reserved":false,"is_disabled":false,"rental_uris":{"android":"levelo://app?vid=5a684be4-7c13-402d-b8cd-679b4ca5b676","ios":"levelo://app?vid=5a684be4-7c13-402d-b8cd-679b4ca5b676"},"vehicle_type_id":"4","last_reported":1730276027,"current_range_meters":38800,"station_id":"ce4bgr92rcd13ifvqc6g","pricing_plan_id":"cebpf4jnsgd1na2vs0mg"},{"bike_id":"fa4cf447-2ef8-47c1-93e1-740dfdea1f79","system_id":"levelo_inurba_marseille","lat":43.30895,"lon":5.3686,"is_reserved":false,"is_disabled":false,"rental_uris":{"android":"levelo://app?vid=fa4cf447-2ef8-47c1-93e1-740dfdea1f79","ios":"levelo://app?vid=fa4cf447-2ef8-47c1-93e1-740dfdea1f79"},"vehicle_type_id":"4","last_reported":1730276027,"current_range_meters":30800,"station_id":"ce4bgn92rcd13ifvqbvg","pricing_plan_id":"cebpf4jnsgd1na2vs0mg"},{"bike_id":"1665c4ba-0b1d-4ef4-81df-418c9185a00a","system_id":"levelo_inurba_marseille","lat":43.3089,"lon":5.36845,"is_reserved":false,"is_disabled":false,"rental_uris":{"android":"levelo://app?vid=1665c4ba-0b1d-4ef4-81df-418c9185a00a","ios":"levelo://app?vid=1665c4ba-0b1d-4ef4-81df-418c9185a00a"},"vehicle_type_id":"4","last_reported":1730276027,"current_range_meters":35600,"station_id":"ce4bgn92rcd13ifvqbvg","pricing_plan_id":"cebpf4jnsgd1na2vs0mg"},{"bike_id":"0b09fc67-30a7-4d42-b30b-381d2c799f72","system_id":"levelo_inurba_marseille","lat":43.27209,"lon":5.39171,"is_reserved":false,"is_disabled":false,"rental_uris":{"android":"levelo://app?vid=0b09fc67-30a7-4d42-b30b-381d2c799f72","ios":"levelo://app?vid=0b09fc67-30a7-4d42-b30b-381d2c799f72"},"vehicle_type_id":"4","last_reported":1730276027,"current_range_meters":18000,"station_id":"ce4bhhp2rcd13ifvqfm0","pricing_plan_id":"cebpf4jnsgd1na2vs0mg"},{"bike_id":"7095b495-718a-4796-8fa3-b738528aec6e","system_id":"levelo_inurba_marseille","lat":43.32364,"lon":5.38882,"is_reserved":false,"is_disabled":false,"rental_uris":{"android":"levelo://app?vid=7095b495-718a-4796-8fa3-b738528aec6e","ios":"levelo://app?vid=7095b495-718a-4796-8fa3-b738528aec6e"},"vehicle_type_id":"4","last_reported":1730276027,"current_range_meters":31200,"station_id":"ce4bhqp2rcd13ifvqhog","pricing_plan_id":"cebpf4jnsgd1na2vs0mg"},{"bike_id":"02fae2a4-1121-44cb-af7e-2563d4abaaa4","system_id":"levelo_inurba_marseille","lat":43.27182,"lon":5.40988,"is_reserved":false,"is_disabled":false,"rental_uris":{"android":"levelo://app?vid=02fae2a4-1121-44cb-af7e-2563d4abaaa4","ios":"levelo://app?vid=02fae2a4-1121-44cb-af7e-2563d4abaaa4"},"vehicle_type_id":"4","last_reported":1730276027,"current_range_meters":38800,"station_id":"ce4bhl12rcd13ifvqgf0","pricing_plan_id":"cebpf4jnsgd1na2vs0mg"},{"bike_id":"d4cf8e9c-203d-4786-a9c6-bb13672a3274","system_id":"levelo_inurba_marseille","lat":43.30142,"lon":5.38097,"is_reserved":false,"is_disabled":false,"rental_uris":{"android":"levelo://app?vid=d4cf8e9c-203d-4786-a9c6-bb13672a3274","ios":"levelo://app?vid=d4cf8e9c-203d-4786-a9c6-bb13672a3274"},"vehicle_type_id":"4","last_reported":1730276027,"current_range_meters":36400,"station_id":"ce4bgjp2rcd13ifvqbh0","pricing_plan_id":"cebpf4jnsgd1na2vs0mg"},{"bike_id":"dbfafde0-c582-408a-8e0f-30168d4bd53c","system_id":"levelo_inurba_marseille","lat":43.25572,"lon":5.38245,"is_reserved":false,"is_disabled":false,"rental_uris":{"android":"levelo://app?vid=dbfafde0-c582-408a-8e0f-30168d4bd53c","ios":"levelo://app?vid=dbfafde0-c582-408a-8e0f-30168d4bd53c"},"vehicle_type_id":"4","last_reported":1730276027,"current_range_meters":28400,"station_id":"ce4bhih2rcd13ifvqfs0","pricing_plan_id":"cebpf4jnsgd1na2vs0mg"},{"bike_id":"288f8dcf-45f6-4787-9211-21bf95dc6ebe","system_id":"levelo_inurba_marseille","lat":43.29966,"lon":5.41324,"is_reserved":false,"is_disabled":false,"rental_uris":{"android":"levelo://app?vid=288f8dcf-45f6-4787-9211-21bf95dc6ebe","ios":"levelo://app?vid=288f8dcf-45f6-4787-9211-21bf95dc6ebe"},"vehicle_type_id":"4","last_reported":1730276027,"current_range_meters":28800,"station_id":"ce4bhp12rcd13ifvqh9g","pricing_plan_id":"cebpf4jnsgd1na2vs0mg"},{"bike_id":"10811822-4b85-4660-8caa-1fcdaa4ec854","system_id":"levelo_inurba_marseille","lat":43.30518,"lon":5.36725,"is_reserved":false,"is_disabled":false,"rental_uris":{"android":"levelo://app?vid=10811822-4b85-4660-8caa-1fcdaa4ec854","ios":"levelo://app?vid=10811822-4b85-4660-8caa-1fcdaa4ec854"},"vehicle_type_id":"4","last_reported":1730276027,"current_range_meters":38400,"station_id":"ce4bgrp2rcd13ifvqc9g","pricing_plan_id":"cebpf4jnsgd1na2vs0mg"},{"bike_id":"67c82576-6467-4908-923a-54ed28549ca5","system_id":"levelo_inurba_marseille","lat":43.32478,"lon":5.36562,"is_reserved":false,"is_disabled":false,"rental_uris":{"android":"levelo://app?vid=67c82576-6467-4908-923a-54ed28549ca5","ios":"levelo://app?vid=67c82576-6467-4908-923a-54ed28549ca5"},"vehicle_type_id":"4","last_reported":1730276027,"current_range_meters":38400,"station_id":"ce4bhs12rcd13ifvqhvg","pricing_plan_id":"cebpf4jnsgd1na2vs0mg"},{"bike_id":"d4bb1dc0-ee68-4e6e-861f-57bda3dcfac8","system_id":"levelo_inurba_marseille","lat":43.30944,"lon":5.39029,"is_reserved":false,"is_disabled":false,"rental_uris":{"android":"levelo://app?vid=d4bb1dc0-ee68-4e6e-861f-57bda3dcfac8","ios":"levelo://app?vid=d4bb1dc0-ee68-4e6e-861f-57bda3dcfac8"},"vehicle_type_id":"4","last_reported":1730276027,"current_range_meters":22000,"station_id":"ce4bgup2rcd13ifvqco0","pricing_plan_id":"cebpf4jnsgd1na2vs0mg"},{"bike_id":"0eed88fb-868e-4f99-89ef-5b2817297d87","system_id":"levelo_inurba_marseille","lat":43.2587,"lon":5.39896,"is_reserved":false,"is_disabled":false,"rental_uris":{"android":"levelo://app?vid=0eed88fb-868e-4f99-89ef-5b2817297d87","ios":"levelo://app?vid=0eed88fb-868e-4f99-89ef-5b2817297d87"},"vehicle_type_id":"4","last_reported":1730276027,"current_range_meters":16800,"station_id":"ce4bhl92rcd13ifvqghg","pricing_plan_id":"cebpf4jnsgd1na2vs0mg"},{"bike_id":"dbcac243-ba34-49b4-b9d3-a704d900c9a7","system_id":"levelo_inurba_marseille","lat":43.3089,"lon":5.36854,"is_reserved":false,"is_disabled":false,"rental_uris":{"android":"levelo://app?vid=dbcac243-ba34-49b4-b9d3-a704d900c9a7","ios":"levelo://app?vid=dbcac243-ba34-49b4-b9d3-a704d900c9a7"},"vehicle_type_id":"4","last_reported":1730276027,"current_range_meters":32800,"station_id":"ce4bgn92rcd13ifvqbvg","pricing_plan_id":"cebpf4jnsgd1na2vs0mg"},{"bike_id":"85eb1623-cf0d-4000-9758-94265df58566","system_id":"levelo_inurba_marseille","lat":43.30541,"lon":5.36704,"is_reserved":false,"is_disabled":false,"rental_uris":{"android":"levelo://app?vid=85eb1623-cf0d-4000-9758-94265df58566","ios":"levelo://app?vid=85eb1623-cf0d-4000-9758-94265df58566"},"vehicle_type_id":"4","last_reported":1730276027,"current_range_meters":35600,"station_id":"ce4bgrp2rcd13ifvqc9g","pricing_plan_id":"cebpf4jnsgd1na2vs0mg"},{"bike_id":"25e90825-819c-494a-9a04-12bbb0c56b6b","system_id":"levelo_inurba_marseille","lat":43.31538,"lon":5.3803,"is_reserved":false,"is_disabled":false,"rental_uris":{"android":"levelo://app?vid=25e90825-819c-494a-9a04-12bbb0c56b6b","ios":"levelo://app?vid=25e90825-819c-494a-9a04-12bbb0c56b6b"},"vehicle_type_id":"4","last_reported":1730276027,"current_range_meters":29600,"station_id":"ce4bhsp2rcd13ifvqi50","pricing_plan_id":"cebpf4jnsgd1na2vs0mg"},{"bike_id":"2dc2e7aa-c9cc-457e-aadf-e56119f0ec59","system_id":"levelo_inurba_marseille","lat":43.23196,"lon":5.35546,"is_reserved":false,"is_disabled":false,"rental_uris":{"android":"levelo://app?vid=2dc2e7aa-c9cc-457e-aadf-e56119f0ec59","ios":"levelo://app?vid=2dc2e7aa-c9cc-457e-aadf-e56119f0ec59"},"vehicle_type_id":"4","last_reported":1730276027,"current_range_meters":27200,"station_id":"ce4bhu92rcd13ifvqi70","pricing_plan_id":"cebpf4jnsgd1na2vs0mg"},{"bike_id":"2b575ed5-87bd-4034-925a-491ff39f79c1","system_id":"levelo_inurba_marseille","lat":43.26056,"lon":5.39388,"is_reserved":false,"is_disabled":false,"rental_uris":{"android":"levelo://app?vid=2b575ed5-87bd-4034-925a-491ff39f79c1","ios":"levelo://app?vid=2b575ed5-87bd-4034-925a-491ff39f79c1"},"vehicle_type_id":"4","last_reported":1730276027,"current_range_meters":16400,"station_id":"ce4bhh92rcd13ifvqfj0","pricing_plan_id":"cebpf4jnsgd1na2vs0mg"},{"bike_id":"c4f705f9-cb6e-4d01-b200-9f8930e5dd6b","system_id":"levelo_inurba_marseille","lat":43.24174,"lon":5.39728,"is_reserved":false,"is_disabled":false,"rental_uris":{"android":"levelo://app?vid=c4f705f9-cb6e-4d01-b200-9f8930e5dd6b","ios":"levelo://app?vid=c4f705f9-cb6e-4d01-b200-9f8930e5dd6b"},"vehicle_type_id":"4","last_reported":1730276027,"current_range_meters":38000,"station_id":"ce4bhn12rcd13ifvqgpg","pricing_plan_id":"cebpf4jnsgd1na2vs0mg"},{"bike_id":"32724ce4-79b3-4766-bd7f-1b32301ca45e","system_id":"levelo_inurba_marseille","lat":43.2558,"lon":5.38238,"is_reserved":false,"is_disabled":false,"rental_uris":{"android":"levelo://app?vid=32724ce4-79b3-4766-bd7f-1b32301ca45e","ios":"levelo://app?vid=32724ce4-79b3-4766-bd7f-1b32301ca45e"},"vehicle_type_id":"4","last_reported":1730276027,"current_range_meters":16400,"station_id":"ce4bhih2rcd13ifvqfs0","pricing_plan_id":"cebpf4jnsgd1na2vs0mg"},{"bike_id":"28cbcf23-5ad0-4746-be8b-7a028cbebf33","system_id":"levelo_inurba_marseille","lat":43.32638,"lon":5.38872,"is_reserved":false,"is_disabled":false,"rental_uris":{"android":"levelo://app?vid=28cbcf23-5ad0-4746-be8b-7a028cbebf33","ios":"levelo://app?vid=28cbcf23-5ad0-4746-be8b-7a028cbebf33"},"vehicle_type_id":"4","last_reported":1730276027,"current_range_meters":32800,"station_id":"","pricing_plan_id":"cebpf4jnsgd1na2vs0mg"},{"bike_id":"249f4139-b1bb-4fc2-87b9-dd8c4909e5b1","system_id":"levelo_inurba_marseille","lat":43.29551,"lon":5.42287,"is_reserved":false,"is_disabled":false,"rental_uris":{"android":"levelo://app?vid=249f4139-b1bb-4fc2-87b9-dd8c4909e5b1","ios":"levelo://app?vid=249f4139-b1bb-4fc2-87b9-dd8c4909e5b1"},"vehicle_type_id":"4","last_reported":1730276027,"current_range_meters":39200,"station_id":"ce4bhph2rcd13ifvqhdg","pricing_plan_id":"cebpf4jnsgd1na2vs0mg"},{"bike_id":"53eb6c66-b12c-466e-af32-042a668df35f","system_id":"levelo_inurba_marseille","lat":43.23192,"lon":5.39983,"is_reserved":false,"is_disabled":false,"rental_uris":{"android":"levelo://app?vid=53eb6c66-b12c-466e-af32-042a668df35f","ios":"levelo://app?vid=53eb6c66-b12c-466e-af32-042a668df35f"},"vehicle_type_id":"4","last_reported":1730276027,"current_range_meters":39200,"station_id":"ce4bhn12rcd13ifvqgqg","pricing_plan_id":"cebpf4jnsgd1na2vs0mg"},{"bike_id":"1b07f283-46fb-41a4-9864-1dfd968369c3","system_id":"levelo_inurba_marseille","lat":43.32367,"lon":5.38878,"is_reserved":false,"is_disabled":false,"rental_uris":{"android":"levelo://app?vid=1b07f283-46fb-41a4-9864-1dfd968369c3","ios":"levelo://app?vid=1b07f283-46fb-41a4-9864-1dfd968369c3"},"vehicle_type_id":"4","last_reported":1730276027,"current_range_meters":16400,"station_id":"ce4bhqp2rcd13ifvqhog","pricing_plan_id":"cebpf4jnsgd1na2vs0mg"},{"bike_id":"333fb140-6399-43c7-a968-3037c69af29a","system_id":"levelo_inurba_marseille","lat":43.248051,"lon":5.374553,"is_reserved":false,"is_disabled":false,"rental_uris":{"android":"levelo://app?vid=333fb140-6399-43c7-a968-3037c69af29a","ios":"levelo://app?vid=333fb140-6399-43c7-a968-3037c69af29a"},"vehicle_type_id":"4","last_reported":1730276027,"current_range_meters":30000,"station_id":"ce4bhgh2rcd13ifvqfb0","pricing_plan_id":"cebpf4jnsgd1na2vs0mg"},{"bike_id":"e9d5f856-d46f-47de-8318-6124ee5e67ab","system_id":"levelo_inurba_marseille","lat":43.30801,"lon":5.38157,"is_reserved":false,"is_disabled":false,"rental_uris":{"android":"levelo://app?vid=e9d5f856-d46f-47de-8318-6124ee5e67ab","ios":"levelo://app?vid=e9d5f856-d46f-47de-8318-6124ee5e67ab"},"vehicle_type_id":"4","last_reported":1730276027,"current_range_meters":38800,"station_id":"ce4bgt12rcd13ifvqce0","pricing_plan_id":"cebpf4jnsgd1na2vs0mg"},{"bike_id":"31b23ddf-11e5-4737-b737-7ed49100e135","system_id":"levelo_inurba_marseille","lat":43.26935,"lon":5.38623,"is_reserved":false,"is_disabled":false,"rental_uris":{"android":"levelo://app?vid=31b23ddf-11e5-4737-b737-7ed49100e135","ios":"levelo://app?vid=31b23ddf-11e5-4737-b737-7ed49100e135"},"vehicle_type_id":"4","last_reported":1730276027,"current_range_meters":24000,"station_id":"ce4bhh92rcd13ifvqfh0","pricing_plan_id":"cebpf4jnsgd1na2vs0mg"},{"bike_id":"2d198377-2c19-4e5f-b7b9-5acc4795c543","system_id":"levelo_inurba_marseille","lat":43.31757,"lon":5.39021,"is_reserved":false,"is_disabled":false,"rental_uris":{"android":"levelo://app?vid=2d198377-2c19-4e5f-b7b9-5acc4795c543","ios":"levelo://app?vid=2d198377-2c19-4e5f-b7b9-5acc4795c543"},"vehicle_type_id":"4","last_reported":1730276027,"current_range_meters":9600,"station_id":"ce4bhqp2rcd13ifvqhng","pricing_plan_id":"cebpf4jnsgd1na2vs0mg"},{"bike_id":"c14c7f66-0e2c-436a-94dc-9cb9f4071e75","system_id":"levelo_inurba_marseille","lat":43.30154,"lon":5.38076,"is_reserved":false,"is_disabled":false,"rental_uris":{"android":"levelo://app?vid=c14c7f66-0e2c-436a-94dc-9cb9f4071e75","ios":"levelo://app?vid=c14c7f66-0e2c-436a-94dc-9cb9f4071e75"},"vehicle_type_id":"4","last_reported":1730276027,"current_range_meters":34800,"station_id":"ce4bgjp2rcd13ifvqbh0","pricing_plan_id":"cebpf4jnsgd1na2vs0mg"},{"bike_id":"fc9f95a3-8743-452e-a5e9-f50e54844cf6","system_id":"levelo_inurba_marseille","lat":43.30536,"lon":5.36556,"is_reserved":false,"is_disabled":false,"rental_uris":{"android":"levelo://app?vid=fc9f95a3-8743-452e-a5e9-f50e54844cf6","ios":"levelo://app?vid=fc9f95a3-8743-452e-a5e9-f50e54844cf6"},"vehicle_type_id":"4","last_reported":1730276027,"current_range_meters":30000,"station_id":"ce4bgs12rcd13ifvqcag","pricing_plan_id":"cebpf4jnsgd1na2vs0mg"},{"bike_id":"9445a670-8cad-4552-a342-d1a968da3c5a","system_id":"levelo_inurba_marseille","lat":43.32046,"lon":5.41544,"is_reserved":false,"is_disabled":false,"rental_uris":{"android":"levelo://app?vid=9445a670-8cad-4552-a342-d1a968da3c5a","ios":"levelo://app?vid=9445a670-8cad-4552-a342-d1a968da3c5a"},"vehicle_type_id":"4","last_reported":1730276027,"current_range_meters":39200,"station_id":"ce4bhq92rcd13ifvqhkg","pricing_plan_id":"cebpf4jnsgd1na2vs0mg"},{"bike_id":"8450f925-c63d-4339-8773-878a68d7ac14","system_id":"levelo_inurba_marseille","lat":43.308056,"lon":5.381544,"is_reserved":false,"is_disabled":false,"rental_uris":{"android":"levelo://app?vid=8450f925-c63d-4339-8773-878a68d7ac14","ios":"levelo://app?vid=8450f925-c63d-4339-8773-878a68d7ac14"},"vehicle_type_id":"4","last_reported":1730276027,"current_range_meters":38800,"station_id":"ce4bgt12rcd13ifvqce0","pricing_plan_id":"cebpf4jnsgd1na2vs0mg"},{"bike_id":"fc857e95-ca7f-4c06-b13e-5bb6b2b76a8b","system_id":"levelo_inurba_marseille","lat":43.23182,"lon":5.39989,"is_reserved":false,"is_disabled":false,"rental_uris":{"android":"levelo://app?vid=fc857e95-ca7f-4c06-b13e-5bb6b2b76a8b","ios":"levelo://app?vid=fc857e95-ca7f-4c06-b13e-5bb6b2b76a8b"},"vehicle_type_id":"4","last_reported":1730276027,"current_range_meters":39200,"station_id":"ce4bhn12rcd13ifvqgqg","pricing_plan_id":"cebpf4jnsgd1na2vs0mg"},{"bike_id":"a1f83bf3-eed6-45ed-a98a-d29a1a4fe512","system_id":"levelo_inurba_marseille","lat":43.29933,"lon":5.4131,"is_reserved":false,"is_disabled":false,"rental_uris":{"android":"levelo://app?vid=a1f83bf3-eed6-45ed-a98a-d29a1a4fe512","ios":"levelo://app?vid=a1f83bf3-eed6-45ed-a98a-d29a1a4fe512"},"vehicle_type_id":"4","last_reported":1730276027,"current_range_meters":24000,"station_id":"ce4bhp12rcd13ifvqh9g","pricing_plan_id":"cebpf4jnsgd1na2vs0mg"},{"bike_id":"75c51f04-88bd-4108-ae4e-6fab943a5e79","system_id":"levelo_inurba_marseille","lat":43.27971,"lon":5.38727,"is_reserved":false,"is_disabled":false,"rental_uris":{"android":"levelo://app?vid=75c51f04-88bd-4108-ae4e-6fab943a5e79","ios":"levelo://app?vid=75c51f04-88bd-4108-ae4e-6fab943a5e79"},"vehicle_type_id":"4","last_reported":1730276027,"current_range_meters":31200,"station_id":"ce4bhg12rcd13ifvqf80","pricing_plan_id":"cebpf4jnsgd1na2vs0mg"},{"bike_id":"a3380b74-d7c1-4a05-98d2-dd31ab032453","system_id":"levelo_inurba_marseille","lat":43.26088,"lon":5.39375,"is_reserved":false,"is_disabled":false,"rental_uris":{"android":"levelo://app?vid=a3380b74-d7c1-4a05-98d2-dd31ab032453","ios":"levelo://app?vid=a3380b74-d7c1-4a05-98d2-dd31ab032453"},"vehicle_type_id":"4","last_reported":1730276027,"current_range_meters":27600,"station_id":"ce4bhh92rcd13ifvqfj0","pricing_plan_id":"cebpf4jnsgd1na2vs0mg"},{"bike_id":"e4ff3c52-73dc-458c-8024-1873c8f5875c","system_id":"levelo_inurba_marseille","lat":43.26783,"lon":5.39408,"is_reserved":false,"is_disabled":false,"rental_uris":{"android":"levelo://app?vid=e4ff3c52-73dc-458c-8024-1873c8f5875c","ios":"levelo://app?vid=e4ff3c52-73dc-458c-8024-1873c8f5875c"},"vehicle_type_id":"4","last_reported":1730276027,"current_range_meters":12000,"station_id":"ce4bhh12rcd13ifvqfg0","pricing_plan_id":"cebpf4jnsgd1na2vs0mg"},{"bike_id":"766801a5-7dbd-464a-bc56-398e14b9cf78","system_id":"levelo_inurba_marseille","lat":43.29805,"lon":5.37136,"is_reserved":false,"is_disabled":false,"rental_uris":{"android":"levelo://app?vid=766801a5-7dbd-464a-bc56-398e14b9cf78","ios":"levelo://app?vid=766801a5-7dbd-464a-bc56-398e14b9cf78"},"vehicle_type_id":"4","last_reported":1730276027,"current_range_meters":6800,"station_id":"","pricing_plan_id":"cebpf4jnsgd1na2vs0mg"},{"bike_id":"afc8a59e-718c-432c-b226-d6be0903e5fb","system_id":"levelo_inurba_marseille","lat":43.24388,"lon":5.3706,"is_reserved":false,"is_disabled":false,"rental_uris":{"android":"levelo://app?vid=afc8a59e-718c-432c-b226-d6be0903e5fb","ios":"levelo://app?vid=afc8a59e-718c-432c-b226-d6be0903e5fb"},"vehicle_type_id":"4","last_reported":1730276027,"current_range_meters":34000,"station_id":"ce4bhhh2rcd13ifvqfk0","pricing_plan_id":"cebpf4jnsgd1na2vs0mg"},{"bike_id":"72e37474-1bc8-4568-aec8-ce5464e6b828","system_id":"levelo_inurba_marseille","lat":43.23199,"lon":5.35548,"is_reserved":false,"is_disabled":false,"rental_uris":{"android":"levelo://app?vid=72e37474-1bc8-4568-aec8-ce5464e6b828","ios":"levelo://app?vid=72e37474-1bc8-4568-aec8-ce5464e6b828"},"vehicle_type_id":"4","last_reported":1730276027,"current_range_meters":29600,"station_id":"ce4bhu92rcd13ifvqi70","pricing_plan_id":"cebpf4jnsgd1na2vs0mg"},{"bike_id":"dad9d558-435c-4e30-862c-3bd4f1fa177f","system_id":"levelo_inurba_marseille","lat":43.259399,"lon":5.409076,"is_reserved":false,"is_disabled":false,"rental_uris":{"android":"levelo://app?vid=dad9d558-435c-4e30-862c-3bd4f1fa177f","ios":"levelo://app?vid=dad9d558-435c-4e30-862c-3bd4f1fa177f"},"vehicle_type_id":"4","last_reported":1730276027,"current_range_meters":17200,"station_id":"ce4bhm92rcd13ifvqglg","pricing_plan_id":"cebpf4jnsgd1na2vs0mg"},{"bike_id":"456cbe5f-5d22-41ce-8d7b-d9113261b82f","system_id":"levelo_inurba_marseille","lat":43.26059,"lon":5.39397,"is_reserved":false,"is_disabled":false,"rental_uris":{"android":"levelo://app?vid=456cbe5f-5d22-41ce-8d7b-d9113261b82f","ios":"levelo://app?vid=456cbe5f-5d22-41ce-8d7b-d9113261b82f"},"vehicle_type_id":"4","last_reported":1730276027,"current_range_meters":38800,"station_id":"ce4bhh92rcd13ifvqfj0","pricing_plan_id":"cebpf4jnsgd1na2vs0mg"},{"bike_id":"87bfafc4-0640-4ef7-8be0-b54cbb7f1415","system_id":"levelo_inurba_marseille","lat":43.30115,"lon":5.39911,"is_reserved":false,"is_disabled":false,"rental_uris":{"android":"levelo://app?vid=87bfafc4-0640-4ef7-8be0-b54cbb7f1415","ios":"levelo://app?vid=87bfafc4-0640-4ef7-8be0-b54cbb7f1415"},"vehicle_type_id":"4","last_reported":1730276027,"current_range_meters":17200,"station_id":"ce4bgi92rcd13ifvqb90","pricing_plan_id":"cebpf4jnsgd1na2vs0mg"},{"bike_id":"c2964dd9-86d7-477b-837f-6d5fbdb82788","system_id":"levelo_inurba_marseille","lat":43.24387,"lon":5.37056,"is_reserved":false,"is_disabled":false,"rental_uris":{"android":"levelo://app?vid=c2964dd9-86d7-477b-837f-6d5fbdb82788","ios":"levelo://app?vid=c2964dd9-86d7-477b-837f-6d5fbdb82788"},"vehicle_type_id":"4","last_reported":1730276027,"current_range_meters":16800,"station_id":"ce4bhhh2rcd13ifvqfk0","pricing_plan_id":"cebpf4jnsgd1na2vs0mg"},{"bike_id":"84a34f64-d710-4f7b-8f16-f367a9f930e0","system_id":"levelo_inurba_marseille","lat":43.26064,"lon":5.39392,"is_reserved":false,"is_disabled":false,"rental_uris":{"android":"levelo://app?vid=84a34f64-d710-4f7b-8f16-f367a9f930e0","ios":"levelo://app?vid=84a34f64-d710-4f7b-8f16-f367a9f930e0"},"vehicle_type_id":"4","last_reported":1730276027,"current_range_meters":26800,"station_id":"ce4bhh92rcd13ifvqfj0","pricing_plan_id":"cebpf4jnsgd1na2vs0mg"},{"bike_id":"794a85c3-613e-4046-9c98-d7ee713c3e3f","system_id":"levelo_inurba_marseille","lat":43.29697,"lon":5.37687,"is_reserved":false,"is_disabled":false,"rental_uris":{"android":"levelo://app?vid=794a85c3-613e-4046-9c98-d7ee713c3e3f","ios":"levelo://app?vid=794a85c3-613e-4046-9c98-d7ee713c3e3f"},"vehicle_type_id":"4","last_reported":1730276027,"current_range_meters":33600,"station_id":"ce4bgkh2rcd13ifvqbl0","pricing_plan_id":"cebpf4jnsgd1na2vs0mg"},{"bike_id":"cf1bf93e-b987-4f03-9549-b984bb838aa3","system_id":"levelo_inurba_marseille","lat":43.26782,"lon":5.39419,"is_reserved":false,"is_disabled":false,"rental_uris":{"android":"levelo://app?vid=cf1bf93e-b987-4f03-9549-b984bb838aa3","ios":"levelo://app?vid=cf1bf93e-b987-4f03-9549-b984bb838aa3"},"vehicle_type_id":"4","last_reported":1730276027,"current_range_meters":38400,"station_id":"ce4bhh12rcd13ifvqfg0","pricing_plan_id":"cebpf4jnsgd1na2vs0mg"},{"bike_id":"b76a38e9-45ec-4afc-b514-c5026792aa86","system_id":"levelo_inurba_marseille","lat":43.24077,"lon":5.37753,"is_reserved":false,"is_disabled":false,"rental_uris":{"android":"levelo://app?vid=b76a38e9-45ec-4afc-b514-c5026792aa86","ios":"levelo://app?vid=b76a38e9-45ec-4afc-b514-c5026792aa86"},"vehicle_type_id":"4","last_reported":1730276027,"current_range_meters":33200,"station_id":"ce4bhnp2rcd13ifvqgvg","pricing_plan_id":"cebpf4jnsgd1na2vs0mg"},{"bike_id":"2c7ac163-5d14-434f-b329-4cd81fa57c3b","system_id":"levelo_inurba_marseille","lat":43.28156,"lon":5.426475,"is_reserved":false,"is_disabled":false,"rental_uris":{"android":"levelo://app?vid=2c7ac163-5d14-434f-b329-4cd81fa57c3b","ios":"levelo://app?vid=2c7ac163-5d14-434f-b329-4cd81fa57c3b"},"vehicle_type_id":"4","last_reported":1730276027,"current_range_meters":33600,"station_id":"ce4bhnh2rcd13ifvqgug","pricing_plan_id":"cebpf4jnsgd1na2vs0mg"},{"bike_id":"3e7ccb55-c2c4-4413-99cd-f5ca3288a764","system_id":"levelo_inurba_marseille","lat":43.30137,"lon":5.37408,"is_reserved":false,"is_disabled":false,"rental_uris":{"android":"levelo://app?vid=3e7ccb55-c2c4-4413-99cd-f5ca3288a764","ios":"levelo://app?vid=3e7ccb55-c2c4-4413-99cd-f5ca3288a764"},"vehicle_type_id":"4","last_reported":1730276027,"current_range_meters":20400,"station_id":"ce4bgs92rcd13ifvqcc0","pricing_plan_id":"cebpf4jnsgd1na2vs0mg"},{"bike_id":"134660e8-6479-44aa-abd0-9088cd1302e3","system_id":"levelo_inurba_marseille","lat":43.30086,"lon":5.3909,"is_reserved":false,"is_disabled":false,"rental_uris":{"android":"levelo://app?vid=134660e8-6479-44aa-abd0-9088cd1302e3","ios":"levelo://app?vid=134660e8-6479-44aa-abd0-9088cd1302e3"},"vehicle_type_id":"4","last_reported":1730276027,"current_range_meters":36800,"station_id":"ce4bh192rcd13ifvqdb0","pricing_plan_id":"cebpf4jnsgd1na2vs0mg"},{"bike_id":"75645640-a347-4705-966c-cee9dcce09c4","system_id":"levelo_inurba_marseille","lat":43.261204,"lon":5.400908,"is_reserved":false,"is_disabled":false,"rental_uris":{"android":"levelo://app?vid=75645640-a347-4705-966c-cee9dcce09c4","ios":"levelo://app?vid=75645640-a347-4705-966c-cee9dcce09c4"},"vehicle_type_id":"4","last_reported":1730276027,"current_range_meters":7200,"station_id":"","pricing_plan_id":"cebpf4jnsgd1na2vs0mg"},{"bike_id":"ed4542ec-a766-43c5-bc78-9617bcbbe71c","system_id":"levelo_inurba_marseille","lat":43.2587,"lon":5.39899,"is_reserved":false,"is_disabled":false,"rental_uris":{"android":"levelo://app?vid=ed4542ec-a766-43c5-bc78-9617bcbbe71c","ios":"levelo://app?vid=ed4542ec-a766-43c5-bc78-9617bcbbe71c"},"vehicle_type_id":"4","last_reported":1730276027,"current_range_meters":9600,"station_id":"ce4bhl92rcd13ifvqghg","pricing_plan_id":"cebpf4jnsgd1na2vs0mg"},{"bike_id":"dca1cdba-3167-457e-a9b5-0419908f123d","system_id":"levelo_inurba_marseille","lat":43.30898,"lon":5.36854,"is_reserved":false,"is_disabled":false,"rental_uris":{"android":"levelo://app?vid=dca1cdba-3167-457e-a9b5-0419908f123d","ios":"levelo://app?vid=dca1cdba-3167-457e-a9b5-0419908f123d"},"vehicle_type_id":"4","last_reported":1730276027,"current_range_meters":33600,"station_id":"ce4bgn92rcd13ifvqbvg","pricing_plan_id":"cebpf4jnsgd1na2vs0mg"},{"bike_id":"1f675603-396f-4c29-99b8-e658a198ceb9","system_id":"levelo_inurba_marseille","lat":43.30422,"lon":5.41276,"is_reserved":false,"is_disabled":false,"rental_uris":{"android":"levelo://app?vid=1f675603-396f-4c29-99b8-e658a198ceb9","ios":"levelo://app?vid=1f675603-396f-4c29-99b8-e658a198ceb9"},"vehicle_type_id":"4","last_reported":1730276027,"current_range_meters":36800,"station_id":"ce4bhop2rcd13ifvqh8g","pricing_plan_id":"cebpf4jnsgd1na2vs0mg"},{"bike_id":"e1076c3b-90da-4316-a469-492badcea040","system_id":"levelo_inurba_marseille","lat":43.30542,"lon":5.3842,"is_reserved":false,"is_disabled":false,"rental_uris":{"android":"levelo://app?vid=e1076c3b-90da-4316-a469-492badcea040","ios":"levelo://app?vid=e1076c3b-90da-4316-a469-492badcea040"},"vehicle_type_id":"4","last_reported":1730276027,"current_range_meters":38800,"station_id":"ce4bgg92rcd13ifvqb30","pricing_plan_id":"cebpf4jnsgd1na2vs0mg"},{"bike_id":"a06aaa3a-469c-4c08-9a71-0d7e5c362262","system_id":"levelo_inurba_marseille","lat":43.33718,"lon":5.39176,"is_reserved":false,"is_disabled":false,"rental_uris":{"android":"levelo://app?vid=a06aaa3a-469c-4c08-9a71-0d7e5c362262","ios":"levelo://app?vid=a06aaa3a-469c-4c08-9a71-0d7e5c362262"},"vehicle_type_id":"4","last_reported":1730276027,"current_range_meters":28000,"station_id":"ce4bhr92rcd13ifvqhsg","pricing_plan_id":"cebpf4jnsgd1na2vs0mg"},{"bike_id":"88ba3583-c8e5-450e-b225-1e7caeed896c","system_id":"levelo_inurba_marseille","lat":43.29618,"lon":5.37707,"is_reserved":false,"is_disabled":false,"rental_uris":{"android":"levelo://app?vid=88ba3583-c8e5-450e-b225-1e7caeed896c","ios":"levelo://app?vid=88ba3583-c8e5-450e-b225-1e7caeed896c"},"vehicle_type_id":"4","last_reported":1730276027,"current_range_meters":24400,"station_id":"ce4bgi92rcd13ifvqb90","pricing_plan_id":"cebpf4jnsgd1na2vs0mg"},{"bike_id":"61e2cb7f-4696-4309-9303-275d017ad742","system_id":"levelo_inurba_marseille","lat":43.30902,"lon":5.36856,"is_reserved":false,"is_disabled":false,"rental_uris":{"android":"levelo://app?vid=61e2cb7f-4696-4309-9303-275d017ad742","ios":"levelo://app?vid=61e2cb7f-4696-4309-9303-275d017ad742"},"vehicle_type_id":"4","last_reported":1730276027,"current_range_meters":24800,"station_id":"ce4bgn92rcd13ifvqbvg","pricing_plan_id":"cebpf4jnsgd1na2vs0mg"},{"bike_id":"29bce569-1455-4574-8fc0-7f18d29aaa1a","system_id":"levelo_inurba_marseille","lat":43.313697,"lon":5.384956,"is_reserved":false,"is_disabled":false,"rental_uris":{"android":"levelo://app?vid=29bce569-1455-4574-8fc0-7f18d29aaa1a","ios":"levelo://app?vid=29bce569-1455-4574-8fc0-7f18d29aaa1a"},"vehicle_type_id":"4","last_reported":1730276027,"current_range_meters":22400,"station_id":"ce4bgt92rcd13ifvqcf0","pricing_plan_id":"cebpf4jnsgd1na2vs0mg"},{"bike_id":"d3834406-5180-48ae-986e-7eca8f9a66e3","system_id":"levelo_inurba_marseille","lat":43.27072,"lon":5.4227,"is_reserved":false,"is_disabled":false,"rental_uris":{"android":"levelo://app?vid=d3834406-5180-48ae-986e-7eca8f9a66e3","ios":"levelo://app?vid=d3834406-5180-48ae-986e-7eca8f9a66e3"},"vehicle_type_id":"4","last_reported":1730276027,"current_range_meters":22000,"station_id":"ce4bhk92rcd13ifvqgb0","pricing_plan_id":"cebpf4jnsgd1na2vs0mg"},{"bike_id":"96cd2a77-e3b6-47fc-955f-5080a2bfaf42","system_id":"levelo_inurba_marseille","lat":43.23194,"lon":5.39983,"is_reserved":false,"is_disabled":false,"rental_uris":{"android":"levelo://app?vid=96cd2a77-e3b6-47fc-955f-5080a2bfaf42","ios":"levelo://app?vid=96cd2a77-e3b6-47fc-955f-5080a2bfaf42"},"vehicle_type_id":"4","last_reported":1730276027,"current_range_meters":38400,"station_id":"ce4bhn12rcd13ifvqgqg","pricing_plan_id":"cebpf4jnsgd1na2vs0mg"},{"bike_id":"13c85d59-c7cb-409d-b7e2-9aa757f7035f","system_id":"levelo_inurba_marseille","lat":43.32655,"lon":5.40991,"is_reserved":false,"is_disabled":false,"rental_uris":{"android":"levelo://app?vid=13c85d59-c7cb-409d-b7e2-9aa757f7035f","ios":"levelo://app?vid=13c85d59-c7cb-409d-b7e2-9aa757f7035f"},"vehicle_type_id":"4","last_reported":1730276027,"current_range_meters":7200,"station_id":"ce4bhpp2rcd13ifvqhgg","pricing_plan_id":"cebpf4jnsgd1na2vs0mg"},{"bike_id":"99d2b6c3-4379-4a9a-933b-2d5a9480f4f1","system_id":"levelo_inurba_marseille","lat":43.31528,"lon":5.38033,"is_reserved":false,"is_disabled":false,"rental_uris":{"android":"levelo://app?vid=99d2b6c3-4379-4a9a-933b-2d5a9480f4f1","ios":"levelo://app?vid=99d2b6c3-4379-4a9a-933b-2d5a9480f4f1"},"vehicle_type_id":"4","last_reported":1730276027,"current_range_meters":37600,"station_id":"ce4bhsp2rcd13ifvqi50","pricing_plan_id":"cebpf4jnsgd1na2vs0mg"},{"bike_id":"b48eacfa-a4c4-4e90-acf3-6e3bbaaa5f6e","system_id":"levelo_inurba_marseille","lat":43.30929,"lon":5.40139,"is_reserved":false,"is_disabled":false,"rental_uris":{"android":"levelo://app?vid=b48eacfa-a4c4-4e90-acf3-6e3bbaaa5f6e","ios":"levelo://app?vid=b48eacfa-a4c4-4e90-acf3-6e3bbaaa5f6e"},"vehicle_type_id":"4","last_reported":1730276027,"current_range_meters":38800,"station_id":"ce4bgvp2rcd13ifvqct0","pricing_plan_id":"cebpf4jnsgd1na2vs0mg"},{"bike_id":"6496de7c-a611-41f5-be76-c2eee211d4ed","system_id":"levelo_inurba_marseille","lat":43.2621,"lon":5.37926,"is_reserved":false,"is_disabled":false,"rental_uris":{"android":"levelo://app?vid=6496de7c-a611-41f5-be76-c2eee211d4ed","ios":"levelo://app?vid=6496de7c-a611-41f5-be76-c2eee211d4ed"},"vehicle_type_id":"4","last_reported":1730276027,"current_range_meters":38800,"station_id":"ce4bhjp2rcd13ifvqg90","pricing_plan_id":"cebpf4jnsgd1na2vs0mg"},{"bike_id":"5ea475d8-fbf3-460f-872c-01c8b0273f69","system_id":"levelo_inurba_marseille","lat":43.23047,"lon":5.35496,"is_reserved":false,"is_disabled":false,"rental_uris":{"android":"levelo://app?vid=5ea475d8-fbf3-460f-872c-01c8b0273f69","ios":"levelo://app?vid=5ea475d8-fbf3-460f-872c-01c8b0273f69"},"vehicle_type_id":"4","last_reported":1730276027,"current_range_meters":9200,"station_id":"cpo3342slgdg3j2ifvpg","pricing_plan_id":"cebpf4jnsgd1na2vs0mg"},{"bike_id":"2be9bc22-5c5c-4737-9da1-744ca95ac8b4","system_id":"levelo_inurba_marseille","lat":43.32662,"lon":5.40992,"is_reserved":false,"is_disabled":false,"rental_uris":{"android":"levelo://app?vid=2be9bc22-5c5c-4737-9da1-744ca95ac8b4","ios":"levelo://app?vid=2be9bc22-5c5c-4737-9da1-744ca95ac8b4"},"vehicle_type_id":"4","last_reported":1730276027,"current_range_meters":6400,"station_id":"ce4bhpp2rcd13ifvqhgg","pricing_plan_id":"cebpf4jnsgd1na2vs0mg"},{"bike_id":"59c7403a-36af-4ab9-a8fb-4e8f180bdcbe","system_id":"levelo_inurba_marseille","lat":43.2408,"lon":5.37742,"is_reserved":false,"is_disabled":false,"rental_uris":{"android":"levelo://app?vid=59c7403a-36af-4ab9-a8fb-4e8f180bdcbe","ios":"levelo://app?vid=59c7403a-36af-4ab9-a8fb-4e8f180bdcbe"},"vehicle_type_id":"4","last_reported":1730276027,"current_range_meters":8000,"station_id":"ce4bhnp2rcd13ifvqgvg","pricing_plan_id":"cebpf4jnsgd1na2vs0mg"},{"bike_id":"319628af-6ed0-4c6b-85da-8e8cbc64e217","system_id":"levelo_inurba_marseille","lat":43.24388,"lon":5.37058,"is_reserved":false,"is_disabled":false,"rental_uris":{"android":"levelo://app?vid=319628af-6ed0-4c6b-85da-8e8cbc64e217","ios":"levelo://app?vid=319628af-6ed0-4c6b-85da-8e8cbc64e217"},"vehicle_type_id":"4","last_reported":1730276027,"current_range_meters":36800,"station_id":"ce4bhhh2rcd13ifvqfk0","pricing_plan_id":"cebpf4jnsgd1na2vs0mg"},{"bike_id":"96f1fe2b-27b3-45a5-8e58-f339dd6c49b1","system_id":"levelo_inurba_marseille","lat":43.3056,"lon":5.36531,"is_reserved":false,"is_disabled":false,"rental_uris":{"android":"levelo://app?vid=96f1fe2b-27b3-45a5-8e58-f339dd6c49b1","ios":"levelo://app?vid=96f1fe2b-27b3-45a5-8e58-f339dd6c49b1"},"vehicle_type_id":"4","last_reported":1730276027,"current_range_meters":32400,"station_id":"ce4bgs12rcd13ifvqcag","pricing_plan_id":"cebpf4jnsgd1na2vs0mg"},{"bike_id":"9093d695-bec2-4727-9c9c-01c6d9e2075a","system_id":"levelo_inurba_marseille","lat":43.25934,"lon":5.40898,"is_reserved":false,"is_disabled":false,"rental_uris":{"android":"levelo://app?vid=9093d695-bec2-4727-9c9c-01c6d9e2075a","ios":"levelo://app?vid=9093d695-bec2-4727-9c9c-01c6d9e2075a"},"vehicle_type_id":"4","last_reported":1730276027,"current_range_meters":30000,"station_id":"ce4bhm92rcd13ifvqglg","pricing_plan_id":"cebpf4jnsgd1na2vs0mg"},{"bike_id":"2a59e468-664b-4487-a13d-372ee2a99421","system_id":"levelo_inurba_marseille","lat":43.30279,"lon":5.37705,"is_reserved":false,"is_disabled":false,"rental_uris":{"android":"levelo://app?vid=2a59e468-664b-4487-a13d-372ee2a99421","ios":"levelo://app?vid=2a59e468-664b-4487-a13d-372ee2a99421"},"vehicle_type_id":"4","last_reported":1730276027,"current_range_meters":39200,"station_id":"ce4bguh2rcd13ifvqcj0","pricing_plan_id":"cebpf4jnsgd1na2vs0mg"},{"bike_id":"5aecf52a-143c-4328-8118-c219e78a16dc","system_id":"levelo_inurba_marseille","lat":43.24803,"lon":5.37452,"is_reserved":false,"is_disabled":false,"rental_uris":{"android":"levelo://app?vid=5aecf52a-143c-4328-8118-c219e78a16dc","ios":"levelo://app?vid=5aecf52a-143c-4328-8118-c219e78a16dc"},"vehicle_type_id":"4","last_reported":1730276027,"current_range_meters":32000,"station_id":"ce4bhgh2rcd13ifvqfb0","pricing_plan_id":"cebpf4jnsgd1na2vs0mg"},{"bike_id":"211fc61b-374e-419a-8f8b-cf7eb1fca45b","system_id":"levelo_inurba_marseille","lat":43.29614,"lon":5.37715,"is_reserved":false,"is_disabled":false,"rental_uris":{"android":"levelo://app?vid=211fc61b-374e-419a-8f8b-cf7eb1fca45b","ios":"levelo://app?vid=211fc61b-374e-419a-8f8b-cf7eb1fca45b"},"vehicle_type_id":"4","last_reported":1730276027,"current_range_meters":36800,"station_id":"ce4bgi92rcd13ifvqb90","pricing_plan_id":"cebpf4jnsgd1na2vs0mg"},{"bike_id":"9fe288c9-fe9f-4c89-b717-b20c89225f06","system_id":"levelo_inurba_marseille","lat":43.3248,"lon":5.36571,"is_reserved":false,"is_disabled":false,"rental_uris":{"android":"levelo://app?vid=9fe288c9-fe9f-4c89-b717-b20c89225f06","ios":"levelo://app?vid=9fe288c9-fe9f-4c89-b717-b20c89225f06"},"vehicle_type_id":"4","last_reported":1730276027,"current_range_meters":26000,"station_id":"ce4bhs12rcd13ifvqhvg","pricing_plan_id":"cebpf4jnsgd1na2vs0mg"},{"bike_id":"e57ec0cf-e8e2-4e64-a3ab-7fed01a88635","system_id":"levelo_inurba_marseille","lat":43.31331,"lon":5.36707,"is_reserved":false,"is_disabled":false,"rental_uris":{"android":"levelo://app?vid=e57ec0cf-e8e2-4e64-a3ab-7fed01a88635","ios":"levelo://app?vid=e57ec0cf-e8e2-4e64-a3ab-7fed01a88635"},"vehicle_type_id":"4","last_reported":1730276027,"current_range_meters":24400,"station_id":"ce4bgr92rcd13ifvqc6g","pricing_plan_id":"cebpf4jnsgd1na2vs0mg"},{"bike_id":"34294e45-0e27-4221-ad9a-96993664c40d","system_id":"levelo_inurba_marseille","lat":43.2418,"lon":5.39727,"is_reserved":false,"is_disabled":false,"rental_uris":{"android":"levelo://app?vid=34294e45-0e27-4221-ad9a-96993664c40d","ios":"levelo://app?vid=34294e45-0e27-4221-ad9a-96993664c40d"},"vehicle_type_id":"4","last_reported":1730276027,"current_range_meters":31200,"station_id":"ce4bhn12rcd13ifvqgpg","pricing_plan_id":"cebpf4jnsgd1na2vs0mg"},{"bike_id":"90d46870-9f40-4b4b-88a4-7acd7fb37a95","system_id":"levelo_inurba_marseille","lat":43.30536,"lon":5.36543,"is_reserved":false,"is_disabled":false,"rental_uris":{"android":"levelo://app?vid=90d46870-9f40-4b4b-88a4-7acd7fb37a95","ios":"levelo://app?vid=90d46870-9f40-4b4b-88a4-7acd7fb37a95"},"vehicle_type_id":"4","last_reported":1730276027,"current_range_meters":28000,"station_id":"ce4bgs12rcd13ifvqcag","pricing_plan_id":"cebpf4jnsgd1na2vs0mg"},{"bike_id":"d721ff6d-485d-48c6-84c6-b1a6b8d95c72","system_id":"levelo_inurba_marseille","lat":43.30527,"lon":5.36545,"is_reserved":false,"is_disabled":false,"rental_uris":{"android":"levelo://app?vid=d721ff6d-485d-48c6-84c6-b1a6b8d95c72","ios":"levelo://app?vid=d721ff6d-485d-48c6-84c6-b1a6b8d95c72"},"vehicle_type_id":"4","last_reported":1730276027,"current_range_meters":7200,"station_id":"ce4bgs12rcd13ifvqcag","pricing_plan_id":"cebpf4jnsgd1na2vs0mg"},{"bike_id":"77651b28-7240-49aa-9efe-a082cc337b36","system_id":"levelo_inurba_marseille","lat":43.30548,"lon":5.36699,"is_reserved":false,"is_disabled":false,"rental_uris":{"android":"levelo://app?vid=77651b28-7240-49aa-9efe-a082cc337b36","ios":"levelo://app?vid=77651b28-7240-49aa-9efe-a082cc337b36"},"vehicle_type_id":"4","last_reported":1730276027,"current_range_meters":18800,"station_id":"ce4bgrp2rcd13ifvqc9g","pricing_plan_id":"cebpf4jnsgd1na2vs0mg"},{"bike_id":"cb6da5ef-8d54-462a-ac5c-1582820bec3a","system_id":"levelo_inurba_marseille","lat":43.26485,"lon":5.39535,"is_reserved":false,"is_disabled":false,"rental_uris":{"android":"levelo://app?vid=cb6da5ef-8d54-462a-ac5c-1582820bec3a","ios":"levelo://app?vid=cb6da5ef-8d54-462a-ac5c-1582820bec3a"},"vehicle_type_id":"4","last_reported":1730276027,"current_range_meters":26800,"station_id":"ce4bhi12rcd13ifvqfq0","pricing_plan_id":"cebpf4jnsgd1na2vs0mg"},{"bike_id":"01fcc160-f8a5-4576-957f-408685fad164","system_id":"levelo_inurba_marseille","lat":43.29297,"lon":5.37465,"is_reserved":false,"is_disabled":false,"rental_uris":{"android":"levelo://app?vid=01fcc160-f8a5-4576-957f-408685fad164","ios":"levelo://app?vid=01fcc160-f8a5-4576-957f-408685fad164"},"vehicle_type_id":"4","last_reported":1730276027,"current_range_meters":27600,"station_id":"ce4bgi12rcd13ifvqb70","pricing_plan_id":"cebpf4jnsgd1na2vs0mg"},{"bike_id":"09918fcb-eeb6-4b09-b930-d580a2266e73","system_id":"levelo_inurba_marseille","lat":43.30896,"lon":5.36859,"is_reserved":false,"is_disabled":false,"rental_uris":{"android":"levelo://app?vid=09918fcb-eeb6-4b09-b930-d580a2266e73","ios":"levelo://app?vid=09918fcb-eeb6-4b09-b930-d580a2266e73"},"vehicle_type_id":"4","last_reported":1730276027,"current_range_meters":27600,"station_id":"ce4bgn92rcd13ifvqbvg","pricing_plan_id":"cebpf4jnsgd1na2vs0mg"},{"bike_id":"57735133-7086-4916-8be4-ba85c40a18b3","system_id":"levelo_inurba_marseille","lat":43.32478,"lon":5.3656,"is_reserved":false,"is_disabled":false,"rental_uris":{"android":"levelo://app?vid=57735133-7086-4916-8be4-ba85c40a18b3","ios":"levelo://app?vid=57735133-7086-4916-8be4-ba85c40a18b3"},"vehicle_type_id":"4","last_reported":1730276027,"current_range_meters":26000,"station_id":"ce4bhs12rcd13ifvqhvg","pricing_plan_id":"cebpf4jnsgd1na2vs0mg"},{"bike_id":"ea848b0a-5785-4e5d-83d4-e4515f54c692","system_id":"levelo_inurba_marseille","lat":43.23183,"lon":5.39982,"is_reserved":false,"is_disabled":false,"rental_uris":{"android":"levelo://app?vid=ea848b0a-5785-4e5d-83d4-e4515f54c692","ios":"levelo://app?vid=ea848b0a-5785-4e5d-83d4-e4515f54c692"},"vehicle_type_id":"4","last_reported":1730276027,"current_range_meters":27200,"station_id":"ce4bhn12rcd13ifvqgqg","pricing_plan_id":"cebpf4jnsgd1na2vs0mg"},{"bike_id":"cba2a67d-6fda-44bd-86a3-7d37451102af","system_id":"levelo_inurba_marseille","lat":43.30153,"lon":5.38083,"is_reserved":false,"is_disabled":false,"rental_uris":{"android":"levelo://app?vid=cba2a67d-6fda-44bd-86a3-7d37451102af","ios":"levelo://app?vid=cba2a67d-6fda-44bd-86a3-7d37451102af"},"vehicle_type_id":"4","last_reported":1730276027,"current_range_meters":35200,"station_id":"ce4bgjp2rcd13ifvqbh0","pricing_plan_id":"cebpf4jnsgd1na2vs0mg"},{"bike_id":"1768b2ed-b293-42f5-a095-345317bb060b","system_id":"levelo_inurba_marseille","lat":43.30906,"lon":5.36856,"is_reserved":false,"is_disabled":false,"rental_uris":{"android":"levelo://app?vid=1768b2ed-b293-42f5-a095-345317bb060b","ios":"levelo://app?vid=1768b2ed-b293-42f5-a095-345317bb060b"},"vehicle_type_id":"4","last_reported":1730276027,"current_range_meters":24400,"station_id":"ce4bgn92rcd13ifvqbvg","pricing_plan_id":"cebpf4jnsgd1na2vs0mg"},{"bike_id":"e1d5344e-a6d4-4068-bf2e-e347a3432fb0","system_id":"levelo_inurba_marseille","lat":43.30274,"lon":5.37693,"is_reserved":false,"is_disabled":false,"rental_uris":{"android":"levelo://app?vid=e1d5344e-a6d4-4068-bf2e-e347a3432fb0","ios":"levelo://app?vid=e1d5344e-a6d4-4068-bf2e-e347a3432fb0"},"vehicle_type_id":"4","last_reported":1730276027,"current_range_meters":35600,"station_id":"ce4bguh2rcd13ifvqcj0","pricing_plan_id":"cebpf4jnsgd1na2vs0mg"},{"bike_id":"03f9e53e-7a03-4a95-9ef4-373c86c54ed6","system_id":"levelo_inurba_marseille","lat":43.25939,"lon":5.40902,"is_reserved":false,"is_disabled":false,"rental_uris":{"android":"levelo://app?vid=03f9e53e-7a03-4a95-9ef4-373c86c54ed6","ios":"levelo://app?vid=03f9e53e-7a03-4a95-9ef4-373c86c54ed6"},"vehicle_type_id":"4","last_reported":1730276027,"current_range_meters":36800,"station_id":"ce4bhm92rcd13ifvqglg","pricing_plan_id":"cebpf4jnsgd1na2vs0mg"},{"bike_id":"a0a2b278-3c52-4c26-9330-91fb0b590d02","system_id":"levelo_inurba_marseille","lat":43.30155,"lon":5.38078,"is_reserved":false,"is_disabled":false,"rental_uris":{"android":"levelo://app?vid=a0a2b278-3c52-4c26-9330-91fb0b590d02","ios":"levelo://app?vid=a0a2b278-3c52-4c26-9330-91fb0b590d02"},"vehicle_type_id":"4","last_reported":1730276027,"current_range_meters":32800,"station_id":"ce4bgjp2rcd13ifvqbh0","pricing_plan_id":"cebpf4jnsgd1na2vs0mg"},{"bike_id":"160c3125-d109-49e3-a687-ede78b99dea2","system_id":"levelo_inurba_marseille","lat":43.23196,"lon":5.35544,"is_reserved":false,"is_disabled":false,"rental_uris":{"android":"levelo://app?vid=160c3125-d109-49e3-a687-ede78b99dea2","ios":"levelo://app?vid=160c3125-d109-49e3-a687-ede78b99dea2"},"vehicle_type_id":"4","last_reported":1730276027,"current_range_meters":10800,"station_id":"ce4bhu92rcd13ifvqi70","pricing_plan_id":"cebpf4jnsgd1na2vs0mg"},{"bike_id":"52d2cdae-bdbf-4672-ae0d-cc9c814ce95e","system_id":"levelo_inurba_marseille","lat":43.30461,"lon":5.37908,"is_reserved":false,"is_disabled":false,"rental_uris":{"android":"levelo://app?vid=52d2cdae-bdbf-4672-ae0d-cc9c814ce95e","ios":"levelo://app?vid=52d2cdae-bdbf-4672-ae0d-cc9c814ce95e"},"vehicle_type_id":"4","last_reported":1730276027,"current_range_meters":24000,"station_id":"ce4bgup2rcd13ifvqcn0","pricing_plan_id":"cebpf4jnsgd1na2vs0mg"},{"bike_id":"d15e5a3a-5812-42ae-8a22-b064b9e316b7","system_id":"levelo_inurba_marseille","lat":43.27994,"lon":5.40014,"is_reserved":false,"is_disabled":false,"rental_uris":{"android":"levelo://app?vid=d15e5a3a-5812-42ae-8a22-b064b9e316b7","ios":"levelo://app?vid=d15e5a3a-5812-42ae-8a22-b064b9e316b7"},"vehicle_type_id":"4","last_reported":1730276027,"current_range_meters":36800,"station_id":"ce4bho92rcd13ifvqh4g","pricing_plan_id":"cebpf4jnsgd1na2vs0mg"},{"bike_id":"6baeb595-3699-4f73-ad2e-bef84e3a39f7","system_id":"levelo_inurba_marseille","lat":43.31346,"lon":5.36715,"is_reserved":false,"is_disabled":false,"rental_uris":{"android":"levelo://app?vid=6baeb595-3699-4f73-ad2e-bef84e3a39f7","ios":"levelo://app?vid=6baeb595-3699-4f73-ad2e-bef84e3a39f7"},"vehicle_type_id":"4","last_reported":1730276027,"current_range_meters":32400,"station_id":"ce4bgr92rcd13ifvqc6g","pricing_plan_id":"cebpf4jnsgd1na2vs0mg"},{"bike_id":"07e324bc-7357-4a50-a71d-ea19063c9374","system_id":"levelo_inurba_marseille","lat":43.27204,"lon":5.39979,"is_reserved":false,"is_disabled":false,"rental_uris":{"android":"levelo://app?vid=07e324bc-7357-4a50-a71d-ea19063c9374","ios":"levelo://app?vid=07e324bc-7357-4a50-a71d-ea19063c9374"},"vehicle_type_id":"4","last_reported":1730276027,"current_range_meters":14800,"station_id":"","pricing_plan_id":"cebpf4jnsgd1na2vs0mg"},{"bike_id":"909abed4-3ffc-497a-8003-c46afcc49406","system_id":"levelo_inurba_marseille","lat":43.30308,"lon":5.36902,"is_reserved":false,"is_disabled":false,"rental_uris":{"android":"levelo://app?vid=909abed4-3ffc-497a-8003-c46afcc49406","ios":"levelo://app?vid=909abed4-3ffc-497a-8003-c46afcc49406"},"vehicle_type_id":"4","last_reported":1730276027,"current_range_meters":19600,"station_id":"ce4bgqh2rcd13ifvqc5g","pricing_plan_id":"cebpf4jnsgd1na2vs0mg"},{"bike_id":"94b430e5-c68e-47cf-a1a3-28bccb45829a","system_id":"levelo_inurba_marseille","lat":43.28018,"lon":5.36558,"is_reserved":false,"is_disabled":false,"rental_uris":{"android":"levelo://app?vid=94b430e5-c68e-47cf-a1a3-28bccb45829a","ios":"levelo://app?vid=94b430e5-c68e-47cf-a1a3-28bccb45829a"},"vehicle_type_id":"4","last_reported":1730276027,"current_range_meters":36000,"station_id":"ce4bhbh2rcd13ifvqeo0","pricing_plan_id":"cebpf4jnsgd1na2vs0mg"},{"bike_id":"ccdfd319-6908-4ad8-9315-50628bb4a478","system_id":"levelo_inurba_marseille","lat":43.27178,"lon":5.40986,"is_reserved":false,"is_disabled":false,"rental_uris":{"android":"levelo://app?vid=ccdfd319-6908-4ad8-9315-50628bb4a478","ios":"levelo://app?vid=ccdfd319-6908-4ad8-9315-50628bb4a478"},"vehicle_type_id":"4","last_reported":1730276027,"current_range_meters":38800,"station_id":"ce4bhl12rcd13ifvqgf0","pricing_plan_id":"cebpf4jnsgd1na2vs0mg"},{"bike_id":"436067c3-32c1-46bc-894e-d7be2d545a26","system_id":"levelo_inurba_marseille","lat":43.32661,"lon":5.40991,"is_reserved":false,"is_disabled":false,"rental_uris":{"android":"levelo://app?vid=436067c3-32c1-46bc-894e-d7be2d545a26","ios":"levelo://app?vid=436067c3-32c1-46bc-894e-d7be2d545a26"},"vehicle_type_id":"4","last_reported":1730276027,"current_range_meters":26000,"station_id":"ce4bhpp2rcd13ifvqhgg","pricing_plan_id":"cebpf4jnsgd1na2vs0mg"},{"bike_id":"f2c1121c-5c92-4221-a002-33aa3e39f748","system_id":"levelo_inurba_marseille","lat":43.33611,"lon":5.41013,"is_reserved":false,"is_disabled":false,"rental_uris":{"android":"levelo://app?vid=f2c1121c-5c92-4221-a002-33aa3e39f748","ios":"levelo://app?vid=f2c1121c-5c92-4221-a002-33aa3e39f748"},"vehicle_type_id":"4","last_reported":1730276027,"current_range_meters":32800,"station_id":"ce4bhqh2rcd13ifvqhmg","pricing_plan_id":"cebpf4jnsgd1na2vs0mg"},{"bike_id":"0fa14306-354f-4dd4-a517-29422b1fd161","system_id":"levelo_inurba_marseille","lat":43.27999,"lon":5.40005,"is_reserved":false,"is_disabled":false,"rental_uris":{"android":"levelo://app?vid=0fa14306-354f-4dd4-a517-29422b1fd161","ios":"levelo://app?vid=0fa14306-354f-4dd4-a517-29422b1fd161"},"vehicle_type_id":"4","last_reported":1730276027,"current_range_meters":19600,"station_id":"ce4bho92rcd13ifvqh4g","pricing_plan_id":"cebpf4jnsgd1na2vs0mg"},{"bike_id":"1cdad1e0-5255-4c69-973d-12b025ca8c3e","system_id":"levelo_inurba_marseille","lat":43.26955,"lon":5.38624,"is_reserved":false,"is_disabled":false,"rental_uris":{"android":"levelo://app?vid=1cdad1e0-5255-4c69-973d-12b025ca8c3e","ios":"levelo://app?vid=1cdad1e0-5255-4c69-973d-12b025ca8c3e"},"vehicle_type_id":"4","last_reported":1730276027,"current_range_meters":32800,"station_id":"ce4bhh92rcd13ifvqfh0","pricing_plan_id":"cebpf4jnsgd1na2vs0mg"},{"bike_id":"f0fd9080-980d-4869-bed0-f3618cd0eee7","system_id":"levelo_inurba_marseille","lat":43.31345,"lon":5.36713,"is_reserved":false,"is_disabled":false,"rental_uris":{"android":"levelo://app?vid=f0fd9080-980d-4869-bed0-f3618cd0eee7","ios":"levelo://app?vid=f0fd9080-980d-4869-bed0-f3618cd0eee7"},"vehicle_type_id":"4","last_reported":1730276027,"current_range_meters":16800,"station_id":"ce4bgr92rcd13ifvqc6g","pricing_plan_id":"cebpf4jnsgd1na2vs0mg"},{"bike_id":"509c1a13-0b4f-4f63-aa2c-bd14ea6d8358","system_id":"levelo_inurba_marseille","lat":43.25941,"lon":5.40899,"is_reserved":false,"is_disabled":false,"rental_uris":{"android":"levelo://app?vid=509c1a13-0b4f-4f63-aa2c-bd14ea6d8358","ios":"levelo://app?vid=509c1a13-0b4f-4f63-aa2c-bd14ea6d8358"},"vehicle_type_id":"4","last_reported":1730276027,"current_range_meters":36800,"station_id":"ce4bhm92rcd13ifvqglg","pricing_plan_id":"cebpf4jnsgd1na2vs0mg"},{"bike_id":"365c8c8a-f008-48d0-89a7-1cf7a195adf5","system_id":"levelo_inurba_marseille","lat":43.30906,"lon":5.36845,"is_reserved":false,"is_disabled":false,"rental_uris":{"android":"levelo://app?vid=365c8c8a-f008-48d0-89a7-1cf7a195adf5","ios":"levelo://app?vid=365c8c8a-f008-48d0-89a7-1cf7a195adf5"},"vehicle_type_id":"4","last_reported":1730276027,"current_range_meters":15200,"station_id":"ce4bgn92rcd13ifvqbvg","pricing_plan_id":"cebpf4jnsgd1na2vs0mg"},{"bike_id":"2bc253a6-b529-475e-b719-77af0dc4716f","system_id":"levelo_inurba_marseille","lat":43.27913,"lon":5.39579,"is_reserved":false,"is_disabled":false,"rental_uris":{"android":"levelo://app?vid=2bc253a6-b529-475e-b719-77af0dc4716f","ios":"levelo://app?vid=2bc253a6-b529-475e-b719-77af0dc4716f"},"vehicle_type_id":"4","last_reported":1730276027,"current_range_meters":28000,"station_id":"ce4bhf92rcd13ifvqf40","pricing_plan_id":"cebpf4jnsgd1na2vs0mg"},{"bike_id":"489fdfcd-53f5-49ba-99d0-a169935f9250","system_id":"levelo_inurba_marseille","lat":43.2885,"lon":5.39309,"is_reserved":false,"is_disabled":false,"rental_uris":{"android":"levelo://app?vid=489fdfcd-53f5-49ba-99d0-a169935f9250","ios":"levelo://app?vid=489fdfcd-53f5-49ba-99d0-a169935f9250"},"vehicle_type_id":"4","last_reported":1730276027,"current_range_meters":28800,"station_id":"ce4bh2p2rcd13ifvqdi0","pricing_plan_id":"cebpf4jnsgd1na2vs0mg"},{"bike_id":"5cbb47c5-5fe5-4718-ad57-d3890ba633bc","system_id":"levelo_inurba_marseille","lat":43.31689,"lon":5.40466,"is_reserved":false,"is_disabled":false,"rental_uris":{"android":"levelo://app?vid=5cbb47c5-5fe5-4718-ad57-d3890ba633bc","ios":"levelo://app?vid=5cbb47c5-5fe5-4718-ad57-d3890ba633bc"},"vehicle_type_id":"4","last_reported":1730276027,"current_range_meters":36800,"station_id":"ce4bh012rcd13ifvqd00","pricing_plan_id":"cebpf4jnsgd1na2vs0mg"},{"bike_id":"1fedc88c-c4fc-4b78-b422-596bb4e9e1f8","system_id":"levelo_inurba_marseille","lat":43.26784,"lon":5.39425,"is_reserved":false,"is_disabled":false,"rental_uris":{"android":"levelo://app?vid=1fedc88c-c4fc-4b78-b422-596bb4e9e1f8","ios":"levelo://app?vid=1fedc88c-c4fc-4b78-b422-596bb4e9e1f8"},"vehicle_type_id":"4","last_reported":1730276027,"current_range_meters":38800,"station_id":"ce4bhh12rcd13ifvqfg0","pricing_plan_id":"cebpf4jnsgd1na2vs0mg"},{"bike_id":"29243a23-473e-4032-847e-6f3b1ca0ed8e","system_id":"levelo_inurba_marseille","lat":43.30943,"lon":5.39028,"is_reserved":false,"is_disabled":false,"rental_uris":{"android":"levelo://app?vid=29243a23-473e-4032-847e-6f3b1ca0ed8e","ios":"levelo://app?vid=29243a23-473e-4032-847e-6f3b1ca0ed8e"},"vehicle_type_id":"4","last_reported":1730276027,"current_range_meters":35600,"station_id":"ce4bgup2rcd13ifvqco0","pricing_plan_id":"cebpf4jnsgd1na2vs0mg"},