{"last_updated":1747588091,"ttl":60,"version":"2.2","data":{"bikes":[{"bike_id":"d9ef8966-650e-459f-b94c-cc45841004fc","system_id":"levelo_inurba_marseille","lat":43.29635,"lon":5.40609,"is_reserved":false,"is_disabled":false,"rental_uris":{"android":"levelo://app?vid=d9ef8966-650e-459f-b94c-cc45841004fc","ios":"levelo://app?vid=d9ef8966-650e-459f-b94c-cc45841004fc"},"vehicle_type_id":"4","last_reported":1747588091,"current_range_meters":2800,"station_id":"ce4bh0h2rcd13ifvqd60","pricing_plan_id":"cebpf4jnsgd1na2vs0mg"},{"bike_id":"34d02450-cdf4-4124-8bd5-e9551dbdd496","system_id":"levelo_inurba_marseille","lat":43.28154,"lon":5.42638,"is_reserved":false,"is_disabled":false,"rental_uris":{"android":"levelo://app?vid=34d02450-cdf4-4124-8bd5-e9551dbdd496","ios":"levelo://app?vid=34d02450-cdf4-4124-8bd5-e9551dbdd496"},"vehicle_type_id":"4","last_reported":1747588091,"current_range_meters":2800,"station_id":"ce4bhnh2rcd13ifvqgug","pricing_plan_id":"cebpf4jnsgd1na2vs0mg"},{"bike_id":"01d7eaed-091c-486e-b598-313fb7361d2f","system_id":"levelo_inurba_marseille","lat":43.30887,"lon":5.37192,"is_reserved":false,"is_disabled":false,"rental_uris":{"android":"levelo://app?vid=01d7eaed-091c-486e-b598-313fb7361d2f","ios":"levelo://app?vid=01d7eaed-091c-486e-b598-313fb7361d2f"},"vehicle_type_id":"4","last_reported":1747588091,"current_range_meters":2000,"station_id":"ce4bguh2rcd13ifvqckg","pricing_plan_id":"cebpf4jnsgd1na2vs0mg"},{"bike_id":"44917966-6cc7-48a9-8ee8-220212f443a1","system_id":"levelo_inurba_marseille","lat":43.2537,"lon":5.3958,"is_reserved":false,"is_disabled":false,"rental_uris":{"android":"levelo://app?vid=44917966-6cc7-48a9-8ee8-220212f443a1","ios":"levelo://app?vid=44917966-6cc7-48a9-8ee8-220212f443a1"},"vehicle_type_id":"4","last_reported":1747588091,"current_range_meters":2800,"station_id":"","pricing_plan_id":"cebpf4jnsgd1na2vs0mg"},{"bike_id":"d8535907-1399-4692-91fb-6a7d0da32228","system_id":"levelo_inurba_marseille","lat":43.28663,"lon":5.3635,"is_reserved":false,"is_disabled":false,"rental_uris":{"android":"levelo://app?vid=d8535907-1399-4692-91fb-6a7d0da32228","ios":"levelo://app?vid=d8535907-1399-4692-91fb-6a7d0da32228"},"vehicle_type_id":"4","last_reported":1747588091,"current_range_meters":2800,"station_id":"ce4bhah2rcd13ifvqej0","pricing_plan_id":"cebpf4jnsgd1na2vs0mg"},{"bike_id":"43ad80e1-07fc-4b8d-b615-6a0e44cac0c7","system_id":"levelo_inurba_marseille","lat":43.28592,"lon":5.35118,"is_reserved":false,"is_disabled":true,"rental_uris":{"android":"levelo://app?vid=43ad80e1-07fc-4b8d-b615-6a0e44cac0c7","ios":"levelo://app?vid=43ad80e1-07fc-4b8d-b615-6a0e44cac0c7"},"vehicle_type_id":"4","last_reported":1747588091,"current_range_meters":2800,"station_id":"ce4bhch2rcd13ifvqeug","pricing_plan_id":"cebpf4jnsgd1na2vs0mg"},{"bike_id":"9ad2ded1-916c-426d-93d8-0ecfdf94dc85","system_id":"levelo_inurba_marseille","lat":43.26206,"lon":5.37459,"is_reserved":false,"is_disabled":false,"rental_uris":{"android":"levelo://app?vid=9ad2ded1-916c-426d-93d8-0ecfdf94dc85","ios":"levelo://app?vid=9ad2ded1-916c-426d-93d8-0ecfdf94dc85"},"vehicle_type_id":"4","last_reported":1747588091,"current_range_meters":2800,"station_id":"ce4bhgp2rcd13ifvqfc0","pricing_plan_id":"cebpf4jnsgd1na2vs0mg"},{"bike_id":"4fa6cf89-b8a7-491b-926f-a1cb8f3e177e","system_id":"levelo_inurba_marseille","lat":43.32333,"lon":5.40622,"is_reserved":false,"is_disabled":false,"rental_uris":{"android":"levelo://app?vid=4fa6cf89-b8a7-491b-926f-a1cb8f3e177e","ios":"levelo://app?vid=4fa6cf89-b8a7-491b-926f-a1cb8f3e177e"},"vehicle_type_id":"4","last_reported":1747588091,"current_range_meters":2800,"station_id":"ce4bhq92rcd13ifvqhjg","pricing_plan_id":"cebpf4jnsgd1na2vs0mg"},{"bike_id":"f1033d46-befc-4cac-80d9-e4fa25f6de03","system_id":"levelo_inurba_marseille","lat":43.2782,"lon":5.40715,"is_reserved":false,"is_disabled":false,"rental_uris":{"android":"levelo://app?vid=f1033d46-befc-4cac-80d9-e4fa25f6de03","ios":"levelo://app?vid=f1033d46-befc-4cac-80d9-e4fa25f6de03"},"vehicle_type_id":"4","last_reported":1747588091,"current_range_meters":3200,"station_id":"ce4bhnh2rcd13ifvqgtg","pricing_plan_id":"cebpf4jnsgd1na2vs0mg"},{"bike_id":"3b843dca-d67a-4b0e-916b-710ebb36ec6d","system_id":"levelo_inurba_marseille","lat":43.3251,"lon":5.40137,"is_reserved":false,"is_disabled":false,"rental_uris":{"android":"levelo://app?vid=3b843dca-d67a-4b0e-916b-710ebb36ec6d","ios":"levelo://app?vid=3b843dca-d67a-4b0e-916b-710ebb36ec6d"},"vehicle_type_id":"4","last_reported":1747588091,"current_range_meters":3200,"station_id":"","pricing_plan_id":"cebpf4jnsgd1na2vs0mg"},{"bike_id":"bdd6df99-4416-4c94-bc57-bae5a047124f","system_id":"levelo_inurba_marseille","lat":43.22929,"lon":5.35379,"is_reserved":false,"is_disabled":false,"rental_uris":{"android":"levelo://app?vid=bdd6df99-4416-4c94-bc57-bae5a047124f","ios":"levelo://app?vid=bdd6df99-4416-4c94-bc57-bae5a047124f"},"vehicle_type_id":"4","last_reported":1747588091,"current_range_meters":3200,"station_id":"cpo3532slgdg3j2ikp40","pricing_plan_id":"cebpf4jnsgd1na2vs0mg"},{"bike_id":"6a8bcc9b-f778-4821-a7e7-bc3bbd899d4b","system_id":"levelo_inurba_marseille","lat":43.296,"lon":5.38103,"is_reserved":false,"is_disabled":false,"rental_uris":{"android":"levelo://app?vid=6a8bcc9b-f778-4821-a7e7-bc3bbd899d4b","ios":"levelo://app?vid=6a8bcc9b-f778-4821-a7e7-bc3bbd899d4b"},"vehicle_type_id":"4","last_reported":1747588091,"current_range_meters":3200,"station_id":"ce4bgl12rcd13ifvqbo0","pricing_plan_id":"cebpf4jnsgd1na2vs0mg"},{"bike_id":"bf8b75f3-be16-4a31-bde9-74958fda2fe4","system_id":"levelo_inurba_marseille","lat":43.24801,"lon":5.37453,"is_reserved":false,"is_disabled":false,"rental_uris":{"android":"levelo://app?vid=bf8b75f3-be16-4a31-bde9-74958fda2fe4","ios":"levelo://app?vid=bf8b75f3-be16-4a31-bde9-74958fda2fe4"},"vehicle_type_id":"4","last_reported":1747588091,"current_range_meters":3200,"station_id":"ce4bhgh2rcd13ifvqfb0","pricing_plan_id":"cebpf4jnsgd1na2vs0mg"},{"bike_id":"be98142e-ab99-4f68-b04a-ff2165061bb2","system_id":"levelo_inurba_marseille","lat":43.2695,"lon":5.38651,"is_reserved":false,"is_disabled":true,"rental_uris":{"android":"levelo://app?vid=be98142e-ab99-4f68-b04a-ff2165061bb2","ios":"levelo://app?vid=be98142e-ab99-4f68-b04a-ff2165061bb2"},"vehicle_type_id":"4","last_reported":1747588091,"current_range_meters":3200,"station_id":"ce4bhh92rcd13ifvqfh0","pricing_plan_id":"cebpf4jnsgd1na2vs0mg"},{"bike_id":"45efa186-1fb0-4d2a-90a9-a085aff74b86","system_id":"levelo_inurba_marseille","lat":43.30951,"lon":5.39024,"is_reserved":false,"is_disabled":false,"rental_uris":{"android":"levelo://app?vid=45efa186-1fb0-4d2a-90a9-a085aff74b86","ios":"levelo://app?vid=45efa186-1fb0-4d2a-90a9-a085aff74b86"},"vehicle_type_id":"4","last_reported":1747588091,"current_range_meters":3200,"station_id":"ce4bgup2rcd13ifvqco0","pricing_plan_id":"cebpf4jnsgd1na2vs0mg"},{"bike_id":"50ffb605-90dd-4a75-ad47-03bffd5ee4e1","system_id":"levelo_inurba_marseille","lat":43.28696,"lon":5.37384,"is_reserved":false,"is_disabled":false,"rental_uris":{"android":"levelo://app?vid=50ffb605-90dd-4a75-ad47-03bffd5ee4e1","ios":"levelo://app?vid=50ffb605-90dd-4a75-ad47-03bffd5ee4e1"},"vehicle_type_id":"4","last_reported":1747588091,"current_range_meters":3600,"station_id":"ce4bh3p2rcd13ifvqdq0","pricing_plan_id":"cebpf4jnsgd1na2vs0mg"},{"bike_id":"70402af0-f916-44d5-a77a-6c08ce68fced","system_id":"levelo_inurba_marseille","lat":43.23174,"lon":5.39984,"is_reserved":false,"is_disabled":false,"rental_uris":{"android":"levelo://app?vid=70402af0-f916-44d5-a77a-6c08ce68fced","ios":"levelo://app?vid=70402af0-f916-44d5-a77a-6c08ce68fced"},"vehicle_type_id":"4","last_reported":1747588091,"current_range_meters":3600,"station_id":"ce4bhn12rcd13ifvqgqg","pricing_plan_id":"cebpf4jnsgd1na2vs0mg"},{"bike_id":"1effbf0f-ac3a-4cc5-ac14-452776ebf216","system_id":"levelo_inurba_marseille","lat":43.24682,"lon":5.38159,"is_reserved":false,"is_disabled":false,"rental_uris":{"android":"levelo://app?vid=1effbf0f-ac3a-4cc5-ac14-452776ebf216","ios":"levelo://app?vid=1effbf0f-ac3a-4cc5-ac14-452776ebf216"},"vehicle_type_id":"4","last_reported":1747588091,"current_range_meters":3600,"station_id":"ce4bhih2rcd13ifvqfr0","pricing_plan_id":"cebpf4jnsgd1na2vs0mg"},{"bike_id":"88bc134f-f681-46aa-aa82-ff7f093ac257","system_id":"levelo_inurba_marseille","lat":43.24384,"lon":5.37057,"is_reserved":false,"is_disabled":false,"rental_uris":{"android":"levelo://app?vid=88bc134f-f681-46aa-aa82-ff7f093ac257","ios":"levelo://app?vid=88bc134f-f681-46aa-aa82-ff7f093ac257"},"vehicle_type_id":"4","last_reported":1747588091,"current_range_meters":4000,"station_id":"ce4bhhh2rcd13ifvqfk0","pricing_plan_id":"cebpf4jnsgd1na2vs0mg"},{"bike_id":"e6d0e932-a379-4387-9cb1-584949ab29da","system_id":"levelo_inurba_marseille","lat":43.28151,"lon":5.42643,"is_reserved":false,"is_disabled":false,"rental_uris":{"android":"levelo://app?vid=e6d0e932-a379-4387-9cb1-584949ab29da","ios":"levelo://app?vid=e6d0e932-a379-4387-9cb1-584949ab29da"},"vehicle_type_id":"4","last_reported":1747588091,"current_range_meters":4000,"station_id":"ce4bhnh2rcd13ifvqgug","pricing_plan_id":"cebpf4jnsgd1na2vs0mg"},{"bike_id":"aa1d8c1e-7594-4615-aa13-56fdebb973d7","system_id":"levelo_inurba_marseille","lat":43.26861,"lon":5.39155,"is_reserved":false,"is_disabled":false,"rental_uris":{"android":"levelo://app?vid=aa1d8c1e-7594-4615-aa13-56fdebb973d7","ios":"levelo://app?vid=aa1d8c1e-7594-4615-aa13-56fdebb973d7"},"vehicle_type_id":"4","last_reported":1747588091,"current_range_meters":4000,"station_id":"","pricing_plan_id":"cebpf4jnsgd1na2vs0mg"},{"bike_id":"dab8a9e1-490a-4f7a-9562-03f33d344a26","system_id":"levelo_inurba_marseille","lat":43.313366,"lon":5.396945,"is_reserved":false,"is_disabled":false,"rental_uris":{"android":"levelo://app?vid=dab8a9e1-490a-4f7a-9562-03f33d344a26","ios":"levelo://app?vid=dab8a9e1-490a-4f7a-9562-03f33d344a26"},"vehicle_type_id":"4","last_reported":1747588091,"current_range_meters":4000,"station_id":"ce4bgvp2rcd13ifvqcu0","pricing_plan_id":"cebpf4jnsgd1na2vs0mg"},{"bike_id":"f47ef6b5-d1c3-43cc-bbb3-ce13f9d5d163","system_id":"levelo_inurba_marseille","lat":43.30215,"lon":5.39461,"is_reserved":false,"is_disabled":false,"rental_uris":{"android":"levelo://app?vid=f47ef6b5-d1c3-43cc-bbb3-ce13f9d5d163","ios":"levelo://app?vid=f47ef6b5-d1c3-43cc-bbb3-ce13f9d5d163"},"vehicle_type_id":"4","last_reported":1747588091,"current_range_meters":4000,"station_id":"ce4bh0p2rcd13ifvqd70","pricing_plan_id":"cebpf4jnsgd1na2vs0mg"},{"bike_id":"e5013baf-c7d0-4bd2-b1c5-b16df7134711","system_id":"levelo_inurba_marseille","lat":43.2706,"lon":5.42269,"is_reserved":false,"is_disabled":false,"rental_uris":{"android":"levelo://app?vid=e5013baf-c7d0-4bd2-b1c5-b16df7134711","ios":"levelo://app?vid=e5013baf-c7d0-4bd2-b1c5-b16df7134711"},"vehicle_type_id":"4","last_reported":1747588091,"current_range_meters":4400,"station_id":"ce4bhk92rcd13ifvqgb0","pricing_plan_id":"cebpf4jnsgd1na2vs0mg"},{"bike_id":"fd0b324a-0ce6-481c-ad8b-8998367126a0","system_id":"levelo_inurba_marseille","lat":43.28346,"lon":5.38106,"is_reserved":false,"is_disabled":false,"rental_uris":{"android":"levelo://app?vid=fd0b324a-0ce6-481c-ad8b-8998367126a0","ios":"levelo://app?vid=fd0b324a-0ce6-481c-ad8b-8998367126a0"},"vehicle_type_id":"4","last_reported":1747588091,"current_range_meters":4400,"station_id":"ce4bh412rcd13ifvqdr0","pricing_plan_id":"cebpf4jnsgd1na2vs0mg"},{"bike_id":"164f210d-05d6-4c74-85f1-414474f5864b","system_id":"levelo_inurba_marseille","lat":43.28152,"lon":5.42639,"is_reserved":false,"is_disabled":false,"rental_uris":{"android":"levelo://app?vid=164f210d-05d6-4c74-85f1-414474f5864b","ios":"levelo://app?vid=164f210d-05d6-4c74-85f1-414474f5864b"},"vehicle_type_id":"4","last_reported":1747588091,"current_range_meters":4800,"station_id":"ce4bhnh2rcd13ifvqgug","pricing_plan_id":"cebpf4jnsgd1na2vs0mg"},{"bike_id":"16b6d398-b6da-432a-ad3a-ddb8ec1a4a49","system_id":"levelo_inurba_marseille","lat":43.2842,"lon":5.34993,"is_reserved":false,"is_disabled":false,"rental_uris":{"android":"levelo://app?vid=16b6d398-b6da-432a-ad3a-ddb8ec1a4a49","ios":"levelo://app?vid=16b6d398-b6da-432a-ad3a-ddb8ec1a4a49"},"vehicle_type_id":"4","last_reported":1747588091,"current_range_meters":4800,"station_id":"ce4bhbh2rcd13ifvqepg","pricing_plan_id":"cebpf4jnsgd1na2vs0mg"},{"bike_id":"ec8fabb7-acf2-4578-8e81-43f2142872a0","system_id":"levelo_inurba_marseille","lat":43.31325,"lon":5.39693,"is_reserved":false,"is_disabled":false,"rental_uris":{"android":"levelo://app?vid=ec8fabb7-acf2-4578-8e81-43f2142872a0","ios":"levelo://app?vid=ec8fabb7-acf2-4578-8e81-43f2142872a0"},"vehicle_type_id":"4","last_reported":1747588091,"current_range_meters":4000,"station_id":"ce4bgvp2rcd13ifvqcu0","pricing_plan_id":"cebpf4jnsgd1na2vs0mg"},{"bike_id":"e56bbeaf-3e75-4953-b893-465c69e3d2b5","system_id":"levelo_inurba_marseille","lat":43.2847,"lon":5.38408,"is_reserved":false,"is_disabled":false,"rental_uris":{"android":"levelo://app?vid=e56bbeaf-3e75-4953-b893-465c69e3d2b5","ios":"levelo://app?vid=e56bbeaf-3e75-4953-b893-465c69e3d2b5"},"vehicle_type_id":"4","last_reported":1747588091,"current_range_meters":5600,"station_id":"ce4bh512rcd13ifvqe3g","pricing_plan_id":"cebpf4jnsgd1na2vs0mg"},{"bike_id":"e0fe735b-2325-4a0c-9f0a-2132c368830d","system_id":"levelo_inurba_marseille","lat":43.29045,"lon":5.39967,"is_reserved":false,"is_disabled":true,"rental_uris":{"android":"levelo://app?vid=e0fe735b-2325-4a0c-9f0a-2132c368830d","ios":"levelo://app?vid=e0fe735b-2325-4a0c-9f0a-2132c368830d"},"vehicle_type_id":"4","last_reported":1747588091,"current_range_meters":5600,"station_id":"ce4bh392rcd13ifvqdm0","pricing_plan_id":"cebpf4jnsgd1na2vs0mg"},{"bike_id":"55fb771a-6e76-45c4-a9b7-cda97a0011d0","system_id":"levelo_inurba_marseille","lat":43.28755,"lon":5.38268,"is_reserved":false,"is_disabled":false,"rental_uris":{"android":"levelo://app?vid=55fb771a-6e76-45c4-a9b7-cda97a0011d0","ios":"levelo://app?vid=55fb771a-6e76-45c4-a9b7-cda97a0011d0"},"vehicle_type_id":"4","last_reported":1747588091,"current_range_meters":5600,"station_id":"","pricing_plan_id":"cebpf4jnsgd1na2vs0mg"},{"bike_id":"b1e588a8-6868-4632-aaf7-01c00ab698a5","system_id":"levelo_inurba_marseille","lat":43.27942,"lon":5.41038,"is_reserved":false,"is_disabled":false,"rental_uris":{"android":"levelo://app?vid=b1e588a8-6868-4632-aaf7-01c00ab698a5","ios":"levelo://app?vid=b1e588a8-6868-4632-aaf7-01c00ab698a5"},"vehicle_type_id":"4","last_reported":1747588091,"current_range_meters":5600,"station_id":"ce4bhnp2rcd13ifvqh0g","pricing_plan_id":"cebpf4jnsgd1na2vs0mg"},{"bike_id":"ed99b08e-8c24-4046-a70c-2a5a8786634e","system_id":"levelo_inurba_marseille","lat":43.29702,"lon":5.37695,"is_reserved":false,"is_disabled":false,"rental_uris":{"android":"levelo://app?vid=ed99b08e-8c24-4046-a70c-2a5a8786634e","ios":"levelo://app?vid=ed99b08e-8c24-4046-a70c-2a5a8786634e"},"vehicle_type_id":"4","last_reported":1747588091,"current_range_meters":4000,"station_id":"ce4bgkh2rcd13ifvqbl0","pricing_plan_id":"cebpf4jnsgd1na2vs0mg"},{"bike_id":"7962b180-afd3-409a-b6fa-0707a9335c9a","system_id":"levelo_inurba_marseille","lat":43.309318,"lon":5.401376,"is_reserved":false,"is_disabled":false,"rental_uris":{"android":"levelo://app?vid=7962b180-afd3-409a-b6fa-0707a9335c9a","ios":"levelo://app?vid=7962b180-afd3-409a-b6fa-0707a9335c9a"},"vehicle_type_id":"4","last_reported":1747588091,"current_range_meters":5600,"station_id":"ce4bgvp2rcd13ifvqct0","pricing_plan_id":"cebpf4jnsgd1na2vs0mg"},{"bike_id":"684324c9-5328-4fae-9b39-65e3ccbe9063","system_id":"levelo_inurba_marseille","lat":43.31363,"lon":5.38493,"is_reserved":false,"is_disabled":false,"rental_uris":{"android":"levelo://app?vid=684324c9-5328-4fae-9b39-65e3ccbe9063","ios":"levelo://app?vid=684324c9-5328-4fae-9b39-65e3ccbe9063"},"vehicle_type_id":"4","last_reported":1747588091,"current_range_meters":5600,"station_id":"ce4bgt92rcd13ifvqcf0","pricing_plan_id":"cebpf4jnsgd1na2vs0mg"},{"bike_id":"b9bbaf79-d01c-4ba4-8137-102ba1529a4d","system_id":"levelo_inurba_marseille","lat":43.29953,"lon":5.41317,"is_reserved":false,"is_disabled":false,"rental_uris":{"android":"levelo://app?vid=b9bbaf79-d01c-4ba4-8137-102ba1529a4d","ios":"levelo://app?vid=b9bbaf79-d01c-4ba4-8137-102ba1529a4d"},"vehicle_type_id":"4","last_reported":1747588091,"current_range_meters":5600,"station_id":"ce4bhp12rcd13ifvqh9g","pricing_plan_id":"cebpf4jnsgd1na2vs0mg"},{"bike_id":"b8e6468b-87db-4ff6-8122-ef13bf5b7c8c","system_id":"levelo_inurba_marseille","lat":43.31379,"lon":5.37916,"is_reserved":false,"is_disabled":false,"rental_uris":{"android":"levelo://app?vid=b8e6468b-87db-4ff6-8122-ef13bf5b7c8c","ios":"levelo://app?vid=b8e6468b-87db-4ff6-8122-ef13bf5b7c8c"},"vehicle_type_id":"4","last_reported":1747588091,"current_range_meters":6000,"station_id":"","pricing_plan_id":"cebpf4jnsgd1na2vs0mg"},{"bike_id":"440b2bae-6d34-40af-9495-b0a8c11cf7a4","system_id":"levelo_inurba_marseille","lat":43.29705,"lon":5.37693,"is_reserved":false,"is_disabled":false,"rental_uris":{"android":"levelo://app?vid=440b2bae-6d34-40af-9495-b0a8c11cf7a4","ios":"levelo://app?vid=440b2bae-6d34-40af-9495-b0a8c11cf7a4"},"vehicle_type_id":"4","last_reported":1747588091,"current_range_meters":6000,"station_id":"ce4bgkh2rcd13ifvqbl0","pricing_plan_id":"cebpf4jnsgd1na2vs0mg"},{"bike_id":"296a0d35-a4b7-4c57-991e-44b4cc95c50b","system_id":"levelo_inurba_marseille","lat":43.25823,"lon":5.39439,"is_reserved":false,"is_disabled":false,"rental_uris":{"android":"levelo://app?vid=296a0d35-a4b7-4c57-991e-44b4cc95c50b","ios":"levelo://app?vid=296a0d35-a4b7-4c57-991e-44b4cc95c50b"},"vehicle_type_id":"4","last_reported":1747588091,"current_range_meters":6000,"station_id":"ce4bhip2rcd13ifvqft0","pricing_plan_id":"cebpf4jnsgd1na2vs0mg"},{"bike_id":"1381bd49-568c-425f-bcfd-260613800bb1","system_id":"levelo_inurba_marseille","lat":43.274259,"lon":5.394187,"is_reserved":false,"is_disabled":false,"rental_uris":{"android":"levelo://app?vid=1381bd49-568c-425f-bcfd-260613800bb1","ios":"levelo://app?vid=1381bd49-568c-425f-bcfd-260613800bb1"},"vehicle_type_id":"4","last_reported":1747588091,"current_range_meters":6000,"station_id":"ce4bhdp2rcd13ifvqf20","pricing_plan_id":"cebpf4jnsgd1na2vs0mg"},{"bike_id":"aa79b037-1fcd-49c2-bc23-bc987c2b3e1e","system_id":"levelo_inurba_marseille","lat":43.292999,"lon":5.37466,"is_reserved":false,"is_disabled":false,"rental_uris":{"android":"levelo://app?vid=aa79b037-1fcd-49c2-bc23-bc987c2b3e1e","ios":"levelo://app?vid=aa79b037-1fcd-49c2-bc23-bc987c2b3e1e"},"vehicle_type_id":"4","last_reported":1747588091,"current_range_meters":1600,"station_id":"ce4bgi12rcd13ifvqb70","pricing_plan_id":"cebpf4jnsgd1na2vs0mg"},{"bike_id":"8e2d3c82-6edb-4ec5-9216-40ea31e4c140","system_id":"levelo_inurba_marseille","lat":43.29199,"lon":5.39322,"is_reserved":false,"is_disabled":false,"rental_uris":{"android":"levelo://app?vid=8e2d3c82-6edb-4ec5-9216-40ea31e4c140","ios":"levelo://app?vid=8e2d3c82-6edb-4ec5-9216-40ea31e4c140"},"vehicle_type_id":"4","last_reported":1747588091,"current_range_meters":6000,"station_id":"ce4bh192rcd13ifvqdd0","pricing_plan_id":"cebpf4jnsgd1na2vs0mg"},{"bike_id":"68c476c2-6227-42d9-ac98-982274fefe79","system_id":"levelo_inurba_marseille","lat":43.24811,"lon":5.3745,"is_reserved":false,"is_disabled":false,"rental_uris":{"android":"levelo://app?vid=68c476c2-6227-42d9-ac98-982274fefe79","ios":"levelo://app?vid=68c476c2-6227-42d9-ac98-982274fefe79"},"vehicle_type_id":"4","last_reported":1747588091,"current_range_meters":6400,"station_id":"ce4bhgh2rcd13ifvqfb0","pricing_plan_id":"cebpf4jnsgd1na2vs0mg"},{"bike_id":"81c659b6-3a02-46e7-a46f-d340746ad32e","system_id":"levelo_inurba_marseille","lat":43.27379,"lon":5.36256,"is_reserved":false,"is_disabled":true,"rental_uris":{"android":"levelo://app?vid=81c659b6-3a02-46e7-a46f-d340746ad32e","ios":"levelo://app?vid=81c659b6-3a02-46e7-a46f-d340746ad32e"},"vehicle_type_id":"4","last_reported":1747588091,"current_range_meters":6400,"station_id":"ce4bhbh2rcd13ifvqeo0","pricing_plan_id":"cebpf4jnsgd1na2vs0mg"},{"bike_id":"ed7e3379-d871-42c6-aeba-86c249877fc3","system_id":"levelo_inurba_marseille","lat":43.243853,"lon":5.370596,"is_reserved":false,"is_disabled":false,"rental_uris":{"android":"levelo://app?vid=ed7e3379-d871-42c6-aeba-86c249877fc3","ios":"levelo://app?vid=ed7e3379-d871-42c6-aeba-86c249877fc3"},"vehicle_type_id":"4","last_reported":1747588091,"current_range_meters":6000,"station_id":"ce4bhhh2rcd13ifvqfk0","pricing_plan_id":"cebpf4jnsgd1na2vs0mg"},{"bike_id":"572664df-6462-4bd4-8856-6a75e76566ee","system_id":"levelo_inurba_marseille","lat":43.23186,"lon":5.39969,"is_reserved":false,"is_disabled":false,"rental_uris":{"android":"levelo://app?vid=572664df-6462-4bd4-8856-6a75e76566ee","ios":"levelo://app?vid=572664df-6462-4bd4-8856-6a75e76566ee"},"vehicle_type_id":"4","last_reported":1747588091,"current_range_meters":6400,"station_id":"ce4bhn12rcd13ifvqgqg","pricing_plan_id":"cebpf4jnsgd1na2vs0mg"},{"bike_id":"af2f3908-848e-4879-9c80-b3ddea1b7f0a","system_id":"levelo_inurba_marseille","lat":43.31202,"lon":5.38767,"is_reserved":false,"is_disabled":true,"rental_uris":{"android":"levelo://app?vid=af2f3908-848e-4879-9c80-b3ddea1b7f0a","ios":"levelo://app?vid=af2f3908-848e-4879-9c80-b3ddea1b7f0a"},"vehicle_type_id":"4","last_reported":1747588091,"current_range_meters":6400,"station_id":"ce4bgv12rcd13ifvqcp0","pricing_plan_id":"cebpf4jnsgd1na2vs0mg"},{"bike_id":"ded9deac-b2af-4e4a-9738-0c1ed0687210","system_id":"levelo_inurba_marseille","lat":43.29413,"lon":5.38629,"is_reserved":false,"is_disabled":false,"rental_uris":{"android":"levelo://app?vid=ded9deac-b2af-4e4a-9738-0c1ed0687210","ios":"levelo://app?vid=ded9deac-b2af-4e4a-9738-0c1ed0687210"},"vehicle_type_id":"4","last_reported":1747588091,"current_range_meters":7200,"station_id":"ce4bh2h2rcd13ifvqdh0","pricing_plan_id":"cebpf4jnsgd1na2vs0mg"},{"bike_id":"ae578ad9-e318-4e4a-b6bd-b7a35a887221","system_id":"levelo_inurba_marseille","lat":43.29416,"lon":5.38641,"is_reserved":false,"is_disabled":false,"rental_uris":{"android":"levelo://app?vid=ae578ad9-e318-4e4a-b6bd-b7a35a887221","ios":"levelo://app?vid=ae578ad9-e318-4e4a-b6bd-b7a35a887221"},"vehicle_type_id":"4","last_reported":1747588091,"current_range_meters":6800,"station_id":"ce4bh2h2rcd13ifvqdh0","pricing_plan_id":"cebpf4jnsgd1na2vs0mg"},{"bike_id":"a6729b37-4cca-42e8-ad46-d723ab68e278","system_id":"levelo_inurba_marseille","lat":43.32531,"lon":5.41436,"is_reserved":false,"is_disabled":false,"rental_uris":{"android":"levelo://app?vid=a6729b37-4cca-42e8-ad46-d723ab68e278","ios":"levelo://app?vid=a6729b37-4cca-42e8-ad46-d723ab68e278"},"vehicle_type_id":"4","last_reported":1747588091,"current_range_meters":6400,"station_id":"ce4bhq12rcd13ifvqhhg","pricing_plan_id":"cebpf4jnsgd1na2vs0mg"},{"bike_id":"e9db59db-f7ec-43e2-a15f-67d8df6b8bfe","system_id":"levelo_inurba_marseille","lat":43.29023,"lon":5.38647,"is_reserved":false,"is_disabled":false,"rental_uris":{"android":"levelo://app?vid=e9db59db-f7ec-43e2-a15f-67d8df6b8bfe","ios":"levelo://app?vid=e9db59db-f7ec-43e2-a15f-67d8df6b8bfe"},"vehicle_type_id":"4","last_reported":1747588091,"current_range_meters":4400,"station_id":"ce4bh4p2rcd13ifvqe0g","pricing_plan_id":"cebpf4jnsgd1na2vs0mg"},{"bike_id":"2c5b0dad-3a5c-4908-8ce2-98d1673660b3","system_id":"levelo_inurba_marseille","lat":43.28699,"lon":5.37389,"is_reserved":false,"is_disabled":false,"rental_uris":{"android":"levelo://app?vid=2c5b0dad-3a5c-4908-8ce2-98d1673660b3","ios":"levelo://app?vid=2c5b0dad-3a5c-4908-8ce2-98d1673660b3"},"vehicle_type_id":"4","last_reported":1747588091,"current_range_meters":6800,"station_id":"ce4bh3p2rcd13ifvqdq0","pricing_plan_id":"cebpf4jnsgd1na2vs0mg"},{"bike_id":"62470096-0b37-445e-b7ef-0064f7548be9","system_id":"levelo_inurba_marseille","lat":43.23115,"lon":5.43701,"is_reserved":false,"is_disabled":false,"rental_uris":{"android":"levelo://app?vid=62470096-0b37-445e-b7ef-0064f7548be9","ios":"levelo://app?vid=62470096-0b37-445e-b7ef-0064f7548be9"},"vehicle_type_id":"4","last_reported":1747588091,"current_range_meters":6800,"station_id":"ce4bhmp2rcd13ifvqgog","pricing_plan_id":"cebpf4jnsgd1na2vs0mg"},{"bike_id":"706f1aa2-9074-417d-8081-e4ffd808531b","system_id":"levelo_inurba_marseille","lat":43.28937,"lon":5.36625,"is_reserved":false,"is_disabled":false,"rental_uris":{"android":"levelo://app?vid=706f1aa2-9074-417d-8081-e4ffd808531b","ios":"levelo://app?vid=706f1aa2-9074-417d-8081-e4ffd808531b"},"vehicle_type_id":"4","last_reported":1747588091,"current_range_meters":6800,"station_id":"ce4bhap2rcd13ifvqek0","pricing_plan_id":"cebpf4jnsgd1na2vs0mg"},{"bike_id":"79bb078b-7209-4bd4-978e-f68ace0406d0","system_id":"levelo_inurba_marseille","lat":43.290253,"lon":5.386531,"is_reserved":false,"is_disabled":true,"rental_uris":{"android":"levelo://app?vid=79bb078b-7209-4bd4-978e-f68ace0406d0","ios":"levelo://app?vid=79bb078b-7209-4bd4-978e-f68ace0406d0"},"vehicle_type_id":"4","last_reported":1747588091,"current_range_meters":6800,"station_id":"ce4bh4p2rcd13ifvqe0g","pricing_plan_id":"cebpf4jnsgd1na2vs0mg"},{"bike_id":"8b92f652-772a-4e04-941a-2af1ea352ee7","system_id":"levelo_inurba_marseille","lat":43.28936,"lon":5.36634,"is_reserved":false,"is_disabled":false,"rental_uris":{"android":"levelo://app?vid=8b92f652-772a-4e04-941a-2af1ea352ee7","ios":"levelo://app?vid=8b92f652-772a-4e04-941a-2af1ea352ee7"},"vehicle_type_id":"4","last_reported":1747588091,"current_range_meters":6800,"station_id":"ce4bhap2rcd13ifvqek0","pricing_plan_id":"cebpf4jnsgd1na2vs0mg"},{"bike_id":"62b4e34b-ca1f-4b0d-846f-8e89aad6a57f","system_id":"levelo_inurba_marseille","lat":43.29932,"lon":5.36553,"is_reserved":false,"is_disabled":false,"rental_uris":{"android":"levelo://app?vid=62b4e34b-ca1f-4b0d-846f-8e89aad6a57f","ios":"levelo://app?vid=62b4e34b-ca1f-4b0d-846f-8e89aad6a57f"},"vehicle_type_id":"4","last_reported":1747588091,"current_range_meters":6800,"station_id":"ce4bgm92rcd13ifvqbr0","pricing_plan_id":"cebpf4jnsgd1na2vs0mg"},{"bike_id":"3745e96f-c482-4e52-a5b7-302dbbac4721","system_id":"levelo_inurba_marseille","lat":43.28718,"lon":5.3795,"is_reserved":false,"is_disabled":false,"rental_uris":{"android":"levelo://app?vid=3745e96f-c482-4e52-a5b7-302dbbac4721","ios":"levelo://app?vid=3745e96f-c482-4e52-a5b7-302dbbac4721"},"vehicle_type_id":"4","last_reported":1747588091,"current_range_meters":7200,"station_id":"ce4bh9p2rcd13ifvqec0","pricing_plan_id":"cebpf4jnsgd1na2vs0mg"},{"bike_id":"0cfae820-cdf5-4a99-8ff5-7860db81de27","system_id":"levelo_inurba_marseille","lat":43.292431,"lon":5.395501,"is_reserved":false,"is_disabled":false,"rental_uris":{"android":"levelo://app?vid=0cfae820-cdf5-4a99-8ff5-7860db81de27","ios":"levelo://app?vid=0cfae820-cdf5-4a99-8ff5-7860db81de27"},"vehicle_type_id":"4","last_reported":1747588091,"current_range_meters":7200,"station_id":"","pricing_plan_id":"cebpf4jnsgd1na2vs0mg"},{"bike_id":"f8237065-c8b1-47b9-83a6-7573dbe830fa","system_id":"levelo_inurba_marseille","lat":43.31323,"lon":5.397,"is_reserved":false,"is_disabled":false,"rental_uris":{"android":"levelo://app?vid=f8237065-c8b1-47b9-83a6-7573dbe830fa","ios":"levelo://app?vid=f8237065-c8b1-47b9-83a6-7573dbe830fa"},"vehicle_type_id":"4","last_reported":1747588091,"current_range_meters":6800,"station_id":"ce4bgvp2rcd13ifvqcu0","pricing_plan_id":"cebpf4jnsgd1na2vs0mg"},{"bike_id":"4e662a95-4b27-44a8-904a-4afd2d34c432","system_id":"levelo_inurba_marseille","lat":43.25861,"lon":5.39897,"is_reserved":false,"is_disabled":false,"rental_uris":{"android":"levelo://app?vid=4e662a95-4b27-44a8-904a-4afd2d34c432","ios":"levelo://app?vid=4e662a95-4b27-44a8-904a-4afd2d34c432"},"vehicle_type_id":"4","last_reported":1747588091,"current_range_meters":7200,"station_id":"ce4bhl92rcd13ifvqghg","pricing_plan_id":"cebpf4jnsgd1na2vs0mg"},{"bike_id":"b70bfd70-27bf-457a-a3c7-b96acc235925","system_id":"levelo_inurba_marseille","lat":43.23191,"lon":5.35554,"is_reserved":false,"is_disabled":false,"rental_uris":{"android":"levelo://app?vid=b70bfd70-27bf-457a-a3c7-b96acc235925","ios":"levelo://app?vid=b70bfd70-27bf-457a-a3c7-b96acc235925"},"vehicle_type_id":"4","last_reported":1747588091,"current_range_meters":7200,"station_id":"ce4bhu92rcd13ifvqi70","pricing_plan_id":"cebpf4jnsgd1na2vs0mg"},{"bike_id":"7a82397e-c258-4325-b836-1bc38b80aab5","system_id":"levelo_inurba_marseille","lat":43.24068,"lon":5.37759,"is_reserved":false,"is_disabled":false,"rental_uris":{"android":"levelo://app?vid=7a82397e-c258-4325-b836-1bc38b80aab5","ios":"levelo://app?vid=7a82397e-c258-4325-b836-1bc38b80aab5"},"vehicle_type_id":"4","last_reported":1747588091,"current_range_meters":7200,"station_id":"ce4bhnp2rcd13ifvqgvg","pricing_plan_id":"cebpf4jnsgd1na2vs0mg"},{"bike_id":"6b849ac5-c25f-4393-bc5a-47493e693ba8","system_id":"levelo_inurba_marseille","lat":43.24168,"lon":5.36396,"is_reserved":false,"is_disabled":true,"rental_uris":{"android":"levelo://app?vid=6b849ac5-c25f-4393-bc5a-47493e693ba8","ios":"levelo://app?vid=6b849ac5-c25f-4393-bc5a-47493e693ba8"},"vehicle_type_id":"4","last_reported":1747588091,"current_range_meters":7200,"station_id":"cpo36qri1sfpv3e86is0","pricing_plan_id":"cebpf4jnsgd1na2vs0mg"},{"bike_id":"98d7e015-5e62-4cfd-8699-316a172e4b18","system_id":"levelo_inurba_marseille","lat":43.262107,"lon":5.37441,"is_reserved":false,"is_disabled":true,"rental_uris":{"android":"levelo://app?vid=98d7e015-5e62-4cfd-8699-316a172e4b18","ios":"levelo://app?vid=98d7e015-5e62-4cfd-8699-316a172e4b18"},"vehicle_type_id":"4","last_reported":1747588091,"current_range_meters":7200,"station_id":"ce4bhgp2rcd13ifvqfc0","pricing_plan_id":"cebpf4jnsgd1na2vs0mg"},{"bike_id":"05a0dd7a-95dc-46dc-8413-9fdb3ad8b2ab","system_id":"levelo_inurba_marseille","lat":43.29042,"lon":5.35922,"is_reserved":false,"is_disabled":false,"rental_uris":{"android":"levelo://app?vid=05a0dd7a-95dc-46dc-8413-9fdb3ad8b2ab","ios":"levelo://app?vid=05a0dd7a-95dc-46dc-8413-9fdb3ad8b2ab"},"vehicle_type_id":"4","last_reported":1747588091,"current_range_meters":7200,"station_id":"ce4bha92rcd13ifvqeg0","pricing_plan_id":"cebpf4jnsgd1na2vs0mg"},{"bike_id":"fbbe2951-10b4-48c1-aee7-fa4ab21b3cf9","system_id":"levelo_inurba_marseille","lat":43.28718,"lon":5.3795,"is_reserved":false,"is_disabled":false,"rental_uris":{"android":"levelo://app?vid=fbbe2951-10b4-48c1-aee7-fa4ab21b3cf9","ios":"levelo://app?vid=fbbe2951-10b4-48c1-aee7-fa4ab21b3cf9"},"vehicle_type_id":"4","last_reported":1747588091,"current_range_meters":7200,"station_id":"ce4bh9p2rcd13ifvqec0","pricing_plan_id":"cebpf4jnsgd1na2vs0mg"},{"bike_id":"52c119d7-e083-4d3d-9180-4dc9b658aa33","system_id":"levelo_inurba_marseille","lat":43.28476,"lon":5.38424,"is_reserved":false,"is_disabled":false,"rental_uris":{"android":"levelo://app?vid=52c119d7-e083-4d3d-9180-4dc9b658aa33","ios":"levelo://app?vid=52c119d7-e083-4d3d-9180-4dc9b658aa33"},"vehicle_type_id":"4","last_reported":1747588091,"current_range_meters":8000,"station_id":"ce4bh512rcd13ifvqe3g","pricing_plan_id":"cebpf4jnsgd1na2vs0mg"},{"bike_id":"b934e6da-efb5-4ac5-a51a-eb50220f6e1b","system_id":"levelo_inurba_marseille","lat":43.26975,"lon":5.406,"is_reserved":false,"is_disabled":true,"rental_uris":{"android":"levelo://app?vid=b934e6da-efb5-4ac5-a51a-eb50220f6e1b","ios":"levelo://app?vid=b934e6da-efb5-4ac5-a51a-eb50220f6e1b"},"vehicle_type_id":"4","last_reported":1747588091,"current_range_meters":8000,"station_id":"","pricing_plan_id":"cebpf4jnsgd1na2vs0mg"},{"bike_id":"23e3bd5e-1e65-4874-8503-fe3cf3b51321","system_id":"levelo_inurba_marseille","lat":43.26554,"lon":5.37284,"is_reserved":false,"is_disabled":false,"rental_uris":{"android":"levelo://app?vid=23e3bd5e-1e65-4874-8503-fe3cf3b51321","ios":"levelo://app?vid=23e3bd5e-1e65-4874-8503-fe3cf3b51321"},"vehicle_type_id":"4","last_reported":1747588091,"current_range_meters":8000,"station_id":"ce4bhg12rcd13ifvqf70","pricing_plan_id":"cebpf4jnsgd1na2vs0mg"},{"bike_id":"c0db4030-ef30-480b-a735-af5435a471ed","system_id":"levelo_inurba_marseille","lat":43.27707,"lon":5.42714,"is_reserved":false,"is_disabled":false,"rental_uris":{"android":"levelo://app?vid=c0db4030-ef30-480b-a735-af5435a471ed","ios":"levelo://app?vid=c0db4030-ef30-480b-a735-af5435a471ed"},"vehicle_type_id":"4","last_reported":1747588091,"current_range_meters":8000,"station_id":"","pricing_plan_id":"cebpf4jnsgd1na2vs0mg"},{"bike_id":"9d8b2c79-3ca5-4f14-8ae6-6f43aeaa1f73","system_id":"levelo_inurba_marseille","lat":43.23191,"lon":5.35544,"is_reserved":false,"is_disabled":false,"rental_uris":{"android":"levelo://app?vid=9d8b2c79-3ca5-4f14-8ae6-6f43aeaa1f73","ios":"levelo://app?vid=9d8b2c79-3ca5-4f14-8ae6-6f43aeaa1f73"},"vehicle_type_id":"4","last_reported":1747588091,"current_range_meters":8000,"station_id":"ce4bhu92rcd13ifvqi70","pricing_plan_id":"cebpf4jnsgd1na2vs0mg"},{"bike_id":"a9708a62-39bd-41ba-9f56-5d528effa682","system_id":"levelo_inurba_marseille","lat":43.28444,"lon":5.35,"is_reserved":false,"is_disabled":true,"rental_uris":{"android":"levelo://app?vid=a9708a62-39bd-41ba-9f56-5d528effa682","ios":"levelo://app?vid=a9708a62-39bd-41ba-9f56-5d528effa682"},"vehicle_type_id":"4","last_reported":1747588091,"current_range_meters":8000,"station_id":"ce4bhbh2rcd13ifvqepg","pricing_plan_id":"cebpf4jnsgd1na2vs0mg"},{"bike_id":"0c6237bf-69ad-4886-93e0-89e1ab86b4e0","system_id":"levelo_inurba_marseille","lat":43.32364,"lon":5.38887,"is_reserved":false,"is_disabled":false,"rental_uris":{"android":"levelo://app?vid=0c6237bf-69ad-4886-93e0-89e1ab86b4e0","ios":"levelo://app?vid=0c6237bf-69ad-4886-93e0-89e1ab86b4e0"},"vehicle_type_id":"4","last_reported":1747588091,"current_range_meters":8000,"station_id":"ce4bhqp2rcd13ifvqhog","pricing_plan_id":"cebpf4jnsgd1na2vs0mg"},{"bike_id":"0fb02880-5c6e-4026-9e4a-07529c572b44","system_id":"levelo_inurba_marseille","lat":43.25485,"lon":5.37423,"is_reserved":false,"is_disabled":false,"rental_uris":{"android":"levelo://app?vid=0fb02880-5c6e-4026-9e4a-07529c572b44","ios":"levelo://app?vid=0fb02880-5c6e-4026-9e4a-07529c572b44"},"vehicle_type_id":"4","last_reported":1747588091,"current_range_meters":8400,"station_id":"","pricing_plan_id":"cebpf4jnsgd1na2vs0mg"},{"bike_id":"dcf7c207-1603-4407-9b4e-df5aeeda333a","system_id":"levelo_inurba_marseille","lat":43.309315,"lon":5.401379,"is_reserved":false,"is_disabled":false,"rental_uris":{"android":"levelo://app?vid=dcf7c207-1603-4407-9b4e-df5aeeda333a","ios":"levelo://app?vid=dcf7c207-1603-4407-9b4e-df5aeeda333a"},"vehicle_type_id":"4","last_reported":1747588091,"current_range_meters":8400,"station_id":"ce4bgvp2rcd13ifvqct0","pricing_plan_id":"cebpf4jnsgd1na2vs0mg"},{"bike_id":"4db12f9a-f0a4-42f8-b1a2-de4c33ce2ea5","system_id":"levelo_inurba_marseille","lat":43.30893,"lon":5.37193,"is_reserved":false,"is_disabled":false,"rental_uris":{"android":"levelo://app?vid=4db12f9a-f0a4-42f8-b1a2-de4c33ce2ea5","ios":"levelo://app?vid=4db12f9a-f0a4-42f8-b1a2-de4c33ce2ea5"},"vehicle_type_id":"4","last_reported":1747588091,"current_range_meters":8000,"station_id":"ce4bguh2rcd13ifvqckg","pricing_plan_id":"cebpf4jnsgd1na2vs0mg"},{"bike_id":"9be12a09-efe5-495b-8ec3-e7e0d7473370","system_id":"levelo_inurba_marseille","lat":43.29591,"lon":5.38131,"is_reserved":false,"is_disabled":true,"rental_uris":{"android":"levelo://app?vid=9be12a09-efe5-495b-8ec3-e7e0d7473370","ios":"levelo://app?vid=9be12a09-efe5-495b-8ec3-e7e0d7473370"},"vehicle_type_id":"4","last_reported":1747588091,"current_range_meters":8400,"station_id":"ce4bgl12rcd13ifvqbo0","pricing_plan_id":"cebpf4jnsgd1na2vs0mg"},{"bike_id":"16a5ba99-b8b8-470d-9bfb-0358e7b6fbc9","system_id":"levelo_inurba_marseille","lat":43.23207,"lon":5.35532,"is_reserved":false,"is_disabled":false,"rental_uris":{"android":"levelo://app?vid=16a5ba99-b8b8-470d-9bfb-0358e7b6fbc9","ios":"levelo://app?vid=16a5ba99-b8b8-470d-9bfb-0358e7b6fbc9"},"vehicle_type_id":"4","last_reported":1747588091,"current_range_meters":8400,"station_id":"ce4bhu92rcd13ifvqi70","pricing_plan_id":"cebpf4jnsgd1na2vs0mg"},{"bike_id":"986c676f-8977-471a-b36e-fc5d4c847250","system_id":"levelo_inurba_marseille","lat":43.29589,"lon":5.38099,"is_reserved":false,"is_disabled":false,"rental_uris":{"android":"levelo://app?vid=986c676f-8977-471a-b36e-fc5d4c847250","ios":"levelo://app?vid=986c676f-8977-471a-b36e-fc5d4c847250"},"vehicle_type_id":"4","last_reported":1747588091,"current_range_meters":8400,"station_id":"ce4bgl12rcd13ifvqbo0","pricing_plan_id":"cebpf4jnsgd1na2vs0mg"},{"bike_id":"f109e061-a07d-449a-9505-f05438bc4cfa","system_id":"levelo_inurba_marseille","lat":43.29526,"lon":5.38547,"is_reserved":false,"is_disabled":false,"rental_uris":{"android":"levelo://app?vid=f109e061-a07d-449a-9505-f05438bc4cfa","ios":"levelo://app?vid=f109e061-a07d-449a-9505-f05438bc4cfa"},"vehicle_type_id":"4","last_reported":1747588091,"current_range_meters":8400,"station_id":"ce4bgih2rcd13ifvqba0","pricing_plan_id":"cebpf4jnsgd1na2vs0mg"},{"bike_id":"93e04f58-d334-4086-9307-b71c81e161c6","system_id":"levelo_inurba_marseille","lat":43.28961,"lon":5.37837,"is_reserved":false,"is_disabled":false,"rental_uris":{"android":"levelo://app?vid=93e04f58-d334-4086-9307-b71c81e161c6","ios":"levelo://app?vid=93e04f58-d334-4086-9307-b71c81e161c6"},"vehicle_type_id":"4","last_reported":1747588091,"current_range_meters":8400,"station_id":"ce4bh9p2rcd13ifvqed0","pricing_plan_id":"cebpf4jnsgd1na2vs0mg"},{"bike_id":"21e9b545-f25e-4c55-aa23-22f7b39c40e4","system_id":"levelo_inurba_marseille","lat":43.24805,"lon":5.37457,"is_reserved":false,"is_disabled":false,"rental_uris":{"android":"levelo://app?vid=21e9b545-f25e-4c55-aa23-22f7b39c40e4","ios":"levelo://app?vid=21e9b545-f25e-4c55-aa23-22f7b39c40e4"},"vehicle_type_id":"4","last_reported":1747588091,"current_range_meters":8800,"station_id":"ce4bhgh2rcd13ifvqfb0","pricing_plan_id":"cebpf4jnsgd1na2vs0mg"},{"bike_id":"940e278e-a3cf-492f-9284-31c352033a53","system_id":"levelo_inurba_marseille","lat":43.29932,"lon":5.36554,"is_reserved":false,"is_disabled":false,"rental_uris":{"android":"levelo://app?vid=940e278e-a3cf-492f-9284-31c352033a53","ios":"levelo://app?vid=940e278e-a3cf-492f-9284-31c352033a53"},"vehicle_type_id":"4","last_reported":1747588091,"current_range_meters":8800,"station_id":"ce4bgm92rcd13ifvqbr0","pricing_plan_id":"cebpf4jnsgd1na2vs0mg"},{"bike_id":"14603e41-b2dd-4757-a53c-2e366aa4f983","system_id":"levelo_inurba_marseille","lat":43.27008,"lon":5.42807,"is_reserved":false,"is_disabled":false,"rental_uris":{"android":"levelo://app?vid=14603e41-b2dd-4757-a53c-2e366aa4f983","ios":"levelo://app?vid=14603e41-b2dd-4757-a53c-2e366aa4f983"},"vehicle_type_id":"4","last_reported":1747588091,"current_range_meters":8800,"station_id":"","pricing_plan_id":"cebpf4jnsgd1na2vs0mg"},{"bike_id":"2eab994d-a378-4391-894b-b62d11a34041","system_id":"levelo_inurba_marseille","lat":43.231501,"lon":5.43746,"is_reserved":false,"is_disabled":true,"rental_uris":{"android":"levelo://app?vid=2eab994d-a378-4391-894b-b62d11a34041","ios":"levelo://app?vid=2eab994d-a378-4391-894b-b62d11a34041"},"vehicle_type_id":"4","last_reported":1747588091,"current_range_meters":9200,"station_id":"ce4bhmp2rcd13ifvqgog","pricing_plan_id":"cebpf4jnsgd1na2vs0mg"},{"bike_id":"66dd256a-8c5c-4515-b0a7-c740c9888c13","system_id":"levelo_inurba_marseille","lat":43.31482,"lon":5.373,"is_reserved":false,"is_disabled":false,"rental_uris":{"android":"levelo://app?vid=66dd256a-8c5c-4515-b0a7-c740c9888c13","ios":"levelo://app?vid=66dd256a-8c5c-4515-b0a7-c740c9888c13"},"vehicle_type_id":"4","last_reported":1747588091,"current_range_meters":9200,"station_id":"ce4bgt12rcd13ifvqcd0","pricing_plan_id":"cebpf4jnsgd1na2vs0mg"},{"bike_id":"77df6591-f701-4d11-be15-12786e500889","system_id":"levelo_inurba_marseille","lat":43.29193,"lon":5.35792,"is_reserved":false,"is_disabled":false,"rental_uris":{"android":"levelo://app?vid=77df6591-f701-4d11-be15-12786e500889","ios":"levelo://app?vid=77df6591-f701-4d11-be15-12786e500889"},"vehicle_type_id":"4","last_reported":1747588091,"current_range_meters":8800,"station_id":"ce4bhb12rcd13ifvqel0","pricing_plan_id":"cebpf4jnsgd1na2vs0mg"},{"bike_id":"72998ece-cd27-44a1-a23e-9addc8633593","system_id":"levelo_inurba_marseille","lat":43.294309,"lon":5.386431,"is_reserved":false,"is_disabled":false,"rental_uris":{"android":"levelo://app?vid=72998ece-cd27-44a1-a23e-9addc8633593","ios":"levelo://app?vid=72998ece-cd27-44a1-a23e-9addc8633593"},"vehicle_type_id":"4","last_reported":1747588091,"current_range_meters":9200,"station_id":"ce4bh2h2rcd13ifvqdh0","pricing_plan_id":"cebpf4jnsgd1na2vs0mg"},{"bike_id":"caf4c81d-8b81-4d8d-a4f9-9d00bac7ad70","system_id":"levelo_inurba_marseille","lat":43.307733,"lon":5.428134,"is_reserved":false,"is_disabled":false,"rental_uris":{"android":"levelo://app?vid=caf4c81d-8b81-4d8d-a4f9-9d00bac7ad70","ios":"levelo://app?vid=caf4c81d-8b81-4d8d-a4f9-9d00bac7ad70"},"vehicle_type_id":"4","last_reported":1747588091,"current_range_meters":9200,"station_id":"","pricing_plan_id":"cebpf4jnsgd1na2vs0mg"},{"bike_id":"34c5c42d-d5ba-4037-b02b-2c6059d040bb","system_id":"levelo_inurba_marseille","lat":43.29025,"lon":5.38139,"is_reserved":false,"is_disabled":false,"rental_uris":{"android":"levelo://app?vid=34c5c42d-d5ba-4037-b02b-2c6059d040bb","ios":"levelo://app?vid=34c5c42d-d5ba-4037-b02b-2c6059d040bb"},"vehicle_type_id":"4","last_reported":1747588091,"current_range_meters":9200,"station_id":"ce4bh4p2rcd13ifvqe1g","pricing_plan_id":"cebpf4jnsgd1na2vs0mg"},{"bike_id":"0a8e3aa3-50ec-4efe-bc7f-a72652261cf7","system_id":"levelo_inurba_marseille","lat":43.24799,"lon":5.3745,"is_reserved":false,"is_disabled":false,"rental_uris":{"android":"levelo://app?vid=0a8e3aa3-50ec-4efe-bc7f-a72652261cf7","ios":"levelo://app?vid=0a8e3aa3-50ec-4efe-bc7f-a72652261cf7"},"vehicle_type_id":"4","last_reported":1747588091,"current_range_meters":9200,"station_id":"ce4bhgh2rcd13ifvqfb0","pricing_plan_id":"cebpf4jnsgd1na2vs0mg"},{"bike_id":"21cd20d6-11f9-4f1f-9f1a-6281996284a7","system_id":"levelo_inurba_marseille","lat":43.30427,"lon":5.38886,"is_reserved":false,"is_disabled":false,"rental_uris":{"android":"levelo://app?vid=21cd20d6-11f9-4f1f-9f1a-6281996284a7","ios":"levelo://app?vid=21cd20d6-11f9-4f1f-9f1a-6281996284a7"},"vehicle_type_id":"4","last_reported":1747588091,"current_range_meters":9200,"station_id":"ce4bgk12rcd13ifvqbi0","pricing_plan_id":"cebpf4jnsgd1na2vs0mg"},{"bike_id":"0ad8e1c3-de41-4c6d-b19f-2a195e854271","system_id":"levelo_inurba_marseille","lat":43.3136,"lon":5.38488,"is_reserved":false,"is_disabled":false,"rental_uris":{"android":"levelo://app?vid=0ad8e1c3-de41-4c6d-b19f-2a195e854271","ios":"levelo://app?vid=0ad8e1c3-de41-4c6d-b19f-2a195e854271"},"vehicle_type_id":"4","last_reported":1747588091,"current_range_meters":9200,"station_id":"ce4bgt92rcd13ifvqcf0","pricing_plan_id":"cebpf4jnsgd1na2vs0mg"},{"bike_id":"7d080336-5a2d-419d-8d50-e49d93450255","system_id":"levelo_inurba_marseille","lat":43.291726,"lon":5.371399,"is_reserved":false,"is_disabled":true,"rental_uris":{"android":"levelo://app?vid=7d080336-5a2d-419d-8d50-e49d93450255","ios":"levelo://app?vid=7d080336-5a2d-419d-8d50-e49d93450255"},"vehicle_type_id":"4","last_reported":1747588091,"current_range_meters":9600,"station_id":"ce4bha92rcd13ifvqeh0","pricing_plan_id":"cebpf4jnsgd1na2vs0mg"},{"bike_id":"88c266e6-7038-494f-b358-90ca603fb435","system_id":"levelo_inurba_marseille","lat":43.295749,"lon":5.374954,"is_reserved":false,"is_disabled":true,"rental_uris":{"android":"levelo://app?vid=88c266e6-7038-494f-b358-90ca603fb435","ios":"levelo://app?vid=88c266e6-7038-494f-b358-90ca603fb435"},"vehicle_type_id":"4","last_reported":1747588091,"current_range_meters":9600,"station_id":"ce4bgh92rcd13ifvqb50","pricing_plan_id":"cebpf4jnsgd1na2vs0mg"},{"bike_id":"61bc4bd7-fb85-40c0-8dfd-50e6be86f400","system_id":"levelo_inurba_marseille","lat":43.30183,"lon":5.36618,"is_reserved":false,"is_disabled":false,"rental_uris":{"android":"levelo://app?vid=61bc4bd7-fb85-40c0-8dfd-50e6be86f400","ios":"levelo://app?vid=61bc4bd7-fb85-40c0-8dfd-50e6be86f400"},"vehicle_type_id":"4","last_reported":1747588091,"current_range_meters":9600,"station_id":"ce4bgrh2rcd13ifvqc8g","pricing_plan_id":"cebpf4jnsgd1na2vs0mg"},{"bike_id":"ffc3ddf2-0082-4578-9e25-c91f5b4279bc","system_id":"levelo_inurba_marseille","lat":43.28316,"lon":5.41115,"is_reserved":false,"is_disabled":false,"rental_uris":{"android":"levelo://app?vid=ffc3ddf2-0082-4578-9e25-c91f5b4279bc","ios":"levelo://app?vid=ffc3ddf2-0082-4578-9e25-c91f5b4279bc"},"vehicle_type_id":"4","last_reported":1747588091,"current_range_meters":9600,"station_id":"","pricing_plan_id":"cebpf4jnsgd1na2vs0mg"},{"bike_id":"bf2f72a7-d52a-4f71-a529-db77322d33b7","system_id":"levelo_inurba_marseille","lat":43.29527,"lon":5.38539,"is_reserved":false,"is_disabled":false,"rental_uris":{"android":"levelo://app?vid=bf2f72a7-d52a-4f71-a529-db77322d33b7","ios":"levelo://app?vid=bf2f72a7-d52a-4f71-a529-db77322d33b7"},"vehicle_type_id":"4","last_reported":1747588091,"current_range_meters":9600,"station_id":"ce4bgih2rcd13ifvqba0","pricing_plan_id":"cebpf4jnsgd1na2vs0mg"},{"bike_id":"ba9bf3b9-e20e-4507-8286-827f71f56677","system_id":"levelo_inurba_marseille","lat":43.28257,"lon":5.35091,"is_reserved":false,"is_disabled":true,"rental_uris":{"android":"levelo://app?vid=ba9bf3b9-e20e-4507-8286-827f71f56677","ios":"levelo://app?vid=ba9bf3b9-e20e-4507-8286-827f71f56677"},"vehicle_type_id":"4","last_reported":1747588091,"current_range_meters":9600,"station_id":"ce4bhbp2rcd13ifvqerg","pricing_plan_id":"cebpf4jnsgd1na2vs0mg"},{"bike_id":"6e1bd625-3ec1-43df-9657-36d71ae09f8d","system_id":"levelo_inurba_marseille","lat":43.33748,"lon":5.37479,"is_reserved":false,"is_disabled":false,"rental_uris":{"android":"levelo://app?vid=6e1bd625-3ec1-43df-9657-36d71ae09f8d","ios":"levelo://app?vid=6e1bd625-3ec1-43df-9657-36d71ae09f8d"},"vehicle_type_id":"4","last_reported":1747588091,"current_range_meters":9600,"station_id":"","pricing_plan_id":"cebpf4jnsgd1na2vs0mg"},{"bike_id":"5a9ea7d5-d7d1-4582-8482-33c698b2d2e3","system_id":"levelo_inurba_marseille","lat":43.3247,"lon":5.36561,"is_reserved":false,"is_disabled":false,"rental_uris":{"android":"levelo://app?vid=5a9ea7d5-d7d1-4582-8482-33c698b2d2e3","ios":"levelo://app?vid=5a9ea7d5-d7d1-4582-8482-33c698b2d2e3"},"vehicle_type_id":"4","last_reported":1747588091,"current_range_meters":9600,"station_id":"ce4bhs12rcd13ifvqhvg","pricing_plan_id":"cebpf4jnsgd1na2vs0mg"},{"bike_id":"790a1261-73d8-4ca5-889f-95f060577cc1","system_id":"levelo_inurba_marseille","lat":43.2941,"lon":5.38629,"is_reserved":false,"is_disabled":false,"rental_uris":{"android":"levelo://app?vid=790a1261-73d8-4ca5-889f-95f060577cc1","ios":"levelo://app?vid=790a1261-73d8-4ca5-889f-95f060577cc1"},"vehicle_type_id":"4","last_reported":1747588091,"current_range_meters":10000,"station_id":"ce4bh2h2rcd13ifvqdh0","pricing_plan_id":"cebpf4jnsgd1na2vs0mg"},{"bike_id":"67f72f62-eb9d-4994-bbcf-c10b28dd838c","system_id":"levelo_inurba_marseille","lat":43.26606,"lon":5.39341,"is_reserved":false,"is_disabled":false,"rental_uris":{"android":"levelo://app?vid=67f72f62-eb9d-4994-bbcf-c10b28dd838c","ios":"levelo://app?vid=67f72f62-eb9d-4994-bbcf-c10b28dd838c"},"vehicle_type_id":"4","last_reported":1747588091,"current_range_meters":10000,"station_id":"","pricing_plan_id":"cebpf4jnsgd1na2vs0mg"},{"bike_id":"85390568-dab6-434b-96a6-a6ce4cab7e57","system_id":"levelo_inurba_marseille","lat":43.27057,"lon":5.40258,"is_reserved":false,"is_disabled":false,"rental_uris":{"android":"levelo://app?vid=85390568-dab6-434b-96a6-a6ce4cab7e57","ios":"levelo://app?vid=85390568-dab6-434b-96a6-a6ce4cab7e57"},"vehicle_type_id":"4","last_reported":1747588091,"current_range_meters":10000,"station_id":"ce4bhk92rcd13ifvqgc0","pricing_plan_id":"cebpf4jnsgd1na2vs0mg"},{"bike_id":"fa921721-3591-411d-94b2-675ea4db1dab","system_id":"levelo_inurba_marseille","lat":43.30212,"lon":5.39472,"is_reserved":false,"is_disabled":false,"rental_uris":{"android":"levelo://app?vid=fa921721-3591-411d-94b2-675ea4db1dab","ios":"levelo://app?vid=fa921721-3591-411d-94b2-675ea4db1dab"},"vehicle_type_id":"4","last_reported":1747588091,"current_range_meters":10000,"station_id":"ce4bh0p2rcd13ifvqd70","pricing_plan_id":"cebpf4jnsgd1na2vs0mg"},{"bike_id":"779a0a7c-a796-451b-b1e6-5bfa5a002afd","system_id":"levelo_inurba_marseille","lat":43.275301,"lon":5.423941,"is_reserved":false,"is_disabled":false,"rental_uris":{"android":"levelo://app?vid=779a0a7c-a796-451b-b1e6-5bfa5a002afd","ios":"levelo://app?vid=779a0a7c-a796-451b-b1e6-5bfa5a002afd"},"vehicle_type_id":"4","last_reported":1747588091,"current_range_meters":10000,"station_id":"ce4bhn92rcd13ifvqgrg","pricing_plan_id":"cebpf4jnsgd1na2vs0mg"},{"bike_id":"1b2f0e19-c9dc-4000-8367-67c619535c14","system_id":"levelo_inurba_marseille","lat":43.299448,"lon":5.365254,"is_reserved":false,"is_disabled":true,"rental_uris":{"android":"levelo://app?vid=1b2f0e19-c9dc-4000-8367-67c619535c14","ios":"levelo://app?vid=1b2f0e19-c9dc-4000-8367-67c619535c14"},"vehicle_type_id":"4","last_reported":1747588091,"current_range_meters":10000,"station_id":"ce4bgm92rcd13ifvqbr0","pricing_plan_id":"cebpf4jnsgd1na2vs0mg"},{"bike_id":"9b55a1e0-14da-4879-90dc-b321de5c8345","system_id":"levelo_inurba_marseille","lat":43.297788,"lon":5.381128,"is_reserved":false,"is_disabled":true,"rental_uris":{"android":"levelo://app?vid=9b55a1e0-14da-4879-90dc-b321de5c8345","ios":"levelo://app?vid=9b55a1e0-14da-4879-90dc-b321de5c8345"},"vehicle_type_id":"4","last_reported":1747588091,"current_range_meters":10000,"station_id":"ce4bgip2rcd13ifvqbb0","pricing_plan_id":"cebpf4jnsgd1na2vs0mg"},{"bike_id":"c608898e-58b6-42f7-903a-6008119c7a64","system_id":"levelo_inurba_marseille","lat":43.24125,"lon":5.37751,"is_reserved":false,"is_disabled":false,"rental_uris":{"android":"levelo://app?vid=c608898e-58b6-42f7-903a-6008119c7a64","ios":"levelo://app?vid=c608898e-58b6-42f7-903a-6008119c7a64"},"vehicle_type_id":"4","last_reported":1747588091,"current_range_meters":10000,"station_id":"ce4bhnp2rcd13ifvqgvg","pricing_plan_id":"cebpf4jnsgd1na2vs0mg"},{"bike_id":"fb54163f-2cac-4ba2-8a7a-f6f202b1f889","system_id":"levelo_inurba_marseille","lat":43.3148,"lon":5.37311,"is_reserved":false,"is_disabled":false,"rental_uris":{"android":"levelo://app?vid=fb54163f-2cac-4ba2-8a7a-f6f202b1f889","ios":"levelo://app?vid=fb54163f-2cac-4ba2-8a7a-f6f202b1f889"},"vehicle_type_id":"4","last_reported":1747588091,"current_range_meters":10800,"station_id":"ce4bgt12rcd13ifvqcd0","pricing_plan_id":"cebpf4jnsgd1na2vs0mg"},{"bike_id":"29d01de0-d43a-485a-8e6a-bb531f652b1d","system_id":"levelo_inurba_marseille","lat":43.26782,"lon":5.39417,"is_reserved":false,"is_disabled":false,"rental_uris":{"android":"levelo://app?vid=29d01de0-d43a-485a-8e6a-bb531f652b1d","ios":"levelo://app?vid=29d01de0-d43a-485a-8e6a-bb531f652b1d"},"vehicle_type_id":"4","last_reported":1747588091,"current_range_meters":10000,"station_id":"ce4bhh12rcd13ifvqfg0","pricing_plan_id":"cebpf4jnsgd1na2vs0mg"},{"bike_id":"a1dbb4f0-633e-4736-8d12-49908eaa7cfe","system_id":"levelo_inurba_marseille","lat":43.29257,"lon":5.38431,"is_reserved":false,"is_disabled":false,"rental_uris":{"android":"levelo://app?vid=a1dbb4f0-633e-4736-8d12-49908eaa7cfe","ios":"levelo://app?vid=a1dbb4f0-633e-4736-8d12-49908eaa7cfe"},"vehicle_type_id":"4","last_reported":1747588091,"current_range_meters":10800,"station_id":"ce4bh692rcd13ifvqea0","pricing_plan_id":"cebpf4jnsgd1na2vs0mg"},{"bike_id":"a2b18651-377f-48c6-9fe2-ff095ba7281a","system_id":"levelo_inurba_marseille","lat":43.29024,"lon":5.38653,"is_reserved":false,"is_disabled":false,"rental_uris":{"android":"levelo://app?vid=a2b18651-377f-48c6-9fe2-ff095ba7281a","ios":"levelo://app?vid=a2b18651-377f-48c6-9fe2-ff095ba7281a"},"vehicle_type_id":"4","last_reported":1747588091,"current_range_meters":10800,"station_id":"ce4bh4p2rcd13ifvqe0g","pricing_plan_id":"cebpf4jnsgd1na2vs0mg"},{"bike_id":"c8a5d6c1-751c-4a1c-abe9-3b81472d44ab","system_id":"levelo_inurba_marseille","lat":43.211875,"lon":5.350928,"is_reserved":false,"is_disabled":false,"rental_uris":{"android":"levelo://app?vid=c8a5d6c1-751c-4a1c-abe9-3b81472d44ab","ios":"levelo://app?vid=c8a5d6c1-751c-4a1c-abe9-3b81472d44ab"},"vehicle_type_id":"4","last_reported":1747588091,"current_range_meters":10800,"station_id":"st_cvj6sg6p6f1abm77japg","pricing_plan_id":"cebpf4jnsgd1na2vs0mg"},{"bike_id":"a818b138-3b95-41d4-8b5d-1cf50a827290","system_id":"levelo_inurba_marseille","lat":43.3265,"lon":5.40989,"is_reserved":false,"is_disabled":false,"rental_uris":{"android":"levelo://app?vid=a818b138-3b95-41d4-8b5d-1cf50a827290","ios":"levelo://app?vid=a818b138-3b95-41d4-8b5d-1cf50a827290"},"vehicle_type_id":"4","last_reported":1747588091,"current_range_meters":10800,"station_id":"ce4bhpp2rcd13ifvqhgg","pricing_plan_id":"cebpf4jnsgd1na2vs0mg"},{"bike_id":"8c1358ab-eac1-4c80-9f48-a739214cfa6d","system_id":"levelo_inurba_marseille","lat":43.28152,"lon":5.42643,"is_reserved":false,"is_disabled":false,"rental_uris":{"android":"levelo://app?vid=8c1358ab-eac1-4c80-9f48-a739214cfa6d","ios":"levelo://app?vid=8c1358ab-eac1-4c80-9f48-a739214cfa6d"},"vehicle_type_id":"4","last_reported":1747588091,"current_range_meters":10800,"station_id":"ce4bhnh2rcd13ifvqgug","pricing_plan_id":"cebpf4jnsgd1na2vs0mg"},{"bike_id":"8de85c7f-d405-4d01-9c9a-a7a03455f6b5","system_id":"levelo_inurba_marseille","lat":43.24996,"lon":5.38929,"is_reserved":false,"is_disabled":false,"rental_uris":{"android":"levelo://app?vid=8de85c7f-d405-4d01-9c9a-a7a03455f6b5","ios":"levelo://app?vid=8de85c7f-d405-4d01-9c9a-a7a03455f6b5"},"vehicle_type_id":"4","last_reported":1747588091,"current_range_meters":10800,"station_id":"ce4bhgp2rcd13ifvqfd0","pricing_plan_id":"cebpf4jnsgd1na2vs0mg"},{"bike_id":"06fb6274-c887-4ce8-9273-400ecb3aef67","system_id":"levelo_inurba_marseille","lat":43.28421,"lon":5.45984,"is_reserved":false,"is_disabled":false,"rental_uris":{"android":"levelo://app?vid=06fb6274-c887-4ce8-9273-400ecb3aef67","ios":"levelo://app?vid=06fb6274-c887-4ce8-9273-400ecb3aef67"},"vehicle_type_id":"4","last_reported":1747588091,"current_range_meters":10800,"station_id":"","pricing_plan_id":"cebpf4jnsgd1na2vs0mg"},{"bike_id":"4745dd8b-a0b2-49db-b417-8a28eecc51d4","system_id":"levelo_inurba_marseille","lat":43.24332,"lon":5.3799,"is_reserved":false,"is_disabled":false,"rental_uris":{"android":"levelo://app?vid=4745dd8b-a0b2-49db-b417-8a28eecc51d4","ios":"levelo://app?vid=4745dd8b-a0b2-49db-b417-8a28eecc51d4"},"vehicle_type_id":"4","last_reported":1747588091,"current_range_meters":10800,"station_id":"","pricing_plan_id":"cebpf4jnsgd1na2vs0mg"},{"bike_id":"db750047-84a3-4b4f-a77e-7d09f78278b0","system_id":"levelo_inurba_marseille","lat":43.24078,"lon":5.37754,"is_reserved":false,"is_disabled":false,"rental_uris":{"android":"levelo://app?vid=db750047-84a3-4b4f-a77e-7d09f78278b0","ios":"levelo://app?vid=db750047-84a3-4b4f-a77e-7d09f78278b0"},"vehicle_type_id":"4","last_reported":1747588091,"current_range_meters":10800,"station_id":"ce4bhnp2rcd13ifvqgvg","pricing_plan_id":"cebpf4jnsgd1na2vs0mg"},{"bike_id":"6ee7001e-07ad-49d2-9902-4e2095457f59","system_id":"levelo_inurba_marseille","lat":43.27113,"lon":5.42266,"is_reserved":false,"is_disabled":true,"rental_uris":{"android":"levelo://app?vid=6ee7001e-07ad-49d2-9902-4e2095457f59","ios":"levelo://app?vid=6ee7001e-07ad-49d2-9902-4e2095457f59"},"vehicle_type_id":"4","last_reported":1747588091,"current_range_meters":11200,"station_id":"ce4bhk92rcd13ifvqgb0","pricing_plan_id":"cebpf4jnsgd1na2vs0mg"},{"bike_id":"965d067e-cf58-4ab7-9679-cd31e2b9edbc","system_id":"levelo_inurba_marseille","lat":43.22927,"lon":5.35387,"is_reserved":false,"is_disabled":false,"rental_uris":{"android":"levelo://app?vid=965d067e-cf58-4ab7-9679-cd31e2b9edbc","ios":"levelo://app?vid=965d067e-cf58-4ab7-9679-cd31e2b9edbc"},"vehicle_type_id":"4","last_reported":1747588091,"current_range_meters":11200,"station_id":"cpo3532slgdg3j2ikp40","pricing_plan_id":"cebpf4jnsgd1na2vs0mg"},{"bike_id":"1aca9f01-e595-4da3-a4d1-84a3340de2fa","system_id":"levelo_inurba_marseille","lat":43.290283,"lon":5.375351,"is_reserved":false,"is_disabled":false,"rental_uris":{"android":"levelo://app?vid=1aca9f01-e595-4da3-a4d1-84a3340de2fa","ios":"levelo://app?vid=1aca9f01-e595-4da3-a4d1-84a3340de2fa"},"vehicle_type_id":"4","last_reported":1747588091,"current_range_meters":11200,"station_id":"ce4bh692rcd13ifvqe90","pricing_plan_id":"cebpf4jnsgd1na2vs0mg"},{"bike_id":"90d8e992-27ba-4828-be86-218d4e6320aa","system_id":"levelo_inurba_marseille","lat":43.27176,"lon":5.409876,"is_reserved":false,"is_disabled":false,"rental_uris":{"android":"levelo://app?vid=90d8e992-27ba-4828-be86-218d4e6320aa","ios":"levelo://app?vid=90d8e992-27ba-4828-be86-218d4e6320aa"},"vehicle_type_id":"4","last_reported":1747588091,"current_range_meters":11200,"station_id":"ce4bhl12rcd13ifvqgf0","pricing_plan_id":"cebpf4jnsgd1na2vs0mg"},{"bike_id":"bc33ee48-d76d-4fe6-9894-3eefe725e366","system_id":"levelo_inurba_marseille","lat":43.29526,"lon":5.38544,"is_reserved":false,"is_disabled":false,"rental_uris":{"android":"levelo://app?vid=bc33ee48-d76d-4fe6-9894-3eefe725e366","ios":"levelo://app?vid=bc33ee48-d76d-4fe6-9894-3eefe725e366"},"vehicle_type_id":"4","last_reported":1747588091,"current_range_meters":11200,"station_id":"ce4bgih2rcd13ifvqba0","pricing_plan_id":"cebpf4jnsgd1na2vs0mg"},{"bike_id":"4a818841-00a0-4f47-b7ac-6cf85ef4a34e","system_id":"levelo_inurba_marseille","lat":43.22923,"lon":5.35372,"is_reserved":false,"is_disabled":false,"rental_uris":{"android":"levelo://app?vid=4a818841-00a0-4f47-b7ac-6cf85ef4a34e","ios":"levelo://app?vid=4a818841-00a0-4f47-b7ac-6cf85ef4a34e"},"vehicle_type_id":"4","last_reported":1747588091,"current_range_meters":11600,"station_id":"cpo3532slgdg3j2ikp40","pricing_plan_id":"cebpf4jnsgd1na2vs0mg"},{"bike_id":"bf51cd5f-4321-4268-a679-3afd39d51b9c","system_id":"levelo_inurba_marseille","lat":43.24652,"lon":5.38889,"is_reserved":false,"is_disabled":false,"rental_uris":{"android":"levelo://app?vid=bf51cd5f-4321-4268-a679-3afd39d51b9c","ios":"levelo://app?vid=bf51cd5f-4321-4268-a679-3afd39d51b9c"},"vehicle_type_id":"4","last_reported":1747588091,"current_range_meters":11600,"station_id":"ce4bhg12rcd13ifvqf60","pricing_plan_id":"cebpf4jnsgd1na2vs0mg"},{"bike_id":"bc39ceaa-fc45-4bc8-8f13-319b5577d89a","system_id":"levelo_inurba_marseille","lat":43.294139,"lon":5.386619,"is_reserved":false,"is_disabled":false,"rental_uris":{"android":"levelo://app?vid=bc39ceaa-fc45-4bc8-8f13-319b5577d89a","ios":"levelo://app?vid=bc39ceaa-fc45-4bc8-8f13-319b5577d89a"},"vehicle_type_id":"4","last_reported":1747588091,"current_range_meters":11600,"station_id":"ce4bh2h2rcd13ifvqdh0","pricing_plan_id":"cebpf4jnsgd1na2vs0mg"},{"bike_id":"86e48878-e91e-4f4a-8f28-3f2a8f384ed0","system_id":"levelo_inurba_marseille","lat":43.29277,"lon":5.37623,"is_reserved":false,"is_disabled":false,"rental_uris":{"android":"levelo://app?vid=86e48878-e91e-4f4a-8f28-3f2a8f384ed0","ios":"levelo://app?vid=86e48878-e91e-4f4a-8f28-3f2a8f384ed0"},"vehicle_type_id":"4","last_reported":1747588091,"current_range_meters":11600,"station_id":"ce4bgi12rcd13ifvqb80","pricing_plan_id":"cebpf4jnsgd1na2vs0mg"},{"bike_id":"134ef50e-3e23-4c22-9c63-830b8e50fff0","system_id":"levelo_inurba_marseille","lat":43.28463,"lon":5.35883,"is_reserved":false,"is_disabled":false,"rental_uris":{"android":"levelo://app?vid=134ef50e-3e23-4c22-9c63-830b8e50fff0","ios":"levelo://app?vid=134ef50e-3e23-4c22-9c63-830b8e50fff0"},"vehicle_type_id":"4","last_reported":1747588091,"current_range_meters":11200,"station_id":"ce4bhah2rcd13ifvqei0","pricing_plan_id":"cebpf4jnsgd1na2vs0mg"},{"bike_id":"db6c3202-7c65-4909-a3a3-7e596f77edeb","system_id":"levelo_inurba_marseille","lat":43.29934,"lon":5.36553,"is_reserved":false,"is_disabled":false,"rental_uris":{"android":"levelo://app?vid=db6c3202-7c65-4909-a3a3-7e596f77edeb","ios":"levelo://app?vid=db6c3202-7c65-4909-a3a3-7e596f77edeb"},"vehicle_type_id":"4","last_reported":1747588091,"current_range_meters":11600,"station_id":"ce4bgm92rcd13ifvqbr0","pricing_plan_id":"cebpf4jnsgd1na2vs0mg"},{"bike_id":"b26a0dd7-cbdc-4ab7-8def-31c4b88b224a","system_id":"levelo_inurba_marseille","lat":43.31221,"lon":5.39252,"is_reserved":false,"is_disabled":false,"rental_uris":{"android":"levelo://app?vid=b26a0dd7-cbdc-4ab7-8def-31c4b88b224a","ios":"levelo://app?vid=b26a0dd7-cbdc-4ab7-8def-31c4b88b224a"},"vehicle_type_id":"4","last_reported":1747588091,"current_range_meters":12000,"station_id":"","pricing_plan_id":"cebpf4jnsgd1na2vs0mg"},{"bike_id":"51a33848-f0f0-40ec-b6c6-8948c992d932","system_id":"levelo_inurba_marseille","lat":43.25095,"lon":5.3951,"is_reserved":false,"is_disabled":false,"rental_uris":{"android":"levelo://app?vid=51a33848-f0f0-40ec-b6c6-8948c992d932","ios":"levelo://app?vid=51a33848-f0f0-40ec-b6c6-8948c992d932"},"vehicle_type_id":"4","last_reported":1747588091,"current_range_meters":12000,"station_id":"ce4bhm12rcd13ifvqgkg","pricing_plan_id":"cebpf4jnsgd1na2vs0mg"},{"bike_id":"e8c092b6-ea1e-49b4-86f2-ae6140f06f6f","system_id":"levelo_inurba_marseille","lat":43.289192,"lon":5.383954,"is_reserved":false,"is_disabled":true,"rental_uris":{"android":"levelo://app?vid=e8c092b6-ea1e-49b4-86f2-ae6140f06f6f","ios":"levelo://app?vid=e8c092b6-ea1e-49b4-86f2-ae6140f06f6f"},"vehicle_type_id":"4","last_reported":1747588091,"current_range_meters":12000,"station_id":"","pricing_plan_id":"cebpf4jnsgd1na2vs0mg"},{"bike_id":"87c90254-ceb8-42e2-a027-40028200d0a5","system_id":"levelo_inurba_marseille","lat":43.31693,"lon":5.37779,"is_reserved":false,"is_disabled":false,"rental_uris":{"android":"levelo://app?vid=87c90254-ceb8-42e2-a027-40028200d0a5","ios":"levelo://app?vid=87c90254-ceb8-42e2-a027-40028200d0a5"},"vehicle_type_id":"4","last_reported":1747588091,"current_range_meters":12400,"station_id":"","pricing_plan_id":"cebpf4jnsgd1na2vs0mg"},{"bike_id":"2f5e7a4c-6cf7-4b17-a3a0-99bd844946eb","system_id":"levelo_inurba_marseille","lat":43.29264,"lon":5.38433,"is_reserved":false,"is_disabled":false,"rental_uris":{"android":"levelo://app?vid=2f5e7a4c-6cf7-4b17-a3a0-99bd844946eb","ios":"levelo://app?vid=2f5e7a4c-6cf7-4b17-a3a0-99bd844946eb"},"vehicle_type_id":"4","last_reported":1747588091,"current_range_meters":12400,"station_id":"ce4bh692rcd13ifvqea0","pricing_plan_id":"cebpf4jnsgd1na2vs0mg"},{"bike_id":"14a46717-d96f-4c01-b62b-8ebe86eebf74","system_id":"levelo_inurba_marseille","lat":43.29606,"lon":5.37722,"is_reserved":false,"is_disabled":false,"rental_uris":{"android":"levelo://app?vid=14a46717-d96f-4c01-b62b-8ebe86eebf74","ios":"levelo://app?vid=14a46717-d96f-4c01-b62b-8ebe86eebf74"},"vehicle_type_id":"4","last_reported":1747588091,"current_range_meters":12000,"station_id":"ce4bgi92rcd13ifvqb90","pricing_plan_id":"cebpf4jnsgd1na2vs0mg"},{"bike_id":"afb0d643-ecf0-4733-ab26-d82533da5d67","system_id":"levelo_inurba_marseille","lat":43.29598,"lon":5.38103,"is_reserved":false,"is_disabled":false,"rental_uris":{"android":"levelo://app?vid=afb0d643-ecf0-4733-ab26-d82533da5d67","ios":"levelo://app?vid=afb0d643-ecf0-4733-ab26-d82533da5d67"},"vehicle_type_id":"4","last_reported":1747588091,"current_range_meters":12400,"station_id":"ce4bgl12rcd13ifvqbo0","pricing_plan_id":"cebpf4jnsgd1na2vs0mg"},{"bike_id":"278ccf48-bc40-40a2-9e40-44c6a4e1f787","system_id":"levelo_inurba_marseille","lat":43.308083,"lon":5.369876,"is_reserved":false,"is_disabled":false,"rental_uris":{"android":"levelo://app?vid=278ccf48-bc40-40a2-9e40-44c6a4e1f787","ios":"levelo://app?vid=278ccf48-bc40-40a2-9e40-44c6a4e1f787"},"vehicle_type_id":"4","last_reported":1747588091,"current_range_meters":12400,"station_id":"","pricing_plan_id":"cebpf4jnsgd1na2vs0mg"},{"bike_id":"36f54ac8-e8cc-4a85-894c-acf655f9aa43","system_id":"levelo_inurba_marseille","lat":43.29194,"lon":5.39322,"is_reserved":false,"is_disabled":false,"rental_uris":{"android":"levelo://app?vid=36f54ac8-e8cc-4a85-894c-acf655f9aa43","ios":"levelo://app?vid=36f54ac8-e8cc-4a85-894c-acf655f9aa43"},"vehicle_type_id":"4","last_reported":1747588091,"current_range_meters":12400,"station_id":"ce4bh192rcd13ifvqdd0","pricing_plan_id":"cebpf4jnsgd1na2vs0mg"},{"bike_id":"d8da70fb-a079-460a-9e23-65ed45fe0088","system_id":"levelo_inurba_marseille","lat":43.25507,"lon":5.3765,"is_reserved":false,"is_disabled":true,"rental_uris":{"android":"levelo://app?vid=d8da70fb-a079-460a-9e23-65ed45fe0088","ios":"levelo://app?vid=d8da70fb-a079-460a-9e23-65ed45fe0088"},"vehicle_type_id":"4","last_reported":1747588091,"current_range_meters":12800,"station_id":"ce4bhh12rcd13ifvqff0","pricing_plan_id":"cebpf4jnsgd1na2vs0mg"},{"bike_id":"e3b78554-4d24-4011-be37-94a8a7d4a2fb","system_id":"levelo_inurba_marseille","lat":43.26481,"lon":5.39547,"is_reserved":false,"is_disabled":true,"rental_uris":{"android":"levelo://app?vid=e3b78554-4d24-4011-be37-94a8a7d4a2fb","ios":"levelo://app?vid=e3b78554-4d24-4011-be37-94a8a7d4a2fb"},"vehicle_type_id":"4","last_reported":1747588091,"current_range_meters":12800,"station_id":"ce4bhi12rcd13ifvqfq0","pricing_plan_id":"cebpf4jnsgd1na2vs0mg"},{"bike_id":"e31fb3d3-1275-4809-a453-a28a113104ff","system_id":"levelo_inurba_marseille","lat":43.29264,"lon":5.38429,"is_reserved":false,"is_disabled":false,"rental_uris":{"android":"levelo://app?vid=e31fb3d3-1275-4809-a453-a28a113104ff","ios":"levelo://app?vid=e31fb3d3-1275-4809-a453-a28a113104ff"},"vehicle_type_id":"4","last_reported":1747588091,"current_range_meters":12800,"station_id":"ce4bh692rcd13ifvqea0","pricing_plan_id":"cebpf4jnsgd1na2vs0mg"},{"bike_id":"51736835-8128-4840-b526-bf33d386a6e7","system_id":"levelo_inurba_marseille","lat":43.29907,"lon":5.43627,"is_reserved":false,"is_disabled":true,"rental_uris":{"android":"levelo://app?vid=51736835-8128-4840-b526-bf33d386a6e7","ios":"levelo://app?vid=51736835-8128-4840-b526-bf33d386a6e7"},"vehicle_type_id":"4","last_reported":1747588091,"current_range_meters":12800,"station_id":"ce4bhpp2rcd13ifvqhfg","pricing_plan_id":"cebpf4jnsgd1na2vs0mg"},{"bike_id":"814e2930-a412-47af-849d-26da2abc07f6","system_id":"levelo_inurba_marseille","lat":43.27809,"lon":5.40716,"is_reserved":false,"is_disabled":true,"rental_uris":{"android":"levelo://app?vid=814e2930-a412-47af-849d-26da2abc07f6","ios":"levelo://app?vid=814e2930-a412-47af-849d-26da2abc07f6"},"vehicle_type_id":"4","last_reported":1747588091,"current_range_meters":12800,"station_id":"ce4bhnh2rcd13ifvqgtg","pricing_plan_id":"cebpf4jnsgd1na2vs0mg"},{"bike_id":"bfe2616a-ffe2-4507-a00a-544cad85d2ea","system_id":"levelo_inurba_marseille","lat":43.28216,"lon":5.3907,"is_reserved":false,"is_disabled":false,"rental_uris":{"android":"levelo://app?vid=bfe2616a-ffe2-4507-a00a-544cad85d2ea","ios":"levelo://app?vid=bfe2616a-ffe2-4507-a00a-544cad85d2ea"},"vehicle_type_id":"4","last_reported":1747588091,"current_range_meters":13600,"station_id":"","pricing_plan_id":"cebpf4jnsgd1na2vs0mg"},{"bike_id":"71350df0-6937-4577-babe-b593dea14fe0","system_id":"levelo_inurba_marseille","lat":43.291989,"lon":5.393252,"is_reserved":false,"is_disabled":false,"rental_uris":{"android":"levelo://app?vid=71350df0-6937-4577-babe-b593dea14fe0","ios":"levelo://app?vid=71350df0-6937-4577-babe-b593dea14fe0"},"vehicle_type_id":"4","last_reported":1747588091,"current_range_meters":13600,"station_id":"ce4bh192rcd13ifvqdd0","pricing_plan_id":"cebpf4jnsgd1na2vs0mg"},{"bike_id":"a85be539-0282-4f5c-add7-ff454bb1404c","system_id":"levelo_inurba_marseille","lat":43.27914,"lon":5.39578,"is_reserved":false,"is_disabled":false,"rental_uris":{"android":"levelo://app?vid=a85be539-0282-4f5c-add7-ff454bb1404c","ios":"levelo://app?vid=a85be539-0282-4f5c-add7-ff454bb1404c"},"vehicle_type_id":"4","last_reported":1747588091,"current_range_meters":13600,"station_id":"ce4bhf92rcd13ifvqf40","pricing_plan_id":"cebpf4jnsgd1na2vs0mg"},{"bike_id":"f382231e-ff6f-4281-8b87-17f66e993321","system_id":"levelo_inurba_marseille","lat":43.23196,"lon":5.35553,"is_reserved":false,"is_disabled":false,"rental_uris":{"android":"levelo://app?vid=f382231e-ff6f-4281-8b87-17f66e993321","ios":"levelo://app?vid=f382231e-ff6f-4281-8b87-17f66e993321"},"vehicle_type_id":"4","last_reported":1747588091,"current_range_meters":13600,"station_id":"ce4bhu92rcd13ifvqi70","pricing_plan_id":"cebpf4jnsgd1na2vs0mg"},{"bike_id":"16fee1e4-83e7-4224-b0c6-3620f513c8a2","system_id":"levelo_inurba_marseille","lat":43.2942,"lon":5.3862,"is_reserved":false,"is_disabled":false,"rental_uris":{"android":"levelo://app?vid=16fee1e4-83e7-4224-b0c6-3620f513c8a2","ios":"levelo://app?vid=16fee1e4-83e7-4224-b0c6-3620f513c8a2"},"vehicle_type_id":"4","last_reported":1747588091,"current_range_meters":13600,"station_id":"ce4bh2h2rcd13ifvqdh0","pricing_plan_id":"cebpf4jnsgd1na2vs0mg"},{"bike_id":"12c4d802-2c6a-4c71-888e-000ffe312a3f","system_id":"levelo_inurba_marseille","lat":43.32363,"lon":5.36765,"is_reserved":false,"is_disabled":false,"rental_uris":{"android":"levelo://app?vid=12c4d802-2c6a-4c71-888e-000ffe312a3f","ios":"levelo://app?vid=12c4d802-2c6a-4c71-888e-000ffe312a3f"},"vehicle_type_id":"4","last_reported":1747588091,"current_range_meters":13600,"station_id":"ce4bhsh2rcd13ifvqi2g","pricing_plan_id":"cebpf4jnsgd1na2vs0mg"},{"bike_id":"17afb96c-350e-46e5-af51-5edb99978c02","system_id":"levelo_inurba_marseille","lat":43.29413,"lon":5.38627,"is_reserved":false,"is_disabled":false,"rental_uris":{"android":"levelo://app?vid=17afb96c-350e-46e5-af51-5edb99978c02","ios":"levelo://app?vid=17afb96c-350e-46e5-af51-5edb99978c02"},"vehicle_type_id":"4","last_reported":1747588091,"current_range_meters":13600,"station_id":"ce4bh2h2rcd13ifvqdh0","pricing_plan_id":"cebpf4jnsgd1na2vs0mg"},{"bike_id":"e819e2a8-b20d-4560-b40d-d4f474417c35","system_id":"levelo_inurba_marseille","lat":43.29188,"lon":5.3932,"is_reserved":false,"is_disabled":false,"rental_uris":{"android":"levelo://app?vid=e819e2a8-b20d-4560-b40d-d4f474417c35","ios":"levelo://app?vid=e819e2a8-b20d-4560-b40d-d4f474417c35"},"vehicle_type_id":"4","last_reported":1747588091,"current_range_meters":13600,"station_id":"ce4bh192rcd13ifvqdd0","pricing_plan_id":"cebpf4jnsgd1na2vs0mg"},{"bike_id":"5c1cfafc-efda-4c44-a512-0b0d7a09f432","system_id":"levelo_inurba_marseille","lat":43.27216,"lon":5.39183,"is_reserved":false,"is_disabled":true,"rental_uris":{"android":"levelo://app?vid=5c1cfafc-efda-4c44-a512-0b0d7a09f432","ios":"levelo://app?vid=5c1cfafc-efda-4c44-a512-0b0d7a09f432"},"vehicle_type_id":"4","last_reported":1747588091,"current_range_meters":14000,"station_id":"ce4bhhp2rcd13ifvqfm0","pricing_plan_id":"cebpf4jnsgd1na2vs0mg"},{"bike_id":"356b2829-3ca0-4f70-8f78-46e79da913e0","system_id":"levelo_inurba_marseille","lat":43.28151,"lon":5.42645,"is_reserved":false,"is_disabled":false,"rental_uris":{"android":"levelo://app?vid=356b2829-3ca0-4f70-8f78-46e79da913e0","ios":"levelo://app?vid=356b2829-3ca0-4f70-8f78-46e79da913e0"},"vehicle_type_id":"4","last_reported":1747588091,"current_range_meters":14000,"station_id":"ce4bhnh2rcd13ifvqgug","pricing_plan_id":"cebpf4jnsgd1na2vs0mg"},{"bike_id":"3a39b537-a258-4b29-8ed0-73888c6f3c54","system_id":"levelo_inurba_marseille","lat":43.30426,"lon":5.38889,"is_reserved":false,"is_disabled":false,"rental_uris":{"android":"levelo://app?vid=3a39b537-a258-4b29-8ed0-73888c6f3c54","ios":"levelo://app?vid=3a39b537-a258-4b29-8ed0-73888c6f3c54"},"vehicle_type_id":"4","last_reported":1747588091,"current_range_meters":14000,"station_id":"ce4bgk12rcd13ifvqbi0","pricing_plan_id":"cebpf4jnsgd1na2vs0mg"},{"bike_id":"4e226aff-cee9-43f3-800d-074a07184a90","system_id":"levelo_inurba_marseille","lat":43.32304,"lon":5.38276,"is_reserved":false,"is_disabled":false,"rental_uris":{"android":"levelo://app?vid=4e226aff-cee9-43f3-800d-074a07184a90","ios":"levelo://app?vid=4e226aff-cee9-43f3-800d-074a07184a90"},"vehicle_type_id":"4","last_reported":1747588091,"current_range_meters":14000,"station_id":"ce4bhr12rcd13ifvqhqg","pricing_plan_id":"cebpf4jnsgd1na2vs0mg"},{"bike_id":"c33f6562-2e9a-4d7f-a016-4927115f29b8","system_id":"levelo_inurba_marseille","lat":43.29258,"lon":5.38432,"is_reserved":false,"is_disabled":false,"rental_uris":{"android":"levelo://app?vid=c33f6562-2e9a-4d7f-a016-4927115f29b8","ios":"levelo://app?vid=c33f6562-2e9a-4d7f-a016-4927115f29b8"},"vehicle_type_id":"4","last_reported":1747588091,"current_range_meters":14000,"station_id":"ce4bh692rcd13ifvqea0","pricing_plan_id":"cebpf4jnsgd1na2vs0mg"},{"bike_id":"5de457e8-3ef9-4e8e-8cf0-6a8bd1c17844","system_id":"levelo_inurba_marseille","lat":43.27494,"lon":5.42446,"is_reserved":false,"is_disabled":false,"rental_uris":{"android":"levelo://app?vid=5de457e8-3ef9-4e8e-8cf0-6a8bd1c17844","ios":"levelo://app?vid=5de457e8-3ef9-4e8e-8cf0-6a8bd1c17844"},"vehicle_type_id":"4","last_reported":1747588091,"current_range_meters":14000,"station_id":"ce4bhn92rcd13ifvqgrg","pricing_plan_id":"cebpf4jnsgd1na2vs0mg"},{"bike_id":"bb32395c-1cb4-4779-b77e-ba3e465fc1c4","system_id":"levelo_inurba_marseille","lat":43.29257,"lon":5.38433,"is_reserved":false,"is_disabled":false,"rental_uris":{"android":"levelo://app?vid=bb32395c-1cb4-4779-b77e-ba3e465fc1c4","ios":"levelo://app?vid=bb32395c-1cb4-4779-b77e-ba3e465fc1c4"},"vehicle_type_id":"4","last_reported":1747588091,"current_range_meters":14000,"station_id":"ce4bh692rcd13ifvqea0","pricing_plan_id":"cebpf4jnsgd1na2vs0mg"},{"bike_id":"07454e42-6769-42f7-aca9-3a2d575a66d8","system_id":"levelo_inurba_marseille","lat":43.29601,"lon":5.37524,"is_reserved":false,"is_disabled":false,"rental_uris":{"android":"levelo://app?vid=07454e42-6769-42f7-aca9-3a2d575a66d8","ios":"levelo://app?vid=07454e42-6769-42f7-aca9-3a2d575a66d8"},"vehicle_type_id":"4","last_reported":1747588091,"current_range_meters":13600,"station_id":"ce4bgh92rcd13ifvqb50","pricing_plan_id":"cebpf4jnsgd1na2vs0mg"},{"bike_id":"94b6fe50-d913-4505-b6fa-868623f0a3c5","system_id":"levelo_inurba_marseille","lat":43.29716,"lon":5.36617,"is_reserved":false,"is_disabled":false,"rental_uris":{"android":"levelo://app?vid=94b6fe50-d913-4505-b6fa-868623f0a3c5","ios":"levelo://app?vid=94b6fe50-d913-4505-b6fa-868623f0a3c5"},"vehicle_type_id":"4","last_reported":1747588091,"current_range_meters":14000,"station_id":"ce4bgn12rcd13ifvqbt0","pricing_plan_id":"cebpf4jnsgd1na2vs0mg"},{"bike_id":"deb1ebe4-2dda-47de-8857-80d61ec16807","system_id":"levelo_inurba_marseille","lat":43.29448,"lon":5.38605,"is_reserved":false,"is_disabled":false,"rental_uris":{"android":"levelo://app?vid=deb1ebe4-2dda-47de-8857-80d61ec16807","ios":"levelo://app?vid=deb1ebe4-2dda-47de-8857-80d61ec16807"},"vehicle_type_id":"4","last_reported":1747588091,"current_range_meters":14400,"station_id":"ce4bh2h2rcd13ifvqdh0","pricing_plan_id":"cebpf4jnsgd1na2vs0mg"},{"bike_id":"2d43dba1-6ff7-4289-91c8-c617d5aac932","system_id":"levelo_inurba_marseille","lat":43.295705,"lon":5.37497,"is_reserved":false,"is_disabled":true,"rental_uris":{"android":"levelo://app?vid=2d43dba1-6ff7-4289-91c8-c617d5aac932","ios":"levelo://app?vid=2d43dba1-6ff7-4289-91c8-c617d5aac932"},"vehicle_type_id":"4","last_reported":1747588091,"current_range_meters":14400,"station_id":"ce4bgh92rcd13ifvqb50","pricing_plan_id":"cebpf4jnsgd1na2vs0mg"},{"bike_id":"f4791d4f-1e53-4796-8881-f5c144b3f9cc","system_id":"levelo_inurba_marseille","lat":43.28404,"lon":5.37511,"is_reserved":false,"is_disabled":false,"rental_uris":{"android":"levelo://app?vid=f4791d4f-1e53-4796-8881-f5c144b3f9cc","ios":"levelo://app?vid=f4791d4f-1e53-4796-8881-f5c144b3f9cc"},"vehicle_type_id":"4","last_reported":1747588091,"current_range_meters":14400,"station_id":"ce4bh412rcd13ifvqds0","pricing_plan_id":"cebpf4jnsgd1na2vs0mg"},{"bike_id":"1612d380-1583-4037-aa62-44a5bfa05e0c","system_id":"levelo_inurba_marseille","lat":43.27916,"lon":5.39571,"is_reserved":false,"is_disabled":false,"rental_uris":{"android":"levelo://app?vid=1612d380-1583-4037-aa62-44a5bfa05e0c","ios":"levelo://app?vid=1612d380-1583-4037-aa62-44a5bfa05e0c"},"vehicle_type_id":"4","last_reported":1747588091,"current_range_meters":14400,"station_id":"ce4bhf92rcd13ifvqf40","pricing_plan_id":"cebpf4jnsgd1na2vs0mg"},{"bike_id":"e472a7f3-1962-44a9-b366-ed0d4cb32e38","system_id":"levelo_inurba_marseille","lat":43.26226,"lon":5.40454,"is_reserved":false,"is_disabled":false,"rental_uris":{"android":"levelo://app?vid=e472a7f3-1962-44a9-b366-ed0d4cb32e38","ios":"levelo://app?vid=e472a7f3-1962-44a9-b366-ed0d4cb32e38"},"vehicle_type_id":"4","last_reported":1747588091,"current_range_meters":14400,"station_id":"ce4bhmh2rcd13ifvqgmg","pricing_plan_id":"cebpf4jnsgd1na2vs0mg"},{"bike_id":"bf2b2bfb-9733-4bda-908d-03391ae976cc","system_id":"levelo_inurba_marseille","lat":43.31186,"lon":5.41612,"is_reserved":false,"is_disabled":false,"rental_uris":{"android":"levelo://app?vid=bf2b2bfb-9733-4bda-908d-03391ae976cc","ios":"levelo://app?vid=bf2b2bfb-9733-4bda-908d-03391ae976cc"},"vehicle_type_id":"4","last_reported":1747588091,"current_range_meters":14400,"station_id":"","pricing_plan_id":"cebpf4jnsgd1na2vs0mg"},{"bike_id":"5e88d7ce-691c-46f5-b8d5-acb9b0fd0d96","system_id":"levelo_inurba_marseille","lat":43.29567,"lon":5.39967,"is_reserved":false,"is_disabled":false,"rental_uris":{"android":"levelo://app?vid=5e88d7ce-691c-46f5-b8d5-acb9b0fd0d96","ios":"levelo://app?vid=5e88d7ce-691c-46f5-b8d5-acb9b0fd0d96"},"vehicle_type_id":"4","last_reported":1747588091,"current_range_meters":14400,"station_id":"ce4bh312rcd13ifvqdj0","pricing_plan_id":"cebpf4jnsgd1na2vs0mg"},{"bike_id":"ed34fad4-c48e-4c1a-b9b1-8eb1cd77d573","system_id":"levelo_inurba_marseille","lat":43.30945,"lon":5.38653,"is_reserved":false,"is_disabled":false,"rental_uris":{"android":"levelo://app?vid=ed34fad4-c48e-4c1a-b9b1-8eb1cd77d573","ios":"levelo://app?vid=ed34fad4-c48e-4c1a-b9b1-8eb1cd77d573"},"vehicle_type_id":"4","last_reported":1747588091,"current_range_meters":14400,"station_id":"ce4bgv12rcd13ifvqcp0","pricing_plan_id":"cebpf4jnsgd1na2vs0mg"},{"bike_id":"9336db23-c324-4a42-ae25-502bafafbd7a","system_id":"levelo_inurba_marseille","lat":43.29892,"lon":5.43663,"is_reserved":false,"is_disabled":false,"rental_uris":{"android":"levelo://app?vid=9336db23-c324-4a42-ae25-502bafafbd7a","ios":"levelo://app?vid=9336db23-c324-4a42-ae25-502bafafbd7a"},"vehicle_type_id":"4","last_reported":1747588091,"current_range_meters":14800,"station_id":"ce4bhpp2rcd13ifvqhfg","pricing_plan_id":"cebpf4jnsgd1na2vs0mg"},{"bike_id":"19456222-7d38-48cf-a950-06daadd07927","system_id":"levelo_inurba_marseille","lat":43.25019,"lon":5.37537,"is_reserved":false,"is_disabled":false,"rental_uris":{"android":"levelo://app?vid=19456222-7d38-48cf-a950-06daadd07927","ios":"levelo://app?vid=19456222-7d38-48cf-a950-06daadd07927"},"vehicle_type_id":"4","last_reported":1747588091,"current_range_meters":15200,"station_id":"","pricing_plan_id":"cebpf4jnsgd1na2vs0mg"},{"bike_id":"604b4de9-3b01-4ef7-8c30-df762f750cce","system_id":"levelo_inurba_marseille","lat":43.29933,"lon":5.36548,"is_reserved":false,"is_disabled":false,"rental_uris":{"android":"levelo://app?vid=604b4de9-3b01-4ef7-8c30-df762f750cce","ios":"levelo://app?vid=604b4de9-3b01-4ef7-8c30-df762f750cce"},"vehicle_type_id":"4","last_reported":1747588091,"current_range_meters":14800,"station_id":"ce4bgm92rcd13ifvqbr0","pricing_plan_id":"cebpf4jnsgd1na2vs0mg"},{"bike_id":"b96a4e7c-0de7-41da-b086-8b5a8e70a687","system_id":"levelo_inurba_marseille","lat":43.27203,"lon":5.39172,"is_reserved":false,"is_disabled":true,"rental_uris":{"android":"levelo://app?vid=b96a4e7c-0de7-41da-b086-8b5a8e70a687","ios":"levelo://app?vid=b96a4e7c-0de7-41da-b086-8b5a8e70a687"},"vehicle_type_id":"4","last_reported":1747588091,"current_range_meters":14800,"station_id":"ce4bhhp2rcd13ifvqfm0","pricing_plan_id":"cebpf4jnsgd1na2vs0mg"},{"bike_id":"a675f4e5-fc13-43cf-92f6-6acfa57913c0","system_id":"levelo_inurba_marseille","lat":43.29028,"lon":5.38144,"is_reserved":false,"is_disabled":true,"rental_uris":{"android":"levelo://app?vid=a675f4e5-fc13-43cf-92f6-6acfa57913c0","ios":"levelo://app?vid=a675f4e5-fc13-43cf-92f6-6acfa57913c0"},"vehicle_type_id":"4","last_reported":1747588091,"current_range_meters":14800,"station_id":"ce4bh4p2rcd13ifvqe1g","pricing_plan_id":"cebpf4jnsgd1na2vs0mg"},{"bike_id":"2f78716c-b340-425e-b2ae-443c4df23029","system_id":"levelo_inurba_marseille","lat":43.29366,"lon":5.37844,"is_reserved":false,"is_disabled":false,"rental_uris":{"android":"levelo://app?vid=2f78716c-b340-425e-b2ae-443c4df23029","ios":"levelo://app?vid=2f78716c-b340-425e-b2ae-443c4df23029"},"vehicle_type_id":"4","last_reported":1747588091,"current_range_meters":14400,"station_id":"ce4bgjh2rcd13ifvqbf0","pricing_plan_id":"cebpf4jnsgd1na2vs0mg"},{"bike_id":"7e85683c-0527-4a85-9ab8-35d06ff2f9ad","system_id":"levelo_inurba_marseille","lat":43.294159,"lon":5.386091,"is_reserved":false,"is_disabled":true,"rental_uris":{"android":"levelo://app?vid=7e85683c-0527-4a85-9ab8-35d06ff2f9ad","ios":"levelo://app?vid=7e85683c-0527-4a85-9ab8-35d06ff2f9ad"},"vehicle_type_id":"4","last_reported":1747588091,"current_range_meters":14800,"station_id":"ce4bh2h2rcd13ifvqdh0","pricing_plan_id":"cebpf4jnsgd1na2vs0mg"},{"bike_id":"3bd1ffd6-ecb8-4913-bff9-a833d62988ac","system_id":"levelo_inurba_marseille","lat":43.23148,"lon":5.4371,"is_reserved":false,"is_disabled":false,"rental_uris":{"android":"levelo://app?vid=3bd1ffd6-ecb8-4913-bff9-a833d62988ac","ios":"levelo://app?vid=3bd1ffd6-ecb8-4913-bff9-a833d62988ac"},"vehicle_type_id":"4","last_reported":1747588091,"current_range_meters":14800,"station_id":"ce4bhmp2rcd13ifvqgog","pricing_plan_id":"cebpf4jnsgd1na2vs0mg"},{"bike_id":"c9c41254-50c8-4278-8da8-7796e0b25b91","system_id":"levelo_inurba_marseille","lat":43.292999,"lon":5.374672,"is_reserved":false,"is_disabled":false,"rental_uris":{"android":"levelo://app?vid=c9c41254-50c8-4278-8da8-7796e0b25b91","ios":"levelo://app?vid=c9c41254-50c8-4278-8da8-7796e0b25b91"},"vehicle_type_id":"4","last_reported":1747588091,"current_range_meters":14800,"station_id":"ce4bgi12rcd13ifvqb70","pricing_plan_id":"cebpf4jnsgd1na2vs0mg"},{"bike_id":"86603db7-b462-4e72-8622-a2dee8bb2920","system_id":"levelo_inurba_marseille","lat":43.337444,"lon":5.374475,"is_reserved":false,"is_disabled":false,"rental_uris":{"android":"levelo://app?vid=86603db7-b462-4e72-8622-a2dee8bb2920","ios":"levelo://app?vid=86603db7-b462-4e72-8622-a2dee8bb2920"},"vehicle_type_id":"4","last_reported":1747588091,"current_range_meters":14800,"station_id":"","pricing_plan_id":"cebpf4jnsgd1na2vs0mg"},{"bike_id":"e7e2554a-f7c7-423d-95c3-0851f5524275","system_id":"levelo_inurba_marseille","lat":43.28418,"lon":5.349765,"is_reserved":false,"is_disabled":false,"rental_uris":{"android":"levelo://app?vid=e7e2554a-f7c7-423d-95c3-0851f5524275","ios":"levelo://app?vid=e7e2554a-f7c7-423d-95c3-0851f5524275"},"vehicle_type_id":"4","last_reported":1747588091,"current_range_meters":15200,"station_id":"ce4bhbh2rcd13ifvqepg","pricing_plan_id":"cebpf4jnsgd1na2vs0mg"},{"bike_id":"cf81ba9f-4910-44ec-9b06-44209e8c04de","system_id":"levelo_inurba_marseille","lat":43.23657,"lon":5.36253,"is_reserved":false,"is_disabled":false,"rental_uris":{"android":"levelo://app?vid=cf81ba9f-4910-44ec-9b06-44209e8c04de","ios":"levelo://app?vid=cf81ba9f-4910-44ec-9b06-44209e8c04de"},"vehicle_type_id":"4","last_reported":1747588091,"current_range_meters":15200,"station_id":"","pricing_plan_id":"cebpf4jnsgd1na2vs0mg"},{"bike_id":"0b01a027-5628-478d-9290-f3f68f91ec5a","system_id":"levelo_inurba_marseille","lat":43.28926,"lon":5.38409,"is_reserved":false,"is_disabled":false,"rental_uris":{"android":"levelo://app?vid=0b01a027-5628-478d-9290-f3f68f91ec5a","ios":"levelo://app?vid=0b01a027-5628-478d-9290-f3f68f91ec5a"},"vehicle_type_id":"4","last_reported":1747588091,"current_range_meters":14800,"station_id":"ce4bh612rcd13ifvqe6g","pricing_plan_id":"cebpf4jnsgd1na2vs0mg"},{"bike_id":"cf54ef92-3a2d-4b38-8001-0870974edf2c","system_id":"levelo_inurba_marseille","lat":43.2572,"lon":5.41111,"is_reserved":false,"is_disabled":false,"rental_uris":{"android":"levelo://app?vid=cf54ef92-3a2d-4b38-8001-0870974edf2c","ios":"levelo://app?vid=cf54ef92-3a2d-4b38-8001-0870974edf2c"},"vehicle_type_id":"4","last_reported":1747588091,"current_range_meters":15200,"station_id":"","pricing_plan_id":"cebpf4jnsgd1na2vs0mg"},{"bike_id":"bcbdbd69-7be8-42f8-a855-a4358565de8f","system_id":"levelo_inurba_marseille","lat":43.277396,"lon":5.41412,"is_reserved":false,"is_disabled":false,"rental_uris":{"android":"levelo://app?vid=bcbdbd69-7be8-42f8-a855-a4358565de8f","ios":"levelo://app?vid=bcbdbd69-7be8-42f8-a855-a4358565de8f"},"vehicle_type_id":"4","last_reported":1747588091,"current_range_meters":15200,"station_id":"","pricing_plan_id":"cebpf4jnsgd1na2vs0mg"},{"bike_id":"4dd6567d-bf29-481c-85de-74f7d95d82d0","system_id":"levelo_inurba_marseille","lat":43.24542,"lon":5.39525,"is_reserved":false,"is_disabled":false,"rental_uris":{"android":"levelo://app?vid=4dd6567d-bf29-481c-85de-74f7d95d82d0","ios":"levelo://app?vid=4dd6567d-bf29-481c-85de-74f7d95d82d0"},"vehicle_type_id":"4","last_reported":1747588091,"current_range_meters":14800,"station_id":"ce4bhlp2rcd13ifvqgjg","pricing_plan_id":"cebpf4jnsgd1na2vs0mg"},{"bike_id":"3d9f7665-808f-4a21-918b-6048c522f63b","system_id":"levelo_inurba_marseille","lat":43.31755,"lon":5.39014,"is_reserved":false,"is_disabled":false,"rental_uris":{"android":"levelo://app?vid=3d9f7665-808f-4a21-918b-6048c522f63b","ios":"levelo://app?vid=3d9f7665-808f-4a21-918b-6048c522f63b"},"vehicle_type_id":"4","last_reported":1747588091,"current_range_meters":15200,"station_id":"ce4bhqp2rcd13ifvqhng","pricing_plan_id":"cebpf4jnsgd1na2vs0mg"},{"bike_id":"744440d5-3b3d-43f3-b437-b742b7eae18a","system_id":"levelo_inurba_marseille","lat":43.322837,"lon":5.38276,"is_reserved":false,"is_disabled":false,"rental_uris":{"android":"levelo://app?vid=744440d5-3b3d-43f3-b437-b742b7eae18a","ios":"levelo://app?vid=744440d5-3b3d-43f3-b437-b742b7eae18a"},"vehicle_type_id":"4","last_reported":1747588091,"current_range_meters":15200,"station_id":"ce4bhr12rcd13ifvqhqg","pricing_plan_id":"cebpf4jnsgd1na2vs0mg"},{"bike_id":"a6cc24e7-132f-4ea9-919f-21cef13d973e","system_id":"levelo_inurba_marseille","lat":43.29519,"lon":5.38538,"is_reserved":false,"is_disabled":false,"rental_uris":{"android":"levelo://app?vid=a6cc24e7-132f-4ea9-919f-21cef13d973e","ios":"levelo://app?vid=a6cc24e7-132f-4ea9-919f-21cef13d973e"},"vehicle_type_id":"4","last_reported":1747588091,"current_range_meters":15200,"station_id":"ce4bgih2rcd13ifvqba0","pricing_plan_id":"cebpf4jnsgd1na2vs0mg"},{"bike_id":"643a665d-ac0d-40c2-a5bd-794131156cfb","system_id":"levelo_inurba_marseille","lat":43.29789,"lon":5.39338,"is_reserved":false,"is_disabled":false,"rental_uris":{"android":"levelo://app?vid=643a665d-ac0d-40c2-a5bd-794131156cfb","ios":"levelo://app?vid=643a665d-ac0d-40c2-a5bd-794131156cfb"},"vehicle_type_id":"4","last_reported":1747588091,"current_range_meters":16000,"station_id":"chh1huq6cuj3fo74tm60","pricing_plan_id":"cebpf4jnsgd1na2vs0mg"},{"bike_id":"4b656dc9-9172-4080-a18b-44cb269a7a7a","system_id":"levelo_inurba_marseille","lat":43.32658,"lon":5.41014,"is_reserved":false,"is_disabled":false,"rental_uris":{"android":"levelo://app?vid=4b656dc9-9172-4080-a18b-44cb269a7a7a","ios":"levelo://app?vid=4b656dc9-9172-4080-a18b-44cb269a7a7a"},"vehicle_type_id":"4","last_reported":1747588091,"current_range_meters":16000,"station_id":"ce4bhpp2rcd13ifvqhgg","pricing_plan_id":"cebpf4jnsgd1na2vs0mg"},{"bike_id":"cf793458-2129-4d93-bdf3-f6ba21aef9cc","system_id":"levelo_inurba_marseille","lat":43.30428,"lon":5.38885,"is_reserved":false,"is_disabled":false,"rental_uris":{"android":"levelo://app?vid=cf793458-2129-4d93-bdf3-f6ba21aef9cc","ios":"levelo://app?vid=cf793458-2129-4d93-bdf3-f6ba21aef9cc"},"vehicle_type_id":"4","last_reported":1747588091,"current_range_meters":15200,"station_id":"ce4bgk12rcd13ifvqbi0","pricing_plan_id":"cebpf4jnsgd1na2vs0mg"},{"bike_id":"dbf24871-31ec-4583-afb9-e3def4cdced5","system_id":"levelo_inurba_marseille","lat":43.24817,"lon":5.374467,"is_reserved":false,"is_disabled":false,"rental_uris":{"android":"levelo://app?vid=dbf24871-31ec-4583-afb9-e3def4cdced5","ios":"levelo://app?vid=dbf24871-31ec-4583-afb9-e3def4cdced5"},"vehicle_type_id":"4","last_reported":1747588091,"current_range_meters":16000,"station_id":"ce4bhgh2rcd13ifvqfb0","pricing_plan_id":"cebpf4jnsgd1na2vs0mg"},{"bike_id":"46df2f38-40a6-4f7c-80a5-e6de4851718a","system_id":"levelo_inurba_marseille","lat":43.29423,"lon":5.38631,"is_reserved":false,"is_disabled":false,"rental_uris":{"android":"levelo://app?vid=46df2f38-40a6-4f7c-80a5-e6de4851718a","ios":"levelo://app?vid=46df2f38-40a6-4f7c-80a5-e6de4851718a"},"vehicle_type_id":"4","last_reported":1747588091,"current_range_meters":16000,"station_id":"ce4bh2h2rcd13ifvqdh0","pricing_plan_id":"cebpf4jnsgd1na2vs0mg"},{"bike_id":"a0ef91e8-eab4-4e92-9764-f8b59bed148c","system_id":"levelo_inurba_marseille","lat":43.31351,"lon":5.38507,"is_reserved":false,"is_disabled":false,"rental_uris":{"android":"levelo://app?vid=a0ef91e8-eab4-4e92-9764-f8b59bed148c","ios":"levelo://app?vid=a0ef91e8-eab4-4e92-9764-f8b59bed148c"},"vehicle_type_id":"4","last_reported":1747588091,"current_range_meters":16000,"station_id":"ce4bgt92rcd13ifvqcf0","pricing_plan_id":"cebpf4jnsgd1na2vs0mg"},{"bike_id":"cbf22af3-6c8f-4023-8971-3961263cafe8","system_id":"levelo_inurba_marseille","lat":43.287157,"lon":5.37396,"is_reserved":false,"is_disabled":true,"rental_uris":{"android":"levelo://app?vid=cbf22af3-6c8f-4023-8971-3961263cafe8","ios":"levelo://app?vid=cbf22af3-6c8f-4023-8971-3961263cafe8"},"vehicle_type_id":"4","last_reported":1747588091,"current_range_meters":16000,"station_id":"ce4bh3p2rcd13ifvqdq0","pricing_plan_id":"cebpf4jnsgd1na2vs0mg"},{"bike_id":"3a022379-4c59-4d24-a1d2-b19883255fbc","system_id":"levelo_inurba_marseille","lat":43.23231,"lon":5.35529,"is_reserved":false,"is_disabled":false,"rental_uris":{"android":"levelo://app?vid=3a022379-4c59-4d24-a1d2-b19883255fbc","ios":"levelo://app?vid=3a022379-4c59-4d24-a1d2-b19883255fbc"},"vehicle_type_id":"4","last_reported":1747588091,"current_range_meters":16000,"station_id":"ce4bhu92rcd13ifvqi70","pricing_plan_id":"cebpf4jnsgd1na2vs0mg"},{"bike_id":"27a2363a-1322-4ea5-b5e2-774a9a2a836d","system_id":"levelo_inurba_marseille","lat":43.297546,"lon":5.380984,"is_reserved":false,"is_disabled":false,"rental_uris":{"android":"levelo://app?vid=27a2363a-1322-4ea5-b5e2-774a9a2a836d","ios":"levelo://app?vid=27a2363a-1322-4ea5-b5e2-774a9a2a836d"},"vehicle_type_id":"4","last_reported":1747588091,"current_range_meters":16400,"station_id":"ce4bgih2rcd13ifvqba0","pricing_plan_id":"cebpf4jnsgd1na2vs0mg"},{"bike_id":"cf885c70-cb79-46c2-8e0a-92e9cd12a533","system_id":"levelo_inurba_marseille","lat":43.297811,"lon":5.385371,"is_reserved":false,"is_disabled":false,"rental_uris":{"android":"levelo://app?vid=cf885c70-cb79-46c2-8e0a-92e9cd12a533","ios":"levelo://app?vid=cf885c70-cb79-46c2-8e0a-92e9cd12a533"},"vehicle_type_id":"4","last_reported":1747588091,"current_range_meters":16400,"station_id":"ce4bgih2rcd13ifvqba0","pricing_plan_id":"cebpf4jnsgd1na2vs0mg"},{"bike_id":"e2483e33-e22f-4969-8812-f7cdcc75c59a","system_id":"levelo_inurba_marseille","lat":43.32357,"lon":5.36745,"is_reserved":false,"is_disabled":false,"rental_uris":{"android":"levelo://app?vid=e2483e33-e22f-4969-8812-f7cdcc75c59a","ios":"levelo://app?vid=e2483e33-e22f-4969-8812-f7cdcc75c59a"},"vehicle_type_id":"4","last_reported":1747588091,"current_range_meters":16400,"station_id":"ce4bhsh2rcd13ifvqi2g","pricing_plan_id":"cebpf4jnsgd1na2vs0mg"},{"bike_id":"f0a690f3-aaef-41ef-91ff-088837a16951","system_id":"levelo_inurba_marseille","lat":43.25709,"lon":5.41114,"is_reserved":false,"is_disabled":false,"rental_uris":{"android":"levelo://app?vid=f0a690f3-aaef-41ef-91ff-088837a16951","ios":"levelo://app?vid=f0a690f3-aaef-41ef-91ff-088837a16951"},"vehicle_type_id":"4","last_reported":1747588091,"current_range_meters":16400,"station_id":"ce4bhkp2rcd13ifvqgd0","pricing_plan_id":"cebpf4jnsgd1na2vs0mg"},{"bike_id":"bffbaf88-357a-4e87-a68c-a9a27a6e01e6","system_id":"levelo_inurba_marseille","lat":43.26228,"lon":5.42124,"is_reserved":false,"is_disabled":false,"rental_uris":{"android":"levelo://app?vid=bffbaf88-357a-4e87-a68c-a9a27a6e01e6","ios":"levelo://app?vid=bffbaf88-357a-4e87-a68c-a9a27a6e01e6"},"vehicle_type_id":"4","last_reported":1747588091,"current_range_meters":16400,"station_id":"","pricing_plan_id":"cebpf4jnsgd1na2vs0mg"},{"bike_id":"478e84a3-a758-4f35-bc69-50bc886f6a66","system_id":"levelo_inurba_marseille","lat":43.25861,"lon":5.39894,"is_reserved":false,"is_disabled":false,"rental_uris":{"android":"levelo://app?vid=478e84a3-a758-4f35-bc69-50bc886f6a66","ios":"levelo://app?vid=478e84a3-a758-4f35-bc69-50bc886f6a66"},"vehicle_type_id":"4","last_reported":1747588091,"current_range_meters":16400,"station_id":"ce4bhl92rcd13ifvqghg","pricing_plan_id":"cebpf4jnsgd1na2vs0mg"},{"bike_id":"954f9a2f-3d92-4afe-8ccd-55ebda55dfe0","system_id":"levelo_inurba_marseille","lat":43.270773,"lon":5.42273,"is_reserved":false,"is_disabled":false,"rental_uris":{"android":"levelo://app?vid=954f9a2f-3d92-4afe-8ccd-55ebda55dfe0","ios":"levelo://app?vid=954f9a2f-3d92-4afe-8ccd-55ebda55dfe0"},"vehicle_type_id":"4","last_reported":1747588091,"current_range_meters":16400,"station_id":"ce4bhk92rcd13ifvqgb0","pricing_plan_id":"cebpf4jnsgd1na2vs0mg"},{"bike_id":"cea399cf-4493-4653-b9a8-f39611a60c08","system_id":"levelo_inurba_marseille","lat":43.23181,"lon":5.35591,"is_reserved":false,"is_disabled":false,"rental_uris":{"android":"levelo://app?vid=cea399cf-4493-4653-b9a8-f39611a60c08","ios":"levelo://app?vid=cea399cf-4493-4653-b9a8-f39611a60c08"},"vehicle_type_id":"4","last_reported":1747588091,"current_range_meters":16400,"station_id":"ce4bhu92rcd13ifvqi70","pricing_plan_id":"cebpf4jnsgd1na2vs0mg"},{"bike_id":"131e5e32-2441-4908-b392-291efc5fcc24","system_id":"levelo_inurba_marseille","lat":43.26553,"lon":5.37279,"is_reserved":false,"is_disabled":false,"rental_uris":{"android":"levelo://app?vid=131e5e32-2441-4908-b392-291efc5fcc24","ios":"levelo://app?vid=131e5e32-2441-4908-b392-291efc5fcc24"},"vehicle_type_id":"4","last_reported":1747588091,"current_range_meters":16400,"station_id":"ce4bhg12rcd13ifvqf70","pricing_plan_id":"cebpf4jnsgd1na2vs0mg"},{"bike_id":"09ce2cb9-244b-4c1a-90f3-24693dfa819d","system_id":"levelo_inurba_marseille","lat":43.26546,"lon":5.37298,"is_reserved":false,"is_disabled":false,"rental_uris":{"android":"levelo://app?vid=09ce2cb9-244b-4c1a-90f3-24693dfa819d","ios":"levelo://app?vid=09ce2cb9-244b-4c1a-90f3-24693dfa819d"},"vehicle_type_id":"4","last_reported":1747588091,"current_range_meters":16400,"station_id":"ce4bhg12rcd13ifvqf70","pricing_plan_id":"cebpf4jnsgd1na2vs0mg"},{"bike_id":"26ae3f71-446b-4d48-9715-d0cb78472fbf","system_id":"levelo_inurba_marseille","lat":43.31182,"lon":5.37019,"is_reserved":false,"is_disabled":false,"rental_uris":{"android":"levelo://app?vid=26ae3f71-446b-4d48-9715-d0cb78472fbf","ios":"levelo://app?vid=26ae3f71-446b-4d48-9715-d0cb78472fbf"},"vehicle_type_id":"4","last_reported":1747588091,"current_range_meters":16400,"station_id":"","pricing_plan_id":"cebpf4jnsgd1na2vs0mg"},{"bike_id":"41389e7c-6f3c-410d-88e7-f591b55a002a","system_id":"levelo_inurba_marseille","lat":43.240656,"lon":5.377588,"is_reserved":false,"is_disabled":false,"rental_uris":{"android":"levelo://app?vid=41389e7c-6f3c-410d-88e7-f591b55a002a","ios":"levelo://app?vid=41389e7c-6f3c-410d-88e7-f591b55a002a"},"vehicle_type_id":"4","last_reported":1747588091,"current_range_meters":16800,"station_id":"ce4bhnp2rcd13ifvqgvg","pricing_plan_id":"cebpf4jnsgd1na2vs0mg"},{"bike_id":"41144629-8a1a-4774-b785-1547d12c4e72","system_id":"levelo_inurba_marseille","lat":43.29544,"lon":5.42286,"is_reserved":false,"is_disabled":false,"rental_uris":{"android":"levelo://app?vid=41144629-8a1a-4774-b785-1547d12c4e72","ios":"levelo://app?vid=41144629-8a1a-4774-b785-1547d12c4e72"},"vehicle_type_id":"4","last_reported":1747588091,"current_range_meters":16400,"station_id":"ce4bhph2rcd13ifvqhdg","pricing_plan_id":"cebpf4jnsgd1na2vs0mg"},{"bike_id":"7a4ac1d0-b4f1-4582-98da-5173cb54d9c3","system_id":"levelo_inurba_marseille","lat":43.29565,"lon":5.3753,"is_reserved":false,"is_disabled":false,"rental_uris":{"android":"levelo://app?vid=7a4ac1d0-b4f1-4582-98da-5173cb54d9c3","ios":"levelo://app?vid=7a4ac1d0-b4f1-4582-98da-5173cb54d9c3"},"vehicle_type_id":"4","last_reported":1747588091,"current_range_meters":16800,"station_id":"ce4bgh92rcd13ifvqb50","pricing_plan_id":"cebpf4jnsgd1na2vs0mg"},{"bike_id":"34a2eee5-76fc-4db1-a470-c0200038fa9c","system_id":"levelo_inurba_marseille","lat":43.24172,"lon":5.364187,"is_reserved":false,"is_disabled":false,"rental_uris":{"android":"levelo://app?vid=34a2eee5-76fc-4db1-a470-c0200038fa9c","ios":"levelo://app?vid=34a2eee5-76fc-4db1-a470-c0200038fa9c"},"vehicle_type_id":"4","last_reported":1747588091,"current_range_meters":16800,"station_id":"cpo36qri1sfpv3e86is0","pricing_plan_id":"cebpf4jnsgd1na2vs0mg"},{"bike_id":"c7499386-dc2a-4a4c-830d-bea3ba4afc63","system_id":"levelo_inurba_marseille","lat":43.29783,"lon":5.38126,"is_reserved":false,"is_disabled":true,"rental_uris":{"android":"levelo://app?vid=c7499386-dc2a-4a4c-830d-bea3ba4afc63","ios":"levelo://app?vid=c7499386-dc2a-4a4c-830d-bea3ba4afc63"},"vehicle_type_id":"4","last_reported":1747588091,"current_range_meters":16800,"station_id":"ce4bgip2rcd13ifvqbb0","pricing_plan_id":"cebpf4jnsgd1na2vs0mg"},{"bike_id":"90bb7a19-74dd-4320-94b3-1629a4028834","system_id":"levelo_inurba_marseille","lat":43.21747,"lon":5.34632,"is_reserved":false,"is_disabled":true,"rental_uris":{"android":"levelo://app?vid=90bb7a19-74dd-4320-94b3-1629a4028834","ios":"levelo://app?vid=90bb7a19-74dd-4320-94b3-1629a4028834"},"vehicle_type_id":"4","last_reported":1747588091,"current_range_meters":16800,"station_id":"st_cvj6r9ubvosntc0bgbag","pricing_plan_id":"cebpf4jnsgd1na2vs0mg"},{"bike_id":"1dcdcf4d-a775-45b7-ba77-12918f1606de","system_id":"levelo_inurba_marseille","lat":43.29083,"lon":5.38155,"is_reserved":false,"is_disabled":false,"rental_uris":{"android":"levelo://app?vid=1dcdcf4d-a775-45b7-ba77-12918f1606de","ios":"levelo://app?vid=1dcdcf4d-a775-45b7-ba77-12918f1606de"},"vehicle_type_id":"4","last_reported":1747588091,"current_range_meters":16800,"station_id":"ce4bh512rcd13ifvqe2g","pricing_plan_id":"cebpf4jnsgd1na2vs0mg"},{"bike_id":"fba103a6-30ce-481c-a05a-9411e513bfcf","system_id":"levelo_inurba_marseille","lat":43.25916,"lon":5.40882,"is_reserved":false,"is_disabled":false,"rental_uris":{"android":"levelo://app?vid=fba103a6-30ce-481c-a05a-9411e513bfcf","ios":"levelo://app?vid=fba103a6-30ce-481c-a05a-9411e513bfcf"},"vehicle_type_id":"4","last_reported":1747588091,"current_range_meters":16800,"station_id":"ce4bhm92rcd13ifvqglg","pricing_plan_id":"cebpf4jnsgd1na2vs0mg"},{"bike_id":"6bf31f6f-3f08-4e71-8140-39f1182d8256","system_id":"levelo_inurba_marseille","lat":43.29547,"lon":5.42282,"is_reserved":false,"is_disabled":false,"rental_uris":{"android":"levelo://app?vid=6bf31f6f-3f08-4e71-8140-39f1182d8256","ios":"levelo://app?vid=6bf31f6f-3f08-4e71-8140-39f1182d8256"},"vehicle_type_id":"4","last_reported":1747588091,"current_range_meters":17200,"station_id":"ce4bhph2rcd13ifvqhdg","pricing_plan_id":"cebpf4jnsgd1na2vs0mg"},{"bike_id":"9a0dedcc-cf1d-4901-9687-aa9a21d8b402","system_id":"levelo_inurba_marseille","lat":43.26916,"lon":5.40263,"is_reserved":false,"is_disabled":false,"rental_uris":{"android":"levelo://app?vid=9a0dedcc-cf1d-4901-9687-aa9a21d8b402","ios":"levelo://app?vid=9a0dedcc-cf1d-4901-9687-aa9a21d8b402"},"vehicle_type_id":"4","last_reported":1747588091,"current_range_meters":17200,"station_id":"cjm6bp8fraef2m0cb0m0","pricing_plan_id":"cebpf4jnsgd1na2vs0mg"},{"bike_id":"d39cae16-34b5-4b82-8fc6-cac28c889070","system_id":"levelo_inurba_marseille","lat":43.29475,"lon":5.38683,"is_reserved":false,"is_disabled":true,"rental_uris":{"android":"levelo://app?vid=d39cae16-34b5-4b82-8fc6-cac28c889070","ios":"levelo://app?vid=d39cae16-34b5-4b82-8fc6-cac28c889070"},"vehicle_type_id":"4","last_reported":1747588091,"current_range_meters":17200,"station_id":"","pricing_plan_id":"cebpf4jnsgd1na2vs0mg"},