{"last_updated":1700435182,"ttl":30,"version":"2.2","data":{"bikes":[{"bike_id":"499162d6-7fad-44c8-91f8-355c834834f6","system_id":"levelo_inurba_marseille","lat":43.313391,"lon":5.36706,"is_reserved":false,"is_disabled":false,"rental_uris":{"android":"levelo://app?vid=499162d6-7fad-44c8-91f8-355c834834f6","ios":"levelo://app?vid=499162d6-7fad-44c8-91f8-355c834834f6"},"vehicle_type_id":"4","last_reported":1700435182,"current_range_meters":26800,"station_id":"ce4bgr92rcd13ifvqc6g","pricing_plan_id":"free"},{"bike_id":"cfb2c35c-382a-49a5-befa-4d95482c2571","system_id":"levelo_inurba_marseille","lat":43.312227,"lon":5.368653,"is_reserved":false,"is_disabled":false,"rental_uris":{"android":"levelo://app?vid=cfb2c35c-382a-49a5-befa-4d95482c2571","ios":"levelo://app?vid=cfb2c35c-382a-49a5-befa-4d95482c2571"},"vehicle_type_id":"4","last_reported":1700435182,"current_range_meters":0,"station_id":"ce4bgl92rcd13ifvqbq0","pricing_plan_id":"free"},{"bike_id":"3475d204-43b6-43d9-b615-ca1d0d58200e","system_id":"levelo_inurba_marseille","lat":43.30679,"lon":5.3679,"is_reserved":false,"is_disabled":false,"rental_uris":{"android":"levelo://app?vid=3475d204-43b6-43d9-b615-ca1d0d58200e","ios":"levelo://app?vid=3475d204-43b6-43d9-b615-ca1d0d58200e"},"vehicle_type_id":"4","last_reported":1700435182,"current_range_meters":9200,"station_id":"","pricing_plan_id":"free"},{"bike_id":"09ccbac6-0f01-4cfb-8bb8-da5484277d5c","system_id":"levelo_inurba_marseille","lat":43.31965,"lon":5.37112,"is_reserved":false,"is_disabled":false,"rental_uris":{"android":"levelo://app?vid=09ccbac6-0f01-4cfb-8bb8-da5484277d5c","ios":"levelo://app?vid=09ccbac6-0f01-4cfb-8bb8-da5484277d5c"},"vehicle_type_id":"4","last_reported":1700435182,"current_range_meters":0,"station_id":"","pricing_plan_id":"free"},{"bike_id":"763dca4f-a17b-436e-971f-d92898d71f7b","system_id":"levelo_inurba_marseille","lat":43.305989,"lon":5.37225,"is_reserved":false,"is_disabled":false,"rental_uris":{"android":"levelo://app?vid=763dca4f-a17b-436e-971f-d92898d71f7b","ios":"levelo://app?vid=763dca4f-a17b-436e-971f-d92898d71f7b"},"vehicle_type_id":"4","last_reported":1700435182,"current_range_meters":12800,"station_id":"ce4bgqh2rcd13ifvqc4g","pricing_plan_id":"free"},{"bike_id":"2b171ca2-f0aa-44b4-8b93-fcbfdb5b7c3a","system_id":"levelo_inurba_marseille","lat":43.305989,"lon":5.37225,"is_reserved":false,"is_disabled":false,"rental_uris":{"android":"levelo://app?vid=2b171ca2-f0aa-44b4-8b93-fcbfdb5b7c3a","ios":"levelo://app?vid=2b171ca2-f0aa-44b4-8b93-fcbfdb5b7c3a"},"vehicle_type_id":"4","last_reported":1700435182,"current_range_meters":26800,"station_id":"ce4bgqh2rcd13ifvqc4g","pricing_plan_id":"free"},{"bike_id":"0fb06c17-561c-496d-89c8-060a9d1c679b","system_id":"levelo_inurba_marseille","lat":43.305989,"lon":5.37225,"is_reserved":false,"is_disabled":false,"rental_uris":{"android":"levelo://app?vid=0fb06c17-561c-496d-89c8-060a9d1c679b","ios":"levelo://app?vid=0fb06c17-561c-496d-89c8-060a9d1c679b"},"vehicle_type_id":"4","last_reported":1700435182,"current_range_meters":28000,"station_id":"ce4bgqh2rcd13ifvqc4g","pricing_plan_id":"free"},{"bike_id":"8d92306a-be43-4837-829d-9eb08437f384","system_id":"levelo_inurba_marseille","lat":43.311228,"lon":5.37771,"is_reserved":false,"is_disabled":false,"rental_uris":{"android":"levelo://app?vid=8d92306a-be43-4837-829d-9eb08437f384","ios":"levelo://app?vid=8d92306a-be43-4837-829d-9eb08437f384"},"vehicle_type_id":"4","last_reported":1700435182,"current_range_meters":20000,"station_id":"ce4bgt92rcd13ifvqcg0","pricing_plan_id":"free"},{"bike_id":"9309ee71-2e1a-4cfb-a93e-8bae5a928dc1","system_id":"levelo_inurba_marseille","lat":43.308225,"lon":5.376635,"is_reserved":false,"is_disabled":false,"rental_uris":{"android":"levelo://app?vid=9309ee71-2e1a-4cfb-a93e-8bae5a928dc1","ios":"levelo://app?vid=9309ee71-2e1a-4cfb-a93e-8bae5a928dc1"},"vehicle_type_id":"4","last_reported":1700435182,"current_range_meters":9200,"station_id":"ce4bgv92rcd13ifvqcq0","pricing_plan_id":"free"},{"bike_id":"82ce0fb3-9af3-4ad7-afac-4f8eaffcaf7d","system_id":"levelo_inurba_marseille","lat":43.30774,"lon":5.37657,"is_reserved":false,"is_disabled":false,"rental_uris":{"android":"levelo://app?vid=82ce0fb3-9af3-4ad7-afac-4f8eaffcaf7d","ios":"levelo://app?vid=82ce0fb3-9af3-4ad7-afac-4f8eaffcaf7d"},"vehicle_type_id":"4","last_reported":1700435182,"current_range_meters":0,"station_id":"ce4bgv92rcd13ifvqcq0","pricing_plan_id":"free"},{"bike_id":"cf78f610-5f62-405d-a0f6-0091093a3fef","system_id":"levelo_inurba_marseille","lat":43.30777,"lon":5.37663,"is_reserved":false,"is_disabled":false,"rental_uris":{"android":"levelo://app?vid=cf78f610-5f62-405d-a0f6-0091093a3fef","ios":"levelo://app?vid=cf78f610-5f62-405d-a0f6-0091093a3fef"},"vehicle_type_id":"4","last_reported":1700435182,"current_range_meters":0,"station_id":"ce4bgv92rcd13ifvqcq0","pricing_plan_id":"free"},{"bike_id":"df755a02-7a8a-4a1f-8fab-69a8b08bd6d7","system_id":"levelo_inurba_marseille","lat":43.31529,"lon":5.38035,"is_reserved":false,"is_disabled":false,"rental_uris":{"android":"levelo://app?vid=df755a02-7a8a-4a1f-8fab-69a8b08bd6d7","ios":"levelo://app?vid=df755a02-7a8a-4a1f-8fab-69a8b08bd6d7"},"vehicle_type_id":"4","last_reported":1700435182,"current_range_meters":13200,"station_id":"ce4bhsp2rcd13ifvqi50","pricing_plan_id":"free"},{"bike_id":"5b915d7f-0f09-4cbb-a933-dbedf34f3dd8","system_id":"levelo_inurba_marseille","lat":43.301939,"lon":5.366286,"is_reserved":false,"is_disabled":false,"rental_uris":{"android":"levelo://app?vid=5b915d7f-0f09-4cbb-a933-dbedf34f3dd8","ios":"levelo://app?vid=5b915d7f-0f09-4cbb-a933-dbedf34f3dd8"},"vehicle_type_id":"4","last_reported":1700435182,"current_range_meters":30400,"station_id":"ce4bgrh2rcd13ifvqc8g","pricing_plan_id":"free"},{"bike_id":"56920b29-e132-41e5-8629-bee1939cdf59","system_id":"levelo_inurba_marseille","lat":43.30794,"lon":5.381591,"is_reserved":false,"is_disabled":false,"rental_uris":{"android":"levelo://app?vid=56920b29-e132-41e5-8629-bee1939cdf59","ios":"levelo://app?vid=56920b29-e132-41e5-8629-bee1939cdf59"},"vehicle_type_id":"4","last_reported":1700435182,"current_range_meters":25200,"station_id":"ce4bgt12rcd13ifvqce0","pricing_plan_id":"free"},{"bike_id":"3a722b20-8d9a-4ed7-bed2-82edca53ad10","system_id":"levelo_inurba_marseille","lat":43.324771,"lon":5.36557,"is_reserved":false,"is_disabled":false,"rental_uris":{"android":"levelo://app?vid=3a722b20-8d9a-4ed7-bed2-82edca53ad10","ios":"levelo://app?vid=3a722b20-8d9a-4ed7-bed2-82edca53ad10"},"vehicle_type_id":"4","last_reported":1700435182,"current_range_meters":16400,"station_id":"ce4bhs12rcd13ifvqhvg","pricing_plan_id":"free"},{"bike_id":"760b38cf-0aff-4ca9-97a5-b7696277bd3c","system_id":"levelo_inurba_marseille","lat":43.301429,"lon":5.37413,"is_reserved":false,"is_disabled":false,"rental_uris":{"android":"levelo://app?vid=760b38cf-0aff-4ca9-97a5-b7696277bd3c","ios":"levelo://app?vid=760b38cf-0aff-4ca9-97a5-b7696277bd3c"},"vehicle_type_id":"4","last_reported":1700435182,"current_range_meters":27600,"station_id":"ce4bgs92rcd13ifvqcc0","pricing_plan_id":"free"},{"bike_id":"cb9aaf1e-c165-4477-b766-07ed6f860aa9","system_id":"levelo_inurba_marseille","lat":43.319935,"lon":5.381699,"is_reserved":false,"is_disabled":false,"rental_uris":{"android":"levelo://app?vid=cb9aaf1e-c165-4477-b766-07ed6f860aa9","ios":"levelo://app?vid=cb9aaf1e-c165-4477-b766-07ed6f860aa9"},"vehicle_type_id":"4","last_reported":1700435182,"current_range_meters":400,"station_id":"ce4bhr12rcd13ifvqhpg","pricing_plan_id":"free"},{"bike_id":"b86bd29c-7dae-4d1a-900b-90742660a871","system_id":"levelo_inurba_marseille","lat":43.319911,"lon":5.381534,"is_reserved":false,"is_disabled":false,"rental_uris":{"android":"levelo://app?vid=b86bd29c-7dae-4d1a-900b-90742660a871","ios":"levelo://app?vid=b86bd29c-7dae-4d1a-900b-90742660a871"},"vehicle_type_id":"4","last_reported":1700435182,"current_range_meters":24000,"station_id":"ce4bhr12rcd13ifvqhpg","pricing_plan_id":"free"},{"bike_id":"38e7561f-341a-4b31-9fe8-9303ec26abd7","system_id":"levelo_inurba_marseille","lat":43.31997,"lon":5.38158,"is_reserved":false,"is_disabled":false,"rental_uris":{"android":"levelo://app?vid=38e7561f-341a-4b31-9fe8-9303ec26abd7","ios":"levelo://app?vid=38e7561f-341a-4b31-9fe8-9303ec26abd7"},"vehicle_type_id":"4","last_reported":1700435182,"current_range_meters":13600,"station_id":"ce4bhr12rcd13ifvqhpg","pricing_plan_id":"free"},{"bike_id":"f88f70f6-5dec-47e8-88d7-7536575375c3","system_id":"levelo_inurba_marseille","lat":43.319986,"lon":5.381617,"is_reserved":false,"is_disabled":false,"rental_uris":{"android":"levelo://app?vid=f88f70f6-5dec-47e8-88d7-7536575375c3","ios":"levelo://app?vid=f88f70f6-5dec-47e8-88d7-7536575375c3"},"vehicle_type_id":"4","last_reported":1700435182,"current_range_meters":23200,"station_id":"ce4bhr12rcd13ifvqhpg","pricing_plan_id":"free"},{"bike_id":"5290e88c-2b9d-43c2-af44-4f2a9fe1d84a","system_id":"levelo_inurba_marseille","lat":43.299724,"lon":5.371829,"is_reserved":false,"is_disabled":false,"rental_uris":{"android":"levelo://app?vid=5290e88c-2b9d-43c2-af44-4f2a9fe1d84a","ios":"levelo://app?vid=5290e88c-2b9d-43c2-af44-4f2a9fe1d84a"},"vehicle_type_id":"4","last_reported":1700435182,"current_range_meters":25200,"station_id":"ce4bgr92rcd13ifvqc7g","pricing_plan_id":"free"},{"bike_id":"5da9dea2-bd9f-4746-b637-56e44ea9e587","system_id":"levelo_inurba_marseille","lat":43.298489,"lon":5.362942,"is_reserved":false,"is_disabled":false,"rental_uris":{"android":"levelo://app?vid=5da9dea2-bd9f-4746-b637-56e44ea9e587","ios":"levelo://app?vid=5da9dea2-bd9f-4746-b637-56e44ea9e587"},"vehicle_type_id":"4","last_reported":1700435182,"current_range_meters":0,"station_id":"","pricing_plan_id":"free"},{"bike_id":"4bfed5e0-8d2d-4aac-b233-c7d8cf5f1c05","system_id":"levelo_inurba_marseille","lat":43.311722,"lon":5.387247,"is_reserved":false,"is_disabled":false,"rental_uris":{"android":"levelo://app?vid=4bfed5e0-8d2d-4aac-b233-c7d8cf5f1c05","ios":"levelo://app?vid=4bfed5e0-8d2d-4aac-b233-c7d8cf5f1c05"},"vehicle_type_id":"4","last_reported":1700435182,"current_range_meters":28400,"station_id":"ce4bgv12rcd13ifvqcp0","pricing_plan_id":"free"},{"bike_id":"401d4e72-6e5b-4cf3-9a42-d3b1f2ab0649","system_id":"levelo_inurba_marseille","lat":43.311722,"lon":5.387247,"is_reserved":false,"is_disabled":false,"rental_uris":{"android":"levelo://app?vid=401d4e72-6e5b-4cf3-9a42-d3b1f2ab0649","ios":"levelo://app?vid=401d4e72-6e5b-4cf3-9a42-d3b1f2ab0649"},"vehicle_type_id":"4","last_reported":1700435182,"current_range_meters":1200,"station_id":"ce4bgv12rcd13ifvqcp0","pricing_plan_id":"free"},{"bike_id":"96f889c7-720d-4fb5-aa27-276a7a5f0e89","system_id":"levelo_inurba_marseille","lat":43.311722,"lon":5.387247,"is_reserved":false,"is_disabled":false,"rental_uris":{"android":"levelo://app?vid=96f889c7-720d-4fb5-aa27-276a7a5f0e89","ios":"levelo://app?vid=96f889c7-720d-4fb5-aa27-276a7a5f0e89"},"vehicle_type_id":"4","last_reported":1700435182,"current_range_meters":31600,"station_id":"ce4bgv12rcd13ifvqcp0","pricing_plan_id":"free"},{"bike_id":"8b3677d2-ba45-46d5-8680-59b39c3c55a8","system_id":"levelo_inurba_marseille","lat":43.311664,"lon":5.387171,"is_reserved":false,"is_disabled":false,"rental_uris":{"android":"levelo://app?vid=8b3677d2-ba45-46d5-8680-59b39c3c55a8","ios":"levelo://app?vid=8b3677d2-ba45-46d5-8680-59b39c3c55a8"},"vehicle_type_id":"4","last_reported":1700435182,"current_range_meters":0,"station_id":"ce4bgv12rcd13ifvqcp0","pricing_plan_id":"free"},{"bike_id":"c8725501-4b55-4c9f-96e8-0849f4a16d4c","system_id":"levelo_inurba_marseille","lat":43.311722,"lon":5.387247,"is_reserved":false,"is_disabled":false,"rental_uris":{"android":"levelo://app?vid=c8725501-4b55-4c9f-96e8-0849f4a16d4c","ios":"levelo://app?vid=c8725501-4b55-4c9f-96e8-0849f4a16d4c"},"vehicle_type_id":"4","last_reported":1700435182,"current_range_meters":5600,"station_id":"ce4bgv12rcd13ifvqcp0","pricing_plan_id":"free"},{"bike_id":"cd93f441-2d5d-4170-830b-cc944c55bac6","system_id":"levelo_inurba_marseille","lat":43.311722,"lon":5.387247,"is_reserved":false,"is_disabled":false,"rental_uris":{"android":"levelo://app?vid=cd93f441-2d5d-4170-830b-cc944c55bac6","ios":"levelo://app?vid=cd93f441-2d5d-4170-830b-cc944c55bac6"},"vehicle_type_id":"4","last_reported":1700435182,"current_range_meters":21600,"station_id":"ce4bgv12rcd13ifvqcp0","pricing_plan_id":"free"},{"bike_id":"1dc0dbc9-a05b-4919-9a64-72cefc142915","system_id":"levelo_inurba_marseille","lat":43.311722,"lon":5.387247,"is_reserved":false,"is_disabled":false,"rental_uris":{"android":"levelo://app?vid=1dc0dbc9-a05b-4919-9a64-72cefc142915","ios":"levelo://app?vid=1dc0dbc9-a05b-4919-9a64-72cefc142915"},"vehicle_type_id":"4","last_reported":1700435182,"current_range_meters":26000,"station_id":"ce4bgv12rcd13ifvqcp0","pricing_plan_id":"free"},{"bike_id":"0dc63073-f7a4-4522-a1b3-aa89746693bc","system_id":"levelo_inurba_marseille","lat":43.311602,"lon":5.387265,"is_reserved":false,"is_disabled":false,"rental_uris":{"android":"levelo://app?vid=0dc63073-f7a4-4522-a1b3-aa89746693bc","ios":"levelo://app?vid=0dc63073-f7a4-4522-a1b3-aa89746693bc"},"vehicle_type_id":"4","last_reported":1700435182,"current_range_meters":2000,"station_id":"ce4bgv12rcd13ifvqcp0","pricing_plan_id":"free"},{"bike_id":"968f4f7b-37af-48de-87ce-50d7ef1a7b79","system_id":"levelo_inurba_marseille","lat":43.328371,"lon":5.366909,"is_reserved":false,"is_disabled":false,"rental_uris":{"android":"levelo://app?vid=968f4f7b-37af-48de-87ce-50d7ef1a7b79","ios":"levelo://app?vid=968f4f7b-37af-48de-87ce-50d7ef1a7b79"},"vehicle_type_id":"4","last_reported":1700435182,"current_range_meters":18000,"station_id":"ce4bhs92rcd13ifvqi0g","pricing_plan_id":"free"},{"bike_id":"e5c30010-bab4-4fba-b633-780bc1a27fa9","system_id":"levelo_inurba_marseille","lat":43.32831,"lon":5.36679,"is_reserved":false,"is_disabled":false,"rental_uris":{"android":"levelo://app?vid=e5c30010-bab4-4fba-b633-780bc1a27fa9","ios":"levelo://app?vid=e5c30010-bab4-4fba-b633-780bc1a27fa9"},"vehicle_type_id":"4","last_reported":1700435182,"current_range_meters":3600,"station_id":"ce4bhs92rcd13ifvqi0g","pricing_plan_id":"free"},{"bike_id":"800a1342-faab-459c-8c88-cbeaec705f5e","system_id":"levelo_inurba_marseille","lat":43.328371,"lon":5.366909,"is_reserved":false,"is_disabled":false,"rental_uris":{"android":"levelo://app?vid=800a1342-faab-459c-8c88-cbeaec705f5e","ios":"levelo://app?vid=800a1342-faab-459c-8c88-cbeaec705f5e"},"vehicle_type_id":"4","last_reported":1700435182,"current_range_meters":18800,"station_id":"ce4bhs92rcd13ifvqi0g","pricing_plan_id":"free"},{"bike_id":"57a99e44-4b87-45cd-814d-913391f08902","system_id":"levelo_inurba_marseille","lat":43.297163,"lon":5.365866,"is_reserved":false,"is_disabled":false,"rental_uris":{"android":"levelo://app?vid=57a99e44-4b87-45cd-814d-913391f08902","ios":"levelo://app?vid=57a99e44-4b87-45cd-814d-913391f08902"},"vehicle_type_id":"4","last_reported":1700435182,"current_range_meters":26000,"station_id":"ce4bgn12rcd13ifvqbt0","pricing_plan_id":"free"},{"bike_id":"2a07802c-16d5-4104-9ab3-93ca6dd62601","system_id":"levelo_inurba_marseille","lat":43.29601,"lon":5.368027,"is_reserved":false,"is_disabled":false,"rental_uris":{"android":"levelo://app?vid=2a07802c-16d5-4104-9ab3-93ca6dd62601","ios":"levelo://app?vid=2a07802c-16d5-4104-9ab3-93ca6dd62601"},"vehicle_type_id":"4","last_reported":1700435182,"current_range_meters":25200,"station_id":"","pricing_plan_id":"free"},{"bike_id":"bbba92a3-ba6e-4621-a390-1b142f7c7c2b","system_id":"levelo_inurba_marseille","lat":43.29621,"lon":5.37151,"is_reserved":false,"is_disabled":false,"rental_uris":{"android":"levelo://app?vid=bbba92a3-ba6e-4621-a390-1b142f7c7c2b","ios":"levelo://app?vid=bbba92a3-ba6e-4621-a390-1b142f7c7c2b"},"vehicle_type_id":"4","last_reported":1700435182,"current_range_meters":5200,"station_id":"ce4bgnh2rcd13ifvqc0g","pricing_plan_id":"free"},{"bike_id":"700f8aea-1766-4c1d-96ab-b024bb36fe1b","system_id":"levelo_inurba_marseille","lat":43.309589,"lon":5.390258,"is_reserved":false,"is_disabled":false,"rental_uris":{"android":"levelo://app?vid=700f8aea-1766-4c1d-96ab-b024bb36fe1b","ios":"levelo://app?vid=700f8aea-1766-4c1d-96ab-b024bb36fe1b"},"vehicle_type_id":"4","last_reported":1700435182,"current_range_meters":27600,"station_id":"ce4bgup2rcd13ifvqco0","pricing_plan_id":"free"},{"bike_id":"7ab7b213-d950-43aa-8a09-e14eaf5eb50b","system_id":"levelo_inurba_marseille","lat":43.317557,"lon":5.390173,"is_reserved":false,"is_disabled":false,"rental_uris":{"android":"levelo://app?vid=7ab7b213-d950-43aa-8a09-e14eaf5eb50b","ios":"levelo://app?vid=7ab7b213-d950-43aa-8a09-e14eaf5eb50b"},"vehicle_type_id":"4","last_reported":1700435182,"current_range_meters":11600,"station_id":"ce4bhqp2rcd13ifvqhng","pricing_plan_id":"free"},{"bike_id":"67ffd28a-0325-489b-a10f-d90500122751","system_id":"levelo_inurba_marseille","lat":43.29578,"lon":5.37523,"is_reserved":false,"is_disabled":false,"rental_uris":{"android":"levelo://app?vid=67ffd28a-0325-489b-a10f-d90500122751","ios":"levelo://app?vid=67ffd28a-0325-489b-a10f-d90500122751"},"vehicle_type_id":"4","last_reported":1700435182,"current_range_meters":30400,"station_id":"ce4bgh92rcd13ifvqb50","pricing_plan_id":"free"},{"bike_id":"3e3e92fe-39b7-4933-99ff-3747b28b5d69","system_id":"levelo_inurba_marseille","lat":43.328154,"lon":5.380034,"is_reserved":false,"is_disabled":false,"rental_uris":{"android":"levelo://app?vid=3e3e92fe-39b7-4933-99ff-3747b28b5d69","ios":"levelo://app?vid=3e3e92fe-39b7-4933-99ff-3747b28b5d69"},"vehicle_type_id":"4","last_reported":1700435182,"current_range_meters":4400,"station_id":"","pricing_plan_id":"free"},{"bike_id":"d4c41013-bee1-4a88-bb0f-d0d2badfcfc1","system_id":"levelo_inurba_marseille","lat":43.299717,"lon":5.384845,"is_reserved":false,"is_disabled":false,"rental_uris":{"android":"levelo://app?vid=d4c41013-bee1-4a88-bb0f-d0d2badfcfc1","ios":"levelo://app?vid=d4c41013-bee1-4a88-bb0f-d0d2badfcfc1"},"vehicle_type_id":"4","last_reported":1700435182,"current_range_meters":24800,"station_id":"ce4bgj92rcd13ifvqbd0","pricing_plan_id":"free"},{"bike_id":"e145a3f7-00ac-4f8f-bfe5-435bc38ccaf7","system_id":"levelo_inurba_marseille","lat":43.293801,"lon":5.363066,"is_reserved":false,"is_disabled":false,"rental_uris":{"android":"levelo://app?vid=e145a3f7-00ac-4f8f-bfe5-435bc38ccaf7","ios":"levelo://app?vid=e145a3f7-00ac-4f8f-bfe5-435bc38ccaf7"},"vehicle_type_id":"4","last_reported":1700435182,"current_range_meters":22000,"station_id":"","pricing_plan_id":"free"},{"bike_id":"ded2c6f4-4716-438a-bf1b-5350d6e982db","system_id":"levelo_inurba_marseille","lat":43.32367,"lon":5.388836,"is_reserved":false,"is_disabled":false,"rental_uris":{"android":"levelo://app?vid=ded2c6f4-4716-438a-bf1b-5350d6e982db","ios":"levelo://app?vid=ded2c6f4-4716-438a-bf1b-5350d6e982db"},"vehicle_type_id":"4","last_reported":1700435182,"current_range_meters":24800,"station_id":"ce4bhqp2rcd13ifvqhog","pricing_plan_id":"free"},{"bike_id":"58c99be4-5c7d-4af2-aeeb-e918f6f42c6a","system_id":"levelo_inurba_marseille","lat":43.32367,"lon":5.388836,"is_reserved":false,"is_disabled":false,"rental_uris":{"android":"levelo://app?vid=58c99be4-5c7d-4af2-aeeb-e918f6f42c6a","ios":"levelo://app?vid=58c99be4-5c7d-4af2-aeeb-e918f6f42c6a"},"vehicle_type_id":"4","last_reported":1700435182,"current_range_meters":10000,"station_id":"ce4bhqp2rcd13ifvqhog","pricing_plan_id":"free"},{"bike_id":"8ab48bda-fdb7-405a-b50d-8f56062387c2","system_id":"levelo_inurba_marseille","lat":43.32366,"lon":5.38887,"is_reserved":false,"is_disabled":false,"rental_uris":{"android":"levelo://app?vid=8ab48bda-fdb7-405a-b50d-8f56062387c2","ios":"levelo://app?vid=8ab48bda-fdb7-405a-b50d-8f56062387c2"},"vehicle_type_id":"4","last_reported":1700435182,"current_range_meters":5200,"station_id":"ce4bhqp2rcd13ifvqhog","pricing_plan_id":"free"},{"bike_id":"4eef38cc-64cf-4f4d-8d5b-99bd9d3b1b37","system_id":"levelo_inurba_marseille","lat":43.29316,"lon":5.371218,"is_reserved":false,"is_disabled":false,"rental_uris":{"android":"levelo://app?vid=4eef38cc-64cf-4f4d-8d5b-99bd9d3b1b37","ios":"levelo://app?vid=4eef38cc-64cf-4f4d-8d5b-99bd9d3b1b37"},"vehicle_type_id":"4","last_reported":1700435182,"current_range_meters":23200,"station_id":"","pricing_plan_id":"free"},{"bike_id":"8a0426f6-bf93-4161-af84-be9383d246dc","system_id":"levelo_inurba_marseille","lat":43.293671,"lon":5.378532,"is_reserved":false,"is_disabled":false,"rental_uris":{"android":"levelo://app?vid=8a0426f6-bf93-4161-af84-be9383d246dc","ios":"levelo://app?vid=8a0426f6-bf93-4161-af84-be9383d246dc"},"vehicle_type_id":"4","last_reported":1700435182,"current_range_meters":0,"station_id":"ce4bgjh2rcd13ifvqbf0","pricing_plan_id":"free"},{"bike_id":"710078d4-ff47-451c-ae52-41da47a6188e","system_id":"levelo_inurba_marseille","lat":43.29257,"lon":5.37623,"is_reserved":false,"is_disabled":false,"rental_uris":{"android":"levelo://app?vid=710078d4-ff47-451c-ae52-41da47a6188e","ios":"levelo://app?vid=710078d4-ff47-451c-ae52-41da47a6188e"},"vehicle_type_id":"4","last_reported":1700435182,"current_range_meters":31200,"station_id":"ce4bgi12rcd13ifvqb80","pricing_plan_id":"free"},{"bike_id":"301daaf9-b32b-4328-a8e3-fcfae7c37a1c","system_id":"levelo_inurba_marseille","lat":43.30882,"lon":5.3964,"is_reserved":false,"is_disabled":false,"rental_uris":{"android":"levelo://app?vid=301daaf9-b32b-4328-a8e3-fcfae7c37a1c","ios":"levelo://app?vid=301daaf9-b32b-4328-a8e3-fcfae7c37a1c"},"vehicle_type_id":"4","last_reported":1700435182,"current_range_meters":7600,"station_id":"ce4bh012rcd13ifvqcv0","pricing_plan_id":"free"},{"bike_id":"67d392c9-b41b-4c0b-a0ce-dc3f20077ebd","system_id":"levelo_inurba_marseille","lat":43.311203,"lon":5.397293,"is_reserved":false,"is_disabled":false,"rental_uris":{"android":"levelo://app?vid=67d392c9-b41b-4c0b-a0ce-dc3f20077ebd","ios":"levelo://app?vid=67d392c9-b41b-4c0b-a0ce-dc3f20077ebd"},"vehicle_type_id":"4","last_reported":1700435182,"current_range_meters":8800,"station_id":"","pricing_plan_id":"free"},{"bike_id":"96985b75-9492-4cd1-bd98-4dbaadb89765","system_id":"levelo_inurba_marseille","lat":43.289442,"lon":5.366306,"is_reserved":false,"is_disabled":false,"rental_uris":{"android":"levelo://app?vid=96985b75-9492-4cd1-bd98-4dbaadb89765","ios":"levelo://app?vid=96985b75-9492-4cd1-bd98-4dbaadb89765"},"vehicle_type_id":"4","last_reported":1700435182,"current_range_meters":0,"station_id":"ce4bhap2rcd13ifvqek0","pricing_plan_id":"free"},{"bike_id":"17eddb9f-0e65-42b0-9bab-3e2e10d99fde","system_id":"levelo_inurba_marseille","lat":43.304274,"lon":5.397513,"is_reserved":false,"is_disabled":false,"rental_uris":{"android":"levelo://app?vid=17eddb9f-0e65-42b0-9bab-3e2e10d99fde","ios":"levelo://app?vid=17eddb9f-0e65-42b0-9bab-3e2e10d99fde"},"vehicle_type_id":"4","last_reported":1700435182,"current_range_meters":20800,"station_id":"ce4bh092rcd13ifvqd20","pricing_plan_id":"free"},{"bike_id":"32cd991c-97e6-4cf2-8579-724976d8ed55","system_id":"levelo_inurba_marseille","lat":43.297868,"lon":5.393422,"is_reserved":false,"is_disabled":false,"rental_uris":{"android":"levelo://app?vid=32cd991c-97e6-4cf2-8579-724976d8ed55","ios":"levelo://app?vid=32cd991c-97e6-4cf2-8579-724976d8ed55"},"vehicle_type_id":"4","last_reported":1700435182,"current_range_meters":0,"station_id":"chh1huq6cuj3fo74tm60","pricing_plan_id":"free"},{"bike_id":"667d6b1a-f2ce-4b11-9a4e-ea0e6f784dee","system_id":"levelo_inurba_marseille","lat":43.300835,"lon":5.39625,"is_reserved":false,"is_disabled":false,"rental_uris":{"android":"levelo://app?vid=667d6b1a-f2ce-4b11-9a4e-ea0e6f784dee","ios":"levelo://app?vid=667d6b1a-f2ce-4b11-9a4e-ea0e6f784dee"},"vehicle_type_id":"4","last_reported":1700435182,"current_range_meters":7600,"station_id":"","pricing_plan_id":"free"},{"bike_id":"07202f70-50d7-46f0-a5bd-59712659d6a0","system_id":"levelo_inurba_marseille","lat":43.31251,"lon":5.40162,"is_reserved":false,"is_disabled":false,"rental_uris":{"android":"levelo://app?vid=07202f70-50d7-46f0-a5bd-59712659d6a0","ios":"levelo://app?vid=07202f70-50d7-46f0-a5bd-59712659d6a0"},"vehicle_type_id":"4","last_reported":1700435182,"current_range_meters":9200,"station_id":"","pricing_plan_id":"free"},{"bike_id":"1ced8fdc-a6aa-4275-8265-965750bc86a3","system_id":"levelo_inurba_marseille","lat":43.312714,"lon":5.401626,"is_reserved":false,"is_disabled":false,"rental_uris":{"android":"levelo://app?vid=1ced8fdc-a6aa-4275-8265-965750bc86a3","ios":"levelo://app?vid=1ced8fdc-a6aa-4275-8265-965750bc86a3"},"vehicle_type_id":"4","last_reported":1700435182,"current_range_meters":7600,"station_id":"","pricing_plan_id":"free"},{"bike_id":"8fd2f6b8-1ad3-4738-b869-a5d6a26f9a7b","system_id":"levelo_inurba_marseille","lat":43.312609,"lon":5.401662,"is_reserved":false,"is_disabled":false,"rental_uris":{"android":"levelo://app?vid=8fd2f6b8-1ad3-4738-b869-a5d6a26f9a7b","ios":"levelo://app?vid=8fd2f6b8-1ad3-4738-b869-a5d6a26f9a7b"},"vehicle_type_id":"4","last_reported":1700435182,"current_range_meters":0,"station_id":"ce4bh092rcd13ifvqd30","pricing_plan_id":"free"},{"bike_id":"b787e0e8-880c-45dc-85f7-70077fba6894","system_id":"levelo_inurba_marseille","lat":43.33744,"lon":5.37472,"is_reserved":false,"is_disabled":false,"rental_uris":{"android":"levelo://app?vid=b787e0e8-880c-45dc-85f7-70077fba6894","ios":"levelo://app?vid=b787e0e8-880c-45dc-85f7-70077fba6894"},"vehicle_type_id":"4","last_reported":1700435182,"current_range_meters":22000,"station_id":"","pricing_plan_id":"free"},{"bike_id":"46509513-12f0-4bae-91ab-3b5bb7ed22cf","system_id":"levelo_inurba_marseille","lat":43.337704,"lon":5.374321,"is_reserved":false,"is_disabled":false,"rental_uris":{"android":"levelo://app?vid=46509513-12f0-4bae-91ab-3b5bb7ed22cf","ios":"levelo://app?vid=46509513-12f0-4bae-91ab-3b5bb7ed22cf"},"vehicle_type_id":"4","last_reported":1700435182,"current_range_meters":17600,"station_id":"","pricing_plan_id":"free"},{"bike_id":"3675aa0a-04d3-4c3a-b6ff-74b5da3a802a","system_id":"levelo_inurba_marseille","lat":43.30642,"lon":5.401031,"is_reserved":false,"is_disabled":false,"rental_uris":{"android":"levelo://app?vid=3675aa0a-04d3-4c3a-b6ff-74b5da3a802a","ios":"levelo://app?vid=3675aa0a-04d3-4c3a-b6ff-74b5da3a802a"},"vehicle_type_id":"4","last_reported":1700435182,"current_range_meters":18800,"station_id":"ce4bh112rcd13ifvqda0","pricing_plan_id":"free"},{"bike_id":"e0787a74-7557-4160-97d0-de212d764d65","system_id":"levelo_inurba_marseille","lat":43.306412,"lon":5.401035,"is_reserved":false,"is_disabled":false,"rental_uris":{"android":"levelo://app?vid=e0787a74-7557-4160-97d0-de212d764d65","ios":"levelo://app?vid=e0787a74-7557-4160-97d0-de212d764d65"},"vehicle_type_id":"4","last_reported":1700435182,"current_range_meters":25600,"station_id":"ce4bh112rcd13ifvqda0","pricing_plan_id":"free"},{"bike_id":"fd0d34f8-cf04-4c54-848b-80376d9aaaea","system_id":"levelo_inurba_marseille","lat":43.301117,"lon":5.398795,"is_reserved":false,"is_disabled":false,"rental_uris":{"android":"levelo://app?vid=fd0d34f8-cf04-4c54-848b-80376d9aaaea","ios":"levelo://app?vid=fd0d34f8-cf04-4c54-848b-80376d9aaaea"},"vehicle_type_id":"4","last_reported":1700435182,"current_range_meters":26800,"station_id":"ce4bh0h2rcd13ifvqd40","pricing_plan_id":"free"},{"bike_id":"6113ec1b-2768-4116-8e13-b39d4c840d68","system_id":"levelo_inurba_marseille","lat":43.301117,"lon":5.398795,"is_reserved":false,"is_disabled":false,"rental_uris":{"android":"levelo://app?vid=6113ec1b-2768-4116-8e13-b39d4c840d68","ios":"levelo://app?vid=6113ec1b-2768-4116-8e13-b39d4c840d68"},"vehicle_type_id":"4","last_reported":1700435182,"current_range_meters":26000,"station_id":"ce4bh0h2rcd13ifvqd40","pricing_plan_id":"free"},{"bike_id":"efee9a62-4950-4ea5-9b0b-665d7d1666b3","system_id":"levelo_inurba_marseille","lat":43.28727,"lon":5.36078,"is_reserved":false,"is_disabled":false,"rental_uris":{"android":"levelo://app?vid=efee9a62-4950-4ea5-9b0b-665d7d1666b3","ios":"levelo://app?vid=efee9a62-4950-4ea5-9b0b-665d7d1666b3"},"vehicle_type_id":"4","last_reported":1700435182,"current_range_meters":30000,"station_id":"cki0cbj6b192h4jlfktg","pricing_plan_id":"free"},{"bike_id":"3735b4ac-0725-41ac-a50d-dab88529fdf7","system_id":"levelo_inurba_marseille","lat":43.28727,"lon":5.36078,"is_reserved":false,"is_disabled":false,"rental_uris":{"android":"levelo://app?vid=3735b4ac-0725-41ac-a50d-dab88529fdf7","ios":"levelo://app?vid=3735b4ac-0725-41ac-a50d-dab88529fdf7"},"vehicle_type_id":"4","last_reported":1700435182,"current_range_meters":23200,"station_id":"cki0cbj6b192h4jlfktg","pricing_plan_id":"free"},{"bike_id":"4a4a0380-28ee-4022-ab36-4a03b8c2f60d","system_id":"levelo_inurba_marseille","lat":43.283998,"lon":5.375062,"is_reserved":false,"is_disabled":false,"rental_uris":{"android":"levelo://app?vid=4a4a0380-28ee-4022-ab36-4a03b8c2f60d","ios":"levelo://app?vid=4a4a0380-28ee-4022-ab36-4a03b8c2f60d"},"vehicle_type_id":"4","last_reported":1700435182,"current_range_meters":10000,"station_id":"ce4bh412rcd13ifvqds0","pricing_plan_id":"free"},{"bike_id":"dd353de6-0d7a-48dc-8090-d433a85de0d3","system_id":"levelo_inurba_marseille","lat":43.286961,"lon":5.373785,"is_reserved":false,"is_disabled":false,"rental_uris":{"android":"levelo://app?vid=dd353de6-0d7a-48dc-8090-d433a85de0d3","ios":"levelo://app?vid=dd353de6-0d7a-48dc-8090-d433a85de0d3"},"vehicle_type_id":"4","last_reported":1700435182,"current_range_meters":31600,"station_id":"ce4bh3p2rcd13ifvqdq0","pricing_plan_id":"free"},{"bike_id":"7bf5f36e-b80b-43e3-b4bd-7e4475bb055c","system_id":"levelo_inurba_marseille","lat":43.286961,"lon":5.373785,"is_reserved":false,"is_disabled":false,"rental_uris":{"android":"levelo://app?vid=7bf5f36e-b80b-43e3-b4bd-7e4475bb055c","ios":"levelo://app?vid=7bf5f36e-b80b-43e3-b4bd-7e4475bb055c"},"vehicle_type_id":"4","last_reported":1700435182,"current_range_meters":31600,"station_id":"ce4bh3p2rcd13ifvqdq0","pricing_plan_id":"free"},{"bike_id":"88f42187-4280-4e7e-be69-90fea2faf6db","system_id":"levelo_inurba_marseille","lat":43.286961,"lon":5.373785,"is_reserved":false,"is_disabled":false,"rental_uris":{"android":"levelo://app?vid=88f42187-4280-4e7e-be69-90fea2faf6db","ios":"levelo://app?vid=88f42187-4280-4e7e-be69-90fea2faf6db"},"vehicle_type_id":"4","last_reported":1700435182,"current_range_meters":29200,"station_id":"ce4bh3p2rcd13ifvqdq0","pricing_plan_id":"free"},{"bike_id":"11791d79-2316-48c9-8d68-0cedc627a8c9","system_id":"levelo_inurba_marseille","lat":43.286961,"lon":5.373785,"is_reserved":false,"is_disabled":false,"rental_uris":{"android":"levelo://app?vid=11791d79-2316-48c9-8d68-0cedc627a8c9","ios":"levelo://app?vid=11791d79-2316-48c9-8d68-0cedc627a8c9"},"vehicle_type_id":"4","last_reported":1700435182,"current_range_meters":28400,"station_id":"ce4bh3p2rcd13ifvqdq0","pricing_plan_id":"free"},{"bike_id":"bf6ecd45-d70e-454a-b3d2-d60d180de38a","system_id":"levelo_inurba_marseille","lat":43.286961,"lon":5.373785,"is_reserved":false,"is_disabled":false,"rental_uris":{"android":"levelo://app?vid=bf6ecd45-d70e-454a-b3d2-d60d180de38a","ios":"levelo://app?vid=bf6ecd45-d70e-454a-b3d2-d60d180de38a"},"vehicle_type_id":"4","last_reported":1700435182,"current_range_meters":21200,"station_id":"ce4bh3p2rcd13ifvqdq0","pricing_plan_id":"free"},{"bike_id":"0980a90a-5de9-4744-9de4-fe3e68b1e57a","system_id":"levelo_inurba_marseille","lat":43.286961,"lon":5.373785,"is_reserved":false,"is_disabled":false,"rental_uris":{"android":"levelo://app?vid=0980a90a-5de9-4744-9de4-fe3e68b1e57a","ios":"levelo://app?vid=0980a90a-5de9-4744-9de4-fe3e68b1e57a"},"vehicle_type_id":"4","last_reported":1700435182,"current_range_meters":31200,"station_id":"ce4bh3p2rcd13ifvqdq0","pricing_plan_id":"free"},{"bike_id":"ac565028-1bb3-4216-89d9-edc3cef2e6b5","system_id":"levelo_inurba_marseille","lat":43.286961,"lon":5.373785,"is_reserved":false,"is_disabled":false,"rental_uris":{"android":"levelo://app?vid=ac565028-1bb3-4216-89d9-edc3cef2e6b5","ios":"levelo://app?vid=ac565028-1bb3-4216-89d9-edc3cef2e6b5"},"vehicle_type_id":"4","last_reported":1700435182,"current_range_meters":27200,"station_id":"ce4bh3p2rcd13ifvqdq0","pricing_plan_id":"free"},{"bike_id":"668a58be-3b97-49b0-8ecb-a2d5b16ce93b","system_id":"levelo_inurba_marseille","lat":43.286612,"lon":5.363582,"is_reserved":false,"is_disabled":false,"rental_uris":{"android":"levelo://app?vid=668a58be-3b97-49b0-8ecb-a2d5b16ce93b","ios":"levelo://app?vid=668a58be-3b97-49b0-8ecb-a2d5b16ce93b"},"vehicle_type_id":"4","last_reported":1700435182,"current_range_meters":27600,"station_id":"ce4bhah2rcd13ifvqej0","pricing_plan_id":"free"},{"bike_id":"a55a3635-938e-4e2e-a247-3499c05fa46c","system_id":"levelo_inurba_marseille","lat":43.298681,"lon":5.397225,"is_reserved":false,"is_disabled":false,"rental_uris":{"android":"levelo://app?vid=a55a3635-938e-4e2e-a247-3499c05fa46c","ios":"levelo://app?vid=a55a3635-938e-4e2e-a247-3499c05fa46c"},"vehicle_type_id":"4","last_reported":1700435182,"current_range_meters":24800,"station_id":"ce4bh0h2rcd13ifvqd50","pricing_plan_id":"free"},{"bike_id":"f744b3b1-117e-4eca-ba6b-3a255df86556","system_id":"levelo_inurba_marseille","lat":43.302759,"lon":5.400793,"is_reserved":false,"is_disabled":false,"rental_uris":{"android":"levelo://app?vid=f744b3b1-117e-4eca-ba6b-3a255df86556","ios":"levelo://app?vid=f744b3b1-117e-4eca-ba6b-3a255df86556"},"vehicle_type_id":"4","last_reported":1700435182,"current_range_meters":7200,"station_id":"ce4bgvh2rcd13ifvqcs0","pricing_plan_id":"free"},{"bike_id":"104dbfff-841c-4d27-87f1-ff7c7c719c4c","system_id":"levelo_inurba_marseille","lat":43.287185,"lon":5.379373,"is_reserved":false,"is_disabled":false,"rental_uris":{"android":"levelo://app?vid=104dbfff-841c-4d27-87f1-ff7c7c719c4c","ios":"levelo://app?vid=104dbfff-841c-4d27-87f1-ff7c7c719c4c"},"vehicle_type_id":"4","last_reported":1700435182,"current_range_meters":23200,"station_id":"ce4bh9p2rcd13ifvqec0","pricing_plan_id":"free"},{"bike_id":"82f0bec1-510e-4e11-b022-4e2ec4798ad3","system_id":"levelo_inurba_marseille","lat":43.316517,"lon":5.404375,"is_reserved":false,"is_disabled":false,"rental_uris":{"android":"levelo://app?vid=82f0bec1-510e-4e11-b022-4e2ec4798ad3","ios":"levelo://app?vid=82f0bec1-510e-4e11-b022-4e2ec4798ad3"},"vehicle_type_id":"4","last_reported":1700435182,"current_range_meters":12400,"station_id":"ce4bh012rcd13ifvqd00","pricing_plan_id":"free"},{"bike_id":"509eb662-b451-4a45-8c25-27d79823d125","system_id":"levelo_inurba_marseille","lat":43.316517,"lon":5.404375,"is_reserved":false,"is_disabled":false,"rental_uris":{"android":"levelo://app?vid=509eb662-b451-4a45-8c25-27d79823d125","ios":"levelo://app?vid=509eb662-b451-4a45-8c25-27d79823d125"},"vehicle_type_id":"4","last_reported":1700435182,"current_range_meters":10000,"station_id":"ce4bh012rcd13ifvqd00","pricing_plan_id":"free"},{"bike_id":"cbc80459-b41e-4cea-a4fc-4b9c019bcf84","system_id":"levelo_inurba_marseille","lat":43.291994,"lon":5.392907,"is_reserved":false,"is_disabled":false,"rental_uris":{"android":"levelo://app?vid=cbc80459-b41e-4cea-a4fc-4b9c019bcf84","ios":"levelo://app?vid=cbc80459-b41e-4cea-a4fc-4b9c019bcf84"},"vehicle_type_id":"4","last_reported":1700435182,"current_range_meters":23200,"station_id":"ce4bh192rcd13ifvqdd0","pricing_plan_id":"free"},{"bike_id":"323b8e82-cd83-4462-8f9d-fceece34498a","system_id":"levelo_inurba_marseille","lat":43.284538,"lon":5.358657,"is_reserved":false,"is_disabled":false,"rental_uris":{"android":"levelo://app?vid=323b8e82-cd83-4462-8f9d-fceece34498a","ios":"levelo://app?vid=323b8e82-cd83-4462-8f9d-fceece34498a"},"vehicle_type_id":"4","last_reported":1700435182,"current_range_meters":26400,"station_id":"ce4bhah2rcd13ifvqei0","pricing_plan_id":"free"},{"bike_id":"abaff342-1ad0-46f7-93d6-5af34e7fd688","system_id":"levelo_inurba_marseille","lat":43.284538,"lon":5.358657,"is_reserved":false,"is_disabled":false,"rental_uris":{"android":"levelo://app?vid=abaff342-1ad0-46f7-93d6-5af34e7fd688","ios":"levelo://app?vid=abaff342-1ad0-46f7-93d6-5af34e7fd688"},"vehicle_type_id":"4","last_reported":1700435182,"current_range_meters":20400,"station_id":"ce4bhah2rcd13ifvqei0","pricing_plan_id":"free"},{"bike_id":"ce19691d-4d93-4d0f-906a-8a8378c28796","system_id":"levelo_inurba_marseille","lat":43.284538,"lon":5.358657,"is_reserved":false,"is_disabled":false,"rental_uris":{"android":"levelo://app?vid=ce19691d-4d93-4d0f-906a-8a8378c28796","ios":"levelo://app?vid=ce19691d-4d93-4d0f-906a-8a8378c28796"},"vehicle_type_id":"4","last_reported":1700435182,"current_range_meters":6800,"station_id":"ce4bhah2rcd13ifvqei0","pricing_plan_id":"free"},{"bike_id":"9bd4fa47-272c-4a59-bbe3-5d67fc485b91","system_id":"levelo_inurba_marseille","lat":43.284538,"lon":5.358657,"is_reserved":false,"is_disabled":false,"rental_uris":{"android":"levelo://app?vid=9bd4fa47-272c-4a59-bbe3-5d67fc485b91","ios":"levelo://app?vid=9bd4fa47-272c-4a59-bbe3-5d67fc485b91"},"vehicle_type_id":"4","last_reported":1700435182,"current_range_meters":16400,"station_id":"ce4bhah2rcd13ifvqei0","pricing_plan_id":"free"},{"bike_id":"8f6b8969-53e8-419c-be97-380429f41620","system_id":"levelo_inurba_marseille","lat":43.284534,"lon":5.358662,"is_reserved":false,"is_disabled":false,"rental_uris":{"android":"levelo://app?vid=8f6b8969-53e8-419c-be97-380429f41620","ios":"levelo://app?vid=8f6b8969-53e8-419c-be97-380429f41620"},"vehicle_type_id":"4","last_reported":1700435182,"current_range_meters":28000,"station_id":"ce4bhah2rcd13ifvqei0","pricing_plan_id":"free"},{"bike_id":"38a9956c-e9e2-49db-bda6-2d7b54a9aa53","system_id":"levelo_inurba_marseille","lat":43.28612,"lon":5.35102,"is_reserved":false,"is_disabled":false,"rental_uris":{"android":"levelo://app?vid=38a9956c-e9e2-49db-bda6-2d7b54a9aa53","ios":"levelo://app?vid=38a9956c-e9e2-49db-bda6-2d7b54a9aa53"},"vehicle_type_id":"4","last_reported":1700435182,"current_range_meters":31200,"station_id":"ce4bhch2rcd13ifvqeug","pricing_plan_id":"free"},{"bike_id":"f59307c9-0b2e-4bc2-8d26-b3095e7d397b","system_id":"levelo_inurba_marseille","lat":43.283998,"lon":5.375062,"is_reserved":false,"is_disabled":false,"rental_uris":{"android":"levelo://app?vid=f59307c9-0b2e-4bc2-8d26-b3095e7d397b","ios":"levelo://app?vid=f59307c9-0b2e-4bc2-8d26-b3095e7d397b"},"vehicle_type_id":"4","last_reported":1700435182,"current_range_meters":22000,"station_id":"ce4bh412rcd13ifvqds0","pricing_plan_id":"free"},{"bike_id":"61163de4-dfa6-4983-8481-10206c9069b9","system_id":"levelo_inurba_marseille","lat":43.283998,"lon":5.375062,"is_reserved":false,"is_disabled":false,"rental_uris":{"android":"levelo://app?vid=61163de4-dfa6-4983-8481-10206c9069b9","ios":"levelo://app?vid=61163de4-dfa6-4983-8481-10206c9069b9"},"vehicle_type_id":"4","last_reported":1700435182,"current_range_meters":20400,"station_id":"ce4bh412rcd13ifvqds0","pricing_plan_id":"free"},{"bike_id":"f16c7963-22c6-4c10-9d93-914892954d35","system_id":"levelo_inurba_marseille","lat":43.31324,"lon":5.40711,"is_reserved":false,"is_disabled":false,"rental_uris":{"android":"levelo://app?vid=f16c7963-22c6-4c10-9d93-914892954d35","ios":"levelo://app?vid=f16c7963-22c6-4c10-9d93-914892954d35"},"vehicle_type_id":"4","last_reported":1700435182,"current_range_meters":13200,"station_id":"","pricing_plan_id":"free"},{"bike_id":"1e50ddd8-4ce1-44cf-9424-4bb82083c7d8","system_id":"levelo_inurba_marseille","lat":43.283998,"lon":5.375062,"is_reserved":false,"is_disabled":false,"rental_uris":{"android":"levelo://app?vid=1e50ddd8-4ce1-44cf-9424-4bb82083c7d8","ios":"levelo://app?vid=1e50ddd8-4ce1-44cf-9424-4bb82083c7d8"},"vehicle_type_id":"4","last_reported":1700435182,"current_range_meters":5200,"station_id":"ce4bh412rcd13ifvqds0","pricing_plan_id":"free"},{"bike_id":"5974ad3b-da81-42ca-a08b-1b3632a47afa","system_id":"levelo_inurba_marseille","lat":43.33237,"lon":5.3985,"is_reserved":false,"is_disabled":false,"rental_uris":{"android":"levelo://app?vid=5974ad3b-da81-42ca-a08b-1b3632a47afa","ios":"levelo://app?vid=5974ad3b-da81-42ca-a08b-1b3632a47afa"},"vehicle_type_id":"4","last_reported":1700435182,"current_range_meters":0,"station_id":"","pricing_plan_id":"free"},{"bike_id":"6d829e3a-1233-4989-b53e-278c5d002cbf","system_id":"levelo_inurba_marseille","lat":43.33717,"lon":5.391857,"is_reserved":false,"is_disabled":false,"rental_uris":{"android":"levelo://app?vid=6d829e3a-1233-4989-b53e-278c5d002cbf","ios":"levelo://app?vid=6d829e3a-1233-4989-b53e-278c5d002cbf"},"vehicle_type_id":"4","last_reported":1700435182,"current_range_meters":28400,"station_id":"ce4bhr92rcd13ifvqhsg","pricing_plan_id":"free"},{"bike_id":"e8bda807-8855-4a5b-8016-36f78b7a6f3c","system_id":"levelo_inurba_marseille","lat":43.337168,"lon":5.391825,"is_reserved":false,"is_disabled":false,"rental_uris":{"android":"levelo://app?vid=e8bda807-8855-4a5b-8016-36f78b7a6f3c","ios":"levelo://app?vid=e8bda807-8855-4a5b-8016-36f78b7a6f3c"},"vehicle_type_id":"4","last_reported":1700435182,"current_range_meters":13200,"station_id":"ce4bhr92rcd13ifvqhsg","pricing_plan_id":"free"},{"bike_id":"a2349631-742f-4f85-8339-c8ac02b2e2e2","system_id":"levelo_inurba_marseille","lat":43.284793,"lon":5.384113,"is_reserved":false,"is_disabled":false,"rental_uris":{"android":"levelo://app?vid=a2349631-742f-4f85-8339-c8ac02b2e2e2","ios":"levelo://app?vid=a2349631-742f-4f85-8339-c8ac02b2e2e2"},"vehicle_type_id":"4","last_reported":1700435182,"current_range_meters":8400,"station_id":"ce4bh512rcd13ifvqe3g","pricing_plan_id":"free"},{"bike_id":"953ee5b9-ce1c-46af-9d96-16c9fb52bef1","system_id":"levelo_inurba_marseille","lat":43.288501,"lon":5.393087,"is_reserved":false,"is_disabled":false,"rental_uris":{"android":"levelo://app?vid=953ee5b9-ce1c-46af-9d96-16c9fb52bef1","ios":"levelo://app?vid=953ee5b9-ce1c-46af-9d96-16c9fb52bef1"},"vehicle_type_id":"4","last_reported":1700435182,"current_range_meters":15600,"station_id":"ce4bh2p2rcd13ifvqdi0","pricing_plan_id":"free"},{"bike_id":"f393d226-e938-4faf-b178-acabbdc55ed5","system_id":"levelo_inurba_marseille","lat":43.288497,"lon":5.393089,"is_reserved":false,"is_disabled":false,"rental_uris":{"android":"levelo://app?vid=f393d226-e938-4faf-b178-acabbdc55ed5","ios":"levelo://app?vid=f393d226-e938-4faf-b178-acabbdc55ed5"},"vehicle_type_id":"4","last_reported":1700435182,"current_range_meters":12400,"station_id":"ce4bh2p2rcd13ifvqdi0","pricing_plan_id":"free"},{"bike_id":"314f21e3-d12c-4df0-85de-bd1a89a721df","system_id":"levelo_inurba_marseille","lat":43.288501,"lon":5.393087,"is_reserved":false,"is_disabled":false,"rental_uris":{"android":"levelo://app?vid=314f21e3-d12c-4df0-85de-bd1a89a721df","ios":"levelo://app?vid=314f21e3-d12c-4df0-85de-bd1a89a721df"},"vehicle_type_id":"4","last_reported":1700435182,"current_range_meters":20000,"station_id":"ce4bh2p2rcd13ifvqdi0","pricing_plan_id":"free"},{"bike_id":"0fe52cb4-34f1-43b0-ba3f-a639b024a4ff","system_id":"levelo_inurba_marseille","lat":43.288501,"lon":5.393087,"is_reserved":false,"is_disabled":false,"rental_uris":{"android":"levelo://app?vid=0fe52cb4-34f1-43b0-ba3f-a639b024a4ff","ios":"levelo://app?vid=0fe52cb4-34f1-43b0-ba3f-a639b024a4ff"},"vehicle_type_id":"4","last_reported":1700435182,"current_range_meters":25600,"station_id":"ce4bh2p2rcd13ifvqdi0","pricing_plan_id":"free"},{"bike_id":"3eed9e98-a53b-4dc4-aa65-7a55c54585fd","system_id":"levelo_inurba_marseille","lat":43.283494,"lon":5.380945,"is_reserved":false,"is_disabled":false,"rental_uris":{"android":"levelo://app?vid=3eed9e98-a53b-4dc4-aa65-7a55c54585fd","ios":"levelo://app?vid=3eed9e98-a53b-4dc4-aa65-7a55c54585fd"},"vehicle_type_id":"4","last_reported":1700435182,"current_range_meters":14000,"station_id":"ce4bh412rcd13ifvqdr0","pricing_plan_id":"free"},{"bike_id":"b7da9083-5fd6-4f00-b4cf-3e929d01706e","system_id":"levelo_inurba_marseille","lat":43.283498,"lon":5.380948,"is_reserved":false,"is_disabled":false,"rental_uris":{"android":"levelo://app?vid=b7da9083-5fd6-4f00-b4cf-3e929d01706e","ios":"levelo://app?vid=b7da9083-5fd6-4f00-b4cf-3e929d01706e"},"vehicle_type_id":"4","last_reported":1700435182,"current_range_meters":29200,"station_id":"ce4bh412rcd13ifvqdr0","pricing_plan_id":"free"},{"bike_id":"9cb3374d-88b0-487e-987b-7ca530a3e4a2","system_id":"levelo_inurba_marseille","lat":43.343606,"lon":5.374968,"is_reserved":false,"is_disabled":false,"rental_uris":{"android":"levelo://app?vid=9cb3374d-88b0-487e-987b-7ca530a3e4a2","ios":"levelo://app?vid=9cb3374d-88b0-487e-987b-7ca530a3e4a2"},"vehicle_type_id":"4","last_reported":1700435182,"current_range_meters":0,"station_id":"","pricing_plan_id":"free"},{"bike_id":"477ce9f3-6d25-4c76-a12a-ecb9ecf9a588","system_id":"levelo_inurba_marseille","lat":43.292724,"lon":5.401131,"is_reserved":false,"is_disabled":false,"rental_uris":{"android":"levelo://app?vid=477ce9f3-6d25-4c76-a12a-ecb9ecf9a588","ios":"levelo://app?vid=477ce9f3-6d25-4c76-a12a-ecb9ecf9a588"},"vehicle_type_id":"4","last_reported":1700435182,"current_range_meters":10000,"station_id":"ce4bh312rcd13ifvqdk0","pricing_plan_id":"free"},{"bike_id":"66720197-b989-4f59-8f5e-5df1f5713141","system_id":"levelo_inurba_marseille","lat":43.292724,"lon":5.401131,"is_reserved":false,"is_disabled":false,"rental_uris":{"android":"levelo://app?vid=66720197-b989-4f59-8f5e-5df1f5713141","ios":"levelo://app?vid=66720197-b989-4f59-8f5e-5df1f5713141"},"vehicle_type_id":"4","last_reported":1700435182,"current_range_meters":20000,"station_id":"ce4bh312rcd13ifvqdk0","pricing_plan_id":"free"},{"bike_id":"c917fcb4-2308-46e6-a3af-e6e12679f661","system_id":"levelo_inurba_marseille","lat":43.282754,"lon":5.350519,"is_reserved":false,"is_disabled":false,"rental_uris":{"android":"levelo://app?vid=c917fcb4-2308-46e6-a3af-e6e12679f661","ios":"levelo://app?vid=c917fcb4-2308-46e6-a3af-e6e12679f661"},"vehicle_type_id":"4","last_reported":1700435182,"current_range_meters":24800,"station_id":"ce4bhbp2rcd13ifvqerg","pricing_plan_id":"free"},{"bike_id":"f5263637-4e20-441f-85d6-56c16367d9b1","system_id":"levelo_inurba_marseille","lat":43.282709,"lon":5.350721,"is_reserved":false,"is_disabled":false,"rental_uris":{"android":"levelo://app?vid=f5263637-4e20-441f-85d6-56c16367d9b1","ios":"levelo://app?vid=f5263637-4e20-441f-85d6-56c16367d9b1"},"vehicle_type_id":"4","last_reported":1700435182,"current_range_meters":19600,"station_id":"ce4bhbp2rcd13ifvqerg","pricing_plan_id":"free"},{"bike_id":"6493c972-2e32-42a4-ba33-a39a1ddb1432","system_id":"levelo_inurba_marseille","lat":43.28268,"lon":5.35073,"is_reserved":false,"is_disabled":false,"rental_uris":{"android":"levelo://app?vid=6493c972-2e32-42a4-ba33-a39a1ddb1432","ios":"levelo://app?vid=6493c972-2e32-42a4-ba33-a39a1ddb1432"},"vehicle_type_id":"4","last_reported":1700435182,"current_range_meters":30400,"station_id":"ce4bhbp2rcd13ifvqerg","pricing_plan_id":"free"},{"bike_id":"4d1cb5bb-ee16-43e1-ae14-7f66ceaa2ef1","system_id":"levelo_inurba_marseille","lat":43.29045,"lon":5.39956,"is_reserved":false,"is_disabled":false,"rental_uris":{"android":"levelo://app?vid=4d1cb5bb-ee16-43e1-ae14-7f66ceaa2ef1","ios":"levelo://app?vid=4d1cb5bb-ee16-43e1-ae14-7f66ceaa2ef1"},"vehicle_type_id":"4","last_reported":1700435182,"current_range_meters":0,"station_id":"ce4bh392rcd13ifvqdm0","pricing_plan_id":"free"},{"bike_id":"e78a5ab7-932c-43c7-8dfb-ad0830b9b28e","system_id":"levelo_inurba_marseille","lat":43.281044,"lon":5.378308,"is_reserved":false,"is_disabled":false,"rental_uris":{"android":"levelo://app?vid=e78a5ab7-932c-43c7-8dfb-ad0830b9b28e","ios":"levelo://app?vid=e78a5ab7-932c-43c7-8dfb-ad0830b9b28e"},"vehicle_type_id":"4","last_reported":1700435182,"current_range_meters":28400,"station_id":"ce4bha12rcd13ifvqee0","pricing_plan_id":"free"},{"bike_id":"04afa565-9629-40d9-9d9b-d300eadd9e72","system_id":"levelo_inurba_marseille","lat":43.281044,"lon":5.378308,"is_reserved":false,"is_disabled":false,"rental_uris":{"android":"levelo://app?vid=04afa565-9629-40d9-9d9b-d300eadd9e72","ios":"levelo://app?vid=04afa565-9629-40d9-9d9b-d300eadd9e72"},"vehicle_type_id":"4","last_reported":1700435182,"current_range_meters":28400,"station_id":"ce4bha12rcd13ifvqee0","pricing_plan_id":"free"},{"bike_id":"ccf9b17e-2fb6-47d5-b5cb-73ea08fcb6e5","system_id":"levelo_inurba_marseille","lat":43.28575,"lon":5.39498,"is_reserved":false,"is_disabled":false,"rental_uris":{"android":"levelo://app?vid=ccf9b17e-2fb6-47d5-b5cb-73ea08fcb6e5","ios":"levelo://app?vid=ccf9b17e-2fb6-47d5-b5cb-73ea08fcb6e5"},"vehicle_type_id":"4","last_reported":1700435182,"current_range_meters":0,"station_id":"ce4bh292rcd13ifvqdg0","pricing_plan_id":"free"},{"bike_id":"81bdffcf-f932-4a50-a64c-baaaca8f05ff","system_id":"levelo_inurba_marseille","lat":43.285742,"lon":5.395004,"is_reserved":false,"is_disabled":false,"rental_uris":{"android":"levelo://app?vid=81bdffcf-f932-4a50-a64c-baaaca8f05ff","ios":"levelo://app?vid=81bdffcf-f932-4a50-a64c-baaaca8f05ff"},"vehicle_type_id":"4","last_reported":1700435182,"current_range_meters":18400,"station_id":"ce4bh292rcd13ifvqdg0","pricing_plan_id":"free"},{"bike_id":"71eaa71a-f2cf-48ab-a273-05166976badc","system_id":"levelo_inurba_marseille","lat":43.279087,"lon":5.380114,"is_reserved":false,"is_disabled":false,"rental_uris":{"android":"levelo://app?vid=71eaa71a-f2cf-48ab-a273-05166976badc","ios":"levelo://app?vid=71eaa71a-f2cf-48ab-a273-05166976badc"},"vehicle_type_id":"4","last_reported":1700435182,"current_range_meters":26400,"station_id":"ce4bhf92rcd13ifvqf50","pricing_plan_id":"free"},{"bike_id":"81b8e324-48e8-43c4-a9ef-3759cbf406ed","system_id":"levelo_inurba_marseille","lat":43.279087,"lon":5.380114,"is_reserved":false,"is_disabled":false,"rental_uris":{"android":"levelo://app?vid=81b8e324-48e8-43c4-a9ef-3759cbf406ed","ios":"levelo://app?vid=81b8e324-48e8-43c4-a9ef-3759cbf406ed"},"vehicle_type_id":"4","last_reported":1700435182,"current_range_meters":30000,"station_id":"ce4bhf92rcd13ifvqf50","pricing_plan_id":"free"},{"bike_id":"45a1999e-869c-49dd-8a38-58d936534c23","system_id":"levelo_inurba_marseille","lat":43.28711,"lon":5.39987,"is_reserved":false,"is_disabled":false,"rental_uris":{"android":"levelo://app?vid=45a1999e-869c-49dd-8a38-58d936534c23","ios":"levelo://app?vid=45a1999e-869c-49dd-8a38-58d936534c23"},"vehicle_type_id":"4","last_reported":1700435182,"current_range_meters":21200,"station_id":"ce4bho92rcd13ifvqh3g","pricing_plan_id":"free"},{"bike_id":"df8315a3-2b8c-46fb-8ab2-9812b9ced3fb","system_id":"levelo_inurba_marseille","lat":43.287154,"lon":5.399979,"is_reserved":false,"is_disabled":false,"rental_uris":{"android":"levelo://app?vid=df8315a3-2b8c-46fb-8ab2-9812b9ced3fb","ios":"levelo://app?vid=df8315a3-2b8c-46fb-8ab2-9812b9ced3fb"},"vehicle_type_id":"4","last_reported":1700435182,"current_range_meters":24000,"station_id":"ce4bho92rcd13ifvqh3g","pricing_plan_id":"free"},{"bike_id":"2ea0e7c0-846e-45b2-afc8-16249f081dbc","system_id":"levelo_inurba_marseille","lat":43.287117,"lon":5.399908,"is_reserved":false,"is_disabled":false,"rental_uris":{"android":"levelo://app?vid=2ea0e7c0-846e-45b2-afc8-16249f081dbc","ios":"levelo://app?vid=2ea0e7c0-846e-45b2-afc8-16249f081dbc"},"vehicle_type_id":"4","last_reported":1700435182,"current_range_meters":3200,"station_id":"ce4bho92rcd13ifvqh3g","pricing_plan_id":"free"},{"bike_id":"b5f3ebd8-3e96-47e5-807a-8523ccf3d920","system_id":"levelo_inurba_marseille","lat":43.287154,"lon":5.399979,"is_reserved":false,"is_disabled":false,"rental_uris":{"android":"levelo://app?vid=b5f3ebd8-3e96-47e5-807a-8523ccf3d920","ios":"levelo://app?vid=b5f3ebd8-3e96-47e5-807a-8523ccf3d920"},"vehicle_type_id":"4","last_reported":1700435182,"current_range_meters":31200,"station_id":"ce4bho92rcd13ifvqh3g","pricing_plan_id":"free"},{"bike_id":"254ec796-7bd2-43b3-988b-03f4dbb85321","system_id":"levelo_inurba_marseille","lat":43.28708,"lon":5.39988,"is_reserved":false,"is_disabled":false,"rental_uris":{"android":"levelo://app?vid=254ec796-7bd2-43b3-988b-03f4dbb85321","ios":"levelo://app?vid=254ec796-7bd2-43b3-988b-03f4dbb85321"},"vehicle_type_id":"4","last_reported":1700435182,"current_range_meters":27600,"station_id":"ce4bho92rcd13ifvqh3g","pricing_plan_id":"free"},{"bike_id":"1cd4f039-ac36-4596-9847-31c56c0dc7ca","system_id":"levelo_inurba_marseille","lat":43.287154,"lon":5.399979,"is_reserved":false,"is_disabled":false,"rental_uris":{"android":"levelo://app?vid=1cd4f039-ac36-4596-9847-31c56c0dc7ca","ios":"levelo://app?vid=1cd4f039-ac36-4596-9847-31c56c0dc7ca"},"vehicle_type_id":"4","last_reported":1700435182,"current_range_meters":29200,"station_id":"ce4bho92rcd13ifvqh3g","pricing_plan_id":"free"},{"bike_id":"04546a3f-e5f9-4ed7-8b64-5f947ebfbbf7","system_id":"levelo_inurba_marseille","lat":43.287154,"lon":5.399979,"is_reserved":false,"is_disabled":false,"rental_uris":{"android":"levelo://app?vid=04546a3f-e5f9-4ed7-8b64-5f947ebfbbf7","ios":"levelo://app?vid=04546a3f-e5f9-4ed7-8b64-5f947ebfbbf7"},"vehicle_type_id":"4","last_reported":1700435182,"current_range_meters":25200,"station_id":"ce4bho92rcd13ifvqh3g","pricing_plan_id":"free"},{"bike_id":"fca3052f-8ec4-4ccf-bf65-31895f59b3e8","system_id":"levelo_inurba_marseille","lat":43.28707,"lon":5.39993,"is_reserved":false,"is_disabled":false,"rental_uris":{"android":"levelo://app?vid=fca3052f-8ec4-4ccf-bf65-31895f59b3e8","ios":"levelo://app?vid=fca3052f-8ec4-4ccf-bf65-31895f59b3e8"},"vehicle_type_id":"4","last_reported":1700435182,"current_range_meters":23200,"station_id":"ce4bho92rcd13ifvqh3g","pricing_plan_id":"free"},{"bike_id":"f41f6083-6ec6-4597-8152-76c78ee78027","system_id":"levelo_inurba_marseille","lat":43.287154,"lon":5.399979,"is_reserved":false,"is_disabled":false,"rental_uris":{"android":"levelo://app?vid=f41f6083-6ec6-4597-8152-76c78ee78027","ios":"levelo://app?vid=f41f6083-6ec6-4597-8152-76c78ee78027"},"vehicle_type_id":"4","last_reported":1700435182,"current_range_meters":20000,"station_id":"ce4bho92rcd13ifvqh3g","pricing_plan_id":"free"},{"bike_id":"6b686fd8-6af4-4d87-acca-58335e891be3","system_id":"levelo_inurba_marseille","lat":43.287154,"lon":5.399979,"is_reserved":false,"is_disabled":false,"rental_uris":{"android":"levelo://app?vid=6b686fd8-6af4-4d87-acca-58335e891be3","ios":"levelo://app?vid=6b686fd8-6af4-4d87-acca-58335e891be3"},"vehicle_type_id":"4","last_reported":1700435182,"current_range_meters":15600,"station_id":"ce4bho92rcd13ifvqh3g","pricing_plan_id":"free"},{"bike_id":"a470fe4d-0de8-4153-9093-7bc98b7e8458","system_id":"levelo_inurba_marseille","lat":43.287154,"lon":5.399979,"is_reserved":false,"is_disabled":false,"rental_uris":{"android":"levelo://app?vid=a470fe4d-0de8-4153-9093-7bc98b7e8458","ios":"levelo://app?vid=a470fe4d-0de8-4153-9093-7bc98b7e8458"},"vehicle_type_id":"4","last_reported":1700435182,"current_range_meters":25200,"station_id":"ce4bho92rcd13ifvqh3g","pricing_plan_id":"free"},{"bike_id":"de50e9b8-9705-426d-ab43-9b87152e90c9","system_id":"levelo_inurba_marseille","lat":43.287154,"lon":5.399979,"is_reserved":false,"is_disabled":false,"rental_uris":{"android":"levelo://app?vid=de50e9b8-9705-426d-ab43-9b87152e90c9","ios":"levelo://app?vid=de50e9b8-9705-426d-ab43-9b87152e90c9"},"vehicle_type_id":"4","last_reported":1700435182,"current_range_meters":1600,"station_id":"ce4bho92rcd13ifvqh3g","pricing_plan_id":"free"},{"bike_id":"a88f0f7b-4580-4ab2-b05c-e42778bbe333","system_id":"levelo_inurba_marseille","lat":43.287154,"lon":5.399979,"is_reserved":false,"is_disabled":false,"rental_uris":{"android":"levelo://app?vid=a88f0f7b-4580-4ab2-b05c-e42778bbe333","ios":"levelo://app?vid=a88f0f7b-4580-4ab2-b05c-e42778bbe333"},"vehicle_type_id":"4","last_reported":1700435182,"current_range_meters":12800,"station_id":"ce4bho92rcd13ifvqh3g","pricing_plan_id":"free"},{"bike_id":"2836fb25-90fd-419f-ab95-f049a7d008c0","system_id":"levelo_inurba_marseille","lat":43.287154,"lon":5.399979,"is_reserved":false,"is_disabled":false,"rental_uris":{"android":"levelo://app?vid=2836fb25-90fd-419f-ab95-f049a7d008c0","ios":"levelo://app?vid=2836fb25-90fd-419f-ab95-f049a7d008c0"},"vehicle_type_id":"4","last_reported":1700435182,"current_range_meters":31600,"station_id":"ce4bho92rcd13ifvqh3g","pricing_plan_id":"free"},{"bike_id":"26ed06fb-65c3-4a06-9042-7ed81835e8bc","system_id":"levelo_inurba_marseille","lat":43.287154,"lon":5.399979,"is_reserved":false,"is_disabled":false,"rental_uris":{"android":"levelo://app?vid=26ed06fb-65c3-4a06-9042-7ed81835e8bc","ios":"levelo://app?vid=26ed06fb-65c3-4a06-9042-7ed81835e8bc"},"vehicle_type_id":"4","last_reported":1700435182,"current_range_meters":26400,"station_id":"ce4bho92rcd13ifvqh3g","pricing_plan_id":"free"},{"bike_id":"0f8a2180-e596-4f3e-b3c0-d687b26c5b34","system_id":"levelo_inurba_marseille","lat":43.287154,"lon":5.399979,"is_reserved":false,"is_disabled":false,"rental_uris":{"android":"levelo://app?vid=0f8a2180-e596-4f3e-b3c0-d687b26c5b34","ios":"levelo://app?vid=0f8a2180-e596-4f3e-b3c0-d687b26c5b34"},"vehicle_type_id":"4","last_reported":1700435182,"current_range_meters":20400,"station_id":"ce4bho92rcd13ifvqh3g","pricing_plan_id":"free"},{"bike_id":"ea6e999d-8474-41c3-8735-718a0921fb55","system_id":"levelo_inurba_marseille","lat":43.292569,"lon":5.409107,"is_reserved":false,"is_disabled":false,"rental_uris":{"android":"levelo://app?vid=ea6e999d-8474-41c3-8735-718a0921fb55","ios":"levelo://app?vid=ea6e999d-8474-41c3-8735-718a0921fb55"},"vehicle_type_id":"4","last_reported":1700435182,"current_range_meters":21600,"station_id":"ce4bh192rcd13ifvqdc0","pricing_plan_id":"free"},{"bike_id":"37c567bc-cf03-4f5b-b022-608729a5bae9","system_id":"levelo_inurba_marseille","lat":43.292571,"lon":5.409107,"is_reserved":false,"is_disabled":false,"rental_uris":{"android":"levelo://app?vid=37c567bc-cf03-4f5b-b022-608729a5bae9","ios":"levelo://app?vid=37c567bc-cf03-4f5b-b022-608729a5bae9"},"vehicle_type_id":"4","last_reported":1700435182,"current_range_meters":14800,"station_id":"ce4bh192rcd13ifvqdc0","pricing_plan_id":"free"},{"bike_id":"4da097bb-9c81-41dd-90ad-c3b5e2941019","system_id":"levelo_inurba_marseille","lat":43.292569,"lon":5.409107,"is_reserved":false,"is_disabled":false,"rental_uris":{"android":"levelo://app?vid=4da097bb-9c81-41dd-90ad-c3b5e2941019","ios":"levelo://app?vid=4da097bb-9c81-41dd-90ad-c3b5e2941019"},"vehicle_type_id":"4","last_reported":1700435182,"current_range_meters":18800,"station_id":"ce4bh192rcd13ifvqdc0","pricing_plan_id":"free"},{"bike_id":"8ccdbe57-1aa5-4e13-b9e3-67770d6b3584","system_id":"levelo_inurba_marseille","lat":43.292571,"lon":5.409107,"is_reserved":false,"is_disabled":false,"rental_uris":{"android":"levelo://app?vid=8ccdbe57-1aa5-4e13-b9e3-67770d6b3584","ios":"levelo://app?vid=8ccdbe57-1aa5-4e13-b9e3-67770d6b3584"},"vehicle_type_id":"4","last_reported":1700435182,"current_range_meters":8000,"station_id":"ce4bh192rcd13ifvqdc0","pricing_plan_id":"free"},{"bike_id":"0bda960f-b88d-4ba0-a75e-1fc8cc09d4a4","system_id":"levelo_inurba_marseille","lat":43.27559,"lon":5.36028,"is_reserved":false,"is_disabled":false,"rental_uris":{"android":"levelo://app?vid=0bda960f-b88d-4ba0-a75e-1fc8cc09d4a4","ios":"levelo://app?vid=0bda960f-b88d-4ba0-a75e-1fc8cc09d4a4"},"vehicle_type_id":"4","last_reported":1700435182,"current_range_meters":12000,"station_id":"","pricing_plan_id":"free"},{"bike_id":"8c69b603-8a22-457a-9c65-5ead6ab43d89","system_id":"levelo_inurba_marseille","lat":43.280784,"lon":5.396622,"is_reserved":false,"is_disabled":false,"rental_uris":{"android":"levelo://app?vid=8c69b603-8a22-457a-9c65-5ead6ab43d89","ios":"levelo://app?vid=8c69b603-8a22-457a-9c65-5ead6ab43d89"},"vehicle_type_id":"4","last_reported":1700435182,"current_range_meters":28400,"station_id":"ce4bho12rcd13ifvqh2g","pricing_plan_id":"free"},{"bike_id":"1693c599-33fb-4470-99dd-e396cc305b93","system_id":"levelo_inurba_marseille","lat":43.303837,"lon":5.418724,"is_reserved":false,"is_disabled":false,"rental_uris":{"android":"levelo://app?vid=1693c599-33fb-4470-99dd-e396cc305b93","ios":"levelo://app?vid=1693c599-33fb-4470-99dd-e396cc305b93"},"vehicle_type_id":"4","last_reported":1700435182,"current_range_meters":6800,"station_id":"ce4bhop2rcd13ifvqh7g","pricing_plan_id":"free"},{"bike_id":"01ed7991-eaca-4c39-b3f9-40b4ebe9e070","system_id":"levelo_inurba_marseille","lat":43.27378,"lon":5.36252,"is_reserved":false,"is_disabled":false,"rental_uris":{"android":"levelo://app?vid=01ed7991-eaca-4c39-b3f9-40b4ebe9e070","ios":"levelo://app?vid=01ed7991-eaca-4c39-b3f9-40b4ebe9e070"},"vehicle_type_id":"4","last_reported":1700435182,"current_range_meters":31200,"station_id":"ce4bhbh2rcd13ifvqeo0","pricing_plan_id":"free"},{"bike_id":"8e97420c-f368-4679-aebd-6fa9d8ab1f29","system_id":"levelo_inurba_marseille","lat":43.27377,"lon":5.36247,"is_reserved":false,"is_disabled":false,"rental_uris":{"android":"levelo://app?vid=8e97420c-f368-4679-aebd-6fa9d8ab1f29","ios":"levelo://app?vid=8e97420c-f368-4679-aebd-6fa9d8ab1f29"},"vehicle_type_id":"4","last_reported":1700435182,"current_range_meters":30800,"station_id":"ce4bhbh2rcd13ifvqeo0","pricing_plan_id":"free"},{"bike_id":"a92d23bb-1057-4a39-9570-716e9b798b5d","system_id":"levelo_inurba_marseille","lat":43.275625,"lon":5.384392,"is_reserved":false,"is_disabled":false,"rental_uris":{"android":"levelo://app?vid=a92d23bb-1057-4a39-9570-716e9b798b5d","ios":"levelo://app?vid=a92d23bb-1057-4a39-9570-716e9b798b5d"},"vehicle_type_id":"4","last_reported":1700435182,"current_range_meters":26000,"station_id":"ce4bhh92rcd13ifvqfi0","pricing_plan_id":"free"},{"bike_id":"5581f9e8-504c-4d2f-a780-7465313f92c2","system_id":"levelo_inurba_marseille","lat":43.336134,"lon":5.410341,"is_reserved":false,"is_disabled":false,"rental_uris":{"android":"levelo://app?vid=5581f9e8-504c-4d2f-a780-7465313f92c2","ios":"levelo://app?vid=5581f9e8-504c-4d2f-a780-7465313f92c2"},"vehicle_type_id":"4","last_reported":1700435182,"current_range_meters":4400,"station_id":"ce4bhqh2rcd13ifvqhmg","pricing_plan_id":"free"},{"bike_id":"6a93a014-1427-427d-b06c-a403bacb72b2","system_id":"levelo_inurba_marseille","lat":43.336134,"lon":5.410341,"is_reserved":false,"is_disabled":false,"rental_uris":{"android":"levelo://app?vid=6a93a014-1427-427d-b06c-a403bacb72b2","ios":"levelo://app?vid=6a93a014-1427-427d-b06c-a403bacb72b2"},"vehicle_type_id":"4","last_reported":1700435182,"current_range_meters":0,"station_id":"ce4bhqh2rcd13ifvqhmg","pricing_plan_id":"free"},{"bike_id":"f7404440-8b70-4014-9781-07544b9b8ec3","system_id":"levelo_inurba_marseille","lat":43.276771,"lon":5.388799,"is_reserved":false,"is_disabled":false,"rental_uris":{"android":"levelo://app?vid=f7404440-8b70-4014-9781-07544b9b8ec3","ios":"levelo://app?vid=f7404440-8b70-4014-9781-07544b9b8ec3"},"vehicle_type_id":"4","last_reported":1700435182,"current_range_meters":0,"station_id":"ce4bhi12rcd13ifvqfo0","pricing_plan_id":"free"},{"bike_id":"b5ed9e53-12f2-4ca4-8008-330c09fa3187","system_id":"levelo_inurba_marseille","lat":43.27998,"lon":5.40006,"is_reserved":false,"is_disabled":false,"rental_uris":{"android":"levelo://app?vid=b5ed9e53-12f2-4ca4-8008-330c09fa3187","ios":"levelo://app?vid=b5ed9e53-12f2-4ca4-8008-330c09fa3187"},"vehicle_type_id":"4","last_reported":1700435182,"current_range_meters":0,"station_id":"ce4bho92rcd13ifvqh4g","pricing_plan_id":"free"},{"bike_id":"8f64ab4c-e41b-42bc-8b04-fd401c60b361","system_id":"levelo_inurba_marseille","lat":43.279952,"lon":5.400085,"is_reserved":false,"is_disabled":false,"rental_uris":{"android":"levelo://app?vid=8f64ab4c-e41b-42bc-8b04-fd401c60b361","ios":"levelo://app?vid=8f64ab4c-e41b-42bc-8b04-fd401c60b361"},"vehicle_type_id":"4","last_reported":1700435182,"current_range_meters":31200,"station_id":"ce4bho92rcd13ifvqh4g","pricing_plan_id":"free"},{"bike_id":"09598e6a-b738-4f12-ac60-d1462555796f","system_id":"levelo_inurba_marseille","lat":43.279952,"lon":5.400085,"is_reserved":false,"is_disabled":false,"rental_uris":{"android":"levelo://app?vid=09598e6a-b738-4f12-ac60-d1462555796f","ios":"levelo://app?vid=09598e6a-b738-4f12-ac60-d1462555796f"},"vehicle_type_id":"4","last_reported":1700435182,"current_range_meters":30400,"station_id":"ce4bho92rcd13ifvqh4g","pricing_plan_id":"free"},{"bike_id":"26e38500-cf06-412c-84c9-f57ade123ddf","system_id":"levelo_inurba_marseille","lat":43.27995,"lon":5.40017,"is_reserved":false,"is_disabled":false,"rental_uris":{"android":"levelo://app?vid=26e38500-cf06-412c-84c9-f57ade123ddf","ios":"levelo://app?vid=26e38500-cf06-412c-84c9-f57ade123ddf"},"vehicle_type_id":"4","last_reported":1700435182,"current_range_meters":32000,"station_id":"ce4bho92rcd13ifvqh4g","pricing_plan_id":"free"},{"bike_id":"130d76e3-8fce-46cb-8cc7-0c8a4297873b","system_id":"levelo_inurba_marseille","lat":43.310785,"lon":5.424305,"is_reserved":false,"is_disabled":false,"rental_uris":{"android":"levelo://app?vid=130d76e3-8fce-46cb-8cc7-0c8a4297873b","ios":"levelo://app?vid=130d76e3-8fce-46cb-8cc7-0c8a4297873b"},"vehicle_type_id":"4","last_reported":1700435182,"current_range_meters":27600,"station_id":"ce4bhp92rcd13ifvqhag","pricing_plan_id":"free"},{"bike_id":"3c830a22-d1f6-42c6-990f-ccf5211afa69","system_id":"levelo_inurba_marseille","lat":43.274099,"lon":5.394019,"is_reserved":false,"is_disabled":false,"rental_uris":{"android":"levelo://app?vid=3c830a22-d1f6-42c6-990f-ccf5211afa69","ios":"levelo://app?vid=3c830a22-d1f6-42c6-990f-ccf5211afa69"},"vehicle_type_id":"4","last_reported":1700435182,"current_range_meters":13600,"station_id":"ce4bhdp2rcd13ifvqf20","pricing_plan_id":"free"},{"bike_id":"681c6774-ccc0-4105-92e6-0103f768c525","system_id":"levelo_inurba_marseille","lat":43.274099,"lon":5.394019,"is_reserved":false,"is_disabled":false,"rental_uris":{"android":"levelo://app?vid=681c6774-ccc0-4105-92e6-0103f768c525","ios":"levelo://app?vid=681c6774-ccc0-4105-92e6-0103f768c525"},"vehicle_type_id":"4","last_reported":1700435182,"current_range_meters":14400,"station_id":"ce4bhdp2rcd13ifvqf20","pricing_plan_id":"free"},{"bike_id":"78ed1994-6a4d-4937-a848-a352dc9268c0","system_id":"levelo_inurba_marseille","lat":43.295511,"lon":5.422926,"is_reserved":false,"is_disabled":false,"rental_uris":{"android":"levelo://app?vid=78ed1994-6a4d-4937-a848-a352dc9268c0","ios":"levelo://app?vid=78ed1994-6a4d-4937-a848-a352dc9268c0"},"vehicle_type_id":"4","last_reported":1700435182,"current_range_meters":23200,"station_id":"ce4bhph2rcd13ifvqhdg","pricing_plan_id":"free"},{"bike_id":"f8f5619a-a183-461d-b100-453fb972fcd4","system_id":"levelo_inurba_marseille","lat":43.272118,"lon":5.391758,"is_reserved":false,"is_disabled":false,"rental_uris":{"android":"levelo://app?vid=f8f5619a-a183-461d-b100-453fb972fcd4","ios":"levelo://app?vid=f8f5619a-a183-461d-b100-453fb972fcd4"},"vehicle_type_id":"4","last_reported":1700435182,"current_range_meters":17600,"station_id":"ce4bhhp2rcd13ifvqfm0","pricing_plan_id":"free"},{"bike_id":"f0ed4531-078e-42fb-a007-3ed80505eb54","system_id":"levelo_inurba_marseille","lat":43.271891,"lon":5.392412,"is_reserved":false,"is_disabled":false,"rental_uris":{"android":"levelo://app?vid=f0ed4531-078e-42fb-a007-3ed80505eb54","ios":"levelo://app?vid=f0ed4531-078e-42fb-a007-3ed80505eb54"},"vehicle_type_id":"4","last_reported":1700435182,"current_range_meters":1600,"station_id":"","pricing_plan_id":"free"},{"bike_id":"5e1e74ef-1191-4f88-abc2-8533ac447e59","system_id":"levelo_inurba_marseille","lat":43.278128,"lon":5.407195,"is_reserved":false,"is_disabled":false,"rental_uris":{"android":"levelo://app?vid=5e1e74ef-1191-4f88-abc2-8533ac447e59","ios":"levelo://app?vid=5e1e74ef-1191-4f88-abc2-8533ac447e59"},"vehicle_type_id":"4","last_reported":1700435182,"current_range_meters":12000,"station_id":"ce4bhnh2rcd13ifvqgtg","pricing_plan_id":"free"},{"bike_id":"f9b41168-33d8-4a01-9cfe-c6147526c6af","system_id":"levelo_inurba_marseille","lat":43.278128,"lon":5.407195,"is_reserved":false,"is_disabled":false,"rental_uris":{"android":"levelo://app?vid=f9b41168-33d8-4a01-9cfe-c6147526c6af","ios":"levelo://app?vid=f9b41168-33d8-4a01-9cfe-c6147526c6af"},"vehicle_type_id":"4","last_reported":1700435182,"current_range_meters":12000,"station_id":"ce4bhnh2rcd13ifvqgtg","pricing_plan_id":"free"},{"bike_id":"e93711b2-3ed8-41b2-af7d-27f4a424297a","system_id":"levelo_inurba_marseille","lat":43.278128,"lon":5.407195,"is_reserved":false,"is_disabled":false,"rental_uris":{"android":"levelo://app?vid=e93711b2-3ed8-41b2-af7d-27f4a424297a","ios":"levelo://app?vid=e93711b2-3ed8-41b2-af7d-27f4a424297a"},"vehicle_type_id":"4","last_reported":1700435182,"current_range_meters":26400,"station_id":"ce4bhnh2rcd13ifvqgtg","pricing_plan_id":"free"},{"bike_id":"4e904388-8315-42a3-823e-b01ae258624d","system_id":"levelo_inurba_marseille","lat":43.278128,"lon":5.407195,"is_reserved":false,"is_disabled":false,"rental_uris":{"android":"levelo://app?vid=4e904388-8315-42a3-823e-b01ae258624d","ios":"levelo://app?vid=4e904388-8315-42a3-823e-b01ae258624d"},"vehicle_type_id":"4","last_reported":1700435182,"current_range_meters":0,"station_id":"ce4bhnh2rcd13ifvqgtg","pricing_plan_id":"free"},{"bike_id":"66f767e0-a748-496e-ba84-88e846b80a5d","system_id":"levelo_inurba_marseille","lat":43.26952,"lon":5.38627,"is_reserved":false,"is_disabled":false,"rental_uris":{"android":"levelo://app?vid=66f767e0-a748-496e-ba84-88e846b80a5d","ios":"levelo://app?vid=66f767e0-a748-496e-ba84-88e846b80a5d"},"vehicle_type_id":"4","last_reported":1700435182,"current_range_meters":0,"station_id":"ce4bhh92rcd13ifvqfh0","pricing_plan_id":"free"},{"bike_id":"eda35713-2d91-4d45-8887-2178060c317d","system_id":"levelo_inurba_marseille","lat":43.279465,"lon":5.410561,"is_reserved":false,"is_disabled":false,"rental_uris":{"android":"levelo://app?vid=eda35713-2d91-4d45-8887-2178060c317d","ios":"levelo://app?vid=eda35713-2d91-4d45-8887-2178060c317d"},"vehicle_type_id":"4","last_reported":1700435182,"current_range_meters":22000,"station_id":"ce4bhnp2rcd13ifvqh0g","pricing_plan_id":"free"},{"bike_id":"139753b1-0b83-4c3a-80f1-5052bac15461","system_id":"levelo_inurba_marseille","lat":43.271043,"lon":5.393374,"is_reserved":false,"is_disabled":false,"rental_uris":{"android":"levelo://app?vid=139753b1-0b83-4c3a-80f1-5052bac15461","ios":"levelo://app?vid=139753b1-0b83-4c3a-80f1-5052bac15461"},"vehicle_type_id":"4","last_reported":1700435182,"current_range_meters":9200,"station_id":"","pricing_plan_id":"free"},{"bike_id":"f0cca9cd-1a5e-4c1a-be31-2b3cdd41e738","system_id":"levelo_inurba_marseille","lat":43.27942,"lon":5.4104,"is_reserved":false,"is_disabled":false,"rental_uris":{"android":"levelo://app?vid=f0cca9cd-1a5e-4c1a-be31-2b3cdd41e738","ios":"levelo://app?vid=f0cca9cd-1a5e-4c1a-be31-2b3cdd41e738"},"vehicle_type_id":"4","last_reported":1700435182,"current_range_meters":19200,"station_id":"ce4bhnp2rcd13ifvqh0g","pricing_plan_id":"free"},{"bike_id":"031cebf1-a358-4062-b056-cccb8ac6d70c","system_id":"levelo_inurba_marseille","lat":43.279465,"lon":5.410561,"is_reserved":false,"is_disabled":false,"rental_uris":{"android":"levelo://app?vid=031cebf1-a358-4062-b056-cccb8ac6d70c","ios":"levelo://app?vid=031cebf1-a358-4062-b056-cccb8ac6d70c"},"vehicle_type_id":"4","last_reported":1700435182,"current_range_meters":29200,"station_id":"ce4bhnp2rcd13ifvqh0g","pricing_plan_id":"free"},{"bike_id":"c7758cb2-2a45-4f89-aa5c-0e391d845c76","system_id":"levelo_inurba_marseille","lat":43.326053,"lon":5.429943,"is_reserved":false,"is_disabled":false,"rental_uris":{"android":"levelo://app?vid=c7758cb2-2a45-4f89-aa5c-0e391d845c76","ios":"levelo://app?vid=c7758cb2-2a45-4f89-aa5c-0e391d845c76"},"vehicle_type_id":"4","last_reported":1700435182,"current_range_meters":0,"station_id":"","pricing_plan_id":"free"},{"bike_id":"42871d3b-8c03-490f-baf1-f4b57c44a331","system_id":"levelo_inurba_marseille","lat":43.326174,"lon":5.430584,"is_reserved":false,"is_disabled":false,"rental_uris":{"android":"levelo://app?vid=42871d3b-8c03-490f-baf1-f4b57c44a331","ios":"levelo://app?vid=42871d3b-8c03-490f-baf1-f4b57c44a331"},"vehicle_type_id":"4","last_reported":1700435182,"current_range_meters":16800,"station_id":"","pricing_plan_id":"free"},{"bike_id":"546d030a-f861-473b-8a04-4c4c19fdbd7a","system_id":"levelo_inurba_marseille","lat":43.27999,"lon":5.41662,"is_reserved":false,"is_disabled":false,"rental_uris":{"android":"levelo://app?vid=546d030a-f861-473b-8a04-4c4c19fdbd7a","ios":"levelo://app?vid=546d030a-f861-473b-8a04-4c4c19fdbd7a"},"vehicle_type_id":"4","last_reported":1700435182,"current_range_meters":4800,"station_id":"ce4bho12rcd13ifvqh1g","pricing_plan_id":"free"},{"bike_id":"430b37fc-7a8b-442b-8989-cf57d8b4df6c","system_id":"levelo_inurba_marseille","lat":43.27996,"lon":5.416624,"is_reserved":false,"is_disabled":false,"rental_uris":{"android":"levelo://app?vid=430b37fc-7a8b-442b-8989-cf57d8b4df6c","ios":"levelo://app?vid=430b37fc-7a8b-442b-8989-cf57d8b4df6c"},"vehicle_type_id":"4","last_reported":1700435182,"current_range_meters":0,"station_id":"ce4bho12rcd13ifvqh1g","pricing_plan_id":"free"},{"bike_id":"097ca2b8-6370-4d83-b845-dc57bdcfd150","system_id":"levelo_inurba_marseille","lat":43.279932,"lon":5.416661,"is_reserved":false,"is_disabled":false,"rental_uris":{"android":"levelo://app?vid=097ca2b8-6370-4d83-b845-dc57bdcfd150","ios":"levelo://app?vid=097ca2b8-6370-4d83-b845-dc57bdcfd150"},"vehicle_type_id":"4","last_reported":1700435182,"current_range_meters":25600,"station_id":"ce4bho12rcd13ifvqh1g","pricing_plan_id":"free"},{"bike_id":"87a6878c-3d21-4a6e-af61-fcb7168fae7f","system_id":"levelo_inurba_marseille","lat":43.27996,"lon":5.416624,"is_reserved":false,"is_disabled":false,"rental_uris":{"android":"levelo://app?vid=87a6878c-3d21-4a6e-af61-fcb7168fae7f","ios":"levelo://app?vid=87a6878c-3d21-4a6e-af61-fcb7168fae7f"},"vehicle_type_id":"4","last_reported":1700435182,"current_range_meters":31200,"station_id":"ce4bho12rcd13ifvqh1g","pricing_plan_id":"free"},{"bike_id":"87be04d4-b68d-4ca4-bc75-5865077b920f","system_id":"levelo_inurba_marseille","lat":43.288468,"lon":5.426335,"is_reserved":false,"is_disabled":false,"rental_uris":{"android":"levelo://app?vid=87be04d4-b68d-4ca4-bc75-5865077b920f","ios":"levelo://app?vid=87be04d4-b68d-4ca4-bc75-5865077b920f"},"vehicle_type_id":"4","last_reported":1700435182,"current_range_meters":800,"station_id":"","pricing_plan_id":"free"},{"bike_id":"1fe618f9-5969-4afa-8d58-45a632bbff84","system_id":"levelo_inurba_marseille","lat":43.308051,"lon":5.43527,"is_reserved":false,"is_disabled":false,"rental_uris":{"android":"levelo://app?vid=1fe618f9-5969-4afa-8d58-45a632bbff84","ios":"levelo://app?vid=1fe618f9-5969-4afa-8d58-45a632bbff84"},"vehicle_type_id":"4","last_reported":1700435182,"current_range_meters":12400,"station_id":"ce4bhph2rcd13ifvqheg","pricing_plan_id":"free"},{"bike_id":"f7fbcf96-85d5-481b-bec9-968b3ef5bdaf","system_id":"levelo_inurba_marseille","lat":43.308,"lon":5.43526,"is_reserved":false,"is_disabled":false,"rental_uris":{"android":"levelo://app?vid=f7fbcf96-85d5-481b-bec9-968b3ef5bdaf","ios":"levelo://app?vid=f7fbcf96-85d5-481b-bec9-968b3ef5bdaf"},"vehicle_type_id":"4","last_reported":1700435182,"current_range_meters":0,"station_id":"ce4bhph2rcd13ifvqheg","pricing_plan_id":"free"},{"bike_id":"5caf6ed3-5f32-41dc-a9b6-ace444369fe4","system_id":"levelo_inurba_marseille","lat":43.317104,"lon":5.436818,"is_reserved":false,"is_disabled":false,"rental_uris":{"android":"levelo://app?vid=5caf6ed3-5f32-41dc-a9b6-ace444369fe4","ios":"levelo://app?vid=5caf6ed3-5f32-41dc-a9b6-ace444369fe4"},"vehicle_type_id":"4","last_reported":1700435182,"current_range_meters":7600,"station_id":"ce4bhp92rcd13ifvqhcg","pricing_plan_id":"free"},{"bike_id":"7f6afb23-5556-4381-b380-ee732d454b10","system_id":"levelo_inurba_marseille","lat":43.267959,"lon":5.402685,"is_reserved":false,"is_disabled":false,"rental_uris":{"android":"levelo://app?vid=7f6afb23-5556-4381-b380-ee732d454b10","ios":"levelo://app?vid=7f6afb23-5556-4381-b380-ee732d454b10"},"vehicle_type_id":"4","last_reported":1700435182,"current_range_meters":5200,"station_id":"ce501612rcd8frsf0b60","pricing_plan_id":"free"},{"bike_id":"a7ca26bf-611d-43b2-b817-4aa1bdc2d82a","system_id":"levelo_inurba_marseille","lat":43.267959,"lon":5.402687,"is_reserved":false,"is_disabled":false,"rental_uris":{"android":"levelo://app?vid=a7ca26bf-611d-43b2-b817-4aa1bdc2d82a","ios":"levelo://app?vid=a7ca26bf-611d-43b2-b817-4aa1bdc2d82a"},"vehicle_type_id":"4","last_reported":1700435182,"current_range_meters":29600,"station_id":"ce501612rcd8frsf0b60","pricing_plan_id":"free"},{"bike_id":"0b463117-91af-43f2-b5ca-fcb25ffe9061","system_id":"levelo_inurba_marseille","lat":43.268023,"lon":5.402674,"is_reserved":false,"is_disabled":false,"rental_uris":{"android":"levelo://app?vid=0b463117-91af-43f2-b5ca-fcb25ffe9061","ios":"levelo://app?vid=0b463117-91af-43f2-b5ca-fcb25ffe9061"},"vehicle_type_id":"4","last_reported":1700435182,"current_range_meters":0,"station_id":"ce501612rcd8frsf0b60","pricing_plan_id":"free"},{"bike_id":"74ce853b-0d8b-42c9-81c8-17a7564a4b34","system_id":"levelo_inurba_marseille","lat":43.31725,"lon":5.43786,"is_reserved":false,"is_disabled":false,"rental_uris":{"android":"levelo://app?vid=74ce853b-0d8b-42c9-81c8-17a7564a4b34","ios":"levelo://app?vid=74ce853b-0d8b-42c9-81c8-17a7564a4b34"},"vehicle_type_id":"4","last_reported":1700435182,"current_range_meters":13200,"station_id":"","pricing_plan_id":"free"},{"bike_id":"899bf2e4-d437-43aa-9d87-9b33de90f3da","system_id":"levelo_inurba_marseille","lat":43.298768,"lon":5.43643,"is_reserved":false,"is_disabled":false,"rental_uris":{"android":"levelo://app?vid=899bf2e4-d437-43aa-9d87-9b33de90f3da","ios":"levelo://app?vid=899bf2e4-d437-43aa-9d87-9b33de90f3da"},"vehicle_type_id":"4","last_reported":1700435182,"current_range_meters":26400,"station_id":"ce4bhpp2rcd13ifvqhfg","pricing_plan_id":"free"},{"bike_id":"99a6af6a-0af5-4029-a2fa-d2e08fd5337e","system_id":"levelo_inurba_marseille","lat":43.2607,"lon":5.393983,"is_reserved":false,"is_disabled":false,"rental_uris":{"android":"levelo://app?vid=99a6af6a-0af5-4029-a2fa-d2e08fd5337e","ios":"levelo://app?vid=99a6af6a-0af5-4029-a2fa-d2e08fd5337e"},"vehicle_type_id":"4","last_reported":1700435182,"current_range_meters":26400,"station_id":"ce4bhh92rcd13ifvqfj0","pricing_plan_id":"free"},{"bike_id":"04aae268-835a-4433-a037-0574dea6082b","system_id":"levelo_inurba_marseille","lat":43.275028,"lon":5.424534,"is_reserved":false,"is_disabled":false,"rental_uris":{"android":"levelo://app?vid=04aae268-835a-4433-a037-0574dea6082b","ios":"levelo://app?vid=04aae268-835a-4433-a037-0574dea6082b"},"vehicle_type_id":"4","last_reported":1700435182,"current_range_meters":25600,"station_id":"ce4bhn92rcd13ifvqgrg","pricing_plan_id":"free"},{"bike_id":"912e3ad7-7842-4669-bedf-186d6ab56cc0","system_id":"levelo_inurba_marseille","lat":43.258224,"lon":5.394369,"is_reserved":false,"is_disabled":false,"rental_uris":{"android":"levelo://app?vid=912e3ad7-7842-4669-bedf-186d6ab56cc0","ios":"levelo://app?vid=912e3ad7-7842-4669-bedf-186d6ab56cc0"},"vehicle_type_id":"4","last_reported":1700435182,"current_range_meters":28000,"station_id":"ce4bhip2rcd13ifvqft0","pricing_plan_id":"free"},{"bike_id":"653a93dc-fdc8-45b7-9661-c0469e70ba2a","system_id":"levelo_inurba_marseille","lat":43.259009,"lon":5.40929,"is_reserved":false,"is_disabled":false,"rental_uris":{"android":"levelo://app?vid=653a93dc-fdc8-45b7-9661-c0469e70ba2a","ios":"levelo://app?vid=653a93dc-fdc8-45b7-9661-c0469e70ba2a"},"vehicle_type_id":"4","last_reported":1700435182,"current_range_meters":0,"station_id":"ce4bhm92rcd13ifvqglg","pricing_plan_id":"free"},{"bike_id":"0439a09b-1f1e-4c85-a93f-1401d7f1fd8d","system_id":"levelo_inurba_marseille","lat":43.250039,"lon":5.3891,"is_reserved":false,"is_disabled":false,"rental_uris":{"android":"levelo://app?vid=0439a09b-1f1e-4c85-a93f-1401d7f1fd8d","ios":"levelo://app?vid=0439a09b-1f1e-4c85-a93f-1401d7f1fd8d"},"vehicle_type_id":"4","last_reported":1700435182,"current_range_meters":30400,"station_id":"ce4bhgp2rcd13ifvqfd0","pricing_plan_id":"free"},{"bike_id":"f12b5072-5f95-422a-8996-e444b1dd3858","system_id":"levelo_inurba_marseille","lat":43.24999,"lon":5.38925,"is_reserved":false,"is_disabled":false,"rental_uris":{"android":"levelo://app?vid=f12b5072-5f95-422a-8996-e444b1dd3858","ios":"levelo://app?vid=f12b5072-5f95-422a-8996-e444b1dd3858"},"vehicle_type_id":"4","last_reported":1700435182,"current_range_meters":30800,"station_id":"ce4bhgp2rcd13ifvqfd0","pricing_plan_id":"free"},{"bike_id":"a9abb6a4-befb-4a40-9046-6f8e118eead0","system_id":"levelo_inurba_marseille","lat":43.250009,"lon":5.389195,"is_reserved":false,"is_disabled":false,"rental_uris":{"android":"levelo://app?vid=a9abb6a4-befb-4a40-9046-6f8e118eead0","ios":"levelo://app?vid=a9abb6a4-befb-4a40-9046-6f8e118eead0"},"vehicle_type_id":"4","last_reported":1700435182,"current_range_meters":31200,"station_id":"ce4bhgp2rcd13ifvqfd0","pricing_plan_id":"free"},{"bike_id":"e4d34eeb-11ab-4160-8bb6-57c64b4f5f01","system_id":"levelo_inurba_marseille","lat":43.250023,"lon":5.38919,"is_reserved":false,"is_disabled":false,"rental_uris":{"android":"levelo://app?vid=e4d34eeb-11ab-4160-8bb6-57c64b4f5f01","ios":"levelo://app?vid=e4d34eeb-11ab-4160-8bb6-57c64b4f5f01"},"vehicle_type_id":"4","last_reported":1700435182,"current_range_meters":31200,"station_id":"ce4bhgp2rcd13ifvqfd0","pricing_plan_id":"free"},{"bike_id":"a8de8240-35e7-4bae-aafe-17b152381e60","system_id":"levelo_inurba_marseille","lat":43.250023,"lon":5.38919,"is_reserved":false,"is_disabled":false,"rental_uris":{"android":"levelo://app?vid=a8de8240-35e7-4bae-aafe-17b152381e60","ios":"levelo://app?vid=a8de8240-35e7-4bae-aafe-17b152381e60"},"vehicle_type_id":"4","last_reported":1700435182,"current_range_meters":31200,"station_id":"ce4bhgp2rcd13ifvqfd0","pricing_plan_id":"free"},{"bike_id":"d62e58d7-98fc-40db-a3a3-de5ed877e021","system_id":"levelo_inurba_marseille","lat":43.250023,"lon":5.38919,"is_reserved":false,"is_disabled":false,"rental_uris":{"android":"levelo://app?vid=d62e58d7-98fc-40db-a3a3-de5ed877e021","ios":"levelo://app?vid=d62e58d7-98fc-40db-a3a3-de5ed877e021"},"vehicle_type_id":"4","last_reported":1700435182,"current_range_meters":31200,"station_id":"ce4bhgp2rcd13ifvqfd0","pricing_plan_id":"free"},{"bike_id":"9acf1963-0352-44de-9e8f-7a80248a87dc","system_id":"levelo_inurba_marseille","lat":43.24807,"lon":5.37456,"is_reserved":false,"is_disabled":false,"rental_uris":{"android":"levelo://app?vid=9acf1963-0352-44de-9e8f-7a80248a87dc","ios":"levelo://app?vid=9acf1963-0352-44de-9e8f-7a80248a87dc"},"vehicle_type_id":"4","last_reported":1700435182,"current_range_meters":31200,"station_id":"ce4bhgh2rcd13ifvqfb0","pricing_plan_id":"free"},{"bike_id":"a9913d11-865e-4cc3-bfde-1a163cf4e2f0","system_id":"levelo_inurba_marseille","lat":43.2479,"lon":5.374457,"is_reserved":false,"is_disabled":false,"rental_uris":{"android":"levelo://app?vid=a9913d11-865e-4cc3-bfde-1a163cf4e2f0","ios":"levelo://app?vid=a9913d11-865e-4cc3-bfde-1a163cf4e2f0"},"vehicle_type_id":"4","last_reported":1700435182,"current_range_meters":11200,"station_id":"ce4bhgh2rcd13ifvqfb0","pricing_plan_id":"free"},{"bike_id":"907e137e-ebc6-4a0e-90d7-cfdfa8eb2e83","system_id":"levelo_inurba_marseille","lat":43.24805,"lon":5.37456,"is_reserved":false,"is_disabled":false,"rental_uris":{"android":"levelo://app?vid=907e137e-ebc6-4a0e-90d7-cfdfa8eb2e83","ios":"levelo://app?vid=907e137e-ebc6-4a0e-90d7-cfdfa8eb2e83"},"vehicle_type_id":"4","last_reported":1700435182,"current_range_meters":30800,"station_id":"ce4bhgh2rcd13ifvqfb0","pricing_plan_id":"free"},{"bike_id":"43122df3-e7f0-41f0-a6f2-e05e2466a58e","system_id":"levelo_inurba_marseille","lat":43.24671,"lon":5.38154,"is_reserved":false,"is_disabled":false,"rental_uris":{"android":"levelo://app?vid=43122df3-e7f0-41f0-a6f2-e05e2466a58e","ios":"levelo://app?vid=43122df3-e7f0-41f0-a6f2-e05e2466a58e"},"vehicle_type_id":"4","last_reported":1700435182,"current_range_meters":28800,"station_id":"ce4bhih2rcd13ifvqfr0","pricing_plan_id":"free"},{"bike_id":"208c8aa6-25a0-44b3-8d99-567e224800fb","system_id":"levelo_inurba_marseille","lat":43.25102,"lon":5.403214,"is_reserved":false,"is_disabled":false,"rental_uris":{"android":"levelo://app?vid=208c8aa6-25a0-44b3-8d99-567e224800fb","ios":"levelo://app?vid=208c8aa6-25a0-44b3-8d99-567e224800fb"},"vehicle_type_id":"4","last_reported":1700435182,"current_range_meters":29600,"station_id":"ce4bhlh2rcd13ifvqgig","pricing_plan_id":"free"},{"bike_id":"afba5a92-1e58-4c85-895e-4bc18e81cf01","system_id":"levelo_inurba_marseille","lat":43.24693,"lon":5.382096,"is_reserved":false,"is_disabled":false,"rental_uris":{"android":"levelo://app?vid=afba5a92-1e58-4c85-895e-4bc18e81cf01","ios":"levelo://app?vid=afba5a92-1e58-4c85-895e-4bc18e81cf01"},"vehicle_type_id":"4","last_reported":1700435182,"current_range_meters":30400,"station_id":"ce4bhih2rcd13ifvqfr0","pricing_plan_id":"free"},{"bike_id":"a1efa6fc-89b2-4657-95b8-6d44c04f19ba","system_id":"levelo_inurba_marseille","lat":43.24666,"lon":5.3816,"is_reserved":false,"is_disabled":false,"rental_uris":{"android":"levelo://app?vid=a1efa6fc-89b2-4657-95b8-6d44c04f19ba","ios":"levelo://app?vid=a1efa6fc-89b2-4657-95b8-6d44c04f19ba"},"vehicle_type_id":"4","last_reported":1700435182,"current_range_meters":31200,"station_id":"ce4bhih2rcd13ifvqfr0","pricing_plan_id":"free"},{"bike_id":"48551b10-7a07-44d3-8793-398c73779585","system_id":"levelo_inurba_marseille","lat":43.246467,"lon":5.388984,"is_reserved":false,"is_disabled":false,"rental_uris":{"android":"levelo://app?vid=48551b10-7a07-44d3-8793-398c73779585","ios":"levelo://app?vid=48551b10-7a07-44d3-8793-398c73779585"},"vehicle_type_id":"4","last_reported":1700435182,"current_range_meters":25200,"station_id":"ce4bhg12rcd13ifvqf60","pricing_plan_id":"free"},{"bike_id":"a65b14fe-b76a-49c8-8af2-80784a81288f","system_id":"levelo_inurba_marseille","lat":43.25102,"lon":5.403214,"is_reserved":false,"is_disabled":false,"rental_uris":{"android":"levelo://app?vid=a65b14fe-b76a-49c8-8af2-80784a81288f","ios":"levelo://app?vid=a65b14fe-b76a-49c8-8af2-80784a81288f"},"vehicle_type_id":"4","last_reported":1700435182,"current_range_meters":28000,"station_id":"ce4bhlh2rcd13ifvqgig","pricing_plan_id":"free"},{"bike_id":"a54acd97-457e-4c98-a0b6-15e8ede8a34e","system_id":"levelo_inurba_marseille","lat":43.24693,"lon":5.382096,"is_reserved":false,"is_disabled":false,"rental_uris":{"android":"levelo://app?vid=a54acd97-457e-4c98-a0b6-15e8ede8a34e","ios":"levelo://app?vid=a54acd97-457e-4c98-a0b6-15e8ede8a34e"},"vehicle_type_id":"4","last_reported":1700435182,"current_range_meters":30000,"station_id":"ce4bhih2rcd13ifvqfr0","pricing_plan_id":"free"},{"bike_id":"ba560577-74fc-4922-b50e-0828ff5c23fe","system_id":"levelo_inurba_marseille","lat":43.25121,"lon":5.403205,"is_reserved":false,"is_disabled":false,"rental_uris":{"android":"levelo://app?vid=ba560577-74fc-4922-b50e-0828ff5c23fe","ios":"levelo://app?vid=ba560577-74fc-4922-b50e-0828ff5c23fe"},"vehicle_type_id":"4","last_reported":1700435182,"current_range_meters":29200,"station_id":"ce4bhlh2rcd13ifvqgig","pricing_plan_id":"free"},{"bike_id":"64609d57-ea50-4b76-b904-0b78b01e14d6","system_id":"levelo_inurba_marseille","lat":43.246575,"lon":5.381619,"is_reserved":false,"is_disabled":false,"rental_uris":{"android":"levelo://app?vid=64609d57-ea50-4b76-b904-0b78b01e14d6","ios":"levelo://app?vid=64609d57-ea50-4b76-b904-0b78b01e14d6"},"vehicle_type_id":"4","last_reported":1700435182,"current_range_meters":9200,"station_id":"","pricing_plan_id":"free"},{"bike_id":"f3cc259b-9767-4b5e-a1ff-28a5b7679f9d","system_id":"levelo_inurba_marseille","lat":43.25102,"lon":5.403214,"is_reserved":false,"is_disabled":false,"rental_uris":{"android":"levelo://app?vid=f3cc259b-9767-4b5e-a1ff-28a5b7679f9d","ios":"levelo://app?vid=f3cc259b-9767-4b5e-a1ff-28a5b7679f9d"},"vehicle_type_id":"4","last_reported":1700435182,"current_range_meters":31200,"station_id":"ce4bhlh2rcd13ifvqgig","pricing_plan_id":"free"},{"bike_id":"35d8d9f4-2660-4fcf-83a5-f26ba1a5e6d4","system_id":"levelo_inurba_marseille","lat":43.2511,"lon":5.40322,"is_reserved":false,"is_disabled":false,"rental_uris":{"android":"levelo://app?vid=35d8d9f4-2660-4fcf-83a5-f26ba1a5e6d4","ios":"levelo://app?vid=35d8d9f4-2660-4fcf-83a5-f26ba1a5e6d4"},"vehicle_type_id":"4","last_reported":1700435182,"current_range_meters":31200,"station_id":"ce4bhlh2rcd13ifvqgig","pricing_plan_id":"free"},{"bike_id":"cb64e89f-1509-438d-a74e-1f6907c13f8a","system_id":"levelo_inurba_marseille","lat":43.25102,"lon":5.403214,"is_reserved":false,"is_disabled":false,"rental_uris":{"android":"levelo://app?vid=cb64e89f-1509-438d-a74e-1f6907c13f8a","ios":"levelo://app?vid=cb64e89f-1509-438d-a74e-1f6907c13f8a"},"vehicle_type_id":"4","last_reported":1700435182,"current_range_meters":30800,"station_id":"ce4bhlh2rcd13ifvqgig","pricing_plan_id":"free"},{"bike_id":"b282cacc-2eb9-4943-98d7-dd5b554d7fca","system_id":"levelo_inurba_marseille","lat":43.25111,"lon":5.40328,"is_reserved":false,"is_disabled":false,"rental_uris":{"android":"levelo://app?vid=b282cacc-2eb9-4943-98d7-dd5b554d7fca","ios":"levelo://app?vid=b282cacc-2eb9-4943-98d7-dd5b554d7fca"},"vehicle_type_id":"4","last_reported":1700435182,"current_range_meters":30800,"station_id":"ce4bhlh2rcd13ifvqgig","pricing_plan_id":"free"},{"bike_id":"bc119960-00e1-4c4b-aee3-68bd35ca74ac","system_id":"levelo_inurba_marseille","lat":43.25102,"lon":5.403214,"is_reserved":false,"is_disabled":false,"rental_uris":{"android":"levelo://app?vid=bc119960-00e1-4c4b-aee3-68bd35ca74ac","ios":"levelo://app?vid=bc119960-00e1-4c4b-aee3-68bd35ca74ac"},"vehicle_type_id":"4","last_reported":1700435182,"current_range_meters":30000,"station_id":"ce4bhlh2rcd13ifvqgig","pricing_plan_id":"free"},{"bike_id":"b0ca5992-a8a0-4fa1-bef8-5019f25f762d","system_id":"levelo_inurba_marseille","lat":43.25102,"lon":5.403214,"is_reserved":false,"is_disabled":false,"rental_uris":{"android":"levelo://app?vid=b0ca5992-a8a0-4fa1-bef8-5019f25f762d","ios":"levelo://app?vid=b0ca5992-a8a0-4fa1-bef8-5019f25f762d"},"vehicle_type_id":"4","last_reported":1700435182,"current_range_meters":30000,"station_id":"ce4bhlh2rcd13ifvqgig","pricing_plan_id":"free"},{"bike_id":"b6e680b5-6ba4-400e-85cc-fdb7bed090f7","system_id":"levelo_inurba_marseille","lat":43.246467,"lon":5.388984,"is_reserved":false,"is_disabled":false,"rental_uris":{"android":"levelo://app?vid=b6e680b5-6ba4-400e-85cc-fdb7bed090f7","ios":"levelo://app?vid=b6e680b5-6ba4-400e-85cc-fdb7bed090f7"},"vehicle_type_id":"4","last_reported":1700435182,"current_range_meters":29200,"station_id":"ce4bhg12rcd13ifvqf60","pricing_plan_id":"free"},{"bike_id":"5f29c623-0cbf-4e5f-a17b-cd85a65857de","system_id":"levelo_inurba_marseille","lat":43.243884,"lon":5.370736,"is_reserved":false,"is_disabled":false,"rental_uris":{"android":"levelo://app?vid=5f29c623-0cbf-4e5f-a17b-cd85a65857de","ios":"levelo://app?vid=5f29c623-0cbf-4e5f-a17b-cd85a65857de"},"vehicle_type_id":"4","last_reported":1700435182,"current_range_meters":29200,"station_id":"ce4bhhh2rcd13ifvqfk0","pricing_plan_id":"free"},{"bike_id":"349e7ca2-225d-41f3-91d8-feca0eadad04","system_id":"levelo_inurba_marseille","lat":43.245581,"lon":5.395069,"is_reserved":false,"is_disabled":false,"rental_uris":{"android":"levelo://app?vid=349e7ca2-225d-41f3-91d8-feca0eadad04","ios":"levelo://app?vid=349e7ca2-225d-41f3-91d8-feca0eadad04"},"vehicle_type_id":"4","last_reported":1700435182,"current_range_meters":26400,"station_id":"ce4bhlp2rcd13ifvqgjg","pricing_plan_id":"free"},{"bike_id":"af70494d-24d1-4052-860f-3b2a355d915b","system_id":"levelo_inurba_marseille","lat":43.240747,"lon":5.377544,"is_reserved":false,"is_disabled":false,"rental_uris":{"android":"levelo://app?vid=af70494d-24d1-4052-860f-3b2a355d915b","ios":"levelo://app?vid=af70494d-24d1-4052-860f-3b2a355d915b"},"vehicle_type_id":"4","last_reported":1700435182,"current_range_meters":28000,"station_id":"ce4bhnp2rcd13ifvqgvg","pricing_plan_id":"free"},{"bike_id":"7933079f-f5d1-402c-a193-42babd826b4a","system_id":"levelo_inurba_marseille","lat":43.24074,"lon":5.37758,"is_reserved":false,"is_disabled":false,"rental_uris":{"android":"levelo://app?vid=7933079f-f5d1-402c-a193-42babd826b4a","ios":"levelo://app?vid=7933079f-f5d1-402c-a193-42babd826b4a"},"vehicle_type_id":"4","last_reported":1700435182,"current_range_meters":30000,"station_id":"ce4bhnp2rcd13ifvqgvg","pricing_plan_id":"free"},{"bike_id":"10754a0b-8195-408d-973e-5779814a3bab","system_id":"levelo_inurba_marseille","lat":43.24073,"lon":5.37761,"is_reserved":false,"is_disabled":false,"rental_uris":{"android":"levelo://app?vid=10754a0b-8195-408d-973e-5779814a3bab","ios":"levelo://app?vid=10754a0b-8195-408d-973e-5779814a3bab"},"vehicle_type_id":"4","last_reported":1700435182,"current_range_meters":24000,"station_id":"ce4bhnp2rcd13ifvqgvg","pricing_plan_id":"free"},{"bike_id":"d1161103-e87d-40cc-b115-1ba7c43ae4f9","system_id":"levelo_inurba_marseille","lat":43.24067,"lon":5.37759,"is_reserved":false,"is_disabled":false,"rental_uris":{"android":"levelo://app?vid=d1161103-e87d-40cc-b115-1ba7c43ae4f9","ios":"levelo://app?vid=d1161103-e87d-40cc-b115-1ba7c43ae4f9"},"vehicle_type_id":"4","last_reported":1700435182,"current_range_meters":28000,"station_id":"ce4bhnp2rcd13ifvqgvg","pricing_plan_id":"free"},{"bike_id":"33cb4995-2f44-44df-bb6b-4d73bc352569","system_id":"levelo_inurba_marseille","lat":43.239588,"lon":5.366238,"is_reserved":false,"is_disabled":false,"rental_uris":{"android":"levelo://app?vid=33cb4995-2f44-44df-bb6b-4d73bc352569","ios":"levelo://app?vid=33cb4995-2f44-44df-bb6b-4d73bc352569"},"vehicle_type_id":"4","last_reported":1700435182,"current_range_meters":25600,"station_id":"ce4bhi12rcd13ifvqfp0","pricing_plan_id":"free"},{"bike_id":"8872c7b8-c4a3-4750-b6cf-f9bc2db8b393","system_id":"levelo_inurba_marseille","lat":43.239588,"lon":5.366238,"is_reserved":false,"is_disabled":false,"rental_uris":{"android":"levelo://app?vid=8872c7b8-c4a3-4750-b6cf-f9bc2db8b393","ios":"levelo://app?vid=8872c7b8-c4a3-4750-b6cf-f9bc2db8b393"},"vehicle_type_id":"4","last_reported":1700435182,"current_range_meters":28000,"station_id":"ce4bhi12rcd13ifvqfp0","pricing_plan_id":"free"},{"bike_id":"8eab7e84-1847-40e3-8e05-13b79ecc7a07","system_id":"levelo_inurba_marseille","lat":43.239588,"lon":5.366238,"is_reserved":false,"is_disabled":false,"rental_uris":{"android":"levelo://app?vid=8eab7e84-1847-40e3-8e05-13b79ecc7a07","ios":"levelo://app?vid=8eab7e84-1847-40e3-8e05-13b79ecc7a07"},"vehicle_type_id":"4","last_reported":1700435182,"current_range_meters":30000,"station_id":"ce4bhi12rcd13ifvqfp0","pricing_plan_id":"free"},{"bike_id":"1916ba89-348a-46de-862f-002e26a606b7","system_id":"levelo_inurba_marseille","lat":43.24186,"lon":5.39728,"is_reserved":false,"is_disabled":false,"rental_uris":{"android":"levelo://app?vid=1916ba89-348a-46de-862f-002e26a606b7","ios":"levelo://app?vid=1916ba89-348a-46de-862f-002e26a606b7"},"vehicle_type_id":"4","last_reported":1700435182,"current_range_meters":29200,"station_id":"ce4bhn12rcd13ifvqgpg","pricing_plan_id":"free"},{"bike_id":"1e4c8235-2661-4216-9b37-2498240d8932","system_id":"levelo_inurba_marseille","lat":43.24177,"lon":5.39722,"is_reserved":false,"is_disabled":false,"rental_uris":{"android":"levelo://app?vid=1e4c8235-2661-4216-9b37-2498240d8932","ios":"levelo://app?vid=1e4c8235-2661-4216-9b37-2498240d8932"},"vehicle_type_id":"4","last_reported":1700435182,"current_range_meters":14000,"station_id":"ce4bhn12rcd13ifvqgpg","pricing_plan_id":"free"},{"bike_id":"4370869b-0c59-4e1b-b4c7-59bf3a7bc50e","system_id":"levelo_inurba_marseille","lat":43.24174,"lon":5.39728,"is_reserved":false,"is_disabled":false,"rental_uris":{"android":"levelo://app?vid=4370869b-0c59-4e1b-b4c7-59bf3a7bc50e","ios":"levelo://app?vid=4370869b-0c59-4e1b-b4c7-59bf3a7bc50e"},"vehicle_type_id":"4","last_reported":1700435182,"current_range_meters":11200,"station_id":"ce4bhn12rcd13ifvqgpg","pricing_plan_id":"free"},{"bike_id":"1ff1404d-a5fd-4baa-b0f6-1aa090c9ce89","system_id":"levelo_inurba_marseille","lat":43.241782,"lon":5.397261,"is_reserved":false,"is_disabled":false,"rental_uris":{"android":"levelo://app?vid=1ff1404d-a5fd-4baa-b0f6-1aa090c9ce89","ios":"levelo://app?vid=1ff1404d-a5fd-4baa-b0f6-1aa090c9ce89"},"vehicle_type_id":"4","last_reported":1700435182,"current_range_meters":26400,"station_id":"ce4bhn12rcd13ifvqgpg","pricing_plan_id":"free"},{"bike_id":"c7d71dd3-1e23-47a1-af8a-ee349e4bdae4","system_id":"levelo_inurba_marseille","lat":43.231919,"lon":5.355532,"is_reserved":false,"is_disabled":false,"rental_uris":{"android":"levelo://app?vid=c7d71dd3-1e23-47a1-af8a-ee349e4bdae4","ios":"levelo://app?vid=c7d71dd3-1e23-47a1-af8a-ee349e4bdae4"},"vehicle_type_id":"4","last_reported":1700435182,"current_range_meters":28000,"station_id":"ce4bhu92rcd13ifvqi70","pricing_plan_id":"free"},{"bike_id":"d3bc3970-a23d-4c70-8ce5-c0a1f16e8dd0","system_id":"levelo_inurba_marseille","lat":43.231923,"lon":5.355545,"is_reserved":false,"is_disabled":false,"rental_uris":{"android":"levelo://app?vid=d3bc3970-a23d-4c70-8ce5-c0a1f16e8dd0","ios":"levelo://app?vid=d3bc3970-a23d-4c70-8ce5-c0a1f16e8dd0"},"vehicle_type_id":"4","last_reported":1700435182,"current_range_meters":23600,"station_id":"ce4bhu92rcd13ifvqi70","pricing_plan_id":"free"},{"bike_id":"837a4e28-a2c9-4a55-a3de-d83edae6e4cd","system_id":"levelo_inurba_marseille","lat":43.231793,"lon":5.400044,"is_reserved":false,"is_disabled":false,"rental_uris":{"android":"levelo://app?vid=837a4e28-a2c9-4a55-a3de-d83edae6e4cd","ios":"levelo://app?vid=837a4e28-a2c9-4a55-a3de-d83edae6e4cd"},"vehicle_type_id":"4","last_reported":1700435182,"current_range_meters":30400,"station_id":"ce4bhn12rcd13ifvqgqg","pricing_plan_id":"free"},{"bike_id":"3ca32802-d550-4e36-9b86-118106d4e76e","system_id":"levelo_inurba_marseille","lat":43.231909,"lon":5.399884,"is_reserved":false,"is_disabled":false,"rental_uris":{"android":"levelo://app?vid=3ca32802-d550-4e36-9b86-118106d4e76e","ios":"levelo://app?vid=3ca32802-d550-4e36-9b86-118106d4e76e"},"vehicle_type_id":"4","last_reported":1700435182,"current_range_meters":31200,"station_id":"ce4bhn12rcd13ifvqgqg","pricing_plan_id":"free"},{"bike_id":"578b4586-6567-48cd-8cd7-2cf4e852f792","system_id":"levelo_inurba_marseille","lat":43.231793,"lon":5.400044,"is_reserved":false,"is_disabled":false,"rental_uris":{"android":"levelo://app?vid=578b4586-6567-48cd-8cd7-2cf4e852f792","ios":"levelo://app?vid=578b4586-6567-48cd-8cd7-2cf4e852f792"},"vehicle_type_id":"4","last_reported":1700435182,"current_range_meters":30800,"station_id":"ce4bhn12rcd13ifvqgqg","pricing_plan_id":"free"},{"bike_id":"7a97123b-e1f7-4f9a-8649-9d01ae56d041","system_id":"levelo_inurba_marseille","lat":43.231793,"lon":5.400044,"is_reserved":false,"is_disabled":false,"rental_uris":{"android":"levelo://app?vid=7a97123b-e1f7-4f9a-8649-9d01ae56d041","ios":"levelo://app?vid=7a97123b-e1f7-4f9a-8649-9d01ae56d041"},"vehicle_type_id":"4","last_reported":1700435182,"current_range_meters":31600,"station_id":"ce4bhn12rcd13ifvqgqg","pricing_plan_id":"free"},{"bike_id":"9886a500-d50e-4074-b619-a72aa0119469","system_id":"levelo_inurba_marseille","lat":43.231794,"lon":5.400052,"is_reserved":false,"is_disabled":false,"rental_uris":{"android":"levelo://app?vid=9886a500-d50e-4074-b619-a72aa0119469","ios":"levelo://app?vid=9886a500-d50e-4074-b619-a72aa0119469"},"vehicle_type_id":"4","last_reported":1700435182,"current_range_meters":26000,"station_id":"ce4bhn12rcd13ifvqgqg","pricing_plan_id":"free"},{"bike_id":"0b3c1854-60b2-42b0-8026-80ecda6982f6","system_id":"levelo_inurba_marseille","lat":43.231793,"lon":5.400044,"is_reserved":false,"is_disabled":false,"rental_uris":{"android":"levelo://app?vid=0b3c1854-60b2-42b0-8026-80ecda6982f6","ios":"levelo://app?vid=0b3c1854-60b2-42b0-8026-80ecda6982f6"},"vehicle_type_id":"4","last_reported":1700435182,"current_range_meters":29200,"station_id":"ce4bhn12rcd13ifvqgqg","pricing_plan_id":"free"},{"bike_id":"09359cfe-f956-4400-b72c-135c3266b6ba","system_id":"levelo_inurba_marseille","lat":43.231793,"lon":5.400044,"is_reserved":false,"is_disabled":false,"rental_uris":{"android":"levelo://app?vid=09359cfe-f956-4400-b72c-135c3266b6ba","ios":"levelo://app?vid=09359cfe-f956-4400-b72c-135c3266b6ba"},"vehicle_type_id":"4","last_reported":1700435182,"current_range_meters":6400,"station_id":"ce4bhn12rcd13ifvqgqg","pricing_plan_id":"free"},