{"last_updated":1700420682,"ttl":30,"version":"2.2","data":{"bikes":[{"bike_id":"499162d6-7fad-44c8-91f8-355c834834f6","system_id":"levelo_inurba_marseille","lat":43.313391,"lon":5.36706,"is_reserved":false,"is_disabled":false,"rental_uris":{"android":"levelo://app?vid=499162d6-7fad-44c8-91f8-355c834834f6","ios":"levelo://app?vid=499162d6-7fad-44c8-91f8-355c834834f6"},"vehicle_type_id":"4","last_reported":1700420682,"current_range_meters":24400,"station_id":"ce4bgr92rcd13ifvqc6g","pricing_plan_id":"free"},{"bike_id":"12e03b91-5087-4963-a1b2-5eb1fb02e307","system_id":"levelo_inurba_marseille","lat":43.312239,"lon":5.368562,"is_reserved":false,"is_disabled":false,"rental_uris":{"android":"levelo://app?vid=12e03b91-5087-4963-a1b2-5eb1fb02e307","ios":"levelo://app?vid=12e03b91-5087-4963-a1b2-5eb1fb02e307"},"vehicle_type_id":"4","last_reported":1700420682,"current_range_meters":20000,"station_id":"ce4bgl92rcd13ifvqbq0","pricing_plan_id":"free"},{"bike_id":"86baab11-29ef-478a-a304-b1f28ed5d878","system_id":"levelo_inurba_marseille","lat":43.314811,"lon":5.373103,"is_reserved":false,"is_disabled":false,"rental_uris":{"android":"levelo://app?vid=86baab11-29ef-478a-a304-b1f28ed5d878","ios":"levelo://app?vid=86baab11-29ef-478a-a304-b1f28ed5d878"},"vehicle_type_id":"4","last_reported":1700420682,"current_range_meters":14800,"station_id":"ce4bgt12rcd13ifvqcd0","pricing_plan_id":"free"},{"bike_id":"3f0db877-f819-4c9d-a707-5ceb6e01e906","system_id":"levelo_inurba_marseille","lat":43.314805,"lon":5.374092,"is_reserved":false,"is_disabled":false,"rental_uris":{"android":"levelo://app?vid=3f0db877-f819-4c9d-a707-5ceb6e01e906","ios":"levelo://app?vid=3f0db877-f819-4c9d-a707-5ceb6e01e906"},"vehicle_type_id":"4","last_reported":1700420682,"current_range_meters":0,"station_id":"","pricing_plan_id":"free"},{"bike_id":"3475d204-43b6-43d9-b615-ca1d0d58200e","system_id":"levelo_inurba_marseille","lat":43.30679,"lon":5.3679,"is_reserved":false,"is_disabled":false,"rental_uris":{"android":"levelo://app?vid=3475d204-43b6-43d9-b615-ca1d0d58200e","ios":"levelo://app?vid=3475d204-43b6-43d9-b615-ca1d0d58200e"},"vehicle_type_id":"4","last_reported":1700420682,"current_range_meters":10000,"station_id":"","pricing_plan_id":"free"},{"bike_id":"dc634b4b-3b9a-4689-b707-e87067fceb7d","system_id":"levelo_inurba_marseille","lat":43.305368,"lon":5.367343,"is_reserved":false,"is_disabled":false,"rental_uris":{"android":"levelo://app?vid=dc634b4b-3b9a-4689-b707-e87067fceb7d","ios":"levelo://app?vid=dc634b4b-3b9a-4689-b707-e87067fceb7d"},"vehicle_type_id":"4","last_reported":1700420682,"current_range_meters":0,"station_id":"ce4bgrp2rcd13ifvqc9g","pricing_plan_id":"free"},{"bike_id":"09ccbac6-0f01-4cfb-8bb8-da5484277d5c","system_id":"levelo_inurba_marseille","lat":43.31956,"lon":5.3711,"is_reserved":false,"is_disabled":false,"rental_uris":{"android":"levelo://app?vid=09ccbac6-0f01-4cfb-8bb8-da5484277d5c","ios":"levelo://app?vid=09ccbac6-0f01-4cfb-8bb8-da5484277d5c"},"vehicle_type_id":"4","last_reported":1700420682,"current_range_meters":0,"station_id":"","pricing_plan_id":"free"},{"bike_id":"28098c58-a2d5-439a-b4e8-4278e6256c47","system_id":"levelo_inurba_marseille","lat":43.305706,"lon":5.365654,"is_reserved":false,"is_disabled":false,"rental_uris":{"android":"levelo://app?vid=28098c58-a2d5-439a-b4e8-4278e6256c47","ios":"levelo://app?vid=28098c58-a2d5-439a-b4e8-4278e6256c47"},"vehicle_type_id":"4","last_reported":1700420682,"current_range_meters":400,"station_id":"ce4bgs12rcd13ifvqcag","pricing_plan_id":"free"},{"bike_id":"7dbf0beb-f63c-4573-a8f2-c30c140d0813","system_id":"levelo_inurba_marseille","lat":43.30816,"lon":5.376465,"is_reserved":false,"is_disabled":false,"rental_uris":{"android":"levelo://app?vid=7dbf0beb-f63c-4573-a8f2-c30c140d0813","ios":"levelo://app?vid=7dbf0beb-f63c-4573-a8f2-c30c140d0813"},"vehicle_type_id":"4","last_reported":1700420682,"current_range_meters":10000,"station_id":"ce4bgv92rcd13ifvqcq0","pricing_plan_id":"free"},{"bike_id":"408ee460-2dbf-4747-bcc7-b936ca37ec42","system_id":"levelo_inurba_marseille","lat":43.308048,"lon":5.381463,"is_reserved":false,"is_disabled":false,"rental_uris":{"android":"levelo://app?vid=408ee460-2dbf-4747-bcc7-b936ca37ec42","ios":"levelo://app?vid=408ee460-2dbf-4747-bcc7-b936ca37ec42"},"vehicle_type_id":"4","last_reported":1700420682,"current_range_meters":7200,"station_id":"","pricing_plan_id":"free"},{"bike_id":"5f766886-361c-49e4-aedd-1beba99ec4a7","system_id":"levelo_inurba_marseille","lat":43.30794,"lon":5.38146,"is_reserved":false,"is_disabled":false,"rental_uris":{"android":"levelo://app?vid=5f766886-361c-49e4-aedd-1beba99ec4a7","ios":"levelo://app?vid=5f766886-361c-49e4-aedd-1beba99ec4a7"},"vehicle_type_id":"4","last_reported":1700420682,"current_range_meters":10000,"station_id":"ce4bgt12rcd13ifvqce0","pricing_plan_id":"free"},{"bike_id":"5f9e0c4b-52ae-404b-9264-5fe603326a29","system_id":"levelo_inurba_marseille","lat":43.30802,"lon":5.38155,"is_reserved":false,"is_disabled":false,"rental_uris":{"android":"levelo://app?vid=5f9e0c4b-52ae-404b-9264-5fe603326a29","ios":"levelo://app?vid=5f9e0c4b-52ae-404b-9264-5fe603326a29"},"vehicle_type_id":"4","last_reported":1700420682,"current_range_meters":0,"station_id":"ce4bgt12rcd13ifvqce0","pricing_plan_id":"free"},{"bike_id":"1179a048-43db-48ab-9934-6b423a6df9fe","system_id":"levelo_inurba_marseille","lat":43.30465,"lon":5.37905,"is_reserved":false,"is_disabled":false,"rental_uris":{"android":"levelo://app?vid=1179a048-43db-48ab-9934-6b423a6df9fe","ios":"levelo://app?vid=1179a048-43db-48ab-9934-6b423a6df9fe"},"vehicle_type_id":"4","last_reported":1700420682,"current_range_meters":4000,"station_id":"ce4bgup2rcd13ifvqcn0","pricing_plan_id":"free"},{"bike_id":"f1374b62-2db7-4c17-adba-45e35fca7c97","system_id":"levelo_inurba_marseille","lat":43.304606,"lon":5.379026,"is_reserved":false,"is_disabled":false,"rental_uris":{"android":"levelo://app?vid=f1374b62-2db7-4c17-adba-45e35fca7c97","ios":"levelo://app?vid=f1374b62-2db7-4c17-adba-45e35fca7c97"},"vehicle_type_id":"4","last_reported":1700420682,"current_range_meters":6800,"station_id":"ce4bgup2rcd13ifvqcn0","pricing_plan_id":"free"},{"bike_id":"b0826f02-ee7c-45ff-aeca-bc5d60c3486f","system_id":"levelo_inurba_marseille","lat":43.304606,"lon":5.379026,"is_reserved":false,"is_disabled":false,"rental_uris":{"android":"levelo://app?vid=b0826f02-ee7c-45ff-aeca-bc5d60c3486f","ios":"levelo://app?vid=b0826f02-ee7c-45ff-aeca-bc5d60c3486f"},"vehicle_type_id":"4","last_reported":1700420682,"current_range_meters":2000,"station_id":"ce4bgup2rcd13ifvqcn0","pricing_plan_id":"free"},{"bike_id":"683d9285-93e4-4eea-b974-63f07337a6a7","system_id":"levelo_inurba_marseille","lat":43.30462,"lon":5.37917,"is_reserved":false,"is_disabled":false,"rental_uris":{"android":"levelo://app?vid=683d9285-93e4-4eea-b974-63f07337a6a7","ios":"levelo://app?vid=683d9285-93e4-4eea-b974-63f07337a6a7"},"vehicle_type_id":"4","last_reported":1700420682,"current_range_meters":1600,"station_id":"ce4bgup2rcd13ifvqcn0","pricing_plan_id":"free"},{"bike_id":"3a722b20-8d9a-4ed7-bed2-82edca53ad10","system_id":"levelo_inurba_marseille","lat":43.324759,"lon":5.365611,"is_reserved":false,"is_disabled":false,"rental_uris":{"android":"levelo://app?vid=3a722b20-8d9a-4ed7-bed2-82edca53ad10","ios":"levelo://app?vid=3a722b20-8d9a-4ed7-bed2-82edca53ad10"},"vehicle_type_id":"4","last_reported":1700420682,"current_range_meters":18000,"station_id":"ce4bhs12rcd13ifvqhvg","pricing_plan_id":"free"},{"bike_id":"8c6b9948-2f23-41f5-967e-cd18cc963390","system_id":"levelo_inurba_marseille","lat":43.32487,"lon":5.36561,"is_reserved":false,"is_disabled":false,"rental_uris":{"android":"levelo://app?vid=8c6b9948-2f23-41f5-967e-cd18cc963390","ios":"levelo://app?vid=8c6b9948-2f23-41f5-967e-cd18cc963390"},"vehicle_type_id":"4","last_reported":1700420682,"current_range_meters":14000,"station_id":"ce4bhs12rcd13ifvqhvg","pricing_plan_id":"free"},{"bike_id":"37f38a48-942a-444e-9fce-6cb1c9016221","system_id":"levelo_inurba_marseille","lat":43.302784,"lon":5.377158,"is_reserved":false,"is_disabled":false,"rental_uris":{"android":"levelo://app?vid=37f38a48-942a-444e-9fce-6cb1c9016221","ios":"levelo://app?vid=37f38a48-942a-444e-9fce-6cb1c9016221"},"vehicle_type_id":"4","last_reported":1700420682,"current_range_meters":0,"station_id":"ce4bguh2rcd13ifvqcj0","pricing_plan_id":"free"},{"bike_id":"cb9aaf1e-c165-4477-b766-07ed6f860aa9","system_id":"levelo_inurba_marseille","lat":43.31994,"lon":5.38152,"is_reserved":false,"is_disabled":false,"rental_uris":{"android":"levelo://app?vid=cb9aaf1e-c165-4477-b766-07ed6f860aa9","ios":"levelo://app?vid=cb9aaf1e-c165-4477-b766-07ed6f860aa9"},"vehicle_type_id":"4","last_reported":1700420682,"current_range_meters":1200,"station_id":"ce4bhr12rcd13ifvqhpg","pricing_plan_id":"free"},{"bike_id":"b86bd29c-7dae-4d1a-900b-90742660a871","system_id":"levelo_inurba_marseille","lat":43.31993,"lon":5.38159,"is_reserved":false,"is_disabled":false,"rental_uris":{"android":"levelo://app?vid=b86bd29c-7dae-4d1a-900b-90742660a871","ios":"levelo://app?vid=b86bd29c-7dae-4d1a-900b-90742660a871"},"vehicle_type_id":"4","last_reported":1700420682,"current_range_meters":24800,"station_id":"ce4bhr12rcd13ifvqhpg","pricing_plan_id":"free"},{"bike_id":"5da9dea2-bd9f-4746-b637-56e44ea9e587","system_id":"levelo_inurba_marseille","lat":43.298489,"lon":5.362942,"is_reserved":false,"is_disabled":false,"rental_uris":{"android":"levelo://app?vid=5da9dea2-bd9f-4746-b637-56e44ea9e587","ios":"levelo://app?vid=5da9dea2-bd9f-4746-b637-56e44ea9e587"},"vehicle_type_id":"4","last_reported":1700420682,"current_range_meters":0,"station_id":"","pricing_plan_id":"free"},{"bike_id":"da15deb7-5f29-4ef7-b1b8-fd3c3e180f8f","system_id":"levelo_inurba_marseille","lat":43.311722,"lon":5.387247,"is_reserved":false,"is_disabled":false,"rental_uris":{"android":"levelo://app?vid=da15deb7-5f29-4ef7-b1b8-fd3c3e180f8f","ios":"levelo://app?vid=da15deb7-5f29-4ef7-b1b8-fd3c3e180f8f"},"vehicle_type_id":"4","last_reported":1700420682,"current_range_meters":3200,"station_id":"ce4bgv12rcd13ifvqcp0","pricing_plan_id":"free"},{"bike_id":"8b3677d2-ba45-46d5-8680-59b39c3c55a8","system_id":"levelo_inurba_marseille","lat":43.311722,"lon":5.387247,"is_reserved":false,"is_disabled":false,"rental_uris":{"android":"levelo://app?vid=8b3677d2-ba45-46d5-8680-59b39c3c55a8","ios":"levelo://app?vid=8b3677d2-ba45-46d5-8680-59b39c3c55a8"},"vehicle_type_id":"4","last_reported":1700420682,"current_range_meters":0,"station_id":"ce4bgv12rcd13ifvqcp0","pricing_plan_id":"free"},{"bike_id":"cbadc4f9-aa4c-462e-88e5-41819aa93e43","system_id":"levelo_inurba_marseille","lat":43.305364,"lon":5.384119,"is_reserved":false,"is_disabled":false,"rental_uris":{"android":"levelo://app?vid=cbadc4f9-aa4c-462e-88e5-41819aa93e43","ios":"levelo://app?vid=cbadc4f9-aa4c-462e-88e5-41819aa93e43"},"vehicle_type_id":"4","last_reported":1700420682,"current_range_meters":1200,"station_id":"ce4bgg92rcd13ifvqb30","pricing_plan_id":"free"},{"bike_id":"b88d4ced-d0fe-4013-9a9c-8d39cf08f8b9","system_id":"levelo_inurba_marseille","lat":43.311722,"lon":5.387247,"is_reserved":false,"is_disabled":false,"rental_uris":{"android":"levelo://app?vid=b88d4ced-d0fe-4013-9a9c-8d39cf08f8b9","ios":"levelo://app?vid=b88d4ced-d0fe-4013-9a9c-8d39cf08f8b9"},"vehicle_type_id":"4","last_reported":1700420682,"current_range_meters":5200,"station_id":"ce4bgv12rcd13ifvqcp0","pricing_plan_id":"free"},{"bike_id":"6c5d7580-0af2-4711-aac6-b10b4ab61119","system_id":"levelo_inurba_marseille","lat":43.297847,"lon":5.372297,"is_reserved":false,"is_disabled":false,"rental_uris":{"android":"levelo://app?vid=6c5d7580-0af2-4711-aac6-b10b4ab61119","ios":"levelo://app?vid=6c5d7580-0af2-4711-aac6-b10b4ab61119"},"vehicle_type_id":"4","last_reported":1700420682,"current_range_meters":0,"station_id":"","pricing_plan_id":"free"},{"bike_id":"44cc598b-60fc-40d2-b531-971a6e6970cc","system_id":"levelo_inurba_marseille","lat":43.32825,"lon":5.36688,"is_reserved":false,"is_disabled":false,"rental_uris":{"android":"levelo://app?vid=44cc598b-60fc-40d2-b531-971a6e6970cc","ios":"levelo://app?vid=44cc598b-60fc-40d2-b531-971a6e6970cc"},"vehicle_type_id":"4","last_reported":1700420682,"current_range_meters":4000,"station_id":"ce4bhs92rcd13ifvqi0g","pricing_plan_id":"free"},{"bike_id":"800a1342-faab-459c-8c88-cbeaec705f5e","system_id":"levelo_inurba_marseille","lat":43.328371,"lon":5.366909,"is_reserved":false,"is_disabled":false,"rental_uris":{"android":"levelo://app?vid=800a1342-faab-459c-8c88-cbeaec705f5e","ios":"levelo://app?vid=800a1342-faab-459c-8c88-cbeaec705f5e"},"vehicle_type_id":"4","last_reported":1700420682,"current_range_meters":19600,"station_id":"ce4bhs92rcd13ifvqi0g","pricing_plan_id":"free"},{"bike_id":"e5c30010-bab4-4fba-b633-780bc1a27fa9","system_id":"levelo_inurba_marseille","lat":43.3283,"lon":5.36691,"is_reserved":false,"is_disabled":false,"rental_uris":{"android":"levelo://app?vid=e5c30010-bab4-4fba-b633-780bc1a27fa9","ios":"levelo://app?vid=e5c30010-bab4-4fba-b633-780bc1a27fa9"},"vehicle_type_id":"4","last_reported":1700420682,"current_range_meters":4400,"station_id":"ce4bhs92rcd13ifvqi0g","pricing_plan_id":"free"},{"bike_id":"2a07802c-16d5-4104-9ab3-93ca6dd62601","system_id":"levelo_inurba_marseille","lat":43.29601,"lon":5.368027,"is_reserved":false,"is_disabled":false,"rental_uris":{"android":"levelo://app?vid=2a07802c-16d5-4104-9ab3-93ca6dd62601","ios":"levelo://app?vid=2a07802c-16d5-4104-9ab3-93ca6dd62601"},"vehicle_type_id":"4","last_reported":1700420682,"current_range_meters":25600,"station_id":"","pricing_plan_id":"free"},{"bike_id":"37dcbadb-8e18-4d47-bf7b-c7e2059ddb8e","system_id":"levelo_inurba_marseille","lat":43.299028,"lon":5.381509,"is_reserved":false,"is_disabled":false,"rental_uris":{"android":"levelo://app?vid=37dcbadb-8e18-4d47-bf7b-c7e2059ddb8e","ios":"levelo://app?vid=37dcbadb-8e18-4d47-bf7b-c7e2059ddb8e"},"vehicle_type_id":"4","last_reported":1700420682,"current_range_meters":14400,"station_id":"ce4bgj12rcd13ifvqbc0","pricing_plan_id":"free"},{"bike_id":"67ffd28a-0325-489b-a10f-d90500122751","system_id":"levelo_inurba_marseille","lat":43.295748,"lon":5.37522,"is_reserved":false,"is_disabled":false,"rental_uris":{"android":"levelo://app?vid=67ffd28a-0325-489b-a10f-d90500122751","ios":"levelo://app?vid=67ffd28a-0325-489b-a10f-d90500122751"},"vehicle_type_id":"4","last_reported":1700420682,"current_range_meters":30800,"station_id":"ce4bgh92rcd13ifvqb50","pricing_plan_id":"free"},{"bike_id":"523f23cd-88ff-4aa1-8e99-e027cb72c944","system_id":"levelo_inurba_marseille","lat":43.296224,"lon":5.377172,"is_reserved":false,"is_disabled":false,"rental_uris":{"android":"levelo://app?vid=523f23cd-88ff-4aa1-8e99-e027cb72c944","ios":"levelo://app?vid=523f23cd-88ff-4aa1-8e99-e027cb72c944"},"vehicle_type_id":"4","last_reported":1700420682,"current_range_meters":0,"station_id":"ce4bgi92rcd13ifvqb90","pricing_plan_id":"free"},{"bike_id":"3e3e92fe-39b7-4933-99ff-3747b28b5d69","system_id":"levelo_inurba_marseille","lat":43.328154,"lon":5.380034,"is_reserved":false,"is_disabled":false,"rental_uris":{"android":"levelo://app?vid=3e3e92fe-39b7-4933-99ff-3747b28b5d69","ios":"levelo://app?vid=3e3e92fe-39b7-4933-99ff-3747b28b5d69"},"vehicle_type_id":"4","last_reported":1700420682,"current_range_meters":5200,"station_id":"","pricing_plan_id":"free"},{"bike_id":"e145a3f7-00ac-4f8f-bfe5-435bc38ccaf7","system_id":"levelo_inurba_marseille","lat":43.293801,"lon":5.363066,"is_reserved":false,"is_disabled":false,"rental_uris":{"android":"levelo://app?vid=e145a3f7-00ac-4f8f-bfe5-435bc38ccaf7","ios":"levelo://app?vid=e145a3f7-00ac-4f8f-bfe5-435bc38ccaf7"},"vehicle_type_id":"4","last_reported":1700420682,"current_range_meters":22800,"station_id":"","pricing_plan_id":"free"},{"bike_id":"489990f3-8349-455a-830c-7dc558db125e","system_id":"levelo_inurba_marseille","lat":43.32366,"lon":5.38882,"is_reserved":false,"is_disabled":false,"rental_uris":{"android":"levelo://app?vid=489990f3-8349-455a-830c-7dc558db125e","ios":"levelo://app?vid=489990f3-8349-455a-830c-7dc558db125e"},"vehicle_type_id":"4","last_reported":1700420682,"current_range_meters":0,"station_id":"ce4bhqp2rcd13ifvqhog","pricing_plan_id":"free"},{"bike_id":"8057a4b5-a559-412e-aaff-00b6471b97a0","system_id":"levelo_inurba_marseille","lat":43.32367,"lon":5.388836,"is_reserved":false,"is_disabled":false,"rental_uris":{"android":"levelo://app?vid=8057a4b5-a559-412e-aaff-00b6471b97a0","ios":"levelo://app?vid=8057a4b5-a559-412e-aaff-00b6471b97a0"},"vehicle_type_id":"4","last_reported":1700420682,"current_range_meters":6400,"station_id":"ce4bhqp2rcd13ifvqhog","pricing_plan_id":"free"},{"bike_id":"bad060e6-5660-41d1-ba7a-931e4aadc809","system_id":"levelo_inurba_marseille","lat":43.29602,"lon":5.381084,"is_reserved":false,"is_disabled":false,"rental_uris":{"android":"levelo://app?vid=bad060e6-5660-41d1-ba7a-931e4aadc809","ios":"levelo://app?vid=bad060e6-5660-41d1-ba7a-931e4aadc809"},"vehicle_type_id":"4","last_reported":1700420682,"current_range_meters":30800,"station_id":"ce4bgl12rcd13ifvqbo0","pricing_plan_id":"free"},{"bike_id":"4eef38cc-64cf-4f4d-8d5b-99bd9d3b1b37","system_id":"levelo_inurba_marseille","lat":43.293162,"lon":5.37121,"is_reserved":false,"is_disabled":false,"rental_uris":{"android":"levelo://app?vid=4eef38cc-64cf-4f4d-8d5b-99bd9d3b1b37","ios":"levelo://app?vid=4eef38cc-64cf-4f4d-8d5b-99bd9d3b1b37"},"vehicle_type_id":"4","last_reported":1700420682,"current_range_meters":24000,"station_id":"ce4bgh92rcd13ifvqb40","pricing_plan_id":"free"},{"bike_id":"742be5f4-976c-4905-8803-b9415f9b3505","system_id":"levelo_inurba_marseille","lat":43.302946,"lon":5.392019,"is_reserved":false,"is_disabled":false,"rental_uris":{"android":"levelo://app?vid=742be5f4-976c-4905-8803-b9415f9b3505","ios":"levelo://app?vid=742be5f4-976c-4905-8803-b9415f9b3505"},"vehicle_type_id":"4","last_reported":1700420682,"current_range_meters":31200,"station_id":"ce4bgkh2rcd13ifvqbk0","pricing_plan_id":"free"},{"bike_id":"33f09b84-95d7-4f45-871d-643433c3bf25","system_id":"levelo_inurba_marseille","lat":43.292311,"lon":5.360731,"is_reserved":false,"is_disabled":false,"rental_uris":{"android":"levelo://app?vid=33f09b84-95d7-4f45-871d-643433c3bf25","ios":"levelo://app?vid=33f09b84-95d7-4f45-871d-643433c3bf25"},"vehicle_type_id":"4","last_reported":1700420682,"current_range_meters":0,"station_id":"ce4bhbh2rcd13ifvqeqg","pricing_plan_id":"free"},{"bike_id":"d6fa56c4-d309-4560-8c0f-0baaf8c36df9","system_id":"levelo_inurba_marseille","lat":43.29223,"lon":5.36067,"is_reserved":false,"is_disabled":false,"rental_uris":{"android":"levelo://app?vid=d6fa56c4-d309-4560-8c0f-0baaf8c36df9","ios":"levelo://app?vid=d6fa56c4-d309-4560-8c0f-0baaf8c36df9"},"vehicle_type_id":"4","last_reported":1700420682,"current_range_meters":0,"station_id":"ce4bhbh2rcd13ifvqeqg","pricing_plan_id":"free"},{"bike_id":"c14bd334-db3e-469c-9471-f956f53344de","system_id":"levelo_inurba_marseille","lat":43.30882,"lon":5.39639,"is_reserved":false,"is_disabled":false,"rental_uris":{"android":"levelo://app?vid=c14bd334-db3e-469c-9471-f956f53344de","ios":"levelo://app?vid=c14bd334-db3e-469c-9471-f956f53344de"},"vehicle_type_id":"4","last_reported":1700420682,"current_range_meters":8400,"station_id":"ce4bh012rcd13ifvqcv0","pricing_plan_id":"free"},{"bike_id":"b6ff24c0-2a13-44a7-af34-ee87a9d6f2d3","system_id":"levelo_inurba_marseille","lat":43.31334,"lon":5.39693,"is_reserved":false,"is_disabled":false,"rental_uris":{"android":"levelo://app?vid=b6ff24c0-2a13-44a7-af34-ee87a9d6f2d3","ios":"levelo://app?vid=b6ff24c0-2a13-44a7-af34-ee87a9d6f2d3"},"vehicle_type_id":"4","last_reported":1700420682,"current_range_meters":1600,"station_id":"ce4bgvp2rcd13ifvqcu0","pricing_plan_id":"free"},{"bike_id":"58f14c2f-33eb-4979-82ad-39c9a094d9a7","system_id":"levelo_inurba_marseille","lat":43.309047,"lon":5.396551,"is_reserved":false,"is_disabled":false,"rental_uris":{"android":"levelo://app?vid=58f14c2f-33eb-4979-82ad-39c9a094d9a7","ios":"levelo://app?vid=58f14c2f-33eb-4979-82ad-39c9a094d9a7"},"vehicle_type_id":"4","last_reported":1700420682,"current_range_meters":0,"station_id":"ce4bh012rcd13ifvqcv0","pricing_plan_id":"free"},{"bike_id":"7e2ca19b-b38a-4c4d-ac5e-6823e5c90597","system_id":"levelo_inurba_marseille","lat":43.29529,"lon":5.385581,"is_reserved":false,"is_disabled":false,"rental_uris":{"android":"levelo://app?vid=7e2ca19b-b38a-4c4d-ac5e-6823e5c90597","ios":"levelo://app?vid=7e2ca19b-b38a-4c4d-ac5e-6823e5c90597"},"vehicle_type_id":"4","last_reported":1700420682,"current_range_meters":4400,"station_id":"ce4bgih2rcd13ifvqba0","pricing_plan_id":"free"},{"bike_id":"3a1c9872-ba9f-4d63-840b-6a9de9ccdd1c","system_id":"levelo_inurba_marseille","lat":43.294153,"lon":5.386305,"is_reserved":false,"is_disabled":false,"rental_uris":{"android":"levelo://app?vid=3a1c9872-ba9f-4d63-840b-6a9de9ccdd1c","ios":"levelo://app?vid=3a1c9872-ba9f-4d63-840b-6a9de9ccdd1c"},"vehicle_type_id":"4","last_reported":1700420682,"current_range_meters":24000,"station_id":"ce4bh2h2rcd13ifvqdh0","pricing_plan_id":"free"},{"bike_id":"2363fc4a-b774-4dfd-b7d2-ecdd62f8b123","system_id":"levelo_inurba_marseille","lat":43.294162,"lon":5.386292,"is_reserved":false,"is_disabled":false,"rental_uris":{"android":"levelo://app?vid=2363fc4a-b774-4dfd-b7d2-ecdd62f8b123","ios":"levelo://app?vid=2363fc4a-b774-4dfd-b7d2-ecdd62f8b123"},"vehicle_type_id":"4","last_reported":1700420682,"current_range_meters":0,"station_id":"ce4bh2h2rcd13ifvqdh0","pricing_plan_id":"free"},{"bike_id":"333d5b4a-2c74-4d11-97ff-07ddb0385053","system_id":"levelo_inurba_marseille","lat":43.289184,"lon":5.366408,"is_reserved":false,"is_disabled":false,"rental_uris":{"android":"levelo://app?vid=333d5b4a-2c74-4d11-97ff-07ddb0385053","ios":"levelo://app?vid=333d5b4a-2c74-4d11-97ff-07ddb0385053"},"vehicle_type_id":"4","last_reported":1700420682,"current_range_meters":4000,"station_id":"ce4bhap2rcd13ifvqek0","pricing_plan_id":"free"},{"bike_id":"36203bb1-bb66-4e04-be1d-c86646e63275","system_id":"levelo_inurba_marseille","lat":43.289184,"lon":5.366408,"is_reserved":false,"is_disabled":false,"rental_uris":{"android":"levelo://app?vid=36203bb1-bb66-4e04-be1d-c86646e63275","ios":"levelo://app?vid=36203bb1-bb66-4e04-be1d-c86646e63275"},"vehicle_type_id":"4","last_reported":1700420682,"current_range_meters":0,"station_id":"ce4bhap2rcd13ifvqek0","pricing_plan_id":"free"},{"bike_id":"31b27753-e928-4f26-8dc9-f87a851ee624","system_id":"levelo_inurba_marseille","lat":43.290467,"lon":5.377647,"is_reserved":false,"is_disabled":false,"rental_uris":{"android":"levelo://app?vid=31b27753-e928-4f26-8dc9-f87a851ee624","ios":"levelo://app?vid=31b27753-e928-4f26-8dc9-f87a851ee624"},"vehicle_type_id":"4","last_reported":1700420682,"current_range_meters":0,"station_id":"","pricing_plan_id":"free"},{"bike_id":"dec8d52f-4286-40b0-9b08-a3b542ed727a","system_id":"levelo_inurba_marseille","lat":43.290995,"lon":5.381361,"is_reserved":false,"is_disabled":false,"rental_uris":{"android":"levelo://app?vid=dec8d52f-4286-40b0-9b08-a3b542ed727a","ios":"levelo://app?vid=dec8d52f-4286-40b0-9b08-a3b542ed727a"},"vehicle_type_id":"4","last_reported":1700420682,"current_range_meters":0,"station_id":"ce4bh512rcd13ifvqe2g","pricing_plan_id":"free"},{"bike_id":"32cd991c-97e6-4cf2-8579-724976d8ed55","system_id":"levelo_inurba_marseille","lat":43.29788,"lon":5.39347,"is_reserved":false,"is_disabled":false,"rental_uris":{"android":"levelo://app?vid=32cd991c-97e6-4cf2-8579-724976d8ed55","ios":"levelo://app?vid=32cd991c-97e6-4cf2-8579-724976d8ed55"},"vehicle_type_id":"4","last_reported":1700420682,"current_range_meters":0,"station_id":"chh1huq6cuj3fo74tm60","pricing_plan_id":"free"},{"bike_id":"79734513-9a3c-45d5-afae-9ce10c030c8b","system_id":"levelo_inurba_marseille","lat":43.29019,"lon":5.38132,"is_reserved":false,"is_disabled":false,"rental_uris":{"android":"levelo://app?vid=79734513-9a3c-45d5-afae-9ce10c030c8b","ios":"levelo://app?vid=79734513-9a3c-45d5-afae-9ce10c030c8b"},"vehicle_type_id":"4","last_reported":1700420682,"current_range_meters":0,"station_id":"ce4bh4p2rcd13ifvqe1g","pricing_plan_id":"free"},{"bike_id":"07202f70-50d7-46f0-a5bd-59712659d6a0","system_id":"levelo_inurba_marseille","lat":43.31251,"lon":5.40162,"is_reserved":false,"is_disabled":false,"rental_uris":{"android":"levelo://app?vid=07202f70-50d7-46f0-a5bd-59712659d6a0","ios":"levelo://app?vid=07202f70-50d7-46f0-a5bd-59712659d6a0"},"vehicle_type_id":"4","last_reported":1700420682,"current_range_meters":10000,"station_id":"","pricing_plan_id":"free"},{"bike_id":"ac615a10-dfdb-4492-9fdf-0dc91af3f56c","system_id":"levelo_inurba_marseille","lat":43.30933,"lon":5.40142,"is_reserved":false,"is_disabled":false,"rental_uris":{"android":"levelo://app?vid=ac615a10-dfdb-4492-9fdf-0dc91af3f56c","ios":"levelo://app?vid=ac615a10-dfdb-4492-9fdf-0dc91af3f56c"},"vehicle_type_id":"4","last_reported":1700420682,"current_range_meters":18400,"station_id":"ce4bgvp2rcd13ifvqct0","pricing_plan_id":"free"},{"bike_id":"f078483c-87cb-4359-9450-7ce884350659","system_id":"levelo_inurba_marseille","lat":43.33744,"lon":5.37472,"is_reserved":false,"is_disabled":false,"rental_uris":{"android":"levelo://app?vid=f078483c-87cb-4359-9450-7ce884350659","ios":"levelo://app?vid=f078483c-87cb-4359-9450-7ce884350659"},"vehicle_type_id":"4","last_reported":1700420682,"current_range_meters":22400,"station_id":"","pricing_plan_id":"free"},{"bike_id":"596fc6d4-2eb1-40b3-970b-cc63af3a0451","system_id":"levelo_inurba_marseille","lat":43.309371,"lon":5.401449,"is_reserved":false,"is_disabled":false,"rental_uris":{"android":"levelo://app?vid=596fc6d4-2eb1-40b3-970b-cc63af3a0451","ios":"levelo://app?vid=596fc6d4-2eb1-40b3-970b-cc63af3a0451"},"vehicle_type_id":"4","last_reported":1700420682,"current_range_meters":0,"station_id":"ce4bgvp2rcd13ifvqct0","pricing_plan_id":"free"},{"bike_id":"d48aa06e-6c9f-490b-9e15-a69b95598ab9","system_id":"levelo_inurba_marseille","lat":43.312609,"lon":5.401662,"is_reserved":false,"is_disabled":false,"rental_uris":{"android":"levelo://app?vid=d48aa06e-6c9f-490b-9e15-a69b95598ab9","ios":"levelo://app?vid=d48aa06e-6c9f-490b-9e15-a69b95598ab9"},"vehicle_type_id":"4","last_reported":1700420682,"current_range_meters":16000,"station_id":"ce4bh092rcd13ifvqd30","pricing_plan_id":"free"},{"bike_id":"aace19c0-7fbd-438b-b48e-94441c610ecc","system_id":"levelo_inurba_marseille","lat":43.30931,"lon":5.40147,"is_reserved":false,"is_disabled":false,"rental_uris":{"android":"levelo://app?vid=aace19c0-7fbd-438b-b48e-94441c610ecc","ios":"levelo://app?vid=aace19c0-7fbd-438b-b48e-94441c610ecc"},"vehicle_type_id":"4","last_reported":1700420682,"current_range_meters":18400,"station_id":"","pricing_plan_id":"free"},{"bike_id":"bf061004-2d32-46e2-b9f9-ba424d13e0a6","system_id":"levelo_inurba_marseille","lat":43.30642,"lon":5.401031,"is_reserved":false,"is_disabled":false,"rental_uris":{"android":"levelo://app?vid=bf061004-2d32-46e2-b9f9-ba424d13e0a6","ios":"levelo://app?vid=bf061004-2d32-46e2-b9f9-ba424d13e0a6"},"vehicle_type_id":"4","last_reported":1700420682,"current_range_meters":8000,"station_id":"ce4bh112rcd13ifvqda0","pricing_plan_id":"free"},{"bike_id":"46509513-12f0-4bae-91ab-3b5bb7ed22cf","system_id":"levelo_inurba_marseille","lat":43.337704,"lon":5.374287,"is_reserved":false,"is_disabled":false,"rental_uris":{"android":"levelo://app?vid=46509513-12f0-4bae-91ab-3b5bb7ed22cf","ios":"levelo://app?vid=46509513-12f0-4bae-91ab-3b5bb7ed22cf"},"vehicle_type_id":"4","last_reported":1700420682,"current_range_meters":18000,"station_id":"","pricing_plan_id":"free"},{"bike_id":"473d2011-ae75-4743-87c2-eb53e5b85a28","system_id":"levelo_inurba_marseille","lat":43.337847,"lon":5.374272,"is_reserved":false,"is_disabled":false,"rental_uris":{"android":"levelo://app?vid=473d2011-ae75-4743-87c2-eb53e5b85a28","ios":"levelo://app?vid=473d2011-ae75-4743-87c2-eb53e5b85a28"},"vehicle_type_id":"4","last_reported":1700420682,"current_range_meters":20400,"station_id":"","pricing_plan_id":"free"},{"bike_id":"0a0643e4-a398-4753-87ee-b7643481798e","system_id":"levelo_inurba_marseille","lat":43.286591,"lon":5.363346,"is_reserved":false,"is_disabled":false,"rental_uris":{"android":"levelo://app?vid=0a0643e4-a398-4753-87ee-b7643481798e","ios":"levelo://app?vid=0a0643e4-a398-4753-87ee-b7643481798e"},"vehicle_type_id":"4","last_reported":1700420682,"current_range_meters":12000,"station_id":"ce4bhah2rcd13ifvqej0","pricing_plan_id":"free"},{"bike_id":"668a58be-3b97-49b0-8ecb-a2d5b16ce93b","system_id":"levelo_inurba_marseille","lat":43.28669,"lon":5.36349,"is_reserved":false,"is_disabled":false,"rental_uris":{"android":"levelo://app?vid=668a58be-3b97-49b0-8ecb-a2d5b16ce93b","ios":"levelo://app?vid=668a58be-3b97-49b0-8ecb-a2d5b16ce93b"},"vehicle_type_id":"4","last_reported":1700420682,"current_range_meters":28400,"station_id":"ce4bhah2rcd13ifvqej0","pricing_plan_id":"free"},{"bike_id":"c39c268c-68dc-497f-8820-6ee247175632","system_id":"levelo_inurba_marseille","lat":43.286961,"lon":5.373785,"is_reserved":false,"is_disabled":false,"rental_uris":{"android":"levelo://app?vid=c39c268c-68dc-497f-8820-6ee247175632","ios":"levelo://app?vid=c39c268c-68dc-497f-8820-6ee247175632"},"vehicle_type_id":"4","last_reported":1700420682,"current_range_meters":23600,"station_id":"ce4bh3p2rcd13ifvqdq0","pricing_plan_id":"free"},{"bike_id":"be369844-152d-44ca-a3fb-2bd355c06bdf","system_id":"levelo_inurba_marseille","lat":43.298681,"lon":5.397225,"is_reserved":false,"is_disabled":false,"rental_uris":{"android":"levelo://app?vid=be369844-152d-44ca-a3fb-2bd355c06bdf","ios":"levelo://app?vid=be369844-152d-44ca-a3fb-2bd355c06bdf"},"vehicle_type_id":"4","last_reported":1700420682,"current_range_meters":3200,"station_id":"ce4bh0h2rcd13ifvqd50","pricing_plan_id":"free"},{"bike_id":"fe09ac4c-6cf0-4f07-a75a-dc199660a1f4","system_id":"levelo_inurba_marseille","lat":43.289307,"lon":5.38406,"is_reserved":false,"is_disabled":false,"rental_uris":{"android":"levelo://app?vid=fe09ac4c-6cf0-4f07-a75a-dc199660a1f4","ios":"levelo://app?vid=fe09ac4c-6cf0-4f07-a75a-dc199660a1f4"},"vehicle_type_id":"4","last_reported":1700420682,"current_range_meters":22000,"station_id":"ce4bh612rcd13ifvqe6g","pricing_plan_id":"free"},{"bike_id":"deda9405-36f9-4975-b39f-406562fc89cc","system_id":"levelo_inurba_marseille","lat":43.2903,"lon":5.38624,"is_reserved":false,"is_disabled":false,"rental_uris":{"android":"levelo://app?vid=deda9405-36f9-4975-b39f-406562fc89cc","ios":"levelo://app?vid=deda9405-36f9-4975-b39f-406562fc89cc"},"vehicle_type_id":"4","last_reported":1700420682,"current_range_meters":1600,"station_id":"ce4bh4p2rcd13ifvqe0g","pricing_plan_id":"free"},{"bike_id":"ce999d21-1755-411e-b89b-4bafb573c53b","system_id":"levelo_inurba_marseille","lat":43.290337,"lon":5.386407,"is_reserved":false,"is_disabled":false,"rental_uris":{"android":"levelo://app?vid=ce999d21-1755-411e-b89b-4bafb573c53b","ios":"levelo://app?vid=ce999d21-1755-411e-b89b-4bafb573c53b"},"vehicle_type_id":"4","last_reported":1700420682,"current_range_meters":13600,"station_id":"ce4bh4p2rcd13ifvqe0g","pricing_plan_id":"free"},{"bike_id":"30c92f25-7291-48d9-ab54-efab34f7ca3f","system_id":"levelo_inurba_marseille","lat":43.290288,"lon":5.386323,"is_reserved":false,"is_disabled":false,"rental_uris":{"android":"levelo://app?vid=30c92f25-7291-48d9-ab54-efab34f7ca3f","ios":"levelo://app?vid=30c92f25-7291-48d9-ab54-efab34f7ca3f"},"vehicle_type_id":"4","last_reported":1700420682,"current_range_meters":22000,"station_id":"ce4bh4p2rcd13ifvqe0g","pricing_plan_id":"free"},{"bike_id":"9b4290d7-d24b-46e9-aaec-9c82bb1cabf7","system_id":"levelo_inurba_marseille","lat":43.302759,"lon":5.400793,"is_reserved":false,"is_disabled":false,"rental_uris":{"android":"levelo://app?vid=9b4290d7-d24b-46e9-aaec-9c82bb1cabf7","ios":"levelo://app?vid=9b4290d7-d24b-46e9-aaec-9c82bb1cabf7"},"vehicle_type_id":"4","last_reported":1700420682,"current_range_meters":1200,"station_id":"ce4bgvh2rcd13ifvqcs0","pricing_plan_id":"free"},{"bike_id":"3aec5328-f655-4fdd-9ee9-5ac4b7358e56","system_id":"levelo_inurba_marseille","lat":43.28923,"lon":5.38387,"is_reserved":false,"is_disabled":false,"rental_uris":{"android":"levelo://app?vid=3aec5328-f655-4fdd-9ee9-5ac4b7358e56","ios":"levelo://app?vid=3aec5328-f655-4fdd-9ee9-5ac4b7358e56"},"vehicle_type_id":"4","last_reported":1700420682,"current_range_meters":28400,"station_id":"ce4bh612rcd13ifvqe6g","pricing_plan_id":"free"},{"bike_id":"b1d0917d-fd27-4bee-b8de-9003c78de792","system_id":"levelo_inurba_marseille","lat":43.289307,"lon":5.38406,"is_reserved":false,"is_disabled":false,"rental_uris":{"android":"levelo://app?vid=b1d0917d-fd27-4bee-b8de-9003c78de792","ios":"levelo://app?vid=b1d0917d-fd27-4bee-b8de-9003c78de792"},"vehicle_type_id":"4","last_reported":1700420682,"current_range_meters":2000,"station_id":"ce4bh612rcd13ifvqe6g","pricing_plan_id":"free"},{"bike_id":"957ebeb6-d3b4-4e32-81b4-d646b2f47150","system_id":"levelo_inurba_marseille","lat":43.29027,"lon":5.38642,"is_reserved":false,"is_disabled":false,"rental_uris":{"android":"levelo://app?vid=957ebeb6-d3b4-4e32-81b4-d646b2f47150","ios":"levelo://app?vid=957ebeb6-d3b4-4e32-81b4-d646b2f47150"},"vehicle_type_id":"4","last_reported":1700420682,"current_range_meters":16000,"station_id":"ce4bh4p2rcd13ifvqe0g","pricing_plan_id":"free"},{"bike_id":"400157af-7c63-4cbb-92d9-1fc374bcbd24","system_id":"levelo_inurba_marseille","lat":43.302759,"lon":5.400793,"is_reserved":false,"is_disabled":false,"rental_uris":{"android":"levelo://app?vid=400157af-7c63-4cbb-92d9-1fc374bcbd24","ios":"levelo://app?vid=400157af-7c63-4cbb-92d9-1fc374bcbd24"},"vehicle_type_id":"4","last_reported":1700420682,"current_range_meters":1200,"station_id":"ce4bgvh2rcd13ifvqcs0","pricing_plan_id":"free"},{"bike_id":"82f0bec1-510e-4e11-b022-4e2ec4798ad3","system_id":"levelo_inurba_marseille","lat":43.316517,"lon":5.404375,"is_reserved":false,"is_disabled":false,"rental_uris":{"android":"levelo://app?vid=82f0bec1-510e-4e11-b022-4e2ec4798ad3","ios":"levelo://app?vid=82f0bec1-510e-4e11-b022-4e2ec4798ad3"},"vehicle_type_id":"4","last_reported":1700420682,"current_range_meters":13200,"station_id":"ce4bh012rcd13ifvqd00","pricing_plan_id":"free"},{"bike_id":"f7f50d6b-60f5-4c3c-ab4d-f7a286022400","system_id":"levelo_inurba_marseille","lat":43.291994,"lon":5.392907,"is_reserved":false,"is_disabled":false,"rental_uris":{"android":"levelo://app?vid=f7f50d6b-60f5-4c3c-ab4d-f7a286022400","ios":"levelo://app?vid=f7f50d6b-60f5-4c3c-ab4d-f7a286022400"},"vehicle_type_id":"4","last_reported":1700420682,"current_range_meters":4000,"station_id":"ce4bh192rcd13ifvqdd0","pricing_plan_id":"free"},{"bike_id":"cbe53030-d589-46f7-96da-a5ada3e3ddcf","system_id":"levelo_inurba_marseille","lat":43.291994,"lon":5.392907,"is_reserved":false,"is_disabled":false,"rental_uris":{"android":"levelo://app?vid=cbe53030-d589-46f7-96da-a5ada3e3ddcf","ios":"levelo://app?vid=cbe53030-d589-46f7-96da-a5ada3e3ddcf"},"vehicle_type_id":"4","last_reported":1700420682,"current_range_meters":0,"station_id":"ce4bh192rcd13ifvqdd0","pricing_plan_id":"free"},{"bike_id":"cbc80459-b41e-4cea-a4fc-4b9c019bcf84","system_id":"levelo_inurba_marseille","lat":43.291994,"lon":5.392907,"is_reserved":false,"is_disabled":false,"rental_uris":{"android":"levelo://app?vid=cbc80459-b41e-4cea-a4fc-4b9c019bcf84","ios":"levelo://app?vid=cbc80459-b41e-4cea-a4fc-4b9c019bcf84"},"vehicle_type_id":"4","last_reported":1700420682,"current_range_meters":0,"station_id":"ce4bh192rcd13ifvqdd0","pricing_plan_id":"free"},{"bike_id":"08b7db26-8202-4133-9054-ad0e10095006","system_id":"levelo_inurba_marseille","lat":43.28613,"lon":5.35111,"is_reserved":false,"is_disabled":false,"rental_uris":{"android":"levelo://app?vid=08b7db26-8202-4133-9054-ad0e10095006","ios":"levelo://app?vid=08b7db26-8202-4133-9054-ad0e10095006"},"vehicle_type_id":"4","last_reported":1700420682,"current_range_meters":20800,"station_id":"ce4bhch2rcd13ifvqeug","pricing_plan_id":"free"},{"bike_id":"cc8e82c6-cdda-4262-bfa2-e80527e78329","system_id":"levelo_inurba_marseille","lat":43.28615,"lon":5.351,"is_reserved":false,"is_disabled":false,"rental_uris":{"android":"levelo://app?vid=cc8e82c6-cdda-4262-bfa2-e80527e78329","ios":"levelo://app?vid=cc8e82c6-cdda-4262-bfa2-e80527e78329"},"vehicle_type_id":"4","last_reported":1700420682,"current_range_meters":31200,"station_id":"ce4bhch2rcd13ifvqeug","pricing_plan_id":"free"},{"bike_id":"dd753e23-6a77-4608-a440-5f226088a62d","system_id":"levelo_inurba_marseille","lat":43.283998,"lon":5.375062,"is_reserved":false,"is_disabled":false,"rental_uris":{"android":"levelo://app?vid=dd753e23-6a77-4608-a440-5f226088a62d","ios":"levelo://app?vid=dd753e23-6a77-4608-a440-5f226088a62d"},"vehicle_type_id":"4","last_reported":1700420682,"current_range_meters":13600,"station_id":"ce4bh412rcd13ifvqds0","pricing_plan_id":"free"},{"bike_id":"5f153f02-c4c9-456b-aa48-aeca587f3139","system_id":"levelo_inurba_marseille","lat":43.28464,"lon":5.37849,"is_reserved":false,"is_disabled":false,"rental_uris":{"android":"levelo://app?vid=5f153f02-c4c9-456b-aa48-aeca587f3139","ios":"levelo://app?vid=5f153f02-c4c9-456b-aa48-aeca587f3139"},"vehicle_type_id":"4","last_reported":1700420682,"current_range_meters":3600,"station_id":"","pricing_plan_id":"free"},{"bike_id":"5974ad3b-da81-42ca-a08b-1b3632a47afa","system_id":"levelo_inurba_marseille","lat":43.33237,"lon":5.3985,"is_reserved":false,"is_disabled":false,"rental_uris":{"android":"levelo://app?vid=5974ad3b-da81-42ca-a08b-1b3632a47afa","ios":"levelo://app?vid=5974ad3b-da81-42ca-a08b-1b3632a47afa"},"vehicle_type_id":"4","last_reported":1700420682,"current_range_meters":400,"station_id":"","pricing_plan_id":"free"},{"bike_id":"c8815ca1-85b8-4297-b7c2-978e5c43a3d1","system_id":"levelo_inurba_marseille","lat":43.33717,"lon":5.391857,"is_reserved":false,"is_disabled":false,"rental_uris":{"android":"levelo://app?vid=c8815ca1-85b8-4297-b7c2-978e5c43a3d1","ios":"levelo://app?vid=c8815ca1-85b8-4297-b7c2-978e5c43a3d1"},"vehicle_type_id":"4","last_reported":1700420682,"current_range_meters":27600,"station_id":"ce4bhr92rcd13ifvqhsg","pricing_plan_id":"free"},{"bike_id":"9ab3e211-60f1-4566-9bd2-93042802a9de","system_id":"levelo_inurba_marseille","lat":43.288497,"lon":5.393089,"is_reserved":false,"is_disabled":false,"rental_uris":{"android":"levelo://app?vid=9ab3e211-60f1-4566-9bd2-93042802a9de","ios":"levelo://app?vid=9ab3e211-60f1-4566-9bd2-93042802a9de"},"vehicle_type_id":"4","last_reported":1700420682,"current_range_meters":6800,"station_id":"ce4bh2p2rcd13ifvqdi0","pricing_plan_id":"free"},{"bike_id":"866565bd-e4a1-41d3-ae0c-ec93056f29ea","system_id":"levelo_inurba_marseille","lat":43.288497,"lon":5.393089,"is_reserved":false,"is_disabled":false,"rental_uris":{"android":"levelo://app?vid=866565bd-e4a1-41d3-ae0c-ec93056f29ea","ios":"levelo://app?vid=866565bd-e4a1-41d3-ae0c-ec93056f29ea"},"vehicle_type_id":"4","last_reported":1700420682,"current_range_meters":14800,"station_id":"ce4bh2p2rcd13ifvqdi0","pricing_plan_id":"free"},{"bike_id":"0811ba75-2b6e-4dfa-b236-cee400e44294","system_id":"levelo_inurba_marseille","lat":43.288497,"lon":5.393089,"is_reserved":false,"is_disabled":false,"rental_uris":{"android":"levelo://app?vid=0811ba75-2b6e-4dfa-b236-cee400e44294","ios":"levelo://app?vid=0811ba75-2b6e-4dfa-b236-cee400e44294"},"vehicle_type_id":"4","last_reported":1700420682,"current_range_meters":20400,"station_id":"ce4bh2p2rcd13ifvqdi0","pricing_plan_id":"free"},{"bike_id":"459697f2-2fca-4de3-b08b-631ea3082874","system_id":"levelo_inurba_marseille","lat":43.283494,"lon":5.380945,"is_reserved":false,"is_disabled":false,"rental_uris":{"android":"levelo://app?vid=459697f2-2fca-4de3-b08b-631ea3082874","ios":"levelo://app?vid=459697f2-2fca-4de3-b08b-631ea3082874"},"vehicle_type_id":"4","last_reported":1700420682,"current_range_meters":7200,"station_id":"ce4bh412rcd13ifvqdr0","pricing_plan_id":"free"},{"bike_id":"7c1bd537-36c9-439c-9551-94493c329e39","system_id":"levelo_inurba_marseille","lat":43.29041,"lon":5.399634,"is_reserved":false,"is_disabled":false,"rental_uris":{"android":"levelo://app?vid=7c1bd537-36c9-439c-9551-94493c329e39","ios":"levelo://app?vid=7c1bd537-36c9-439c-9551-94493c329e39"},"vehicle_type_id":"4","last_reported":1700420682,"current_range_meters":5600,"station_id":"ce4bh392rcd13ifvqdm0","pricing_plan_id":"free"},{"bike_id":"801b98e0-0260-4160-a27e-f4f58feffce9","system_id":"levelo_inurba_marseille","lat":43.281044,"lon":5.378308,"is_reserved":false,"is_disabled":false,"rental_uris":{"android":"levelo://app?vid=801b98e0-0260-4160-a27e-f4f58feffce9","ios":"levelo://app?vid=801b98e0-0260-4160-a27e-f4f58feffce9"},"vehicle_type_id":"4","last_reported":1700420682,"current_range_meters":6000,"station_id":"ce4bha12rcd13ifvqee0","pricing_plan_id":"free"},{"bike_id":"bccc62b8-e98f-454a-bbf4-18cff92f4c4a","system_id":"levelo_inurba_marseille","lat":43.28093,"lon":5.37839,"is_reserved":false,"is_disabled":false,"rental_uris":{"android":"levelo://app?vid=bccc62b8-e98f-454a-bbf4-18cff92f4c4a","ios":"levelo://app?vid=bccc62b8-e98f-454a-bbf4-18cff92f4c4a"},"vehicle_type_id":"4","last_reported":1700420682,"current_range_meters":0,"station_id":"ce4bha12rcd13ifvqee0","pricing_plan_id":"free"},{"bike_id":"ccf9b17e-2fb6-47d5-b5cb-73ea08fcb6e5","system_id":"levelo_inurba_marseille","lat":43.28575,"lon":5.39498,"is_reserved":false,"is_disabled":false,"rental_uris":{"android":"levelo://app?vid=ccf9b17e-2fb6-47d5-b5cb-73ea08fcb6e5","ios":"levelo://app?vid=ccf9b17e-2fb6-47d5-b5cb-73ea08fcb6e5"},"vehicle_type_id":"4","last_reported":1700420682,"current_range_meters":0,"station_id":"ce4bh292rcd13ifvqdg0","pricing_plan_id":"free"},{"bike_id":"b1e7d1b7-c750-4ea8-9ae1-80ce0b6befa7","system_id":"levelo_inurba_marseille","lat":43.320045,"lon":5.415046,"is_reserved":false,"is_disabled":false,"rental_uris":{"android":"levelo://app?vid=b1e7d1b7-c750-4ea8-9ae1-80ce0b6befa7","ios":"levelo://app?vid=b1e7d1b7-c750-4ea8-9ae1-80ce0b6befa7"},"vehicle_type_id":"4","last_reported":1700420682,"current_range_meters":14000,"station_id":"ce4bhq92rcd13ifvqhkg","pricing_plan_id":"free"},{"bike_id":"e5e47c1b-28cd-4f21-b8a3-4ae0c7190b5c","system_id":"levelo_inurba_marseille","lat":43.30414,"lon":5.41282,"is_reserved":false,"is_disabled":false,"rental_uris":{"android":"levelo://app?vid=e5e47c1b-28cd-4f21-b8a3-4ae0c7190b5c","ios":"levelo://app?vid=e5e47c1b-28cd-4f21-b8a3-4ae0c7190b5c"},"vehicle_type_id":"4","last_reported":1700420682,"current_range_meters":17200,"station_id":"ce4bhop2rcd13ifvqh8g","pricing_plan_id":"free"},{"bike_id":"a73e4f69-14a5-4eea-833c-0b5ca431ae90","system_id":"levelo_inurba_marseille","lat":43.304188,"lon":5.412904,"is_reserved":false,"is_disabled":false,"rental_uris":{"android":"levelo://app?vid=a73e4f69-14a5-4eea-833c-0b5ca431ae90","ios":"levelo://app?vid=a73e4f69-14a5-4eea-833c-0b5ca431ae90"},"vehicle_type_id":"4","last_reported":1700420682,"current_range_meters":29600,"station_id":"ce4bhop2rcd13ifvqh8g","pricing_plan_id":"free"},{"bike_id":"5d9d48ea-daba-4f97-9219-33a746cb030b","system_id":"levelo_inurba_marseille","lat":43.30413,"lon":5.41289,"is_reserved":false,"is_disabled":false,"rental_uris":{"android":"levelo://app?vid=5d9d48ea-daba-4f97-9219-33a746cb030b","ios":"levelo://app?vid=5d9d48ea-daba-4f97-9219-33a746cb030b"},"vehicle_type_id":"4","last_reported":1700420682,"current_range_meters":2400,"station_id":"ce4bhop2rcd13ifvqh8g","pricing_plan_id":"free"},{"bike_id":"81b8e324-48e8-43c4-a9ef-3759cbf406ed","system_id":"levelo_inurba_marseille","lat":43.279087,"lon":5.380114,"is_reserved":false,"is_disabled":false,"rental_uris":{"android":"levelo://app?vid=81b8e324-48e8-43c4-a9ef-3759cbf406ed","ios":"levelo://app?vid=81b8e324-48e8-43c4-a9ef-3759cbf406ed"},"vehicle_type_id":"4","last_reported":1700420682,"current_range_meters":14400,"station_id":"ce4bhf92rcd13ifvqf50","pricing_plan_id":"free"},{"bike_id":"b9c00090-a492-48b3-8060-ab654ad8a09c","system_id":"levelo_inurba_marseille","lat":43.287154,"lon":5.399979,"is_reserved":false,"is_disabled":false,"rental_uris":{"android":"levelo://app?vid=b9c00090-a492-48b3-8060-ab654ad8a09c","ios":"levelo://app?vid=b9c00090-a492-48b3-8060-ab654ad8a09c"},"vehicle_type_id":"4","last_reported":1700420682,"current_range_meters":11600,"station_id":"ce4bho92rcd13ifvqh3g","pricing_plan_id":"free"},{"bike_id":"5a7b9fc1-8a4b-4678-af43-52b819f13851","system_id":"levelo_inurba_marseille","lat":43.279742,"lon":5.38744,"is_reserved":false,"is_disabled":false,"rental_uris":{"android":"levelo://app?vid=5a7b9fc1-8a4b-4678-af43-52b819f13851","ios":"levelo://app?vid=5a7b9fc1-8a4b-4678-af43-52b819f13851"},"vehicle_type_id":"4","last_reported":1700420682,"current_range_meters":0,"station_id":"ce4bhg12rcd13ifvqf80","pricing_plan_id":"free"},{"bike_id":"09169cc1-66f4-4a5e-8cf3-3c9d6b344a99","system_id":"levelo_inurba_marseille","lat":43.279742,"lon":5.38744,"is_reserved":false,"is_disabled":false,"rental_uris":{"android":"levelo://app?vid=09169cc1-66f4-4a5e-8cf3-3c9d6b344a99","ios":"levelo://app?vid=09169cc1-66f4-4a5e-8cf3-3c9d6b344a99"},"vehicle_type_id":"4","last_reported":1700420682,"current_range_meters":0,"station_id":"ce4bhg12rcd13ifvqf80","pricing_plan_id":"free"},{"bike_id":"49e8b7ff-5d05-4572-a727-df6cf4303018","system_id":"levelo_inurba_marseille","lat":43.292571,"lon":5.409107,"is_reserved":false,"is_disabled":false,"rental_uris":{"android":"levelo://app?vid=49e8b7ff-5d05-4572-a727-df6cf4303018","ios":"levelo://app?vid=49e8b7ff-5d05-4572-a727-df6cf4303018"},"vehicle_type_id":"4","last_reported":1700420682,"current_range_meters":10800,"station_id":"ce4bh192rcd13ifvqdc0","pricing_plan_id":"free"},{"bike_id":"66c2a9f4-d670-4ff9-94d8-5b8f8b3c2c7d","system_id":"levelo_inurba_marseille","lat":43.29259,"lon":5.40915,"is_reserved":false,"is_disabled":false,"rental_uris":{"android":"levelo://app?vid=66c2a9f4-d670-4ff9-94d8-5b8f8b3c2c7d","ios":"levelo://app?vid=66c2a9f4-d670-4ff9-94d8-5b8f8b3c2c7d"},"vehicle_type_id":"4","last_reported":1700420682,"current_range_meters":0,"station_id":"ce4bh192rcd13ifvqdc0","pricing_plan_id":"free"},{"bike_id":"0bda960f-b88d-4ba0-a75e-1fc8cc09d4a4","system_id":"levelo_inurba_marseille","lat":43.27559,"lon":5.36028,"is_reserved":false,"is_disabled":false,"rental_uris":{"android":"levelo://app?vid=0bda960f-b88d-4ba0-a75e-1fc8cc09d4a4","ios":"levelo://app?vid=0bda960f-b88d-4ba0-a75e-1fc8cc09d4a4"},"vehicle_type_id":"4","last_reported":1700420682,"current_range_meters":12400,"station_id":"","pricing_plan_id":"free"},{"bike_id":"8c69b603-8a22-457a-9c65-5ead6ab43d89","system_id":"levelo_inurba_marseille","lat":43.280784,"lon":5.396622,"is_reserved":false,"is_disabled":false,"rental_uris":{"android":"levelo://app?vid=8c69b603-8a22-457a-9c65-5ead6ab43d89","ios":"levelo://app?vid=8c69b603-8a22-457a-9c65-5ead6ab43d89"},"vehicle_type_id":"4","last_reported":1700420682,"current_range_meters":21600,"station_id":"ce4bho12rcd13ifvqh2g","pricing_plan_id":"free"},{"bike_id":"d4b4098b-3108-4693-bbcc-ac1187aecdac","system_id":"levelo_inurba_marseille","lat":43.2808,"lon":5.3966,"is_reserved":false,"is_disabled":false,"rental_uris":{"android":"levelo://app?vid=d4b4098b-3108-4693-bbcc-ac1187aecdac","ios":"levelo://app?vid=d4b4098b-3108-4693-bbcc-ac1187aecdac"},"vehicle_type_id":"4","last_reported":1700420682,"current_range_meters":0,"station_id":"ce4bho12rcd13ifvqh2g","pricing_plan_id":"free"},{"bike_id":"703abe7d-9d17-45f5-8618-d9c89868615b","system_id":"levelo_inurba_marseille","lat":43.278401,"lon":5.392152,"is_reserved":false,"is_disabled":false,"rental_uris":{"android":"levelo://app?vid=703abe7d-9d17-45f5-8618-d9c89868615b","ios":"levelo://app?vid=703abe7d-9d17-45f5-8618-d9c89868615b"},"vehicle_type_id":"4","last_reported":1700420682,"current_range_meters":26000,"station_id":"ce4bhjp2rcd13ifvqga0","pricing_plan_id":"free"},{"bike_id":"272e1481-a35b-4cb8-ab2b-97793fedcaee","system_id":"levelo_inurba_marseille","lat":43.273613,"lon":5.362705,"is_reserved":false,"is_disabled":false,"rental_uris":{"android":"levelo://app?vid=272e1481-a35b-4cb8-ab2b-97793fedcaee","ios":"levelo://app?vid=272e1481-a35b-4cb8-ab2b-97793fedcaee"},"vehicle_type_id":"4","last_reported":1700420682,"current_range_meters":16000,"station_id":"ce4bhbh2rcd13ifvqeo0","pricing_plan_id":"free"},{"bike_id":"7b190d01-5b6b-4428-8b0d-1952d926b054","system_id":"levelo_inurba_marseille","lat":43.2756,"lon":5.38421,"is_reserved":false,"is_disabled":false,"rental_uris":{"android":"levelo://app?vid=7b190d01-5b6b-4428-8b0d-1952d926b054","ios":"levelo://app?vid=7b190d01-5b6b-4428-8b0d-1952d926b054"},"vehicle_type_id":"4","last_reported":1700420682,"current_range_meters":8000,"station_id":"ce4bhh92rcd13ifvqfi0","pricing_plan_id":"free"},{"bike_id":"3ad91183-70cb-425e-8564-43ec1612fcfa","system_id":"levelo_inurba_marseille","lat":43.275625,"lon":5.384392,"is_reserved":false,"is_disabled":false,"rental_uris":{"android":"levelo://app?vid=3ad91183-70cb-425e-8564-43ec1612fcfa","ios":"levelo://app?vid=3ad91183-70cb-425e-8564-43ec1612fcfa"},"vehicle_type_id":"4","last_reported":1700420682,"current_range_meters":6000,"station_id":"ce4bhh92rcd13ifvqfi0","pricing_plan_id":"free"},{"bike_id":"8f64ab4c-e41b-42bc-8b04-fd401c60b361","system_id":"levelo_inurba_marseille","lat":43.279952,"lon":5.400085,"is_reserved":false,"is_disabled":false,"rental_uris":{"android":"levelo://app?vid=8f64ab4c-e41b-42bc-8b04-fd401c60b361","ios":"levelo://app?vid=8f64ab4c-e41b-42bc-8b04-fd401c60b361"},"vehicle_type_id":"4","last_reported":1700420682,"current_range_meters":27200,"station_id":"ce4bho92rcd13ifvqh4g","pricing_plan_id":"free"},{"bike_id":"4af864ad-13ab-43ec-a845-17c4cf0e589c","system_id":"levelo_inurba_marseille","lat":43.279952,"lon":5.400085,"is_reserved":false,"is_disabled":false,"rental_uris":{"android":"levelo://app?vid=4af864ad-13ab-43ec-a845-17c4cf0e589c","ios":"levelo://app?vid=4af864ad-13ab-43ec-a845-17c4cf0e589c"},"vehicle_type_id":"4","last_reported":1700420682,"current_range_meters":15200,"station_id":"ce4bho92rcd13ifvqh4g","pricing_plan_id":"free"},{"bike_id":"09598e6a-b738-4f12-ac60-d1462555796f","system_id":"levelo_inurba_marseille","lat":43.279952,"lon":5.400085,"is_reserved":false,"is_disabled":false,"rental_uris":{"android":"levelo://app?vid=09598e6a-b738-4f12-ac60-d1462555796f","ios":"levelo://app?vid=09598e6a-b738-4f12-ac60-d1462555796f"},"vehicle_type_id":"4","last_reported":1700420682,"current_range_meters":15200,"station_id":"ce4bho92rcd13ifvqh4g","pricing_plan_id":"free"},{"bike_id":"26e38500-cf06-412c-84c9-f57ade123ddf","system_id":"levelo_inurba_marseille","lat":43.27995,"lon":5.40017,"is_reserved":false,"is_disabled":false,"rental_uris":{"android":"levelo://app?vid=26e38500-cf06-412c-84c9-f57ade123ddf","ios":"levelo://app?vid=26e38500-cf06-412c-84c9-f57ade123ddf"},"vehicle_type_id":"4","last_reported":1700420682,"current_range_meters":29600,"station_id":"ce4bho92rcd13ifvqh4g","pricing_plan_id":"free"},{"bike_id":"10de2675-de1d-42c2-8f12-665c4023e528","system_id":"levelo_inurba_marseille","lat":43.273129,"lon":5.390725,"is_reserved":false,"is_disabled":false,"rental_uris":{"android":"levelo://app?vid=10de2675-de1d-42c2-8f12-665c4023e528","ios":"levelo://app?vid=10de2675-de1d-42c2-8f12-665c4023e528"},"vehicle_type_id":"4","last_reported":1700420682,"current_range_meters":7200,"station_id":"ce4bhgp2rcd13ifvqfe0","pricing_plan_id":"free"},{"bike_id":"78ed1994-6a4d-4937-a848-a352dc9268c0","system_id":"levelo_inurba_marseille","lat":43.295511,"lon":5.422926,"is_reserved":false,"is_disabled":false,"rental_uris":{"android":"levelo://app?vid=78ed1994-6a4d-4937-a848-a352dc9268c0","ios":"levelo://app?vid=78ed1994-6a4d-4937-a848-a352dc9268c0"},"vehicle_type_id":"4","last_reported":1700420682,"current_range_meters":20800,"station_id":"ce4bhph2rcd13ifvqhdg","pricing_plan_id":"free"},{"bike_id":"f8f5619a-a183-461d-b100-453fb972fcd4","system_id":"levelo_inurba_marseille","lat":43.272118,"lon":5.391758,"is_reserved":false,"is_disabled":false,"rental_uris":{"android":"levelo://app?vid=f8f5619a-a183-461d-b100-453fb972fcd4","ios":"levelo://app?vid=f8f5619a-a183-461d-b100-453fb972fcd4"},"vehicle_type_id":"4","last_reported":1700420682,"current_range_meters":18800,"station_id":"ce4bhhp2rcd13ifvqfm0","pricing_plan_id":"free"},{"bike_id":"fe139271-7817-4645-9ec4-f7eee743e805","system_id":"levelo_inurba_marseille","lat":43.271896,"lon":5.392307,"is_reserved":false,"is_disabled":false,"rental_uris":{"android":"levelo://app?vid=fe139271-7817-4645-9ec4-f7eee743e805","ios":"levelo://app?vid=fe139271-7817-4645-9ec4-f7eee743e805"},"vehicle_type_id":"4","last_reported":1700420682,"current_range_meters":0,"station_id":"","pricing_plan_id":"free"},{"bike_id":"f0ed4531-078e-42fb-a007-3ed80505eb54","system_id":"levelo_inurba_marseille","lat":43.271891,"lon":5.392412,"is_reserved":false,"is_disabled":false,"rental_uris":{"android":"levelo://app?vid=f0ed4531-078e-42fb-a007-3ed80505eb54","ios":"levelo://app?vid=f0ed4531-078e-42fb-a007-3ed80505eb54"},"vehicle_type_id":"4","last_reported":1700420682,"current_range_meters":2400,"station_id":"","pricing_plan_id":"free"},{"bike_id":"df391ea7-b5c5-4ce2-be5e-7cc79d239968","system_id":"levelo_inurba_marseille","lat":43.269467,"lon":5.386439,"is_reserved":false,"is_disabled":false,"rental_uris":{"android":"levelo://app?vid=df391ea7-b5c5-4ce2-be5e-7cc79d239968","ios":"levelo://app?vid=df391ea7-b5c5-4ce2-be5e-7cc79d239968"},"vehicle_type_id":"4","last_reported":1700420682,"current_range_meters":11200,"station_id":"ce4bhh92rcd13ifvqfh0","pricing_plan_id":"free"},{"bike_id":"4e904388-8315-42a3-823e-b01ae258624d","system_id":"levelo_inurba_marseille","lat":43.278128,"lon":5.407195,"is_reserved":false,"is_disabled":false,"rental_uris":{"android":"levelo://app?vid=4e904388-8315-42a3-823e-b01ae258624d","ios":"levelo://app?vid=4e904388-8315-42a3-823e-b01ae258624d"},"vehicle_type_id":"4","last_reported":1700420682,"current_range_meters":800,"station_id":"ce4bhnh2rcd13ifvqgtg","pricing_plan_id":"free"},{"bike_id":"fd85252d-b186-486b-ba25-5fa06a6e4acb","system_id":"levelo_inurba_marseille","lat":43.269467,"lon":5.386439,"is_reserved":false,"is_disabled":false,"rental_uris":{"android":"levelo://app?vid=fd85252d-b186-486b-ba25-5fa06a6e4acb","ios":"levelo://app?vid=fd85252d-b186-486b-ba25-5fa06a6e4acb"},"vehicle_type_id":"4","last_reported":1700420682,"current_range_meters":22800,"station_id":"ce4bhh92rcd13ifvqfh0","pricing_plan_id":"free"},{"bike_id":"139753b1-0b83-4c3a-80f1-5052bac15461","system_id":"levelo_inurba_marseille","lat":43.271056,"lon":5.393366,"is_reserved":false,"is_disabled":false,"rental_uris":{"android":"levelo://app?vid=139753b1-0b83-4c3a-80f1-5052bac15461","ios":"levelo://app?vid=139753b1-0b83-4c3a-80f1-5052bac15461"},"vehicle_type_id":"4","last_reported":1700420682,"current_range_meters":7200,"station_id":"","pricing_plan_id":"free"},{"bike_id":"eda35713-2d91-4d45-8887-2178060c317d","system_id":"levelo_inurba_marseille","lat":43.27941,"lon":5.41046,"is_reserved":false,"is_disabled":false,"rental_uris":{"android":"levelo://app?vid=eda35713-2d91-4d45-8887-2178060c317d","ios":"levelo://app?vid=eda35713-2d91-4d45-8887-2178060c317d"},"vehicle_type_id":"4","last_reported":1700420682,"current_range_meters":20400,"station_id":"","pricing_plan_id":"free"},{"bike_id":"80b1dae0-4d3f-4f68-b655-78b9a54f41f0","system_id":"levelo_inurba_marseille","lat":43.269319,"lon":5.389397,"is_reserved":false,"is_disabled":false,"rental_uris":{"android":"levelo://app?vid=80b1dae0-4d3f-4f68-b655-78b9a54f41f0","ios":"levelo://app?vid=80b1dae0-4d3f-4f68-b655-78b9a54f41f0"},"vehicle_type_id":"4","last_reported":1700420682,"current_range_meters":20800,"station_id":"ce4bhhh2rcd13ifvqfl0","pricing_plan_id":"free"},{"bike_id":"189168ee-d5bb-42ff-88c8-509b9394c3ce","system_id":"levelo_inurba_marseille","lat":43.269319,"lon":5.389397,"is_reserved":false,"is_disabled":false,"rental_uris":{"android":"levelo://app?vid=189168ee-d5bb-42ff-88c8-509b9394c3ce","ios":"levelo://app?vid=189168ee-d5bb-42ff-88c8-509b9394c3ce"},"vehicle_type_id":"4","last_reported":1700420682,"current_range_meters":11200,"station_id":"ce4bhhh2rcd13ifvqfl0","pricing_plan_id":"free"},{"bike_id":"38392c87-901d-42d7-a7a5-d68604678c35","system_id":"levelo_inurba_marseille","lat":43.269319,"lon":5.389397,"is_reserved":false,"is_disabled":false,"rental_uris":{"android":"levelo://app?vid=38392c87-901d-42d7-a7a5-d68604678c35","ios":"levelo://app?vid=38392c87-901d-42d7-a7a5-d68604678c35"},"vehicle_type_id":"4","last_reported":1700420682,"current_range_meters":4000,"station_id":"ce4bhhh2rcd13ifvqfl0","pricing_plan_id":"free"},{"bike_id":"c7758cb2-2a45-4f89-aa5c-0e391d845c76","system_id":"levelo_inurba_marseille","lat":43.326053,"lon":5.429943,"is_reserved":false,"is_disabled":false,"rental_uris":{"android":"levelo://app?vid=c7758cb2-2a45-4f89-aa5c-0e391d845c76","ios":"levelo://app?vid=c7758cb2-2a45-4f89-aa5c-0e391d845c76"},"vehicle_type_id":"4","last_reported":1700420682,"current_range_meters":0,"station_id":"","pricing_plan_id":"free"},{"bike_id":"42871d3b-8c03-490f-baf1-f4b57c44a331","system_id":"levelo_inurba_marseille","lat":43.326174,"lon":5.430584,"is_reserved":false,"is_disabled":false,"rental_uris":{"android":"levelo://app?vid=42871d3b-8c03-490f-baf1-f4b57c44a331","ios":"levelo://app?vid=42871d3b-8c03-490f-baf1-f4b57c44a331"},"vehicle_type_id":"4","last_reported":1700420682,"current_range_meters":17200,"station_id":"","pricing_plan_id":"free"},{"bike_id":"87be04d4-b68d-4ca4-bc75-5865077b920f","system_id":"levelo_inurba_marseille","lat":43.288474,"lon":5.426323,"is_reserved":false,"is_disabled":false,"rental_uris":{"android":"levelo://app?vid=87be04d4-b68d-4ca4-bc75-5865077b920f","ios":"levelo://app?vid=87be04d4-b68d-4ca4-bc75-5865077b920f"},"vehicle_type_id":"4","last_reported":1700420682,"current_range_meters":1600,"station_id":"","pricing_plan_id":"free"},{"bike_id":"f7fbcf96-85d5-481b-bec9-968b3ef5bdaf","system_id":"levelo_inurba_marseille","lat":43.308,"lon":5.43526,"is_reserved":false,"is_disabled":false,"rental_uris":{"android":"levelo://app?vid=f7fbcf96-85d5-481b-bec9-968b3ef5bdaf","ios":"levelo://app?vid=f7fbcf96-85d5-481b-bec9-968b3ef5bdaf"},"vehicle_type_id":"4","last_reported":1700420682,"current_range_meters":0,"station_id":"ce4bhph2rcd13ifvqheg","pricing_plan_id":"free"},{"bike_id":"1d2d632e-c109-4bfe-b5d8-f73fd412fbf5","system_id":"levelo_inurba_marseille","lat":43.26949,"lon":5.40262,"is_reserved":false,"is_disabled":false,"rental_uris":{"android":"levelo://app?vid=1d2d632e-c109-4bfe-b5d8-f73fd412fbf5","ios":"levelo://app?vid=1d2d632e-c109-4bfe-b5d8-f73fd412fbf5"},"vehicle_type_id":"4","last_reported":1700420682,"current_range_meters":0,"station_id":"cjm6bp8fraef2m0cb0m0","pricing_plan_id":"free"},{"bike_id":"f1652e3f-c477-413b-a9b7-b30d047c7518","system_id":"levelo_inurba_marseille","lat":43.2618,"lon":5.37447,"is_reserved":false,"is_disabled":false,"rental_uris":{"android":"levelo://app?vid=f1652e3f-c477-413b-a9b7-b30d047c7518","ios":"levelo://app?vid=f1652e3f-c477-413b-a9b7-b30d047c7518"},"vehicle_type_id":"4","last_reported":1700420682,"current_range_meters":0,"station_id":"ce4bhgp2rcd13ifvqfc0","pricing_plan_id":"free"},{"bike_id":"e3d9f172-b478-42de-98c1-279dfc6fd9f2","system_id":"levelo_inurba_marseille","lat":43.26202,"lon":5.379299,"is_reserved":false,"is_disabled":false,"rental_uris":{"android":"levelo://app?vid=e3d9f172-b478-42de-98c1-279dfc6fd9f2","ios":"levelo://app?vid=e3d9f172-b478-42de-98c1-279dfc6fd9f2"},"vehicle_type_id":"4","last_reported":1700420682,"current_range_meters":10400,"station_id":"ce4bhjp2rcd13ifvqg90","pricing_plan_id":"free"},{"bike_id":"74ce853b-0d8b-42c9-81c8-17a7564a4b34","system_id":"levelo_inurba_marseille","lat":43.31725,"lon":5.43786,"is_reserved":false,"is_disabled":false,"rental_uris":{"android":"levelo://app?vid=74ce853b-0d8b-42c9-81c8-17a7564a4b34","ios":"levelo://app?vid=74ce853b-0d8b-42c9-81c8-17a7564a4b34"},"vehicle_type_id":"4","last_reported":1700420682,"current_range_meters":13600,"station_id":"","pricing_plan_id":"free"},{"bike_id":"899bf2e4-d437-43aa-9d87-9b33de90f3da","system_id":"levelo_inurba_marseille","lat":43.298768,"lon":5.43643,"is_reserved":false,"is_disabled":false,"rental_uris":{"android":"levelo://app?vid=899bf2e4-d437-43aa-9d87-9b33de90f3da","ios":"levelo://app?vid=899bf2e4-d437-43aa-9d87-9b33de90f3da"},"vehicle_type_id":"4","last_reported":1700420682,"current_range_meters":24400,"station_id":"ce4bhpp2rcd13ifvqhfg","pricing_plan_id":"free"},{"bike_id":"1ca2ac24-b06e-48c6-81c8-2eb348350cce","system_id":"levelo_inurba_marseille","lat":43.28157,"lon":5.4264,"is_reserved":false,"is_disabled":false,"rental_uris":{"android":"levelo://app?vid=1ca2ac24-b06e-48c6-81c8-2eb348350cce","ios":"levelo://app?vid=1ca2ac24-b06e-48c6-81c8-2eb348350cce"},"vehicle_type_id":"4","last_reported":1700420682,"current_range_meters":0,"station_id":"ce4bhnh2rcd13ifvqgug","pricing_plan_id":"free"},{"bike_id":"5999d00e-a52f-411c-b69f-b553c0e6cca3","system_id":"levelo_inurba_marseille","lat":43.281548,"lon":5.42643,"is_reserved":false,"is_disabled":false,"rental_uris":{"android":"levelo://app?vid=5999d00e-a52f-411c-b69f-b553c0e6cca3","ios":"levelo://app?vid=5999d00e-a52f-411c-b69f-b553c0e6cca3"},"vehicle_type_id":"4","last_reported":1700420682,"current_range_meters":20400,"station_id":"ce4bhnh2rcd13ifvqgug","pricing_plan_id":"free"},{"bike_id":"136f26ff-90d9-441a-9f7d-ca400cf602be","system_id":"levelo_inurba_marseille","lat":43.260909,"lon":5.397591,"is_reserved":false,"is_disabled":false,"rental_uris":{"android":"levelo://app?vid=136f26ff-90d9-441a-9f7d-ca400cf602be","ios":"levelo://app?vid=136f26ff-90d9-441a-9f7d-ca400cf602be"},"vehicle_type_id":"4","last_reported":1700420682,"current_range_meters":0,"station_id":"ce4bhi12rcd13ifvqfq0","pricing_plan_id":"free"},{"bike_id":"04aae268-835a-4433-a037-0574dea6082b","system_id":"levelo_inurba_marseille","lat":43.275028,"lon":5.424534,"is_reserved":false,"is_disabled":false,"rental_uris":{"android":"levelo://app?vid=04aae268-835a-4433-a037-0574dea6082b","ios":"levelo://app?vid=04aae268-835a-4433-a037-0574dea6082b"},"vehicle_type_id":"4","last_reported":1700420682,"current_range_meters":12000,"station_id":"ce4bhn92rcd13ifvqgrg","pricing_plan_id":"free"},{"bike_id":"8da4cc4e-1f2d-4402-851a-7bd25dac8895","system_id":"levelo_inurba_marseille","lat":43.25584,"lon":5.38229,"is_reserved":false,"is_disabled":false,"rental_uris":{"android":"levelo://app?vid=8da4cc4e-1f2d-4402-851a-7bd25dac8895","ios":"levelo://app?vid=8da4cc4e-1f2d-4402-851a-7bd25dac8895"},"vehicle_type_id":"4","last_reported":1700420682,"current_range_meters":12400,"station_id":"ce4bhih2rcd13ifvqfs0","pricing_plan_id":"free"},{"bike_id":"3c7600fa-272a-4807-b331-48e666f0d425","system_id":"levelo_inurba_marseille","lat":43.255807,"lon":5.38241,"is_reserved":false,"is_disabled":false,"rental_uris":{"android":"levelo://app?vid=3c7600fa-272a-4807-b331-48e666f0d425","ios":"levelo://app?vid=3c7600fa-272a-4807-b331-48e666f0d425"},"vehicle_type_id":"4","last_reported":1700420682,"current_range_meters":29600,"station_id":"ce4bhih2rcd13ifvqfs0","pricing_plan_id":"free"},{"bike_id":"d5958ffa-30ae-4cf9-bb45-767e6319f125","system_id":"levelo_inurba_marseille","lat":43.258224,"lon":5.394369,"is_reserved":false,"is_disabled":false,"rental_uris":{"android":"levelo://app?vid=d5958ffa-30ae-4cf9-bb45-767e6319f125","ios":"levelo://app?vid=d5958ffa-30ae-4cf9-bb45-767e6319f125"},"vehicle_type_id":"4","last_reported":1700420682,"current_range_meters":7200,"station_id":"ce4bhip2rcd13ifvqft0","pricing_plan_id":"free"},{"bike_id":"653a93dc-fdc8-45b7-9661-c0469e70ba2a","system_id":"levelo_inurba_marseille","lat":43.25943,"lon":5.40903,"is_reserved":false,"is_disabled":false,"rental_uris":{"android":"levelo://app?vid=653a93dc-fdc8-45b7-9661-c0469e70ba2a","ios":"levelo://app?vid=653a93dc-fdc8-45b7-9661-c0469e70ba2a"},"vehicle_type_id":"4","last_reported":1700420682,"current_range_meters":0,"station_id":"ce4bhm92rcd13ifvqglg","pricing_plan_id":"free"},{"bike_id":"b3fa1bc3-87b3-4826-9128-cb00a88194b8","system_id":"levelo_inurba_marseille","lat":43.250009,"lon":5.389195,"is_reserved":false,"is_disabled":false,"rental_uris":{"android":"levelo://app?vid=b3fa1bc3-87b3-4826-9128-cb00a88194b8","ios":"levelo://app?vid=b3fa1bc3-87b3-4826-9128-cb00a88194b8"},"vehicle_type_id":"4","last_reported":1700420682,"current_range_meters":0,"station_id":"ce4bhgp2rcd13ifvqfd0","pricing_plan_id":"free"},{"bike_id":"f12b5072-5f95-422a-8996-e444b1dd3858","system_id":"levelo_inurba_marseille","lat":43.250009,"lon":5.389195,"is_reserved":false,"is_disabled":false,"rental_uris":{"android":"levelo://app?vid=f12b5072-5f95-422a-8996-e444b1dd3858","ios":"levelo://app?vid=f12b5072-5f95-422a-8996-e444b1dd3858"},"vehicle_type_id":"4","last_reported":1700420682,"current_range_meters":31200,"station_id":"ce4bhgp2rcd13ifvqfd0","pricing_plan_id":"free"},{"bike_id":"a8de8240-35e7-4bae-aafe-17b152381e60","system_id":"levelo_inurba_marseille","lat":43.250023,"lon":5.38919,"is_reserved":false,"is_disabled":false,"rental_uris":{"android":"levelo://app?vid=a8de8240-35e7-4bae-aafe-17b152381e60","ios":"levelo://app?vid=a8de8240-35e7-4bae-aafe-17b152381e60"},"vehicle_type_id":"4","last_reported":1700420682,"current_range_meters":4000,"station_id":"ce4bhgp2rcd13ifvqfd0","pricing_plan_id":"free"},{"bike_id":"b282cacc-2eb9-4943-98d7-dd5b554d7fca","system_id":"levelo_inurba_marseille","lat":43.25117,"lon":5.40319,"is_reserved":false,"is_disabled":false,"rental_uris":{"android":"levelo://app?vid=b282cacc-2eb9-4943-98d7-dd5b554d7fca","ios":"levelo://app?vid=b282cacc-2eb9-4943-98d7-dd5b554d7fca"},"vehicle_type_id":"4","last_reported":1700420682,"current_range_meters":0,"station_id":"ce4bhlh2rcd13ifvqgig","pricing_plan_id":"free"},{"bike_id":"a54acd97-457e-4c98-a0b6-15e8ede8a34e","system_id":"levelo_inurba_marseille","lat":43.24659,"lon":5.38163,"is_reserved":false,"is_disabled":false,"rental_uris":{"android":"levelo://app?vid=a54acd97-457e-4c98-a0b6-15e8ede8a34e","ios":"levelo://app?vid=a54acd97-457e-4c98-a0b6-15e8ede8a34e"},"vehicle_type_id":"4","last_reported":1700420682,"current_range_meters":10400,"station_id":"ce4bhih2rcd13ifvqfr0","pricing_plan_id":"free"},{"bike_id":"afba5a92-1e58-4c85-895e-4bc18e81cf01","system_id":"levelo_inurba_marseille","lat":43.24693,"lon":5.382096,"is_reserved":false,"is_disabled":false,"rental_uris":{"android":"levelo://app?vid=afba5a92-1e58-4c85-895e-4bc18e81cf01","ios":"levelo://app?vid=afba5a92-1e58-4c85-895e-4bc18e81cf01"},"vehicle_type_id":"4","last_reported":1700420682,"current_range_meters":8000,"station_id":"ce4bhih2rcd13ifvqfr0","pricing_plan_id":"free"},{"bike_id":"7e8adc22-1ffe-4ad4-8b3b-4602d99409dd","system_id":"levelo_inurba_marseille","lat":43.25102,"lon":5.403214,"is_reserved":false,"is_disabled":false,"rental_uris":{"android":"levelo://app?vid=7e8adc22-1ffe-4ad4-8b3b-4602d99409dd","ios":"levelo://app?vid=7e8adc22-1ffe-4ad4-8b3b-4602d99409dd"},"vehicle_type_id":"4","last_reported":1700420682,"current_range_meters":8000,"station_id":"ce4bhlh2rcd13ifvqgig","pricing_plan_id":"free"},{"bike_id":"a1efa6fc-89b2-4657-95b8-6d44c04f19ba","system_id":"levelo_inurba_marseille","lat":43.24658,"lon":5.38164,"is_reserved":false,"is_disabled":false,"rental_uris":{"android":"levelo://app?vid=a1efa6fc-89b2-4657-95b8-6d44c04f19ba","ios":"levelo://app?vid=a1efa6fc-89b2-4657-95b8-6d44c04f19ba"},"vehicle_type_id":"4","last_reported":1700420682,"current_range_meters":15600,"station_id":"ce4bhih2rcd13ifvqfr0","pricing_plan_id":"free"},{"bike_id":"bc119960-00e1-4c4b-aee3-68bd35ca74ac","system_id":"levelo_inurba_marseille","lat":43.25102,"lon":5.403214,"is_reserved":false,"is_disabled":false,"rental_uris":{"android":"levelo://app?vid=bc119960-00e1-4c4b-aee3-68bd35ca74ac","ios":"levelo://app?vid=bc119960-00e1-4c4b-aee3-68bd35ca74ac"},"vehicle_type_id":"4","last_reported":1700420682,"current_range_meters":4800,"station_id":"ce4bhlh2rcd13ifvqgig","pricing_plan_id":"free"},{"bike_id":"b6e680b5-6ba4-400e-85cc-fdb7bed090f7","system_id":"levelo_inurba_marseille","lat":43.246467,"lon":5.388984,"is_reserved":false,"is_disabled":false,"rental_uris":{"android":"levelo://app?vid=b6e680b5-6ba4-400e-85cc-fdb7bed090f7","ios":"levelo://app?vid=b6e680b5-6ba4-400e-85cc-fdb7bed090f7"},"vehicle_type_id":"4","last_reported":1700420682,"current_range_meters":28000,"station_id":"ce4bhg12rcd13ifvqf60","pricing_plan_id":"free"},{"bike_id":"48551b10-7a07-44d3-8793-398c73779585","system_id":"levelo_inurba_marseille","lat":43.246467,"lon":5.388984,"is_reserved":false,"is_disabled":false,"rental_uris":{"android":"levelo://app?vid=48551b10-7a07-44d3-8793-398c73779585","ios":"levelo://app?vid=48551b10-7a07-44d3-8793-398c73779585"},"vehicle_type_id":"4","last_reported":1700420682,"current_range_meters":26000,"station_id":"ce4bhg12rcd13ifvqf60","pricing_plan_id":"free"},{"bike_id":"a0225ba5-d4da-4758-9297-115bd278aa22","system_id":"levelo_inurba_marseille","lat":43.240623,"lon":5.377642,"is_reserved":false,"is_disabled":false,"rental_uris":{"android":"levelo://app?vid=a0225ba5-d4da-4758-9297-115bd278aa22","ios":"levelo://app?vid=a0225ba5-d4da-4758-9297-115bd278aa22"},"vehicle_type_id":"4","last_reported":1700420682,"current_range_meters":19200,"station_id":"ce4bhnp2rcd13ifvqgvg","pricing_plan_id":"free"},{"bike_id":"cfa9521a-cea9-4edf-9f2a-1422ddb7ac10","system_id":"levelo_inurba_marseille","lat":43.240623,"lon":5.377642,"is_reserved":false,"is_disabled":false,"rental_uris":{"android":"levelo://app?vid=cfa9521a-cea9-4edf-9f2a-1422ddb7ac10","ios":"levelo://app?vid=cfa9521a-cea9-4edf-9f2a-1422ddb7ac10"},"vehicle_type_id":"4","last_reported":1700420682,"current_range_meters":19600,"station_id":"ce4bhnp2rcd13ifvqgvg","pricing_plan_id":"free"},{"bike_id":"d1161103-e87d-40cc-b115-1ba7c43ae4f9","system_id":"levelo_inurba_marseille","lat":43.240623,"lon":5.377642,"is_reserved":false,"is_disabled":false,"rental_uris":{"android":"levelo://app?vid=d1161103-e87d-40cc-b115-1ba7c43ae4f9","ios":"levelo://app?vid=d1161103-e87d-40cc-b115-1ba7c43ae4f9"},"vehicle_type_id":"4","last_reported":1700420682,"current_range_meters":22800,"station_id":"ce4bhnp2rcd13ifvqgvg","pricing_plan_id":"free"},{"bike_id":"33cb4995-2f44-44df-bb6b-4d73bc352569","system_id":"levelo_inurba_marseille","lat":43.239588,"lon":5.366238,"is_reserved":false,"is_disabled":false,"rental_uris":{"android":"levelo://app?vid=33cb4995-2f44-44df-bb6b-4d73bc352569","ios":"levelo://app?vid=33cb4995-2f44-44df-bb6b-4d73bc352569"},"vehicle_type_id":"4","last_reported":1700420682,"current_range_meters":6000,"station_id":"ce4bhi12rcd13ifvqfp0","pricing_plan_id":"free"},{"bike_id":"2cd33ab3-3015-46a9-8547-313984672e25","system_id":"levelo_inurba_marseille","lat":43.239588,"lon":5.366238,"is_reserved":false,"is_disabled":false,"rental_uris":{"android":"levelo://app?vid=2cd33ab3-3015-46a9-8547-313984672e25","ios":"levelo://app?vid=2cd33ab3-3015-46a9-8547-313984672e25"},"vehicle_type_id":"4","last_reported":1700420682,"current_range_meters":26000,"station_id":"ce4bhi12rcd13ifvqfp0","pricing_plan_id":"free"},{"bike_id":"8872c7b8-c4a3-4750-b6cf-f9bc2db8b393","system_id":"levelo_inurba_marseille","lat":43.239588,"lon":5.366238,"is_reserved":false,"is_disabled":false,"rental_uris":{"android":"levelo://app?vid=8872c7b8-c4a3-4750-b6cf-f9bc2db8b393","ios":"levelo://app?vid=8872c7b8-c4a3-4750-b6cf-f9bc2db8b393"},"vehicle_type_id":"4","last_reported":1700420682,"current_range_meters":14000,"station_id":"ce4bhi12rcd13ifvqfp0","pricing_plan_id":"free"},{"bike_id":"8eab7e84-1847-40e3-8e05-13b79ecc7a07","system_id":"levelo_inurba_marseille","lat":43.239588,"lon":5.366238,"is_reserved":false,"is_disabled":false,"rental_uris":{"android":"levelo://app?vid=8eab7e84-1847-40e3-8e05-13b79ecc7a07","ios":"levelo://app?vid=8eab7e84-1847-40e3-8e05-13b79ecc7a07"},"vehicle_type_id":"4","last_reported":1700420682,"current_range_meters":12400,"station_id":"ce4bhi12rcd13ifvqfp0","pricing_plan_id":"free"},{"bike_id":"1ff1404d-a5fd-4baa-b0f6-1aa090c9ce89","system_id":"levelo_inurba_marseille","lat":43.241782,"lon":5.397261,"is_reserved":false,"is_disabled":false,"rental_uris":{"android":"levelo://app?vid=1ff1404d-a5fd-4baa-b0f6-1aa090c9ce89","ios":"levelo://app?vid=1ff1404d-a5fd-4baa-b0f6-1aa090c9ce89"},"vehicle_type_id":"4","last_reported":1700420682,"current_range_meters":19600,"station_id":"ce4bhn12rcd13ifvqgpg","pricing_plan_id":"free"},{"bike_id":"1916ba89-348a-46de-862f-002e26a606b7","system_id":"levelo_inurba_marseille","lat":43.24186,"lon":5.39732,"is_reserved":false,"is_disabled":false,"rental_uris":{"android":"levelo://app?vid=1916ba89-348a-46de-862f-002e26a606b7","ios":"levelo://app?vid=1916ba89-348a-46de-862f-002e26a606b7"},"vehicle_type_id":"4","last_reported":1700420682,"current_range_meters":5200,"station_id":"ce4bhn12rcd13ifvqgpg","pricing_plan_id":"free"},{"bike_id":"1e4c8235-2661-4216-9b37-2498240d8932","system_id":"levelo_inurba_marseille","lat":43.24177,"lon":5.39726,"is_reserved":false,"is_disabled":false,"rental_uris":{"android":"levelo://app?vid=1e4c8235-2661-4216-9b37-2498240d8932","ios":"levelo://app?vid=1e4c8235-2661-4216-9b37-2498240d8932"},"vehicle_type_id":"4","last_reported":1700420682,"current_range_meters":14800,"station_id":"ce4bhn12rcd13ifvqgpg","pricing_plan_id":"free"},{"bike_id":"4370869b-0c59-4e1b-b4c7-59bf3a7bc50e","system_id":"levelo_inurba_marseille","lat":43.24175,"lon":5.39725,"is_reserved":false,"is_disabled":false,"rental_uris":{"android":"levelo://app?vid=4370869b-0c59-4e1b-b4c7-59bf3a7bc50e","ios":"levelo://app?vid=4370869b-0c59-4e1b-b4c7-59bf3a7bc50e"},"vehicle_type_id":"4","last_reported":1700420682,"current_range_meters":12000,"station_id":"ce4bhn12rcd13ifvqgpg","pricing_plan_id":"free"},{"bike_id":"c7d71dd3-1e23-47a1-af8a-ee349e4bdae4","system_id":"levelo_inurba_marseille","lat":43.231919,"lon":5.355532,"is_reserved":false,"is_disabled":false,"rental_uris":{"android":"levelo://app?vid=c7d71dd3-1e23-47a1-af8a-ee349e4bdae4","ios":"levelo://app?vid=c7d71dd3-1e23-47a1-af8a-ee349e4bdae4"},"vehicle_type_id":"4","last_reported":1700420682,"current_range_meters":14000,"station_id":"ce4bhu92rcd13ifvqi70","pricing_plan_id":"free"},{"bike_id":"af1ded82-d209-4511-aea5-36860ab15eac","system_id":"levelo_inurba_marseille","lat":43.231794,"lon":5.400052,"is_reserved":false,"is_disabled":false,"rental_uris":{"android":"levelo://app?vid=af1ded82-d209-4511-aea5-36860ab15eac","ios":"levelo://app?vid=af1ded82-d209-4511-aea5-36860ab15eac"},"vehicle_type_id":"4","last_reported":1700420682,"current_range_meters":25200,"station_id":"ce4bhn12rcd13ifvqgqg","pricing_plan_id":"free"},{"bike_id":"9886a500-d50e-4074-b619-a72aa0119469","system_id":"levelo_inurba_marseille","lat":43.231794,"lon":5.400052,"is_reserved":false,"is_disabled":false,"rental_uris":{"android":"levelo://app?vid=9886a500-d50e-4074-b619-a72aa0119469","ios":"levelo://app?vid=9886a500-d50e-4074-b619-a72aa0119469"},"vehicle_type_id":"4","last_reported":1700420682,"current_range_meters":14400,"station_id":"ce4bhn12rcd13ifvqgqg","pricing_plan_id":"free"},{"bike_id":"7a97123b-e1f7-4f9a-8649-9d01ae56d041","system_id":"levelo_inurba_marseille","lat":43.231793,"lon":5.400044,"is_reserved":false,"is_disabled":false,"rental_uris":{"android":"levelo://app?vid=7a97123b-e1f7-4f9a-8649-9d01ae56d041","ios":"levelo://app?vid=7a97123b-e1f7-4f9a-8649-9d01ae56d041"},"vehicle_type_id":"4","last_reported":1700420682,"current_range_meters":26800,"station_id":"ce4bhn12rcd13ifvqgqg","pricing_plan_id":"free"},{"bike_id":"bc57395b-fe92-4868-812b-705163e4facb","system_id":"levelo_inurba_marseille","lat":43.231562,"lon":5.436933,"is_reserved":false,"is_disabled":false,"rental_uris":{"android":"levelo://app?vid=bc57395b-fe92-4868-812b-705163e4facb","ios":"levelo://app?vid=bc57395b-fe92-4868-812b-705163e4facb"},"vehicle_type_id":"4","last_reported":1700420682,"current_range_meters":8800,"station_id":"ce4bhmp2rcd13ifvqgog","pricing_plan_id":"free"},{"bike_id":"910ae0c6-1690-485c-8734-3a112e2e02b4","system_id":"levelo_inurba_marseille","lat":43.231562,"lon":5.436933,"is_reserved":false,"is_disabled":false,"rental_uris":{"android":"levelo://app?vid=910ae0c6-1690-485c-8734-3a112e2e02b4","ios":"levelo://app?vid=910ae0c6-1690-485c-8734-3a112e2e02b4"},"vehicle_type_id":"4","last_reported":1700420682,"current_range_meters":24800,"station_id":"ce4bhmp2rcd13ifvqgog","pricing_plan_id":"free"},{"bike_id":"aa00fa58-aed4-4693-a908-f6c5d3454ce6","system_id":"levelo_inurba_marseille","lat":43.231562,"lon":5.436933,"is_reserved":false,"is_disabled":false,"rental_uris":{"android":"levelo://app?vid=aa00fa58-aed4-4693-a908-f6c5d3454ce6","ios":"levelo://app?vid=aa00fa58-aed4-4693-a908-f6c5d3454ce6"},"vehicle_type_id":"4","last_reported":1700420682,"current_range_meters":17200,"station_id":"ce4bhmp2rcd13ifvqgog","pricing_plan_id":"free"}]}}