{"last_updated":1730156942,"ttl":60,"version":"2.2","data":{"bikes":[{"bike_id":"993bad32-3e7a-4762-9370-f2c1eab969ef","system_id":"levelo_inurba_marseille","lat":43.23969,"lon":5.3663,"is_reserved":false,"is_disabled":false,"rental_uris":{"android":"levelo://app?vid=993bad32-3e7a-4762-9370-f2c1eab969ef","ios":"levelo://app?vid=993bad32-3e7a-4762-9370-f2c1eab969ef"},"vehicle_type_id":"4","last_reported":1730156943,"current_range_meters":27200,"station_id":"ce4bhi12rcd13ifvqfp0","pricing_plan_id":"cebpf4jnsgd1na2vs0mg"},{"bike_id":"5b6da0fb-5d65-41eb-8aa7-edd3cba55e1e","system_id":"levelo_inurba_marseille","lat":43.30352,"lon":5.41881,"is_reserved":false,"is_disabled":false,"rental_uris":{"android":"levelo://app?vid=5b6da0fb-5d65-41eb-8aa7-edd3cba55e1e","ios":"levelo://app?vid=5b6da0fb-5d65-41eb-8aa7-edd3cba55e1e"},"vehicle_type_id":"4","last_reported":1730156943,"current_range_meters":4400,"station_id":"ce4bhop2rcd13ifvqh7g","pricing_plan_id":"cebpf4jnsgd1na2vs0mg"},{"bike_id":"9e4044e9-dd72-4f58-b85b-2423a1de6b75","system_id":"levelo_inurba_marseille","lat":43.27182,"lon":5.40994,"is_reserved":false,"is_disabled":false,"rental_uris":{"android":"levelo://app?vid=9e4044e9-dd72-4f58-b85b-2423a1de6b75","ios":"levelo://app?vid=9e4044e9-dd72-4f58-b85b-2423a1de6b75"},"vehicle_type_id":"4","last_reported":1730156943,"current_range_meters":9600,"station_id":"ce4bhl12rcd13ifvqgf0","pricing_plan_id":"cebpf4jnsgd1na2vs0mg"},{"bike_id":"83f7db1f-5175-4f37-854b-cde355acc9c6","system_id":"levelo_inurba_marseille","lat":43.32292,"lon":5.38281,"is_reserved":false,"is_disabled":false,"rental_uris":{"android":"levelo://app?vid=83f7db1f-5175-4f37-854b-cde355acc9c6","ios":"levelo://app?vid=83f7db1f-5175-4f37-854b-cde355acc9c6"},"vehicle_type_id":"4","last_reported":1730156943,"current_range_meters":39200,"station_id":"ce4bhr12rcd13ifvqhqg","pricing_plan_id":"cebpf4jnsgd1na2vs0mg"},{"bike_id":"1512b63c-f0fc-4345-9d33-cf4933db07fa","system_id":"levelo_inurba_marseille","lat":43.28714,"lon":5.39984,"is_reserved":false,"is_disabled":false,"rental_uris":{"android":"levelo://app?vid=1512b63c-f0fc-4345-9d33-cf4933db07fa","ios":"levelo://app?vid=1512b63c-f0fc-4345-9d33-cf4933db07fa"},"vehicle_type_id":"4","last_reported":1730156943,"current_range_meters":38400,"station_id":"ce4bho92rcd13ifvqh3g","pricing_plan_id":"cebpf4jnsgd1na2vs0mg"},{"bike_id":"09bc33f9-ea52-4620-b5fa-d15c7905798d","system_id":"levelo_inurba_marseille","lat":43.29081,"lon":5.37175,"is_reserved":false,"is_disabled":false,"rental_uris":{"android":"levelo://app?vid=09bc33f9-ea52-4620-b5fa-d15c7905798d","ios":"levelo://app?vid=09bc33f9-ea52-4620-b5fa-d15c7905798d"},"vehicle_type_id":"4","last_reported":1730156943,"current_range_meters":8800,"station_id":"ce4bh5p2rcd13ifvqe4g","pricing_plan_id":"cebpf4jnsgd1na2vs0mg"},{"bike_id":"8691266c-b078-424b-a387-0bb56f925da9","system_id":"levelo_inurba_marseille","lat":43.30419,"lon":5.39747,"is_reserved":false,"is_disabled":false,"rental_uris":{"android":"levelo://app?vid=8691266c-b078-424b-a387-0bb56f925da9","ios":"levelo://app?vid=8691266c-b078-424b-a387-0bb56f925da9"},"vehicle_type_id":"4","last_reported":1730156943,"current_range_meters":37600,"station_id":"ce4bh092rcd13ifvqd20","pricing_plan_id":"cebpf4jnsgd1na2vs0mg"},{"bike_id":"79962e24-45d6-4bc1-ae9c-33ce3d4cfd10","system_id":"levelo_inurba_marseille","lat":43.30098,"lon":5.39087,"is_reserved":false,"is_disabled":false,"rental_uris":{"android":"levelo://app?vid=79962e24-45d6-4bc1-ae9c-33ce3d4cfd10","ios":"levelo://app?vid=79962e24-45d6-4bc1-ae9c-33ce3d4cfd10"},"vehicle_type_id":"4","last_reported":1730156943,"current_range_meters":33600,"station_id":"ce4bh192rcd13ifvqdb0","pricing_plan_id":"cebpf4jnsgd1na2vs0mg"},{"bike_id":"ea337979-76d7-4c27-add4-aa370c67433b","system_id":"levelo_inurba_marseille","lat":43.29532,"lon":5.39398,"is_reserved":false,"is_disabled":false,"rental_uris":{"android":"levelo://app?vid=ea337979-76d7-4c27-add4-aa370c67433b","ios":"levelo://app?vid=ea337979-76d7-4c27-add4-aa370c67433b"},"vehicle_type_id":"4","last_reported":1730156943,"current_range_meters":30400,"station_id":"ce4bh292rcd13ifvqdf0","pricing_plan_id":"cebpf4jnsgd1na2vs0mg"},{"bike_id":"0dd0ccc2-f1bf-42cd-a425-db2be977a4df","system_id":"levelo_inurba_marseille","lat":43.25584,"lon":5.38225,"is_reserved":false,"is_disabled":false,"rental_uris":{"android":"levelo://app?vid=0dd0ccc2-f1bf-42cd-a425-db2be977a4df","ios":"levelo://app?vid=0dd0ccc2-f1bf-42cd-a425-db2be977a4df"},"vehicle_type_id":"4","last_reported":1730156943,"current_range_meters":38800,"station_id":"ce4bhih2rcd13ifvqfs0","pricing_plan_id":"cebpf4jnsgd1na2vs0mg"},{"bike_id":"62b5614c-5f33-4953-a27e-e0c821552090","system_id":"levelo_inurba_marseille","lat":43.23197,"lon":5.3555,"is_reserved":false,"is_disabled":false,"rental_uris":{"android":"levelo://app?vid=62b5614c-5f33-4953-a27e-e0c821552090","ios":"levelo://app?vid=62b5614c-5f33-4953-a27e-e0c821552090"},"vehicle_type_id":"4","last_reported":1730156943,"current_range_meters":38400,"station_id":"ce4bhu92rcd13ifvqi70","pricing_plan_id":"cebpf4jnsgd1na2vs0mg"},{"bike_id":"bc1da436-2a2e-45da-b2a5-32f7806ffa51","system_id":"levelo_inurba_marseille","lat":43.30415,"lon":5.39758,"is_reserved":false,"is_disabled":false,"rental_uris":{"android":"levelo://app?vid=bc1da436-2a2e-45da-b2a5-32f7806ffa51","ios":"levelo://app?vid=bc1da436-2a2e-45da-b2a5-32f7806ffa51"},"vehicle_type_id":"4","last_reported":1730156943,"current_range_meters":23200,"station_id":"ce4bh092rcd13ifvqd20","pricing_plan_id":"cebpf4jnsgd1na2vs0mg"},{"bike_id":"28971a98-def1-4d76-b092-878b2587d9f4","system_id":"levelo_inurba_marseille","lat":43.28367,"lon":5.38628,"is_reserved":false,"is_disabled":false,"rental_uris":{"android":"levelo://app?vid=28971a98-def1-4d76-b092-878b2587d9f4","ios":"levelo://app?vid=28971a98-def1-4d76-b092-878b2587d9f4"},"vehicle_type_id":"4","last_reported":1730156943,"current_range_meters":7200,"station_id":"ce4bh492rcd13ifvqdvg","pricing_plan_id":"cebpf4jnsgd1na2vs0mg"},{"bike_id":"7ef5bbb9-d299-47c2-8408-1446871a4d1e","system_id":"levelo_inurba_marseille","lat":43.33026,"lon":5.39035,"is_reserved":false,"is_disabled":false,"rental_uris":{"android":"levelo://app?vid=7ef5bbb9-d299-47c2-8408-1446871a4d1e","ios":"levelo://app?vid=7ef5bbb9-d299-47c2-8408-1446871a4d1e"},"vehicle_type_id":"4","last_reported":1730156943,"current_range_meters":15200,"station_id":"ce4bhr92rcd13ifvqhrg","pricing_plan_id":"cebpf4jnsgd1na2vs0mg"},{"bike_id":"5f24487f-6cf6-4ac6-b5be-c9a7f76a21e9","system_id":"levelo_inurba_marseille","lat":43.269592,"lon":5.386289,"is_reserved":false,"is_disabled":false,"rental_uris":{"android":"levelo://app?vid=5f24487f-6cf6-4ac6-b5be-c9a7f76a21e9","ios":"levelo://app?vid=5f24487f-6cf6-4ac6-b5be-c9a7f76a21e9"},"vehicle_type_id":"4","last_reported":1730156943,"current_range_meters":38800,"station_id":"ce4bhh92rcd13ifvqfh0","pricing_plan_id":"cebpf4jnsgd1na2vs0mg"},{"bike_id":"51b9c34e-2654-4bf1-a82b-140db41fbfc2","system_id":"levelo_inurba_marseille","lat":43.28939,"lon":5.39632,"is_reserved":false,"is_disabled":false,"rental_uris":{"android":"levelo://app?vid=51b9c34e-2654-4bf1-a82b-140db41fbfc2","ios":"levelo://app?vid=51b9c34e-2654-4bf1-a82b-140db41fbfc2"},"vehicle_type_id":"4","last_reported":1730156943,"current_range_meters":38000,"station_id":"ce4bh3h2rcd13ifvqdn0","pricing_plan_id":"cebpf4jnsgd1na2vs0mg"},{"bike_id":"74ce0f25-afa3-4f3f-afa0-7dcd368ef12f","system_id":"levelo_inurba_marseille","lat":43.27916,"lon":5.38013,"is_reserved":false,"is_disabled":false,"rental_uris":{"android":"levelo://app?vid=74ce0f25-afa3-4f3f-afa0-7dcd368ef12f","ios":"levelo://app?vid=74ce0f25-afa3-4f3f-afa0-7dcd368ef12f"},"vehicle_type_id":"4","last_reported":1730156943,"current_range_meters":32000,"station_id":"ce4bhf92rcd13ifvqf50","pricing_plan_id":"cebpf4jnsgd1na2vs0mg"},{"bike_id":"0415be9b-88d6-4d85-9d1e-3930b85f0223","system_id":"levelo_inurba_marseille","lat":43.30423,"lon":5.39751,"is_reserved":false,"is_disabled":false,"rental_uris":{"android":"levelo://app?vid=0415be9b-88d6-4d85-9d1e-3930b85f0223","ios":"levelo://app?vid=0415be9b-88d6-4d85-9d1e-3930b85f0223"},"vehicle_type_id":"4","last_reported":1730156943,"current_range_meters":38800,"station_id":"ce4bh092rcd13ifvqd20","pricing_plan_id":"cebpf4jnsgd1na2vs0mg"},{"bike_id":"8d191566-d8a6-44ba-bebe-2a9d6ff01fde","system_id":"levelo_inurba_marseille","lat":43.27237,"lon":5.387,"is_reserved":false,"is_disabled":false,"rental_uris":{"android":"levelo://app?vid=8d191566-d8a6-44ba-bebe-2a9d6ff01fde","ios":"levelo://app?vid=8d191566-d8a6-44ba-bebe-2a9d6ff01fde"},"vehicle_type_id":"4","last_reported":1730156943,"current_range_meters":26000,"station_id":"","pricing_plan_id":"cebpf4jnsgd1na2vs0mg"},{"bike_id":"1080ee42-79d1-4ab4-9d66-72f5befd9074","system_id":"levelo_inurba_marseille","lat":43.28347,"lon":5.38106,"is_reserved":false,"is_disabled":false,"rental_uris":{"android":"levelo://app?vid=1080ee42-79d1-4ab4-9d66-72f5befd9074","ios":"levelo://app?vid=1080ee42-79d1-4ab4-9d66-72f5befd9074"},"vehicle_type_id":"4","last_reported":1730156943,"current_range_meters":7200,"station_id":"ce4bh412rcd13ifvqdr0","pricing_plan_id":"cebpf4jnsgd1na2vs0mg"},{"bike_id":"3efb1af8-c11e-4251-8304-20c60028fa74","system_id":"levelo_inurba_marseille","lat":43.28617,"lon":5.35102,"is_reserved":false,"is_disabled":false,"rental_uris":{"android":"levelo://app?vid=3efb1af8-c11e-4251-8304-20c60028fa74","ios":"levelo://app?vid=3efb1af8-c11e-4251-8304-20c60028fa74"},"vehicle_type_id":"4","last_reported":1730156943,"current_range_meters":38800,"station_id":"ce4bhch2rcd13ifvqeug","pricing_plan_id":"cebpf4jnsgd1na2vs0mg"},{"bike_id":"18d073cb-83b6-4a56-b36c-f24538a0e583","system_id":"levelo_inurba_marseille","lat":43.23191,"lon":5.39975,"is_reserved":false,"is_disabled":false,"rental_uris":{"android":"levelo://app?vid=18d073cb-83b6-4a56-b36c-f24538a0e583","ios":"levelo://app?vid=18d073cb-83b6-4a56-b36c-f24538a0e583"},"vehicle_type_id":"4","last_reported":1730156943,"current_range_meters":18800,"station_id":"ce4bhn12rcd13ifvqgqg","pricing_plan_id":"cebpf4jnsgd1na2vs0mg"},{"bike_id":"012c2ee5-d9ed-4efb-8323-b37e2b97ac55","system_id":"levelo_inurba_marseille","lat":43.231819,"lon":5.399857,"is_reserved":false,"is_disabled":false,"rental_uris":{"android":"levelo://app?vid=012c2ee5-d9ed-4efb-8323-b37e2b97ac55","ios":"levelo://app?vid=012c2ee5-d9ed-4efb-8323-b37e2b97ac55"},"vehicle_type_id":"4","last_reported":1730156943,"current_range_meters":26800,"station_id":"ce4bhn12rcd13ifvqgqg","pricing_plan_id":"cebpf4jnsgd1na2vs0mg"},{"bike_id":"fb65aaac-8bcd-42f1-b8e9-772193da838a","system_id":"levelo_inurba_marseille","lat":43.27556,"lon":5.38424,"is_reserved":false,"is_disabled":false,"rental_uris":{"android":"levelo://app?vid=fb65aaac-8bcd-42f1-b8e9-772193da838a","ios":"levelo://app?vid=fb65aaac-8bcd-42f1-b8e9-772193da838a"},"vehicle_type_id":"4","last_reported":1730156943,"current_range_meters":27200,"station_id":"ce4bhh92rcd13ifvqfi0","pricing_plan_id":"cebpf4jnsgd1na2vs0mg"},{"bike_id":"5ad31ad7-174f-412e-87d5-b57faa5d4787","system_id":"levelo_inurba_marseille","lat":43.28157,"lon":5.42634,"is_reserved":false,"is_disabled":false,"rental_uris":{"android":"levelo://app?vid=5ad31ad7-174f-412e-87d5-b57faa5d4787","ios":"levelo://app?vid=5ad31ad7-174f-412e-87d5-b57faa5d4787"},"vehicle_type_id":"4","last_reported":1730156943,"current_range_meters":14400,"station_id":"ce4bhnh2rcd13ifvqgug","pricing_plan_id":"cebpf4jnsgd1na2vs0mg"},{"bike_id":"9028ceb3-d950-4419-9b34-cbe99059c190","system_id":"levelo_inurba_marseille","lat":43.3234,"lon":5.40621,"is_reserved":false,"is_disabled":false,"rental_uris":{"android":"levelo://app?vid=9028ceb3-d950-4419-9b34-cbe99059c190","ios":"levelo://app?vid=9028ceb3-d950-4419-9b34-cbe99059c190"},"vehicle_type_id":"4","last_reported":1730156943,"current_range_meters":20000,"station_id":"ce4bhq92rcd13ifvqhjg","pricing_plan_id":"cebpf4jnsgd1na2vs0mg"},{"bike_id":"582346ef-f641-4fb4-b680-a158ffb5bc7f","system_id":"levelo_inurba_marseille","lat":43.31279,"lon":5.40171,"is_reserved":false,"is_disabled":false,"rental_uris":{"android":"levelo://app?vid=582346ef-f641-4fb4-b680-a158ffb5bc7f","ios":"levelo://app?vid=582346ef-f641-4fb4-b680-a158ffb5bc7f"},"vehicle_type_id":"4","last_reported":1730156943,"current_range_meters":24000,"station_id":"ce4bh092rcd13ifvqd30","pricing_plan_id":"cebpf4jnsgd1na2vs0mg"},{"bike_id":"1dda8e03-a199-4ff5-b993-db10045b7caa","system_id":"levelo_inurba_marseille","lat":43.31322,"lon":5.39681,"is_reserved":false,"is_disabled":false,"rental_uris":{"android":"levelo://app?vid=1dda8e03-a199-4ff5-b993-db10045b7caa","ios":"levelo://app?vid=1dda8e03-a199-4ff5-b993-db10045b7caa"},"vehicle_type_id":"4","last_reported":1730156943,"current_range_meters":35600,"station_id":"ce4bgvp2rcd13ifvqcu0","pricing_plan_id":"cebpf4jnsgd1na2vs0mg"},{"bike_id":"75237b58-63e5-45b8-806b-787a177b57b9","system_id":"levelo_inurba_marseille","lat":43.28356,"lon":5.38112,"is_reserved":false,"is_disabled":false,"rental_uris":{"android":"levelo://app?vid=75237b58-63e5-45b8-806b-787a177b57b9","ios":"levelo://app?vid=75237b58-63e5-45b8-806b-787a177b57b9"},"vehicle_type_id":"4","last_reported":1730156943,"current_range_meters":36400,"station_id":"ce4bh412rcd13ifvqdr0","pricing_plan_id":"cebpf4jnsgd1na2vs0mg"},{"bike_id":"bd8baaec-45d2-4e43-93df-f9f2bae82e2e","system_id":"levelo_inurba_marseille","lat":43.30415,"lon":5.39751,"is_reserved":false,"is_disabled":false,"rental_uris":{"android":"levelo://app?vid=bd8baaec-45d2-4e43-93df-f9f2bae82e2e","ios":"levelo://app?vid=bd8baaec-45d2-4e43-93df-f9f2bae82e2e"},"vehicle_type_id":"4","last_reported":1730156943,"current_range_meters":38800,"station_id":"ce4bh092rcd13ifvqd20","pricing_plan_id":"cebpf4jnsgd1na2vs0mg"},{"bike_id":"559e0993-d3ec-4994-8a4d-edbc5593d328","system_id":"levelo_inurba_marseille","lat":43.2293,"lon":5.35375,"is_reserved":false,"is_disabled":false,"rental_uris":{"android":"levelo://app?vid=559e0993-d3ec-4994-8a4d-edbc5593d328","ios":"levelo://app?vid=559e0993-d3ec-4994-8a4d-edbc5593d328"},"vehicle_type_id":"4","last_reported":1730156943,"current_range_meters":38800,"station_id":"cpo3532slgdg3j2ikp40","pricing_plan_id":"cebpf4jnsgd1na2vs0mg"},{"bike_id":"8672f55e-f83c-4099-9580-2b198abba8d1","system_id":"levelo_inurba_marseille","lat":43.28705,"lon":5.37392,"is_reserved":false,"is_disabled":false,"rental_uris":{"android":"levelo://app?vid=8672f55e-f83c-4099-9580-2b198abba8d1","ios":"levelo://app?vid=8672f55e-f83c-4099-9580-2b198abba8d1"},"vehicle_type_id":"4","last_reported":1730156943,"current_range_meters":28000,"station_id":"ce4bh3p2rcd13ifvqdq0","pricing_plan_id":"cebpf4jnsgd1na2vs0mg"},{"bike_id":"d1e00fab-a0af-4eee-b85e-c5f241a6cb99","system_id":"levelo_inurba_marseille","lat":43.29259,"lon":5.40903,"is_reserved":false,"is_disabled":false,"rental_uris":{"android":"levelo://app?vid=d1e00fab-a0af-4eee-b85e-c5f241a6cb99","ios":"levelo://app?vid=d1e00fab-a0af-4eee-b85e-c5f241a6cb99"},"vehicle_type_id":"4","last_reported":1730156943,"current_range_meters":22000,"station_id":"ce4bh192rcd13ifvqdc0","pricing_plan_id":"cebpf4jnsgd1na2vs0mg"},{"bike_id":"8706ceeb-0c9c-420d-a36b-ac84e47f7c85","system_id":"levelo_inurba_marseille","lat":43.288537,"lon":5.393114,"is_reserved":false,"is_disabled":false,"rental_uris":{"android":"levelo://app?vid=8706ceeb-0c9c-420d-a36b-ac84e47f7c85","ios":"levelo://app?vid=8706ceeb-0c9c-420d-a36b-ac84e47f7c85"},"vehicle_type_id":"4","last_reported":1730156943,"current_range_meters":6400,"station_id":"ce4bh2p2rcd13ifvqdi0","pricing_plan_id":"cebpf4jnsgd1na2vs0mg"},{"bike_id":"d1dacee6-8f47-4ca5-823b-a2ea6c3413e8","system_id":"levelo_inurba_marseille","lat":43.23195,"lon":5.35559,"is_reserved":false,"is_disabled":false,"rental_uris":{"android":"levelo://app?vid=d1dacee6-8f47-4ca5-823b-a2ea6c3413e8","ios":"levelo://app?vid=d1dacee6-8f47-4ca5-823b-a2ea6c3413e8"},"vehicle_type_id":"4","last_reported":1730156943,"current_range_meters":39200,"station_id":"ce4bhu92rcd13ifvqi70","pricing_plan_id":"cebpf4jnsgd1na2vs0mg"},{"bike_id":"78577e68-d5db-4b73-8f87-c547e2fa4bd5","system_id":"levelo_inurba_marseille","lat":43.29778,"lon":5.37101,"is_reserved":false,"is_disabled":false,"rental_uris":{"android":"levelo://app?vid=78577e68-d5db-4b73-8f87-c547e2fa4bd5","ios":"levelo://app?vid=78577e68-d5db-4b73-8f87-c547e2fa4bd5"},"vehicle_type_id":"4","last_reported":1730156943,"current_range_meters":37600,"station_id":"ce4bgop2rcd13ifvqc1g","pricing_plan_id":"cebpf4jnsgd1na2vs0mg"},{"bike_id":"409aaf5e-680b-47ec-83f6-033c62068ffa","system_id":"levelo_inurba_marseille","lat":43.28103,"lon":5.37839,"is_reserved":false,"is_disabled":false,"rental_uris":{"android":"levelo://app?vid=409aaf5e-680b-47ec-83f6-033c62068ffa","ios":"levelo://app?vid=409aaf5e-680b-47ec-83f6-033c62068ffa"},"vehicle_type_id":"4","last_reported":1730156943,"current_range_meters":34800,"station_id":"ce4bha12rcd13ifvqee0","pricing_plan_id":"cebpf4jnsgd1na2vs0mg"},{"bike_id":"64a6f5fb-0409-46e0-b4cd-18785f02bade","system_id":"levelo_inurba_marseille","lat":43.28705,"lon":5.39983,"is_reserved":false,"is_disabled":false,"rental_uris":{"android":"levelo://app?vid=64a6f5fb-0409-46e0-b4cd-18785f02bade","ios":"levelo://app?vid=64a6f5fb-0409-46e0-b4cd-18785f02bade"},"vehicle_type_id":"4","last_reported":1730156943,"current_range_meters":38800,"station_id":"ce4bho92rcd13ifvqh3g","pricing_plan_id":"cebpf4jnsgd1na2vs0mg"},{"bike_id":"54399a13-f8cb-435f-8b52-6878bec0e3bf","system_id":"levelo_inurba_marseille","lat":43.28155,"lon":5.42644,"is_reserved":false,"is_disabled":false,"rental_uris":{"android":"levelo://app?vid=54399a13-f8cb-435f-8b52-6878bec0e3bf","ios":"levelo://app?vid=54399a13-f8cb-435f-8b52-6878bec0e3bf"},"vehicle_type_id":"4","last_reported":1730156943,"current_range_meters":37600,"station_id":"ce4bhnh2rcd13ifvqgug","pricing_plan_id":"cebpf4jnsgd1na2vs0mg"},{"bike_id":"804238f4-6930-48e8-8761-47031c5945e1","system_id":"levelo_inurba_marseille","lat":43.28975,"lon":5.37856,"is_reserved":false,"is_disabled":false,"rental_uris":{"android":"levelo://app?vid=804238f4-6930-48e8-8761-47031c5945e1","ios":"levelo://app?vid=804238f4-6930-48e8-8761-47031c5945e1"},"vehicle_type_id":"4","last_reported":1730156943,"current_range_meters":38800,"station_id":"ce4bh9p2rcd13ifvqed0","pricing_plan_id":"cebpf4jnsgd1na2vs0mg"},{"bike_id":"8df157f5-561d-4f86-89d1-2330c0499cbc","system_id":"levelo_inurba_marseille","lat":43.29251,"lon":5.40901,"is_reserved":false,"is_disabled":false,"rental_uris":{"android":"levelo://app?vid=8df157f5-561d-4f86-89d1-2330c0499cbc","ios":"levelo://app?vid=8df157f5-561d-4f86-89d1-2330c0499cbc"},"vehicle_type_id":"4","last_reported":1730156943,"current_range_meters":34000,"station_id":"ce4bh192rcd13ifvqdc0","pricing_plan_id":"cebpf4jnsgd1na2vs0mg"},{"bike_id":"3ddcd39d-6405-4d2f-9bdd-509a4623f9cc","system_id":"levelo_inurba_marseille","lat":43.31123,"lon":5.3777,"is_reserved":false,"is_disabled":false,"rental_uris":{"android":"levelo://app?vid=3ddcd39d-6405-4d2f-9bdd-509a4623f9cc","ios":"levelo://app?vid=3ddcd39d-6405-4d2f-9bdd-509a4623f9cc"},"vehicle_type_id":"4","last_reported":1730156943,"current_range_meters":8400,"station_id":"ce4bgt92rcd13ifvqcg0","pricing_plan_id":"cebpf4jnsgd1na2vs0mg"},{"bike_id":"f8e40ec6-02d7-48d8-9484-3fe6f97bc7b1","system_id":"levelo_inurba_marseille","lat":43.2867,"lon":5.36348,"is_reserved":false,"is_disabled":false,"rental_uris":{"android":"levelo://app?vid=f8e40ec6-02d7-48d8-9484-3fe6f97bc7b1","ios":"levelo://app?vid=f8e40ec6-02d7-48d8-9484-3fe6f97bc7b1"},"vehicle_type_id":"4","last_reported":1730156943,"current_range_meters":39200,"station_id":"ce4bhah2rcd13ifvqej0","pricing_plan_id":"cebpf4jnsgd1na2vs0mg"},{"bike_id":"b4f985ed-d59b-40ed-a97f-788028bd8167","system_id":"levelo_inurba_marseille","lat":43.29196,"lon":5.39331,"is_reserved":false,"is_disabled":false,"rental_uris":{"android":"levelo://app?vid=b4f985ed-d59b-40ed-a97f-788028bd8167","ios":"levelo://app?vid=b4f985ed-d59b-40ed-a97f-788028bd8167"},"vehicle_type_id":"4","last_reported":1730156943,"current_range_meters":16800,"station_id":"ce4bh192rcd13ifvqdd0","pricing_plan_id":"cebpf4jnsgd1na2vs0mg"},{"bike_id":"4b1f45ca-5ba1-42a7-87e4-e9967261b64c","system_id":"levelo_inurba_marseille","lat":43.31082,"lon":5.42439,"is_reserved":false,"is_disabled":false,"rental_uris":{"android":"levelo://app?vid=4b1f45ca-5ba1-42a7-87e4-e9967261b64c","ios":"levelo://app?vid=4b1f45ca-5ba1-42a7-87e4-e9967261b64c"},"vehicle_type_id":"4","last_reported":1730156943,"current_range_meters":36800,"station_id":"ce4bhp92rcd13ifvqhag","pricing_plan_id":"cebpf4jnsgd1na2vs0mg"},{"bike_id":"e741203e-7b74-43f8-a93e-0f9af3cc0f8a","system_id":"levelo_inurba_marseille","lat":43.30609,"lon":5.37226,"is_reserved":false,"is_disabled":false,"rental_uris":{"android":"levelo://app?vid=e741203e-7b74-43f8-a93e-0f9af3cc0f8a","ios":"levelo://app?vid=e741203e-7b74-43f8-a93e-0f9af3cc0f8a"},"vehicle_type_id":"4","last_reported":1730156943,"current_range_meters":8400,"station_id":"ce4bgqh2rcd13ifvqc4g","pricing_plan_id":"cebpf4jnsgd1na2vs0mg"},{"bike_id":"9094db15-4bdf-4864-acf9-452b8d5c661a","system_id":"levelo_inurba_marseille","lat":43.27174,"lon":5.40992,"is_reserved":false,"is_disabled":false,"rental_uris":{"android":"levelo://app?vid=9094db15-4bdf-4864-acf9-452b8d5c661a","ios":"levelo://app?vid=9094db15-4bdf-4864-acf9-452b8d5c661a"},"vehicle_type_id":"4","last_reported":1730156943,"current_range_meters":19200,"station_id":"ce4bhl12rcd13ifvqgf0","pricing_plan_id":"cebpf4jnsgd1na2vs0mg"},{"bike_id":"17c8cb4b-2976-4794-8802-8c9f68880de3","system_id":"levelo_inurba_marseille","lat":43.31355,"lon":5.36706,"is_reserved":false,"is_disabled":false,"rental_uris":{"android":"levelo://app?vid=17c8cb4b-2976-4794-8802-8c9f68880de3","ios":"levelo://app?vid=17c8cb4b-2976-4794-8802-8c9f68880de3"},"vehicle_type_id":"4","last_reported":1730156943,"current_range_meters":14800,"station_id":"ce4bgr92rcd13ifvqc6g","pricing_plan_id":"cebpf4jnsgd1na2vs0mg"},{"bike_id":"c5aed74c-2556-4499-81a2-61e56f0ad7bb","system_id":"levelo_inurba_marseille","lat":43.31119,"lon":5.37779,"is_reserved":false,"is_disabled":false,"rental_uris":{"android":"levelo://app?vid=c5aed74c-2556-4499-81a2-61e56f0ad7bb","ios":"levelo://app?vid=c5aed74c-2556-4499-81a2-61e56f0ad7bb"},"vehicle_type_id":"4","last_reported":1730156943,"current_range_meters":28000,"station_id":"ce4bgt92rcd13ifvqcg0","pricing_plan_id":"cebpf4jnsgd1na2vs0mg"},{"bike_id":"64df0b22-11d7-4411-9223-8037b97126e5","system_id":"levelo_inurba_marseille","lat":43.3153,"lon":5.3803,"is_reserved":false,"is_disabled":false,"rental_uris":{"android":"levelo://app?vid=64df0b22-11d7-4411-9223-8037b97126e5","ios":"levelo://app?vid=64df0b22-11d7-4411-9223-8037b97126e5"},"vehicle_type_id":"4","last_reported":1730156943,"current_range_meters":36000,"station_id":"ce4bhsp2rcd13ifvqi50","pricing_plan_id":"cebpf4jnsgd1na2vs0mg"},{"bike_id":"34d2b0a6-1f96-46b8-8531-c28368383be9","system_id":"levelo_inurba_marseille","lat":43.297885,"lon":5.370891,"is_reserved":false,"is_disabled":false,"rental_uris":{"android":"levelo://app?vid=34d2b0a6-1f96-46b8-8531-c28368383be9","ios":"levelo://app?vid=34d2b0a6-1f96-46b8-8531-c28368383be9"},"vehicle_type_id":"4","last_reported":1730156943,"current_range_meters":23200,"station_id":"ce4bgop2rcd13ifvqc1g","pricing_plan_id":"cebpf4jnsgd1na2vs0mg"},{"bike_id":"edee228c-76f1-4f9d-b4f7-5773b8a0b850","system_id":"levelo_inurba_marseille","lat":43.23193,"lon":5.35552,"is_reserved":false,"is_disabled":false,"rental_uris":{"android":"levelo://app?vid=edee228c-76f1-4f9d-b4f7-5773b8a0b850","ios":"levelo://app?vid=edee228c-76f1-4f9d-b4f7-5773b8a0b850"},"vehicle_type_id":"4","last_reported":1730156943,"current_range_meters":23200,"station_id":"ce4bhu92rcd13ifvqi70","pricing_plan_id":"cebpf4jnsgd1na2vs0mg"},{"bike_id":"de64aefc-2736-480f-8f17-3a77ec3af0e8","system_id":"levelo_inurba_marseille","lat":43.25579,"lon":5.38231,"is_reserved":false,"is_disabled":false,"rental_uris":{"android":"levelo://app?vid=de64aefc-2736-480f-8f17-3a77ec3af0e8","ios":"levelo://app?vid=de64aefc-2736-480f-8f17-3a77ec3af0e8"},"vehicle_type_id":"4","last_reported":1730156943,"current_range_meters":38800,"station_id":"ce4bhih2rcd13ifvqfs0","pricing_plan_id":"cebpf4jnsgd1na2vs0mg"},{"bike_id":"343b87d6-7bc3-47bb-aa46-9d61479b7b91","system_id":"levelo_inurba_marseille","lat":43.31328,"lon":5.39693,"is_reserved":false,"is_disabled":false,"rental_uris":{"android":"levelo://app?vid=343b87d6-7bc3-47bb-aa46-9d61479b7b91","ios":"levelo://app?vid=343b87d6-7bc3-47bb-aa46-9d61479b7b91"},"vehicle_type_id":"4","last_reported":1730156943,"current_range_meters":27200,"station_id":"ce4bgvp2rcd13ifvqcu0","pricing_plan_id":"cebpf4jnsgd1na2vs0mg"},{"bike_id":"186ce089-32d5-439b-b76c-8a146c9531e6","system_id":"levelo_inurba_marseille","lat":43.304312,"lon":5.397426,"is_reserved":false,"is_disabled":false,"rental_uris":{"android":"levelo://app?vid=186ce089-32d5-439b-b76c-8a146c9531e6","ios":"levelo://app?vid=186ce089-32d5-439b-b76c-8a146c9531e6"},"vehicle_type_id":"4","last_reported":1730156943,"current_range_meters":36800,"station_id":"ce4bh092rcd13ifvqd20","pricing_plan_id":"cebpf4jnsgd1na2vs0mg"},{"bike_id":"27a3bee1-4ace-4ffd-b4ef-7e7fd88242e2","system_id":"levelo_inurba_marseille","lat":43.31121,"lon":5.37776,"is_reserved":false,"is_disabled":false,"rental_uris":{"android":"levelo://app?vid=27a3bee1-4ace-4ffd-b4ef-7e7fd88242e2","ios":"levelo://app?vid=27a3bee1-4ace-4ffd-b4ef-7e7fd88242e2"},"vehicle_type_id":"4","last_reported":1730156943,"current_range_meters":36000,"station_id":"ce4bgt92rcd13ifvqcg0","pricing_plan_id":"cebpf4jnsgd1na2vs0mg"},{"bike_id":"8ca04872-f5ac-4171-a8d0-c35675004919","system_id":"levelo_inurba_marseille","lat":43.28569,"lon":5.39491,"is_reserved":false,"is_disabled":false,"rental_uris":{"android":"levelo://app?vid=8ca04872-f5ac-4171-a8d0-c35675004919","ios":"levelo://app?vid=8ca04872-f5ac-4171-a8d0-c35675004919"},"vehicle_type_id":"4","last_reported":1730156943,"current_range_meters":30800,"station_id":"ce4bh292rcd13ifvqdg0","pricing_plan_id":"cebpf4jnsgd1na2vs0mg"},{"bike_id":"e3d27640-a7eb-4407-a3ae-d168fb29106a","system_id":"levelo_inurba_marseille","lat":43.31755,"lon":5.39021,"is_reserved":false,"is_disabled":false,"rental_uris":{"android":"levelo://app?vid=e3d27640-a7eb-4407-a3ae-d168fb29106a","ios":"levelo://app?vid=e3d27640-a7eb-4407-a3ae-d168fb29106a"},"vehicle_type_id":"4","last_reported":1730156943,"current_range_meters":36800,"station_id":"ce4bhqp2rcd13ifvqhng","pricing_plan_id":"cebpf4jnsgd1na2vs0mg"},{"bike_id":"cc4f48bc-1ebf-481e-a42a-ef03c2092f7c","system_id":"levelo_inurba_marseille","lat":43.27898,"lon":5.3802,"is_reserved":false,"is_disabled":false,"rental_uris":{"android":"levelo://app?vid=cc4f48bc-1ebf-481e-a42a-ef03c2092f7c","ios":"levelo://app?vid=cc4f48bc-1ebf-481e-a42a-ef03c2092f7c"},"vehicle_type_id":"4","last_reported":1730156943,"current_range_meters":37600,"station_id":"ce4bhf92rcd13ifvqf50","pricing_plan_id":"cebpf4jnsgd1na2vs0mg"},{"bike_id":"9de31693-0654-47b5-a08d-29bb01df2d3f","system_id":"levelo_inurba_marseille","lat":43.30325,"lon":5.4044,"is_reserved":false,"is_disabled":false,"rental_uris":{"android":"levelo://app?vid=9de31693-0654-47b5-a08d-29bb01df2d3f","ios":"levelo://app?vid=9de31693-0654-47b5-a08d-29bb01df2d3f"},"vehicle_type_id":"4","last_reported":1730156943,"current_range_meters":33600,"station_id":"ce4bh012rcd13ifvqd10","pricing_plan_id":"cebpf4jnsgd1na2vs0mg"},{"bike_id":"08105922-1041-4293-be49-78e7966879b9","system_id":"levelo_inurba_marseille","lat":43.2621,"lon":5.37444,"is_reserved":false,"is_disabled":false,"rental_uris":{"android":"levelo://app?vid=08105922-1041-4293-be49-78e7966879b9","ios":"levelo://app?vid=08105922-1041-4293-be49-78e7966879b9"},"vehicle_type_id":"4","last_reported":1730156943,"current_range_meters":38800,"station_id":"ce4bhgp2rcd13ifvqfc0","pricing_plan_id":"cebpf4jnsgd1na2vs0mg"},{"bike_id":"898c841e-ec28-4a62-acd7-785b5acde4a3","system_id":"levelo_inurba_marseille","lat":43.31892,"lon":5.40739,"is_reserved":false,"is_disabled":false,"rental_uris":{"android":"levelo://app?vid=898c841e-ec28-4a62-acd7-785b5acde4a3","ios":"levelo://app?vid=898c841e-ec28-4a62-acd7-785b5acde4a3"},"vehicle_type_id":"4","last_reported":1730156943,"current_range_meters":25200,"station_id":"ce4bhq12rcd13ifvqhig","pricing_plan_id":"cebpf4jnsgd1na2vs0mg"},{"bike_id":"2f921f60-1890-404a-898c-6dae28d2ff64","system_id":"levelo_inurba_marseille","lat":43.3211,"lon":5.3678,"is_reserved":false,"is_disabled":false,"rental_uris":{"android":"levelo://app?vid=2f921f60-1890-404a-898c-6dae28d2ff64","ios":"levelo://app?vid=2f921f60-1890-404a-898c-6dae28d2ff64"},"vehicle_type_id":"4","last_reported":1730156943,"current_range_meters":38400,"station_id":"ce4bhrh2rcd13ifvqhug","pricing_plan_id":"cebpf4jnsgd1na2vs0mg"},{"bike_id":"e7c28416-4a7f-4d06-99c7-70505e487027","system_id":"levelo_inurba_marseille","lat":43.29272,"lon":5.36836,"is_reserved":false,"is_disabled":false,"rental_uris":{"android":"levelo://app?vid=e7c28416-4a7f-4d06-99c7-70505e487027","ios":"levelo://app?vid=e7c28416-4a7f-4d06-99c7-70505e487027"},"vehicle_type_id":"4","last_reported":1730156943,"current_range_meters":38800,"station_id":"ce4bhbp2rcd13ifvqesg","pricing_plan_id":"cebpf4jnsgd1na2vs0mg"},{"bike_id":"b53b2426-9551-4aaa-9ad2-6b882ad6cc29","system_id":"levelo_inurba_marseille","lat":43.3169,"lon":5.40477,"is_reserved":false,"is_disabled":false,"rental_uris":{"android":"levelo://app?vid=b53b2426-9551-4aaa-9ad2-6b882ad6cc29","ios":"levelo://app?vid=b53b2426-9551-4aaa-9ad2-6b882ad6cc29"},"vehicle_type_id":"4","last_reported":1730156943,"current_range_meters":25600,"station_id":"ce4bh012rcd13ifvqd00","pricing_plan_id":"cebpf4jnsgd1na2vs0mg"},{"bike_id":"9989b398-ea1f-43b4-92f6-cb3a0e8d8247","system_id":"levelo_inurba_marseille","lat":43.31332,"lon":5.39698,"is_reserved":false,"is_disabled":false,"rental_uris":{"android":"levelo://app?vid=9989b398-ea1f-43b4-92f6-cb3a0e8d8247","ios":"levelo://app?vid=9989b398-ea1f-43b4-92f6-cb3a0e8d8247"},"vehicle_type_id":"4","last_reported":1730156943,"current_range_meters":38800,"station_id":"ce4bgvp2rcd13ifvqcu0","pricing_plan_id":"cebpf4jnsgd1na2vs0mg"},{"bike_id":"adcee44e-aff8-4933-88fe-bae99cafa494","system_id":"levelo_inurba_marseille","lat":43.2397,"lon":5.36623,"is_reserved":false,"is_disabled":false,"rental_uris":{"android":"levelo://app?vid=adcee44e-aff8-4933-88fe-bae99cafa494","ios":"levelo://app?vid=adcee44e-aff8-4933-88fe-bae99cafa494"},"vehicle_type_id":"4","last_reported":1730156943,"current_range_meters":33200,"station_id":"ce4bhi12rcd13ifvqfp0","pricing_plan_id":"cebpf4jnsgd1na2vs0mg"},{"bike_id":"0f558e80-a995-4215-8174-596167dd0aba","system_id":"levelo_inurba_marseille","lat":43.33607,"lon":5.41032,"is_reserved":false,"is_disabled":false,"rental_uris":{"android":"levelo://app?vid=0f558e80-a995-4215-8174-596167dd0aba","ios":"levelo://app?vid=0f558e80-a995-4215-8174-596167dd0aba"},"vehicle_type_id":"4","last_reported":1730156943,"current_range_meters":32800,"station_id":"ce4bhqh2rcd13ifvqhmg","pricing_plan_id":"cebpf4jnsgd1na2vs0mg"},{"bike_id":"84b84779-113d-453c-9e02-492dc687744d","system_id":"levelo_inurba_marseille","lat":43.30095,"lon":5.39113,"is_reserved":false,"is_disabled":false,"rental_uris":{"android":"levelo://app?vid=84b84779-113d-453c-9e02-492dc687744d","ios":"levelo://app?vid=84b84779-113d-453c-9e02-492dc687744d"},"vehicle_type_id":"4","last_reported":1730156943,"current_range_meters":27200,"station_id":"ce4bh192rcd13ifvqdb0","pricing_plan_id":"cebpf4jnsgd1na2vs0mg"},{"bike_id":"7f342428-8e50-47ff-92a7-5666ba2287f5","system_id":"levelo_inurba_marseille","lat":43.30641,"lon":5.40086,"is_reserved":false,"is_disabled":false,"rental_uris":{"android":"levelo://app?vid=7f342428-8e50-47ff-92a7-5666ba2287f5","ios":"levelo://app?vid=7f342428-8e50-47ff-92a7-5666ba2287f5"},"vehicle_type_id":"4","last_reported":1730156943,"current_range_meters":38400,"station_id":"ce4bh112rcd13ifvqda0","pricing_plan_id":"cebpf4jnsgd1na2vs0mg"},{"bike_id":"d9d4a298-8acd-4d1c-8825-3408f5f02c5a","system_id":"levelo_inurba_marseille","lat":43.30803,"lon":5.43522,"is_reserved":false,"is_disabled":false,"rental_uris":{"android":"levelo://app?vid=d9d4a298-8acd-4d1c-8825-3408f5f02c5a","ios":"levelo://app?vid=d9d4a298-8acd-4d1c-8825-3408f5f02c5a"},"vehicle_type_id":"4","last_reported":1730156943,"current_range_meters":30800,"station_id":"ce4bhph2rcd13ifvqheg","pricing_plan_id":"cebpf4jnsgd1na2vs0mg"},{"bike_id":"3596a464-c770-4ebd-b1e2-e40084414ba9","system_id":"levelo_inurba_marseille","lat":43.23193,"lon":5.39982,"is_reserved":false,"is_disabled":false,"rental_uris":{"android":"levelo://app?vid=3596a464-c770-4ebd-b1e2-e40084414ba9","ios":"levelo://app?vid=3596a464-c770-4ebd-b1e2-e40084414ba9"},"vehicle_type_id":"4","last_reported":1730156943,"current_range_meters":39200,"station_id":"ce4bhn12rcd13ifvqgqg","pricing_plan_id":"cebpf4jnsgd1na2vs0mg"},{"bike_id":"df61b96c-b629-4fb1-8a4b-d3354e3de566","system_id":"levelo_inurba_marseille","lat":43.28271,"lon":5.35081,"is_reserved":false,"is_disabled":false,"rental_uris":{"android":"levelo://app?vid=df61b96c-b629-4fb1-8a4b-d3354e3de566","ios":"levelo://app?vid=df61b96c-b629-4fb1-8a4b-d3354e3de566"},"vehicle_type_id":"4","last_reported":1730156943,"current_range_meters":38800,"station_id":"ce4bhbp2rcd13ifvqerg","pricing_plan_id":"cebpf4jnsgd1na2vs0mg"},{"bike_id":"b749049c-0b95-4e56-9192-1f2a45bed9f3","system_id":"levelo_inurba_marseille","lat":43.29459,"lon":5.38327,"is_reserved":false,"is_disabled":false,"rental_uris":{"android":"levelo://app?vid=b749049c-0b95-4e56-9192-1f2a45bed9f3","ios":"levelo://app?vid=b749049c-0b95-4e56-9192-1f2a45bed9f3"},"vehicle_type_id":"4","last_reported":1730156943,"current_range_meters":28800,"station_id":"","pricing_plan_id":"cebpf4jnsgd1na2vs0mg"},{"bike_id":"468aa9c7-6f8e-48c3-85e9-d3d7a1cdcc52","system_id":"levelo_inurba_marseille","lat":43.27121,"lon":5.40306,"is_reserved":false,"is_disabled":false,"rental_uris":{"android":"levelo://app?vid=468aa9c7-6f8e-48c3-85e9-d3d7a1cdcc52","ios":"levelo://app?vid=468aa9c7-6f8e-48c3-85e9-d3d7a1cdcc52"},"vehicle_type_id":"4","last_reported":1730156943,"current_range_meters":30400,"station_id":"","pricing_plan_id":"cebpf4jnsgd1na2vs0mg"},{"bike_id":"f98ec9ca-57d9-4225-9791-2d65ac1bec4f","system_id":"levelo_inurba_marseille","lat":43.2958,"lon":5.36734,"is_reserved":false,"is_disabled":false,"rental_uris":{"android":"levelo://app?vid=f98ec9ca-57d9-4225-9791-2d65ac1bec4f","ios":"levelo://app?vid=f98ec9ca-57d9-4225-9791-2d65ac1bec4f"},"vehicle_type_id":"4","last_reported":1730156943,"current_range_meters":33600,"station_id":"ce4bgph2rcd13ifvqc2g","pricing_plan_id":"cebpf4jnsgd1na2vs0mg"},{"bike_id":"5cf17535-3492-4177-b838-417fc7fb6174","system_id":"levelo_inurba_marseille","lat":43.29568,"lon":5.39976,"is_reserved":false,"is_disabled":false,"rental_uris":{"android":"levelo://app?vid=5cf17535-3492-4177-b838-417fc7fb6174","ios":"levelo://app?vid=5cf17535-3492-4177-b838-417fc7fb6174"},"vehicle_type_id":"4","last_reported":1730156943,"current_range_meters":37600,"station_id":"ce4bh312rcd13ifvqdj0","pricing_plan_id":"cebpf4jnsgd1na2vs0mg"},{"bike_id":"77cb55b9-befc-4438-9ba0-92a2678dd5ea","system_id":"levelo_inurba_marseille","lat":43.2846,"lon":5.35881,"is_reserved":false,"is_disabled":false,"rental_uris":{"android":"levelo://app?vid=77cb55b9-befc-4438-9ba0-92a2678dd5ea","ios":"levelo://app?vid=77cb55b9-befc-4438-9ba0-92a2678dd5ea"},"vehicle_type_id":"4","last_reported":1730156943,"current_range_meters":25600,"station_id":"ce4bhah2rcd13ifvqei0","pricing_plan_id":"cebpf4jnsgd1na2vs0mg"},{"bike_id":"a8921c98-5919-4f64-bcfb-877e8a77a7f4","system_id":"levelo_inurba_marseille","lat":43.24388,"lon":5.37056,"is_reserved":false,"is_disabled":false,"rental_uris":{"android":"levelo://app?vid=a8921c98-5919-4f64-bcfb-877e8a77a7f4","ios":"levelo://app?vid=a8921c98-5919-4f64-bcfb-877e8a77a7f4"},"vehicle_type_id":"4","last_reported":1730156943,"current_range_meters":22000,"station_id":"ce4bhhh2rcd13ifvqfk0","pricing_plan_id":"cebpf4jnsgd1na2vs0mg"},{"bike_id":"fe0f4ad9-8221-48ed-be5d-c64547a2f47a","system_id":"levelo_inurba_marseille","lat":43.286275,"lon":5.38357,"is_reserved":false,"is_disabled":false,"rental_uris":{"android":"levelo://app?vid=fe0f4ad9-8221-48ed-be5d-c64547a2f47a","ios":"levelo://app?vid=fe0f4ad9-8221-48ed-be5d-c64547a2f47a"},"vehicle_type_id":"4","last_reported":1730156943,"current_range_meters":19200,"station_id":"ce4bh4p2rcd13ifvqe1g","pricing_plan_id":"cebpf4jnsgd1na2vs0mg"},{"bike_id":"3f943d6c-44ef-407f-b5dc-353fc886f7d8","system_id":"levelo_inurba_marseille","lat":43.29914,"lon":5.37482,"is_reserved":false,"is_disabled":false,"rental_uris":{"android":"levelo://app?vid=3f943d6c-44ef-407f-b5dc-353fc886f7d8","ios":"levelo://app?vid=3f943d6c-44ef-407f-b5dc-353fc886f7d8"},"vehicle_type_id":"4","last_reported":1730156943,"current_range_meters":29600,"station_id":"ce4bgjh2rcd13ifvqbg0","pricing_plan_id":"cebpf4jnsgd1na2vs0mg"},{"bike_id":"78c59cd8-59e5-405a-98b7-5f43fd406051","system_id":"levelo_inurba_marseille","lat":43.29603,"lon":5.38103,"is_reserved":false,"is_disabled":false,"rental_uris":{"android":"levelo://app?vid=78c59cd8-59e5-405a-98b7-5f43fd406051","ios":"levelo://app?vid=78c59cd8-59e5-405a-98b7-5f43fd406051"},"vehicle_type_id":"4","last_reported":1730156943,"current_range_meters":38800,"station_id":"ce4bgl12rcd13ifvqbo0","pricing_plan_id":"cebpf4jnsgd1na2vs0mg"},{"bike_id":"a846678d-cd93-4890-9fdc-977c67090280","system_id":"levelo_inurba_marseille","lat":43.284166,"lon":5.375146,"is_reserved":false,"is_disabled":false,"rental_uris":{"android":"levelo://app?vid=a846678d-cd93-4890-9fdc-977c67090280","ios":"levelo://app?vid=a846678d-cd93-4890-9fdc-977c67090280"},"vehicle_type_id":"4","last_reported":1730156943,"current_range_meters":34000,"station_id":"ce4bh412rcd13ifvqds0","pricing_plan_id":"cebpf4jnsgd1na2vs0mg"},{"bike_id":"4bcd1886-adca-47f0-b11a-c93bb04ae42e","system_id":"levelo_inurba_marseille","lat":43.281,"lon":5.37837,"is_reserved":false,"is_disabled":false,"rental_uris":{"android":"levelo://app?vid=4bcd1886-adca-47f0-b11a-c93bb04ae42e","ios":"levelo://app?vid=4bcd1886-adca-47f0-b11a-c93bb04ae42e"},"vehicle_type_id":"4","last_reported":1730156943,"current_range_meters":32400,"station_id":"ce4bha12rcd13ifvqee0","pricing_plan_id":"cebpf4jnsgd1na2vs0mg"},{"bike_id":"c103f3cf-a699-4d79-9cc1-df1ab22121e9","system_id":"levelo_inurba_marseille","lat":43.28651,"lon":5.36346,"is_reserved":false,"is_disabled":false,"rental_uris":{"android":"levelo://app?vid=c103f3cf-a699-4d79-9cc1-df1ab22121e9","ios":"levelo://app?vid=c103f3cf-a699-4d79-9cc1-df1ab22121e9"},"vehicle_type_id":"4","last_reported":1730156943,"current_range_meters":35600,"station_id":"ce4bhah2rcd13ifvqej0","pricing_plan_id":"cebpf4jnsgd1na2vs0mg"},{"bike_id":"21b0d405-022c-4046-9483-b0c711fb60b5","system_id":"levelo_inurba_marseille","lat":43.29553,"lon":5.42281,"is_reserved":false,"is_disabled":false,"rental_uris":{"android":"levelo://app?vid=21b0d405-022c-4046-9483-b0c711fb60b5","ios":"levelo://app?vid=21b0d405-022c-4046-9483-b0c711fb60b5"},"vehicle_type_id":"4","last_reported":1730156943,"current_range_meters":40000,"station_id":"ce4bhph2rcd13ifvqhdg","pricing_plan_id":"cebpf4jnsgd1na2vs0mg"},{"bike_id":"127afcc9-a3f6-45e2-b1bd-20338b6d3e5f","system_id":"levelo_inurba_marseille","lat":43.30278,"lon":5.37705,"is_reserved":false,"is_disabled":false,"rental_uris":{"android":"levelo://app?vid=127afcc9-a3f6-45e2-b1bd-20338b6d3e5f","ios":"levelo://app?vid=127afcc9-a3f6-45e2-b1bd-20338b6d3e5f"},"vehicle_type_id":"4","last_reported":1730156943,"current_range_meters":14400,"station_id":"ce4bguh2rcd13ifvqcj0","pricing_plan_id":"cebpf4jnsgd1na2vs0mg"},{"bike_id":"b3c95314-deff-4948-8213-391859cbe57d","system_id":"levelo_inurba_marseille","lat":43.29567,"lon":5.39987,"is_reserved":false,"is_disabled":false,"rental_uris":{"android":"levelo://app?vid=b3c95314-deff-4948-8213-391859cbe57d","ios":"levelo://app?vid=b3c95314-deff-4948-8213-391859cbe57d"},"vehicle_type_id":"4","last_reported":1730156943,"current_range_meters":38800,"station_id":"ce4bh312rcd13ifvqdj0","pricing_plan_id":"cebpf4jnsgd1na2vs0mg"},{"bike_id":"b0a60fab-656f-4d4b-94f4-17b2f333a51d","system_id":"levelo_inurba_marseille","lat":43.29868,"lon":5.39741,"is_reserved":false,"is_disabled":false,"rental_uris":{"android":"levelo://app?vid=b0a60fab-656f-4d4b-94f4-17b2f333a51d","ios":"levelo://app?vid=b0a60fab-656f-4d4b-94f4-17b2f333a51d"},"vehicle_type_id":"4","last_reported":1730156943,"current_range_meters":38800,"station_id":"ce4bh0h2rcd13ifvqd50","pricing_plan_id":"cebpf4jnsgd1na2vs0mg"},{"bike_id":"674e6e66-391e-4a7b-a2f1-c4555285cb9e","system_id":"levelo_inurba_marseille","lat":43.31065,"lon":5.38349,"is_reserved":false,"is_disabled":false,"rental_uris":{"android":"levelo://app?vid=674e6e66-391e-4a7b-a2f1-c4555285cb9e","ios":"levelo://app?vid=674e6e66-391e-4a7b-a2f1-c4555285cb9e"},"vehicle_type_id":"4","last_reported":1730156943,"current_range_meters":7200,"station_id":"ce4bgv92rcd13ifvqcr0","pricing_plan_id":"cebpf4jnsgd1na2vs0mg"},{"bike_id":"3f218860-2066-43e2-aa51-ec73febafd27","system_id":"levelo_inurba_marseille","lat":43.3205,"lon":5.41545,"is_reserved":false,"is_disabled":false,"rental_uris":{"android":"levelo://app?vid=3f218860-2066-43e2-aa51-ec73febafd27","ios":"levelo://app?vid=3f218860-2066-43e2-aa51-ec73febafd27"},"vehicle_type_id":"4","last_reported":1730156943,"current_range_meters":37600,"station_id":"ce4bhq92rcd13ifvqhkg","pricing_plan_id":"cebpf4jnsgd1na2vs0mg"},{"bike_id":"a3232012-fec1-44cd-9f21-0f3bd3439eac","system_id":"levelo_inurba_marseille","lat":43.2894,"lon":5.39627,"is_reserved":false,"is_disabled":false,"rental_uris":{"android":"levelo://app?vid=a3232012-fec1-44cd-9f21-0f3bd3439eac","ios":"levelo://app?vid=a3232012-fec1-44cd-9f21-0f3bd3439eac"},"vehicle_type_id":"4","last_reported":1730156943,"current_range_meters":24400,"station_id":"ce4bh3h2rcd13ifvqdn0","pricing_plan_id":"cebpf4jnsgd1na2vs0mg"},{"bike_id":"7edaf7fe-1abb-43ad-bf45-23e93d3c6287","system_id":"levelo_inurba_marseille","lat":43.25821,"lon":5.39436,"is_reserved":false,"is_disabled":false,"rental_uris":{"android":"levelo://app?vid=7edaf7fe-1abb-43ad-bf45-23e93d3c6287","ios":"levelo://app?vid=7edaf7fe-1abb-43ad-bf45-23e93d3c6287"},"vehicle_type_id":"4","last_reported":1730156943,"current_range_meters":38800,"station_id":"ce4bhip2rcd13ifvqft0","pricing_plan_id":"cebpf4jnsgd1na2vs0mg"},{"bike_id":"e113f747-4daa-44f7-a218-9e030daa2565","system_id":"levelo_inurba_marseille","lat":43.32109,"lon":5.36772,"is_reserved":false,"is_disabled":false,"rental_uris":{"android":"levelo://app?vid=e113f747-4daa-44f7-a218-9e030daa2565","ios":"levelo://app?vid=e113f747-4daa-44f7-a218-9e030daa2565"},"vehicle_type_id":"4","last_reported":1730156943,"current_range_meters":18800,"station_id":"ce4bhrh2rcd13ifvqhug","pricing_plan_id":"cebpf4jnsgd1na2vs0mg"},{"bike_id":"5c0efbde-35a1-4eee-9df5-13014e555547","system_id":"levelo_inurba_marseille","lat":43.2827,"lon":5.35059,"is_reserved":false,"is_disabled":false,"rental_uris":{"android":"levelo://app?vid=5c0efbde-35a1-4eee-9df5-13014e555547","ios":"levelo://app?vid=5c0efbde-35a1-4eee-9df5-13014e555547"},"vehicle_type_id":"4","last_reported":1730156943,"current_range_meters":16800,"station_id":"ce4bhbp2rcd13ifvqerg","pricing_plan_id":"cebpf4jnsgd1na2vs0mg"},{"bike_id":"c83bf92a-895e-4031-90cc-0a4806604b3f","system_id":"levelo_inurba_marseille","lat":43.23054,"lon":5.35491,"is_reserved":false,"is_disabled":false,"rental_uris":{"android":"levelo://app?vid=c83bf92a-895e-4031-90cc-0a4806604b3f","ios":"levelo://app?vid=c83bf92a-895e-4031-90cc-0a4806604b3f"},"vehicle_type_id":"4","last_reported":1730156943,"current_range_meters":35600,"station_id":"cpo3342slgdg3j2ifvpg","pricing_plan_id":"cebpf4jnsgd1na2vs0mg"},{"bike_id":"3f4e9f7d-d364-447b-b7a3-5938ab5df8c4","system_id":"levelo_inurba_marseille","lat":43.3249,"lon":5.36571,"is_reserved":false,"is_disabled":false,"rental_uris":{"android":"levelo://app?vid=3f4e9f7d-d364-447b-b7a3-5938ab5df8c4","ios":"levelo://app?vid=3f4e9f7d-d364-447b-b7a3-5938ab5df8c4"},"vehicle_type_id":"4","last_reported":1730156943,"current_range_meters":37600,"station_id":"ce4bhs12rcd13ifvqhvg","pricing_plan_id":"cebpf4jnsgd1na2vs0mg"},{"bike_id":"9fd56fad-5f3d-42b4-b491-7b57b76bc0cf","system_id":"levelo_inurba_marseille","lat":43.27817,"lon":5.4072,"is_reserved":false,"is_disabled":false,"rental_uris":{"android":"levelo://app?vid=9fd56fad-5f3d-42b4-b491-7b57b76bc0cf","ios":"levelo://app?vid=9fd56fad-5f3d-42b4-b491-7b57b76bc0cf"},"vehicle_type_id":"4","last_reported":1730156943,"current_range_meters":14000,"station_id":"ce4bhnh2rcd13ifvqgtg","pricing_plan_id":"cebpf4jnsgd1na2vs0mg"},{"bike_id":"d84610d6-c6a3-4a38-822d-08ccd78292c6","system_id":"levelo_inurba_marseille","lat":43.28957,"lon":5.36398,"is_reserved":false,"is_disabled":false,"rental_uris":{"android":"levelo://app?vid=d84610d6-c6a3-4a38-822d-08ccd78292c6","ios":"levelo://app?vid=d84610d6-c6a3-4a38-822d-08ccd78292c6"},"vehicle_type_id":"4","last_reported":1730156943,"current_range_meters":38800,"station_id":"ce4bhc92rcd13ifvqetg","pricing_plan_id":"cebpf4jnsgd1na2vs0mg"},{"bike_id":"29e730b5-77d0-469f-aebb-f8f3daf3000c","system_id":"levelo_inurba_marseille","lat":43.24665,"lon":5.38153,"is_reserved":false,"is_disabled":false,"rental_uris":{"android":"levelo://app?vid=29e730b5-77d0-469f-aebb-f8f3daf3000c","ios":"levelo://app?vid=29e730b5-77d0-469f-aebb-f8f3daf3000c"},"vehicle_type_id":"4","last_reported":1730156943,"current_range_meters":24800,"station_id":"ce4bhih2rcd13ifvqfr0","pricing_plan_id":"cebpf4jnsgd1na2vs0mg"},{"bike_id":"20a12424-6dfc-45c9-bdf5-00a6b092680a","system_id":"levelo_inurba_marseille","lat":43.284715,"lon":5.384242,"is_reserved":false,"is_disabled":false,"rental_uris":{"android":"levelo://app?vid=20a12424-6dfc-45c9-bdf5-00a6b092680a","ios":"levelo://app?vid=20a12424-6dfc-45c9-bdf5-00a6b092680a"},"vehicle_type_id":"4","last_reported":1730156943,"current_range_meters":16400,"station_id":"ce4bh512rcd13ifvqe3g","pricing_plan_id":"cebpf4jnsgd1na2vs0mg"},{"bike_id":"be140c2c-9e9f-4116-823c-bebf1b666941","system_id":"levelo_inurba_marseille","lat":43.27917,"lon":5.38023,"is_reserved":false,"is_disabled":false,"rental_uris":{"android":"levelo://app?vid=be140c2c-9e9f-4116-823c-bebf1b666941","ios":"levelo://app?vid=be140c2c-9e9f-4116-823c-bebf1b666941"},"vehicle_type_id":"4","last_reported":1730156943,"current_range_meters":38400,"station_id":"ce4bhf92rcd13ifvqf50","pricing_plan_id":"cebpf4jnsgd1na2vs0mg"},{"bike_id":"a4235526-1ca0-429a-99b1-01f2123febf6","system_id":"levelo_inurba_marseille","lat":43.29631,"lon":5.40602,"is_reserved":false,"is_disabled":false,"rental_uris":{"android":"levelo://app?vid=a4235526-1ca0-429a-99b1-01f2123febf6","ios":"levelo://app?vid=a4235526-1ca0-429a-99b1-01f2123febf6"},"vehicle_type_id":"4","last_reported":1730156943,"current_range_meters":28000,"station_id":"ce4bh0h2rcd13ifvqd60","pricing_plan_id":"cebpf4jnsgd1na2vs0mg"},{"bike_id":"84fb256a-a8e2-4be8-a18b-9ab2318d1bb4","system_id":"levelo_inurba_marseille","lat":43.26212,"lon":5.37441,"is_reserved":false,"is_disabled":false,"rental_uris":{"android":"levelo://app?vid=84fb256a-a8e2-4be8-a18b-9ab2318d1bb4","ios":"levelo://app?vid=84fb256a-a8e2-4be8-a18b-9ab2318d1bb4"},"vehicle_type_id":"4","last_reported":1730156943,"current_range_meters":24800,"station_id":"ce4bhgp2rcd13ifvqfc0","pricing_plan_id":"cebpf4jnsgd1na2vs0mg"},{"bike_id":"aa8f4925-471b-4b88-b998-03124e04a231","system_id":"levelo_inurba_marseille","lat":43.2903,"lon":5.39975,"is_reserved":false,"is_disabled":false,"rental_uris":{"android":"levelo://app?vid=aa8f4925-471b-4b88-b998-03124e04a231","ios":"levelo://app?vid=aa8f4925-471b-4b88-b998-03124e04a231"},"vehicle_type_id":"4","last_reported":1730156943,"current_range_meters":38800,"station_id":"ce4bh392rcd13ifvqdm0","pricing_plan_id":"cebpf4jnsgd1na2vs0mg"},{"bike_id":"a5f28a26-79b4-4bfd-b5dc-53692e2e97da","system_id":"levelo_inurba_marseille","lat":43.31174,"lon":5.38723,"is_reserved":false,"is_disabled":false,"rental_uris":{"android":"levelo://app?vid=a5f28a26-79b4-4bfd-b5dc-53692e2e97da","ios":"levelo://app?vid=a5f28a26-79b4-4bfd-b5dc-53692e2e97da"},"vehicle_type_id":"4","last_reported":1730156943,"current_range_meters":20000,"station_id":"ce4bgv12rcd13ifvqcp0","pricing_plan_id":"cebpf4jnsgd1na2vs0mg"},{"bike_id":"780c0c06-0097-42bd-bcbf-36204fdab283","system_id":"levelo_inurba_marseille","lat":43.29957,"lon":5.41319,"is_reserved":false,"is_disabled":false,"rental_uris":{"android":"levelo://app?vid=780c0c06-0097-42bd-bcbf-36204fdab283","ios":"levelo://app?vid=780c0c06-0097-42bd-bcbf-36204fdab283"},"vehicle_type_id":"4","last_reported":1730156943,"current_range_meters":8800,"station_id":"ce4bhp12rcd13ifvqh9g","pricing_plan_id":"cebpf4jnsgd1na2vs0mg"},{"bike_id":"4d66afb4-54af-4867-a686-241e6de1cbbd","system_id":"levelo_inurba_marseille","lat":43.32542,"lon":5.41446,"is_reserved":false,"is_disabled":false,"rental_uris":{"android":"levelo://app?vid=4d66afb4-54af-4867-a686-241e6de1cbbd","ios":"levelo://app?vid=4d66afb4-54af-4867-a686-241e6de1cbbd"},"vehicle_type_id":"4","last_reported":1730156943,"current_range_meters":38400,"station_id":"ce4bhq12rcd13ifvqhhg","pricing_plan_id":"cebpf4jnsgd1na2vs0mg"},{"bike_id":"3f8626e1-e8a4-4f10-9a3b-b01695500b9e","system_id":"levelo_inurba_marseille","lat":43.29261,"lon":5.40909,"is_reserved":false,"is_disabled":false,"rental_uris":{"android":"levelo://app?vid=3f8626e1-e8a4-4f10-9a3b-b01695500b9e","ios":"levelo://app?vid=3f8626e1-e8a4-4f10-9a3b-b01695500b9e"},"vehicle_type_id":"4","last_reported":1730156943,"current_range_meters":38800,"station_id":"ce4bh192rcd13ifvqdc0","pricing_plan_id":"cebpf4jnsgd1na2vs0mg"},{"bike_id":"890b4ad9-3512-4488-8a67-33124c17587e","system_id":"levelo_inurba_marseille","lat":43.30305,"lon":5.39215,"is_reserved":false,"is_disabled":false,"rental_uris":{"android":"levelo://app?vid=890b4ad9-3512-4488-8a67-33124c17587e","ios":"levelo://app?vid=890b4ad9-3512-4488-8a67-33124c17587e"},"vehicle_type_id":"4","last_reported":1730156943,"current_range_meters":22000,"station_id":"ce4bgkh2rcd13ifvqbk0","pricing_plan_id":"cebpf4jnsgd1na2vs0mg"},{"bike_id":"d7130213-5f63-4734-a5d3-ec784fc960ee","system_id":"levelo_inurba_marseille","lat":43.28427,"lon":5.36075,"is_reserved":false,"is_disabled":false,"rental_uris":{"android":"levelo://app?vid=d7130213-5f63-4734-a5d3-ec784fc960ee","ios":"levelo://app?vid=d7130213-5f63-4734-a5d3-ec784fc960ee"},"vehicle_type_id":"4","last_reported":1730156943,"current_range_meters":12000,"station_id":"","pricing_plan_id":"cebpf4jnsgd1na2vs0mg"},{"bike_id":"23672e5b-050f-4837-a454-e50245d17695","system_id":"levelo_inurba_marseille","lat":43.31709,"lon":5.37772,"is_reserved":false,"is_disabled":false,"rental_uris":{"android":"levelo://app?vid=23672e5b-050f-4837-a454-e50245d17695","ios":"levelo://app?vid=23672e5b-050f-4837-a454-e50245d17695"},"vehicle_type_id":"4","last_reported":1730156943,"current_range_meters":12400,"station_id":"ce4bgth2rcd13ifvqch0","pricing_plan_id":"cebpf4jnsgd1na2vs0mg"},{"bike_id":"7d448865-89d6-47db-9acc-4a303dfc59b2","system_id":"levelo_inurba_marseille","lat":43.30278,"lon":5.37725,"is_reserved":false,"is_disabled":false,"rental_uris":{"android":"levelo://app?vid=7d448865-89d6-47db-9acc-4a303dfc59b2","ios":"levelo://app?vid=7d448865-89d6-47db-9acc-4a303dfc59b2"},"vehicle_type_id":"4","last_reported":1730156943,"current_range_meters":33600,"station_id":"ce4bguh2rcd13ifvqcj0","pricing_plan_id":"cebpf4jnsgd1na2vs0mg"},{"bike_id":"8ff214c0-7c27-4a71-8a7a-6fc7b318ca0e","system_id":"levelo_inurba_marseille","lat":43.30811,"lon":5.38177,"is_reserved":false,"is_disabled":false,"rental_uris":{"android":"levelo://app?vid=8ff214c0-7c27-4a71-8a7a-6fc7b318ca0e","ios":"levelo://app?vid=8ff214c0-7c27-4a71-8a7a-6fc7b318ca0e"},"vehicle_type_id":"4","last_reported":1730156943,"current_range_meters":12800,"station_id":"ce4bgt12rcd13ifvqce0","pricing_plan_id":"cebpf4jnsgd1na2vs0mg"},{"bike_id":"6eeb570e-5001-43cc-b0b1-007d89caa70a","system_id":"levelo_inurba_marseille","lat":43.29448,"lon":5.39753,"is_reserved":false,"is_disabled":false,"rental_uris":{"android":"levelo://app?vid=6eeb570e-5001-43cc-b0b1-007d89caa70a","ios":"levelo://app?vid=6eeb570e-5001-43cc-b0b1-007d89caa70a"},"vehicle_type_id":"4","last_reported":1730156943,"current_range_meters":20800,"station_id":"ce4bh3h2rcd13ifvqdo0","pricing_plan_id":"cebpf4jnsgd1na2vs0mg"},{"bike_id":"f3b058ed-8a0e-4829-adb4-cf1ea18a2a53","system_id":"levelo_inurba_marseille","lat":43.29788,"lon":5.39354,"is_reserved":false,"is_disabled":false,"rental_uris":{"android":"levelo://app?vid=f3b058ed-8a0e-4829-adb4-cf1ea18a2a53","ios":"levelo://app?vid=f3b058ed-8a0e-4829-adb4-cf1ea18a2a53"},"vehicle_type_id":"4","last_reported":1730156943,"current_range_meters":14000,"station_id":"chh1huq6cuj3fo74tm60","pricing_plan_id":"cebpf4jnsgd1na2vs0mg"},{"bike_id":"483a242c-ff66-4b30-9b1e-99fa173f6f27","system_id":"levelo_inurba_marseille","lat":43.28111,"lon":5.37848,"is_reserved":false,"is_disabled":false,"rental_uris":{"android":"levelo://app?vid=483a242c-ff66-4b30-9b1e-99fa173f6f27","ios":"levelo://app?vid=483a242c-ff66-4b30-9b1e-99fa173f6f27"},"vehicle_type_id":"4","last_reported":1730156943,"current_range_meters":36800,"station_id":"ce4bha12rcd13ifvqee0","pricing_plan_id":"cebpf4jnsgd1na2vs0mg"},{"bike_id":"8c481f3d-6b8d-4cff-9fe9-4866a2d5404c","system_id":"levelo_inurba_marseille","lat":43.31172,"lon":5.38714,"is_reserved":false,"is_disabled":false,"rental_uris":{"android":"levelo://app?vid=8c481f3d-6b8d-4cff-9fe9-4866a2d5404c","ios":"levelo://app?vid=8c481f3d-6b8d-4cff-9fe9-4866a2d5404c"},"vehicle_type_id":"4","last_reported":1730156943,"current_range_meters":38800,"station_id":"ce4bgv12rcd13ifvqcp0","pricing_plan_id":"cebpf4jnsgd1na2vs0mg"},{"bike_id":"0767fba8-2acc-437e-85a2-d8e45257d9b6","system_id":"levelo_inurba_marseille","lat":43.31328,"lon":5.39695,"is_reserved":false,"is_disabled":false,"rental_uris":{"android":"levelo://app?vid=0767fba8-2acc-437e-85a2-d8e45257d9b6","ios":"levelo://app?vid=0767fba8-2acc-437e-85a2-d8e45257d9b6"},"vehicle_type_id":"4","last_reported":1730156943,"current_range_meters":38000,"station_id":"ce4bgvp2rcd13ifvqcu0","pricing_plan_id":"cebpf4jnsgd1na2vs0mg"},{"bike_id":"27e569e3-fc00-4e2e-b17d-bba008711c06","system_id":"levelo_inurba_marseille","lat":43.24804,"lon":5.37453,"is_reserved":false,"is_disabled":false,"rental_uris":{"android":"levelo://app?vid=27e569e3-fc00-4e2e-b17d-bba008711c06","ios":"levelo://app?vid=27e569e3-fc00-4e2e-b17d-bba008711c06"},"vehicle_type_id":"4","last_reported":1730156943,"current_range_meters":6400,"station_id":"ce4bhgh2rcd13ifvqfb0","pricing_plan_id":"cebpf4jnsgd1na2vs0mg"},{"bike_id":"f7a50275-88a4-4be4-ac33-5cce1242cfaa","system_id":"levelo_inurba_marseille","lat":43.31657,"lon":5.37687,"is_reserved":false,"is_disabled":false,"rental_uris":{"android":"levelo://app?vid=f7a50275-88a4-4be4-ac33-5cce1242cfaa","ios":"levelo://app?vid=f7a50275-88a4-4be4-ac33-5cce1242cfaa"},"vehicle_type_id":"4","last_reported":1730156943,"current_range_meters":36800,"station_id":"","pricing_plan_id":"cebpf4jnsgd1na2vs0mg"},{"bike_id":"69d3a6e2-3f07-40ef-bdf0-53e5bd3677a3","system_id":"levelo_inurba_marseille","lat":43.28702,"lon":5.3998,"is_reserved":false,"is_disabled":false,"rental_uris":{"android":"levelo://app?vid=69d3a6e2-3f07-40ef-bdf0-53e5bd3677a3","ios":"levelo://app?vid=69d3a6e2-3f07-40ef-bdf0-53e5bd3677a3"},"vehicle_type_id":"4","last_reported":1730156943,"current_range_meters":40000,"station_id":"ce4bho92rcd13ifvqh3g","pricing_plan_id":"cebpf4jnsgd1na2vs0mg"},{"bike_id":"c60fcbfa-5bba-48ae-bafc-8dcd56afe436","system_id":"levelo_inurba_marseille","lat":43.28661,"lon":5.363518,"is_reserved":false,"is_disabled":false,"rental_uris":{"android":"levelo://app?vid=c60fcbfa-5bba-48ae-bafc-8dcd56afe436","ios":"levelo://app?vid=c60fcbfa-5bba-48ae-bafc-8dcd56afe436"},"vehicle_type_id":"4","last_reported":1730156943,"current_range_meters":20000,"station_id":"ce4bhah2rcd13ifvqej0","pricing_plan_id":"cebpf4jnsgd1na2vs0mg"},{"bike_id":"6627e12e-9cb1-4b91-ab1a-b51812344191","system_id":"levelo_inurba_marseille","lat":43.27073,"lon":5.42282,"is_reserved":false,"is_disabled":false,"rental_uris":{"android":"levelo://app?vid=6627e12e-9cb1-4b91-ab1a-b51812344191","ios":"levelo://app?vid=6627e12e-9cb1-4b91-ab1a-b51812344191"},"vehicle_type_id":"4","last_reported":1730156943,"current_range_meters":22800,"station_id":"ce4bhk92rcd13ifvqgb0","pricing_plan_id":"cebpf4jnsgd1na2vs0mg"},{"bike_id":"9f0a823c-0a23-47d1-8e59-da94a117ebff","system_id":"levelo_inurba_marseille","lat":43.28661,"lon":5.36356,"is_reserved":false,"is_disabled":false,"rental_uris":{"android":"levelo://app?vid=9f0a823c-0a23-47d1-8e59-da94a117ebff","ios":"levelo://app?vid=9f0a823c-0a23-47d1-8e59-da94a117ebff"},"vehicle_type_id":"4","last_reported":1730156943,"current_range_meters":39200,"station_id":"ce4bhah2rcd13ifvqej0","pricing_plan_id":"cebpf4jnsgd1na2vs0mg"},{"bike_id":"4a7d2e78-51b9-46d2-bf89-98a48709d13a","system_id":"levelo_inurba_marseille","lat":43.31722,"lon":5.42395,"is_reserved":false,"is_disabled":false,"rental_uris":{"android":"levelo://app?vid=4a7d2e78-51b9-46d2-bf89-98a48709d13a","ios":"levelo://app?vid=4a7d2e78-51b9-46d2-bf89-98a48709d13a"},"vehicle_type_id":"4","last_reported":1730156943,"current_range_meters":38800,"station_id":"ce4bhp92rcd13ifvqhbg","pricing_plan_id":"cebpf4jnsgd1na2vs0mg"},{"bike_id":"bdad40da-4714-4179-a84e-4bbe5a2c808e","system_id":"levelo_inurba_marseille","lat":43.268147,"lon":5.411201,"is_reserved":false,"is_disabled":false,"rental_uris":{"android":"levelo://app?vid=bdad40da-4714-4179-a84e-4bbe5a2c808e","ios":"levelo://app?vid=bdad40da-4714-4179-a84e-4bbe5a2c808e"},"vehicle_type_id":"4","last_reported":1730156943,"current_range_meters":22800,"station_id":"","pricing_plan_id":"cebpf4jnsgd1na2vs0mg"},{"bike_id":"478fe9b5-1fcd-4e7c-a7bd-7889ae6d73ed","system_id":"levelo_inurba_marseille","lat":43.2905,"lon":5.35925,"is_reserved":false,"is_disabled":false,"rental_uris":{"android":"levelo://app?vid=478fe9b5-1fcd-4e7c-a7bd-7889ae6d73ed","ios":"levelo://app?vid=478fe9b5-1fcd-4e7c-a7bd-7889ae6d73ed"},"vehicle_type_id":"4","last_reported":1730156943,"current_range_meters":38800,"station_id":"ce4bha92rcd13ifvqeg0","pricing_plan_id":"cebpf4jnsgd1na2vs0mg"},{"bike_id":"0c53382f-83fb-45ec-871d-d4e880c7383e","system_id":"levelo_inurba_marseille","lat":43.28002,"lon":5.40012,"is_reserved":false,"is_disabled":false,"rental_uris":{"android":"levelo://app?vid=0c53382f-83fb-45ec-871d-d4e880c7383e","ios":"levelo://app?vid=0c53382f-83fb-45ec-871d-d4e880c7383e"},"vehicle_type_id":"4","last_reported":1730156943,"current_range_meters":12800,"station_id":"ce4bho92rcd13ifvqh4g","pricing_plan_id":"cebpf4jnsgd1na2vs0mg"},{"bike_id":"9853248d-30e6-4b55-9dc1-a8696001815d","system_id":"levelo_inurba_marseille","lat":43.29898,"lon":5.43672,"is_reserved":false,"is_disabled":false,"rental_uris":{"android":"levelo://app?vid=9853248d-30e6-4b55-9dc1-a8696001815d","ios":"levelo://app?vid=9853248d-30e6-4b55-9dc1-a8696001815d"},"vehicle_type_id":"4","last_reported":1730156943,"current_range_meters":38800,"station_id":"ce4bhpp2rcd13ifvqhfg","pricing_plan_id":"cebpf4jnsgd1na2vs0mg"},{"bike_id":"9b425178-757c-443e-ad64-22be8ad6f322","system_id":"levelo_inurba_marseille","lat":43.28864,"lon":5.35838,"is_reserved":false,"is_disabled":false,"rental_uris":{"android":"levelo://app?vid=9b425178-757c-443e-ad64-22be8ad6f322","ios":"levelo://app?vid=9b425178-757c-443e-ad64-22be8ad6f322"},"vehicle_type_id":"4","last_reported":1730156943,"current_range_meters":38800,"station_id":"ce4bhb12rcd13ifvqem0","pricing_plan_id":"cebpf4jnsgd1na2vs0mg"},{"bike_id":"6f487d93-ed54-4bc3-8917-f0af52bd63dd","system_id":"levelo_inurba_marseille","lat":43.27914,"lon":5.39587,"is_reserved":false,"is_disabled":false,"rental_uris":{"android":"levelo://app?vid=6f487d93-ed54-4bc3-8917-f0af52bd63dd","ios":"levelo://app?vid=6f487d93-ed54-4bc3-8917-f0af52bd63dd"},"vehicle_type_id":"4","last_reported":1730156943,"current_range_meters":7200,"station_id":"ce4bhf92rcd13ifvqf40","pricing_plan_id":"cebpf4jnsgd1na2vs0mg"},{"bike_id":"eadfee46-9822-40ad-8cda-cc07633b3b78","system_id":"levelo_inurba_marseille","lat":43.27908,"lon":5.38018,"is_reserved":false,"is_disabled":false,"rental_uris":{"android":"levelo://app?vid=eadfee46-9822-40ad-8cda-cc07633b3b78","ios":"levelo://app?vid=eadfee46-9822-40ad-8cda-cc07633b3b78"},"vehicle_type_id":"4","last_reported":1730156943,"current_range_meters":22800,"station_id":"ce4bhf92rcd13ifvqf50","pricing_plan_id":"cebpf4jnsgd1na2vs0mg"},{"bike_id":"9befed88-9f8c-464c-b07b-093bd97066bb","system_id":"levelo_inurba_marseille","lat":43.29805,"lon":5.37136,"is_reserved":false,"is_disabled":false,"rental_uris":{"android":"levelo://app?vid=9befed88-9f8c-464c-b07b-093bd97066bb","ios":"levelo://app?vid=9befed88-9f8c-464c-b07b-093bd97066bb"},"vehicle_type_id":"4","last_reported":1730156943,"current_range_meters":13600,"station_id":"","pricing_plan_id":"cebpf4jnsgd1na2vs0mg"},{"bike_id":"c8a92740-2b09-4ca5-9043-1ba83935e34d","system_id":"levelo_inurba_marseille","lat":43.24389,"lon":5.37068,"is_reserved":false,"is_disabled":false,"rental_uris":{"android":"levelo://app?vid=c8a92740-2b09-4ca5-9043-1ba83935e34d","ios":"levelo://app?vid=c8a92740-2b09-4ca5-9043-1ba83935e34d"},"vehicle_type_id":"4","last_reported":1730156943,"current_range_meters":38800,"station_id":"ce4bhhh2rcd13ifvqfk0","pricing_plan_id":"cebpf4jnsgd1na2vs0mg"},{"bike_id":"7717d16a-252f-46b4-aa85-34fb13d24681","system_id":"levelo_inurba_marseille","lat":43.291,"lon":5.38135,"is_reserved":false,"is_disabled":false,"rental_uris":{"android":"levelo://app?vid=7717d16a-252f-46b4-aa85-34fb13d24681","ios":"levelo://app?vid=7717d16a-252f-46b4-aa85-34fb13d24681"},"vehicle_type_id":"4","last_reported":1730156943,"current_range_meters":37600,"station_id":"ce4bh512rcd13ifvqe2g","pricing_plan_id":"cebpf4jnsgd1na2vs0mg"},{"bike_id":"d89738db-46f7-4419-afe9-5c262921f5df","system_id":"levelo_inurba_marseille","lat":43.26212,"lon":5.37443,"is_reserved":false,"is_disabled":false,"rental_uris":{"android":"levelo://app?vid=d89738db-46f7-4419-afe9-5c262921f5df","ios":"levelo://app?vid=d89738db-46f7-4419-afe9-5c262921f5df"},"vehicle_type_id":"4","last_reported":1730156943,"current_range_meters":30000,"station_id":"ce4bhgp2rcd13ifvqfc0","pricing_plan_id":"cebpf4jnsgd1na2vs0mg"},{"bike_id":"2de29851-ae7c-4f1b-8124-871379c2cd77","system_id":"levelo_inurba_marseille","lat":43.28701,"lon":5.37386,"is_reserved":false,"is_disabled":false,"rental_uris":{"android":"levelo://app?vid=2de29851-ae7c-4f1b-8124-871379c2cd77","ios":"levelo://app?vid=2de29851-ae7c-4f1b-8124-871379c2cd77"},"vehicle_type_id":"4","last_reported":1730156943,"current_range_meters":39200,"station_id":"ce4bh3p2rcd13ifvqdq0","pricing_plan_id":"cebpf4jnsgd1na2vs0mg"},{"bike_id":"f9a2aa18-615d-43f8-9a19-eb948e242e45","system_id":"levelo_inurba_marseille","lat":43.25009,"lon":5.38919,"is_reserved":false,"is_disabled":false,"rental_uris":{"android":"levelo://app?vid=f9a2aa18-615d-43f8-9a19-eb948e242e45","ios":"levelo://app?vid=f9a2aa18-615d-43f8-9a19-eb948e242e45"},"vehicle_type_id":"4","last_reported":1730156943,"current_range_meters":38800,"station_id":"ce4bhgp2rcd13ifvqfd0","pricing_plan_id":"cebpf4jnsgd1na2vs0mg"},{"bike_id":"1641e2d9-e39a-4f2a-a551-3a59775f9162","system_id":"levelo_inurba_marseille","lat":43.32491,"lon":5.36582,"is_reserved":false,"is_disabled":false,"rental_uris":{"android":"levelo://app?vid=1641e2d9-e39a-4f2a-a551-3a59775f9162","ios":"levelo://app?vid=1641e2d9-e39a-4f2a-a551-3a59775f9162"},"vehicle_type_id":"4","last_reported":1730156943,"current_range_meters":12800,"station_id":"ce4bhs12rcd13ifvqhvg","pricing_plan_id":"cebpf4jnsgd1na2vs0mg"},{"bike_id":"1edf7652-196f-4b08-a478-4680fe6f3c76","system_id":"levelo_inurba_marseille","lat":43.33602,"lon":5.41034,"is_reserved":false,"is_disabled":false,"rental_uris":{"android":"levelo://app?vid=1edf7652-196f-4b08-a478-4680fe6f3c76","ios":"levelo://app?vid=1edf7652-196f-4b08-a478-4680fe6f3c76"},"vehicle_type_id":"4","last_reported":1730156943,"current_range_meters":36800,"station_id":"ce4bhqh2rcd13ifvqhmg","pricing_plan_id":"cebpf4jnsgd1na2vs0mg"},{"bike_id":"030d5436-e5c6-49ae-96dd-772652ca16f5","system_id":"levelo_inurba_marseille","lat":43.34687,"lon":5.3805,"is_reserved":false,"is_disabled":false,"rental_uris":{"android":"levelo://app?vid=030d5436-e5c6-49ae-96dd-772652ca16f5","ios":"levelo://app?vid=030d5436-e5c6-49ae-96dd-772652ca16f5"},"vehicle_type_id":"4","last_reported":1730156943,"current_range_meters":28800,"station_id":"","pricing_plan_id":"cebpf4jnsgd1na2vs0mg"},{"bike_id":"99be546e-23a0-4a8f-897d-f4ebd4b3bc15","system_id":"levelo_inurba_marseille","lat":43.27378,"lon":5.36257,"is_reserved":false,"is_disabled":false,"rental_uris":{"android":"levelo://app?vid=99be546e-23a0-4a8f-897d-f4ebd4b3bc15","ios":"levelo://app?vid=99be546e-23a0-4a8f-897d-f4ebd4b3bc15"},"vehicle_type_id":"4","last_reported":1730156943,"current_range_meters":38800,"station_id":"ce4bhbh2rcd13ifvqeo0","pricing_plan_id":"cebpf4jnsgd1na2vs0mg"},{"bike_id":"5e918a46-16d8-438e-88a0-86a0e45c5e53","system_id":"levelo_inurba_marseille","lat":43.25107,"lon":5.40326,"is_reserved":false,"is_disabled":false,"rental_uris":{"android":"levelo://app?vid=5e918a46-16d8-438e-88a0-86a0e45c5e53","ios":"levelo://app?vid=5e918a46-16d8-438e-88a0-86a0e45c5e53"},"vehicle_type_id":"4","last_reported":1730156943,"current_range_meters":18000,"station_id":"ce4bhlh2rcd13ifvqgig","pricing_plan_id":"cebpf4jnsgd1na2vs0mg"},{"bike_id":"844023ff-6d0b-454c-9110-ed149a7ecdf3","system_id":"levelo_inurba_marseille","lat":43.33608,"lon":5.4103,"is_reserved":false,"is_disabled":false,"rental_uris":{"android":"levelo://app?vid=844023ff-6d0b-454c-9110-ed149a7ecdf3","ios":"levelo://app?vid=844023ff-6d0b-454c-9110-ed149a7ecdf3"},"vehicle_type_id":"4","last_reported":1730156943,"current_range_meters":19600,"station_id":"ce4bhqh2rcd13ifvqhmg","pricing_plan_id":"cebpf4jnsgd1na2vs0mg"},{"bike_id":"6967ff5b-04da-439b-aacc-0ed05cc002bb","system_id":"levelo_inurba_marseille","lat":43.28576,"lon":5.3949,"is_reserved":false,"is_disabled":false,"rental_uris":{"android":"levelo://app?vid=6967ff5b-04da-439b-aacc-0ed05cc002bb","ios":"levelo://app?vid=6967ff5b-04da-439b-aacc-0ed05cc002bb"},"vehicle_type_id":"4","last_reported":1730156943,"current_range_meters":38800,"station_id":"ce4bh292rcd13ifvqdg0","pricing_plan_id":"cebpf4jnsgd1na2vs0mg"},{"bike_id":"db407270-14e4-450d-916b-188e766022fd","system_id":"levelo_inurba_marseille","lat":43.28082,"lon":5.39645,"is_reserved":false,"is_disabled":false,"rental_uris":{"android":"levelo://app?vid=db407270-14e4-450d-916b-188e766022fd","ios":"levelo://app?vid=db407270-14e4-450d-916b-188e766022fd"},"vehicle_type_id":"4","last_reported":1730156943,"current_range_meters":19200,"station_id":"ce4bho12rcd13ifvqh2g","pricing_plan_id":"cebpf4jnsgd1na2vs0mg"},{"bike_id":"a1d4c5e8-df12-4372-bde5-940110035ad1","system_id":"levelo_inurba_marseille","lat":43.28081,"lon":5.39666,"is_reserved":false,"is_disabled":false,"rental_uris":{"android":"levelo://app?vid=a1d4c5e8-df12-4372-bde5-940110035ad1","ios":"levelo://app?vid=a1d4c5e8-df12-4372-bde5-940110035ad1"},"vehicle_type_id":"4","last_reported":1730156943,"current_range_meters":36000,"station_id":"ce4bho12rcd13ifvqh2g","pricing_plan_id":"cebpf4jnsgd1na2vs0mg"},{"bike_id":"1b0fd3f0-29d5-4908-8ab9-1a00b8883aba","system_id":"levelo_inurba_marseille","lat":43.30878,"lon":5.396264,"is_reserved":false,"is_disabled":false,"rental_uris":{"android":"levelo://app?vid=1b0fd3f0-29d5-4908-8ab9-1a00b8883aba","ios":"levelo://app?vid=1b0fd3f0-29d5-4908-8ab9-1a00b8883aba"},"vehicle_type_id":"4","last_reported":1730156943,"current_range_meters":38800,"station_id":"ce4bh012rcd13ifvqcv0","pricing_plan_id":"cebpf4jnsgd1na2vs0mg"},{"bike_id":"86af7185-af18-474c-bcb9-202fb450d530","system_id":"levelo_inurba_marseille","lat":43.28364,"lon":5.38629,"is_reserved":false,"is_disabled":false,"rental_uris":{"android":"levelo://app?vid=86af7185-af18-474c-bcb9-202fb450d530","ios":"levelo://app?vid=86af7185-af18-474c-bcb9-202fb450d530"},"vehicle_type_id":"4","last_reported":1730156943,"current_range_meters":38800,"station_id":"ce4bh492rcd13ifvqdvg","pricing_plan_id":"cebpf4jnsgd1na2vs0mg"},{"bike_id":"bf0f96cf-0556-405e-a53d-bf2cceb406fb","system_id":"levelo_inurba_marseille","lat":43.28699,"lon":5.37399,"is_reserved":false,"is_disabled":false,"rental_uris":{"android":"levelo://app?vid=bf0f96cf-0556-405e-a53d-bf2cceb406fb","ios":"levelo://app?vid=bf0f96cf-0556-405e-a53d-bf2cceb406fb"},"vehicle_type_id":"4","last_reported":1730156943,"current_range_meters":22000,"station_id":"ce4bh3p2rcd13ifvqdq0","pricing_plan_id":"cebpf4jnsgd1na2vs0mg"},{"bike_id":"15828898-49fb-41a1-ba88-7883e1f9dcd0","system_id":"levelo_inurba_marseille","lat":43.29006,"lon":5.35614,"is_reserved":false,"is_disabled":false,"rental_uris":{"android":"levelo://app?vid=15828898-49fb-41a1-ba88-7883e1f9dcd0","ios":"levelo://app?vid=15828898-49fb-41a1-ba88-7883e1f9dcd0"},"vehicle_type_id":"4","last_reported":1730156943,"current_range_meters":38800,"station_id":"ce4bhb92rcd13ifvqen0","pricing_plan_id":"cebpf4jnsgd1na2vs0mg"},{"bike_id":"627660bf-2083-4487-ab07-e734375bef2b","system_id":"levelo_inurba_marseille","lat":43.29797,"lon":5.39336,"is_reserved":false,"is_disabled":false,"rental_uris":{"android":"levelo://app?vid=627660bf-2083-4487-ab07-e734375bef2b","ios":"levelo://app?vid=627660bf-2083-4487-ab07-e734375bef2b"},"vehicle_type_id":"4","last_reported":1730156943,"current_range_meters":30800,"station_id":"chh1huq6cuj3fo74tm60","pricing_plan_id":"cebpf4jnsgd1na2vs0mg"},{"bike_id":"d59aa319-34fa-4d80-9f02-8177e87beeed","system_id":"levelo_inurba_marseille","lat":43.30258,"lon":5.40084,"is_reserved":false,"is_disabled":false,"rental_uris":{"android":"levelo://app?vid=d59aa319-34fa-4d80-9f02-8177e87beeed","ios":"levelo://app?vid=d59aa319-34fa-4d80-9f02-8177e87beeed"},"vehicle_type_id":"4","last_reported":1730156943,"current_range_meters":22000,"station_id":"ce4bgvh2rcd13ifvqcs0","pricing_plan_id":"cebpf4jnsgd1na2vs0mg"},{"bike_id":"e31650d1-6313-4c09-96ff-bc5a7403b852","system_id":"levelo_inurba_marseille","lat":43.323303,"lon":5.406317,"is_reserved":false,"is_disabled":false,"rental_uris":{"android":"levelo://app?vid=e31650d1-6313-4c09-96ff-bc5a7403b852","ios":"levelo://app?vid=e31650d1-6313-4c09-96ff-bc5a7403b852"},"vehicle_type_id":"4","last_reported":1730156943,"current_range_meters":38000,"station_id":"ce4bhq92rcd13ifvqhjg","pricing_plan_id":"cebpf4jnsgd1na2vs0mg"},{"bike_id":"aefac986-b0c6-43dd-b63b-a00cd751d12d","system_id":"levelo_inurba_marseille","lat":43.3199,"lon":5.38147,"is_reserved":false,"is_disabled":false,"rental_uris":{"android":"levelo://app?vid=aefac986-b0c6-43dd-b63b-a00cd751d12d","ios":"levelo://app?vid=aefac986-b0c6-43dd-b63b-a00cd751d12d"},"vehicle_type_id":"4","last_reported":1730156943,"current_range_meters":39200,"station_id":"ce4bhr12rcd13ifvqhpg","pricing_plan_id":"cebpf4jnsgd1na2vs0mg"},{"bike_id":"f581e29b-f342-4b13-9690-dc98c45a898a","system_id":"levelo_inurba_marseille","lat":43.28674,"lon":5.36348,"is_reserved":false,"is_disabled":false,"rental_uris":{"android":"levelo://app?vid=f581e29b-f342-4b13-9690-dc98c45a898a","ios":"levelo://app?vid=f581e29b-f342-4b13-9690-dc98c45a898a"},"vehicle_type_id":"4","last_reported":1730156943,"current_range_meters":40000,"station_id":"ce4bhah2rcd13ifvqej0","pricing_plan_id":"cebpf4jnsgd1na2vs0mg"},{"bike_id":"32676fa4-6f73-4cfb-bac2-2a7af620a425","system_id":"levelo_inurba_marseille","lat":43.29577,"lon":5.39973,"is_reserved":false,"is_disabled":false,"rental_uris":{"android":"levelo://app?vid=32676fa4-6f73-4cfb-bac2-2a7af620a425","ios":"levelo://app?vid=32676fa4-6f73-4cfb-bac2-2a7af620a425"},"vehicle_type_id":"4","last_reported":1730156943,"current_range_meters":37600,"station_id":"ce4bh312rcd13ifvqdj0","pricing_plan_id":"cebpf4jnsgd1na2vs0mg"},{"bike_id":"6468957c-fe8a-44d7-975a-fb56f0ee7113","system_id":"levelo_inurba_marseille","lat":43.28703,"lon":5.3999,"is_reserved":false,"is_disabled":false,"rental_uris":{"android":"levelo://app?vid=6468957c-fe8a-44d7-975a-fb56f0ee7113","ios":"levelo://app?vid=6468957c-fe8a-44d7-975a-fb56f0ee7113"},"vehicle_type_id":"4","last_reported":1730156943,"current_range_meters":17600,"station_id":"ce4bho92rcd13ifvqh3g","pricing_plan_id":"cebpf4jnsgd1na2vs0mg"},{"bike_id":"ae86998e-545b-4f55-9a06-569e8cf23d4a","system_id":"levelo_inurba_marseille","lat":43.30137,"lon":5.39865,"is_reserved":false,"is_disabled":false,"rental_uris":{"android":"levelo://app?vid=ae86998e-545b-4f55-9a06-569e8cf23d4a","ios":"levelo://app?vid=ae86998e-545b-4f55-9a06-569e8cf23d4a"},"vehicle_type_id":"4","last_reported":1730156943,"current_range_meters":36800,"station_id":"ce4bh0h2rcd13ifvqd40","pricing_plan_id":"cebpf4jnsgd1na2vs0mg"},{"bike_id":"a115272b-d982-443a-87c0-8ebb7cafe252","system_id":"levelo_inurba_marseille","lat":43.24072,"lon":5.37762,"is_reserved":false,"is_disabled":false,"rental_uris":{"android":"levelo://app?vid=a115272b-d982-443a-87c0-8ebb7cafe252","ios":"levelo://app?vid=a115272b-d982-443a-87c0-8ebb7cafe252"},"vehicle_type_id":"4","last_reported":1730156943,"current_range_meters":27200,"station_id":"ce4bhnp2rcd13ifvqgvg","pricing_plan_id":"cebpf4jnsgd1na2vs0mg"},{"bike_id":"6e02245b-3fe7-4986-b229-7be88c6f2495","system_id":"levelo_inurba_marseille","lat":43.31278,"lon":5.40174,"is_reserved":false,"is_disabled":false,"rental_uris":{"android":"levelo://app?vid=6e02245b-3fe7-4986-b229-7be88c6f2495","ios":"levelo://app?vid=6e02245b-3fe7-4986-b229-7be88c6f2495"},"vehicle_type_id":"4","last_reported":1730156943,"current_range_meters":28800,"station_id":"ce4bh092rcd13ifvqd30","pricing_plan_id":"cebpf4jnsgd1na2vs0mg"},{"bike_id":"b9342b5e-ebd2-487d-abdc-955016487de0","system_id":"levelo_inurba_marseille","lat":43.29021,"lon":5.3865,"is_reserved":false,"is_disabled":false,"rental_uris":{"android":"levelo://app?vid=b9342b5e-ebd2-487d-abdc-955016487de0","ios":"levelo://app?vid=b9342b5e-ebd2-487d-abdc-955016487de0"},"vehicle_type_id":"4","last_reported":1730156943,"current_range_meters":38400,"station_id":"ce4bh4p2rcd13ifvqe0g","pricing_plan_id":"cebpf4jnsgd1na2vs0mg"},{"bike_id":"13249a76-87f5-4b62-9588-000c982e6d44","system_id":"levelo_inurba_marseille","lat":43.31366,"lon":5.38501,"is_reserved":false,"is_disabled":false,"rental_uris":{"android":"levelo://app?vid=13249a76-87f5-4b62-9588-000c982e6d44","ios":"levelo://app?vid=13249a76-87f5-4b62-9588-000c982e6d44"},"vehicle_type_id":"4","last_reported":1730156943,"current_range_meters":38800,"station_id":"ce4bgt92rcd13ifvqcf0","pricing_plan_id":"cebpf4jnsgd1na2vs0mg"},{"bike_id":"aedbb7ee-0feb-429e-9595-415a8019a609","system_id":"levelo_inurba_marseille","lat":43.28694,"lon":5.3998,"is_reserved":false,"is_disabled":false,"rental_uris":{"android":"levelo://app?vid=aedbb7ee-0feb-429e-9595-415a8019a609","ios":"levelo://app?vid=aedbb7ee-0feb-429e-9595-415a8019a609"},"vehicle_type_id":"4","last_reported":1730156943,"current_range_meters":14000,"station_id":"ce4bho92rcd13ifvqh3g","pricing_plan_id":"cebpf4jnsgd1na2vs0mg"},{"bike_id":"30673776-1e3b-4da6-ba79-4f7467860f37","system_id":"levelo_inurba_marseille","lat":43.30889,"lon":5.3964,"is_reserved":false,"is_disabled":false,"rental_uris":{"android":"levelo://app?vid=30673776-1e3b-4da6-ba79-4f7467860f37","ios":"levelo://app?vid=30673776-1e3b-4da6-ba79-4f7467860f37"},"vehicle_type_id":"4","last_reported":1730156943,"current_range_meters":33600,"station_id":"ce4bh012rcd13ifvqcv0","pricing_plan_id":"cebpf4jnsgd1na2vs0mg"},{"bike_id":"1eff294a-efba-4a3e-8998-9849ddb2d364","system_id":"levelo_inurba_marseille","lat":43.27913,"lon":5.39591,"is_reserved":false,"is_disabled":false,"rental_uris":{"android":"levelo://app?vid=1eff294a-efba-4a3e-8998-9849ddb2d364","ios":"levelo://app?vid=1eff294a-efba-4a3e-8998-9849ddb2d364"},"vehicle_type_id":"4","last_reported":1730156943,"current_range_meters":9200,"station_id":"ce4bhf92rcd13ifvqf40","pricing_plan_id":"cebpf4jnsgd1na2vs0mg"},{"bike_id":"698899f6-3487-4fb4-b742-af5da9820346","system_id":"levelo_inurba_marseille","lat":43.32662,"lon":5.41,"is_reserved":false,"is_disabled":false,"rental_uris":{"android":"levelo://app?vid=698899f6-3487-4fb4-b742-af5da9820346","ios":"levelo://app?vid=698899f6-3487-4fb4-b742-af5da9820346"},"vehicle_type_id":"4","last_reported":1730156943,"current_range_meters":25200,"station_id":"ce4bhpp2rcd13ifvqhgg","pricing_plan_id":"cebpf4jnsgd1na2vs0mg"},{"bike_id":"42d1cb38-6e83-4b53-aa8b-9b3713837569","system_id":"levelo_inurba_marseille","lat":43.27427,"lon":5.39412,"is_reserved":false,"is_disabled":false,"rental_uris":{"android":"levelo://app?vid=42d1cb38-6e83-4b53-aa8b-9b3713837569","ios":"levelo://app?vid=42d1cb38-6e83-4b53-aa8b-9b3713837569"},"vehicle_type_id":"4","last_reported":1730156943,"current_range_meters":36000,"station_id":"ce4bhdp2rcd13ifvqf20","pricing_plan_id":"cebpf4jnsgd1na2vs0mg"},{"bike_id":"645f1064-9377-43db-a908-5bda21ffbca8","system_id":"levelo_inurba_marseille","lat":43.29185,"lon":5.35809,"is_reserved":false,"is_disabled":false,"rental_uris":{"android":"levelo://app?vid=645f1064-9377-43db-a908-5bda21ffbca8","ios":"levelo://app?vid=645f1064-9377-43db-a908-5bda21ffbca8"},"vehicle_type_id":"4","last_reported":1730156943,"current_range_meters":6400,"station_id":"ce4bhb12rcd13ifvqel0","pricing_plan_id":"cebpf4jnsgd1na2vs0mg"},{"bike_id":"43966cb7-6f2e-496d-bfcf-055444b3f859","system_id":"levelo_inurba_marseille","lat":43.27991,"lon":5.41658,"is_reserved":false,"is_disabled":false,"rental_uris":{"android":"levelo://app?vid=43966cb7-6f2e-496d-bfcf-055444b3f859","ios":"levelo://app?vid=43966cb7-6f2e-496d-bfcf-055444b3f859"},"vehicle_type_id":"4","last_reported":1730156943,"current_range_meters":34800,"station_id":"ce4bho12rcd13ifvqh1g","pricing_plan_id":"cebpf4jnsgd1na2vs0mg"},{"bike_id":"6d787468-38cb-4ee7-a2e6-a6f7aeb68712","system_id":"levelo_inurba_marseille","lat":43.27831,"lon":5.39214,"is_reserved":false,"is_disabled":false,"rental_uris":{"android":"levelo://app?vid=6d787468-38cb-4ee7-a2e6-a6f7aeb68712","ios":"levelo://app?vid=6d787468-38cb-4ee7-a2e6-a6f7aeb68712"},"vehicle_type_id":"4","last_reported":1730156943,"current_range_meters":11600,"station_id":"ce4bhjp2rcd13ifvqga0","pricing_plan_id":"cebpf4jnsgd1na2vs0mg"},{"bike_id":"60b8b964-c042-41c3-a94b-f87c5cff29c8","system_id":"levelo_inurba_marseille","lat":43.2926,"lon":5.40908,"is_reserved":false,"is_disabled":false,"rental_uris":{"android":"levelo://app?vid=60b8b964-c042-41c3-a94b-f87c5cff29c8","ios":"levelo://app?vid=60b8b964-c042-41c3-a94b-f87c5cff29c8"},"vehicle_type_id":"4","last_reported":1730156943,"current_range_meters":30000,"station_id":"ce4bh192rcd13ifvqdc0","pricing_plan_id":"cebpf4jnsgd1na2vs0mg"},{"bike_id":"2ed9a150-ecea-4344-9803-fb28924dbd56","system_id":"levelo_inurba_marseille","lat":43.2872,"lon":5.37941,"is_reserved":false,"is_disabled":false,"rental_uris":{"android":"levelo://app?vid=2ed9a150-ecea-4344-9803-fb28924dbd56","ios":"levelo://app?vid=2ed9a150-ecea-4344-9803-fb28924dbd56"},"vehicle_type_id":"4","last_reported":1730156943,"current_range_meters":38000,"station_id":"ce4bh9p2rcd13ifvqec0","pricing_plan_id":"cebpf4jnsgd1na2vs0mg"},{"bike_id":"8162e386-cc44-41bc-b91a-fb11533e9396","system_id":"levelo_inurba_marseille","lat":43.316899,"lon":5.4049,"is_reserved":false,"is_disabled":false,"rental_uris":{"android":"levelo://app?vid=8162e386-cc44-41bc-b91a-fb11533e9396","ios":"levelo://app?vid=8162e386-cc44-41bc-b91a-fb11533e9396"},"vehicle_type_id":"4","last_reported":1730156943,"current_range_meters":38800,"station_id":"ce4bh012rcd13ifvqd00","pricing_plan_id":"cebpf4jnsgd1na2vs0mg"},{"bike_id":"bd801bbe-605a-44d5-aa84-a87dae5a750a","system_id":"levelo_inurba_marseille","lat":43.24069,"lon":5.37766,"is_reserved":false,"is_disabled":false,"rental_uris":{"android":"levelo://app?vid=bd801bbe-605a-44d5-aa84-a87dae5a750a","ios":"levelo://app?vid=bd801bbe-605a-44d5-aa84-a87dae5a750a"},"vehicle_type_id":"4","last_reported":1730156943,"current_range_meters":35600,"station_id":"ce4bhnp2rcd13ifvqgvg","pricing_plan_id":"cebpf4jnsgd1na2vs0mg"},{"bike_id":"3c5d53f8-a9fd-4253-821c-a2ecf91f8e79","system_id":"levelo_inurba_marseille","lat":43.30093,"lon":5.39084,"is_reserved":false,"is_disabled":false,"rental_uris":{"android":"levelo://app?vid=3c5d53f8-a9fd-4253-821c-a2ecf91f8e79","ios":"levelo://app?vid=3c5d53f8-a9fd-4253-821c-a2ecf91f8e79"},"vehicle_type_id":"4","last_reported":1730156943,"current_range_meters":37600,"station_id":"ce4bh192rcd13ifvqdb0","pricing_plan_id":"cebpf4jnsgd1na2vs0mg"},{"bike_id":"510a5fc5-038b-4b7e-95a7-062cbdaa3be9","system_id":"levelo_inurba_marseille","lat":43.3128,"lon":5.40172,"is_reserved":false,"is_disabled":false,"rental_uris":{"android":"levelo://app?vid=510a5fc5-038b-4b7e-95a7-062cbdaa3be9","ios":"levelo://app?vid=510a5fc5-038b-4b7e-95a7-062cbdaa3be9"},"vehicle_type_id":"4","last_reported":1730156943,"current_range_meters":39200,"station_id":"ce4bh092rcd13ifvqd30","pricing_plan_id":"cebpf4jnsgd1na2vs0mg"},{"bike_id":"3d36dc0c-0f96-4b07-b17a-78a838fe800f","system_id":"levelo_inurba_marseille","lat":43.31729,"lon":5.42405,"is_reserved":false,"is_disabled":false,"rental_uris":{"android":"levelo://app?vid=3d36dc0c-0f96-4b07-b17a-78a838fe800f","ios":"levelo://app?vid=3d36dc0c-0f96-4b07-b17a-78a838fe800f"},"vehicle_type_id":"4","last_reported":1730156943,"current_range_meters":17600,"station_id":"ce4bhp92rcd13ifvqhbg","pricing_plan_id":"cebpf4jnsgd1na2vs0mg"},{"bike_id":"5a343c2c-b013-4634-aadf-9e6e4e37fb46","system_id":"levelo_inurba_marseille","lat":43.31491,"lon":5.37304,"is_reserved":false,"is_disabled":false,"rental_uris":{"android":"levelo://app?vid=5a343c2c-b013-4634-aadf-9e6e4e37fb46","ios":"levelo://app?vid=5a343c2c-b013-4634-aadf-9e6e4e37fb46"},"vehicle_type_id":"4","last_reported":1730156943,"current_range_meters":30000,"station_id":"ce4bgt12rcd13ifvqcd0","pricing_plan_id":"cebpf4jnsgd1na2vs0mg"},{"bike_id":"637e9d7d-59a2-4300-b38b-31b2f1fbc965","system_id":"levelo_inurba_marseille","lat":43.31077,"lon":5.3835,"is_reserved":false,"is_disabled":false,"rental_uris":{"android":"levelo://app?vid=637e9d7d-59a2-4300-b38b-31b2f1fbc965","ios":"levelo://app?vid=637e9d7d-59a2-4300-b38b-31b2f1fbc965"},"vehicle_type_id":"4","last_reported":1730156943,"current_range_meters":22000,"station_id":"ce4bgv92rcd13ifvqcr0","pricing_plan_id":"cebpf4jnsgd1na2vs0mg"},{"bike_id":"ae8ca2fb-db8b-4b08-b674-fdeb82537e41","system_id":"levelo_inurba_marseille","lat":43.308899,"lon":5.371882,"is_reserved":false,"is_disabled":false,"rental_uris":{"android":"levelo://app?vid=ae8ca2fb-db8b-4b08-b674-fdeb82537e41","ios":"levelo://app?vid=ae8ca2fb-db8b-4b08-b674-fdeb82537e41"},"vehicle_type_id":"4","last_reported":1730156943,"current_range_meters":17200,"station_id":"ce4bh0p2rcd13ifvqd80","pricing_plan_id":"cebpf4jnsgd1na2vs0mg"},{"bike_id":"76df0ed3-d64f-4d6b-ae54-1acd7ab2a8b6","system_id":"levelo_inurba_marseille","lat":43.28862,"lon":5.39307,"is_reserved":false,"is_disabled":false,"rental_uris":{"android":"levelo://app?vid=76df0ed3-d64f-4d6b-ae54-1acd7ab2a8b6","ios":"levelo://app?vid=76df0ed3-d64f-4d6b-ae54-1acd7ab2a8b6"},"vehicle_type_id":"4","last_reported":1730156943,"current_range_meters":36000,"station_id":"ce4bh2p2rcd13ifvqdi0","pricing_plan_id":"cebpf4jnsgd1na2vs0mg"},{"bike_id":"286a1ad0-de56-404d-b964-bab8becdd08e","system_id":"levelo_inurba_marseille","lat":43.29634,"lon":5.40594,"is_reserved":false,"is_disabled":false,"rental_uris":{"android":"levelo://app?vid=286a1ad0-de56-404d-b964-bab8becdd08e","ios":"levelo://app?vid=286a1ad0-de56-404d-b964-bab8becdd08e"},"vehicle_type_id":"4","last_reported":1730156943,"current_range_meters":36000,"station_id":"ce4bh0h2rcd13ifvqd60","pricing_plan_id":"cebpf4jnsgd1na2vs0mg"},{"bike_id":"e94be738-1f81-4ef2-8919-b6162fbe12c8","system_id":"levelo_inurba_marseille","lat":43.32364,"lon":5.38886,"is_reserved":false,"is_disabled":false,"rental_uris":{"android":"levelo://app?vid=e94be738-1f81-4ef2-8919-b6162fbe12c8","ios":"levelo://app?vid=e94be738-1f81-4ef2-8919-b6162fbe12c8"},"vehicle_type_id":"4","last_reported":1730156943,"current_range_meters":30800,"station_id":"ce4bhqp2rcd13ifvqhog","pricing_plan_id":"cebpf4jnsgd1na2vs0mg"},{"bike_id":"62fded86-f74e-4c54-b4e3-5276681d8332","system_id":"levelo_inurba_marseille","lat":43.28973,"lon":5.37833,"is_reserved":false,"is_disabled":false,"rental_uris":{"android":"levelo://app?vid=62fded86-f74e-4c54-b4e3-5276681d8332","ios":"levelo://app?vid=62fded86-f74e-4c54-b4e3-5276681d8332"},"vehicle_type_id":"4","last_reported":1730156943,"current_range_meters":32800,"station_id":"ce4bh9p2rcd13ifvqed0","pricing_plan_id":"cebpf4jnsgd1na2vs0mg"},{"bike_id":"0655bcc4-b03a-40f7-8ffe-31ed62073051","system_id":"levelo_inurba_marseille","lat":43.31363,"lon":5.385,"is_reserved":false,"is_disabled":false,"rental_uris":{"android":"levelo://app?vid=0655bcc4-b03a-40f7-8ffe-31ed62073051","ios":"levelo://app?vid=0655bcc4-b03a-40f7-8ffe-31ed62073051"},"vehicle_type_id":"4","last_reported":1730156943,"current_range_meters":30400,"station_id":"ce4bgt92rcd13ifvqcf0","pricing_plan_id":"cebpf4jnsgd1na2vs0mg"},{"bike_id":"7fda42aa-28d7-4fc7-858b-960ce986865c","system_id":"levelo_inurba_marseille","lat":43.23192,"lon":5.35546,"is_reserved":false,"is_disabled":false,"rental_uris":{"android":"levelo://app?vid=7fda42aa-28d7-4fc7-858b-960ce986865c","ios":"levelo://app?vid=7fda42aa-28d7-4fc7-858b-960ce986865c"},"vehicle_type_id":"4","last_reported":1730156943,"current_range_meters":20000,"station_id":"ce4bhu92rcd13ifvqi70","pricing_plan_id":"cebpf4jnsgd1na2vs0mg"},{"bike_id":"4a29d797-7e3c-4c28-9a31-2c968dd4daeb","system_id":"levelo_inurba_marseille","lat":43.28438,"lon":5.39197,"is_reserved":false,"is_disabled":false,"rental_uris":{"android":"levelo://app?vid=4a29d797-7e3c-4c28-9a31-2c968dd4daeb","ios":"levelo://app?vid=4a29d797-7e3c-4c28-9a31-2c968dd4daeb"},"vehicle_type_id":"4","last_reported":1730156943,"current_range_meters":38800,"station_id":"ce4bhoh2rcd13ifvqh5g","pricing_plan_id":"cebpf4jnsgd1na2vs0mg"},{"bike_id":"d9b58fe4-f6ba-4315-a1da-1e41fea68d74","system_id":"levelo_inurba_marseille","lat":43.34132,"lon":5.40904,"is_reserved":false,"is_disabled":false,"rental_uris":{"android":"levelo://app?vid=d9b58fe4-f6ba-4315-a1da-1e41fea68d74","ios":"levelo://app?vid=d9b58fe4-f6ba-4315-a1da-1e41fea68d74"},"vehicle_type_id":"4","last_reported":1730156943,"current_range_meters":22800,"station_id":"ce4bhqh2rcd13ifvqhlg","pricing_plan_id":"cebpf4jnsgd1na2vs0mg"},{"bike_id":"6c9b8f7f-d03e-4d6e-94a2-b3c749c788c2","system_id":"levelo_inurba_marseille","lat":43.28265,"lon":5.35087,"is_reserved":false,"is_disabled":false,"rental_uris":{"android":"levelo://app?vid=6c9b8f7f-d03e-4d6e-94a2-b3c749c788c2","ios":"levelo://app?vid=6c9b8f7f-d03e-4d6e-94a2-b3c749c788c2"},"vehicle_type_id":"4","last_reported":1730156943,"current_range_meters":27200,"station_id":"ce4bhbp2rcd13ifvqerg","pricing_plan_id":"cebpf4jnsgd1na2vs0mg"},{"bike_id":"bbde1db8-3781-4a2b-b179-38bc5f742d20","system_id":"levelo_inurba_marseille","lat":43.29526,"lon":5.39034,"is_reserved":false,"is_disabled":false,"rental_uris":{"android":"levelo://app?vid=bbde1db8-3781-4a2b-b179-38bc5f742d20","ios":"levelo://app?vid=bbde1db8-3781-4a2b-b179-38bc5f742d20"},"vehicle_type_id":"4","last_reported":1730156943,"current_range_meters":32000,"station_id":"ce4bh3p2rcd13ifvqdp0","pricing_plan_id":"cebpf4jnsgd1na2vs0mg"},{"bike_id":"49f32741-11bd-4708-beba-7f7f852ef140","system_id":"levelo_inurba_marseille","lat":43.3137,"lon":5.38506,"is_reserved":false,"is_disabled":false,"rental_uris":{"android":"levelo://app?vid=49f32741-11bd-4708-beba-7f7f852ef140","ios":"levelo://app?vid=49f32741-11bd-4708-beba-7f7f852ef140"},"vehicle_type_id":"4","last_reported":1730156943,"current_range_meters":38800,"station_id":"ce4bgt92rcd13ifvqcf0","pricing_plan_id":"cebpf4jnsgd1na2vs0mg"},{"bike_id":"045744c5-87f7-4437-8239-f3d6b0afc22a","system_id":"levelo_inurba_marseille","lat":43.30644,"lon":5.40089,"is_reserved":false,"is_disabled":false,"rental_uris":{"android":"levelo://app?vid=045744c5-87f7-4437-8239-f3d6b0afc22a","ios":"levelo://app?vid=045744c5-87f7-4437-8239-f3d6b0afc22a"},"vehicle_type_id":"4","last_reported":1730156943,"current_range_meters":32800,"station_id":"ce4bh112rcd13ifvqda0","pricing_plan_id":"cebpf4jnsgd1na2vs0mg"},{"bike_id":"a98938fa-4554-4955-b1b4-33813cc9ac3d","system_id":"levelo_inurba_marseille","lat":43.278112,"lon":5.407155,"is_reserved":false,"is_disabled":false,"rental_uris":{"android":"levelo://app?vid=a98938fa-4554-4955-b1b4-33813cc9ac3d","ios":"levelo://app?vid=a98938fa-4554-4955-b1b4-33813cc9ac3d"},"vehicle_type_id":"4","last_reported":1730156943,"current_range_meters":3600,"station_id":"ce4bhnh2rcd13ifvqgtg","pricing_plan_id":"cebpf4jnsgd1na2vs0mg"},{"bike_id":"cf7e6558-3551-4e04-b42d-9ddce72c2b12","system_id":"levelo_inurba_marseille","lat":43.27375,"lon":5.36247,"is_reserved":false,"is_disabled":false,"rental_uris":{"android":"levelo://app?vid=cf7e6558-3551-4e04-b42d-9ddce72c2b12","ios":"levelo://app?vid=cf7e6558-3551-4e04-b42d-9ddce72c2b12"},"vehicle_type_id":"4","last_reported":1730156943,"current_range_meters":30800,"station_id":"ce4bhbh2rcd13ifvqeo0","pricing_plan_id":"cebpf4jnsgd1na2vs0mg"},{"bike_id":"7bd6cc61-6544-4d18-8f4c-8de115c1d27e","system_id":"levelo_inurba_marseille","lat":43.24665,"lon":5.38163,"is_reserved":false,"is_disabled":false,"rental_uris":{"android":"levelo://app?vid=7bd6cc61-6544-4d18-8f4c-8de115c1d27e","ios":"levelo://app?vid=7bd6cc61-6544-4d18-8f4c-8de115c1d27e"},"vehicle_type_id":"4","last_reported":1730156943,"current_range_meters":38800,"station_id":"ce4bhih2rcd13ifvqfr0","pricing_plan_id":"cebpf4jnsgd1na2vs0mg"},{"bike_id":"dcd98ba9-c8cc-4340-a071-62f2c6f4e9dc","system_id":"levelo_inurba_marseille","lat":43.30886,"lon":5.37204,"is_reserved":false,"is_disabled":false,"rental_uris":{"android":"levelo://app?vid=dcd98ba9-c8cc-4340-a071-62f2c6f4e9dc","ios":"levelo://app?vid=dcd98ba9-c8cc-4340-a071-62f2c6f4e9dc"},"vehicle_type_id":"4","last_reported":1730156943,"current_range_meters":6800,"station_id":"ce4bguh2rcd13ifvqckg","pricing_plan_id":"cebpf4jnsgd1na2vs0mg"},{"bike_id":"82aeab4e-d74d-4b17-9d95-0eab62ee46b1","system_id":"levelo_inurba_marseille","lat":43.30886,"lon":5.39638,"is_reserved":false,"is_disabled":false,"rental_uris":{"android":"levelo://app?vid=82aeab4e-d74d-4b17-9d95-0eab62ee46b1","ios":"levelo://app?vid=82aeab4e-d74d-4b17-9d95-0eab62ee46b1"},"vehicle_type_id":"4","last_reported":1730156943,"current_range_meters":38800,"station_id":"ce4bh012rcd13ifvqcv0","pricing_plan_id":"cebpf4jnsgd1na2vs0mg"},{"bike_id":"38b46ee2-0885-4055-9d4e-2d10fce41684","system_id":"levelo_inurba_marseille","lat":43.28441,"lon":5.39182,"is_reserved":false,"is_disabled":false,"rental_uris":{"android":"levelo://app?vid=38b46ee2-0885-4055-9d4e-2d10fce41684","ios":"levelo://app?vid=38b46ee2-0885-4055-9d4e-2d10fce41684"},"vehicle_type_id":"4","last_reported":1730156943,"current_range_meters":38800,"station_id":"ce4bhoh2rcd13ifvqh5g","pricing_plan_id":"cebpf4jnsgd1na2vs0mg"},{"bike_id":"1a84b4d1-8439-4895-8b00-5da5a3861707","system_id":"levelo_inurba_marseille","lat":43.2466,"lon":5.38159,"is_reserved":false,"is_disabled":false,"rental_uris":{"android":"levelo://app?vid=1a84b4d1-8439-4895-8b00-5da5a3861707","ios":"levelo://app?vid=1a84b4d1-8439-4895-8b00-5da5a3861707"},"vehicle_type_id":"4","last_reported":1730156943,"current_range_meters":19200,"station_id":"ce4bhih2rcd13ifvqfr0","pricing_plan_id":"cebpf4jnsgd1na2vs0mg"},{"bike_id":"5c05f131-a563-4378-9457-751dbcbf2546","system_id":"levelo_inurba_marseille","lat":43.28849,"lon":5.35849,"is_reserved":false,"is_disabled":false,"rental_uris":{"android":"levelo://app?vid=5c05f131-a563-4378-9457-751dbcbf2546","ios":"levelo://app?vid=5c05f131-a563-4378-9457-751dbcbf2546"},"vehicle_type_id":"4","last_reported":1730156943,"current_range_meters":28400,"station_id":"ce4bhb12rcd13ifvqem0","pricing_plan_id":"cebpf4jnsgd1na2vs0mg"},{"bike_id":"66fe0448-cafd-4b89-8fc1-aa5cd5fb729c","system_id":"levelo_inurba_marseille","lat":43.28478,"lon":5.38421,"is_reserved":false,"is_disabled":false,"rental_uris":{"android":"levelo://app?vid=66fe0448-cafd-4b89-8fc1-aa5cd5fb729c","ios":"levelo://app?vid=66fe0448-cafd-4b89-8fc1-aa5cd5fb729c"},"vehicle_type_id":"4","last_reported":1730156943,"current_range_meters":36800,"station_id":"ce4bh512rcd13ifvqe3g","pricing_plan_id":"cebpf4jnsgd1na2vs0mg"},{"bike_id":"269c5844-e323-479c-b1ba-6747c05ced69","system_id":"levelo_inurba_marseille","lat":43.28705,"lon":5.39987,"is_reserved":false,"is_disabled":false,"rental_uris":{"android":"levelo://app?vid=269c5844-e323-479c-b1ba-6747c05ced69","ios":"levelo://app?vid=269c5844-e323-479c-b1ba-6747c05ced69"},"vehicle_type_id":"4","last_reported":1730156943,"current_range_meters":38000,"station_id":"ce4bho92rcd13ifvqh3g","pricing_plan_id":"cebpf4jnsgd1na2vs0mg"},{"bike_id":"37635e21-b06e-48a7-92ec-abffe892e01e","system_id":"levelo_inurba_marseille","lat":43.30891,"lon":5.37203,"is_reserved":false,"is_disabled":false,"rental_uris":{"android":"levelo://app?vid=37635e21-b06e-48a7-92ec-abffe892e01e","ios":"levelo://app?vid=37635e21-b06e-48a7-92ec-abffe892e01e"},"vehicle_type_id":"4","last_reported":1730156943,"current_range_meters":38800,"station_id":"ce4bguh2rcd13ifvqckg","pricing_plan_id":"cebpf4jnsgd1na2vs0mg"},{"bike_id":"9af22c21-b6ab-41ec-bc12-bbf6b974396c","system_id":"levelo_inurba_marseille","lat":43.30313,"lon":5.36888,"is_reserved":false,"is_disabled":false,"rental_uris":{"android":"levelo://app?vid=9af22c21-b6ab-41ec-bc12-bbf6b974396c","ios":"levelo://app?vid=9af22c21-b6ab-41ec-bc12-bbf6b974396c"},"vehicle_type_id":"4","last_reported":1730156943,"current_range_meters":14400,"station_id":"ce4bh4p2rcd13ifvqe0g","pricing_plan_id":"cebpf4jnsgd1na2vs0mg"},{"bike_id":"59d8b387-6895-4e74-91e7-5aee194d2c18","system_id":"levelo_inurba_marseille","lat":43.30647,"lon":5.40079,"is_reserved":false,"is_disabled":false,"rental_uris":{"android":"levelo://app?vid=59d8b387-6895-4e74-91e7-5aee194d2c18","ios":"levelo://app?vid=59d8b387-6895-4e74-91e7-5aee194d2c18"},"vehicle_type_id":"4","last_reported":1730156943,"current_range_meters":40000,"station_id":"ce4bh112rcd13ifvqda0","pricing_plan_id":"cebpf4jnsgd1na2vs0mg"},{"bike_id":"afa749fe-3631-4313-9d85-5dce49d4d6cb","system_id":"levelo_inurba_marseille","lat":43.258475,"lon":5.399373,"is_reserved":false,"is_disabled":false,"rental_uris":{"android":"levelo://app?vid=afa749fe-3631-4313-9d85-5dce49d4d6cb","ios":"levelo://app?vid=afa749fe-3631-4313-9d85-5dce49d4d6cb"},"vehicle_type_id":"4","last_reported":1730156943,"current_range_meters":38800,"station_id":"ce4bhl92rcd13ifvqghg","pricing_plan_id":"cebpf4jnsgd1na2vs0mg"},{"bike_id":"f474737c-417e-4fa3-9fb7-32dfdb567584","system_id":"levelo_inurba_marseille","lat":43.30308,"lon":5.36888,"is_reserved":false,"is_disabled":false,"rental_uris":{"android":"levelo://app?vid=f474737c-417e-4fa3-9fb7-32dfdb567584","ios":"levelo://app?vid=f474737c-417e-4fa3-9fb7-32dfdb567584"},"vehicle_type_id":"4","last_reported":1730156943,"current_range_meters":30000,"station_id":"ce4bgqh2rcd13ifvqc5g","pricing_plan_id":"cebpf4jnsgd1na2vs0mg"},{"bike_id":"bc38b640-5a30-4314-86cf-c4be8572290c","system_id":"levelo_inurba_marseille","lat":43.28951,"lon":5.36396,"is_reserved":false,"is_disabled":false,"rental_uris":{"android":"levelo://app?vid=bc38b640-5a30-4314-86cf-c4be8572290c","ios":"levelo://app?vid=bc38b640-5a30-4314-86cf-c4be8572290c"},"vehicle_type_id":"4","last_reported":1730156943,"current_range_meters":17600,"station_id":"ce4bhc92rcd13ifvqetg","pricing_plan_id":"cebpf4jnsgd1na2vs0mg"},{"bike_id":"f868bb34-7843-446d-b500-343057d56adc","system_id":"levelo_inurba_marseille","lat":43.28457,"lon":5.35881,"is_reserved":false,"is_disabled":false,"rental_uris":{"android":"levelo://app?vid=f868bb34-7843-446d-b500-343057d56adc","ios":"levelo://app?vid=f868bb34-7843-446d-b500-343057d56adc"},"vehicle_type_id":"4","last_reported":1730156943,"current_range_meters":28400,"station_id":"ce4bhah2rcd13ifvqei0","pricing_plan_id":"cebpf4jnsgd1na2vs0mg"},{"bike_id":"f4b58118-bd8b-48c2-94fd-250965cf9e7a","system_id":"levelo_inurba_marseille","lat":43.23185,"lon":5.399808,"is_reserved":false,"is_disabled":false,"rental_uris":{"android":"levelo://app?vid=f4b58118-bd8b-48c2-94fd-250965cf9e7a","ios":"levelo://app?vid=f4b58118-bd8b-48c2-94fd-250965cf9e7a"},"vehicle_type_id":"4","last_reported":1730156943,"current_range_meters":28400,"station_id":"ce4bhn12rcd13ifvqgqg","pricing_plan_id":"cebpf4jnsgd1na2vs0mg"},{"bike_id":"e204fae9-c448-4403-800d-f9f2113ea37b","system_id":"levelo_inurba_marseille","lat":43.30774,"lon":5.37657,"is_reserved":false,"is_disabled":false,"rental_uris":{"android":"levelo://app?vid=e204fae9-c448-4403-800d-f9f2113ea37b","ios":"levelo://app?vid=e204fae9-c448-4403-800d-f9f2113ea37b"},"vehicle_type_id":"4","last_reported":1730156943,"current_range_meters":16400,"station_id":"ce4bgv92rcd13ifvqcq0","pricing_plan_id":"cebpf4jnsgd1na2vs0mg"},{"bike_id":"58a7c0d4-0cf2-4cf9-879c-5fd78ebca88b","system_id":"levelo_inurba_marseille","lat":43.29059,"lon":5.35927,"is_reserved":false,"is_disabled":false,"rental_uris":{"android":"levelo://app?vid=58a7c0d4-0cf2-4cf9-879c-5fd78ebca88b","ios":"levelo://app?vid=58a7c0d4-0cf2-4cf9-879c-5fd78ebca88b"},"vehicle_type_id":"4","last_reported":1730156943,"current_range_meters":34800,"station_id":"ce4bha92rcd13ifvqeg0","pricing_plan_id":"cebpf4jnsgd1na2vs0mg"},{"bike_id":"96be379b-25c9-4df6-a7e1-d02fd6e58f6d","system_id":"levelo_inurba_marseille","lat":43.25825,"lon":5.39433,"is_reserved":false,"is_disabled":false,"rental_uris":{"android":"levelo://app?vid=96be379b-25c9-4df6-a7e1-d02fd6e58f6d","ios":"levelo://app?vid=96be379b-25c9-4df6-a7e1-d02fd6e58f6d"},"vehicle_type_id":"4","last_reported":1730156943,"current_range_meters":30400,"station_id":"ce4bhip2rcd13ifvqft0","pricing_plan_id":"cebpf4jnsgd1na2vs0mg"},{"bike_id":"939e3fab-27e3-4316-a5e5-8bd3ec2713f7","system_id":"levelo_inurba_marseille","lat":43.24662,"lon":5.38158,"is_reserved":false,"is_disabled":false,"rental_uris":{"android":"levelo://app?vid=939e3fab-27e3-4316-a5e5-8bd3ec2713f7","ios":"levelo://app?vid=939e3fab-27e3-4316-a5e5-8bd3ec2713f7"},"vehicle_type_id":"4","last_reported":1730156943,"current_range_meters":36800,"station_id":"ce4bhih2rcd13ifvqfr0","pricing_plan_id":"cebpf4jnsgd1na2vs0mg"},{"bike_id":"b6717585-220f-454c-b28f-f8b5581443e9","system_id":"levelo_inurba_marseille","lat":43.27495,"lon":5.42449,"is_reserved":false,"is_disabled":false,"rental_uris":{"android":"levelo://app?vid=b6717585-220f-454c-b28f-f8b5581443e9","ios":"levelo://app?vid=b6717585-220f-454c-b28f-f8b5581443e9"},"vehicle_type_id":"4","last_reported":1730156943,"current_range_meters":2800,"station_id":"ce4bhn92rcd13ifvqgrg","pricing_plan_id":"cebpf4jnsgd1na2vs0mg"},{"bike_id":"458b3b31-5448-4ddd-b66c-7bc07285ff47","system_id":"levelo_inurba_marseille","lat":43.28699,"lon":5.37379,"is_reserved":false,"is_disabled":false,"rental_uris":{"android":"levelo://app?vid=458b3b31-5448-4ddd-b66c-7bc07285ff47","ios":"levelo://app?vid=458b3b31-5448-4ddd-b66c-7bc07285ff47"},"vehicle_type_id":"4","last_reported":1730156943,"current_range_meters":27600,"station_id":"ce4bh3p2rcd13ifvqdq0","pricing_plan_id":"cebpf4jnsgd1na2vs0mg"},{"bike_id":"bef4f8fd-15b4-4a7a-a7db-62ac1e75cbee","system_id":"levelo_inurba_marseille","lat":43.281809,"lon":5.380927,"is_reserved":false,"is_disabled":false,"rental_uris":{"android":"levelo://app?vid=bef4f8fd-15b4-4a7a-a7db-62ac1e75cbee","ios":"levelo://app?vid=bef4f8fd-15b4-4a7a-a7db-62ac1e75cbee"},"vehicle_type_id":"4","last_reported":1730156943,"current_range_meters":32400,"station_id":"ce4bhip2rcd13ifvqft0","pricing_plan_id":"cebpf4jnsgd1na2vs0mg"},