{"last_updated":1687090319,"ttl":30,"version":"2.2","data":{"bikes":[{"bike_id":"833cc643-7a0b-43b4-8611-0dc0a866c5ca","system_id":"levelo_inurba_marseille","lat":43.312239,"lon":5.368562,"is_reserved":false,"is_disabled":false,"rental_uris":{"android":"levelo://app?vid=833cc643-7a0b-43b4-8611-0dc0a866c5ca","ios":"levelo://app?vid=833cc643-7a0b-43b4-8611-0dc0a866c5ca"},"vehicle_type_id":"4","last_reported":1687090320,"current_range_meters":31200,"station_id":"ce4bgl92rcd13ifvqbq0","pricing_plan_id":"free"},{"bike_id":"bc5dfdcd-9f3f-442f-8ff0-f90c18be3eef","system_id":"levelo_inurba_marseille","lat":43.30814,"lon":5.37042,"is_reserved":false,"is_disabled":false,"rental_uris":{"android":"levelo://app?vid=bc5dfdcd-9f3f-442f-8ff0-f90c18be3eef","ios":"levelo://app?vid=bc5dfdcd-9f3f-442f-8ff0-f90c18be3eef"},"vehicle_type_id":"4","last_reported":1687090320,"current_range_meters":0,"station_id":"","pricing_plan_id":"free"},{"bike_id":"9c746439-937e-436d-8c66-cb90c42aae7f","system_id":"levelo_inurba_marseille","lat":43.31374,"lon":5.37671,"is_reserved":false,"is_disabled":false,"rental_uris":{"android":"levelo://app?vid=9c746439-937e-436d-8c66-cb90c42aae7f","ios":"levelo://app?vid=9c746439-937e-436d-8c66-cb90c42aae7f"},"vehicle_type_id":"4","last_reported":1687090320,"current_range_meters":24800,"station_id":"","pricing_plan_id":"free"},{"bike_id":"95edd669-fce3-4f29-80ba-6529e95c6952","system_id":"levelo_inurba_marseille","lat":43.305706,"lon":5.365654,"is_reserved":false,"is_disabled":false,"rental_uris":{"android":"levelo://app?vid=95edd669-fce3-4f29-80ba-6529e95c6952","ios":"levelo://app?vid=95edd669-fce3-4f29-80ba-6529e95c6952"},"vehicle_type_id":"4","last_reported":1687090320,"current_range_meters":2400,"station_id":"ce4bgs12rcd13ifvqcag","pricing_plan_id":"free"},{"bike_id":"d5243b51-c85a-447e-871e-3c1e9f540206","system_id":"levelo_inurba_marseille","lat":43.311131,"lon":5.377651,"is_reserved":false,"is_disabled":false,"rental_uris":{"android":"levelo://app?vid=d5243b51-c85a-447e-871e-3c1e9f540206","ios":"levelo://app?vid=d5243b51-c85a-447e-871e-3c1e9f540206"},"vehicle_type_id":"4","last_reported":1687090320,"current_range_meters":23600,"station_id":"ce4bgt92rcd13ifvqcg0","pricing_plan_id":"free"},{"bike_id":"10440328-ad12-4ab3-b5df-33aee62ac930","system_id":"levelo_inurba_marseille","lat":43.311131,"lon":5.377651,"is_reserved":false,"is_disabled":false,"rental_uris":{"android":"levelo://app?vid=10440328-ad12-4ab3-b5df-33aee62ac930","ios":"levelo://app?vid=10440328-ad12-4ab3-b5df-33aee62ac930"},"vehicle_type_id":"4","last_reported":1687090320,"current_range_meters":23200,"station_id":"ce4bgt92rcd13ifvqcg0","pricing_plan_id":"free"},{"bike_id":"ace1e690-3dfa-497b-ae95-b16cd30dbd70","system_id":"levelo_inurba_marseille","lat":43.311125,"lon":5.377624,"is_reserved":false,"is_disabled":false,"rental_uris":{"android":"levelo://app?vid=ace1e690-3dfa-497b-ae95-b16cd30dbd70","ios":"levelo://app?vid=ace1e690-3dfa-497b-ae95-b16cd30dbd70"},"vehicle_type_id":"4","last_reported":1687090320,"current_range_meters":21600,"station_id":"ce4bgt92rcd13ifvqcg0","pricing_plan_id":"free"},{"bike_id":"2424216c-0462-4ad0-b127-d0366c91b61c","system_id":"levelo_inurba_marseille","lat":43.31699,"lon":5.37674,"is_reserved":false,"is_disabled":false,"rental_uris":{"android":"levelo://app?vid=2424216c-0462-4ad0-b127-d0366c91b61c","ios":"levelo://app?vid=2424216c-0462-4ad0-b127-d0366c91b61c"},"vehicle_type_id":"4","last_reported":1687090320,"current_range_meters":28800,"station_id":"","pricing_plan_id":"free"},{"bike_id":"03c63a22-5af4-4731-b58c-68faf2f7a292","system_id":"levelo_inurba_marseille","lat":43.31856,"lon":5.37568,"is_reserved":false,"is_disabled":false,"rental_uris":{"android":"levelo://app?vid=03c63a22-5af4-4731-b58c-68faf2f7a292","ios":"levelo://app?vid=03c63a22-5af4-4731-b58c-68faf2f7a292"},"vehicle_type_id":"4","last_reported":1687090320,"current_range_meters":29200,"station_id":"","pricing_plan_id":"free"},{"bike_id":"142ea6ff-5a56-4e78-a0fb-fc43c2431b5c","system_id":"levelo_inurba_marseille","lat":43.31708,"lon":5.37739,"is_reserved":false,"is_disabled":false,"rental_uris":{"android":"levelo://app?vid=142ea6ff-5a56-4e78-a0fb-fc43c2431b5c","ios":"levelo://app?vid=142ea6ff-5a56-4e78-a0fb-fc43c2431b5c"},"vehicle_type_id":"4","last_reported":1687090320,"current_range_meters":28000,"station_id":"ce4bgth2rcd13ifvqch0","pricing_plan_id":"free"},{"bike_id":"654dc0a4-0f40-4ec7-9813-7d9d37dcf374","system_id":"levelo_inurba_marseille","lat":43.30295,"lon":5.36868,"is_reserved":false,"is_disabled":false,"rental_uris":{"android":"levelo://app?vid=654dc0a4-0f40-4ec7-9813-7d9d37dcf374","ios":"levelo://app?vid=654dc0a4-0f40-4ec7-9813-7d9d37dcf374"},"vehicle_type_id":"4","last_reported":1687090320,"current_range_meters":20400,"station_id":"","pricing_plan_id":"free"},{"bike_id":"8d51db3c-ddf0-4868-a42f-0868b9c8ed86","system_id":"levelo_inurba_marseille","lat":43.31538,"lon":5.38016,"is_reserved":false,"is_disabled":false,"rental_uris":{"android":"levelo://app?vid=8d51db3c-ddf0-4868-a42f-0868b9c8ed86","ios":"levelo://app?vid=8d51db3c-ddf0-4868-a42f-0868b9c8ed86"},"vehicle_type_id":"4","last_reported":1687090320,"current_range_meters":30000,"station_id":"ce4bhsp2rcd13ifvqi50","pricing_plan_id":"free"},{"bike_id":"cada2054-cd0b-4ffd-b35d-70e3683fc5a7","system_id":"levelo_inurba_marseille","lat":43.315293,"lon":5.380349,"is_reserved":false,"is_disabled":false,"rental_uris":{"android":"levelo://app?vid=cada2054-cd0b-4ffd-b35d-70e3683fc5a7","ios":"levelo://app?vid=cada2054-cd0b-4ffd-b35d-70e3683fc5a7"},"vehicle_type_id":"4","last_reported":1687090320,"current_range_meters":29600,"station_id":"ce4bhsp2rcd13ifvqi50","pricing_plan_id":"free"},{"bike_id":"987d4e9d-750e-47a4-b25f-0e9a27d35f89","system_id":"levelo_inurba_marseille","lat":43.30206,"lon":5.36911,"is_reserved":false,"is_disabled":false,"rental_uris":{"android":"levelo://app?vid=987d4e9d-750e-47a4-b25f-0e9a27d35f89","ios":"levelo://app?vid=987d4e9d-750e-47a4-b25f-0e9a27d35f89"},"vehicle_type_id":"4","last_reported":1687090320,"current_range_meters":4000,"station_id":"","pricing_plan_id":"free"},{"bike_id":"ae33307b-fcd5-479b-9ae1-9002ed226c6e","system_id":"levelo_inurba_marseille","lat":43.308012,"lon":5.381511,"is_reserved":false,"is_disabled":false,"rental_uris":{"android":"levelo://app?vid=ae33307b-fcd5-479b-9ae1-9002ed226c6e","ios":"levelo://app?vid=ae33307b-fcd5-479b-9ae1-9002ed226c6e"},"vehicle_type_id":"4","last_reported":1687090320,"current_range_meters":30000,"station_id":"ce4bgt12rcd13ifvqce0","pricing_plan_id":"free"},{"bike_id":"03864e17-6535-400c-87d2-2f69baa80628","system_id":"levelo_inurba_marseille","lat":43.304606,"lon":5.379026,"is_reserved":false,"is_disabled":false,"rental_uris":{"android":"levelo://app?vid=03864e17-6535-400c-87d2-2f69baa80628","ios":"levelo://app?vid=03864e17-6535-400c-87d2-2f69baa80628"},"vehicle_type_id":"4","last_reported":1687090320,"current_range_meters":18400,"station_id":"ce4bgup2rcd13ifvqcn0","pricing_plan_id":"free"},{"bike_id":"060c3163-0f41-4447-b2d4-a9735fe4f1d3","system_id":"levelo_inurba_marseille","lat":43.304606,"lon":5.379026,"is_reserved":false,"is_disabled":false,"rental_uris":{"android":"levelo://app?vid=060c3163-0f41-4447-b2d4-a9735fe4f1d3","ios":"levelo://app?vid=060c3163-0f41-4447-b2d4-a9735fe4f1d3"},"vehicle_type_id":"4","last_reported":1687090320,"current_range_meters":15200,"station_id":"ce4bgup2rcd13ifvqcn0","pricing_plan_id":"free"},{"bike_id":"43fc693e-f2a9-4aec-8fd9-d094bb02cb70","system_id":"levelo_inurba_marseille","lat":43.304606,"lon":5.379026,"is_reserved":false,"is_disabled":false,"rental_uris":{"android":"levelo://app?vid=43fc693e-f2a9-4aec-8fd9-d094bb02cb70","ios":"levelo://app?vid=43fc693e-f2a9-4aec-8fd9-d094bb02cb70"},"vehicle_type_id":"4","last_reported":1687090320,"current_range_meters":17600,"station_id":"ce4bgup2rcd13ifvqcn0","pricing_plan_id":"free"},{"bike_id":"09cd0a2f-5397-440d-bdb7-da28f031f592","system_id":"levelo_inurba_marseille","lat":43.30276,"lon":5.37694,"is_reserved":false,"is_disabled":false,"rental_uris":{"android":"levelo://app?vid=09cd0a2f-5397-440d-bdb7-da28f031f592","ios":"levelo://app?vid=09cd0a2f-5397-440d-bdb7-da28f031f592"},"vehicle_type_id":"4","last_reported":1687090320,"current_range_meters":2800,"station_id":"ce4bguh2rcd13ifvqcj0","pricing_plan_id":"free"},{"bike_id":"6e7d472e-f6f0-49e0-9abf-e02754fc5df6","system_id":"levelo_inurba_marseille","lat":43.302784,"lon":5.377158,"is_reserved":false,"is_disabled":false,"rental_uris":{"android":"levelo://app?vid=6e7d472e-f6f0-49e0-9abf-e02754fc5df6","ios":"levelo://app?vid=6e7d472e-f6f0-49e0-9abf-e02754fc5df6"},"vehicle_type_id":"4","last_reported":1687090320,"current_range_meters":17200,"station_id":"ce4bguh2rcd13ifvqcj0","pricing_plan_id":"free"},{"bike_id":"347c0726-ee6a-486b-b3ba-7483c9f13b96","system_id":"levelo_inurba_marseille","lat":43.30145,"lon":5.37421,"is_reserved":false,"is_disabled":false,"rental_uris":{"android":"levelo://app?vid=347c0726-ee6a-486b-b3ba-7483c9f13b96","ios":"levelo://app?vid=347c0726-ee6a-486b-b3ba-7483c9f13b96"},"vehicle_type_id":"4","last_reported":1687090320,"current_range_meters":12800,"station_id":"ce4bgs92rcd13ifvqcc0","pricing_plan_id":"free"},{"bike_id":"9d997f51-8b4f-4066-8e74-38cb555e670c","system_id":"levelo_inurba_marseille","lat":43.31989,"lon":5.38148,"is_reserved":false,"is_disabled":false,"rental_uris":{"android":"levelo://app?vid=9d997f51-8b4f-4066-8e74-38cb555e670c","ios":"levelo://app?vid=9d997f51-8b4f-4066-8e74-38cb555e670c"},"vehicle_type_id":"4","last_reported":1687090320,"current_range_meters":12000,"station_id":"ce4bhr12rcd13ifvqhpg","pricing_plan_id":"free"},{"bike_id":"4c755050-5aed-45e0-9296-927fc41158ba","system_id":"levelo_inurba_marseille","lat":43.319935,"lon":5.381699,"is_reserved":false,"is_disabled":false,"rental_uris":{"android":"levelo://app?vid=4c755050-5aed-45e0-9296-927fc41158ba","ios":"levelo://app?vid=4c755050-5aed-45e0-9296-927fc41158ba"},"vehicle_type_id":"4","last_reported":1687090320,"current_range_meters":25600,"station_id":"ce4bhr12rcd13ifvqhpg","pricing_plan_id":"free"},{"bike_id":"3c3aa989-db63-4017-86a4-556c2b8f3d59","system_id":"levelo_inurba_marseille","lat":43.319935,"lon":5.381699,"is_reserved":false,"is_disabled":false,"rental_uris":{"android":"levelo://app?vid=3c3aa989-db63-4017-86a4-556c2b8f3d59","ios":"levelo://app?vid=3c3aa989-db63-4017-86a4-556c2b8f3d59"},"vehicle_type_id":"4","last_reported":1687090320,"current_range_meters":18000,"station_id":"ce4bhr12rcd13ifvqhpg","pricing_plan_id":"free"},{"bike_id":"485bc12e-b97d-460d-a761-3f26cdf7abb4","system_id":"levelo_inurba_marseille","lat":43.319935,"lon":5.381699,"is_reserved":false,"is_disabled":false,"rental_uris":{"android":"levelo://app?vid=485bc12e-b97d-460d-a761-3f26cdf7abb4","ios":"levelo://app?vid=485bc12e-b97d-460d-a761-3f26cdf7abb4"},"vehicle_type_id":"4","last_reported":1687090320,"current_range_meters":26800,"station_id":"ce4bhr12rcd13ifvqhpg","pricing_plan_id":"free"},{"bike_id":"9c86f558-447b-4705-af19-5f24f92d1730","system_id":"levelo_inurba_marseille","lat":43.313571,"lon":5.384829,"is_reserved":false,"is_disabled":false,"rental_uris":{"android":"levelo://app?vid=9c86f558-447b-4705-af19-5f24f92d1730","ios":"levelo://app?vid=9c86f558-447b-4705-af19-5f24f92d1730"},"vehicle_type_id":"4","last_reported":1687090320,"current_range_meters":27200,"station_id":"ce4bgt92rcd13ifvqcf0","pricing_plan_id":"free"},{"bike_id":"82e36e69-7682-4804-bd27-143b685964ea","system_id":"levelo_inurba_marseille","lat":43.313571,"lon":5.384829,"is_reserved":false,"is_disabled":false,"rental_uris":{"android":"levelo://app?vid=82e36e69-7682-4804-bd27-143b685964ea","ios":"levelo://app?vid=82e36e69-7682-4804-bd27-143b685964ea"},"vehicle_type_id":"4","last_reported":1687090320,"current_range_meters":25600,"station_id":"ce4bgt92rcd13ifvqcf0","pricing_plan_id":"free"},{"bike_id":"12485870-a2c8-4133-aa78-7e12dc0b3637","system_id":"levelo_inurba_marseille","lat":43.313571,"lon":5.384829,"is_reserved":false,"is_disabled":false,"rental_uris":{"android":"levelo://app?vid=12485870-a2c8-4133-aa78-7e12dc0b3637","ios":"levelo://app?vid=12485870-a2c8-4133-aa78-7e12dc0b3637"},"vehicle_type_id":"4","last_reported":1687090320,"current_range_meters":27600,"station_id":"ce4bgt92rcd13ifvqcf0","pricing_plan_id":"free"},{"bike_id":"1d47b2e2-b6b2-467e-89b2-30c2b3dd988b","system_id":"levelo_inurba_marseille","lat":43.3137,"lon":5.38521,"is_reserved":false,"is_disabled":false,"rental_uris":{"android":"levelo://app?vid=1d47b2e2-b6b2-467e-89b2-30c2b3dd988b","ios":"levelo://app?vid=1d47b2e2-b6b2-467e-89b2-30c2b3dd988b"},"vehicle_type_id":"4","last_reported":1687090320,"current_range_meters":11600,"station_id":"","pricing_plan_id":"free"},{"bike_id":"330412da-b9eb-49fa-9ba0-9288ee9ddd31","system_id":"levelo_inurba_marseille","lat":43.30054,"lon":5.37514,"is_reserved":false,"is_disabled":false,"rental_uris":{"android":"levelo://app?vid=330412da-b9eb-49fa-9ba0-9288ee9ddd31","ios":"levelo://app?vid=330412da-b9eb-49fa-9ba0-9288ee9ddd31"},"vehicle_type_id":"4","last_reported":1687090320,"current_range_meters":14800,"station_id":"","pricing_plan_id":"free"},{"bike_id":"8585fa7b-0f2f-412c-a5af-2eec4d6f7cd8","system_id":"levelo_inurba_marseille","lat":43.298433,"lon":5.362774,"is_reserved":false,"is_disabled":false,"rental_uris":{"android":"levelo://app?vid=8585fa7b-0f2f-412c-a5af-2eec4d6f7cd8","ios":"levelo://app?vid=8585fa7b-0f2f-412c-a5af-2eec4d6f7cd8"},"vehicle_type_id":"4","last_reported":1687090320,"current_range_meters":31200,"station_id":"ce4bgpp2rcd13ifvqc3g","pricing_plan_id":"free"},{"bike_id":"3de56f48-5eab-4abc-b0ba-5b8ed9cee032","system_id":"levelo_inurba_marseille","lat":43.298433,"lon":5.362774,"is_reserved":false,"is_disabled":false,"rental_uris":{"android":"levelo://app?vid=3de56f48-5eab-4abc-b0ba-5b8ed9cee032","ios":"levelo://app?vid=3de56f48-5eab-4abc-b0ba-5b8ed9cee032"},"vehicle_type_id":"4","last_reported":1687090320,"current_range_meters":19600,"station_id":"ce4bgpp2rcd13ifvqc3g","pricing_plan_id":"free"},{"bike_id":"f85b3b8d-0cdd-4254-9d33-ad5471b0c0ea","system_id":"levelo_inurba_marseille","lat":43.298433,"lon":5.362774,"is_reserved":false,"is_disabled":false,"rental_uris":{"android":"levelo://app?vid=f85b3b8d-0cdd-4254-9d33-ad5471b0c0ea","ios":"levelo://app?vid=f85b3b8d-0cdd-4254-9d33-ad5471b0c0ea"},"vehicle_type_id":"4","last_reported":1687090320,"current_range_meters":31200,"station_id":"ce4bgpp2rcd13ifvqc3g","pricing_plan_id":"free"},{"bike_id":"cb15bb72-0e0a-428f-86da-2268e392f117","system_id":"levelo_inurba_marseille","lat":43.298433,"lon":5.362774,"is_reserved":false,"is_disabled":false,"rental_uris":{"android":"levelo://app?vid=cb15bb72-0e0a-428f-86da-2268e392f117","ios":"levelo://app?vid=cb15bb72-0e0a-428f-86da-2268e392f117"},"vehicle_type_id":"4","last_reported":1687090320,"current_range_meters":29200,"station_id":"ce4bgpp2rcd13ifvqc3g","pricing_plan_id":"free"},{"bike_id":"c981c3dc-8ac8-4ce2-8031-ed68d66c3a9e","system_id":"levelo_inurba_marseille","lat":43.298433,"lon":5.362774,"is_reserved":false,"is_disabled":false,"rental_uris":{"android":"levelo://app?vid=c981c3dc-8ac8-4ce2-8031-ed68d66c3a9e","ios":"levelo://app?vid=c981c3dc-8ac8-4ce2-8031-ed68d66c3a9e"},"vehicle_type_id":"4","last_reported":1687090320,"current_range_meters":26400,"station_id":"ce4bgpp2rcd13ifvqc3g","pricing_plan_id":"free"},{"bike_id":"686a213e-42f5-458f-a677-d9aa05f7eb68","system_id":"levelo_inurba_marseille","lat":43.298433,"lon":5.362774,"is_reserved":false,"is_disabled":false,"rental_uris":{"android":"levelo://app?vid=686a213e-42f5-458f-a677-d9aa05f7eb68","ios":"levelo://app?vid=686a213e-42f5-458f-a677-d9aa05f7eb68"},"vehicle_type_id":"4","last_reported":1687090320,"current_range_meters":31200,"station_id":"ce4bgpp2rcd13ifvqc3g","pricing_plan_id":"free"},{"bike_id":"3ac3da94-1df9-4fb5-a3cf-48ae86c1f3b5","system_id":"levelo_inurba_marseille","lat":43.311722,"lon":5.387247,"is_reserved":false,"is_disabled":false,"rental_uris":{"android":"levelo://app?vid=3ac3da94-1df9-4fb5-a3cf-48ae86c1f3b5","ios":"levelo://app?vid=3ac3da94-1df9-4fb5-a3cf-48ae86c1f3b5"},"vehicle_type_id":"4","last_reported":1687090320,"current_range_meters":30800,"station_id":"ce4bgv12rcd13ifvqcp0","pricing_plan_id":"free"},{"bike_id":"e77d7ab0-1c57-4844-a9fc-2e2666c6ca94","system_id":"levelo_inurba_marseille","lat":43.29774,"lon":5.36954,"is_reserved":false,"is_disabled":false,"rental_uris":{"android":"levelo://app?vid=e77d7ab0-1c57-4844-a9fc-2e2666c6ca94","ios":"levelo://app?vid=e77d7ab0-1c57-4844-a9fc-2e2666c6ca94"},"vehicle_type_id":"4","last_reported":1687090320,"current_range_meters":30800,"station_id":"","pricing_plan_id":"free"},{"bike_id":"ea3f2141-7fd3-4530-b483-cfb8fb834112","system_id":"levelo_inurba_marseille","lat":43.29783,"lon":5.37099,"is_reserved":false,"is_disabled":false,"rental_uris":{"android":"levelo://app?vid=ea3f2141-7fd3-4530-b483-cfb8fb834112","ios":"levelo://app?vid=ea3f2141-7fd3-4530-b483-cfb8fb834112"},"vehicle_type_id":"4","last_reported":1687090320,"current_range_meters":28400,"station_id":"ce4bgop2rcd13ifvqc1g","pricing_plan_id":"free"},{"bike_id":"dba9e30e-a749-43fa-a75b-51b691339771","system_id":"levelo_inurba_marseille","lat":43.328371,"lon":5.366909,"is_reserved":false,"is_disabled":false,"rental_uris":{"android":"levelo://app?vid=dba9e30e-a749-43fa-a75b-51b691339771","ios":"levelo://app?vid=dba9e30e-a749-43fa-a75b-51b691339771"},"vehicle_type_id":"4","last_reported":1687090320,"current_range_meters":30800,"station_id":"ce4bhs92rcd13ifvqi0g","pricing_plan_id":"free"},{"bike_id":"3b343a5c-8423-476a-a7c8-83278a85a66d","system_id":"levelo_inurba_marseille","lat":43.328371,"lon":5.366909,"is_reserved":false,"is_disabled":false,"rental_uris":{"android":"levelo://app?vid=3b343a5c-8423-476a-a7c8-83278a85a66d","ios":"levelo://app?vid=3b343a5c-8423-476a-a7c8-83278a85a66d"},"vehicle_type_id":"4","last_reported":1687090320,"current_range_meters":30400,"station_id":"ce4bhs92rcd13ifvqi0g","pricing_plan_id":"free"},{"bike_id":"eb463cab-b54c-4ed2-a710-d6d777606789","system_id":"levelo_inurba_marseille","lat":43.32828,"lon":5.36698,"is_reserved":false,"is_disabled":false,"rental_uris":{"android":"levelo://app?vid=eb463cab-b54c-4ed2-a710-d6d777606789","ios":"levelo://app?vid=eb463cab-b54c-4ed2-a710-d6d777606789"},"vehicle_type_id":"4","last_reported":1687090320,"current_range_meters":18000,"station_id":"ce4bhs92rcd13ifvqi0g","pricing_plan_id":"free"},{"bike_id":"78911849-321a-41c5-b67b-eefecdab885b","system_id":"levelo_inurba_marseille","lat":43.328371,"lon":5.366909,"is_reserved":false,"is_disabled":false,"rental_uris":{"android":"levelo://app?vid=78911849-321a-41c5-b67b-eefecdab885b","ios":"levelo://app?vid=78911849-321a-41c5-b67b-eefecdab885b"},"vehicle_type_id":"4","last_reported":1687090320,"current_range_meters":16800,"station_id":"ce4bhs92rcd13ifvqi0g","pricing_plan_id":"free"},{"bike_id":"6d5ccf33-759a-4c7a-af82-9f67388b4177","system_id":"levelo_inurba_marseille","lat":43.328371,"lon":5.366909,"is_reserved":false,"is_disabled":false,"rental_uris":{"android":"levelo://app?vid=6d5ccf33-759a-4c7a-af82-9f67388b4177","ios":"levelo://app?vid=6d5ccf33-759a-4c7a-af82-9f67388b4177"},"vehicle_type_id":"4","last_reported":1687090320,"current_range_meters":30400,"station_id":"ce4bhs92rcd13ifvqi0g","pricing_plan_id":"free"},{"bike_id":"69bf5c29-7e5d-45c7-b1b2-514d42707ee7","system_id":"levelo_inurba_marseille","lat":43.328371,"lon":5.366909,"is_reserved":false,"is_disabled":false,"rental_uris":{"android":"levelo://app?vid=69bf5c29-7e5d-45c7-b1b2-514d42707ee7","ios":"levelo://app?vid=69bf5c29-7e5d-45c7-b1b2-514d42707ee7"},"vehicle_type_id":"4","last_reported":1687090320,"current_range_meters":30800,"station_id":"ce4bhs92rcd13ifvqi0g","pricing_plan_id":"free"},{"bike_id":"d4175595-0982-4085-a219-346e22f36d28","system_id":"levelo_inurba_marseille","lat":43.328371,"lon":5.366909,"is_reserved":false,"is_disabled":false,"rental_uris":{"android":"levelo://app?vid=d4175595-0982-4085-a219-346e22f36d28","ios":"levelo://app?vid=d4175595-0982-4085-a219-346e22f36d28"},"vehicle_type_id":"4","last_reported":1687090320,"current_range_meters":30400,"station_id":"ce4bhs92rcd13ifvqi0g","pricing_plan_id":"free"},{"bike_id":"731cce5d-c725-402d-b941-54910a08f036","system_id":"levelo_inurba_marseille","lat":43.328371,"lon":5.366909,"is_reserved":false,"is_disabled":false,"rental_uris":{"android":"levelo://app?vid=731cce5d-c725-402d-b941-54910a08f036","ios":"levelo://app?vid=731cce5d-c725-402d-b941-54910a08f036"},"vehicle_type_id":"4","last_reported":1687090320,"current_range_meters":30400,"station_id":"ce4bhs92rcd13ifvqi0g","pricing_plan_id":"free"},{"bike_id":"7305d8d9-7d56-41c2-ae77-869303774f4d","system_id":"levelo_inurba_marseille","lat":43.328371,"lon":5.366909,"is_reserved":false,"is_disabled":false,"rental_uris":{"android":"levelo://app?vid=7305d8d9-7d56-41c2-ae77-869303774f4d","ios":"levelo://app?vid=7305d8d9-7d56-41c2-ae77-869303774f4d"},"vehicle_type_id":"4","last_reported":1687090320,"current_range_meters":15600,"station_id":"ce4bhs92rcd13ifvqi0g","pricing_plan_id":"free"},{"bike_id":"d274035b-0f58-4337-b3a4-00d4c36764fe","system_id":"levelo_inurba_marseille","lat":43.297163,"lon":5.365866,"is_reserved":false,"is_disabled":false,"rental_uris":{"android":"levelo://app?vid=d274035b-0f58-4337-b3a4-00d4c36764fe","ios":"levelo://app?vid=d274035b-0f58-4337-b3a4-00d4c36764fe"},"vehicle_type_id":"4","last_reported":1687090320,"current_range_meters":27600,"station_id":"ce4bgn12rcd13ifvqbt0","pricing_plan_id":"free"},{"bike_id":"9e60ff88-fe04-4b70-9af4-05a83fe316c7","system_id":"levelo_inurba_marseille","lat":43.328371,"lon":5.366909,"is_reserved":false,"is_disabled":false,"rental_uris":{"android":"levelo://app?vid=9e60ff88-fe04-4b70-9af4-05a83fe316c7","ios":"levelo://app?vid=9e60ff88-fe04-4b70-9af4-05a83fe316c7"},"vehicle_type_id":"4","last_reported":1687090320,"current_range_meters":29600,"station_id":"ce4bhs92rcd13ifvqi0g","pricing_plan_id":"free"},{"bike_id":"01003604-ca83-4a0f-a050-81143b6da389","system_id":"levelo_inurba_marseille","lat":43.328371,"lon":5.366909,"is_reserved":false,"is_disabled":false,"rental_uris":{"android":"levelo://app?vid=01003604-ca83-4a0f-a050-81143b6da389","ios":"levelo://app?vid=01003604-ca83-4a0f-a050-81143b6da389"},"vehicle_type_id":"4","last_reported":1687090320,"current_range_meters":31200,"station_id":"ce4bhs92rcd13ifvqi0g","pricing_plan_id":"free"},{"bike_id":"b733d874-6932-4703-b114-609cbc1d40e3","system_id":"levelo_inurba_marseille","lat":43.297163,"lon":5.365866,"is_reserved":false,"is_disabled":false,"rental_uris":{"android":"levelo://app?vid=b733d874-6932-4703-b114-609cbc1d40e3","ios":"levelo://app?vid=b733d874-6932-4703-b114-609cbc1d40e3"},"vehicle_type_id":"4","last_reported":1687090320,"current_range_meters":3200,"station_id":"ce4bgn12rcd13ifvqbt0","pricing_plan_id":"free"},{"bike_id":"0ca80c7c-0a3d-4bc8-aa88-45850f53a387","system_id":"levelo_inurba_marseille","lat":43.297163,"lon":5.365866,"is_reserved":false,"is_disabled":false,"rental_uris":{"android":"levelo://app?vid=0ca80c7c-0a3d-4bc8-aa88-45850f53a387","ios":"levelo://app?vid=0ca80c7c-0a3d-4bc8-aa88-45850f53a387"},"vehicle_type_id":"4","last_reported":1687090320,"current_range_meters":26800,"station_id":"ce4bgn12rcd13ifvqbt0","pricing_plan_id":"free"},{"bike_id":"176f4894-d7fc-460e-aa5d-7c8c1e206dc3","system_id":"levelo_inurba_marseille","lat":43.297163,"lon":5.365866,"is_reserved":false,"is_disabled":false,"rental_uris":{"android":"levelo://app?vid=176f4894-d7fc-460e-aa5d-7c8c1e206dc3","ios":"levelo://app?vid=176f4894-d7fc-460e-aa5d-7c8c1e206dc3"},"vehicle_type_id":"4","last_reported":1687090320,"current_range_meters":11200,"station_id":"ce4bgn12rcd13ifvqbt0","pricing_plan_id":"free"},{"bike_id":"88d0330c-5bb0-4a19-9b65-d4683b42e015","system_id":"levelo_inurba_marseille","lat":43.29683,"lon":5.36046,"is_reserved":false,"is_disabled":false,"rental_uris":{"android":"levelo://app?vid=88d0330c-5bb0-4a19-9b65-d4683b42e015","ios":"levelo://app?vid=88d0330c-5bb0-4a19-9b65-d4683b42e015"},"vehicle_type_id":"4","last_reported":1687090320,"current_range_meters":2800,"station_id":"","pricing_plan_id":"free"},{"bike_id":"f7ba7253-fa21-448a-b9e8-038db7f9e2e2","system_id":"levelo_inurba_marseille","lat":43.29625,"lon":5.37148,"is_reserved":false,"is_disabled":false,"rental_uris":{"android":"levelo://app?vid=f7ba7253-fa21-448a-b9e8-038db7f9e2e2","ios":"levelo://app?vid=f7ba7253-fa21-448a-b9e8-038db7f9e2e2"},"vehicle_type_id":"4","last_reported":1687090320,"current_range_meters":20000,"station_id":"ce4bgk12rcd13ifvqbj0","pricing_plan_id":"free"},{"bike_id":"757b4e23-e2d3-42c0-a43d-4b2a4d136e94","system_id":"levelo_inurba_marseille","lat":43.29573,"lon":5.367355,"is_reserved":false,"is_disabled":false,"rental_uris":{"android":"levelo://app?vid=757b4e23-e2d3-42c0-a43d-4b2a4d136e94","ios":"levelo://app?vid=757b4e23-e2d3-42c0-a43d-4b2a4d136e94"},"vehicle_type_id":"4","last_reported":1687090320,"current_range_meters":29200,"station_id":"ce4bgph2rcd13ifvqc2g","pricing_plan_id":"free"},{"bike_id":"73df4a49-71e0-4abd-ae51-3ca64be7a558","system_id":"levelo_inurba_marseille","lat":43.29573,"lon":5.367355,"is_reserved":false,"is_disabled":false,"rental_uris":{"android":"levelo://app?vid=73df4a49-71e0-4abd-ae51-3ca64be7a558","ios":"levelo://app?vid=73df4a49-71e0-4abd-ae51-3ca64be7a558"},"vehicle_type_id":"4","last_reported":1687090320,"current_range_meters":26800,"station_id":"ce4bgph2rcd13ifvqc2g","pricing_plan_id":"free"},{"bike_id":"e97e8427-b54f-4905-8f3d-5ca93241cace","system_id":"levelo_inurba_marseille","lat":43.29573,"lon":5.367355,"is_reserved":false,"is_disabled":false,"rental_uris":{"android":"levelo://app?vid=e97e8427-b54f-4905-8f3d-5ca93241cace","ios":"levelo://app?vid=e97e8427-b54f-4905-8f3d-5ca93241cace"},"vehicle_type_id":"4","last_reported":1687090320,"current_range_meters":19600,"station_id":"ce4bgph2rcd13ifvqc2g","pricing_plan_id":"free"},{"bike_id":"0f8a3650-0635-4034-ab95-31dec0fb0d7c","system_id":"levelo_inurba_marseille","lat":43.29573,"lon":5.367355,"is_reserved":false,"is_disabled":false,"rental_uris":{"android":"levelo://app?vid=0f8a3650-0635-4034-ab95-31dec0fb0d7c","ios":"levelo://app?vid=0f8a3650-0635-4034-ab95-31dec0fb0d7c"},"vehicle_type_id":"4","last_reported":1687090320,"current_range_meters":18000,"station_id":"ce4bgph2rcd13ifvqc2g","pricing_plan_id":"free"},{"bike_id":"24f41ca5-b432-4feb-a0c8-a15026b97306","system_id":"levelo_inurba_marseille","lat":43.296131,"lon":5.370773,"is_reserved":false,"is_disabled":false,"rental_uris":{"android":"levelo://app?vid=24f41ca5-b432-4feb-a0c8-a15026b97306","ios":"levelo://app?vid=24f41ca5-b432-4feb-a0c8-a15026b97306"},"vehicle_type_id":"4","last_reported":1687090320,"current_range_meters":12400,"station_id":"ce4bgnh2rcd13ifvqc0g","pricing_plan_id":"free"},{"bike_id":"dab115bf-1cab-4b8d-ad6a-67fda1d71234","system_id":"levelo_inurba_marseille","lat":43.31764,"lon":5.39013,"is_reserved":false,"is_disabled":false,"rental_uris":{"android":"levelo://app?vid=dab115bf-1cab-4b8d-ad6a-67fda1d71234","ios":"levelo://app?vid=dab115bf-1cab-4b8d-ad6a-67fda1d71234"},"vehicle_type_id":"4","last_reported":1687090320,"current_range_meters":24400,"station_id":"ce4bhqp2rcd13ifvqhng","pricing_plan_id":"free"},{"bike_id":"d89a6111-594c-4044-bab7-fa8ad5f81068","system_id":"levelo_inurba_marseille","lat":43.317557,"lon":5.390173,"is_reserved":false,"is_disabled":false,"rental_uris":{"android":"levelo://app?vid=d89a6111-594c-4044-bab7-fa8ad5f81068","ios":"levelo://app?vid=d89a6111-594c-4044-bab7-fa8ad5f81068"},"vehicle_type_id":"4","last_reported":1687090320,"current_range_meters":30800,"station_id":"ce4bhqp2rcd13ifvqhng","pricing_plan_id":"free"},{"bike_id":"83f6075d-3e24-4cf1-a7cb-da5638440d94","system_id":"levelo_inurba_marseille","lat":43.31758,"lon":5.39021,"is_reserved":false,"is_disabled":false,"rental_uris":{"android":"levelo://app?vid=83f6075d-3e24-4cf1-a7cb-da5638440d94","ios":"levelo://app?vid=83f6075d-3e24-4cf1-a7cb-da5638440d94"},"vehicle_type_id":"4","last_reported":1687090320,"current_range_meters":20000,"station_id":"ce4bhqp2rcd13ifvqhng","pricing_plan_id":"free"},{"bike_id":"4a10882c-7152-4233-bc08-3e7673adbd38","system_id":"levelo_inurba_marseille","lat":43.317557,"lon":5.390173,"is_reserved":false,"is_disabled":false,"rental_uris":{"android":"levelo://app?vid=4a10882c-7152-4233-bc08-3e7673adbd38","ios":"levelo://app?vid=4a10882c-7152-4233-bc08-3e7673adbd38"},"vehicle_type_id":"4","last_reported":1687090320,"current_range_meters":24800,"station_id":"ce4bhqp2rcd13ifvqhng","pricing_plan_id":"free"},{"bike_id":"ac963151-191f-4d1f-9e47-900370988983","system_id":"levelo_inurba_marseille","lat":43.298037,"lon":5.381066,"is_reserved":false,"is_disabled":false,"rental_uris":{"android":"levelo://app?vid=ac963151-191f-4d1f-9e47-900370988983","ios":"levelo://app?vid=ac963151-191f-4d1f-9e47-900370988983"},"vehicle_type_id":"4","last_reported":1687090320,"current_range_meters":12000,"station_id":"ce4bgip2rcd13ifvqbb0","pricing_plan_id":"free"},{"bike_id":"de59ac45-0401-4f02-bc2f-cc47ca96310b","system_id":"levelo_inurba_marseille","lat":43.298037,"lon":5.381066,"is_reserved":false,"is_disabled":false,"rental_uris":{"android":"levelo://app?vid=de59ac45-0401-4f02-bc2f-cc47ca96310b","ios":"levelo://app?vid=de59ac45-0401-4f02-bc2f-cc47ca96310b"},"vehicle_type_id":"4","last_reported":1687090320,"current_range_meters":16800,"station_id":"ce4bgip2rcd13ifvqbb0","pricing_plan_id":"free"},{"bike_id":"93e6c38c-8577-4015-8317-1e5810a57178","system_id":"levelo_inurba_marseille","lat":43.298037,"lon":5.381066,"is_reserved":false,"is_disabled":false,"rental_uris":{"android":"levelo://app?vid=93e6c38c-8577-4015-8317-1e5810a57178","ios":"levelo://app?vid=93e6c38c-8577-4015-8317-1e5810a57178"},"vehicle_type_id":"4","last_reported":1687090320,"current_range_meters":1200,"station_id":"ce4bgip2rcd13ifvqbb0","pricing_plan_id":"free"},{"bike_id":"250c8a96-8498-4211-b8f3-1b00a8d1fbaf","system_id":"levelo_inurba_marseille","lat":43.296477,"lon":5.37768,"is_reserved":false,"is_disabled":false,"rental_uris":{"android":"levelo://app?vid=250c8a96-8498-4211-b8f3-1b00a8d1fbaf","ios":"levelo://app?vid=250c8a96-8498-4211-b8f3-1b00a8d1fbaf"},"vehicle_type_id":"4","last_reported":1687090320,"current_range_meters":12800,"station_id":"","pricing_plan_id":"free"},{"bike_id":"eb56f040-d7e3-440c-9d05-82afe187dd21","system_id":"levelo_inurba_marseille","lat":43.29988,"lon":5.38493,"is_reserved":false,"is_disabled":false,"rental_uris":{"android":"levelo://app?vid=eb56f040-d7e3-440c-9d05-82afe187dd21","ios":"levelo://app?vid=eb56f040-d7e3-440c-9d05-82afe187dd21"},"vehicle_type_id":"4","last_reported":1687090320,"current_range_meters":28800,"station_id":"ce4bgj92rcd13ifvqbd0","pricing_plan_id":"free"},{"bike_id":"bb335696-9086-470f-9c5f-1244bc2e0b8f","system_id":"levelo_inurba_marseille","lat":43.299717,"lon":5.384845,"is_reserved":false,"is_disabled":false,"rental_uris":{"android":"levelo://app?vid=bb335696-9086-470f-9c5f-1244bc2e0b8f","ios":"levelo://app?vid=bb335696-9086-470f-9c5f-1244bc2e0b8f"},"vehicle_type_id":"4","last_reported":1687090320,"current_range_meters":25200,"station_id":"ce4bgj92rcd13ifvqbd0","pricing_plan_id":"free"},{"bike_id":"9356ba13-00f2-4b08-bfc0-dc10fea9d3b8","system_id":"levelo_inurba_marseille","lat":43.295279,"lon":5.375048,"is_reserved":false,"is_disabled":false,"rental_uris":{"android":"levelo://app?vid=9356ba13-00f2-4b08-bfc0-dc10fea9d3b8","ios":"levelo://app?vid=9356ba13-00f2-4b08-bfc0-dc10fea9d3b8"},"vehicle_type_id":"4","last_reported":1687090320,"current_range_meters":0,"station_id":"ce4bgkp2rcd13ifvqbmg","pricing_plan_id":"free"},{"bike_id":"d1146045-26f0-4162-bb69-0d0fd1987640","system_id":"levelo_inurba_marseille","lat":43.299717,"lon":5.384845,"is_reserved":false,"is_disabled":false,"rental_uris":{"android":"levelo://app?vid=d1146045-26f0-4162-bb69-0d0fd1987640","ios":"levelo://app?vid=d1146045-26f0-4162-bb69-0d0fd1987640"},"vehicle_type_id":"4","last_reported":1687090320,"current_range_meters":22800,"station_id":"ce4bgj92rcd13ifvqbd0","pricing_plan_id":"free"},{"bike_id":"f1f88416-061c-46cd-923c-8747f0e0e210","system_id":"levelo_inurba_marseille","lat":43.29966,"lon":5.38499,"is_reserved":false,"is_disabled":false,"rental_uris":{"android":"levelo://app?vid=f1f88416-061c-46cd-923c-8747f0e0e210","ios":"levelo://app?vid=f1f88416-061c-46cd-923c-8747f0e0e210"},"vehicle_type_id":"4","last_reported":1687090320,"current_range_meters":20800,"station_id":"ce4bgj92rcd13ifvqbd0","pricing_plan_id":"free"},{"bike_id":"a5d34394-8ea3-4622-ac56-bc8a8abe2d11","system_id":"levelo_inurba_marseille","lat":43.32367,"lon":5.388836,"is_reserved":false,"is_disabled":false,"rental_uris":{"android":"levelo://app?vid=a5d34394-8ea3-4622-ac56-bc8a8abe2d11","ios":"levelo://app?vid=a5d34394-8ea3-4622-ac56-bc8a8abe2d11"},"vehicle_type_id":"4","last_reported":1687090320,"current_range_meters":30800,"station_id":"ce4bhqp2rcd13ifvqhog","pricing_plan_id":"free"},{"bike_id":"05d585c0-9c9e-4f05-83e5-50aae80e7424","system_id":"levelo_inurba_marseille","lat":43.32367,"lon":5.388836,"is_reserved":false,"is_disabled":false,"rental_uris":{"android":"levelo://app?vid=05d585c0-9c9e-4f05-83e5-50aae80e7424","ios":"levelo://app?vid=05d585c0-9c9e-4f05-83e5-50aae80e7424"},"vehicle_type_id":"4","last_reported":1687090320,"current_range_meters":30800,"station_id":"ce4bhqp2rcd13ifvqhog","pricing_plan_id":"free"},{"bike_id":"c25bbca6-334a-48c9-b2aa-c69eb97c9d81","system_id":"levelo_inurba_marseille","lat":43.32367,"lon":5.388836,"is_reserved":false,"is_disabled":false,"rental_uris":{"android":"levelo://app?vid=c25bbca6-334a-48c9-b2aa-c69eb97c9d81","ios":"levelo://app?vid=c25bbca6-334a-48c9-b2aa-c69eb97c9d81"},"vehicle_type_id":"4","last_reported":1687090320,"current_range_meters":9600,"station_id":"ce4bhqp2rcd13ifvqhog","pricing_plan_id":"free"},{"bike_id":"ec20d355-e7bb-4dd1-9847-3fb64795c68e","system_id":"levelo_inurba_marseille","lat":43.32367,"lon":5.388836,"is_reserved":false,"is_disabled":false,"rental_uris":{"android":"levelo://app?vid=ec20d355-e7bb-4dd1-9847-3fb64795c68e","ios":"levelo://app?vid=ec20d355-e7bb-4dd1-9847-3fb64795c68e"},"vehicle_type_id":"4","last_reported":1687090320,"current_range_meters":26000,"station_id":"ce4bhqp2rcd13ifvqhog","pricing_plan_id":"free"},{"bike_id":"cb6d0a57-0d1f-4ae0-af25-6aa851c06e77","system_id":"levelo_inurba_marseille","lat":43.29281,"lon":5.36833,"is_reserved":false,"is_disabled":false,"rental_uris":{"android":"levelo://app?vid=cb6d0a57-0d1f-4ae0-af25-6aa851c06e77","ios":"levelo://app?vid=cb6d0a57-0d1f-4ae0-af25-6aa851c06e77"},"vehicle_type_id":"4","last_reported":1687090320,"current_range_meters":13200,"station_id":"ce4bhbp2rcd13ifvqesg","pricing_plan_id":"free"},{"bike_id":"8d657f48-94bc-462a-82e8-e3df4294a58c","system_id":"levelo_inurba_marseille","lat":43.29276,"lon":5.36831,"is_reserved":false,"is_disabled":false,"rental_uris":{"android":"levelo://app?vid=8d657f48-94bc-462a-82e8-e3df4294a58c","ios":"levelo://app?vid=8d657f48-94bc-462a-82e8-e3df4294a58c"},"vehicle_type_id":"4","last_reported":1687090320,"current_range_meters":15600,"station_id":"ce4bhbp2rcd13ifvqesg","pricing_plan_id":"free"},{"bike_id":"68f9893b-3d5b-4820-8ed6-fb6061dfd41f","system_id":"levelo_inurba_marseille","lat":43.305994,"lon":5.393687,"is_reserved":false,"is_disabled":false,"rental_uris":{"android":"levelo://app?vid=68f9893b-3d5b-4820-8ed6-fb6061dfd41f","ios":"levelo://app?vid=68f9893b-3d5b-4820-8ed6-fb6061dfd41f"},"vehicle_type_id":"4","last_reported":1687090320,"current_range_meters":6000,"station_id":"ce4bh0p2rcd13ifvqd80","pricing_plan_id":"free"},{"bike_id":"047727b5-27cd-4f04-9527-8f88451517d1","system_id":"levelo_inurba_marseille","lat":43.305994,"lon":5.393687,"is_reserved":false,"is_disabled":false,"rental_uris":{"android":"levelo://app?vid=047727b5-27cd-4f04-9527-8f88451517d1","ios":"levelo://app?vid=047727b5-27cd-4f04-9527-8f88451517d1"},"vehicle_type_id":"4","last_reported":1687090320,"current_range_meters":25200,"station_id":"ce4bh0p2rcd13ifvqd80","pricing_plan_id":"free"},{"bike_id":"3f360eec-a1cb-4c2b-95e1-decd9bcc0ac0","system_id":"levelo_inurba_marseille","lat":43.302992,"lon":5.392136,"is_reserved":false,"is_disabled":false,"rental_uris":{"android":"levelo://app?vid=3f360eec-a1cb-4c2b-95e1-decd9bcc0ac0","ios":"levelo://app?vid=3f360eec-a1cb-4c2b-95e1-decd9bcc0ac0"},"vehicle_type_id":"4","last_reported":1687090320,"current_range_meters":17600,"station_id":"ce4bgkh2rcd13ifvqbk0","pricing_plan_id":"free"},{"bike_id":"aa37e5d2-b559-4f90-bc48-0284058c04b7","system_id":"levelo_inurba_marseille","lat":43.292311,"lon":5.360731,"is_reserved":false,"is_disabled":false,"rental_uris":{"android":"levelo://app?vid=aa37e5d2-b559-4f90-bc48-0284058c04b7","ios":"levelo://app?vid=aa37e5d2-b559-4f90-bc48-0284058c04b7"},"vehicle_type_id":"4","last_reported":1687090320,"current_range_meters":18000,"station_id":"ce4bhbh2rcd13ifvqeqg","pricing_plan_id":"free"},{"bike_id":"81eb3906-a445-4464-886d-3afcb32b3f02","system_id":"levelo_inurba_marseille","lat":43.298764,"lon":5.388973,"is_reserved":false,"is_disabled":false,"rental_uris":{"android":"levelo://app?vid=81eb3906-a445-4464-886d-3afcb32b3f02","ios":"levelo://app?vid=81eb3906-a445-4464-886d-3afcb32b3f02"},"vehicle_type_id":"4","last_reported":1687090320,"current_range_meters":4800,"station_id":"ce4bh392rcd13ifvqdl0","pricing_plan_id":"free"},{"bike_id":"2aa4f8df-403c-4952-801a-f8e52ebcf77c","system_id":"levelo_inurba_marseille","lat":43.292663,"lon":5.376394,"is_reserved":false,"is_disabled":false,"rental_uris":{"android":"levelo://app?vid=2aa4f8df-403c-4952-801a-f8e52ebcf77c","ios":"levelo://app?vid=2aa4f8df-403c-4952-801a-f8e52ebcf77c"},"vehicle_type_id":"4","last_reported":1687090320,"current_range_meters":20400,"station_id":"ce4bgi12rcd13ifvqb80","pricing_plan_id":"free"},{"bike_id":"ff113506-0b10-477a-a022-599aa1959a9e","system_id":"levelo_inurba_marseille","lat":43.291994,"lon":5.357886,"is_reserved":false,"is_disabled":false,"rental_uris":{"android":"levelo://app?vid=ff113506-0b10-477a-a022-599aa1959a9e","ios":"levelo://app?vid=ff113506-0b10-477a-a022-599aa1959a9e"},"vehicle_type_id":"4","last_reported":1687090320,"current_range_meters":14800,"station_id":"ce4bhb12rcd13ifvqel0","pricing_plan_id":"free"},{"bike_id":"1564b0a4-6aa3-486b-a610-6da1c70b2f67","system_id":"levelo_inurba_marseille","lat":43.291994,"lon":5.357886,"is_reserved":false,"is_disabled":false,"rental_uris":{"android":"levelo://app?vid=1564b0a4-6aa3-486b-a610-6da1c70b2f67","ios":"levelo://app?vid=1564b0a4-6aa3-486b-a610-6da1c70b2f67"},"vehicle_type_id":"4","last_reported":1687090320,"current_range_meters":26800,"station_id":"ce4bhb12rcd13ifvqel0","pricing_plan_id":"free"},{"bike_id":"4826eefb-a0a6-4adb-8b0d-5c2e7c40aa9a","system_id":"levelo_inurba_marseille","lat":43.291994,"lon":5.357886,"is_reserved":false,"is_disabled":false,"rental_uris":{"android":"levelo://app?vid=4826eefb-a0a6-4adb-8b0d-5c2e7c40aa9a","ios":"levelo://app?vid=4826eefb-a0a6-4adb-8b0d-5c2e7c40aa9a"},"vehicle_type_id":"4","last_reported":1687090320,"current_range_meters":14800,"station_id":"ce4bhb12rcd13ifvqel0","pricing_plan_id":"free"},{"bike_id":"e30de318-05d7-4a94-9feb-e87a15d6b313","system_id":"levelo_inurba_marseille","lat":43.30889,"lon":5.39642,"is_reserved":false,"is_disabled":false,"rental_uris":{"android":"levelo://app?vid=e30de318-05d7-4a94-9feb-e87a15d6b313","ios":"levelo://app?vid=e30de318-05d7-4a94-9feb-e87a15d6b313"},"vehicle_type_id":"4","last_reported":1687090320,"current_range_meters":6000,"station_id":"ce4bh012rcd13ifvqcv0","pricing_plan_id":"free"},{"bike_id":"4c3c46ed-ab12-4549-871a-f932030c5007","system_id":"levelo_inurba_marseille","lat":43.29529,"lon":5.385581,"is_reserved":false,"is_disabled":false,"rental_uris":{"android":"levelo://app?vid=4c3c46ed-ab12-4549-871a-f932030c5007","ios":"levelo://app?vid=4c3c46ed-ab12-4549-871a-f932030c5007"},"vehicle_type_id":"4","last_reported":1687090320,"current_range_meters":24400,"station_id":"ce4bgih2rcd13ifvqba0","pricing_plan_id":"free"},{"bike_id":"58b6b84e-9ca6-45bc-b37f-b61f10bbfb05","system_id":"levelo_inurba_marseille","lat":43.29532,"lon":5.38541,"is_reserved":false,"is_disabled":false,"rental_uris":{"android":"levelo://app?vid=58b6b84e-9ca6-45bc-b37f-b61f10bbfb05","ios":"levelo://app?vid=58b6b84e-9ca6-45bc-b37f-b61f10bbfb05"},"vehicle_type_id":"4","last_reported":1687090320,"current_range_meters":24000,"station_id":"ce4bgih2rcd13ifvqba0","pricing_plan_id":"free"},{"bike_id":"6a8b856a-2769-4865-86dc-9a97782975f0","system_id":"levelo_inurba_marseille","lat":43.29038,"lon":5.35926,"is_reserved":false,"is_disabled":false,"rental_uris":{"android":"levelo://app?vid=6a8b856a-2769-4865-86dc-9a97782975f0","ios":"levelo://app?vid=6a8b856a-2769-4865-86dc-9a97782975f0"},"vehicle_type_id":"4","last_reported":1687090320,"current_range_meters":0,"station_id":"","pricing_plan_id":"free"},{"bike_id":"f99bf17b-9a02-4a8c-91b5-c9e8b86fb342","system_id":"levelo_inurba_marseille","lat":43.289468,"lon":5.363719,"is_reserved":false,"is_disabled":false,"rental_uris":{"android":"levelo://app?vid=f99bf17b-9a02-4a8c-91b5-c9e8b86fb342","ios":"levelo://app?vid=f99bf17b-9a02-4a8c-91b5-c9e8b86fb342"},"vehicle_type_id":"4","last_reported":1687090320,"current_range_meters":30000,"station_id":"ce4bhc92rcd13ifvqetg","pricing_plan_id":"free"},{"bike_id":"1982a99a-8374-4112-b27d-cb23ccc2001f","system_id":"levelo_inurba_marseille","lat":43.292642,"lon":5.384254,"is_reserved":false,"is_disabled":false,"rental_uris":{"android":"levelo://app?vid=1982a99a-8374-4112-b27d-cb23ccc2001f","ios":"levelo://app?vid=1982a99a-8374-4112-b27d-cb23ccc2001f"},"vehicle_type_id":"4","last_reported":1687090320,"current_range_meters":30400,"station_id":"ce4bh692rcd13ifvqea0","pricing_plan_id":"free"},{"bike_id":"38eb09af-7166-42b9-865e-84246929498f","system_id":"levelo_inurba_marseille","lat":43.292642,"lon":5.384254,"is_reserved":false,"is_disabled":false,"rental_uris":{"android":"levelo://app?vid=38eb09af-7166-42b9-865e-84246929498f","ios":"levelo://app?vid=38eb09af-7166-42b9-865e-84246929498f"},"vehicle_type_id":"4","last_reported":1687090320,"current_range_meters":31200,"station_id":"ce4bh692rcd13ifvqea0","pricing_plan_id":"free"},{"bike_id":"69b9077c-e52f-467f-924c-edaaf68c6e10","system_id":"levelo_inurba_marseille","lat":43.33038,"lon":5.38922,"is_reserved":false,"is_disabled":false,"rental_uris":{"android":"levelo://app?vid=69b9077c-e52f-467f-924c-edaaf68c6e10","ios":"levelo://app?vid=69b9077c-e52f-467f-924c-edaaf68c6e10"},"vehicle_type_id":"4","last_reported":1687090320,"current_range_meters":30800,"station_id":"ce4bhr92rcd13ifvqhrg","pricing_plan_id":"free"},{"bike_id":"f38a1053-1333-4716-a153-7b2db3d6a5a3","system_id":"levelo_inurba_marseille","lat":43.290104,"lon":5.356111,"is_reserved":false,"is_disabled":false,"rental_uris":{"android":"levelo://app?vid=f38a1053-1333-4716-a153-7b2db3d6a5a3","ios":"levelo://app?vid=f38a1053-1333-4716-a153-7b2db3d6a5a3"},"vehicle_type_id":"4","last_reported":1687090320,"current_range_meters":0,"station_id":"ce4bhb92rcd13ifvqen0","pricing_plan_id":"free"},{"bike_id":"431f5d5b-2e19-4c0c-86a6-c6121111388b","system_id":"levelo_inurba_marseille","lat":43.290104,"lon":5.356111,"is_reserved":false,"is_disabled":false,"rental_uris":{"android":"levelo://app?vid=431f5d5b-2e19-4c0c-86a6-c6121111388b","ios":"levelo://app?vid=431f5d5b-2e19-4c0c-86a6-c6121111388b"},"vehicle_type_id":"4","last_reported":1687090320,"current_range_meters":24000,"station_id":"ce4bhb92rcd13ifvqen0","pricing_plan_id":"free"},{"bike_id":"f95d8be0-c840-4b03-9e0d-b8050ae0f057","system_id":"levelo_inurba_marseille","lat":43.33045,"lon":5.38921,"is_reserved":false,"is_disabled":false,"rental_uris":{"android":"levelo://app?vid=f95d8be0-c840-4b03-9e0d-b8050ae0f057","ios":"levelo://app?vid=f95d8be0-c840-4b03-9e0d-b8050ae0f057"},"vehicle_type_id":"4","last_reported":1687090320,"current_range_meters":24000,"station_id":"ce4bhr92rcd13ifvqhrg","pricing_plan_id":"free"},{"bike_id":"27cc1185-3aba-4efb-92b1-322af052898f","system_id":"levelo_inurba_marseille","lat":43.290995,"lon":5.381361,"is_reserved":false,"is_disabled":false,"rental_uris":{"android":"levelo://app?vid=27cc1185-3aba-4efb-92b1-322af052898f","ios":"levelo://app?vid=27cc1185-3aba-4efb-92b1-322af052898f"},"vehicle_type_id":"4","last_reported":1687090320,"current_range_meters":0,"station_id":"ce4bh512rcd13ifvqe2g","pricing_plan_id":"free"},{"bike_id":"b9b44b37-7edf-4ab6-8685-17eb58a26dbc","system_id":"levelo_inurba_marseille","lat":43.295169,"lon":5.390426,"is_reserved":false,"is_disabled":false,"rental_uris":{"android":"levelo://app?vid=b9b44b37-7edf-4ab6-8685-17eb58a26dbc","ios":"levelo://app?vid=b9b44b37-7edf-4ab6-8685-17eb58a26dbc"},"vehicle_type_id":"4","last_reported":1687090320,"current_range_meters":29200,"station_id":"ce4bh3p2rcd13ifvqdp0","pricing_plan_id":"free"},{"bike_id":"2baec985-75ec-4f7a-91fd-0ca812b177f3","system_id":"levelo_inurba_marseille","lat":43.295169,"lon":5.390426,"is_reserved":false,"is_disabled":false,"rental_uris":{"android":"levelo://app?vid=2baec985-75ec-4f7a-91fd-0ca812b177f3","ios":"levelo://app?vid=2baec985-75ec-4f7a-91fd-0ca812b177f3"},"vehicle_type_id":"4","last_reported":1687090320,"current_range_meters":17600,"station_id":"ce4bh3p2rcd13ifvqdp0","pricing_plan_id":"free"},{"bike_id":"89be6bc1-b6f3-4309-aa03-fad4f0691253","system_id":"levelo_inurba_marseille","lat":43.295169,"lon":5.390426,"is_reserved":false,"is_disabled":false,"rental_uris":{"android":"levelo://app?vid=89be6bc1-b6f3-4309-aa03-fad4f0691253","ios":"levelo://app?vid=89be6bc1-b6f3-4309-aa03-fad4f0691253"},"vehicle_type_id":"4","last_reported":1687090320,"current_range_meters":18400,"station_id":"ce4bh3p2rcd13ifvqdp0","pricing_plan_id":"free"},{"bike_id":"c0fb8083-e02d-4dec-b1b9-fa095e6c5b75","system_id":"levelo_inurba_marseille","lat":43.337396,"lon":5.374526,"is_reserved":false,"is_disabled":false,"rental_uris":{"android":"levelo://app?vid=c0fb8083-e02d-4dec-b1b9-fa095e6c5b75","ios":"levelo://app?vid=c0fb8083-e02d-4dec-b1b9-fa095e6c5b75"},"vehicle_type_id":"4","last_reported":1687090320,"current_range_meters":0,"station_id":"ce4bhp92rcd13ifvqhag","pricing_plan_id":"free"},{"bike_id":"fecbd0c2-bfeb-4320-8680-9bf772d4dcfa","system_id":"levelo_inurba_marseille","lat":43.33747,"lon":5.37467,"is_reserved":false,"is_disabled":false,"rental_uris":{"android":"levelo://app?vid=fecbd0c2-bfeb-4320-8680-9bf772d4dcfa","ios":"levelo://app?vid=fecbd0c2-bfeb-4320-8680-9bf772d4dcfa"},"vehicle_type_id":"4","last_reported":1687090320,"current_range_meters":30400,"station_id":"","pricing_plan_id":"free"},{"bike_id":"41a8749b-6d93-4d1b-8e52-c5f60f65ae7c","system_id":"levelo_inurba_marseille","lat":43.33752,"lon":5.37443,"is_reserved":false,"is_disabled":false,"rental_uris":{"android":"levelo://app?vid=41a8749b-6d93-4d1b-8e52-c5f60f65ae7c","ios":"levelo://app?vid=41a8749b-6d93-4d1b-8e52-c5f60f65ae7c"},"vehicle_type_id":"4","last_reported":1687090320,"current_range_meters":27200,"station_id":"","pricing_plan_id":"free"},{"bike_id":"5163578d-8747-43d5-b8fa-a2ad8c8b0efb","system_id":"levelo_inurba_marseille","lat":43.33754,"lon":5.37464,"is_reserved":false,"is_disabled":false,"rental_uris":{"android":"levelo://app?vid=5163578d-8747-43d5-b8fa-a2ad8c8b0efb","ios":"levelo://app?vid=5163578d-8747-43d5-b8fa-a2ad8c8b0efb"},"vehicle_type_id":"4","last_reported":1687090320,"current_range_meters":28800,"station_id":"","pricing_plan_id":"free"},{"bike_id":"a51c69af-2adf-46e4-bf5b-ff79df07668d","system_id":"levelo_inurba_marseille","lat":43.301117,"lon":5.398795,"is_reserved":false,"is_disabled":false,"rental_uris":{"android":"levelo://app?vid=a51c69af-2adf-46e4-bf5b-ff79df07668d","ios":"levelo://app?vid=a51c69af-2adf-46e4-bf5b-ff79df07668d"},"vehicle_type_id":"4","last_reported":1687090320,"current_range_meters":4400,"station_id":"ce4bh0h2rcd13ifvqd40","pricing_plan_id":"free"},{"bike_id":"9c54fed1-1bba-4b32-9f87-5b9156213d95","system_id":"levelo_inurba_marseille","lat":43.301117,"lon":5.398795,"is_reserved":false,"is_disabled":false,"rental_uris":{"android":"levelo://app?vid=9c54fed1-1bba-4b32-9f87-5b9156213d95","ios":"levelo://app?vid=9c54fed1-1bba-4b32-9f87-5b9156213d95"},"vehicle_type_id":"4","last_reported":1687090320,"current_range_meters":25200,"station_id":"ce4bh0h2rcd13ifvqd40","pricing_plan_id":"free"},{"bike_id":"fb59e8fb-3c62-40b7-982a-f82c0c8933ba","system_id":"levelo_inurba_marseille","lat":43.298681,"lon":5.397225,"is_reserved":false,"is_disabled":false,"rental_uris":{"android":"levelo://app?vid=fb59e8fb-3c62-40b7-982a-f82c0c8933ba","ios":"levelo://app?vid=fb59e8fb-3c62-40b7-982a-f82c0c8933ba"},"vehicle_type_id":"4","last_reported":1687090320,"current_range_meters":28000,"station_id":"ce4bh0h2rcd13ifvqd50","pricing_plan_id":"free"},{"bike_id":"461a5d40-a03b-477d-b199-bb816574f499","system_id":"levelo_inurba_marseille","lat":43.295196,"lon":5.39397,"is_reserved":false,"is_disabled":false,"rental_uris":{"android":"levelo://app?vid=461a5d40-a03b-477d-b199-bb816574f499","ios":"levelo://app?vid=461a5d40-a03b-477d-b199-bb816574f499"},"vehicle_type_id":"4","last_reported":1687090320,"current_range_meters":22800,"station_id":"ce4bh292rcd13ifvqdf0","pricing_plan_id":"free"},{"bike_id":"d515bb1a-ec9b-4d41-bde5-93872c8c1964","system_id":"levelo_inurba_marseille","lat":43.290345,"lon":5.38646,"is_reserved":false,"is_disabled":false,"rental_uris":{"android":"levelo://app?vid=d515bb1a-ec9b-4d41-bde5-93872c8c1964","ios":"levelo://app?vid=d515bb1a-ec9b-4d41-bde5-93872c8c1964"},"vehicle_type_id":"4","last_reported":1687090320,"current_range_meters":17200,"station_id":"ce4bh4p2rcd13ifvqe0g","pricing_plan_id":"free"},{"bike_id":"23ed75f5-98f9-4078-b293-962b7f6d8657","system_id":"levelo_inurba_marseille","lat":43.302759,"lon":5.400793,"is_reserved":false,"is_disabled":false,"rental_uris":{"android":"levelo://app?vid=23ed75f5-98f9-4078-b293-962b7f6d8657","ios":"levelo://app?vid=23ed75f5-98f9-4078-b293-962b7f6d8657"},"vehicle_type_id":"4","last_reported":1687090320,"current_range_meters":31200,"station_id":"ce4bgvh2rcd13ifvqcs0","pricing_plan_id":"free"},{"bike_id":"1d69746f-3aae-43af-a526-a3d09f3e00fa","system_id":"levelo_inurba_marseille","lat":43.290336,"lon":5.386425,"is_reserved":false,"is_disabled":false,"rental_uris":{"android":"levelo://app?vid=1d69746f-3aae-43af-a526-a3d09f3e00fa","ios":"levelo://app?vid=1d69746f-3aae-43af-a526-a3d09f3e00fa"},"vehicle_type_id":"4","last_reported":1687090320,"current_range_meters":11600,"station_id":"ce4bh4p2rcd13ifvqe0g","pricing_plan_id":"free"},{"bike_id":"83c0bd0a-dbc7-4d30-9fee-8b6d3e01f7db","system_id":"levelo_inurba_marseille","lat":43.29027,"lon":5.38637,"is_reserved":false,"is_disabled":false,"rental_uris":{"android":"levelo://app?vid=83c0bd0a-dbc7-4d30-9fee-8b6d3e01f7db","ios":"levelo://app?vid=83c0bd0a-dbc7-4d30-9fee-8b6d3e01f7db"},"vehicle_type_id":"4","last_reported":1687090320,"current_range_meters":19600,"station_id":"","pricing_plan_id":"free"},{"bike_id":"c3425634-ffa9-41a7-8998-a907e308143c","system_id":"levelo_inurba_marseille","lat":43.290336,"lon":5.386425,"is_reserved":false,"is_disabled":false,"rental_uris":{"android":"levelo://app?vid=c3425634-ffa9-41a7-8998-a907e308143c","ios":"levelo://app?vid=c3425634-ffa9-41a7-8998-a907e308143c"},"vehicle_type_id":"4","last_reported":1687090320,"current_range_meters":18400,"station_id":"ce4bh4p2rcd13ifvqe0g","pricing_plan_id":"free"},{"bike_id":"21cf0a29-31c0-46c5-9516-b0f5847b8ecc","system_id":"levelo_inurba_marseille","lat":43.30253,"lon":5.40064,"is_reserved":false,"is_disabled":false,"rental_uris":{"android":"levelo://app?vid=21cf0a29-31c0-46c5-9516-b0f5847b8ecc","ios":"levelo://app?vid=21cf0a29-31c0-46c5-9516-b0f5847b8ecc"},"vehicle_type_id":"4","last_reported":1687090320,"current_range_meters":13600,"station_id":"","pricing_plan_id":"free"},{"bike_id":"97c50600-0bf3-4d27-8c6d-a011e92b227b","system_id":"levelo_inurba_marseille","lat":43.290336,"lon":5.386425,"is_reserved":false,"is_disabled":false,"rental_uris":{"android":"levelo://app?vid=97c50600-0bf3-4d27-8c6d-a011e92b227b","ios":"levelo://app?vid=97c50600-0bf3-4d27-8c6d-a011e92b227b"},"vehicle_type_id":"4","last_reported":1687090320,"current_range_meters":20400,"station_id":"ce4bh4p2rcd13ifvqe0g","pricing_plan_id":"free"},{"bike_id":"0287f98a-d338-4eda-825e-5d11bf3aa33a","system_id":"levelo_inurba_marseille","lat":43.30253,"lon":5.40067,"is_reserved":false,"is_disabled":false,"rental_uris":{"android":"levelo://app?vid=0287f98a-d338-4eda-825e-5d11bf3aa33a","ios":"levelo://app?vid=0287f98a-d338-4eda-825e-5d11bf3aa33a"},"vehicle_type_id":"4","last_reported":1687090320,"current_range_meters":26000,"station_id":"","pricing_plan_id":"free"},{"bike_id":"39ebb783-a4ad-497a-a8b4-f26310952609","system_id":"levelo_inurba_marseille","lat":43.30245,"lon":5.40065,"is_reserved":false,"is_disabled":false,"rental_uris":{"android":"levelo://app?vid=39ebb783-a4ad-497a-a8b4-f26310952609","ios":"levelo://app?vid=39ebb783-a4ad-497a-a8b4-f26310952609"},"vehicle_type_id":"4","last_reported":1687090320,"current_range_meters":24000,"station_id":"","pricing_plan_id":"free"},{"bike_id":"533121de-47c3-457e-bdcc-d81f3e48da48","system_id":"levelo_inurba_marseille","lat":43.3025,"lon":5.40069,"is_reserved":false,"is_disabled":false,"rental_uris":{"android":"levelo://app?vid=533121de-47c3-457e-bdcc-d81f3e48da48","ios":"levelo://app?vid=533121de-47c3-457e-bdcc-d81f3e48da48"},"vehicle_type_id":"4","last_reported":1687090320,"current_range_meters":18000,"station_id":"","pricing_plan_id":"free"},{"bike_id":"c16cd8a2-f45f-40d1-aaac-a94463da4f69","system_id":"levelo_inurba_marseille","lat":43.30249,"lon":5.40069,"is_reserved":false,"is_disabled":false,"rental_uris":{"android":"levelo://app?vid=c16cd8a2-f45f-40d1-aaac-a94463da4f69","ios":"levelo://app?vid=c16cd8a2-f45f-40d1-aaac-a94463da4f69"},"vehicle_type_id":"4","last_reported":1687090320,"current_range_meters":18400,"station_id":"","pricing_plan_id":"free"},{"bike_id":"2724b277-3342-4a61-8f2f-7eac0f1f36b4","system_id":"levelo_inurba_marseille","lat":43.30249,"lon":5.4007,"is_reserved":false,"is_disabled":false,"rental_uris":{"android":"levelo://app?vid=2724b277-3342-4a61-8f2f-7eac0f1f36b4","ios":"levelo://app?vid=2724b277-3342-4a61-8f2f-7eac0f1f36b4"},"vehicle_type_id":"4","last_reported":1687090320,"current_range_meters":25600,"station_id":"","pricing_plan_id":"free"},{"bike_id":"9b626bf4-13fb-47d1-9c45-ba0a74abde7b","system_id":"levelo_inurba_marseille","lat":43.30246,"lon":5.40069,"is_reserved":false,"is_disabled":false,"rental_uris":{"android":"levelo://app?vid=9b626bf4-13fb-47d1-9c45-ba0a74abde7b","ios":"levelo://app?vid=9b626bf4-13fb-47d1-9c45-ba0a74abde7b"},"vehicle_type_id":"4","last_reported":1687090320,"current_range_meters":16400,"station_id":"","pricing_plan_id":"free"},{"bike_id":"8f392288-48e8-4530-bc9b-7a4bd7128a0b","system_id":"levelo_inurba_marseille","lat":43.302759,"lon":5.400793,"is_reserved":false,"is_disabled":false,"rental_uris":{"android":"levelo://app?vid=8f392288-48e8-4530-bc9b-7a4bd7128a0b","ios":"levelo://app?vid=8f392288-48e8-4530-bc9b-7a4bd7128a0b"},"vehicle_type_id":"4","last_reported":1687090320,"current_range_meters":31200,"station_id":"ce4bgvh2rcd13ifvqcs0","pricing_plan_id":"free"},{"bike_id":"b60bc646-4240-4b9e-9e24-be831bda7074","system_id":"levelo_inurba_marseille","lat":43.28602,"lon":5.37075,"is_reserved":false,"is_disabled":false,"rental_uris":{"android":"levelo://app?vid=b60bc646-4240-4b9e-9e24-be831bda7074","ios":"levelo://app?vid=b60bc646-4240-4b9e-9e24-be831bda7074"},"vehicle_type_id":"4","last_reported":1687090320,"current_range_meters":30400,"station_id":"ce4bht12rcd13ifvqi60","pricing_plan_id":"free"},{"bike_id":"272b2144-92a5-4ede-aff1-b1238f488db7","system_id":"levelo_inurba_marseille","lat":43.287184,"lon":5.37937,"is_reserved":false,"is_disabled":false,"rental_uris":{"android":"levelo://app?vid=272b2144-92a5-4ede-aff1-b1238f488db7","ios":"levelo://app?vid=272b2144-92a5-4ede-aff1-b1238f488db7"},"vehicle_type_id":"4","last_reported":1687090320,"current_range_meters":29200,"station_id":"ce4bh9p2rcd13ifvqec0","pricing_plan_id":"free"},{"bike_id":"601d3e1f-4251-432d-9d88-4605b3d186eb","system_id":"levelo_inurba_marseille","lat":43.316517,"lon":5.404375,"is_reserved":false,"is_disabled":false,"rental_uris":{"android":"levelo://app?vid=601d3e1f-4251-432d-9d88-4605b3d186eb","ios":"levelo://app?vid=601d3e1f-4251-432d-9d88-4605b3d186eb"},"vehicle_type_id":"4","last_reported":1687090320,"current_range_meters":26800,"station_id":"ce4bh012rcd13ifvqd00","pricing_plan_id":"free"},{"bike_id":"60014c42-ad4d-4d24-b86f-0992a0ee35b9","system_id":"levelo_inurba_marseille","lat":43.316517,"lon":5.404375,"is_reserved":false,"is_disabled":false,"rental_uris":{"android":"levelo://app?vid=60014c42-ad4d-4d24-b86f-0992a0ee35b9","ios":"levelo://app?vid=60014c42-ad4d-4d24-b86f-0992a0ee35b9"},"vehicle_type_id":"4","last_reported":1687090320,"current_range_meters":6800,"station_id":"ce4bh012rcd13ifvqd00","pricing_plan_id":"free"},{"bike_id":"6545cebb-fbb9-47db-8d14-52a4e106c357","system_id":"levelo_inurba_marseille","lat":43.316517,"lon":5.404375,"is_reserved":false,"is_disabled":false,"rental_uris":{"android":"levelo://app?vid=6545cebb-fbb9-47db-8d14-52a4e106c357","ios":"levelo://app?vid=6545cebb-fbb9-47db-8d14-52a4e106c357"},"vehicle_type_id":"4","last_reported":1687090320,"current_range_meters":24400,"station_id":"ce4bh012rcd13ifvqd00","pricing_plan_id":"free"},{"bike_id":"a60d2e0b-86c6-43af-bf6a-788e539c286b","system_id":"levelo_inurba_marseille","lat":43.316517,"lon":5.404375,"is_reserved":false,"is_disabled":false,"rental_uris":{"android":"levelo://app?vid=a60d2e0b-86c6-43af-bf6a-788e539c286b","ios":"levelo://app?vid=a60d2e0b-86c6-43af-bf6a-788e539c286b"},"vehicle_type_id":"4","last_reported":1687090320,"current_range_meters":31200,"station_id":"ce4bh012rcd13ifvqd00","pricing_plan_id":"free"},{"bike_id":"bed5e66f-2430-4711-90c8-0d3a43886a73","system_id":"levelo_inurba_marseille","lat":43.284534,"lon":5.358662,"is_reserved":false,"is_disabled":false,"rental_uris":{"android":"levelo://app?vid=bed5e66f-2430-4711-90c8-0d3a43886a73","ios":"levelo://app?vid=bed5e66f-2430-4711-90c8-0d3a43886a73"},"vehicle_type_id":"4","last_reported":1687090320,"current_range_meters":2800,"station_id":"ce4bhah2rcd13ifvqei0","pricing_plan_id":"free"},{"bike_id":"c0164bc7-6d10-4a4b-b270-7fbd5ff89734","system_id":"levelo_inurba_marseille","lat":43.284534,"lon":5.358662,"is_reserved":false,"is_disabled":false,"rental_uris":{"android":"levelo://app?vid=c0164bc7-6d10-4a4b-b270-7fbd5ff89734","ios":"levelo://app?vid=c0164bc7-6d10-4a4b-b270-7fbd5ff89734"},"vehicle_type_id":"4","last_reported":1687090320,"current_range_meters":26800,"station_id":"ce4bhah2rcd13ifvqei0","pricing_plan_id":"free"},{"bike_id":"70c1473b-715d-4ec6-b70e-9713b86ca1fe","system_id":"levelo_inurba_marseille","lat":43.284534,"lon":5.358662,"is_reserved":false,"is_disabled":false,"rental_uris":{"android":"levelo://app?vid=70c1473b-715d-4ec6-b70e-9713b86ca1fe","ios":"levelo://app?vid=70c1473b-715d-4ec6-b70e-9713b86ca1fe"},"vehicle_type_id":"4","last_reported":1687090320,"current_range_meters":16800,"station_id":"ce4bhah2rcd13ifvqei0","pricing_plan_id":"free"},{"bike_id":"e704db5f-130f-40d9-9d05-bf3438b5a77e","system_id":"levelo_inurba_marseille","lat":43.284534,"lon":5.358662,"is_reserved":false,"is_disabled":false,"rental_uris":{"android":"levelo://app?vid=e704db5f-130f-40d9-9d05-bf3438b5a77e","ios":"levelo://app?vid=e704db5f-130f-40d9-9d05-bf3438b5a77e"},"vehicle_type_id":"4","last_reported":1687090320,"current_range_meters":16400,"station_id":"ce4bhah2rcd13ifvqei0","pricing_plan_id":"free"},{"bike_id":"e2db0733-62bb-489d-88e5-7c9323ff133e","system_id":"levelo_inurba_marseille","lat":43.294314,"lon":5.397498,"is_reserved":false,"is_disabled":false,"rental_uris":{"android":"levelo://app?vid=e2db0733-62bb-489d-88e5-7c9323ff133e","ios":"levelo://app?vid=e2db0733-62bb-489d-88e5-7c9323ff133e"},"vehicle_type_id":"4","last_reported":1687090320,"current_range_meters":8400,"station_id":"ce4bh3h2rcd13ifvqdo0","pricing_plan_id":"free"},{"bike_id":"5aa0ea34-43dd-4046-b5ef-67f2ff4c7f09","system_id":"levelo_inurba_marseille","lat":43.28623,"lon":5.35104,"is_reserved":false,"is_disabled":false,"rental_uris":{"android":"levelo://app?vid=5aa0ea34-43dd-4046-b5ef-67f2ff4c7f09","ios":"levelo://app?vid=5aa0ea34-43dd-4046-b5ef-67f2ff4c7f09"},"vehicle_type_id":"4","last_reported":1687090320,"current_range_meters":31200,"station_id":"ce4bhch2rcd13ifvqeug","pricing_plan_id":"free"},{"bike_id":"cb82f7b4-a043-4e39-be66-b4b7697c997b","system_id":"levelo_inurba_marseille","lat":43.28619,"lon":5.35108,"is_reserved":false,"is_disabled":false,"rental_uris":{"android":"levelo://app?vid=cb82f7b4-a043-4e39-be66-b4b7697c997b","ios":"levelo://app?vid=cb82f7b4-a043-4e39-be66-b4b7697c997b"},"vehicle_type_id":"4","last_reported":1687090320,"current_range_meters":28800,"station_id":"ce4bhch2rcd13ifvqeug","pricing_plan_id":"free"},{"bike_id":"646342b4-601e-441b-bfaf-82400a1b4de7","system_id":"levelo_inurba_marseille","lat":43.2862,"lon":5.35103,"is_reserved":false,"is_disabled":false,"rental_uris":{"android":"levelo://app?vid=646342b4-601e-441b-bfaf-82400a1b4de7","ios":"levelo://app?vid=646342b4-601e-441b-bfaf-82400a1b4de7"},"vehicle_type_id":"4","last_reported":1687090320,"current_range_meters":12000,"station_id":"ce4bhch2rcd13ifvqeug","pricing_plan_id":"free"},{"bike_id":"ff6bb60a-d9fc-4a26-8aef-1d2cbbaf4c01","system_id":"levelo_inurba_marseille","lat":43.285856,"lon":5.350771,"is_reserved":false,"is_disabled":false,"rental_uris":{"android":"levelo://app?vid=ff6bb60a-d9fc-4a26-8aef-1d2cbbaf4c01","ios":"levelo://app?vid=ff6bb60a-d9fc-4a26-8aef-1d2cbbaf4c01"},"vehicle_type_id":"4","last_reported":1687090320,"current_range_meters":28000,"station_id":"ce4bhch2rcd13ifvqeug","pricing_plan_id":"free"},{"bike_id":"46b45f1d-e36a-41f0-9fc5-d8262b4c6a24","system_id":"levelo_inurba_marseille","lat":43.285856,"lon":5.350771,"is_reserved":false,"is_disabled":false,"rental_uris":{"android":"levelo://app?vid=46b45f1d-e36a-41f0-9fc5-d8262b4c6a24","ios":"levelo://app?vid=46b45f1d-e36a-41f0-9fc5-d8262b4c6a24"},"vehicle_type_id":"4","last_reported":1687090320,"current_range_meters":15200,"station_id":"ce4bhch2rcd13ifvqeug","pricing_plan_id":"free"},{"bike_id":"b17a8dfb-a7c7-47b4-839e-9fc51a1e81e3","system_id":"levelo_inurba_marseille","lat":43.285856,"lon":5.350771,"is_reserved":false,"is_disabled":false,"rental_uris":{"android":"levelo://app?vid=b17a8dfb-a7c7-47b4-839e-9fc51a1e81e3","ios":"levelo://app?vid=b17a8dfb-a7c7-47b4-839e-9fc51a1e81e3"},"vehicle_type_id":"4","last_reported":1687090320,"current_range_meters":31200,"station_id":"ce4bhch2rcd13ifvqeug","pricing_plan_id":"free"},{"bike_id":"768c22b1-4d4e-4e0a-9608-aa408f18f18c","system_id":"levelo_inurba_marseille","lat":43.28616,"lon":5.35102,"is_reserved":false,"is_disabled":false,"rental_uris":{"android":"levelo://app?vid=768c22b1-4d4e-4e0a-9608-aa408f18f18c","ios":"levelo://app?vid=768c22b1-4d4e-4e0a-9608-aa408f18f18c"},"vehicle_type_id":"4","last_reported":1687090320,"current_range_meters":30000,"station_id":"ce4bhch2rcd13ifvqeug","pricing_plan_id":"free"},{"bike_id":"af4dd12b-1912-4e6d-b53a-039796841ae0","system_id":"levelo_inurba_marseille","lat":43.285856,"lon":5.350771,"is_reserved":false,"is_disabled":false,"rental_uris":{"android":"levelo://app?vid=af4dd12b-1912-4e6d-b53a-039796841ae0","ios":"levelo://app?vid=af4dd12b-1912-4e6d-b53a-039796841ae0"},"vehicle_type_id":"4","last_reported":1687090320,"current_range_meters":16800,"station_id":"ce4bhch2rcd13ifvqeug","pricing_plan_id":"free"},{"bike_id":"af29ed08-afe9-4c1b-842d-6677b0025af2","system_id":"levelo_inurba_marseille","lat":43.28613,"lon":5.35105,"is_reserved":false,"is_disabled":false,"rental_uris":{"android":"levelo://app?vid=af29ed08-afe9-4c1b-842d-6677b0025af2","ios":"levelo://app?vid=af29ed08-afe9-4c1b-842d-6677b0025af2"},"vehicle_type_id":"4","last_reported":1687090320,"current_range_meters":12800,"station_id":"ce4bhch2rcd13ifvqeug","pricing_plan_id":"free"},{"bike_id":"af8a55e4-5fd6-495c-9fab-05b01d873d72","system_id":"levelo_inurba_marseille","lat":43.285856,"lon":5.350771,"is_reserved":false,"is_disabled":false,"rental_uris":{"android":"levelo://app?vid=af8a55e4-5fd6-495c-9fab-05b01d873d72","ios":"levelo://app?vid=af8a55e4-5fd6-495c-9fab-05b01d873d72"},"vehicle_type_id":"4","last_reported":1687090320,"current_range_meters":31200,"station_id":"ce4bhch2rcd13ifvqeug","pricing_plan_id":"free"},{"bike_id":"80d50264-7584-4000-a495-5082a48afaae","system_id":"levelo_inurba_marseille","lat":43.286595,"lon":5.386795,"is_reserved":false,"is_disabled":false,"rental_uris":{"android":"levelo://app?vid=80d50264-7584-4000-a495-5082a48afaae","ios":"levelo://app?vid=80d50264-7584-4000-a495-5082a48afaae"},"vehicle_type_id":"4","last_reported":1687090320,"current_range_meters":29600,"station_id":"ce4bh492rcd13ifvqdug","pricing_plan_id":"free"},{"bike_id":"6c4db3c8-ca7c-4833-80cf-ee257e0ee917","system_id":"levelo_inurba_marseille","lat":43.286595,"lon":5.386795,"is_reserved":false,"is_disabled":false,"rental_uris":{"android":"levelo://app?vid=6c4db3c8-ca7c-4833-80cf-ee257e0ee917","ios":"levelo://app?vid=6c4db3c8-ca7c-4833-80cf-ee257e0ee917"},"vehicle_type_id":"4","last_reported":1687090320,"current_range_meters":8800,"station_id":"ce4bh492rcd13ifvqdug","pricing_plan_id":"free"},{"bike_id":"43275ef6-770c-4f0e-926c-1c3aecd7abec","system_id":"levelo_inurba_marseille","lat":43.287909,"lon":5.390554,"is_reserved":false,"is_disabled":false,"rental_uris":{"android":"levelo://app?vid=43275ef6-770c-4f0e-926c-1c3aecd7abec","ios":"levelo://app?vid=43275ef6-770c-4f0e-926c-1c3aecd7abec"},"vehicle_type_id":"4","last_reported":1687090320,"current_range_meters":12800,"station_id":"","pricing_plan_id":"free"},{"bike_id":"16e5fedd-6e86-436a-a0a2-72c7cd60a6ea","system_id":"levelo_inurba_marseille","lat":43.323464,"lon":5.406297,"is_reserved":false,"is_disabled":false,"rental_uris":{"android":"levelo://app?vid=16e5fedd-6e86-436a-a0a2-72c7cd60a6ea","ios":"levelo://app?vid=16e5fedd-6e86-436a-a0a2-72c7cd60a6ea"},"vehicle_type_id":"4","last_reported":1687090320,"current_range_meters":31200,"station_id":"ce4bhq92rcd13ifvqhjg","pricing_plan_id":"free"},{"bike_id":"72611642-d420-4b07-b473-f6153c62d01f","system_id":"levelo_inurba_marseille","lat":43.32342,"lon":5.40621,"is_reserved":false,"is_disabled":false,"rental_uris":{"android":"levelo://app?vid=72611642-d420-4b07-b473-f6153c62d01f","ios":"levelo://app?vid=72611642-d420-4b07-b473-f6153c62d01f"},"vehicle_type_id":"4","last_reported":1687090320,"current_range_meters":31200,"station_id":"ce4bhq92rcd13ifvqhjg","pricing_plan_id":"free"},{"bike_id":"4c7bb745-bc5b-4e15-ab18-6954b71e42f4","system_id":"levelo_inurba_marseille","lat":43.32266,"lon":5.40662,"is_reserved":false,"is_disabled":false,"rental_uris":{"android":"levelo://app?vid=4c7bb745-bc5b-4e15-ab18-6954b71e42f4","ios":"levelo://app?vid=4c7bb745-bc5b-4e15-ab18-6954b71e42f4"},"vehicle_type_id":"4","last_reported":1687090320,"current_range_meters":23200,"station_id":"","pricing_plan_id":"free"},{"bike_id":"536b47a7-25f9-49cb-9608-1b3c49b68cf4","system_id":"levelo_inurba_marseille","lat":43.33727,"lon":5.39195,"is_reserved":false,"is_disabled":false,"rental_uris":{"android":"levelo://app?vid=536b47a7-25f9-49cb-9608-1b3c49b68cf4","ios":"levelo://app?vid=536b47a7-25f9-49cb-9608-1b3c49b68cf4"},"vehicle_type_id":"4","last_reported":1687090320,"current_range_meters":10400,"station_id":"","pricing_plan_id":"free"},{"bike_id":"5e696d17-8e35-4ad0-9c7c-fd8df03a52bb","system_id":"levelo_inurba_marseille","lat":43.28476,"lon":5.38414,"is_reserved":false,"is_disabled":false,"rental_uris":{"android":"levelo://app?vid=5e696d17-8e35-4ad0-9c7c-fd8df03a52bb","ios":"levelo://app?vid=5e696d17-8e35-4ad0-9c7c-fd8df03a52bb"},"vehicle_type_id":"4","last_reported":1687090320,"current_range_meters":30000,"station_id":"ce4bh512rcd13ifvqe3g","pricing_plan_id":"free"},{"bike_id":"502e9313-b2b7-4baf-b8a8-ffd4338f7342","system_id":"levelo_inurba_marseille","lat":43.28481,"lon":5.38431,"is_reserved":false,"is_disabled":false,"rental_uris":{"android":"levelo://app?vid=502e9313-b2b7-4baf-b8a8-ffd4338f7342","ios":"levelo://app?vid=502e9313-b2b7-4baf-b8a8-ffd4338f7342"},"vehicle_type_id":"4","last_reported":1687090320,"current_range_meters":23200,"station_id":"ce4bh512rcd13ifvqe3g","pricing_plan_id":"free"},{"bike_id":"b6ea9a1c-86e7-4a8f-be95-411ff3688170","system_id":"levelo_inurba_marseille","lat":43.28474,"lon":5.38419,"is_reserved":false,"is_disabled":false,"rental_uris":{"android":"levelo://app?vid=b6ea9a1c-86e7-4a8f-be95-411ff3688170","ios":"levelo://app?vid=b6ea9a1c-86e7-4a8f-be95-411ff3688170"},"vehicle_type_id":"4","last_reported":1687090320,"current_range_meters":27200,"station_id":"ce4bh512rcd13ifvqe3g","pricing_plan_id":"free"},{"bike_id":"56c54339-be2d-4978-b1a8-f177d4fecc5d","system_id":"levelo_inurba_marseille","lat":43.284706,"lon":5.384165,"is_reserved":false,"is_disabled":false,"rental_uris":{"android":"levelo://app?vid=56c54339-be2d-4978-b1a8-f177d4fecc5d","ios":"levelo://app?vid=56c54339-be2d-4978-b1a8-f177d4fecc5d"},"vehicle_type_id":"4","last_reported":1687090320,"current_range_meters":12000,"station_id":"ce4bh512rcd13ifvqe3g","pricing_plan_id":"free"},{"bike_id":"a01879b1-d059-47ac-885e-b1c28f7389f3","system_id":"levelo_inurba_marseille","lat":43.28861,"lon":5.39334,"is_reserved":false,"is_disabled":false,"rental_uris":{"android":"levelo://app?vid=a01879b1-d059-47ac-885e-b1c28f7389f3","ios":"levelo://app?vid=a01879b1-d059-47ac-885e-b1c28f7389f3"},"vehicle_type_id":"4","last_reported":1687090320,"current_range_meters":25600,"station_id":"ce4bh2p2rcd13ifvqdi0","pricing_plan_id":"free"},{"bike_id":"00b4d942-d645-4a17-a320-9c02b5ecca68","system_id":"levelo_inurba_marseille","lat":43.288497,"lon":5.393089,"is_reserved":false,"is_disabled":false,"rental_uris":{"android":"levelo://app?vid=00b4d942-d645-4a17-a320-9c02b5ecca68","ios":"levelo://app?vid=00b4d942-d645-4a17-a320-9c02b5ecca68"},"vehicle_type_id":"4","last_reported":1687090320,"current_range_meters":22000,"station_id":"ce4bh2p2rcd13ifvqdi0","pricing_plan_id":"free"},{"bike_id":"d3cc2f4f-bb61-435b-876a-49d97a76b287","system_id":"levelo_inurba_marseille","lat":43.283498,"lon":5.380948,"is_reserved":false,"is_disabled":false,"rental_uris":{"android":"levelo://app?vid=d3cc2f4f-bb61-435b-876a-49d97a76b287","ios":"levelo://app?vid=d3cc2f4f-bb61-435b-876a-49d97a76b287"},"vehicle_type_id":"4","last_reported":1687090320,"current_range_meters":13600,"station_id":"ce4bh412rcd13ifvqdr0","pricing_plan_id":"free"},{"bike_id":"1a55a783-27b2-4926-906d-f42f27707d72","system_id":"levelo_inurba_marseille","lat":43.28433,"lon":5.34992,"is_reserved":false,"is_disabled":false,"rental_uris":{"android":"levelo://app?vid=1a55a783-27b2-4926-906d-f42f27707d72","ios":"levelo://app?vid=1a55a783-27b2-4926-906d-f42f27707d72"},"vehicle_type_id":"4","last_reported":1687090320,"current_range_meters":12000,"station_id":"ce4bhbh2rcd13ifvqepg","pricing_plan_id":"free"},{"bike_id":"aba29aaf-bbd0-4941-922b-176a349ae6a6","system_id":"levelo_inurba_marseille","lat":43.284217,"lon":5.349697,"is_reserved":false,"is_disabled":false,"rental_uris":{"android":"levelo://app?vid=aba29aaf-bbd0-4941-922b-176a349ae6a6","ios":"levelo://app?vid=aba29aaf-bbd0-4941-922b-176a349ae6a6"},"vehicle_type_id":"4","last_reported":1687090320,"current_range_meters":31200,"station_id":"ce4bhbh2rcd13ifvqepg","pricing_plan_id":"free"},{"bike_id":"a2faeb74-c96c-4a11-b169-e5acc36ad081","system_id":"levelo_inurba_marseille","lat":43.28426,"lon":5.34986,"is_reserved":false,"is_disabled":false,"rental_uris":{"android":"levelo://app?vid=a2faeb74-c96c-4a11-b169-e5acc36ad081","ios":"levelo://app?vid=a2faeb74-c96c-4a11-b169-e5acc36ad081"},"vehicle_type_id":"4","last_reported":1687090320,"current_range_meters":28000,"station_id":"ce4bhbh2rcd13ifvqepg","pricing_plan_id":"free"},{"bike_id":"292db270-d322-41f1-8752-c3c358872b40","system_id":"levelo_inurba_marseille","lat":43.28425,"lon":5.34986,"is_reserved":false,"is_disabled":false,"rental_uris":{"android":"levelo://app?vid=292db270-d322-41f1-8752-c3c358872b40","ios":"levelo://app?vid=292db270-d322-41f1-8752-c3c358872b40"},"vehicle_type_id":"4","last_reported":1687090320,"current_range_meters":10000,"station_id":"ce4bhbh2rcd13ifvqepg","pricing_plan_id":"free"},{"bike_id":"6c5b4e1b-0910-4a59-addf-87b009f879c1","system_id":"levelo_inurba_marseille","lat":43.28425,"lon":5.34983,"is_reserved":false,"is_disabled":false,"rental_uris":{"android":"levelo://app?vid=6c5b4e1b-0910-4a59-addf-87b009f879c1","ios":"levelo://app?vid=6c5b4e1b-0910-4a59-addf-87b009f879c1"},"vehicle_type_id":"4","last_reported":1687090320,"current_range_meters":5600,"station_id":"ce4bhbh2rcd13ifvqepg","pricing_plan_id":"free"},{"bike_id":"8c092103-b929-4007-a0ec-9988db866eb2","system_id":"levelo_inurba_marseille","lat":43.284217,"lon":5.349697,"is_reserved":false,"is_disabled":false,"rental_uris":{"android":"levelo://app?vid=8c092103-b929-4007-a0ec-9988db866eb2","ios":"levelo://app?vid=8c092103-b929-4007-a0ec-9988db866eb2"},"vehicle_type_id":"4","last_reported":1687090320,"current_range_meters":25600,"station_id":"ce4bhbh2rcd13ifvqepg","pricing_plan_id":"free"},{"bike_id":"ae280e74-f758-40b4-824d-6dca93447e32","system_id":"levelo_inurba_marseille","lat":43.28421,"lon":5.34987,"is_reserved":false,"is_disabled":false,"rental_uris":{"android":"levelo://app?vid=ae280e74-f758-40b4-824d-6dca93447e32","ios":"levelo://app?vid=ae280e74-f758-40b4-824d-6dca93447e32"},"vehicle_type_id":"4","last_reported":1687090320,"current_range_meters":4400,"station_id":"ce4bhbh2rcd13ifvqepg","pricing_plan_id":"free"},{"bike_id":"c736c3c1-d144-45f8-ad42-5cd5f9229f14","system_id":"levelo_inurba_marseille","lat":43.284217,"lon":5.349697,"is_reserved":false,"is_disabled":false,"rental_uris":{"android":"levelo://app?vid=c736c3c1-d144-45f8-ad42-5cd5f9229f14","ios":"levelo://app?vid=c736c3c1-d144-45f8-ad42-5cd5f9229f14"},"vehicle_type_id":"4","last_reported":1687090320,"current_range_meters":31200,"station_id":"ce4bhbh2rcd13ifvqepg","pricing_plan_id":"free"},{"bike_id":"14a8657f-3935-4419-9435-21da568c9506","system_id":"levelo_inurba_marseille","lat":43.28423,"lon":5.34978,"is_reserved":false,"is_disabled":false,"rental_uris":{"android":"levelo://app?vid=14a8657f-3935-4419-9435-21da568c9506","ios":"levelo://app?vid=14a8657f-3935-4419-9435-21da568c9506"},"vehicle_type_id":"4","last_reported":1687090320,"current_range_meters":22000,"station_id":"ce4bhbh2rcd13ifvqepg","pricing_plan_id":"free"},{"bike_id":"635ae931-9a3f-4d23-b04c-b8b1393e54b5","system_id":"levelo_inurba_marseille","lat":43.284217,"lon":5.349697,"is_reserved":false,"is_disabled":false,"rental_uris":{"android":"levelo://app?vid=635ae931-9a3f-4d23-b04c-b8b1393e54b5","ios":"levelo://app?vid=635ae931-9a3f-4d23-b04c-b8b1393e54b5"},"vehicle_type_id":"4","last_reported":1687090320,"current_range_meters":18400,"station_id":"ce4bhbh2rcd13ifvqepg","pricing_plan_id":"free"},{"bike_id":"c3a62e98-7da5-4621-a4a9-b5b43ef1b7e3","system_id":"levelo_inurba_marseille","lat":43.28421,"lon":5.34979,"is_reserved":false,"is_disabled":false,"rental_uris":{"android":"levelo://app?vid=c3a62e98-7da5-4621-a4a9-b5b43ef1b7e3","ios":"levelo://app?vid=c3a62e98-7da5-4621-a4a9-b5b43ef1b7e3"},"vehicle_type_id":"4","last_reported":1687090320,"current_range_meters":24000,"station_id":"ce4bhbh2rcd13ifvqepg","pricing_plan_id":"free"},{"bike_id":"67c102d5-445b-413e-8f04-0d8b1d6a1ba7","system_id":"levelo_inurba_marseille","lat":43.2842,"lon":5.34982,"is_reserved":false,"is_disabled":false,"rental_uris":{"android":"levelo://app?vid=67c102d5-445b-413e-8f04-0d8b1d6a1ba7","ios":"levelo://app?vid=67c102d5-445b-413e-8f04-0d8b1d6a1ba7"},"vehicle_type_id":"4","last_reported":1687090320,"current_range_meters":29600,"station_id":"ce4bhbh2rcd13ifvqepg","pricing_plan_id":"free"},{"bike_id":"cfbe5c99-3ef1-467f-a9f4-775e0efe1777","system_id":"levelo_inurba_marseille","lat":43.2842,"lon":5.34982,"is_reserved":false,"is_disabled":false,"rental_uris":{"android":"levelo://app?vid=cfbe5c99-3ef1-467f-a9f4-775e0efe1777","ios":"levelo://app?vid=cfbe5c99-3ef1-467f-a9f4-775e0efe1777"},"vehicle_type_id":"4","last_reported":1687090320,"current_range_meters":25600,"station_id":"ce4bhbh2rcd13ifvqepg","pricing_plan_id":"free"},{"bike_id":"cd2caf10-38cd-4f71-b4e5-a7165d8ef10c","system_id":"levelo_inurba_marseille","lat":43.28422,"lon":5.34975,"is_reserved":false,"is_disabled":false,"rental_uris":{"android":"levelo://app?vid=cd2caf10-38cd-4f71-b4e5-a7165d8ef10c","ios":"levelo://app?vid=cd2caf10-38cd-4f71-b4e5-a7165d8ef10c"},"vehicle_type_id":"4","last_reported":1687090320,"current_range_meters":8800,"station_id":"ce4bhbh2rcd13ifvqepg","pricing_plan_id":"free"},{"bike_id":"f67c73a5-f935-45cf-af94-14603ae3ecae","system_id":"levelo_inurba_marseille","lat":43.284217,"lon":5.349697,"is_reserved":false,"is_disabled":false,"rental_uris":{"android":"levelo://app?vid=f67c73a5-f935-45cf-af94-14603ae3ecae","ios":"levelo://app?vid=f67c73a5-f935-45cf-af94-14603ae3ecae"},"vehicle_type_id":"4","last_reported":1687090320,"current_range_meters":24400,"station_id":"ce4bhbh2rcd13ifvqepg","pricing_plan_id":"free"},{"bike_id":"8ae84b9d-7089-4489-b59c-9d6c7550da2f","system_id":"levelo_inurba_marseille","lat":43.284217,"lon":5.349697,"is_reserved":false,"is_disabled":false,"rental_uris":{"android":"levelo://app?vid=8ae84b9d-7089-4489-b59c-9d6c7550da2f","ios":"levelo://app?vid=8ae84b9d-7089-4489-b59c-9d6c7550da2f"},"vehicle_type_id":"4","last_reported":1687090320,"current_range_meters":10800,"station_id":"ce4bhbh2rcd13ifvqepg","pricing_plan_id":"free"},{"bike_id":"9f9ffca6-bd3b-44b3-aade-8f16da7f85af","system_id":"levelo_inurba_marseille","lat":43.28418,"lon":5.34977,"is_reserved":false,"is_disabled":false,"rental_uris":{"android":"levelo://app?vid=9f9ffca6-bd3b-44b3-aade-8f16da7f85af","ios":"levelo://app?vid=9f9ffca6-bd3b-44b3-aade-8f16da7f85af"},"vehicle_type_id":"4","last_reported":1687090320,"current_range_meters":11600,"station_id":"ce4bhbh2rcd13ifvqepg","pricing_plan_id":"free"},{"bike_id":"b6309981-ffb2-480a-a0c6-98099542d55a","system_id":"levelo_inurba_marseille","lat":43.284217,"lon":5.349697,"is_reserved":false,"is_disabled":false,"rental_uris":{"android":"levelo://app?vid=b6309981-ffb2-480a-a0c6-98099542d55a","ios":"levelo://app?vid=b6309981-ffb2-480a-a0c6-98099542d55a"},"vehicle_type_id":"4","last_reported":1687090320,"current_range_meters":26000,"station_id":"ce4bhbh2rcd13ifvqepg","pricing_plan_id":"free"},{"bike_id":"993d371b-6c26-4745-906a-24b67da885b9","system_id":"levelo_inurba_marseille","lat":43.284217,"lon":5.349697,"is_reserved":false,"is_disabled":false,"rental_uris":{"android":"levelo://app?vid=993d371b-6c26-4745-906a-24b67da885b9","ios":"levelo://app?vid=993d371b-6c26-4745-906a-24b67da885b9"},"vehicle_type_id":"4","last_reported":1687090320,"current_range_meters":400,"station_id":"ce4bhbh2rcd13ifvqepg","pricing_plan_id":"free"},{"bike_id":"ec5ff4d5-533d-41b0-b26d-ba38e72588a0","system_id":"levelo_inurba_marseille","lat":43.28415,"lon":5.34979,"is_reserved":false,"is_disabled":false,"rental_uris":{"android":"levelo://app?vid=ec5ff4d5-533d-41b0-b26d-ba38e72588a0","ios":"levelo://app?vid=ec5ff4d5-533d-41b0-b26d-ba38e72588a0"},"vehicle_type_id":"4","last_reported":1687090320,"current_range_meters":29600,"station_id":"ce4bhbh2rcd13ifvqepg","pricing_plan_id":"free"},{"bike_id":"a7d33374-b144-41aa-a2a2-e2f6c4a37c6e","system_id":"levelo_inurba_marseille","lat":43.284217,"lon":5.349697,"is_reserved":false,"is_disabled":false,"rental_uris":{"android":"levelo://app?vid=a7d33374-b144-41aa-a2a2-e2f6c4a37c6e","ios":"levelo://app?vid=a7d33374-b144-41aa-a2a2-e2f6c4a37c6e"},"vehicle_type_id":"4","last_reported":1687090320,"current_range_meters":6800,"station_id":"ce4bhbh2rcd13ifvqepg","pricing_plan_id":"free"},{"bike_id":"d107d57e-1024-4c08-aa7c-67b6720b3ebf","system_id":"levelo_inurba_marseille","lat":43.284144,"lon":5.349787,"is_reserved":false,"is_disabled":false,"rental_uris":{"android":"levelo://app?vid=d107d57e-1024-4c08-aa7c-67b6720b3ebf","ios":"levelo://app?vid=d107d57e-1024-4c08-aa7c-67b6720b3ebf"},"vehicle_type_id":"4","last_reported":1687090320,"current_range_meters":14400,"station_id":"ce4bhbh2rcd13ifvqepg","pricing_plan_id":"free"},{"bike_id":"d693c1c7-2ae9-4444-9d13-cdfe5137ebd3","system_id":"levelo_inurba_marseille","lat":43.284217,"lon":5.349697,"is_reserved":false,"is_disabled":false,"rental_uris":{"android":"levelo://app?vid=d693c1c7-2ae9-4444-9d13-cdfe5137ebd3","ios":"levelo://app?vid=d693c1c7-2ae9-4444-9d13-cdfe5137ebd3"},"vehicle_type_id":"4","last_reported":1687090320,"current_range_meters":23200,"station_id":"ce4bhbh2rcd13ifvqepg","pricing_plan_id":"free"},{"bike_id":"b32321d1-a987-44d2-90ad-26a237dcc2ee","system_id":"levelo_inurba_marseille","lat":43.282754,"lon":5.350519,"is_reserved":false,"is_disabled":false,"rental_uris":{"android":"levelo://app?vid=b32321d1-a987-44d2-90ad-26a237dcc2ee","ios":"levelo://app?vid=b32321d1-a987-44d2-90ad-26a237dcc2ee"},"vehicle_type_id":"4","last_reported":1687090320,"current_range_meters":23600,"station_id":"ce4bhbp2rcd13ifvqerg","pricing_plan_id":"free"},{"bike_id":"9a5d6119-45b7-478d-b951-31d9b00cba7a","system_id":"levelo_inurba_marseille","lat":43.282754,"lon":5.350519,"is_reserved":false,"is_disabled":false,"rental_uris":{"android":"levelo://app?vid=9a5d6119-45b7-478d-b951-31d9b00cba7a","ios":"levelo://app?vid=9a5d6119-45b7-478d-b951-31d9b00cba7a"},"vehicle_type_id":"4","last_reported":1687090320,"current_range_meters":17600,"station_id":"ce4bhbp2rcd13ifvqerg","pricing_plan_id":"free"},{"bike_id":"acae13f9-c843-4d24-bde9-505b55e34776","system_id":"levelo_inurba_marseille","lat":43.282595,"lon":5.350668,"is_reserved":false,"is_disabled":false,"rental_uris":{"android":"levelo://app?vid=acae13f9-c843-4d24-bde9-505b55e34776","ios":"levelo://app?vid=acae13f9-c843-4d24-bde9-505b55e34776"},"vehicle_type_id":"4","last_reported":1687090320,"current_range_meters":26400,"station_id":"ce4bhbp2rcd13ifvqerg","pricing_plan_id":"free"},{"bike_id":"78c88604-7972-4643-b2d3-a8502efd759d","system_id":"levelo_inurba_marseille","lat":43.290457,"lon":5.399592,"is_reserved":false,"is_disabled":false,"rental_uris":{"android":"levelo://app?vid=78c88604-7972-4643-b2d3-a8502efd759d","ios":"levelo://app?vid=78c88604-7972-4643-b2d3-a8502efd759d"},"vehicle_type_id":"4","last_reported":1687090320,"current_range_meters":10800,"station_id":"","pricing_plan_id":"free"},{"bike_id":"bad5e206-f814-4efa-89e3-098f6521c69d","system_id":"levelo_inurba_marseille","lat":43.290412,"lon":5.399633,"is_reserved":false,"is_disabled":false,"rental_uris":{"android":"levelo://app?vid=bad5e206-f814-4efa-89e3-098f6521c69d","ios":"levelo://app?vid=bad5e206-f814-4efa-89e3-098f6521c69d"},"vehicle_type_id":"4","last_reported":1687090320,"current_range_meters":7200,"station_id":"ce4bh392rcd13ifvqdm0","pricing_plan_id":"free"},{"bike_id":"8f7cd40d-770f-4220-b57b-982186e53938","system_id":"levelo_inurba_marseille","lat":43.2904,"lon":5.39991,"is_reserved":false,"is_disabled":false,"rental_uris":{"android":"levelo://app?vid=8f7cd40d-770f-4220-b57b-982186e53938","ios":"levelo://app?vid=8f7cd40d-770f-4220-b57b-982186e53938"},"vehicle_type_id":"4","last_reported":1687090320,"current_range_meters":31200,"station_id":"ce4bh392rcd13ifvqdm0","pricing_plan_id":"free"},{"bike_id":"a723341f-b08a-4abb-b3b6-73c7ce1952d9","system_id":"levelo_inurba_marseille","lat":43.2963,"lon":5.40597,"is_reserved":false,"is_disabled":false,"rental_uris":{"android":"levelo://app?vid=a723341f-b08a-4abb-b3b6-73c7ce1952d9","ios":"levelo://app?vid=a723341f-b08a-4abb-b3b6-73c7ce1952d9"},"vehicle_type_id":"4","last_reported":1687090320,"current_range_meters":16800,"station_id":"ce4bh0h2rcd13ifvqd60","pricing_plan_id":"free"},{"bike_id":"03e9ae6e-9fbc-4e4f-8fcd-208deb076873","system_id":"levelo_inurba_marseille","lat":43.29625,"lon":5.40598,"is_reserved":false,"is_disabled":false,"rental_uris":{"android":"levelo://app?vid=03e9ae6e-9fbc-4e4f-8fcd-208deb076873","ios":"levelo://app?vid=03e9ae6e-9fbc-4e4f-8fcd-208deb076873"},"vehicle_type_id":"4","last_reported":1687090320,"current_range_meters":31200,"station_id":"ce4bh0h2rcd13ifvqd60","pricing_plan_id":"free"},{"bike_id":"dbe82689-de18-4be7-92ca-ffe6c583b1fa","system_id":"levelo_inurba_marseille","lat":43.284462,"lon":5.392121,"is_reserved":false,"is_disabled":false,"rental_uris":{"android":"levelo://app?vid=dbe82689-de18-4be7-92ca-ffe6c583b1fa","ios":"levelo://app?vid=dbe82689-de18-4be7-92ca-ffe6c583b1fa"},"vehicle_type_id":"4","last_reported":1687090320,"current_range_meters":22000,"station_id":"ce4bhoh2rcd13ifvqh5g","pricing_plan_id":"free"},{"bike_id":"672ca5d9-8b55-4ab1-836e-86961f106880","system_id":"levelo_inurba_marseille","lat":43.3266,"lon":5.40985,"is_reserved":false,"is_disabled":false,"rental_uris":{"android":"levelo://app?vid=672ca5d9-8b55-4ab1-836e-86961f106880","ios":"levelo://app?vid=672ca5d9-8b55-4ab1-836e-86961f106880"},"vehicle_type_id":"4","last_reported":1687090320,"current_range_meters":30000,"station_id":"ce4bhpp2rcd13ifvqhgg","pricing_plan_id":"free"},{"bike_id":"134b50b1-98c1-452f-abf8-fc15a7646bbb","system_id":"levelo_inurba_marseille","lat":43.32655,"lon":5.40989,"is_reserved":false,"is_disabled":false,"rental_uris":{"android":"levelo://app?vid=134b50b1-98c1-452f-abf8-fc15a7646bbb","ios":"levelo://app?vid=134b50b1-98c1-452f-abf8-fc15a7646bbb"},"vehicle_type_id":"4","last_reported":1687090320,"current_range_meters":30800,"station_id":"ce4bhpp2rcd13ifvqhgg","pricing_plan_id":"free"},{"bike_id":"24cbc78d-f628-4185-ad65-aa2e8554e74e","system_id":"levelo_inurba_marseille","lat":43.32663,"lon":5.40992,"is_reserved":false,"is_disabled":false,"rental_uris":{"android":"levelo://app?vid=24cbc78d-f628-4185-ad65-aa2e8554e74e","ios":"levelo://app?vid=24cbc78d-f628-4185-ad65-aa2e8554e74e"},"vehicle_type_id":"4","last_reported":1687090320,"current_range_meters":31200,"station_id":"ce4bhpp2rcd13ifvqhgg","pricing_plan_id":"free"},{"bike_id":"14471b61-8221-4138-b4e2-c9288dc1030e","system_id":"levelo_inurba_marseille","lat":43.304188,"lon":5.412904,"is_reserved":false,"is_disabled":false,"rental_uris":{"android":"levelo://app?vid=14471b61-8221-4138-b4e2-c9288dc1030e","ios":"levelo://app?vid=14471b61-8221-4138-b4e2-c9288dc1030e"},"vehicle_type_id":"4","last_reported":1687090320,"current_range_meters":19600,"station_id":"ce4bhop2rcd13ifvqh8g","pricing_plan_id":"free"},{"bike_id":"40bf7ceb-7c82-4397-aff1-7e92c0ffb29b","system_id":"levelo_inurba_marseille","lat":43.304188,"lon":5.412904,"is_reserved":false,"is_disabled":false,"rental_uris":{"android":"levelo://app?vid=40bf7ceb-7c82-4397-aff1-7e92c0ffb29b","ios":"levelo://app?vid=40bf7ceb-7c82-4397-aff1-7e92c0ffb29b"},"vehicle_type_id":"4","last_reported":1687090320,"current_range_meters":22000,"station_id":"ce4bhop2rcd13ifvqh8g","pricing_plan_id":"free"},{"bike_id":"7ff2d762-82f2-4c1f-90e3-1655b6b6a556","system_id":"levelo_inurba_marseille","lat":43.304188,"lon":5.412904,"is_reserved":false,"is_disabled":false,"rental_uris":{"android":"levelo://app?vid=7ff2d762-82f2-4c1f-90e3-1655b6b6a556","ios":"levelo://app?vid=7ff2d762-82f2-4c1f-90e3-1655b6b6a556"},"vehicle_type_id":"4","last_reported":1687090320,"current_range_meters":2000,"station_id":"ce4bhop2rcd13ifvqh8g","pricing_plan_id":"free"},{"bike_id":"fbdd0ff4-77ba-4748-927b-03c14fbef21a","system_id":"levelo_inurba_marseille","lat":43.304188,"lon":5.412904,"is_reserved":false,"is_disabled":false,"rental_uris":{"android":"levelo://app?vid=fbdd0ff4-77ba-4748-927b-03c14fbef21a","ios":"levelo://app?vid=fbdd0ff4-77ba-4748-927b-03c14fbef21a"},"vehicle_type_id":"4","last_reported":1687090320,"current_range_meters":31600,"station_id":"ce4bhop2rcd13ifvqh8g","pricing_plan_id":"free"},{"bike_id":"9766cb4a-9fcc-4d8d-9a29-1ae01d5a26ea","system_id":"levelo_inurba_marseille","lat":43.32581,"lon":5.41084,"is_reserved":false,"is_disabled":false,"rental_uris":{"android":"levelo://app?vid=9766cb4a-9fcc-4d8d-9a29-1ae01d5a26ea","ios":"levelo://app?vid=9766cb4a-9fcc-4d8d-9a29-1ae01d5a26ea"},"vehicle_type_id":"4","last_reported":1687090320,"current_range_meters":31200,"station_id":"","pricing_plan_id":"free"},{"bike_id":"ca71d1f8-a233-4912-929a-4c097999eb78","system_id":"levelo_inurba_marseille","lat":43.287154,"lon":5.399979,"is_reserved":false,"is_disabled":false,"rental_uris":{"android":"levelo://app?vid=ca71d1f8-a233-4912-929a-4c097999eb78","ios":"levelo://app?vid=ca71d1f8-a233-4912-929a-4c097999eb78"},"vehicle_type_id":"4","last_reported":1687090320,"current_range_meters":19600,"station_id":"ce4bho92rcd13ifvqh3g","pricing_plan_id":"free"},{"bike_id":"50c39738-ca7b-4a3b-8a00-a54751eab530","system_id":"levelo_inurba_marseille","lat":43.27906,"lon":5.3801,"is_reserved":false,"is_disabled":false,"rental_uris":{"android":"levelo://app?vid=50c39738-ca7b-4a3b-8a00-a54751eab530","ios":"levelo://app?vid=50c39738-ca7b-4a3b-8a00-a54751eab530"},"vehicle_type_id":"4","last_reported":1687090320,"current_range_meters":12800,"station_id":"","pricing_plan_id":"free"},{"bike_id":"2674d816-7600-456c-bd31-c56671a1cb88","system_id":"levelo_inurba_marseille","lat":43.27905,"lon":5.38013,"is_reserved":false,"is_disabled":false,"rental_uris":{"android":"levelo://app?vid=2674d816-7600-456c-bd31-c56671a1cb88","ios":"levelo://app?vid=2674d816-7600-456c-bd31-c56671a1cb88"},"vehicle_type_id":"4","last_reported":1687090320,"current_range_meters":30000,"station_id":"","pricing_plan_id":"free"},{"bike_id":"935e3d43-dbf1-49e0-8774-a8f5845286b2","system_id":"levelo_inurba_marseille","lat":43.27905,"lon":5.38015,"is_reserved":false,"is_disabled":false,"rental_uris":{"android":"levelo://app?vid=935e3d43-dbf1-49e0-8774-a8f5845286b2","ios":"levelo://app?vid=935e3d43-dbf1-49e0-8774-a8f5845286b2"},"vehicle_type_id":"4","last_reported":1687090320,"current_range_meters":28800,"station_id":"","pricing_plan_id":"free"},{"bike_id":"438773a0-b161-4ce7-b5be-391585971820","system_id":"levelo_inurba_marseille","lat":43.27902,"lon":5.38013,"is_reserved":false,"is_disabled":false,"rental_uris":{"android":"levelo://app?vid=438773a0-b161-4ce7-b5be-391585971820","ios":"levelo://app?vid=438773a0-b161-4ce7-b5be-391585971820"},"vehicle_type_id":"4","last_reported":1687090320,"current_range_meters":5200,"station_id":"","pricing_plan_id":"free"},{"bike_id":"34b57171-85d3-4e48-943a-a35e23d42cf9","system_id":"levelo_inurba_marseille","lat":43.320045,"lon":5.415046,"is_reserved":false,"is_disabled":false,"rental_uris":{"android":"levelo://app?vid=34b57171-85d3-4e48-943a-a35e23d42cf9","ios":"levelo://app?vid=34b57171-85d3-4e48-943a-a35e23d42cf9"},"vehicle_type_id":"4","last_reported":1687090320,"current_range_meters":27600,"station_id":"ce4bhq92rcd13ifvqhkg","pricing_plan_id":"free"},{"bike_id":"493bc7f7-8247-4d14-81cf-12c6de799e07","system_id":"levelo_inurba_marseille","lat":43.320045,"lon":5.415046,"is_reserved":false,"is_disabled":false,"rental_uris":{"android":"levelo://app?vid=493bc7f7-8247-4d14-81cf-12c6de799e07","ios":"levelo://app?vid=493bc7f7-8247-4d14-81cf-12c6de799e07"},"vehicle_type_id":"4","last_reported":1687090320,"current_range_meters":31200,"station_id":"ce4bhq92rcd13ifvqhkg","pricing_plan_id":"free"},{"bike_id":"256b166e-a421-4288-b1c6-6bc9f08c5caa","system_id":"levelo_inurba_marseille","lat":43.320045,"lon":5.415046,"is_reserved":false,"is_disabled":false,"rental_uris":{"android":"levelo://app?vid=256b166e-a421-4288-b1c6-6bc9f08c5caa","ios":"levelo://app?vid=256b166e-a421-4288-b1c6-6bc9f08c5caa"},"vehicle_type_id":"4","last_reported":1687090320,"current_range_meters":31200,"station_id":"ce4bhq92rcd13ifvqhkg","pricing_plan_id":"free"},{"bike_id":"a7c84892-8caa-4f38-8134-b58781939927","system_id":"levelo_inurba_marseille","lat":43.320045,"lon":5.415046,"is_reserved":false,"is_disabled":false,"rental_uris":{"android":"levelo://app?vid=a7c84892-8caa-4f38-8134-b58781939927","ios":"levelo://app?vid=a7c84892-8caa-4f38-8134-b58781939927"},"vehicle_type_id":"4","last_reported":1687090320,"current_range_meters":31200,"station_id":"ce4bhq92rcd13ifvqhkg","pricing_plan_id":"free"},{"bike_id":"bbc135df-573f-4857-90f8-82ab4e11610b","system_id":"levelo_inurba_marseille","lat":43.320045,"lon":5.415046,"is_reserved":false,"is_disabled":false,"rental_uris":{"android":"levelo://app?vid=bbc135df-573f-4857-90f8-82ab4e11610b","ios":"levelo://app?vid=bbc135df-573f-4857-90f8-82ab4e11610b"},"vehicle_type_id":"4","last_reported":1687090320,"current_range_meters":31200,"station_id":"ce4bhq92rcd13ifvqhkg","pricing_plan_id":"free"},{"bike_id":"ea01760f-6d36-43dd-a3e2-711b6e401a35","system_id":"levelo_inurba_marseille","lat":43.279742,"lon":5.38744,"is_reserved":false,"is_disabled":false,"rental_uris":{"android":"levelo://app?vid=ea01760f-6d36-43dd-a3e2-711b6e401a35","ios":"levelo://app?vid=ea01760f-6d36-43dd-a3e2-711b6e401a35"},"vehicle_type_id":"4","last_reported":1687090320,"current_range_meters":14000,"station_id":"ce4bhg12rcd13ifvqf80","pricing_plan_id":"free"},{"bike_id":"6b46a79f-d9d3-4fbd-81e2-be8c99b02a82","system_id":"levelo_inurba_marseille","lat":43.279742,"lon":5.38744,"is_reserved":false,"is_disabled":false,"rental_uris":{"android":"levelo://app?vid=6b46a79f-d9d3-4fbd-81e2-be8c99b02a82","ios":"levelo://app?vid=6b46a79f-d9d3-4fbd-81e2-be8c99b02a82"},"vehicle_type_id":"4","last_reported":1687090320,"current_range_meters":22000,"station_id":"ce4bhg12rcd13ifvqf80","pricing_plan_id":"free"},{"bike_id":"b9340faf-573b-4c94-bdda-41ff6cea8c76","system_id":"levelo_inurba_marseille","lat":43.320045,"lon":5.415046,"is_reserved":false,"is_disabled":false,"rental_uris":{"android":"levelo://app?vid=b9340faf-573b-4c94-bdda-41ff6cea8c76","ios":"levelo://app?vid=b9340faf-573b-4c94-bdda-41ff6cea8c76"},"vehicle_type_id":"4","last_reported":1687090320,"current_range_meters":30400,"station_id":"ce4bhq92rcd13ifvqhkg","pricing_plan_id":"free"},{"bike_id":"7e502e4d-7043-49fb-9a97-dea01c21b68b","system_id":"levelo_inurba_marseille","lat":43.325233,"lon":5.414318,"is_reserved":false,"is_disabled":false,"rental_uris":{"android":"levelo://app?vid=7e502e4d-7043-49fb-9a97-dea01c21b68b","ios":"levelo://app?vid=7e502e4d-7043-49fb-9a97-dea01c21b68b"},"vehicle_type_id":"4","last_reported":1687090320,"current_range_meters":25200,"station_id":"ce4bhq12rcd13ifvqhhg","pricing_plan_id":"free"},{"bike_id":"5de0e33e-20e1-413d-90c7-b4f57d9bf2ca","system_id":"levelo_inurba_marseille","lat":43.29259,"lon":5.40909,"is_reserved":false,"is_disabled":false,"rental_uris":{"android":"levelo://app?vid=5de0e33e-20e1-413d-90c7-b4f57d9bf2ca","ios":"levelo://app?vid=5de0e33e-20e1-413d-90c7-b4f57d9bf2ca"},"vehicle_type_id":"4","last_reported":1687090320,"current_range_meters":31200,"station_id":"ce4bh192rcd13ifvqdc0","pricing_plan_id":"free"},{"bike_id":"b57d1c4a-9cb1-49be-8e1d-7356566f5eba","system_id":"levelo_inurba_marseille","lat":43.29258,"lon":5.4091,"is_reserved":false,"is_disabled":false,"rental_uris":{"android":"levelo://app?vid=b57d1c4a-9cb1-49be-8e1d-7356566f5eba","ios":"levelo://app?vid=b57d1c4a-9cb1-49be-8e1d-7356566f5eba"},"vehicle_type_id":"4","last_reported":1687090320,"current_range_meters":11600,"station_id":"ce4bh192rcd13ifvqdc0","pricing_plan_id":"free"},{"bike_id":"5ec956d3-766b-4f38-9b7f-6187849f30f2","system_id":"levelo_inurba_marseille","lat":43.325233,"lon":5.414318,"is_reserved":false,"is_disabled":false,"rental_uris":{"android":"levelo://app?vid=5ec956d3-766b-4f38-9b7f-6187849f30f2","ios":"levelo://app?vid=5ec956d3-766b-4f38-9b7f-6187849f30f2"},"vehicle_type_id":"4","last_reported":1687090320,"current_range_meters":30800,"station_id":"ce4bhq12rcd13ifvqhhg","pricing_plan_id":"free"},{"bike_id":"1d5ae872-638f-4a10-8a13-933b9e2e8dcd","system_id":"levelo_inurba_marseille","lat":43.29253,"lon":5.40907,"is_reserved":false,"is_disabled":false,"rental_uris":{"android":"levelo://app?vid=1d5ae872-638f-4a10-8a13-933b9e2e8dcd","ios":"levelo://app?vid=1d5ae872-638f-4a10-8a13-933b9e2e8dcd"},"vehicle_type_id":"4","last_reported":1687090320,"current_range_meters":31200,"station_id":"ce4bh192rcd13ifvqdc0","pricing_plan_id":"free"},{"bike_id":"f1823d82-43dc-4984-9359-7a508e9d8409","system_id":"levelo_inurba_marseille","lat":43.325233,"lon":5.414318,"is_reserved":false,"is_disabled":false,"rental_uris":{"android":"levelo://app?vid=f1823d82-43dc-4984-9359-7a508e9d8409","ios":"levelo://app?vid=f1823d82-43dc-4984-9359-7a508e9d8409"},"vehicle_type_id":"4","last_reported":1687090320,"current_range_meters":31200,"station_id":"ce4bhq12rcd13ifvqhhg","pricing_plan_id":"free"},{"bike_id":"863b1b52-0365-45bb-8019-66444992ad36","system_id":"levelo_inurba_marseille","lat":43.27621,"lon":5.36104,"is_reserved":false,"is_disabled":false,"rental_uris":{"android":"levelo://app?vid=863b1b52-0365-45bb-8019-66444992ad36","ios":"levelo://app?vid=863b1b52-0365-45bb-8019-66444992ad36"},"vehicle_type_id":"4","last_reported":1687090320,"current_range_meters":4800,"station_id":"ce4bgj92rcd13ifvqbe0","pricing_plan_id":"free"},{"bike_id":"8f4e81b1-1387-49e0-b35a-4c6b0267d7b7","system_id":"levelo_inurba_marseille","lat":43.27618,"lon":5.361009,"is_reserved":false,"is_disabled":false,"rental_uris":{"android":"levelo://app?vid=8f4e81b1-1387-49e0-b35a-4c6b0267d7b7","ios":"levelo://app?vid=8f4e81b1-1387-49e0-b35a-4c6b0267d7b7"},"vehicle_type_id":"4","last_reported":1687090320,"current_range_meters":11600,"station_id":"ce4bgj92rcd13ifvqbe0","pricing_plan_id":"free"},{"bike_id":"5fdd917c-4384-4127-a3c4-1406dd7ca32d","system_id":"levelo_inurba_marseille","lat":43.27618,"lon":5.361009,"is_reserved":false,"is_disabled":false,"rental_uris":{"android":"levelo://app?vid=5fdd917c-4384-4127-a3c4-1406dd7ca32d","ios":"levelo://app?vid=5fdd917c-4384-4127-a3c4-1406dd7ca32d"},"vehicle_type_id":"4","last_reported":1687090320,"current_range_meters":17200,"station_id":"ce4bgj92rcd13ifvqbe0","pricing_plan_id":"free"},{"bike_id":"d37cee95-a29b-41cd-a7d9-c1521a3d058a","system_id":"levelo_inurba_marseille","lat":43.32551,"lon":5.41442,"is_reserved":false,"is_disabled":false,"rental_uris":{"android":"levelo://app?vid=d37cee95-a29b-41cd-a7d9-c1521a3d058a","ios":"levelo://app?vid=d37cee95-a29b-41cd-a7d9-c1521a3d058a"},"vehicle_type_id":"4","last_reported":1687090320,"current_range_meters":31200,"station_id":"ce4bhq12rcd13ifvqhhg","pricing_plan_id":"free"},{"bike_id":"1c254128-9e8c-425d-afe5-8bb38d5fb28d","system_id":"levelo_inurba_marseille","lat":43.32546,"lon":5.41447,"is_reserved":false,"is_disabled":false,"rental_uris":{"android":"levelo://app?vid=1c254128-9e8c-425d-afe5-8bb38d5fb28d","ios":"levelo://app?vid=1c254128-9e8c-425d-afe5-8bb38d5fb28d"},"vehicle_type_id":"4","last_reported":1687090320,"current_range_meters":28400,"station_id":"ce4bhq12rcd13ifvqhhg","pricing_plan_id":"free"},{"bike_id":"0ba53651-50ff-49f4-a409-fc8bb2625444","system_id":"levelo_inurba_marseille","lat":43.27613,"lon":5.36102,"is_reserved":false,"is_disabled":false,"rental_uris":{"android":"levelo://app?vid=0ba53651-50ff-49f4-a409-fc8bb2625444","ios":"levelo://app?vid=0ba53651-50ff-49f4-a409-fc8bb2625444"},"vehicle_type_id":"4","last_reported":1687090320,"current_range_meters":24400,"station_id":"ce4bgj92rcd13ifvqbe0","pricing_plan_id":"free"},{"bike_id":"defb0dea-c8da-41b9-8572-98b31fa8f554","system_id":"levelo_inurba_marseille","lat":43.276179,"lon":5.361009,"is_reserved":false,"is_disabled":false,"rental_uris":{"android":"levelo://app?vid=defb0dea-c8da-41b9-8572-98b31fa8f554","ios":"levelo://app?vid=defb0dea-c8da-41b9-8572-98b31fa8f554"},"vehicle_type_id":"4","last_reported":1687090320,"current_range_meters":31200,"station_id":"ce4bgj92rcd13ifvqbe0","pricing_plan_id":"free"},