{"last_updated":1779018806,"ttl":60,"version":"2.2","data":{"bikes":[{"bike_id":"9328df09-7c77-4ef9-a326-cd1cda9dd29d","system_id":"levelo_inurba_marseille","lat":43.30774,"lon":5.38523,"is_reserved":false,"is_disabled":false,"rental_uris":{"android":"levelo://app?vid=9328df09-7c77-4ef9-a326-cd1cda9dd29d","ios":"levelo://app?vid=9328df09-7c77-4ef9-a326-cd1cda9dd29d"},"vehicle_type_id":"4","last_reported":1779018807,"current_range_meters":2800,"station_id":"","pricing_plan_id":"cebpf4jnsgd1na2vs0mg"},{"bike_id":"b8fbe032-d20a-439b-b6cf-db5f5cee0715","system_id":"levelo_inurba_marseille","lat":43.21742,"lon":5.34606,"is_reserved":false,"is_disabled":false,"rental_uris":{"android":"levelo://app?vid=b8fbe032-d20a-439b-b6cf-db5f5cee0715","ios":"levelo://app?vid=b8fbe032-d20a-439b-b6cf-db5f5cee0715"},"vehicle_type_id":"4","last_reported":1779018807,"current_range_meters":2800,"station_id":"st_cvj6r9ubvosntc0bgbag","pricing_plan_id":"cebpf4jnsgd1na2vs0mg"},{"bike_id":"b1b1c9ad-0e11-41a8-95b1-ee1803460284","system_id":"levelo_inurba_marseille","lat":43.3355,"lon":5.37467,"is_reserved":false,"is_disabled":false,"rental_uris":{"android":"levelo://app?vid=b1b1c9ad-0e11-41a8-95b1-ee1803460284","ios":"levelo://app?vid=b1b1c9ad-0e11-41a8-95b1-ee1803460284"},"vehicle_type_id":"4","last_reported":1779018807,"current_range_meters":2800,"station_id":"st_d46tts09ee8s73dlu43g","pricing_plan_id":"cebpf4jnsgd1na2vs0mg"},{"bike_id":"5393bf7f-c07d-40d5-9561-94e6178a5509","system_id":"levelo_inurba_marseille","lat":43.30596,"lon":5.39356,"is_reserved":false,"is_disabled":false,"rental_uris":{"android":"levelo://app?vid=5393bf7f-c07d-40d5-9561-94e6178a5509","ios":"levelo://app?vid=5393bf7f-c07d-40d5-9561-94e6178a5509"},"vehicle_type_id":"4","last_reported":1779018807,"current_range_meters":2800,"station_id":"ce4bh0p2rcd13ifvqd80","pricing_plan_id":"cebpf4jnsgd1na2vs0mg"},{"bike_id":"5b61ad3d-c4b3-4bf0-9170-da55ed29dbbb","system_id":"levelo_inurba_marseille","lat":43.30724,"lon":5.39261,"is_reserved":false,"is_disabled":false,"rental_uris":{"android":"levelo://app?vid=5b61ad3d-c4b3-4bf0-9170-da55ed29dbbb","ios":"levelo://app?vid=5b61ad3d-c4b3-4bf0-9170-da55ed29dbbb"},"vehicle_type_id":"4","last_reported":1779018807,"current_range_meters":2800,"station_id":"","pricing_plan_id":"cebpf4jnsgd1na2vs0mg"},{"bike_id":"b645593d-f67c-4f1b-b9f9-f8e1b08f24ee","system_id":"levelo_inurba_marseille","lat":43.25094,"lon":5.41347,"is_reserved":false,"is_disabled":false,"rental_uris":{"android":"levelo://app?vid=b645593d-f67c-4f1b-b9f9-f8e1b08f24ee","ios":"levelo://app?vid=b645593d-f67c-4f1b-b9f9-f8e1b08f24ee"},"vehicle_type_id":"4","last_reported":1779018807,"current_range_meters":2800,"station_id":"","pricing_plan_id":"cebpf4jnsgd1na2vs0mg"},{"bike_id":"dc437964-578c-4f7a-be1e-9a5b7abec9f5","system_id":"levelo_inurba_marseille","lat":43.2453,"lon":5.37608,"is_reserved":false,"is_disabled":false,"rental_uris":{"android":"levelo://app?vid=dc437964-578c-4f7a-be1e-9a5b7abec9f5","ios":"levelo://app?vid=dc437964-578c-4f7a-be1e-9a5b7abec9f5"},"vehicle_type_id":"4","last_reported":1779018807,"current_range_meters":2800,"station_id":"","pricing_plan_id":"cebpf4jnsgd1na2vs0mg"},{"bike_id":"b78a5007-a3f9-4d4f-b4e5-799aa180d7f8","system_id":"levelo_inurba_marseille","lat":43.32063,"lon":5.41564,"is_reserved":false,"is_disabled":true,"rental_uris":{"android":"levelo://app?vid=b78a5007-a3f9-4d4f-b4e5-799aa180d7f8","ios":"levelo://app?vid=b78a5007-a3f9-4d4f-b4e5-799aa180d7f8"},"vehicle_type_id":"4","last_reported":1779018807,"current_range_meters":2800,"station_id":"ce4bhq92rcd13ifvqhkg","pricing_plan_id":"cebpf4jnsgd1na2vs0mg"},{"bike_id":"44daf14d-e9df-4bf5-93d3-767f2584db2c","system_id":"levelo_inurba_marseille","lat":43.2468,"lon":5.38144,"is_reserved":false,"is_disabled":false,"rental_uris":{"android":"levelo://app?vid=44daf14d-e9df-4bf5-93d3-767f2584db2c","ios":"levelo://app?vid=44daf14d-e9df-4bf5-93d3-767f2584db2c"},"vehicle_type_id":"4","last_reported":1779018807,"current_range_meters":2800,"station_id":"ce4bhih2rcd13ifvqfr0","pricing_plan_id":"cebpf4jnsgd1na2vs0mg"},{"bike_id":"12c92462-d2b9-40f5-8c8b-fc13cd6525bc","system_id":"levelo_inurba_marseille","lat":43.231942,"lon":5.355537,"is_reserved":false,"is_disabled":false,"rental_uris":{"android":"levelo://app?vid=12c92462-d2b9-40f5-8c8b-fc13cd6525bc","ios":"levelo://app?vid=12c92462-d2b9-40f5-8c8b-fc13cd6525bc"},"vehicle_type_id":"4","last_reported":1779018807,"current_range_meters":2800,"station_id":"ce4bhu92rcd13ifvqi70","pricing_plan_id":"cebpf4jnsgd1na2vs0mg"},{"bike_id":"7fd7c1bb-0ed2-4eb7-959c-daab2eec52f3","system_id":"levelo_inurba_marseille","lat":43.24532,"lon":5.39522,"is_reserved":false,"is_disabled":true,"rental_uris":{"android":"levelo://app?vid=7fd7c1bb-0ed2-4eb7-959c-daab2eec52f3","ios":"levelo://app?vid=7fd7c1bb-0ed2-4eb7-959c-daab2eec52f3"},"vehicle_type_id":"4","last_reported":1779018807,"current_range_meters":3200,"station_id":"ce4bhlp2rcd13ifvqgjg","pricing_plan_id":"cebpf4jnsgd1na2vs0mg"},{"bike_id":"6dc16f1d-e4da-4a93-8782-57eeb7ef112c","system_id":"levelo_inurba_marseille","lat":43.24954,"lon":5.40482,"is_reserved":false,"is_disabled":false,"rental_uris":{"android":"levelo://app?vid=6dc16f1d-e4da-4a93-8782-57eeb7ef112c","ios":"levelo://app?vid=6dc16f1d-e4da-4a93-8782-57eeb7ef112c"},"vehicle_type_id":"4","last_reported":1779018807,"current_range_meters":3200,"station_id":"st_d2ngiaodas8pm72gd1h0","pricing_plan_id":"cebpf4jnsgd1na2vs0mg"},{"bike_id":"2c16faf4-4152-4d1b-bc38-7eb92ab9aa56","system_id":"levelo_inurba_marseille","lat":43.2397,"lon":5.36625,"is_reserved":false,"is_disabled":false,"rental_uris":{"android":"levelo://app?vid=2c16faf4-4152-4d1b-bc38-7eb92ab9aa56","ios":"levelo://app?vid=2c16faf4-4152-4d1b-bc38-7eb92ab9aa56"},"vehicle_type_id":"4","last_reported":1779018807,"current_range_meters":3200,"station_id":"ce4bhi12rcd13ifvqfp0","pricing_plan_id":"cebpf4jnsgd1na2vs0mg"},{"bike_id":"b9fc383d-7675-4ac1-96a8-b14863e064c9","system_id":"levelo_inurba_marseille","lat":43.31314,"lon":5.37244,"is_reserved":false,"is_disabled":false,"rental_uris":{"android":"levelo://app?vid=b9fc383d-7675-4ac1-96a8-b14863e064c9","ios":"levelo://app?vid=b9fc383d-7675-4ac1-96a8-b14863e064c9"},"vehicle_type_id":"4","last_reported":1779018807,"current_range_meters":3200,"station_id":"","pricing_plan_id":"cebpf4jnsgd1na2vs0mg"},{"bike_id":"2ee809bb-d63f-4087-b626-672eb38eefa3","system_id":"levelo_inurba_marseille","lat":43.27202,"lon":5.3919,"is_reserved":false,"is_disabled":false,"rental_uris":{"android":"levelo://app?vid=2ee809bb-d63f-4087-b626-672eb38eefa3","ios":"levelo://app?vid=2ee809bb-d63f-4087-b626-672eb38eefa3"},"vehicle_type_id":"4","last_reported":1779018807,"current_range_meters":3200,"station_id":"ce4bhhp2rcd13ifvqfm0","pricing_plan_id":"cebpf4jnsgd1na2vs0mg"},{"bike_id":"394420b5-a379-4c28-a507-d3fa9c330d53","system_id":"levelo_inurba_marseille","lat":43.273175,"lon":5.390652,"is_reserved":false,"is_disabled":false,"rental_uris":{"android":"levelo://app?vid=394420b5-a379-4c28-a507-d3fa9c330d53","ios":"levelo://app?vid=394420b5-a379-4c28-a507-d3fa9c330d53"},"vehicle_type_id":"4","last_reported":1779018807,"current_range_meters":3200,"station_id":"ce4bhgp2rcd13ifvqfe0","pricing_plan_id":"cebpf4jnsgd1na2vs0mg"},{"bike_id":"89528495-8de8-4d06-8a4f-1aa2f1756f47","system_id":"levelo_inurba_marseille","lat":43.305957,"lon":5.372308,"is_reserved":false,"is_disabled":false,"rental_uris":{"android":"levelo://app?vid=89528495-8de8-4d06-8a4f-1aa2f1756f47","ios":"levelo://app?vid=89528495-8de8-4d06-8a4f-1aa2f1756f47"},"vehicle_type_id":"4","last_reported":1779018807,"current_range_meters":3200,"station_id":"ce4bgqh2rcd13ifvqc4g","pricing_plan_id":"cebpf4jnsgd1na2vs0mg"},{"bike_id":"e11cc83a-4e70-4264-b131-051e7565a15a","system_id":"levelo_inurba_marseille","lat":43.250033,"lon":5.389136,"is_reserved":false,"is_disabled":false,"rental_uris":{"android":"levelo://app?vid=e11cc83a-4e70-4264-b131-051e7565a15a","ios":"levelo://app?vid=e11cc83a-4e70-4264-b131-051e7565a15a"},"vehicle_type_id":"4","last_reported":1779018807,"current_range_meters":3200,"station_id":"ce4bhgp2rcd13ifvqfd0","pricing_plan_id":"cebpf4jnsgd1na2vs0mg"},{"bike_id":"668be714-b1b0-4a0f-9463-f5a0dd695346","system_id":"levelo_inurba_marseille","lat":43.27984,"lon":5.36338,"is_reserved":false,"is_disabled":false,"rental_uris":{"android":"levelo://app?vid=668be714-b1b0-4a0f-9463-f5a0dd695346","ios":"levelo://app?vid=668be714-b1b0-4a0f-9463-f5a0dd695346"},"vehicle_type_id":"4","last_reported":1779018807,"current_range_meters":3200,"station_id":"","pricing_plan_id":"cebpf4jnsgd1na2vs0mg"},{"bike_id":"0511996d-2886-41db-ae63-a00ba642c1f1","system_id":"levelo_inurba_marseille","lat":43.2315,"lon":5.437232,"is_reserved":false,"is_disabled":false,"rental_uris":{"android":"levelo://app?vid=0511996d-2886-41db-ae63-a00ba642c1f1","ios":"levelo://app?vid=0511996d-2886-41db-ae63-a00ba642c1f1"},"vehicle_type_id":"4","last_reported":1779018807,"current_range_meters":3200,"station_id":"ce4bhmp2rcd13ifvqgog","pricing_plan_id":"cebpf4jnsgd1na2vs0mg"},{"bike_id":"13d8c240-8d5c-4448-8712-2109fc96bf1e","system_id":"levelo_inurba_marseille","lat":43.22576,"lon":5.41623,"is_reserved":false,"is_disabled":false,"rental_uris":{"android":"levelo://app?vid=13d8c240-8d5c-4448-8712-2109fc96bf1e","ios":"levelo://app?vid=13d8c240-8d5c-4448-8712-2109fc96bf1e"},"vehicle_type_id":"4","last_reported":1779018807,"current_range_meters":3600,"station_id":"st_d2o4gvlbi1j2169b742g","pricing_plan_id":"cebpf4jnsgd1na2vs0mg"},{"bike_id":"6e7b9d2e-4ef1-43cb-b344-df85c95d538f","system_id":"levelo_inurba_marseille","lat":43.24623,"lon":5.43121,"is_reserved":false,"is_disabled":false,"rental_uris":{"android":"levelo://app?vid=6e7b9d2e-4ef1-43cb-b344-df85c95d538f","ios":"levelo://app?vid=6e7b9d2e-4ef1-43cb-b344-df85c95d538f"},"vehicle_type_id":"4","last_reported":1779018807,"current_range_meters":3600,"station_id":"st_d2m6c4gdas8pm72e190g","pricing_plan_id":"cebpf4jnsgd1na2vs0mg"},{"bike_id":"9ed94da8-b622-4ab0-ae02-edb7323ea989","system_id":"levelo_inurba_marseille","lat":43.25174,"lon":5.3752,"is_reserved":false,"is_disabled":false,"rental_uris":{"android":"levelo://app?vid=9ed94da8-b622-4ab0-ae02-edb7323ea989","ios":"levelo://app?vid=9ed94da8-b622-4ab0-ae02-edb7323ea989"},"vehicle_type_id":"4","last_reported":1779018807,"current_range_meters":3600,"station_id":"","pricing_plan_id":"cebpf4jnsgd1na2vs0mg"},{"bike_id":"810ef53a-5aff-49f3-99db-34213da1b1cf","system_id":"levelo_inurba_marseille","lat":43.28737,"lon":5.46709,"is_reserved":false,"is_disabled":false,"rental_uris":{"android":"levelo://app?vid=810ef53a-5aff-49f3-99db-34213da1b1cf","ios":"levelo://app?vid=810ef53a-5aff-49f3-99db-34213da1b1cf"},"vehicle_type_id":"4","last_reported":1779018807,"current_range_meters":3600,"station_id":"st_d6tc3vkotcvc738tfjhg","pricing_plan_id":"cebpf4jnsgd1na2vs0mg"},{"bike_id":"02056a51-f19e-49be-a3f0-7335be0e6c18","system_id":"levelo_inurba_marseille","lat":43.280345,"lon":5.399356,"is_reserved":false,"is_disabled":false,"rental_uris":{"android":"levelo://app?vid=02056a51-f19e-49be-a3f0-7335be0e6c18","ios":"levelo://app?vid=02056a51-f19e-49be-a3f0-7335be0e6c18"},"vehicle_type_id":"4","last_reported":1779018807,"current_range_meters":3600,"station_id":"ce4bhmh2rcd13ifvqgmg","pricing_plan_id":"cebpf4jnsgd1na2vs0mg"},{"bike_id":"c091a819-21d8-46ac-8161-23f60b78cf02","system_id":"levelo_inurba_marseille","lat":43.27622,"lon":5.36104,"is_reserved":false,"is_disabled":true,"rental_uris":{"android":"levelo://app?vid=c091a819-21d8-46ac-8161-23f60b78cf02","ios":"levelo://app?vid=c091a819-21d8-46ac-8161-23f60b78cf02"},"vehicle_type_id":"4","last_reported":1779018807,"current_range_meters":4000,"station_id":"ce4bgj92rcd13ifvqbe0","pricing_plan_id":"cebpf4jnsgd1na2vs0mg"},{"bike_id":"616353f1-4754-4f57-9465-e46d49d24354","system_id":"levelo_inurba_marseille","lat":43.3364,"lon":5.3629,"is_reserved":false,"is_disabled":false,"rental_uris":{"android":"levelo://app?vid=616353f1-4754-4f57-9465-e46d49d24354","ios":"levelo://app?vid=616353f1-4754-4f57-9465-e46d49d24354"},"vehicle_type_id":"4","last_reported":1779018807,"current_range_meters":4000,"station_id":"","pricing_plan_id":"cebpf4jnsgd1na2vs0mg"},{"bike_id":"eeab84a6-a5f1-4dc6-831e-70a65904c7bc","system_id":"levelo_inurba_marseille","lat":43.28419,"lon":5.3751,"is_reserved":false,"is_disabled":false,"rental_uris":{"android":"levelo://app?vid=eeab84a6-a5f1-4dc6-831e-70a65904c7bc","ios":"levelo://app?vid=eeab84a6-a5f1-4dc6-831e-70a65904c7bc"},"vehicle_type_id":"4","last_reported":1779018807,"current_range_meters":4000,"station_id":"ce4bh412rcd13ifvqds0","pricing_plan_id":"cebpf4jnsgd1na2vs0mg"},{"bike_id":"35cc111d-eb53-47e4-98f0-c750725b8810","system_id":"levelo_inurba_marseille","lat":43.21196,"lon":5.35076,"is_reserved":false,"is_disabled":false,"rental_uris":{"android":"levelo://app?vid=35cc111d-eb53-47e4-98f0-c750725b8810","ios":"levelo://app?vid=35cc111d-eb53-47e4-98f0-c750725b8810"},"vehicle_type_id":"4","last_reported":1779018807,"current_range_meters":4000,"station_id":"st_cvj6sg6p6f1abm77japg","pricing_plan_id":"cebpf4jnsgd1na2vs0mg"},{"bike_id":"b5700011-a486-4e56-b8fb-207aaf85d4db","system_id":"levelo_inurba_marseille","lat":43.31891,"lon":5.36815,"is_reserved":false,"is_disabled":false,"rental_uris":{"android":"levelo://app?vid=b5700011-a486-4e56-b8fb-207aaf85d4db","ios":"levelo://app?vid=b5700011-a486-4e56-b8fb-207aaf85d4db"},"vehicle_type_id":"4","last_reported":1779018807,"current_range_meters":4000,"station_id":"st_d6o2h0d0559c73evc1b0","pricing_plan_id":"cebpf4jnsgd1na2vs0mg"},{"bike_id":"81832095-6c50-4593-877b-ce55c9c9db95","system_id":"levelo_inurba_marseille","lat":43.28936,"lon":5.36635,"is_reserved":false,"is_disabled":false,"rental_uris":{"android":"levelo://app?vid=81832095-6c50-4593-877b-ce55c9c9db95","ios":"levelo://app?vid=81832095-6c50-4593-877b-ce55c9c9db95"},"vehicle_type_id":"4","last_reported":1779018807,"current_range_meters":4000,"station_id":"ce4bhap2rcd13ifvqek0","pricing_plan_id":"cebpf4jnsgd1na2vs0mg"},{"bike_id":"0396681e-7b25-47a3-a905-bf5e66858498","system_id":"levelo_inurba_marseille","lat":43.27375,"lon":5.36251,"is_reserved":false,"is_disabled":false,"rental_uris":{"android":"levelo://app?vid=0396681e-7b25-47a3-a905-bf5e66858498","ios":"levelo://app?vid=0396681e-7b25-47a3-a905-bf5e66858498"},"vehicle_type_id":"4","last_reported":1779018807,"current_range_meters":4000,"station_id":"ce4bhbh2rcd13ifvqeo0","pricing_plan_id":"cebpf4jnsgd1na2vs0mg"},{"bike_id":"53ad98a2-ad38-4399-b8c1-ea057d876dba","system_id":"levelo_inurba_marseille","lat":43.25875,"lon":5.3989,"is_reserved":false,"is_disabled":false,"rental_uris":{"android":"levelo://app?vid=53ad98a2-ad38-4399-b8c1-ea057d876dba","ios":"levelo://app?vid=53ad98a2-ad38-4399-b8c1-ea057d876dba"},"vehicle_type_id":"4","last_reported":1779018807,"current_range_meters":4000,"station_id":"ce4bhl92rcd13ifvqghg","pricing_plan_id":"cebpf4jnsgd1na2vs0mg"},{"bike_id":"5370aa42-e2cc-447a-a1e6-78195bf21490","system_id":"levelo_inurba_marseille","lat":43.2678,"lon":5.39417,"is_reserved":false,"is_disabled":false,"rental_uris":{"android":"levelo://app?vid=5370aa42-e2cc-447a-a1e6-78195bf21490","ios":"levelo://app?vid=5370aa42-e2cc-447a-a1e6-78195bf21490"},"vehicle_type_id":"4","last_reported":1779018807,"current_range_meters":4000,"station_id":"ce4bhh12rcd13ifvqfg0","pricing_plan_id":"cebpf4jnsgd1na2vs0mg"},{"bike_id":"ef20a65f-19f4-4491-8360-61efaea0f2fe","system_id":"levelo_inurba_marseille","lat":43.27669,"lon":5.41379,"is_reserved":false,"is_disabled":false,"rental_uris":{"android":"levelo://app?vid=ef20a65f-19f4-4491-8360-61efaea0f2fe","ios":"levelo://app?vid=ef20a65f-19f4-4491-8360-61efaea0f2fe"},"vehicle_type_id":"4","last_reported":1779018807,"current_range_meters":4400,"station_id":"","pricing_plan_id":"cebpf4jnsgd1na2vs0mg"},{"bike_id":"1124e8ed-181a-445d-9220-36e963831e6c","system_id":"levelo_inurba_marseille","lat":43.239,"lon":5.37473,"is_reserved":false,"is_disabled":true,"rental_uris":{"android":"levelo://app?vid=1124e8ed-181a-445d-9220-36e963831e6c","ios":"levelo://app?vid=1124e8ed-181a-445d-9220-36e963831e6c"},"vehicle_type_id":"4","last_reported":1779018807,"current_range_meters":4400,"station_id":"st_d6sm7csbq4hs73f8fpjg","pricing_plan_id":"cebpf4jnsgd1na2vs0mg"},{"bike_id":"4ee69d41-30d6-469e-829a-74d2ce79aff4","system_id":"levelo_inurba_marseille","lat":43.33537,"lon":5.37449,"is_reserved":false,"is_disabled":false,"rental_uris":{"android":"levelo://app?vid=4ee69d41-30d6-469e-829a-74d2ce79aff4","ios":"levelo://app?vid=4ee69d41-30d6-469e-829a-74d2ce79aff4"},"vehicle_type_id":"4","last_reported":1779018807,"current_range_meters":4400,"station_id":"st_d46tts09ee8s73dlu43g","pricing_plan_id":"cebpf4jnsgd1na2vs0mg"},{"bike_id":"edd5c786-8d24-46bc-bdcd-f0f00a11c1c1","system_id":"levelo_inurba_marseille","lat":43.25512,"lon":5.3765,"is_reserved":false,"is_disabled":true,"rental_uris":{"android":"levelo://app?vid=edd5c786-8d24-46bc-bdcd-f0f00a11c1c1","ios":"levelo://app?vid=edd5c786-8d24-46bc-bdcd-f0f00a11c1c1"},"vehicle_type_id":"4","last_reported":1779018807,"current_range_meters":4400,"station_id":"ce4bhh12rcd13ifvqff0","pricing_plan_id":"cebpf4jnsgd1na2vs0mg"},{"bike_id":"28271e03-4074-4ce5-a9f5-7898338c9e48","system_id":"levelo_inurba_marseille","lat":43.29713,"lon":5.3661,"is_reserved":false,"is_disabled":false,"rental_uris":{"android":"levelo://app?vid=28271e03-4074-4ce5-a9f5-7898338c9e48","ios":"levelo://app?vid=28271e03-4074-4ce5-a9f5-7898338c9e48"},"vehicle_type_id":"4","last_reported":1779018807,"current_range_meters":4400,"station_id":"ce4bgn12rcd13ifvqbt0","pricing_plan_id":"cebpf4jnsgd1na2vs0mg"},{"bike_id":"5f777144-b9a3-4ff6-b1d4-4400f21cc9a7","system_id":"levelo_inurba_marseille","lat":43.29633,"lon":5.40559,"is_reserved":false,"is_disabled":false,"rental_uris":{"android":"levelo://app?vid=5f777144-b9a3-4ff6-b1d4-4400f21cc9a7","ios":"levelo://app?vid=5f777144-b9a3-4ff6-b1d4-4400f21cc9a7"},"vehicle_type_id":"4","last_reported":1779018807,"current_range_meters":4800,"station_id":"ce4bh0h2rcd13ifvqd60","pricing_plan_id":"cebpf4jnsgd1na2vs0mg"},{"bike_id":"228eb895-fcc0-4a95-b252-7e10eb4da836","system_id":"levelo_inurba_marseille","lat":43.23155,"lon":5.43703,"is_reserved":false,"is_disabled":false,"rental_uris":{"android":"levelo://app?vid=228eb895-fcc0-4a95-b252-7e10eb4da836","ios":"levelo://app?vid=228eb895-fcc0-4a95-b252-7e10eb4da836"},"vehicle_type_id":"4","last_reported":1779018807,"current_range_meters":4800,"station_id":"ce4bhmp2rcd13ifvqgog","pricing_plan_id":"cebpf4jnsgd1na2vs0mg"},{"bike_id":"df3b4c65-b594-43d2-9619-bf34b1560986","system_id":"levelo_inurba_marseille","lat":43.33549,"lon":5.37458,"is_reserved":false,"is_disabled":false,"rental_uris":{"android":"levelo://app?vid=df3b4c65-b594-43d2-9619-bf34b1560986","ios":"levelo://app?vid=df3b4c65-b594-43d2-9619-bf34b1560986"},"vehicle_type_id":"4","last_reported":1779018807,"current_range_meters":4800,"station_id":"st_d46tts09ee8s73dlu43g","pricing_plan_id":"cebpf4jnsgd1na2vs0mg"},{"bike_id":"31377f31-2715-44bc-b730-1af1ece20a20","system_id":"levelo_inurba_marseille","lat":43.2508,"lon":5.39524,"is_reserved":false,"is_disabled":false,"rental_uris":{"android":"levelo://app?vid=31377f31-2715-44bc-b730-1af1ece20a20","ios":"levelo://app?vid=31377f31-2715-44bc-b730-1af1ece20a20"},"vehicle_type_id":"4","last_reported":1779018807,"current_range_meters":4800,"station_id":"ce4bhm12rcd13ifvqgkg","pricing_plan_id":"cebpf4jnsgd1na2vs0mg"},{"bike_id":"7c9517e3-38cb-4a87-948b-926583eebece","system_id":"levelo_inurba_marseille","lat":43.21192,"lon":5.35069,"is_reserved":false,"is_disabled":false,"rental_uris":{"android":"levelo://app?vid=7c9517e3-38cb-4a87-948b-926583eebece","ios":"levelo://app?vid=7c9517e3-38cb-4a87-948b-926583eebece"},"vehicle_type_id":"4","last_reported":1779018807,"current_range_meters":4800,"station_id":"st_cvj6sg6p6f1abm77japg","pricing_plan_id":"cebpf4jnsgd1na2vs0mg"},{"bike_id":"0d50daf1-0ebe-4070-a3f4-50a2aaf9e668","system_id":"levelo_inurba_marseille","lat":43.24551,"lon":5.3951,"is_reserved":false,"is_disabled":true,"rental_uris":{"android":"levelo://app?vid=0d50daf1-0ebe-4070-a3f4-50a2aaf9e668","ios":"levelo://app?vid=0d50daf1-0ebe-4070-a3f4-50a2aaf9e668"},"vehicle_type_id":"4","last_reported":1779018807,"current_range_meters":4800,"station_id":"ce4bhlp2rcd13ifvqgjg","pricing_plan_id":"cebpf4jnsgd1na2vs0mg"},{"bike_id":"c7b91597-128c-467f-97fc-5dfa8d91c3f4","system_id":"levelo_inurba_marseille","lat":43.28855,"lon":5.3584,"is_reserved":false,"is_disabled":false,"rental_uris":{"android":"levelo://app?vid=c7b91597-128c-467f-97fc-5dfa8d91c3f4","ios":"levelo://app?vid=c7b91597-128c-467f-97fc-5dfa8d91c3f4"},"vehicle_type_id":"4","last_reported":1779018807,"current_range_meters":4800,"station_id":"ce4bhb12rcd13ifvqem0","pricing_plan_id":"cebpf4jnsgd1na2vs0mg"},{"bike_id":"bd40cf55-601a-440c-ab8f-d78872810061","system_id":"levelo_inurba_marseille","lat":43.26217,"lon":5.37424,"is_reserved":false,"is_disabled":false,"rental_uris":{"android":"levelo://app?vid=bd40cf55-601a-440c-ab8f-d78872810061","ios":"levelo://app?vid=bd40cf55-601a-440c-ab8f-d78872810061"},"vehicle_type_id":"4","last_reported":1779018807,"current_range_meters":4800,"station_id":"ce4bhgp2rcd13ifvqfc0","pricing_plan_id":"cebpf4jnsgd1na2vs0mg"},{"bike_id":"9c9a1a74-3f10-44f1-99ca-6350204cb216","system_id":"levelo_inurba_marseille","lat":43.23151,"lon":5.43722,"is_reserved":false,"is_disabled":false,"rental_uris":{"android":"levelo://app?vid=9c9a1a74-3f10-44f1-99ca-6350204cb216","ios":"levelo://app?vid=9c9a1a74-3f10-44f1-99ca-6350204cb216"},"vehicle_type_id":"4","last_reported":1779018807,"current_range_meters":4800,"station_id":"ce4bhmp2rcd13ifvqgog","pricing_plan_id":"cebpf4jnsgd1na2vs0mg"},{"bike_id":"1f255333-0dee-46a8-8f6a-ce22f3ff59bd","system_id":"levelo_inurba_marseille","lat":43.22532,"lon":5.34833,"is_reserved":false,"is_disabled":true,"rental_uris":{"android":"levelo://app?vid=1f255333-0dee-46a8-8f6a-ce22f3ff59bd","ios":"levelo://app?vid=1f255333-0dee-46a8-8f6a-ce22f3ff59bd"},"vehicle_type_id":"4","last_reported":1779018807,"current_range_meters":4800,"station_id":"st_cvj5dfep6f1abm77gieg","pricing_plan_id":"cebpf4jnsgd1na2vs0mg"},{"bike_id":"b25482e1-1e44-4097-85b8-45c7a8a7b1d1","system_id":"levelo_inurba_marseille","lat":43.28446,"lon":5.35893,"is_reserved":false,"is_disabled":false,"rental_uris":{"android":"levelo://app?vid=b25482e1-1e44-4097-85b8-45c7a8a7b1d1","ios":"levelo://app?vid=b25482e1-1e44-4097-85b8-45c7a8a7b1d1"},"vehicle_type_id":"4","last_reported":1779018807,"current_range_meters":4800,"station_id":"ce4bhah2rcd13ifvqei0","pricing_plan_id":"cebpf4jnsgd1na2vs0mg"},{"bike_id":"5bd709cf-a859-4d99-8c17-5c3611eb97a4","system_id":"levelo_inurba_marseille","lat":43.28421,"lon":5.34989,"is_reserved":false,"is_disabled":false,"rental_uris":{"android":"levelo://app?vid=5bd709cf-a859-4d99-8c17-5c3611eb97a4","ios":"levelo://app?vid=5bd709cf-a859-4d99-8c17-5c3611eb97a4"},"vehicle_type_id":"4","last_reported":1779018807,"current_range_meters":4800,"station_id":"ce4bhbh2rcd13ifvqepg","pricing_plan_id":"cebpf4jnsgd1na2vs0mg"},{"bike_id":"60c981eb-ff70-4131-aaf0-07cac0b1ed6b","system_id":"levelo_inurba_marseille","lat":43.26574,"lon":5.37305,"is_reserved":false,"is_disabled":false,"rental_uris":{"android":"levelo://app?vid=60c981eb-ff70-4131-aaf0-07cac0b1ed6b","ios":"levelo://app?vid=60c981eb-ff70-4131-aaf0-07cac0b1ed6b"},"vehicle_type_id":"4","last_reported":1779018807,"current_range_meters":4800,"station_id":"ce4bhg12rcd13ifvqf70","pricing_plan_id":"cebpf4jnsgd1na2vs0mg"},{"bike_id":"460eae35-595e-42a5-92ab-ee5ae7f8ded6","system_id":"levelo_inurba_marseille","lat":43.29936,"lon":5.36545,"is_reserved":false,"is_disabled":false,"rental_uris":{"android":"levelo://app?vid=460eae35-595e-42a5-92ab-ee5ae7f8ded6","ios":"levelo://app?vid=460eae35-595e-42a5-92ab-ee5ae7f8ded6"},"vehicle_type_id":"4","last_reported":1779018807,"current_range_meters":4800,"station_id":"ce4bgm92rcd13ifvqbr0","pricing_plan_id":"cebpf4jnsgd1na2vs0mg"},{"bike_id":"b3154e5e-6225-4535-a223-cf0e598af43c","system_id":"levelo_inurba_marseille","lat":43.28272,"lon":5.35073,"is_reserved":false,"is_disabled":false,"rental_uris":{"android":"levelo://app?vid=b3154e5e-6225-4535-a223-cf0e598af43c","ios":"levelo://app?vid=b3154e5e-6225-4535-a223-cf0e598af43c"},"vehicle_type_id":"4","last_reported":1779018807,"current_range_meters":4800,"station_id":"ce4bhbp2rcd13ifvqerg","pricing_plan_id":"cebpf4jnsgd1na2vs0mg"},{"bike_id":"d16f212b-c708-4336-af89-f6d336d8d79c","system_id":"levelo_inurba_marseille","lat":43.28714,"lon":5.46686,"is_reserved":false,"is_disabled":false,"rental_uris":{"android":"levelo://app?vid=d16f212b-c708-4336-af89-f6d336d8d79c","ios":"levelo://app?vid=d16f212b-c708-4336-af89-f6d336d8d79c"},"vehicle_type_id":"4","last_reported":1779018807,"current_range_meters":5600,"station_id":"st_d6tc3vkotcvc738tfjhg","pricing_plan_id":"cebpf4jnsgd1na2vs0mg"},{"bike_id":"c7c45be6-5d9a-4e09-909b-32656e36375a","system_id":"levelo_inurba_marseille","lat":43.25202,"lon":5.37408,"is_reserved":false,"is_disabled":false,"rental_uris":{"android":"levelo://app?vid=c7c45be6-5d9a-4e09-909b-32656e36375a","ios":"levelo://app?vid=c7c45be6-5d9a-4e09-909b-32656e36375a"},"vehicle_type_id":"4","last_reported":1779018807,"current_range_meters":5600,"station_id":"","pricing_plan_id":"cebpf4jnsgd1na2vs0mg"},{"bike_id":"ed4acfe3-c7d2-44e0-92e3-9e43103cc976","system_id":"levelo_inurba_marseille","lat":43.28617,"lon":5.35098,"is_reserved":false,"is_disabled":false,"rental_uris":{"android":"levelo://app?vid=ed4acfe3-c7d2-44e0-92e3-9e43103cc976","ios":"levelo://app?vid=ed4acfe3-c7d2-44e0-92e3-9e43103cc976"},"vehicle_type_id":"4","last_reported":1779018807,"current_range_meters":5600,"station_id":"ce4bhch2rcd13ifvqeug","pricing_plan_id":"cebpf4jnsgd1na2vs0mg"},{"bike_id":"065e2ad1-3005-4618-8e9b-48ad71ccb46b","system_id":"levelo_inurba_marseille","lat":43.29032,"lon":5.38644,"is_reserved":false,"is_disabled":false,"rental_uris":{"android":"levelo://app?vid=065e2ad1-3005-4618-8e9b-48ad71ccb46b","ios":"levelo://app?vid=065e2ad1-3005-4618-8e9b-48ad71ccb46b"},"vehicle_type_id":"4","last_reported":1779018807,"current_range_meters":5600,"station_id":"ce4bh4p2rcd13ifvqe0g","pricing_plan_id":"cebpf4jnsgd1na2vs0mg"},{"bike_id":"79446d17-55d1-4c22-b660-bf34de1cc0f1","system_id":"levelo_inurba_marseille","lat":43.243873,"lon":5.370698,"is_reserved":false,"is_disabled":false,"rental_uris":{"android":"levelo://app?vid=79446d17-55d1-4c22-b660-bf34de1cc0f1","ios":"levelo://app?vid=79446d17-55d1-4c22-b660-bf34de1cc0f1"},"vehicle_type_id":"4","last_reported":1779018807,"current_range_meters":5600,"station_id":"ce4bhhh2rcd13ifvqfk0","pricing_plan_id":"cebpf4jnsgd1na2vs0mg"},{"bike_id":"39f5e5e3-bdaa-431e-ab82-46a06c8cb2ae","system_id":"levelo_inurba_marseille","lat":43.24461,"lon":5.42539,"is_reserved":false,"is_disabled":false,"rental_uris":{"android":"levelo://app?vid=39f5e5e3-bdaa-431e-ab82-46a06c8cb2ae","ios":"levelo://app?vid=39f5e5e3-bdaa-431e-ab82-46a06c8cb2ae"},"vehicle_type_id":"4","last_reported":1779018807,"current_range_meters":5600,"station_id":"st_d4a3vfp97mjs738cd8kg","pricing_plan_id":"cebpf4jnsgd1na2vs0mg"},{"bike_id":"d31b52c9-1df3-42e9-8196-d29dd13f7b1c","system_id":"levelo_inurba_marseille","lat":43.29979,"lon":5.41326,"is_reserved":false,"is_disabled":false,"rental_uris":{"android":"levelo://app?vid=d31b52c9-1df3-42e9-8196-d29dd13f7b1c","ios":"levelo://app?vid=d31b52c9-1df3-42e9-8196-d29dd13f7b1c"},"vehicle_type_id":"4","last_reported":1779018807,"current_range_meters":5600,"station_id":"ce4bhp12rcd13ifvqh9g","pricing_plan_id":"cebpf4jnsgd1na2vs0mg"},{"bike_id":"264be224-53e3-492e-a159-efc4fcfb6de9","system_id":"levelo_inurba_marseille","lat":43.28621,"lon":5.351,"is_reserved":false,"is_disabled":false,"rental_uris":{"android":"levelo://app?vid=264be224-53e3-492e-a159-efc4fcfb6de9","ios":"levelo://app?vid=264be224-53e3-492e-a159-efc4fcfb6de9"},"vehicle_type_id":"4","last_reported":1779018807,"current_range_meters":5600,"station_id":"ce4bhch2rcd13ifvqeug","pricing_plan_id":"cebpf4jnsgd1na2vs0mg"},{"bike_id":"9c6f21a0-479c-4e0b-b731-bba89f4e20c2","system_id":"levelo_inurba_marseille","lat":43.29217,"lon":5.36035,"is_reserved":false,"is_disabled":false,"rental_uris":{"android":"levelo://app?vid=9c6f21a0-479c-4e0b-b731-bba89f4e20c2","ios":"levelo://app?vid=9c6f21a0-479c-4e0b-b731-bba89f4e20c2"},"vehicle_type_id":"4","last_reported":1779018807,"current_range_meters":5600,"station_id":"ce4bhbh2rcd13ifvqeqg","pricing_plan_id":"cebpf4jnsgd1na2vs0mg"},{"bike_id":"dba68f5b-73cd-4db8-b1a3-9c3f5397f948","system_id":"levelo_inurba_marseille","lat":43.24669,"lon":5.38155,"is_reserved":false,"is_disabled":false,"rental_uris":{"android":"levelo://app?vid=dba68f5b-73cd-4db8-b1a3-9c3f5397f948","ios":"levelo://app?vid=dba68f5b-73cd-4db8-b1a3-9c3f5397f948"},"vehicle_type_id":"4","last_reported":1779018807,"current_range_meters":5600,"station_id":"ce4bhih2rcd13ifvqfr0","pricing_plan_id":"cebpf4jnsgd1na2vs0mg"},{"bike_id":"4e5bd537-c85f-4cfa-a272-100a01edb9bf","system_id":"levelo_inurba_marseille","lat":43.31687,"lon":5.40479,"is_reserved":false,"is_disabled":false,"rental_uris":{"android":"levelo://app?vid=4e5bd537-c85f-4cfa-a272-100a01edb9bf","ios":"levelo://app?vid=4e5bd537-c85f-4cfa-a272-100a01edb9bf"},"vehicle_type_id":"4","last_reported":1779018807,"current_range_meters":6000,"station_id":"ce4bh012rcd13ifvqd00","pricing_plan_id":"cebpf4jnsgd1na2vs0mg"},{"bike_id":"59ebfeaf-288c-4113-86b3-96065d458976","system_id":"levelo_inurba_marseille","lat":43.33197,"lon":5.37692,"is_reserved":false,"is_disabled":false,"rental_uris":{"android":"levelo://app?vid=59ebfeaf-288c-4113-86b3-96065d458976","ios":"levelo://app?vid=59ebfeaf-288c-4113-86b3-96065d458976"},"vehicle_type_id":"4","last_reported":1779018807,"current_range_meters":6000,"station_id":"st_d46cu089ee8s73dldbu0","pricing_plan_id":"cebpf4jnsgd1na2vs0mg"},{"bike_id":"77aefab8-8e6e-4772-bad4-79cb2d83ab10","system_id":"levelo_inurba_marseille","lat":43.28276,"lon":5.35075,"is_reserved":false,"is_disabled":false,"rental_uris":{"android":"levelo://app?vid=77aefab8-8e6e-4772-bad4-79cb2d83ab10","ios":"levelo://app?vid=77aefab8-8e6e-4772-bad4-79cb2d83ab10"},"vehicle_type_id":"4","last_reported":1779018807,"current_range_meters":6000,"station_id":"ce4bhbp2rcd13ifvqerg","pricing_plan_id":"cebpf4jnsgd1na2vs0mg"},{"bike_id":"37ca5b86-b3d0-4bc0-80e9-3ce47d4dd8d3","system_id":"levelo_inurba_marseille","lat":43.23893,"lon":5.37455,"is_reserved":false,"is_disabled":false,"rental_uris":{"android":"levelo://app?vid=37ca5b86-b3d0-4bc0-80e9-3ce47d4dd8d3","ios":"levelo://app?vid=37ca5b86-b3d0-4bc0-80e9-3ce47d4dd8d3"},"vehicle_type_id":"4","last_reported":1779018807,"current_range_meters":6000,"station_id":"st_d6sm7csbq4hs73f8fpjg","pricing_plan_id":"cebpf4jnsgd1na2vs0mg"},{"bike_id":"d62fe7cd-382b-455b-9bf9-8a21527437bd","system_id":"levelo_inurba_marseille","lat":43.24418,"lon":5.37408,"is_reserved":false,"is_disabled":false,"rental_uris":{"android":"levelo://app?vid=d62fe7cd-382b-455b-9bf9-8a21527437bd","ios":"levelo://app?vid=d62fe7cd-382b-455b-9bf9-8a21527437bd"},"vehicle_type_id":"4","last_reported":1779018807,"current_range_meters":6000,"station_id":"","pricing_plan_id":"cebpf4jnsgd1na2vs0mg"},{"bike_id":"ee51b083-ba62-43a1-8a0a-7eff9e26d1d2","system_id":"levelo_inurba_marseille","lat":43.2468,"lon":5.38146,"is_reserved":false,"is_disabled":false,"rental_uris":{"android":"levelo://app?vid=ee51b083-ba62-43a1-8a0a-7eff9e26d1d2","ios":"levelo://app?vid=ee51b083-ba62-43a1-8a0a-7eff9e26d1d2"},"vehicle_type_id":"4","last_reported":1779018807,"current_range_meters":6000,"station_id":"ce4bhih2rcd13ifvqfr0","pricing_plan_id":"cebpf4jnsgd1na2vs0mg"},{"bike_id":"41ed03a9-ce21-4903-a810-ca307a88c332","system_id":"levelo_inurba_marseille","lat":43.26225,"lon":5.40442,"is_reserved":false,"is_disabled":false,"rental_uris":{"android":"levelo://app?vid=41ed03a9-ce21-4903-a810-ca307a88c332","ios":"levelo://app?vid=41ed03a9-ce21-4903-a810-ca307a88c332"},"vehicle_type_id":"4","last_reported":1779018807,"current_range_meters":6000,"station_id":"ce4bhmh2rcd13ifvqgmg","pricing_plan_id":"cebpf4jnsgd1na2vs0mg"},{"bike_id":"c050486d-5df0-4fcf-9653-c603140d3eb9","system_id":"levelo_inurba_marseille","lat":43.249952,"lon":5.389289,"is_reserved":false,"is_disabled":false,"rental_uris":{"android":"levelo://app?vid=c050486d-5df0-4fcf-9653-c603140d3eb9","ios":"levelo://app?vid=c050486d-5df0-4fcf-9653-c603140d3eb9"},"vehicle_type_id":"4","last_reported":1779018807,"current_range_meters":6000,"station_id":"ce4bhgp2rcd13ifvqfd0","pricing_plan_id":"cebpf4jnsgd1na2vs0mg"},{"bike_id":"ad1f6fd4-c9ff-4829-9d36-b7cf41ff39ba","system_id":"levelo_inurba_marseille","lat":43.28,"lon":5.38718,"is_reserved":false,"is_disabled":true,"rental_uris":{"android":"levelo://app?vid=ad1f6fd4-c9ff-4829-9d36-b7cf41ff39ba","ios":"levelo://app?vid=ad1f6fd4-c9ff-4829-9d36-b7cf41ff39ba"},"vehicle_type_id":"4","last_reported":1779018807,"current_range_meters":6000,"station_id":"ce4bhg12rcd13ifvqf80","pricing_plan_id":"cebpf4jnsgd1na2vs0mg"},{"bike_id":"0c51c1ec-6061-4157-a13c-33014ecc65fe","system_id":"levelo_inurba_marseille","lat":43.22572,"lon":5.41617,"is_reserved":false,"is_disabled":false,"rental_uris":{"android":"levelo://app?vid=0c51c1ec-6061-4157-a13c-33014ecc65fe","ios":"levelo://app?vid=0c51c1ec-6061-4157-a13c-33014ecc65fe"},"vehicle_type_id":"4","last_reported":1779018807,"current_range_meters":6000,"station_id":"st_d2o4gvlbi1j2169b742g","pricing_plan_id":"cebpf4jnsgd1na2vs0mg"},{"bike_id":"bd23f2fa-8f30-487e-98d7-3125ee47779b","system_id":"levelo_inurba_marseille","lat":43.27514,"lon":5.43496,"is_reserved":false,"is_disabled":false,"rental_uris":{"android":"levelo://app?vid=bd23f2fa-8f30-487e-98d7-3125ee47779b","ios":"levelo://app?vid=bd23f2fa-8f30-487e-98d7-3125ee47779b"},"vehicle_type_id":"4","last_reported":1779018807,"current_range_meters":6000,"station_id":"","pricing_plan_id":"cebpf4jnsgd1na2vs0mg"},{"bike_id":"6b5f5f89-ab34-448a-b2c7-ae8a3e9a30f4","system_id":"levelo_inurba_marseille","lat":43.31909,"lon":5.40701,"is_reserved":false,"is_disabled":true,"rental_uris":{"android":"levelo://app?vid=6b5f5f89-ab34-448a-b2c7-ae8a3e9a30f4","ios":"levelo://app?vid=6b5f5f89-ab34-448a-b2c7-ae8a3e9a30f4"},"vehicle_type_id":"4","last_reported":1779018807,"current_range_meters":6000,"station_id":"ce4bhq12rcd13ifvqhig","pricing_plan_id":"cebpf4jnsgd1na2vs0mg"},{"bike_id":"11ea57c0-65f7-4628-b9e0-c567ecf6d704","system_id":"levelo_inurba_marseille","lat":43.27977,"lon":5.41043,"is_reserved":false,"is_disabled":false,"rental_uris":{"android":"levelo://app?vid=11ea57c0-65f7-4628-b9e0-c567ecf6d704","ios":"levelo://app?vid=11ea57c0-65f7-4628-b9e0-c567ecf6d704"},"vehicle_type_id":"4","last_reported":1779018807,"current_range_meters":6400,"station_id":"ce4bhnp2rcd13ifvqh0g","pricing_plan_id":"cebpf4jnsgd1na2vs0mg"},{"bike_id":"10644868-b904-4276-baa9-ed96c85e24ad","system_id":"levelo_inurba_marseille","lat":43.28417,"lon":5.34985,"is_reserved":false,"is_disabled":false,"rental_uris":{"android":"levelo://app?vid=10644868-b904-4276-baa9-ed96c85e24ad","ios":"levelo://app?vid=10644868-b904-4276-baa9-ed96c85e24ad"},"vehicle_type_id":"4","last_reported":1779018807,"current_range_meters":6400,"station_id":"ce4bhbh2rcd13ifvqepg","pricing_plan_id":"cebpf4jnsgd1na2vs0mg"},{"bike_id":"e3566072-694e-4577-b1fa-e9d82ad7dc02","system_id":"levelo_inurba_marseille","lat":43.29166,"lon":5.37148,"is_reserved":false,"is_disabled":false,"rental_uris":{"android":"levelo://app?vid=e3566072-694e-4577-b1fa-e9d82ad7dc02","ios":"levelo://app?vid=e3566072-694e-4577-b1fa-e9d82ad7dc02"},"vehicle_type_id":"4","last_reported":1779018807,"current_range_meters":6400,"station_id":"ce4bha92rcd13ifvqeh0","pricing_plan_id":"cebpf4jnsgd1na2vs0mg"},{"bike_id":"33a8c2e2-02c3-42f2-9f5e-df7fdca1e263","system_id":"levelo_inurba_marseille","lat":43.28605,"lon":5.36393,"is_reserved":false,"is_disabled":false,"rental_uris":{"android":"levelo://app?vid=33a8c2e2-02c3-42f2-9f5e-df7fdca1e263","ios":"levelo://app?vid=33a8c2e2-02c3-42f2-9f5e-df7fdca1e263"},"vehicle_type_id":"4","last_reported":1779018807,"current_range_meters":6400,"station_id":"","pricing_plan_id":"cebpf4jnsgd1na2vs0mg"},{"bike_id":"f1489f24-eb0d-4f47-a199-01b2b7e3cea5","system_id":"levelo_inurba_marseille","lat":43.30356,"lon":5.42459,"is_reserved":false,"is_disabled":false,"rental_uris":{"android":"levelo://app?vid=f1489f24-eb0d-4f47-a199-01b2b7e3cea5","ios":"levelo://app?vid=f1489f24-eb0d-4f47-a199-01b2b7e3cea5"},"vehicle_type_id":"4","last_reported":1779018807,"current_range_meters":6400,"station_id":"ce4bhoh2rcd13ifvqh6g","pricing_plan_id":"cebpf4jnsgd1na2vs0mg"},{"bike_id":"ae8622c3-2a1f-4fdf-a659-933c6d80c9e4","system_id":"levelo_inurba_marseille","lat":43.29766,"lon":5.42759,"is_reserved":false,"is_disabled":false,"rental_uris":{"android":"levelo://app?vid=ae8622c3-2a1f-4fdf-a659-933c6d80c9e4","ios":"levelo://app?vid=ae8622c3-2a1f-4fdf-a659-933c6d80c9e4"},"vehicle_type_id":"4","last_reported":1779018807,"current_range_meters":6400,"station_id":"st_d3md5207bmas73dh9klg","pricing_plan_id":"cebpf4jnsgd1na2vs0mg"},{"bike_id":"f6339ac7-6f1c-40eb-8be6-31a304b57f38","system_id":"levelo_inurba_marseille","lat":43.24164,"lon":5.36386,"is_reserved":false,"is_disabled":false,"rental_uris":{"android":"levelo://app?vid=f6339ac7-6f1c-40eb-8be6-31a304b57f38","ios":"levelo://app?vid=f6339ac7-6f1c-40eb-8be6-31a304b57f38"},"vehicle_type_id":"4","last_reported":1779018807,"current_range_meters":6400,"station_id":"cpo36qri1sfpv3e86is0","pricing_plan_id":"cebpf4jnsgd1na2vs0mg"},{"bike_id":"23c89db2-3379-4954-bc52-79e3a03adb59","system_id":"levelo_inurba_marseille","lat":43.27372,"lon":5.36252,"is_reserved":false,"is_disabled":false,"rental_uris":{"android":"levelo://app?vid=23c89db2-3379-4954-bc52-79e3a03adb59","ios":"levelo://app?vid=23c89db2-3379-4954-bc52-79e3a03adb59"},"vehicle_type_id":"4","last_reported":1779018807,"current_range_meters":6400,"station_id":"ce4bhbh2rcd13ifvqeo0","pricing_plan_id":"cebpf4jnsgd1na2vs0mg"},{"bike_id":"60e91d52-408f-41b9-86d8-fcefe5d5a260","system_id":"levelo_inurba_marseille","lat":43.28699,"lon":5.46677,"is_reserved":false,"is_disabled":false,"rental_uris":{"android":"levelo://app?vid=60e91d52-408f-41b9-86d8-fcefe5d5a260","ios":"levelo://app?vid=60e91d52-408f-41b9-86d8-fcefe5d5a260"},"vehicle_type_id":"4","last_reported":1779018807,"current_range_meters":6400,"station_id":"st_d6tc3vkotcvc738tfjhg","pricing_plan_id":"cebpf4jnsgd1na2vs0mg"},{"bike_id":"c66e49a7-8e9a-4b1b-a1f9-8e7e886dbf72","system_id":"levelo_inurba_marseille","lat":43.32536,"lon":5.41451,"is_reserved":false,"is_disabled":false,"rental_uris":{"android":"levelo://app?vid=c66e49a7-8e9a-4b1b-a1f9-8e7e886dbf72","ios":"levelo://app?vid=c66e49a7-8e9a-4b1b-a1f9-8e7e886dbf72"},"vehicle_type_id":"4","last_reported":1779018807,"current_range_meters":6800,"station_id":"ce4bhq12rcd13ifvqhhg","pricing_plan_id":"cebpf4jnsgd1na2vs0mg"},{"bike_id":"032fbbce-f9a4-4bef-952a-0977318b2380","system_id":"levelo_inurba_marseille","lat":43.24808,"lon":5.37453,"is_reserved":false,"is_disabled":false,"rental_uris":{"android":"levelo://app?vid=032fbbce-f9a4-4bef-952a-0977318b2380","ios":"levelo://app?vid=032fbbce-f9a4-4bef-952a-0977318b2380"},"vehicle_type_id":"4","last_reported":1779018807,"current_range_meters":6800,"station_id":"ce4bhgh2rcd13ifvqfb0","pricing_plan_id":"cebpf4jnsgd1na2vs0mg"},{"bike_id":"0a95d297-c3a3-464f-9528-624a1f033ca3","system_id":"levelo_inurba_marseille","lat":43.211898,"lon":5.350736,"is_reserved":false,"is_disabled":false,"rental_uris":{"android":"levelo://app?vid=0a95d297-c3a3-464f-9528-624a1f033ca3","ios":"levelo://app?vid=0a95d297-c3a3-464f-9528-624a1f033ca3"},"vehicle_type_id":"4","last_reported":1779018807,"current_range_meters":6800,"station_id":"st_cvj6sg6p6f1abm77japg","pricing_plan_id":"cebpf4jnsgd1na2vs0mg"},{"bike_id":"898ea1b1-38c7-4a45-9b94-20d8ecc43cb6","system_id":"levelo_inurba_marseille","lat":43.24811,"lon":5.37452,"is_reserved":false,"is_disabled":false,"rental_uris":{"android":"levelo://app?vid=898ea1b1-38c7-4a45-9b94-20d8ecc43cb6","ios":"levelo://app?vid=898ea1b1-38c7-4a45-9b94-20d8ecc43cb6"},"vehicle_type_id":"4","last_reported":1779018807,"current_range_meters":6800,"station_id":"ce4bhgh2rcd13ifvqfb0","pricing_plan_id":"cebpf4jnsgd1na2vs0mg"},{"bike_id":"cde832f5-61c9-4423-ac99-7113bd3c4dd5","system_id":"levelo_inurba_marseille","lat":43.25509,"lon":5.3763,"is_reserved":false,"is_disabled":false,"rental_uris":{"android":"levelo://app?vid=cde832f5-61c9-4423-ac99-7113bd3c4dd5","ios":"levelo://app?vid=cde832f5-61c9-4423-ac99-7113bd3c4dd5"},"vehicle_type_id":"4","last_reported":1779018807,"current_range_meters":6800,"station_id":"ce4bhh12rcd13ifvqff0","pricing_plan_id":"cebpf4jnsgd1na2vs0mg"},{"bike_id":"bca26c93-c769-4928-af0a-dc9dfc377ede","system_id":"levelo_inurba_marseille","lat":43.29275,"lon":5.37611,"is_reserved":false,"is_disabled":true,"rental_uris":{"android":"levelo://app?vid=bca26c93-c769-4928-af0a-dc9dfc377ede","ios":"levelo://app?vid=bca26c93-c769-4928-af0a-dc9dfc377ede"},"vehicle_type_id":"4","last_reported":1779018807,"current_range_meters":6800,"station_id":"ce4bgi12rcd13ifvqb80","pricing_plan_id":"cebpf4jnsgd1na2vs0mg"},{"bike_id":"a8222677-82b2-4472-800a-515258994e8a","system_id":"levelo_inurba_marseille","lat":43.23961,"lon":5.36633,"is_reserved":false,"is_disabled":false,"rental_uris":{"android":"levelo://app?vid=a8222677-82b2-4472-800a-515258994e8a","ios":"levelo://app?vid=a8222677-82b2-4472-800a-515258994e8a"},"vehicle_type_id":"4","last_reported":1779018807,"current_range_meters":6800,"station_id":"ce4bhi12rcd13ifvqfp0","pricing_plan_id":"cebpf4jnsgd1na2vs0mg"},{"bike_id":"b1aef4be-4457-4f5e-bf73-fe51d0fce871","system_id":"levelo_inurba_marseille","lat":43.21193,"lon":5.35054,"is_reserved":false,"is_disabled":false,"rental_uris":{"android":"levelo://app?vid=b1aef4be-4457-4f5e-bf73-fe51d0fce871","ios":"levelo://app?vid=b1aef4be-4457-4f5e-bf73-fe51d0fce871"},"vehicle_type_id":"4","last_reported":1779018807,"current_range_meters":6800,"station_id":"st_cvj6sg6p6f1abm77japg","pricing_plan_id":"cebpf4jnsgd1na2vs0mg"},{"bike_id":"5e7b0534-26dc-4029-a0c5-7d2f1d5ca9f4","system_id":"levelo_inurba_marseille","lat":43.225342,"lon":5.348298,"is_reserved":false,"is_disabled":false,"rental_uris":{"android":"levelo://app?vid=5e7b0534-26dc-4029-a0c5-7d2f1d5ca9f4","ios":"levelo://app?vid=5e7b0534-26dc-4029-a0c5-7d2f1d5ca9f4"},"vehicle_type_id":"4","last_reported":1779018807,"current_range_meters":6800,"station_id":"st_cvj5dfep6f1abm77gieg","pricing_plan_id":"cebpf4jnsgd1na2vs0mg"},{"bike_id":"a72a8680-05df-46ea-a8d1-7be23dcf6f78","system_id":"levelo_inurba_marseille","lat":43.2494,"lon":5.3894,"is_reserved":false,"is_disabled":false,"rental_uris":{"android":"levelo://app?vid=a72a8680-05df-46ea-a8d1-7be23dcf6f78","ios":"levelo://app?vid=a72a8680-05df-46ea-a8d1-7be23dcf6f78"},"vehicle_type_id":"4","last_reported":1779018807,"current_range_meters":6800,"station_id":"","pricing_plan_id":"cebpf4jnsgd1na2vs0mg"},{"bike_id":"b23ea0d7-6111-436e-b31d-88cf9deb47e0","system_id":"levelo_inurba_marseille","lat":43.24393,"lon":5.37057,"is_reserved":false,"is_disabled":false,"rental_uris":{"android":"levelo://app?vid=b23ea0d7-6111-436e-b31d-88cf9deb47e0","ios":"levelo://app?vid=b23ea0d7-6111-436e-b31d-88cf9deb47e0"},"vehicle_type_id":"4","last_reported":1779018807,"current_range_meters":6800,"station_id":"ce4bhhh2rcd13ifvqfk0","pricing_plan_id":"cebpf4jnsgd1na2vs0mg"},{"bike_id":"d3f8cb08-f3cd-416b-953a-eae8db0a255e","system_id":"levelo_inurba_marseille","lat":43.26807,"lon":5.40811,"is_reserved":false,"is_disabled":false,"rental_uris":{"android":"levelo://app?vid=d3f8cb08-f3cd-416b-953a-eae8db0a255e","ios":"levelo://app?vid=d3f8cb08-f3cd-416b-953a-eae8db0a255e"},"vehicle_type_id":"4","last_reported":1779018807,"current_range_meters":6800,"station_id":"","pricing_plan_id":"cebpf4jnsgd1na2vs0mg"},{"bike_id":"359f87c3-b148-4039-b20d-4c62d962d317","system_id":"levelo_inurba_marseille","lat":43.23153,"lon":5.43731,"is_reserved":false,"is_disabled":false,"rental_uris":{"android":"levelo://app?vid=359f87c3-b148-4039-b20d-4c62d962d317","ios":"levelo://app?vid=359f87c3-b148-4039-b20d-4c62d962d317"},"vehicle_type_id":"4","last_reported":1779018807,"current_range_meters":6800,"station_id":"ce4bhmp2rcd13ifvqgog","pricing_plan_id":"cebpf4jnsgd1na2vs0mg"},{"bike_id":"8837b884-d799-4a91-aa20-2eea6f1ef20d","system_id":"levelo_inurba_marseille","lat":43.29671,"lon":5.37832,"is_reserved":false,"is_disabled":false,"rental_uris":{"android":"levelo://app?vid=8837b884-d799-4a91-aa20-2eea6f1ef20d","ios":"levelo://app?vid=8837b884-d799-4a91-aa20-2eea6f1ef20d"},"vehicle_type_id":"4","last_reported":1779018807,"current_range_meters":7200,"station_id":"","pricing_plan_id":"cebpf4jnsgd1na2vs0mg"},{"bike_id":"1c037ec3-68fe-43ed-b46b-5853e2c88353","system_id":"levelo_inurba_marseille","lat":43.211935,"lon":5.350726,"is_reserved":false,"is_disabled":false,"rental_uris":{"android":"levelo://app?vid=1c037ec3-68fe-43ed-b46b-5853e2c88353","ios":"levelo://app?vid=1c037ec3-68fe-43ed-b46b-5853e2c88353"},"vehicle_type_id":"4","last_reported":1779018807,"current_range_meters":7200,"station_id":"st_cvj6sg6p6f1abm77japg","pricing_plan_id":"cebpf4jnsgd1na2vs0mg"},{"bike_id":"4205fef4-5bd1-439a-b6c6-88b1921fd314","system_id":"levelo_inurba_marseille","lat":43.22561,"lon":5.41623,"is_reserved":false,"is_disabled":false,"rental_uris":{"android":"levelo://app?vid=4205fef4-5bd1-439a-b6c6-88b1921fd314","ios":"levelo://app?vid=4205fef4-5bd1-439a-b6c6-88b1921fd314"},"vehicle_type_id":"4","last_reported":1779018807,"current_range_meters":7200,"station_id":"st_d2o4gvlbi1j2169b742g","pricing_plan_id":"cebpf4jnsgd1na2vs0mg"},{"bike_id":"d2b2c17a-ea55-4d09-b1b4-c2cd5226f326","system_id":"levelo_inurba_marseille","lat":43.27377,"lon":5.36256,"is_reserved":false,"is_disabled":false,"rental_uris":{"android":"levelo://app?vid=d2b2c17a-ea55-4d09-b1b4-c2cd5226f326","ios":"levelo://app?vid=d2b2c17a-ea55-4d09-b1b4-c2cd5226f326"},"vehicle_type_id":"4","last_reported":1779018807,"current_range_meters":7200,"station_id":"ce4bhbh2rcd13ifvqeo0","pricing_plan_id":"cebpf4jnsgd1na2vs0mg"},{"bike_id":"d6e6e32a-ba56-415f-9ef6-78535eab1df5","system_id":"levelo_inurba_marseille","lat":43.292801,"lon":5.401149,"is_reserved":false,"is_disabled":true,"rental_uris":{"android":"levelo://app?vid=d6e6e32a-ba56-415f-9ef6-78535eab1df5","ios":"levelo://app?vid=d6e6e32a-ba56-415f-9ef6-78535eab1df5"},"vehicle_type_id":"4","last_reported":1779018807,"current_range_meters":7200,"station_id":"ce4bh312rcd13ifvqdk0","pricing_plan_id":"cebpf4jnsgd1na2vs0mg"},{"bike_id":"4d31ed6e-13e0-4959-aa6c-cce6ffc3f7ff","system_id":"levelo_inurba_marseille","lat":43.27512,"lon":5.41568,"is_reserved":false,"is_disabled":false,"rental_uris":{"android":"levelo://app?vid=4d31ed6e-13e0-4959-aa6c-cce6ffc3f7ff","ios":"levelo://app?vid=4d31ed6e-13e0-4959-aa6c-cce6ffc3f7ff"},"vehicle_type_id":"4","last_reported":1779018807,"current_range_meters":7200,"station_id":"st_d6im8g6chgec73a5pndg","pricing_plan_id":"cebpf4jnsgd1na2vs0mg"},{"bike_id":"0e7bc89c-a25b-417d-b70d-75f2b4a97038","system_id":"levelo_inurba_marseille","lat":43.24681,"lon":5.38131,"is_reserved":false,"is_disabled":false,"rental_uris":{"android":"levelo://app?vid=0e7bc89c-a25b-417d-b70d-75f2b4a97038","ios":"levelo://app?vid=0e7bc89c-a25b-417d-b70d-75f2b4a97038"},"vehicle_type_id":"4","last_reported":1779018807,"current_range_meters":7200,"station_id":"ce4bhih2rcd13ifvqfr0","pricing_plan_id":"cebpf4jnsgd1na2vs0mg"},{"bike_id":"6309bb83-16de-49b5-b945-ff87fed43bc6","system_id":"levelo_inurba_marseille","lat":43.21188,"lon":5.35106,"is_reserved":false,"is_disabled":false,"rental_uris":{"android":"levelo://app?vid=6309bb83-16de-49b5-b945-ff87fed43bc6","ios":"levelo://app?vid=6309bb83-16de-49b5-b945-ff87fed43bc6"},"vehicle_type_id":"4","last_reported":1779018807,"current_range_meters":7200,"station_id":"st_cvj6sg6p6f1abm77japg","pricing_plan_id":"cebpf4jnsgd1na2vs0mg"},{"bike_id":"e6bbcb34-20bf-4ce5-b5b7-6243a17e2e8d","system_id":"levelo_inurba_marseille","lat":43.21195,"lon":5.35074,"is_reserved":false,"is_disabled":false,"rental_uris":{"android":"levelo://app?vid=e6bbcb34-20bf-4ce5-b5b7-6243a17e2e8d","ios":"levelo://app?vid=e6bbcb34-20bf-4ce5-b5b7-6243a17e2e8d"},"vehicle_type_id":"4","last_reported":1779018807,"current_range_meters":7200,"station_id":"st_cvj6sg6p6f1abm77japg","pricing_plan_id":"cebpf4jnsgd1na2vs0mg"},{"bike_id":"288a4726-1258-46ec-a70f-c345081256cd","system_id":"levelo_inurba_marseille","lat":43.24175,"lon":5.36397,"is_reserved":false,"is_disabled":false,"rental_uris":{"android":"levelo://app?vid=288a4726-1258-46ec-a70f-c345081256cd","ios":"levelo://app?vid=288a4726-1258-46ec-a70f-c345081256cd"},"vehicle_type_id":"4","last_reported":1779018807,"current_range_meters":7200,"station_id":"cpo36qri1sfpv3e86is0","pricing_plan_id":"cebpf4jnsgd1na2vs0mg"},{"bike_id":"f12dce49-227a-48b9-9d64-195abb2796ea","system_id":"levelo_inurba_marseille","lat":43.24179,"lon":5.36397,"is_reserved":false,"is_disabled":false,"rental_uris":{"android":"levelo://app?vid=f12dce49-227a-48b9-9d64-195abb2796ea","ios":"levelo://app?vid=f12dce49-227a-48b9-9d64-195abb2796ea"},"vehicle_type_id":"4","last_reported":1779018807,"current_range_meters":7200,"station_id":"cpo36qri1sfpv3e86is0","pricing_plan_id":"cebpf4jnsgd1na2vs0mg"},{"bike_id":"d3858169-f943-434c-aaa8-97ebf76cffc4","system_id":"levelo_inurba_marseille","lat":43.23787,"lon":5.36632,"is_reserved":false,"is_disabled":false,"rental_uris":{"android":"levelo://app?vid=d3858169-f943-434c-aaa8-97ebf76cffc4","ios":"levelo://app?vid=d3858169-f943-434c-aaa8-97ebf76cffc4"},"vehicle_type_id":"4","last_reported":1779018807,"current_range_meters":7200,"station_id":"st_d3nk18o9ro0c73en2l3g","pricing_plan_id":"cebpf4jnsgd1na2vs0mg"},{"bike_id":"df4f184e-16c8-4c32-b6b5-5ed8d07fffef","system_id":"levelo_inurba_marseille","lat":43.2933,"lon":5.40322,"is_reserved":false,"is_disabled":false,"rental_uris":{"android":"levelo://app?vid=df4f184e-16c8-4c32-b6b5-5ed8d07fffef","ios":"levelo://app?vid=df4f184e-16c8-4c32-b6b5-5ed8d07fffef"},"vehicle_type_id":"4","last_reported":1779018807,"current_range_meters":7200,"station_id":"","pricing_plan_id":"cebpf4jnsgd1na2vs0mg"},{"bike_id":"e161ba30-d581-44ab-b81c-5f59de5d89c7","system_id":"levelo_inurba_marseille","lat":43.23901,"lon":5.37462,"is_reserved":false,"is_disabled":true,"rental_uris":{"android":"levelo://app?vid=e161ba30-d581-44ab-b81c-5f59de5d89c7","ios":"levelo://app?vid=e161ba30-d581-44ab-b81c-5f59de5d89c7"},"vehicle_type_id":"4","last_reported":1779018807,"current_range_meters":7200,"station_id":"st_d6sm7csbq4hs73f8fpjg","pricing_plan_id":"cebpf4jnsgd1na2vs0mg"},{"bike_id":"7e819ae7-df7e-4297-b3ea-562b578e4346","system_id":"levelo_inurba_marseille","lat":43.23968,"lon":5.36624,"is_reserved":false,"is_disabled":false,"rental_uris":{"android":"levelo://app?vid=7e819ae7-df7e-4297-b3ea-562b578e4346","ios":"levelo://app?vid=7e819ae7-df7e-4297-b3ea-562b578e4346"},"vehicle_type_id":"4","last_reported":1779018807,"current_range_meters":7200,"station_id":"ce4bhi12rcd13ifvqfp0","pricing_plan_id":"cebpf4jnsgd1na2vs0mg"},{"bike_id":"bb6646ee-08fa-4064-a90d-46f154dac55c","system_id":"levelo_inurba_marseille","lat":43.28287,"lon":5.3507,"is_reserved":false,"is_disabled":false,"rental_uris":{"android":"levelo://app?vid=bb6646ee-08fa-4064-a90d-46f154dac55c","ios":"levelo://app?vid=bb6646ee-08fa-4064-a90d-46f154dac55c"},"vehicle_type_id":"4","last_reported":1779018807,"current_range_meters":7200,"station_id":"ce4bhbp2rcd13ifvqerg","pricing_plan_id":"cebpf4jnsgd1na2vs0mg"},{"bike_id":"7459919c-7f08-455e-a31c-3cdf295400d3","system_id":"levelo_inurba_marseille","lat":43.28623,"lon":5.35098,"is_reserved":false,"is_disabled":false,"rental_uris":{"android":"levelo://app?vid=7459919c-7f08-455e-a31c-3cdf295400d3","ios":"levelo://app?vid=7459919c-7f08-455e-a31c-3cdf295400d3"},"vehicle_type_id":"4","last_reported":1779018807,"current_range_meters":7200,"station_id":"ce4bhch2rcd13ifvqeug","pricing_plan_id":"cebpf4jnsgd1na2vs0mg"},{"bike_id":"f66c1f35-c8c5-4631-922e-044e3147355b","system_id":"levelo_inurba_marseille","lat":43.32109,"lon":5.36783,"is_reserved":false,"is_disabled":false,"rental_uris":{"android":"levelo://app?vid=f66c1f35-c8c5-4631-922e-044e3147355b","ios":"levelo://app?vid=f66c1f35-c8c5-4631-922e-044e3147355b"},"vehicle_type_id":"4","last_reported":1779018807,"current_range_meters":7200,"station_id":"ce4bhrh2rcd13ifvqhug","pricing_plan_id":"cebpf4jnsgd1na2vs0mg"},{"bike_id":"22c18bca-4198-476f-a708-a470174c6eaf","system_id":"levelo_inurba_marseille","lat":43.260301,"lon":5.375407,"is_reserved":false,"is_disabled":false,"rental_uris":{"android":"levelo://app?vid=22c18bca-4198-476f-a708-a470174c6eaf","ios":"levelo://app?vid=22c18bca-4198-476f-a708-a470174c6eaf"},"vehicle_type_id":"4","last_reported":1779018807,"current_range_meters":7200,"station_id":"ce4bhgh2rcd13ifvqfa0","pricing_plan_id":"cebpf4jnsgd1na2vs0mg"},{"bike_id":"27aed03a-8374-4347-913e-9b1e82ca96ff","system_id":"levelo_inurba_marseille","lat":43.2417,"lon":5.36388,"is_reserved":false,"is_disabled":false,"rental_uris":{"android":"levelo://app?vid=27aed03a-8374-4347-913e-9b1e82ca96ff","ios":"levelo://app?vid=27aed03a-8374-4347-913e-9b1e82ca96ff"},"vehicle_type_id":"4","last_reported":1779018807,"current_range_meters":8000,"station_id":"cpo36qri1sfpv3e86is0","pricing_plan_id":"cebpf4jnsgd1na2vs0mg"},{"bike_id":"e6adddb4-cf5a-45f0-9c7a-79e04b64ad00","system_id":"levelo_inurba_marseille","lat":43.23188,"lon":5.39972,"is_reserved":false,"is_disabled":false,"rental_uris":{"android":"levelo://app?vid=e6adddb4-cf5a-45f0-9c7a-79e04b64ad00","ios":"levelo://app?vid=e6adddb4-cf5a-45f0-9c7a-79e04b64ad00"},"vehicle_type_id":"4","last_reported":1779018807,"current_range_meters":8000,"station_id":"ce4bhn12rcd13ifvqgqg","pricing_plan_id":"cebpf4jnsgd1na2vs0mg"},{"bike_id":"15ef3c5d-f3ad-486e-ad37-fb6d372889c5","system_id":"levelo_inurba_marseille","lat":43.292152,"lon":5.359791,"is_reserved":false,"is_disabled":false,"rental_uris":{"android":"levelo://app?vid=15ef3c5d-f3ad-486e-ad37-fb6d372889c5","ios":"levelo://app?vid=15ef3c5d-f3ad-486e-ad37-fb6d372889c5"},"vehicle_type_id":"4","last_reported":1779018807,"current_range_meters":8000,"station_id":"ce4bhbh2rcd13ifvqeqg","pricing_plan_id":"cebpf4jnsgd1na2vs0mg"},{"bike_id":"90cdffea-1c50-4ffd-8284-48fc41d50102","system_id":"levelo_inurba_marseille","lat":43.28874,"lon":5.42515,"is_reserved":false,"is_disabled":false,"rental_uris":{"android":"levelo://app?vid=90cdffea-1c50-4ffd-8284-48fc41d50102","ios":"levelo://app?vid=90cdffea-1c50-4ffd-8284-48fc41d50102"},"vehicle_type_id":"4","last_reported":1779018807,"current_range_meters":8000,"station_id":"st_d3b462108ojc7389ooeg","pricing_plan_id":"cebpf4jnsgd1na2vs0mg"},{"bike_id":"1dd7d753-327a-4a0e-96a8-c35b8f67f696","system_id":"levelo_inurba_marseille","lat":43.23966,"lon":5.36616,"is_reserved":false,"is_disabled":false,"rental_uris":{"android":"levelo://app?vid=1dd7d753-327a-4a0e-96a8-c35b8f67f696","ios":"levelo://app?vid=1dd7d753-327a-4a0e-96a8-c35b8f67f696"},"vehicle_type_id":"4","last_reported":1779018807,"current_range_meters":8000,"station_id":"ce4bhi12rcd13ifvqfp0","pricing_plan_id":"cebpf4jnsgd1na2vs0mg"},{"bike_id":"c25bb2bb-dc7b-45d8-a755-b97e94cf666e","system_id":"levelo_inurba_marseille","lat":43.2797,"lon":5.38692,"is_reserved":false,"is_disabled":true,"rental_uris":{"android":"levelo://app?vid=c25bb2bb-dc7b-45d8-a755-b97e94cf666e","ios":"levelo://app?vid=c25bb2bb-dc7b-45d8-a755-b97e94cf666e"},"vehicle_type_id":"4","last_reported":1779018807,"current_range_meters":8000,"station_id":"ce4bhg12rcd13ifvqf80","pricing_plan_id":"cebpf4jnsgd1na2vs0mg"},{"bike_id":"5b118e30-8ffe-43ea-ab4e-f90a5c7fb220","system_id":"levelo_inurba_marseille","lat":43.26947,"lon":5.38635,"is_reserved":false,"is_disabled":false,"rental_uris":{"android":"levelo://app?vid=5b118e30-8ffe-43ea-ab4e-f90a5c7fb220","ios":"levelo://app?vid=5b118e30-8ffe-43ea-ab4e-f90a5c7fb220"},"vehicle_type_id":"4","last_reported":1779018807,"current_range_meters":8000,"station_id":"ce4bhh92rcd13ifvqfh0","pricing_plan_id":"cebpf4jnsgd1na2vs0mg"},{"bike_id":"c2d9d8a7-d510-42d7-aeb7-b6e3b2a508fa","system_id":"levelo_inurba_marseille","lat":43.24643,"lon":5.38873,"is_reserved":false,"is_disabled":false,"rental_uris":{"android":"levelo://app?vid=c2d9d8a7-d510-42d7-aeb7-b6e3b2a508fa","ios":"levelo://app?vid=c2d9d8a7-d510-42d7-aeb7-b6e3b2a508fa"},"vehicle_type_id":"4","last_reported":1779018807,"current_range_meters":8000,"station_id":"ce4bhg12rcd13ifvqf60","pricing_plan_id":"cebpf4jnsgd1na2vs0mg"},{"bike_id":"d7ee4d21-e079-4dcd-88c2-d5121789a4b2","system_id":"levelo_inurba_marseille","lat":43.24329,"lon":5.38426,"is_reserved":false,"is_disabled":false,"rental_uris":{"android":"levelo://app?vid=d7ee4d21-e079-4dcd-88c2-d5121789a4b2","ios":"levelo://app?vid=d7ee4d21-e079-4dcd-88c2-d5121789a4b2"},"vehicle_type_id":"4","last_reported":1779018807,"current_range_meters":8000,"station_id":"","pricing_plan_id":"cebpf4jnsgd1na2vs0mg"},{"bike_id":"05538a87-8ae7-43a8-a523-ae2a66a335d0","system_id":"levelo_inurba_marseille","lat":43.31032,"lon":5.3717,"is_reserved":false,"is_disabled":false,"rental_uris":{"android":"levelo://app?vid=05538a87-8ae7-43a8-a523-ae2a66a335d0","ios":"levelo://app?vid=05538a87-8ae7-43a8-a523-ae2a66a335d0"},"vehicle_type_id":"4","last_reported":1779018807,"current_range_meters":8000,"station_id":"st_d4kl2rp97mjs73e7tdfg","pricing_plan_id":"cebpf4jnsgd1na2vs0mg"},{"bike_id":"c2b6143b-d098-4b2c-8058-799b831dba6b","system_id":"levelo_inurba_marseille","lat":43.24993,"lon":5.37511,"is_reserved":false,"is_disabled":false,"rental_uris":{"android":"levelo://app?vid=c2b6143b-d098-4b2c-8058-799b831dba6b","ios":"levelo://app?vid=c2b6143b-d098-4b2c-8058-799b831dba6b"},"vehicle_type_id":"4","last_reported":1779018807,"current_range_meters":8000,"station_id":"","pricing_plan_id":"cebpf4jnsgd1na2vs0mg"},{"bike_id":"73d7181d-919c-47ee-a9b7-24323f565b39","system_id":"levelo_inurba_marseille","lat":43.28421,"lon":5.34982,"is_reserved":false,"is_disabled":false,"rental_uris":{"android":"levelo://app?vid=73d7181d-919c-47ee-a9b7-24323f565b39","ios":"levelo://app?vid=73d7181d-919c-47ee-a9b7-24323f565b39"},"vehicle_type_id":"4","last_reported":1779018807,"current_range_meters":8000,"station_id":"ce4bhbh2rcd13ifvqepg","pricing_plan_id":"cebpf4jnsgd1na2vs0mg"},{"bike_id":"cf1cf58e-c228-4f7c-94c5-68d3fccf5c1d","system_id":"levelo_inurba_marseille","lat":43.28421,"lon":5.3499,"is_reserved":false,"is_disabled":false,"rental_uris":{"android":"levelo://app?vid=cf1cf58e-c228-4f7c-94c5-68d3fccf5c1d","ios":"levelo://app?vid=cf1cf58e-c228-4f7c-94c5-68d3fccf5c1d"},"vehicle_type_id":"4","last_reported":1779018807,"current_range_meters":8000,"station_id":"ce4bhbh2rcd13ifvqepg","pricing_plan_id":"cebpf4jnsgd1na2vs0mg"},{"bike_id":"e4a68cfa-90bf-4d02-8a71-80228ddf9cac","system_id":"levelo_inurba_marseille","lat":43.32116,"lon":5.36776,"is_reserved":false,"is_disabled":false,"rental_uris":{"android":"levelo://app?vid=e4a68cfa-90bf-4d02-8a71-80228ddf9cac","ios":"levelo://app?vid=e4a68cfa-90bf-4d02-8a71-80228ddf9cac"},"vehicle_type_id":"4","last_reported":1779018807,"current_range_meters":8000,"station_id":"ce4bhrh2rcd13ifvqhug","pricing_plan_id":"cebpf4jnsgd1na2vs0mg"},{"bike_id":"b82c18d9-c5aa-4bb0-9404-19d838a33380","system_id":"levelo_inurba_marseille","lat":43.26362,"lon":5.41076,"is_reserved":false,"is_disabled":false,"rental_uris":{"android":"levelo://app?vid=b82c18d9-c5aa-4bb0-9404-19d838a33380","ios":"levelo://app?vid=b82c18d9-c5aa-4bb0-9404-19d838a33380"},"vehicle_type_id":"4","last_reported":1779018807,"current_range_meters":8000,"station_id":"st_d4e5ca6na9uc73bfl5fg","pricing_plan_id":"cebpf4jnsgd1na2vs0mg"},{"bike_id":"98b29b95-e9a4-4760-a23d-24855b7ec05d","system_id":"levelo_inurba_marseille","lat":43.33149,"lon":5.37721,"is_reserved":false,"is_disabled":false,"rental_uris":{"android":"levelo://app?vid=98b29b95-e9a4-4760-a23d-24855b7ec05d","ios":"levelo://app?vid=98b29b95-e9a4-4760-a23d-24855b7ec05d"},"vehicle_type_id":"4","last_reported":1779018807,"current_range_meters":8000,"station_id":"st_d46cu089ee8s73dldbu0","pricing_plan_id":"cebpf4jnsgd1na2vs0mg"},{"bike_id":"b8e5fe81-9167-43b2-abff-bfa3ae9ce47c","system_id":"levelo_inurba_marseille","lat":43.33145,"lon":5.3769,"is_reserved":false,"is_disabled":false,"rental_uris":{"android":"levelo://app?vid=b8e5fe81-9167-43b2-abff-bfa3ae9ce47c","ios":"levelo://app?vid=b8e5fe81-9167-43b2-abff-bfa3ae9ce47c"},"vehicle_type_id":"4","last_reported":1779018807,"current_range_meters":8000,"station_id":"st_d46cu089ee8s73dldbu0","pricing_plan_id":"cebpf4jnsgd1na2vs0mg"},{"bike_id":"cfd13266-6071-4a81-84b3-34d70693dbe8","system_id":"levelo_inurba_marseille","lat":43.24403,"lon":5.3706,"is_reserved":false,"is_disabled":false,"rental_uris":{"android":"levelo://app?vid=cfd13266-6071-4a81-84b3-34d70693dbe8","ios":"levelo://app?vid=cfd13266-6071-4a81-84b3-34d70693dbe8"},"vehicle_type_id":"4","last_reported":1779018807,"current_range_meters":8000,"station_id":"ce4bhhh2rcd13ifvqfk0","pricing_plan_id":"cebpf4jnsgd1na2vs0mg"},{"bike_id":"dace259d-e3eb-491e-95dc-863daa176674","system_id":"levelo_inurba_marseille","lat":43.24164,"lon":5.36381,"is_reserved":false,"is_disabled":false,"rental_uris":{"android":"levelo://app?vid=dace259d-e3eb-491e-95dc-863daa176674","ios":"levelo://app?vid=dace259d-e3eb-491e-95dc-863daa176674"},"vehicle_type_id":"4","last_reported":1779018807,"current_range_meters":8000,"station_id":"cpo36qri1sfpv3e86is0","pricing_plan_id":"cebpf4jnsgd1na2vs0mg"},{"bike_id":"9c13d794-9f86-4498-9145-bbf64f320531","system_id":"levelo_inurba_marseille","lat":43.27974,"lon":5.38727,"is_reserved":false,"is_disabled":false,"rental_uris":{"android":"levelo://app?vid=9c13d794-9f86-4498-9145-bbf64f320531","ios":"levelo://app?vid=9c13d794-9f86-4498-9145-bbf64f320531"},"vehicle_type_id":"4","last_reported":1779018807,"current_range_meters":8000,"station_id":"ce4bhg12rcd13ifvqf80","pricing_plan_id":"cebpf4jnsgd1na2vs0mg"},{"bike_id":"f973dc85-ddbb-4538-a61e-8505740eaf57","system_id":"levelo_inurba_marseille","lat":43.24182,"lon":5.36391,"is_reserved":false,"is_disabled":false,"rental_uris":{"android":"levelo://app?vid=f973dc85-ddbb-4538-a61e-8505740eaf57","ios":"levelo://app?vid=f973dc85-ddbb-4538-a61e-8505740eaf57"},"vehicle_type_id":"4","last_reported":1779018807,"current_range_meters":8000,"station_id":"cpo36qri1sfpv3e86is0","pricing_plan_id":"cebpf4jnsgd1na2vs0mg"},{"bike_id":"76ee4074-9696-4c4d-b584-29f98234f852","system_id":"levelo_inurba_marseille","lat":43.24193,"lon":5.36397,"is_reserved":false,"is_disabled":false,"rental_uris":{"android":"levelo://app?vid=76ee4074-9696-4c4d-b584-29f98234f852","ios":"levelo://app?vid=76ee4074-9696-4c4d-b584-29f98234f852"},"vehicle_type_id":"4","last_reported":1779018807,"current_range_meters":8000,"station_id":"cpo36qri1sfpv3e86is0","pricing_plan_id":"cebpf4jnsgd1na2vs0mg"},{"bike_id":"698b85c5-bf11-437e-913f-7d2243a0f74a","system_id":"levelo_inurba_marseille","lat":43.26238,"lon":5.37569,"is_reserved":false,"is_disabled":false,"rental_uris":{"android":"levelo://app?vid=698b85c5-bf11-437e-913f-7d2243a0f74a","ios":"levelo://app?vid=698b85c5-bf11-437e-913f-7d2243a0f74a"},"vehicle_type_id":"4","last_reported":1779018807,"current_range_meters":8000,"station_id":"","pricing_plan_id":"cebpf4jnsgd1na2vs0mg"},{"bike_id":"6f87255a-0ec2-47d8-8469-deafb97844a7","system_id":"levelo_inurba_marseille","lat":43.26028,"lon":5.37551,"is_reserved":false,"is_disabled":false,"rental_uris":{"android":"levelo://app?vid=6f87255a-0ec2-47d8-8469-deafb97844a7","ios":"levelo://app?vid=6f87255a-0ec2-47d8-8469-deafb97844a7"},"vehicle_type_id":"4","last_reported":1779018807,"current_range_meters":8000,"station_id":"ce4bhgh2rcd13ifvqfa0","pricing_plan_id":"cebpf4jnsgd1na2vs0mg"},{"bike_id":"94f81ac9-3964-4ff0-8eac-6f07920af01e","system_id":"levelo_inurba_marseille","lat":43.231534,"lon":5.437163,"is_reserved":false,"is_disabled":false,"rental_uris":{"android":"levelo://app?vid=94f81ac9-3964-4ff0-8eac-6f07920af01e","ios":"levelo://app?vid=94f81ac9-3964-4ff0-8eac-6f07920af01e"},"vehicle_type_id":"4","last_reported":1779018807,"current_range_meters":8000,"station_id":"ce4bhmp2rcd13ifvqgog","pricing_plan_id":"cebpf4jnsgd1na2vs0mg"},{"bike_id":"b878c3a3-9c69-44f8-9ee3-1dd19843bae4","system_id":"levelo_inurba_marseille","lat":43.29402,"lon":5.37358,"is_reserved":false,"is_disabled":false,"rental_uris":{"android":"levelo://app?vid=b878c3a3-9c69-44f8-9ee3-1dd19843bae4","ios":"levelo://app?vid=b878c3a3-9c69-44f8-9ee3-1dd19843bae4"},"vehicle_type_id":"4","last_reported":1779018807,"current_range_meters":8400,"station_id":"","pricing_plan_id":"cebpf4jnsgd1na2vs0mg"},{"bike_id":"3d32db34-4d0b-4fd6-aa73-0538b1399c75","system_id":"levelo_inurba_marseille","lat":43.29524,"lon":5.37505,"is_reserved":false,"is_disabled":false,"rental_uris":{"android":"levelo://app?vid=3d32db34-4d0b-4fd6-aa73-0538b1399c75","ios":"levelo://app?vid=3d32db34-4d0b-4fd6-aa73-0538b1399c75"},"vehicle_type_id":"4","last_reported":1779018807,"current_range_meters":8400,"station_id":"ce4bgkp2rcd13ifvqbmg","pricing_plan_id":"cebpf4jnsgd1na2vs0mg"},{"bike_id":"4b27839d-9a04-406f-9540-246382bf47cf","system_id":"levelo_inurba_marseille","lat":43.2657,"lon":5.39623,"is_reserved":false,"is_disabled":false,"rental_uris":{"android":"levelo://app?vid=4b27839d-9a04-406f-9540-246382bf47cf","ios":"levelo://app?vid=4b27839d-9a04-406f-9540-246382bf47cf"},"vehicle_type_id":"4","last_reported":1779018807,"current_range_meters":8400,"station_id":"","pricing_plan_id":"cebpf4jnsgd1na2vs0mg"},{"bike_id":"548c531f-8dd2-4ca6-ad8b-07f3c741527f","system_id":"levelo_inurba_marseille","lat":43.26762,"lon":5.39419,"is_reserved":false,"is_disabled":false,"rental_uris":{"android":"levelo://app?vid=548c531f-8dd2-4ca6-ad8b-07f3c741527f","ios":"levelo://app?vid=548c531f-8dd2-4ca6-ad8b-07f3c741527f"},"vehicle_type_id":"4","last_reported":1779018807,"current_range_meters":8400,"station_id":"ce4bhh12rcd13ifvqfg0","pricing_plan_id":"cebpf4jnsgd1na2vs0mg"},{"bike_id":"1569d417-2c8c-46b9-b389-8c80f587bd9b","system_id":"levelo_inurba_marseille","lat":43.29433,"lon":5.37593,"is_reserved":false,"is_disabled":false,"rental_uris":{"android":"levelo://app?vid=1569d417-2c8c-46b9-b389-8c80f587bd9b","ios":"levelo://app?vid=1569d417-2c8c-46b9-b389-8c80f587bd9b"},"vehicle_type_id":"4","last_reported":1779018807,"current_range_meters":8400,"station_id":"","pricing_plan_id":"cebpf4jnsgd1na2vs0mg"},{"bike_id":"abc99932-c216-422a-aab0-a9df05a5d1ea","system_id":"levelo_inurba_marseille","lat":43.30952,"lon":5.39039,"is_reserved":false,"is_disabled":true,"rental_uris":{"android":"levelo://app?vid=abc99932-c216-422a-aab0-a9df05a5d1ea","ios":"levelo://app?vid=abc99932-c216-422a-aab0-a9df05a5d1ea"},"vehicle_type_id":"4","last_reported":1779018807,"current_range_meters":8400,"station_id":"ce4bgup2rcd13ifvqco0","pricing_plan_id":"cebpf4jnsgd1na2vs0mg"},{"bike_id":"f996d1a5-8826-40b7-94d9-0b28d82e7c45","system_id":"levelo_inurba_marseille","lat":43.21227,"lon":5.35062,"is_reserved":false,"is_disabled":false,"rental_uris":{"android":"levelo://app?vid=f996d1a5-8826-40b7-94d9-0b28d82e7c45","ios":"levelo://app?vid=f996d1a5-8826-40b7-94d9-0b28d82e7c45"},"vehicle_type_id":"4","last_reported":1779018807,"current_range_meters":8400,"station_id":"","pricing_plan_id":"cebpf4jnsgd1na2vs0mg"},{"bike_id":"47f3d0a8-9d27-404a-af9f-48dcc9a0d973","system_id":"levelo_inurba_marseille","lat":43.29178,"lon":5.35801,"is_reserved":false,"is_disabled":false,"rental_uris":{"android":"levelo://app?vid=47f3d0a8-9d27-404a-af9f-48dcc9a0d973","ios":"levelo://app?vid=47f3d0a8-9d27-404a-af9f-48dcc9a0d973"},"vehicle_type_id":"4","last_reported":1779018807,"current_range_meters":8400,"station_id":"ce4bhb12rcd13ifvqel0","pricing_plan_id":"cebpf4jnsgd1na2vs0mg"},{"bike_id":"b2f7955a-0c1e-4f8a-a6ce-8e1fa1dfbae6","system_id":"levelo_inurba_marseille","lat":43.31508,"lon":5.37279,"is_reserved":false,"is_disabled":false,"rental_uris":{"android":"levelo://app?vid=b2f7955a-0c1e-4f8a-a6ce-8e1fa1dfbae6","ios":"levelo://app?vid=b2f7955a-0c1e-4f8a-a6ce-8e1fa1dfbae6"},"vehicle_type_id":"4","last_reported":1779018807,"current_range_meters":8400,"station_id":"ce4bgt12rcd13ifvqcd0","pricing_plan_id":"cebpf4jnsgd1na2vs0mg"},{"bike_id":"62b3362a-4297-4f99-b131-a33886f7d376","system_id":"levelo_inurba_marseille","lat":43.2922,"lon":5.36042,"is_reserved":false,"is_disabled":false,"rental_uris":{"android":"levelo://app?vid=62b3362a-4297-4f99-b131-a33886f7d376","ios":"levelo://app?vid=62b3362a-4297-4f99-b131-a33886f7d376"},"vehicle_type_id":"4","last_reported":1779018807,"current_range_meters":8400,"station_id":"ce4bhbh2rcd13ifvqeqg","pricing_plan_id":"cebpf4jnsgd1na2vs0mg"},{"bike_id":"c88caf51-49c3-4428-b68a-d30a7d5106ad","system_id":"levelo_inurba_marseille","lat":43.30414,"lon":5.39762,"is_reserved":false,"is_disabled":false,"rental_uris":{"android":"levelo://app?vid=c88caf51-49c3-4428-b68a-d30a7d5106ad","ios":"levelo://app?vid=c88caf51-49c3-4428-b68a-d30a7d5106ad"},"vehicle_type_id":"4","last_reported":1779018807,"current_range_meters":8400,"station_id":"ce4bh092rcd13ifvqd20","pricing_plan_id":"cebpf4jnsgd1na2vs0mg"},{"bike_id":"b3e1b6e3-5999-4f29-95eb-3732e611c93a","system_id":"levelo_inurba_marseille","lat":43.28411,"lon":5.34989,"is_reserved":false,"is_disabled":false,"rental_uris":{"android":"levelo://app?vid=b3e1b6e3-5999-4f29-95eb-3732e611c93a","ios":"levelo://app?vid=b3e1b6e3-5999-4f29-95eb-3732e611c93a"},"vehicle_type_id":"4","last_reported":1779018807,"current_range_meters":8400,"station_id":"ce4bhbh2rcd13ifvqepg","pricing_plan_id":"cebpf4jnsgd1na2vs0mg"},{"bike_id":"fe2f236f-e387-445c-afbc-4a75bcc48e33","system_id":"levelo_inurba_marseille","lat":43.23785,"lon":5.36631,"is_reserved":false,"is_disabled":false,"rental_uris":{"android":"levelo://app?vid=fe2f236f-e387-445c-afbc-4a75bcc48e33","ios":"levelo://app?vid=fe2f236f-e387-445c-afbc-4a75bcc48e33"},"vehicle_type_id":"4","last_reported":1779018807,"current_range_meters":8400,"station_id":"st_d3nk18o9ro0c73en2l3g","pricing_plan_id":"cebpf4jnsgd1na2vs0mg"},{"bike_id":"f2317ff5-4023-4f3e-8cda-2481600613ad","system_id":"levelo_inurba_marseille","lat":43.29823,"lon":5.41686,"is_reserved":false,"is_disabled":false,"rental_uris":{"android":"levelo://app?vid=f2317ff5-4023-4f3e-8cda-2481600613ad","ios":"levelo://app?vid=f2317ff5-4023-4f3e-8cda-2481600613ad"},"vehicle_type_id":"4","last_reported":1779018807,"current_range_meters":8400,"station_id":"","pricing_plan_id":"cebpf4jnsgd1na2vs0mg"},{"bike_id":"6782879d-7a26-4a17-9e4c-b136cf84caef","system_id":"levelo_inurba_marseille","lat":43.26554,"lon":5.37283,"is_reserved":false,"is_disabled":false,"rental_uris":{"android":"levelo://app?vid=6782879d-7a26-4a17-9e4c-b136cf84caef","ios":"levelo://app?vid=6782879d-7a26-4a17-9e4c-b136cf84caef"},"vehicle_type_id":"4","last_reported":1779018807,"current_range_meters":8400,"station_id":"ce4bhg12rcd13ifvqf70","pricing_plan_id":"cebpf4jnsgd1na2vs0mg"},{"bike_id":"e8c9cc4e-c37c-4a51-ab3c-15c0f69976d2","system_id":"levelo_inurba_marseille","lat":43.31225,"lon":5.37819,"is_reserved":false,"is_disabled":false,"rental_uris":{"android":"levelo://app?vid=e8c9cc4e-c37c-4a51-ab3c-15c0f69976d2","ios":"levelo://app?vid=e8c9cc4e-c37c-4a51-ab3c-15c0f69976d2"},"vehicle_type_id":"4","last_reported":1779018807,"current_range_meters":8400,"station_id":"","pricing_plan_id":"cebpf4jnsgd1na2vs0mg"},{"bike_id":"5032913b-123f-48ee-8a52-27d31badcbb7","system_id":"levelo_inurba_marseille","lat":43.2293,"lon":5.35369,"is_reserved":false,"is_disabled":false,"rental_uris":{"android":"levelo://app?vid=5032913b-123f-48ee-8a52-27d31badcbb7","ios":"levelo://app?vid=5032913b-123f-48ee-8a52-27d31badcbb7"},"vehicle_type_id":"4","last_reported":1779018807,"current_range_meters":8400,"station_id":"cpo3532slgdg3j2ikp40","pricing_plan_id":"cebpf4jnsgd1na2vs0mg"},{"bike_id":"68fcd666-2bd6-4178-b790-a8e4ae545292","system_id":"levelo_inurba_marseille","lat":43.23972,"lon":5.36616,"is_reserved":false,"is_disabled":false,"rental_uris":{"android":"levelo://app?vid=68fcd666-2bd6-4178-b790-a8e4ae545292","ios":"levelo://app?vid=68fcd666-2bd6-4178-b790-a8e4ae545292"},"vehicle_type_id":"4","last_reported":1779018807,"current_range_meters":8800,"station_id":"ce4bhi12rcd13ifvqfp0","pricing_plan_id":"cebpf4jnsgd1na2vs0mg"},{"bike_id":"b1d3e025-5343-43b8-abdd-24c134f1802b","system_id":"levelo_inurba_marseille","lat":43.21754,"lon":5.34593,"is_reserved":false,"is_disabled":false,"rental_uris":{"android":"levelo://app?vid=b1d3e025-5343-43b8-abdd-24c134f1802b","ios":"levelo://app?vid=b1d3e025-5343-43b8-abdd-24c134f1802b"},"vehicle_type_id":"4","last_reported":1779018807,"current_range_meters":8800,"station_id":"st_cvj6r9ubvosntc0bgbag","pricing_plan_id":"cebpf4jnsgd1na2vs0mg"},{"bike_id":"f3f4d17a-6479-4d5a-8586-9fc4892c7131","system_id":"levelo_inurba_marseille","lat":43.31683,"lon":5.4048,"is_reserved":false,"is_disabled":false,"rental_uris":{"android":"levelo://app?vid=f3f4d17a-6479-4d5a-8586-9fc4892c7131","ios":"levelo://app?vid=f3f4d17a-6479-4d5a-8586-9fc4892c7131"},"vehicle_type_id":"4","last_reported":1779018807,"current_range_meters":8800,"station_id":"ce4bh012rcd13ifvqd00","pricing_plan_id":"cebpf4jnsgd1na2vs0mg"},{"bike_id":"fb111f7b-b356-43a1-adea-9de7c624eee1","system_id":"levelo_inurba_marseille","lat":43.24684,"lon":5.3814,"is_reserved":false,"is_disabled":false,"rental_uris":{"android":"levelo://app?vid=fb111f7b-b356-43a1-adea-9de7c624eee1","ios":"levelo://app?vid=fb111f7b-b356-43a1-adea-9de7c624eee1"},"vehicle_type_id":"4","last_reported":1779018807,"current_range_meters":8800,"station_id":"ce4bhih2rcd13ifvqfr0","pricing_plan_id":"cebpf4jnsgd1na2vs0mg"},{"bike_id":"e18be694-5d76-40ca-8d90-a42137ec1788","system_id":"levelo_inurba_marseille","lat":43.28622,"lon":5.35084,"is_reserved":false,"is_disabled":false,"rental_uris":{"android":"levelo://app?vid=e18be694-5d76-40ca-8d90-a42137ec1788","ios":"levelo://app?vid=e18be694-5d76-40ca-8d90-a42137ec1788"},"vehicle_type_id":"4","last_reported":1779018807,"current_range_meters":8800,"station_id":"ce4bhch2rcd13ifvqeug","pricing_plan_id":"cebpf4jnsgd1na2vs0mg"},{"bike_id":"daa8acdc-33d0-45b4-b768-4eae1fc6c4dc","system_id":"levelo_inurba_marseille","lat":43.27073,"lon":5.38299,"is_reserved":false,"is_disabled":false,"rental_uris":{"android":"levelo://app?vid=daa8acdc-33d0-45b4-b768-4eae1fc6c4dc","ios":"levelo://app?vid=daa8acdc-33d0-45b4-b768-4eae1fc6c4dc"},"vehicle_type_id":"4","last_reported":1779018807,"current_range_meters":8800,"station_id":"st_d3n2fo6cfp8s73cte1j0","pricing_plan_id":"cebpf4jnsgd1na2vs0mg"},{"bike_id":"d257b167-ca2a-4810-a9e7-05efe0fc7d78","system_id":"levelo_inurba_marseille","lat":43.24387,"lon":5.37047,"is_reserved":false,"is_disabled":false,"rental_uris":{"android":"levelo://app?vid=d257b167-ca2a-4810-a9e7-05efe0fc7d78","ios":"levelo://app?vid=d257b167-ca2a-4810-a9e7-05efe0fc7d78"},"vehicle_type_id":"4","last_reported":1779018807,"current_range_meters":8800,"station_id":"ce4bhhh2rcd13ifvqfk0","pricing_plan_id":"cebpf4jnsgd1na2vs0mg"},{"bike_id":"fe04b9f9-90b1-4dc9-bcf6-6a2a91efe507","system_id":"levelo_inurba_marseille","lat":43.29003,"lon":5.35607,"is_reserved":false,"is_disabled":false,"rental_uris":{"android":"levelo://app?vid=fe04b9f9-90b1-4dc9-bcf6-6a2a91efe507","ios":"levelo://app?vid=fe04b9f9-90b1-4dc9-bcf6-6a2a91efe507"},"vehicle_type_id":"4","last_reported":1779018807,"current_range_meters":8800,"station_id":"ce4bhb92rcd13ifvqen0","pricing_plan_id":"cebpf4jnsgd1na2vs0mg"},{"bike_id":"01662dcd-a9d6-4772-887a-9d6ab86916a2","system_id":"levelo_inurba_marseille","lat":43.27367,"lon":5.36235,"is_reserved":false,"is_disabled":false,"rental_uris":{"android":"levelo://app?vid=01662dcd-a9d6-4772-887a-9d6ab86916a2","ios":"levelo://app?vid=01662dcd-a9d6-4772-887a-9d6ab86916a2"},"vehicle_type_id":"4","last_reported":1779018807,"current_range_meters":8800,"station_id":"ce4bhbh2rcd13ifvqeo0","pricing_plan_id":"cebpf4jnsgd1na2vs0mg"},{"bike_id":"49bebcbb-ed5e-4a8e-96ec-d9de5550e466","system_id":"levelo_inurba_marseille","lat":43.27221,"lon":5.3919,"is_reserved":false,"is_disabled":true,"rental_uris":{"android":"levelo://app?vid=49bebcbb-ed5e-4a8e-96ec-d9de5550e466","ios":"levelo://app?vid=49bebcbb-ed5e-4a8e-96ec-d9de5550e466"},"vehicle_type_id":"4","last_reported":1779018807,"current_range_meters":8800,"station_id":"ce4bhhp2rcd13ifvqfm0","pricing_plan_id":"cebpf4jnsgd1na2vs0mg"},{"bike_id":"a5c2caf8-c04d-4421-bccf-8c59fd653caf","system_id":"levelo_inurba_marseille","lat":43.21728,"lon":5.34613,"is_reserved":false,"is_disabled":false,"rental_uris":{"android":"levelo://app?vid=a5c2caf8-c04d-4421-bccf-8c59fd653caf","ios":"levelo://app?vid=a5c2caf8-c04d-4421-bccf-8c59fd653caf"},"vehicle_type_id":"4","last_reported":1779018807,"current_range_meters":8800,"station_id":"st_cvj6r9ubvosntc0bgbag","pricing_plan_id":"cebpf4jnsgd1na2vs0mg"},{"bike_id":"3f9245e8-dda2-4c87-92ec-d0d25f0dd702","system_id":"levelo_inurba_marseille","lat":43.31885,"lon":5.36805,"is_reserved":false,"is_disabled":false,"rental_uris":{"android":"levelo://app?vid=3f9245e8-dda2-4c87-92ec-d0d25f0dd702","ios":"levelo://app?vid=3f9245e8-dda2-4c87-92ec-d0d25f0dd702"},"vehicle_type_id":"4","last_reported":1779018807,"current_range_meters":8800,"station_id":"st_d6o2h0d0559c73evc1b0","pricing_plan_id":"cebpf4jnsgd1na2vs0mg"},{"bike_id":"e4d61e6b-cc9f-4a22-88fd-a59a882d6668","system_id":"levelo_inurba_marseille","lat":43.2922,"lon":5.36044,"is_reserved":false,"is_disabled":true,"rental_uris":{"android":"levelo://app?vid=e4d61e6b-cc9f-4a22-88fd-a59a882d6668","ios":"levelo://app?vid=e4d61e6b-cc9f-4a22-88fd-a59a882d6668"},"vehicle_type_id":"4","last_reported":1779018807,"current_range_meters":8800,"station_id":"ce4bhbh2rcd13ifvqeqg","pricing_plan_id":"cebpf4jnsgd1na2vs0mg"},{"bike_id":"faee37e4-92c2-4ba8-8eb0-6758fa6b3abe","system_id":"levelo_inurba_marseille","lat":43.21178,"lon":5.35101,"is_reserved":false,"is_disabled":false,"rental_uris":{"android":"levelo://app?vid=faee37e4-92c2-4ba8-8eb0-6758fa6b3abe","ios":"levelo://app?vid=faee37e4-92c2-4ba8-8eb0-6758fa6b3abe"},"vehicle_type_id":"4","last_reported":1779018807,"current_range_meters":8800,"station_id":"st_cvj6sg6p6f1abm77japg","pricing_plan_id":"cebpf4jnsgd1na2vs0mg"},{"bike_id":"937d26b9-1cba-4bb8-9a81-b626058a9b1d","system_id":"levelo_inurba_marseille","lat":43.28005,"lon":5.40009,"is_reserved":false,"is_disabled":false,"rental_uris":{"android":"levelo://app?vid=937d26b9-1cba-4bb8-9a81-b626058a9b1d","ios":"levelo://app?vid=937d26b9-1cba-4bb8-9a81-b626058a9b1d"},"vehicle_type_id":"4","last_reported":1779018807,"current_range_meters":8800,"station_id":"ce4bho92rcd13ifvqh4g","pricing_plan_id":"cebpf4jnsgd1na2vs0mg"},{"bike_id":"45bec345-9f9f-43e7-9120-bd4fb3a84dd0","system_id":"levelo_inurba_marseille","lat":43.25536,"lon":5.37651,"is_reserved":false,"is_disabled":false,"rental_uris":{"android":"levelo://app?vid=45bec345-9f9f-43e7-9120-bd4fb3a84dd0","ios":"levelo://app?vid=45bec345-9f9f-43e7-9120-bd4fb3a84dd0"},"vehicle_type_id":"4","last_reported":1779018807,"current_range_meters":8800,"station_id":"ce4bhh12rcd13ifvqff0","pricing_plan_id":"cebpf4jnsgd1na2vs0mg"},{"bike_id":"a4226b5f-0a1b-453a-b282-d93d3dcb3390","system_id":"levelo_inurba_marseille","lat":43.26218,"lon":5.40441,"is_reserved":false,"is_disabled":false,"rental_uris":{"android":"levelo://app?vid=a4226b5f-0a1b-453a-b282-d93d3dcb3390","ios":"levelo://app?vid=a4226b5f-0a1b-453a-b282-d93d3dcb3390"},"vehicle_type_id":"4","last_reported":1779018807,"current_range_meters":8800,"station_id":"ce4bhmh2rcd13ifvqgmg","pricing_plan_id":"cebpf4jnsgd1na2vs0mg"},{"bike_id":"4eeb8cda-d814-4218-af61-9c47a5c07f62","system_id":"levelo_inurba_marseille","lat":43.2743,"lon":5.39393,"is_reserved":false,"is_disabled":false,"rental_uris":{"android":"levelo://app?vid=4eeb8cda-d814-4218-af61-9c47a5c07f62","ios":"levelo://app?vid=4eeb8cda-d814-4218-af61-9c47a5c07f62"},"vehicle_type_id":"4","last_reported":1779018807,"current_range_meters":8800,"station_id":"ce4bhdp2rcd13ifvqf20","pricing_plan_id":"cebpf4jnsgd1na2vs0mg"},{"bike_id":"6c9da77d-1b01-4c86-8922-f3e76a447e4d","system_id":"levelo_inurba_marseille","lat":43.23964,"lon":5.36636,"is_reserved":false,"is_disabled":false,"rental_uris":{"android":"levelo://app?vid=6c9da77d-1b01-4c86-8922-f3e76a447e4d","ios":"levelo://app?vid=6c9da77d-1b01-4c86-8922-f3e76a447e4d"},"vehicle_type_id":"4","last_reported":1779018807,"current_range_meters":8800,"station_id":"ce4bhi12rcd13ifvqfp0","pricing_plan_id":"cebpf4jnsgd1na2vs0mg"},{"bike_id":"018964d7-3586-4845-8635-3a0e76181faf","system_id":"levelo_inurba_marseille","lat":43.33247,"lon":5.40579,"is_reserved":false,"is_disabled":false,"rental_uris":{"android":"levelo://app?vid=018964d7-3586-4845-8635-3a0e76181faf","ios":"levelo://app?vid=018964d7-3586-4845-8635-3a0e76181faf"},"vehicle_type_id":"4","last_reported":1779018807,"current_range_meters":8800,"station_id":"","pricing_plan_id":"cebpf4jnsgd1na2vs0mg"},{"bike_id":"6277fb5f-25a0-43c5-af2d-05c12b8fcaab","system_id":"levelo_inurba_marseille","lat":43.28425,"lon":5.34973,"is_reserved":false,"is_disabled":false,"rental_uris":{"android":"levelo://app?vid=6277fb5f-25a0-43c5-af2d-05c12b8fcaab","ios":"levelo://app?vid=6277fb5f-25a0-43c5-af2d-05c12b8fcaab"},"vehicle_type_id":"4","last_reported":1779018807,"current_range_meters":8800,"station_id":"ce4bhbh2rcd13ifvqepg","pricing_plan_id":"cebpf4jnsgd1na2vs0mg"},{"bike_id":"98a03e86-e01c-4fb9-b35a-a52b39a72471","system_id":"levelo_inurba_marseille","lat":43.22564,"lon":5.41611,"is_reserved":false,"is_disabled":false,"rental_uris":{"android":"levelo://app?vid=98a03e86-e01c-4fb9-b35a-a52b39a72471","ios":"levelo://app?vid=98a03e86-e01c-4fb9-b35a-a52b39a72471"},"vehicle_type_id":"4","last_reported":1779018807,"current_range_meters":8800,"station_id":"st_d2o4gvlbi1j2169b742g","pricing_plan_id":"cebpf4jnsgd1na2vs0mg"},{"bike_id":"fa002e4d-855f-4532-af2b-9ee1842380d7","system_id":"levelo_inurba_marseille","lat":43.30537,"lon":5.36536,"is_reserved":false,"is_disabled":false,"rental_uris":{"android":"levelo://app?vid=fa002e4d-855f-4532-af2b-9ee1842380d7","ios":"levelo://app?vid=fa002e4d-855f-4532-af2b-9ee1842380d7"},"vehicle_type_id":"4","last_reported":1779018807,"current_range_meters":8800,"station_id":"ce4bgs12rcd13ifvqcag","pricing_plan_id":"cebpf4jnsgd1na2vs0mg"},{"bike_id":"6043e87c-43af-4bb6-a467-45887edbd8bb","system_id":"levelo_inurba_marseille","lat":43.2467,"lon":5.3815,"is_reserved":false,"is_disabled":false,"rental_uris":{"android":"levelo://app?vid=6043e87c-43af-4bb6-a467-45887edbd8bb","ios":"levelo://app?vid=6043e87c-43af-4bb6-a467-45887edbd8bb"},"vehicle_type_id":"4","last_reported":1779018807,"current_range_meters":8800,"station_id":"ce4bhih2rcd13ifvqfr0","pricing_plan_id":"cebpf4jnsgd1na2vs0mg"},{"bike_id":"5d7d847e-d6bf-44b4-8a7f-84ab3b8ede8e","system_id":"levelo_inurba_marseille","lat":43.26399,"lon":5.41042,"is_reserved":false,"is_disabled":false,"rental_uris":{"android":"levelo://app?vid=5d7d847e-d6bf-44b4-8a7f-84ab3b8ede8e","ios":"levelo://app?vid=5d7d847e-d6bf-44b4-8a7f-84ab3b8ede8e"},"vehicle_type_id":"4","last_reported":1779018807,"current_range_meters":8800,"station_id":"st_d4e5ca6na9uc73bfl5fg","pricing_plan_id":"cebpf4jnsgd1na2vs0mg"},{"bike_id":"485955d6-ba96-406a-a147-780b86857fdb","system_id":"levelo_inurba_marseille","lat":43.28029,"lon":5.36941,"is_reserved":false,"is_disabled":false,"rental_uris":{"android":"levelo://app?vid=485955d6-ba96-406a-a147-780b86857fdb","ios":"levelo://app?vid=485955d6-ba96-406a-a147-780b86857fdb"},"vehicle_type_id":"4","last_reported":1779018807,"current_range_meters":8800,"station_id":"ce4bha12rcd13ifvqef0","pricing_plan_id":"cebpf4jnsgd1na2vs0mg"},{"bike_id":"0a112fbf-8b41-4590-a94f-d50d1b6d228a","system_id":"levelo_inurba_marseille","lat":43.23064,"lon":5.35485,"is_reserved":false,"is_disabled":false,"rental_uris":{"android":"levelo://app?vid=0a112fbf-8b41-4590-a94f-d50d1b6d228a","ios":"levelo://app?vid=0a112fbf-8b41-4590-a94f-d50d1b6d228a"},"vehicle_type_id":"4","last_reported":1779018807,"current_range_meters":9200,"station_id":"cpo3342slgdg3j2ifvpg","pricing_plan_id":"cebpf4jnsgd1na2vs0mg"},{"bike_id":"e0e11049-b025-40de-92ed-c9aaea44a9c4","system_id":"levelo_inurba_marseille","lat":43.22562,"lon":5.41625,"is_reserved":false,"is_disabled":false,"rental_uris":{"android":"levelo://app?vid=e0e11049-b025-40de-92ed-c9aaea44a9c4","ios":"levelo://app?vid=e0e11049-b025-40de-92ed-c9aaea44a9c4"},"vehicle_type_id":"4","last_reported":1779018807,"current_range_meters":9200,"station_id":"st_d2o4gvlbi1j2169b742g","pricing_plan_id":"cebpf4jnsgd1na2vs0mg"},{"bike_id":"7235fe4c-64ab-4f45-a788-852ebf185296","system_id":"levelo_inurba_marseille","lat":43.29247,"lon":5.36056,"is_reserved":false,"is_disabled":false,"rental_uris":{"android":"levelo://app?vid=7235fe4c-64ab-4f45-a788-852ebf185296","ios":"levelo://app?vid=7235fe4c-64ab-4f45-a788-852ebf185296"},"vehicle_type_id":"4","last_reported":1779018807,"current_range_meters":9200,"station_id":"ce4bhbh2rcd13ifvqeqg","pricing_plan_id":"cebpf4jnsgd1na2vs0mg"},{"bike_id":"cd7b086b-f551-42eb-8d01-c889e0d9dc72","system_id":"levelo_inurba_marseille","lat":43.26211,"lon":5.37448,"is_reserved":false,"is_disabled":false,"rental_uris":{"android":"levelo://app?vid=cd7b086b-f551-42eb-8d01-c889e0d9dc72","ios":"levelo://app?vid=cd7b086b-f551-42eb-8d01-c889e0d9dc72"},"vehicle_type_id":"4","last_reported":1779018807,"current_range_meters":9200,"station_id":"ce4bhgp2rcd13ifvqfc0","pricing_plan_id":"cebpf4jnsgd1na2vs0mg"},{"bike_id":"7767d8f6-aa40-43bb-9512-cf65ea3a5dec","system_id":"levelo_inurba_marseille","lat":43.24804,"lon":5.3744,"is_reserved":false,"is_disabled":false,"rental_uris":{"android":"levelo://app?vid=7767d8f6-aa40-43bb-9512-cf65ea3a5dec","ios":"levelo://app?vid=7767d8f6-aa40-43bb-9512-cf65ea3a5dec"},"vehicle_type_id":"4","last_reported":1779018807,"current_range_meters":9200,"station_id":"ce4bhgh2rcd13ifvqfb0","pricing_plan_id":"cebpf4jnsgd1na2vs0mg"},{"bike_id":"c7fecf63-02eb-450e-b066-ec1bf392eaa2","system_id":"levelo_inurba_marseille","lat":43.26028,"lon":5.37542,"is_reserved":false,"is_disabled":false,"rental_uris":{"android":"levelo://app?vid=c7fecf63-02eb-450e-b066-ec1bf392eaa2","ios":"levelo://app?vid=c7fecf63-02eb-450e-b066-ec1bf392eaa2"},"vehicle_type_id":"4","last_reported":1779018807,"current_range_meters":9200,"station_id":"ce4bhgh2rcd13ifvqfa0","pricing_plan_id":"cebpf4jnsgd1na2vs0mg"},{"bike_id":"d0fa1085-71d5-4c78-88e7-9a865971d5d1","system_id":"levelo_inurba_marseille","lat":43.2257,"lon":5.41621,"is_reserved":false,"is_disabled":false,"rental_uris":{"android":"levelo://app?vid=d0fa1085-71d5-4c78-88e7-9a865971d5d1","ios":"levelo://app?vid=d0fa1085-71d5-4c78-88e7-9a865971d5d1"},"vehicle_type_id":"4","last_reported":1779018807,"current_range_meters":9200,"station_id":"st_d2o4gvlbi1j2169b742g","pricing_plan_id":"cebpf4jnsgd1na2vs0mg"},{"bike_id":"a53493d3-e405-4949-bdf9-cf8d5b59189e","system_id":"levelo_inurba_marseille","lat":43.24798,"lon":5.37458,"is_reserved":false,"is_disabled":false,"rental_uris":{"android":"levelo://app?vid=a53493d3-e405-4949-bdf9-cf8d5b59189e","ios":"levelo://app?vid=a53493d3-e405-4949-bdf9-cf8d5b59189e"},"vehicle_type_id":"4","last_reported":1779018807,"current_range_meters":9200,"station_id":"ce4bhgh2rcd13ifvqfb0","pricing_plan_id":"cebpf4jnsgd1na2vs0mg"},{"bike_id":"cc124e1f-fc89-489e-90e3-232a4dcc39c0","system_id":"levelo_inurba_marseille","lat":43.24806,"lon":5.37447,"is_reserved":false,"is_disabled":false,"rental_uris":{"android":"levelo://app?vid=cc124e1f-fc89-489e-90e3-232a4dcc39c0","ios":"levelo://app?vid=cc124e1f-fc89-489e-90e3-232a4dcc39c0"},"vehicle_type_id":"4","last_reported":1779018807,"current_range_meters":9200,"station_id":"ce4bhgh2rcd13ifvqfb0","pricing_plan_id":"cebpf4jnsgd1na2vs0mg"},{"bike_id":"6bd7bd0a-340b-449f-8028-b4f4e39c8346","system_id":"levelo_inurba_marseille","lat":43.23964,"lon":5.36621,"is_reserved":false,"is_disabled":false,"rental_uris":{"android":"levelo://app?vid=6bd7bd0a-340b-449f-8028-b4f4e39c8346","ios":"levelo://app?vid=6bd7bd0a-340b-449f-8028-b4f4e39c8346"},"vehicle_type_id":"4","last_reported":1779018807,"current_range_meters":9200,"station_id":"ce4bhi12rcd13ifvqfp0","pricing_plan_id":"cebpf4jnsgd1na2vs0mg"},{"bike_id":"9fdfc4d7-f3b4-4e8c-a1bc-42e849e2dce8","system_id":"levelo_inurba_marseille","lat":43.22554,"lon":5.41626,"is_reserved":false,"is_disabled":false,"rental_uris":{"android":"levelo://app?vid=9fdfc4d7-f3b4-4e8c-a1bc-42e849e2dce8","ios":"levelo://app?vid=9fdfc4d7-f3b4-4e8c-a1bc-42e849e2dce8"},"vehicle_type_id":"4","last_reported":1779018807,"current_range_meters":9200,"station_id":"st_d2o4gvlbi1j2169b742g","pricing_plan_id":"cebpf4jnsgd1na2vs0mg"},{"bike_id":"af64f58f-63f1-4ee7-995f-30b450f66b55","system_id":"levelo_inurba_marseille","lat":43.29002,"lon":5.35607,"is_reserved":false,"is_disabled":false,"rental_uris":{"android":"levelo://app?vid=af64f58f-63f1-4ee7-995f-30b450f66b55","ios":"levelo://app?vid=af64f58f-63f1-4ee7-995f-30b450f66b55"},"vehicle_type_id":"4","last_reported":1779018807,"current_range_meters":9200,"station_id":"ce4bhb92rcd13ifvqen0","pricing_plan_id":"cebpf4jnsgd1na2vs0mg"},{"bike_id":"c0e1fec8-3ee4-4f19-8290-05094a1c4088","system_id":"levelo_inurba_marseille","lat":43.337444,"lon":5.374475,"is_reserved":false,"is_disabled":false,"rental_uris":{"android":"levelo://app?vid=c0e1fec8-3ee4-4f19-8290-05094a1c4088","ios":"levelo://app?vid=c0e1fec8-3ee4-4f19-8290-05094a1c4088"},"vehicle_type_id":"4","last_reported":1779018807,"current_range_meters":9200,"station_id":"","pricing_plan_id":"cebpf4jnsgd1na2vs0mg"},{"bike_id":"010100e5-5e1b-4322-b68a-6837b7af9352","system_id":"levelo_inurba_marseille","lat":43.25386,"lon":5.41337,"is_reserved":false,"is_disabled":false,"rental_uris":{"android":"levelo://app?vid=010100e5-5e1b-4322-b68a-6837b7af9352","ios":"levelo://app?vid=010100e5-5e1b-4322-b68a-6837b7af9352"},"vehicle_type_id":"4","last_reported":1779018807,"current_range_meters":9200,"station_id":"","pricing_plan_id":"cebpf4jnsgd1na2vs0mg"},{"bike_id":"29e5acc4-7b88-4657-b222-b8cedf804a83","system_id":"levelo_inurba_marseille","lat":43.30358,"lon":5.4188,"is_reserved":false,"is_disabled":false,"rental_uris":{"android":"levelo://app?vid=29e5acc4-7b88-4657-b222-b8cedf804a83","ios":"levelo://app?vid=29e5acc4-7b88-4657-b222-b8cedf804a83"},"vehicle_type_id":"4","last_reported":1779018807,"current_range_meters":9200,"station_id":"ce4bhop2rcd13ifvqh7g","pricing_plan_id":"cebpf4jnsgd1na2vs0mg"},{"bike_id":"d7f2102e-3b1b-4ad4-bc12-cc010cb7503a","system_id":"levelo_inurba_marseille","lat":43.24667,"lon":5.38166,"is_reserved":false,"is_disabled":false,"rental_uris":{"android":"levelo://app?vid=d7f2102e-3b1b-4ad4-bc12-cc010cb7503a","ios":"levelo://app?vid=d7f2102e-3b1b-4ad4-bc12-cc010cb7503a"},"vehicle_type_id":"4","last_reported":1779018807,"current_range_meters":9200,"station_id":"ce4bhih2rcd13ifvqfr0","pricing_plan_id":"cebpf4jnsgd1na2vs0mg"},{"bike_id":"4a5adfac-77da-4ecc-852c-34d7369bab43","system_id":"levelo_inurba_marseille","lat":43.32116,"lon":5.36766,"is_reserved":false,"is_disabled":false,"rental_uris":{"android":"levelo://app?vid=4a5adfac-77da-4ecc-852c-34d7369bab43","ios":"levelo://app?vid=4a5adfac-77da-4ecc-852c-34d7369bab43"},"vehicle_type_id":"4","last_reported":1779018807,"current_range_meters":9200,"station_id":"ce4bhrh2rcd13ifvqhug","pricing_plan_id":"cebpf4jnsgd1na2vs0mg"},{"bike_id":"12ca6fcb-de54-45fd-bc9e-5b97f33ae291","system_id":"levelo_inurba_marseille","lat":43.29981,"lon":5.41307,"is_reserved":false,"is_disabled":false,"rental_uris":{"android":"levelo://app?vid=12ca6fcb-de54-45fd-bc9e-5b97f33ae291","ios":"levelo://app?vid=12ca6fcb-de54-45fd-bc9e-5b97f33ae291"},"vehicle_type_id":"4","last_reported":1779018807,"current_range_meters":9200,"station_id":"ce4bhp12rcd13ifvqh9g","pricing_plan_id":"cebpf4jnsgd1na2vs0mg"},{"bike_id":"0190dbda-d90e-49ba-86b5-5d667179cbcc","system_id":"levelo_inurba_marseille","lat":43.26257,"lon":5.40335,"is_reserved":false,"is_disabled":false,"rental_uris":{"android":"levelo://app?vid=0190dbda-d90e-49ba-86b5-5d667179cbcc","ios":"levelo://app?vid=0190dbda-d90e-49ba-86b5-5d667179cbcc"},"vehicle_type_id":"4","last_reported":1779018807,"current_range_meters":9200,"station_id":"","pricing_plan_id":"cebpf4jnsgd1na2vs0mg"},{"bike_id":"4ef2207c-92b6-4109-9bcf-b1ac57108438","system_id":"levelo_inurba_marseille","lat":43.31352,"lon":5.44141,"is_reserved":false,"is_disabled":false,"rental_uris":{"android":"levelo://app?vid=4ef2207c-92b6-4109-9bcf-b1ac57108438","ios":"levelo://app?vid=4ef2207c-92b6-4109-9bcf-b1ac57108438"},"vehicle_type_id":"4","last_reported":1779018807,"current_range_meters":9200,"station_id":"","pricing_plan_id":"cebpf4jnsgd1na2vs0mg"},{"bike_id":"4a625781-0ed4-4c1d-9025-fbd024655fae","system_id":"levelo_inurba_marseille","lat":43.26231,"lon":5.40447,"is_reserved":false,"is_disabled":true,"rental_uris":{"android":"levelo://app?vid=4a625781-0ed4-4c1d-9025-fbd024655fae","ios":"levelo://app?vid=4a625781-0ed4-4c1d-9025-fbd024655fae"},"vehicle_type_id":"4","last_reported":1779018807,"current_range_meters":9200,"station_id":"ce4bhmh2rcd13ifvqgmg","pricing_plan_id":"cebpf4jnsgd1na2vs0mg"},{"bike_id":"9dd185a7-e00d-40de-8a57-3d4541a28e4c","system_id":"levelo_inurba_marseille","lat":43.21742,"lon":5.34605,"is_reserved":false,"is_disabled":false,"rental_uris":{"android":"levelo://app?vid=9dd185a7-e00d-40de-8a57-3d4541a28e4c","ios":"levelo://app?vid=9dd185a7-e00d-40de-8a57-3d4541a28e4c"},"vehicle_type_id":"4","last_reported":1779018807,"current_range_meters":9200,"station_id":"st_cvj6r9ubvosntc0bgbag","pricing_plan_id":"cebpf4jnsgd1na2vs0mg"},{"bike_id":"f553f91d-a609-4c84-b3fb-59492c0c1e7f","system_id":"levelo_inurba_marseille","lat":43.21199,"lon":5.35059,"is_reserved":false,"is_disabled":false,"rental_uris":{"android":"levelo://app?vid=f553f91d-a609-4c84-b3fb-59492c0c1e7f","ios":"levelo://app?vid=f553f91d-a609-4c84-b3fb-59492c0c1e7f"},"vehicle_type_id":"4","last_reported":1779018807,"current_range_meters":9200,"station_id":"st_cvj6sg6p6f1abm77japg","pricing_plan_id":"cebpf4jnsgd1na2vs0mg"},{"bike_id":"d29b2169-2ca6-451f-8d5a-d11e58f089ea","system_id":"levelo_inurba_marseille","lat":43.30307,"lon":5.38471,"is_reserved":false,"is_disabled":false,"rental_uris":{"android":"levelo://app?vid=d29b2169-2ca6-451f-8d5a-d11e58f089ea","ios":"levelo://app?vid=d29b2169-2ca6-451f-8d5a-d11e58f089ea"},"vehicle_type_id":"4","last_reported":1779018807,"current_range_meters":9200,"station_id":"","pricing_plan_id":"cebpf4jnsgd1na2vs0mg"},{"bike_id":"40a13c16-16a4-4425-a8bb-61c93ea2dcde","system_id":"levelo_inurba_marseille","lat":43.29192,"lon":5.35792,"is_reserved":false,"is_disabled":false,"rental_uris":{"android":"levelo://app?vid=40a13c16-16a4-4425-a8bb-61c93ea2dcde","ios":"levelo://app?vid=40a13c16-16a4-4425-a8bb-61c93ea2dcde"},"vehicle_type_id":"4","last_reported":1779018807,"current_range_meters":9600,"station_id":"ce4bhb12rcd13ifvqel0","pricing_plan_id":"cebpf4jnsgd1na2vs0mg"},{"bike_id":"e1dced0f-17de-4e06-aae7-1fb86cc3c6e1","system_id":"levelo_inurba_marseille","lat":43.21191,"lon":5.3507,"is_reserved":false,"is_disabled":false,"rental_uris":{"android":"levelo://app?vid=e1dced0f-17de-4e06-aae7-1fb86cc3c6e1","ios":"levelo://app?vid=e1dced0f-17de-4e06-aae7-1fb86cc3c6e1"},"vehicle_type_id":"4","last_reported":1779018807,"current_range_meters":9600,"station_id":"st_cvj6sg6p6f1abm77japg","pricing_plan_id":"cebpf4jnsgd1na2vs0mg"},{"bike_id":"8b84d26c-5777-43e5-895a-0b89b4f5aacf","system_id":"levelo_inurba_marseille","lat":43.33541,"lon":5.37459,"is_reserved":false,"is_disabled":false,"rental_uris":{"android":"levelo://app?vid=8b84d26c-5777-43e5-895a-0b89b4f5aacf","ios":"levelo://app?vid=8b84d26c-5777-43e5-895a-0b89b4f5aacf"},"vehicle_type_id":"4","last_reported":1779018807,"current_range_meters":9600,"station_id":"st_d46tts09ee8s73dlu43g","pricing_plan_id":"cebpf4jnsgd1na2vs0mg"},{"bike_id":"26d4c671-abf4-492c-bad2-8fbf0ad57d35","system_id":"levelo_inurba_marseille","lat":43.22946,"lon":5.35366,"is_reserved":false,"is_disabled":false,"rental_uris":{"android":"levelo://app?vid=26d4c671-abf4-492c-bad2-8fbf0ad57d35","ios":"levelo://app?vid=26d4c671-abf4-492c-bad2-8fbf0ad57d35"},"vehicle_type_id":"4","last_reported":1779018807,"current_range_meters":9600,"station_id":"cpo3532slgdg3j2ikp40","pricing_plan_id":"cebpf4jnsgd1na2vs0mg"},{"bike_id":"0dbe8bdc-605e-420e-9d92-e9bb238a9b76","system_id":"levelo_inurba_marseille","lat":43.26217,"lon":5.40432,"is_reserved":false,"is_disabled":false,"rental_uris":{"android":"levelo://app?vid=0dbe8bdc-605e-420e-9d92-e9bb238a9b76","ios":"levelo://app?vid=0dbe8bdc-605e-420e-9d92-e9bb238a9b76"},"vehicle_type_id":"4","last_reported":1779018807,"current_range_meters":9600,"station_id":"ce4bhmh2rcd13ifvqgmg","pricing_plan_id":"cebpf4jnsgd1na2vs0mg"},{"bike_id":"97bea49d-e520-496d-9f1c-e37f3aba8afe","system_id":"levelo_inurba_marseille","lat":43.24779,"lon":5.37442,"is_reserved":false,"is_disabled":false,"rental_uris":{"android":"levelo://app?vid=97bea49d-e520-496d-9f1c-e37f3aba8afe","ios":"levelo://app?vid=97bea49d-e520-496d-9f1c-e37f3aba8afe"},"vehicle_type_id":"4","last_reported":1779018807,"current_range_meters":9600,"station_id":"ce4bhgh2rcd13ifvqfb0","pricing_plan_id":"cebpf4jnsgd1na2vs0mg"},{"bike_id":"85ba5b70-9f25-48f2-8385-bfd268119584","system_id":"levelo_inurba_marseille","lat":43.24488,"lon":5.42525,"is_reserved":false,"is_disabled":false,"rental_uris":{"android":"levelo://app?vid=85ba5b70-9f25-48f2-8385-bfd268119584","ios":"levelo://app?vid=85ba5b70-9f25-48f2-8385-bfd268119584"},"vehicle_type_id":"4","last_reported":1779018807,"current_range_meters":9600,"station_id":"st_d4a3vfp97mjs738cd8kg","pricing_plan_id":"cebpf4jnsgd1na2vs0mg"},{"bike_id":"1552c2a2-c513-446f-843f-0b3c4c3fc590","system_id":"levelo_inurba_marseille","lat":43.27648,"lon":5.36124,"is_reserved":false,"is_disabled":false,"rental_uris":{"android":"levelo://app?vid=1552c2a2-c513-446f-843f-0b3c4c3fc590","ios":"levelo://app?vid=1552c2a2-c513-446f-843f-0b3c4c3fc590"},"vehicle_type_id":"4","last_reported":1779018807,"current_range_meters":9600,"station_id":"ce4bgj92rcd13ifvqbe0","pricing_plan_id":"cebpf4jnsgd1na2vs0mg"},{"bike_id":"bec6c589-c4bc-4b6c-86c7-3738afce4956","system_id":"levelo_inurba_marseille","lat":43.31373,"lon":5.38489,"is_reserved":false,"is_disabled":false,"rental_uris":{"android":"levelo://app?vid=bec6c589-c4bc-4b6c-86c7-3738afce4956","ios":"levelo://app?vid=bec6c589-c4bc-4b6c-86c7-3738afce4956"},"vehicle_type_id":"4","last_reported":1779018807,"current_range_meters":9600,"station_id":"ce4bgt92rcd13ifvqcf0","pricing_plan_id":"cebpf4jnsgd1na2vs0mg"},{"bike_id":"22853b04-8200-457e-b9ad-af3ef8f2145b","system_id":"levelo_inurba_marseille","lat":43.30153,"lon":5.38095,"is_reserved":false,"is_disabled":false,"rental_uris":{"android":"levelo://app?vid=22853b04-8200-457e-b9ad-af3ef8f2145b","ios":"levelo://app?vid=22853b04-8200-457e-b9ad-af3ef8f2145b"},"vehicle_type_id":"4","last_reported":1779018807,"current_range_meters":9600,"station_id":"ce4bgjp2rcd13ifvqbh0","pricing_plan_id":"cebpf4jnsgd1na2vs0mg"},{"bike_id":"7682eabb-7264-45e2-a6cd-2491c61ad6ff","system_id":"levelo_inurba_marseille","lat":43.26556,"lon":5.37289,"is_reserved":false,"is_disabled":false,"rental_uris":{"android":"levelo://app?vid=7682eabb-7264-45e2-a6cd-2491c61ad6ff","ios":"levelo://app?vid=7682eabb-7264-45e2-a6cd-2491c61ad6ff"},"vehicle_type_id":"4","last_reported":1779018807,"current_range_meters":9600,"station_id":"ce4bhg12rcd13ifvqf70","pricing_plan_id":"cebpf4jnsgd1na2vs0mg"},