{"last_updated":1748120908,"ttl":60,"version":"2.2","data":{"bikes":[{"bike_id":"bd6fb592-5b31-4608-8dfb-13e508fe0657","system_id":"levelo_inurba_marseille","lat":43.298925,"lon":5.374719,"is_reserved":false,"is_disabled":false,"rental_uris":{"android":"levelo://app?vid=bd6fb592-5b31-4608-8dfb-13e508fe0657","ios":"levelo://app?vid=bd6fb592-5b31-4608-8dfb-13e508fe0657"},"vehicle_type_id":"4","last_reported":1748120908,"current_range_meters":2800,"station_id":"ce4bhb12rcd13ifvqem0","pricing_plan_id":"cebpf4jnsgd1na2vs0mg"},{"bike_id":"07e5e432-61bc-454c-813f-47702568106e","system_id":"levelo_inurba_marseille","lat":43.28155,"lon":5.42643,"is_reserved":false,"is_disabled":false,"rental_uris":{"android":"levelo://app?vid=07e5e432-61bc-454c-813f-47702568106e","ios":"levelo://app?vid=07e5e432-61bc-454c-813f-47702568106e"},"vehicle_type_id":"4","last_reported":1748120908,"current_range_meters":3200,"station_id":"ce4bhnh2rcd13ifvqgug","pricing_plan_id":"cebpf4jnsgd1na2vs0mg"},{"bike_id":"e4b8da17-840b-4ce7-bd95-fe86b8710f78","system_id":"levelo_inurba_marseille","lat":43.29002,"lon":5.35623,"is_reserved":false,"is_disabled":true,"rental_uris":{"android":"levelo://app?vid=e4b8da17-840b-4ce7-bd95-fe86b8710f78","ios":"levelo://app?vid=e4b8da17-840b-4ce7-bd95-fe86b8710f78"},"vehicle_type_id":"4","last_reported":1748120908,"current_range_meters":3200,"station_id":"ce4bhb92rcd13ifvqen0","pricing_plan_id":"cebpf4jnsgd1na2vs0mg"},{"bike_id":"b1391313-4ed4-4f3c-8128-f7aa52e91532","system_id":"levelo_inurba_marseille","lat":43.29628,"lon":5.40592,"is_reserved":false,"is_disabled":false,"rental_uris":{"android":"levelo://app?vid=b1391313-4ed4-4f3c-8128-f7aa52e91532","ios":"levelo://app?vid=b1391313-4ed4-4f3c-8128-f7aa52e91532"},"vehicle_type_id":"4","last_reported":1748120908,"current_range_meters":3200,"station_id":"ce4bh0h2rcd13ifvqd60","pricing_plan_id":"cebpf4jnsgd1na2vs0mg"},{"bike_id":"a1933a36-f77f-4668-a08c-639a9bd1a1e8","system_id":"levelo_inurba_marseille","lat":43.23184,"lon":5.39965,"is_reserved":false,"is_disabled":true,"rental_uris":{"android":"levelo://app?vid=a1933a36-f77f-4668-a08c-639a9bd1a1e8","ios":"levelo://app?vid=a1933a36-f77f-4668-a08c-639a9bd1a1e8"},"vehicle_type_id":"4","last_reported":1748120908,"current_range_meters":3200,"station_id":"ce4bhn12rcd13ifvqgqg","pricing_plan_id":"cebpf4jnsgd1na2vs0mg"},{"bike_id":"3f991850-25a0-49c3-811f-7fd52b9cb6cd","system_id":"levelo_inurba_marseille","lat":43.2847,"lon":5.38413,"is_reserved":false,"is_disabled":false,"rental_uris":{"android":"levelo://app?vid=3f991850-25a0-49c3-811f-7fd52b9cb6cd","ios":"levelo://app?vid=3f991850-25a0-49c3-811f-7fd52b9cb6cd"},"vehicle_type_id":"4","last_reported":1748120908,"current_range_meters":3200,"station_id":"ce4bh512rcd13ifvqe3g","pricing_plan_id":"cebpf4jnsgd1na2vs0mg"},{"bike_id":"f1c6d019-724a-4d8c-8800-518f39091386","system_id":"levelo_inurba_marseille","lat":43.26883,"lon":5.39371,"is_reserved":false,"is_disabled":false,"rental_uris":{"android":"levelo://app?vid=f1c6d019-724a-4d8c-8800-518f39091386","ios":"levelo://app?vid=f1c6d019-724a-4d8c-8800-518f39091386"},"vehicle_type_id":"4","last_reported":1748120908,"current_range_meters":3600,"station_id":"","pricing_plan_id":"cebpf4jnsgd1na2vs0mg"},{"bike_id":"86667826-9ef4-4e91-a3e0-ce30bfe9c8a7","system_id":"levelo_inurba_marseille","lat":43.2981,"lon":5.38098,"is_reserved":false,"is_disabled":false,"rental_uris":{"android":"levelo://app?vid=86667826-9ef4-4e91-a3e0-ce30bfe9c8a7","ios":"levelo://app?vid=86667826-9ef4-4e91-a3e0-ce30bfe9c8a7"},"vehicle_type_id":"4","last_reported":1748120908,"current_range_meters":3600,"station_id":"ce4bgip2rcd13ifvqbb0","pricing_plan_id":"cebpf4jnsgd1na2vs0mg"},{"bike_id":"a3bd75f3-fb2c-4296-a1df-8a01b5c782b4","system_id":"levelo_inurba_marseille","lat":43.30927,"lon":5.40139,"is_reserved":false,"is_disabled":false,"rental_uris":{"android":"levelo://app?vid=a3bd75f3-fb2c-4296-a1df-8a01b5c782b4","ios":"levelo://app?vid=a3bd75f3-fb2c-4296-a1df-8a01b5c782b4"},"vehicle_type_id":"4","last_reported":1748120908,"current_range_meters":3600,"station_id":"ce4bgvp2rcd13ifvqct0","pricing_plan_id":"cebpf4jnsgd1na2vs0mg"},{"bike_id":"221b41ad-2320-4add-abb4-750bb95c61fe","system_id":"levelo_inurba_marseille","lat":43.27496,"lon":5.424563,"is_reserved":false,"is_disabled":false,"rental_uris":{"android":"levelo://app?vid=221b41ad-2320-4add-abb4-750bb95c61fe","ios":"levelo://app?vid=221b41ad-2320-4add-abb4-750bb95c61fe"},"vehicle_type_id":"4","last_reported":1748120908,"current_range_meters":4000,"station_id":"ce4bhn92rcd13ifvqgrg","pricing_plan_id":"cebpf4jnsgd1na2vs0mg"},{"bike_id":"893c7e14-2557-47c3-a41e-b963c63421f2","system_id":"levelo_inurba_marseille","lat":43.31715,"lon":5.43703,"is_reserved":false,"is_disabled":false,"rental_uris":{"android":"levelo://app?vid=893c7e14-2557-47c3-a41e-b963c63421f2","ios":"levelo://app?vid=893c7e14-2557-47c3-a41e-b963c63421f2"},"vehicle_type_id":"4","last_reported":1748120908,"current_range_meters":4000,"station_id":"ce4bhp92rcd13ifvqhcg","pricing_plan_id":"cebpf4jnsgd1na2vs0mg"},{"bike_id":"d85c177f-4e83-49e4-8876-dcc28e03c14d","system_id":"levelo_inurba_marseille","lat":43.25951,"lon":5.40903,"is_reserved":false,"is_disabled":false,"rental_uris":{"android":"levelo://app?vid=d85c177f-4e83-49e4-8876-dcc28e03c14d","ios":"levelo://app?vid=d85c177f-4e83-49e4-8876-dcc28e03c14d"},"vehicle_type_id":"4","last_reported":1748120908,"current_range_meters":4000,"station_id":"ce4bhm92rcd13ifvqglg","pricing_plan_id":"cebpf4jnsgd1na2vs0mg"},{"bike_id":"0f2468b5-c2af-4aa8-a946-9f4d851719e2","system_id":"levelo_inurba_marseille","lat":43.28037,"lon":5.3694,"is_reserved":false,"is_disabled":false,"rental_uris":{"android":"levelo://app?vid=0f2468b5-c2af-4aa8-a946-9f4d851719e2","ios":"levelo://app?vid=0f2468b5-c2af-4aa8-a946-9f4d851719e2"},"vehicle_type_id":"4","last_reported":1748120908,"current_range_meters":4000,"station_id":"ce4bha12rcd13ifvqef0","pricing_plan_id":"cebpf4jnsgd1na2vs0mg"},{"bike_id":"164e60a4-05bc-4649-85d4-95b45cbfeab2","system_id":"levelo_inurba_marseille","lat":43.25728,"lon":5.41107,"is_reserved":false,"is_disabled":false,"rental_uris":{"android":"levelo://app?vid=164e60a4-05bc-4649-85d4-95b45cbfeab2","ios":"levelo://app?vid=164e60a4-05bc-4649-85d4-95b45cbfeab2"},"vehicle_type_id":"4","last_reported":1748120908,"current_range_meters":4000,"station_id":"ce4bhkp2rcd13ifvqgd0","pricing_plan_id":"cebpf4jnsgd1na2vs0mg"},{"bike_id":"ed94f15c-f13e-4cc6-b21b-2dc845003981","system_id":"levelo_inurba_marseille","lat":43.31263,"lon":5.36819,"is_reserved":false,"is_disabled":false,"rental_uris":{"android":"levelo://app?vid=ed94f15c-f13e-4cc6-b21b-2dc845003981","ios":"levelo://app?vid=ed94f15c-f13e-4cc6-b21b-2dc845003981"},"vehicle_type_id":"4","last_reported":1748120908,"current_range_meters":4000,"station_id":"ce4bgl92rcd13ifvqbq0","pricing_plan_id":"cebpf4jnsgd1na2vs0mg"},{"bike_id":"c6132309-f2cf-4b52-8410-cc627a8f2b93","system_id":"levelo_inurba_marseille","lat":43.27324,"lon":5.39067,"is_reserved":false,"is_disabled":false,"rental_uris":{"android":"levelo://app?vid=c6132309-f2cf-4b52-8410-cc627a8f2b93","ios":"levelo://app?vid=c6132309-f2cf-4b52-8410-cc627a8f2b93"},"vehicle_type_id":"4","last_reported":1748120908,"current_range_meters":4000,"station_id":"ce4bhgp2rcd13ifvqfe0","pricing_plan_id":"cebpf4jnsgd1na2vs0mg"},{"bike_id":"252f4586-ce93-480f-8a37-4ced8e152bc6","system_id":"levelo_inurba_marseille","lat":43.26784,"lon":5.39417,"is_reserved":false,"is_disabled":false,"rental_uris":{"android":"levelo://app?vid=252f4586-ce93-480f-8a37-4ced8e152bc6","ios":"levelo://app?vid=252f4586-ce93-480f-8a37-4ced8e152bc6"},"vehicle_type_id":"4","last_reported":1748120908,"current_range_meters":4400,"station_id":"ce4bhh12rcd13ifvqfg0","pricing_plan_id":"cebpf4jnsgd1na2vs0mg"},{"bike_id":"c24837d6-c603-4211-bfa4-312941ca0367","system_id":"levelo_inurba_marseille","lat":43.30288,"lon":5.36896,"is_reserved":false,"is_disabled":false,"rental_uris":{"android":"levelo://app?vid=c24837d6-c603-4211-bfa4-312941ca0367","ios":"levelo://app?vid=c24837d6-c603-4211-bfa4-312941ca0367"},"vehicle_type_id":"4","last_reported":1748120908,"current_range_meters":4400,"station_id":"ce4bgqh2rcd13ifvqc5g","pricing_plan_id":"cebpf4jnsgd1na2vs0mg"},{"bike_id":"8e57d20b-c38b-459f-8f5e-0fe106cc372c","system_id":"levelo_inurba_marseille","lat":43.253214,"lon":5.393635,"is_reserved":false,"is_disabled":false,"rental_uris":{"android":"levelo://app?vid=8e57d20b-c38b-459f-8f5e-0fe106cc372c","ios":"levelo://app?vid=8e57d20b-c38b-459f-8f5e-0fe106cc372c"},"vehicle_type_id":"4","last_reported":1748120908,"current_range_meters":4400,"station_id":"","pricing_plan_id":"cebpf4jnsgd1na2vs0mg"},{"bike_id":"06e65b82-697a-40e7-a12f-11fd70578618","system_id":"levelo_inurba_marseille","lat":43.261932,"lon":5.374481,"is_reserved":false,"is_disabled":false,"rental_uris":{"android":"levelo://app?vid=06e65b82-697a-40e7-a12f-11fd70578618","ios":"levelo://app?vid=06e65b82-697a-40e7-a12f-11fd70578618"},"vehicle_type_id":"4","last_reported":1748120908,"current_range_meters":4400,"station_id":"ce4bhgp2rcd13ifvqfc0","pricing_plan_id":"cebpf4jnsgd1na2vs0mg"},{"bike_id":"194666df-d60f-4dbf-918c-87098827f0fb","system_id":"levelo_inurba_marseille","lat":43.29403,"lon":5.37919,"is_reserved":false,"is_disabled":true,"rental_uris":{"android":"levelo://app?vid=194666df-d60f-4dbf-918c-87098827f0fb","ios":"levelo://app?vid=194666df-d60f-4dbf-918c-87098827f0fb"},"vehicle_type_id":"4","last_reported":1748120908,"current_range_meters":4400,"station_id":"","pricing_plan_id":"cebpf4jnsgd1na2vs0mg"},{"bike_id":"a51a78a6-1714-49f2-aa68-840fe6f9732d","system_id":"levelo_inurba_marseille","lat":43.30949,"lon":5.39028,"is_reserved":false,"is_disabled":false,"rental_uris":{"android":"levelo://app?vid=a51a78a6-1714-49f2-aa68-840fe6f9732d","ios":"levelo://app?vid=a51a78a6-1714-49f2-aa68-840fe6f9732d"},"vehicle_type_id":"4","last_reported":1748120908,"current_range_meters":5600,"station_id":"ce4bgup2rcd13ifvqco0","pricing_plan_id":"cebpf4jnsgd1na2vs0mg"},{"bike_id":"a62979a0-0552-4914-a9d9-0b028143dcfb","system_id":"levelo_inurba_marseille","lat":43.25544,"lon":5.38157,"is_reserved":false,"is_disabled":false,"rental_uris":{"android":"levelo://app?vid=a62979a0-0552-4914-a9d9-0b028143dcfb","ios":"levelo://app?vid=a62979a0-0552-4914-a9d9-0b028143dcfb"},"vehicle_type_id":"4","last_reported":1748120908,"current_range_meters":4400,"station_id":"","pricing_plan_id":"cebpf4jnsgd1na2vs0mg"},{"bike_id":"11fa9e88-eb14-4513-bec9-03f3a1b2637d","system_id":"levelo_inurba_marseille","lat":43.23195,"lon":5.3554,"is_reserved":false,"is_disabled":false,"rental_uris":{"android":"levelo://app?vid=11fa9e88-eb14-4513-bec9-03f3a1b2637d","ios":"levelo://app?vid=11fa9e88-eb14-4513-bec9-03f3a1b2637d"},"vehicle_type_id":"4","last_reported":1748120908,"current_range_meters":4400,"station_id":"ce4bhu92rcd13ifvqi70","pricing_plan_id":"cebpf4jnsgd1na2vs0mg"},{"bike_id":"b145314f-319b-426b-b8e2-43f207d71a54","system_id":"levelo_inurba_marseille","lat":43.25501,"lon":5.3765,"is_reserved":false,"is_disabled":false,"rental_uris":{"android":"levelo://app?vid=b145314f-319b-426b-b8e2-43f207d71a54","ios":"levelo://app?vid=b145314f-319b-426b-b8e2-43f207d71a54"},"vehicle_type_id":"4","last_reported":1748120908,"current_range_meters":4400,"station_id":"ce4bhh12rcd13ifvqff0","pricing_plan_id":"cebpf4jnsgd1na2vs0mg"},{"bike_id":"edc9a250-ff45-44ca-9858-db821d0b3955","system_id":"levelo_inurba_marseille","lat":43.23185,"lon":5.39987,"is_reserved":false,"is_disabled":false,"rental_uris":{"android":"levelo://app?vid=edc9a250-ff45-44ca-9858-db821d0b3955","ios":"levelo://app?vid=edc9a250-ff45-44ca-9858-db821d0b3955"},"vehicle_type_id":"4","last_reported":1748120908,"current_range_meters":4400,"station_id":"ce4bhn12rcd13ifvqgqg","pricing_plan_id":"cebpf4jnsgd1na2vs0mg"},{"bike_id":"7097370e-7a0d-4e71-be27-a879020555f9","system_id":"levelo_inurba_marseille","lat":43.28045,"lon":5.39742,"is_reserved":false,"is_disabled":false,"rental_uris":{"android":"levelo://app?vid=7097370e-7a0d-4e71-be27-a879020555f9","ios":"levelo://app?vid=7097370e-7a0d-4e71-be27-a879020555f9"},"vehicle_type_id":"4","last_reported":1748120908,"current_range_meters":4800,"station_id":"","pricing_plan_id":"cebpf4jnsgd1na2vs0mg"},{"bike_id":"a2f1296c-e4fc-45d6-be73-b896b487012e","system_id":"levelo_inurba_marseille","lat":43.286086,"lon":5.350996,"is_reserved":false,"is_disabled":true,"rental_uris":{"android":"levelo://app?vid=a2f1296c-e4fc-45d6-be73-b896b487012e","ios":"levelo://app?vid=a2f1296c-e4fc-45d6-be73-b896b487012e"},"vehicle_type_id":"4","last_reported":1748120908,"current_range_meters":4800,"station_id":"ce4bhch2rcd13ifvqeug","pricing_plan_id":"cebpf4jnsgd1na2vs0mg"},{"bike_id":"0fcdf2de-87df-4c80-b78a-9e5439757fd3","system_id":"levelo_inurba_marseille","lat":43.2791,"lon":5.38002,"is_reserved":false,"is_disabled":false,"rental_uris":{"android":"levelo://app?vid=0fcdf2de-87df-4c80-b78a-9e5439757fd3","ios":"levelo://app?vid=0fcdf2de-87df-4c80-b78a-9e5439757fd3"},"vehicle_type_id":"4","last_reported":1748120908,"current_range_meters":4800,"station_id":"ce4bhf92rcd13ifvqf50","pricing_plan_id":"cebpf4jnsgd1na2vs0mg"},{"bike_id":"3cfeb58d-e6ba-4fc6-8335-935f2a0e508b","system_id":"levelo_inurba_marseille","lat":43.31093,"lon":5.42426,"is_reserved":false,"is_disabled":false,"rental_uris":{"android":"levelo://app?vid=3cfeb58d-e6ba-4fc6-8335-935f2a0e508b","ios":"levelo://app?vid=3cfeb58d-e6ba-4fc6-8335-935f2a0e508b"},"vehicle_type_id":"4","last_reported":1748120908,"current_range_meters":4800,"station_id":"ce4bhp92rcd13ifvqhag","pricing_plan_id":"cebpf4jnsgd1na2vs0mg"},{"bike_id":"4c964f5d-e069-4f21-b01b-d956923b5719","system_id":"levelo_inurba_marseille","lat":43.23202,"lon":5.3997,"is_reserved":false,"is_disabled":false,"rental_uris":{"android":"levelo://app?vid=4c964f5d-e069-4f21-b01b-d956923b5719","ios":"levelo://app?vid=4c964f5d-e069-4f21-b01b-d956923b5719"},"vehicle_type_id":"4","last_reported":1748120908,"current_range_meters":4800,"station_id":"ce4bhn12rcd13ifvqgqg","pricing_plan_id":"cebpf4jnsgd1na2vs0mg"},{"bike_id":"73d91ac5-d334-4d20-a507-cab8b4bf180e","system_id":"levelo_inurba_marseille","lat":43.26199,"lon":5.37446,"is_reserved":false,"is_disabled":false,"rental_uris":{"android":"levelo://app?vid=73d91ac5-d334-4d20-a507-cab8b4bf180e","ios":"levelo://app?vid=73d91ac5-d334-4d20-a507-cab8b4bf180e"},"vehicle_type_id":"4","last_reported":1748120908,"current_range_meters":4800,"station_id":"ce4bhgp2rcd13ifvqfc0","pricing_plan_id":"cebpf4jnsgd1na2vs0mg"},{"bike_id":"dfc12ae8-1c26-45e1-8fd5-25609a6f4238","system_id":"levelo_inurba_marseille","lat":43.27087,"lon":5.42277,"is_reserved":false,"is_disabled":false,"rental_uris":{"android":"levelo://app?vid=dfc12ae8-1c26-45e1-8fd5-25609a6f4238","ios":"levelo://app?vid=dfc12ae8-1c26-45e1-8fd5-25609a6f4238"},"vehicle_type_id":"4","last_reported":1748120908,"current_range_meters":4800,"station_id":"ce4bhk92rcd13ifvqgb0","pricing_plan_id":"cebpf4jnsgd1na2vs0mg"},{"bike_id":"1b6833f8-3dde-4e3f-9ade-44fc116840f9","system_id":"levelo_inurba_marseille","lat":43.26795,"lon":5.40271,"is_reserved":false,"is_disabled":false,"rental_uris":{"android":"levelo://app?vid=1b6833f8-3dde-4e3f-9ade-44fc116840f9","ios":"levelo://app?vid=1b6833f8-3dde-4e3f-9ade-44fc116840f9"},"vehicle_type_id":"4","last_reported":1748120908,"current_range_meters":4800,"station_id":"ce501612rcd8frsf0b60","pricing_plan_id":"cebpf4jnsgd1na2vs0mg"},{"bike_id":"3207b794-0c52-44bb-9827-9f4d66f65af9","system_id":"levelo_inurba_marseille","lat":43.26042,"lon":5.37535,"is_reserved":false,"is_disabled":false,"rental_uris":{"android":"levelo://app?vid=3207b794-0c52-44bb-9827-9f4d66f65af9","ios":"levelo://app?vid=3207b794-0c52-44bb-9827-9f4d66f65af9"},"vehicle_type_id":"4","last_reported":1748120908,"current_range_meters":5600,"station_id":"ce4bhgh2rcd13ifvqfa0","pricing_plan_id":"cebpf4jnsgd1na2vs0mg"},{"bike_id":"398ac2c0-7185-42b7-b995-ea97c3f0a79d","system_id":"levelo_inurba_marseille","lat":43.232029,"lon":5.35537,"is_reserved":false,"is_disabled":false,"rental_uris":{"android":"levelo://app?vid=398ac2c0-7185-42b7-b995-ea97c3f0a79d","ios":"levelo://app?vid=398ac2c0-7185-42b7-b995-ea97c3f0a79d"},"vehicle_type_id":"4","last_reported":1748120908,"current_range_meters":5600,"station_id":"ce4bhu92rcd13ifvqi70","pricing_plan_id":"cebpf4jnsgd1na2vs0mg"},{"bike_id":"fceda18a-36ac-4318-84eb-5c420a6925c3","system_id":"levelo_inurba_marseille","lat":43.30551,"lon":5.36549,"is_reserved":false,"is_disabled":false,"rental_uris":{"android":"levelo://app?vid=fceda18a-36ac-4318-84eb-5c420a6925c3","ios":"levelo://app?vid=fceda18a-36ac-4318-84eb-5c420a6925c3"},"vehicle_type_id":"4","last_reported":1748120908,"current_range_meters":5600,"station_id":"ce4bgs12rcd13ifvqcag","pricing_plan_id":"cebpf4jnsgd1na2vs0mg"},{"bike_id":"8a0a7ee4-1e42-491e-b49d-057d7604ceb2","system_id":"levelo_inurba_marseille","lat":43.26029,"lon":5.37549,"is_reserved":false,"is_disabled":false,"rental_uris":{"android":"levelo://app?vid=8a0a7ee4-1e42-491e-b49d-057d7604ceb2","ios":"levelo://app?vid=8a0a7ee4-1e42-491e-b49d-057d7604ceb2"},"vehicle_type_id":"4","last_reported":1748120908,"current_range_meters":5600,"station_id":"ce4bhgh2rcd13ifvqfa0","pricing_plan_id":"cebpf4jnsgd1na2vs0mg"},{"bike_id":"b9c2ccd4-cfa0-4f0c-89c5-b4326d242752","system_id":"levelo_inurba_marseille","lat":43.24071,"lon":5.37769,"is_reserved":false,"is_disabled":false,"rental_uris":{"android":"levelo://app?vid=b9c2ccd4-cfa0-4f0c-89c5-b4326d242752","ios":"levelo://app?vid=b9c2ccd4-cfa0-4f0c-89c5-b4326d242752"},"vehicle_type_id":"4","last_reported":1748120908,"current_range_meters":6000,"station_id":"ce4bhnp2rcd13ifvqgvg","pricing_plan_id":"cebpf4jnsgd1na2vs0mg"},{"bike_id":"afaf7bcd-483d-4119-bf7f-1a6fb7d607ef","system_id":"levelo_inurba_marseille","lat":43.29176,"lon":5.37145,"is_reserved":false,"is_disabled":false,"rental_uris":{"android":"levelo://app?vid=afaf7bcd-483d-4119-bf7f-1a6fb7d607ef","ios":"levelo://app?vid=afaf7bcd-483d-4119-bf7f-1a6fb7d607ef"},"vehicle_type_id":"4","last_reported":1748120908,"current_range_meters":6000,"station_id":"ce4bha92rcd13ifvqeh0","pricing_plan_id":"cebpf4jnsgd1na2vs0mg"},{"bike_id":"13fdf9f5-cec8-4026-80f5-b5e3db77f7b1","system_id":"levelo_inurba_marseille","lat":43.2407,"lon":5.37763,"is_reserved":false,"is_disabled":false,"rental_uris":{"android":"levelo://app?vid=13fdf9f5-cec8-4026-80f5-b5e3db77f7b1","ios":"levelo://app?vid=13fdf9f5-cec8-4026-80f5-b5e3db77f7b1"},"vehicle_type_id":"4","last_reported":1748120908,"current_range_meters":6000,"station_id":"ce4bhnp2rcd13ifvqgvg","pricing_plan_id":"cebpf4jnsgd1na2vs0mg"},{"bike_id":"3b997ac5-fbf2-4785-aa51-1d1ca51a126f","system_id":"levelo_inurba_marseille","lat":43.29297,"lon":5.37454,"is_reserved":false,"is_disabled":true,"rental_uris":{"android":"levelo://app?vid=3b997ac5-fbf2-4785-aa51-1d1ca51a126f","ios":"levelo://app?vid=3b997ac5-fbf2-4785-aa51-1d1ca51a126f"},"vehicle_type_id":"4","last_reported":1748120908,"current_range_meters":6000,"station_id":"ce4bgi12rcd13ifvqb70","pricing_plan_id":"cebpf4jnsgd1na2vs0mg"},{"bike_id":"ad03f36d-8c31-469e-bd64-da4d56cf0507","system_id":"levelo_inurba_marseille","lat":43.26788,"lon":5.39409,"is_reserved":false,"is_disabled":false,"rental_uris":{"android":"levelo://app?vid=ad03f36d-8c31-469e-bd64-da4d56cf0507","ios":"levelo://app?vid=ad03f36d-8c31-469e-bd64-da4d56cf0507"},"vehicle_type_id":"4","last_reported":1748120908,"current_range_meters":6000,"station_id":"ce4bhh12rcd13ifvqfg0","pricing_plan_id":"cebpf4jnsgd1na2vs0mg"},{"bike_id":"d4097185-9303-488f-9d3d-d62191f95f53","system_id":"levelo_inurba_marseille","lat":43.262285,"lon":5.404506,"is_reserved":false,"is_disabled":false,"rental_uris":{"android":"levelo://app?vid=d4097185-9303-488f-9d3d-d62191f95f53","ios":"levelo://app?vid=d4097185-9303-488f-9d3d-d62191f95f53"},"vehicle_type_id":"4","last_reported":1748120908,"current_range_meters":6000,"station_id":"ce4bhmh2rcd13ifvqgmg","pricing_plan_id":"cebpf4jnsgd1na2vs0mg"},{"bike_id":"3b9ef39b-2a3d-491a-91cd-2670298085cf","system_id":"levelo_inurba_marseille","lat":43.25526,"lon":5.37654,"is_reserved":false,"is_disabled":false,"rental_uris":{"android":"levelo://app?vid=3b9ef39b-2a3d-491a-91cd-2670298085cf","ios":"levelo://app?vid=3b9ef39b-2a3d-491a-91cd-2670298085cf"},"vehicle_type_id":"4","last_reported":1748120908,"current_range_meters":6000,"station_id":"ce4bhh12rcd13ifvqff0","pricing_plan_id":"cebpf4jnsgd1na2vs0mg"},{"bike_id":"024345c0-5add-4481-99f3-4c94aff18860","system_id":"levelo_inurba_marseille","lat":43.29044,"lon":5.3996,"is_reserved":false,"is_disabled":false,"rental_uris":{"android":"levelo://app?vid=024345c0-5add-4481-99f3-4c94aff18860","ios":"levelo://app?vid=024345c0-5add-4481-99f3-4c94aff18860"},"vehicle_type_id":"4","last_reported":1748120908,"current_range_meters":10800,"station_id":"ce4bh392rcd13ifvqdm0","pricing_plan_id":"cebpf4jnsgd1na2vs0mg"},{"bike_id":"f7078804-c113-428c-86d6-869199026dfa","system_id":"levelo_inurba_marseille","lat":43.30432,"lon":5.38901,"is_reserved":false,"is_disabled":false,"rental_uris":{"android":"levelo://app?vid=f7078804-c113-428c-86d6-869199026dfa","ios":"levelo://app?vid=f7078804-c113-428c-86d6-869199026dfa"},"vehicle_type_id":"4","last_reported":1748120908,"current_range_meters":6000,"station_id":"ce4bgk12rcd13ifvqbi0","pricing_plan_id":"cebpf4jnsgd1na2vs0mg"},{"bike_id":"3a2244df-611f-4b6d-a778-36b52e274311","system_id":"levelo_inurba_marseille","lat":43.24663,"lon":5.38139,"is_reserved":false,"is_disabled":false,"rental_uris":{"android":"levelo://app?vid=3a2244df-611f-4b6d-a778-36b52e274311","ios":"levelo://app?vid=3a2244df-611f-4b6d-a778-36b52e274311"},"vehicle_type_id":"4","last_reported":1748120908,"current_range_meters":6000,"station_id":"ce4bhih2rcd13ifvqfr0","pricing_plan_id":"cebpf4jnsgd1na2vs0mg"},{"bike_id":"212db394-f9ff-4cc1-8bce-f6b725de7311","system_id":"levelo_inurba_marseille","lat":43.29799,"lon":5.38096,"is_reserved":false,"is_disabled":false,"rental_uris":{"android":"levelo://app?vid=212db394-f9ff-4cc1-8bce-f6b725de7311","ios":"levelo://app?vid=212db394-f9ff-4cc1-8bce-f6b725de7311"},"vehicle_type_id":"4","last_reported":1748120908,"current_range_meters":6000,"station_id":"","pricing_plan_id":"cebpf4jnsgd1na2vs0mg"},{"bike_id":"20535042-7702-48de-b293-4707d20a2366","system_id":"levelo_inurba_marseille","lat":43.29871,"lon":5.39728,"is_reserved":false,"is_disabled":false,"rental_uris":{"android":"levelo://app?vid=20535042-7702-48de-b293-4707d20a2366","ios":"levelo://app?vid=20535042-7702-48de-b293-4707d20a2366"},"vehicle_type_id":"4","last_reported":1748120908,"current_range_meters":6000,"station_id":"ce4bh0h2rcd13ifvqd50","pricing_plan_id":"cebpf4jnsgd1na2vs0mg"},{"bike_id":"573ff4d9-1512-40bd-aa20-66f11285ccc2","system_id":"levelo_inurba_marseille","lat":43.3266,"lon":5.40995,"is_reserved":false,"is_disabled":false,"rental_uris":{"android":"levelo://app?vid=573ff4d9-1512-40bd-aa20-66f11285ccc2","ios":"levelo://app?vid=573ff4d9-1512-40bd-aa20-66f11285ccc2"},"vehicle_type_id":"4","last_reported":1748120908,"current_range_meters":6400,"station_id":"ce4bhpp2rcd13ifvqhgg","pricing_plan_id":"cebpf4jnsgd1na2vs0mg"},{"bike_id":"ee7d1580-1546-48ee-82a7-311fad6b3617","system_id":"levelo_inurba_marseille","lat":43.29923,"lon":5.37475,"is_reserved":false,"is_disabled":false,"rental_uris":{"android":"levelo://app?vid=ee7d1580-1546-48ee-82a7-311fad6b3617","ios":"levelo://app?vid=ee7d1580-1546-48ee-82a7-311fad6b3617"},"vehicle_type_id":"4","last_reported":1748120908,"current_range_meters":6400,"station_id":"ce4bgjh2rcd13ifvqbg0","pricing_plan_id":"cebpf4jnsgd1na2vs0mg"},{"bike_id":"43aa204a-df91-406f-a1ee-2480da66dab3","system_id":"levelo_inurba_marseille","lat":43.29728,"lon":5.37692,"is_reserved":false,"is_disabled":false,"rental_uris":{"android":"levelo://app?vid=43aa204a-df91-406f-a1ee-2480da66dab3","ios":"levelo://app?vid=43aa204a-df91-406f-a1ee-2480da66dab3"},"vehicle_type_id":"4","last_reported":1748120908,"current_range_meters":6400,"station_id":"ce4bgkh2rcd13ifvqbl0","pricing_plan_id":"cebpf4jnsgd1na2vs0mg"},{"bike_id":"4baa24f1-d165-4342-b6d5-d4dab9595b1a","system_id":"levelo_inurba_marseille","lat":43.26775,"lon":5.39425,"is_reserved":false,"is_disabled":false,"rental_uris":{"android":"levelo://app?vid=4baa24f1-d165-4342-b6d5-d4dab9595b1a","ios":"levelo://app?vid=4baa24f1-d165-4342-b6d5-d4dab9595b1a"},"vehicle_type_id":"4","last_reported":1748120908,"current_range_meters":6400,"station_id":"ce4bhh12rcd13ifvqfg0","pricing_plan_id":"cebpf4jnsgd1na2vs0mg"},{"bike_id":"d617d84e-3898-44cf-846b-666890bba97a","system_id":"levelo_inurba_marseille","lat":43.30893,"lon":5.39643,"is_reserved":false,"is_disabled":false,"rental_uris":{"android":"levelo://app?vid=d617d84e-3898-44cf-846b-666890bba97a","ios":"levelo://app?vid=d617d84e-3898-44cf-846b-666890bba97a"},"vehicle_type_id":"4","last_reported":1748120908,"current_range_meters":11200,"station_id":"ce4bh012rcd13ifvqcv0","pricing_plan_id":"cebpf4jnsgd1na2vs0mg"},{"bike_id":"f121afd0-dd68-4a15-8cc2-b33fd8f4b57d","system_id":"levelo_inurba_marseille","lat":43.26579,"lon":5.39038,"is_reserved":false,"is_disabled":false,"rental_uris":{"android":"levelo://app?vid=f121afd0-dd68-4a15-8cc2-b33fd8f4b57d","ios":"levelo://app?vid=f121afd0-dd68-4a15-8cc2-b33fd8f4b57d"},"vehicle_type_id":"4","last_reported":1748120908,"current_range_meters":6400,"station_id":"ce4bhe12rcd13ifvqf30","pricing_plan_id":"cebpf4jnsgd1na2vs0mg"},{"bike_id":"fa529a29-8d21-4f13-9783-e1708a99c344","system_id":"levelo_inurba_marseille","lat":43.246516,"lon":5.388955,"is_reserved":false,"is_disabled":false,"rental_uris":{"android":"levelo://app?vid=fa529a29-8d21-4f13-9783-e1708a99c344","ios":"levelo://app?vid=fa529a29-8d21-4f13-9783-e1708a99c344"},"vehicle_type_id":"4","last_reported":1748120908,"current_range_meters":6800,"station_id":"ce4bhlh2rcd13ifvqgig","pricing_plan_id":"cebpf4jnsgd1na2vs0mg"},{"bike_id":"d256c6a4-d35b-4c32-b7db-2bac8ab63b70","system_id":"levelo_inurba_marseille","lat":43.23197,"lon":5.35545,"is_reserved":false,"is_disabled":false,"rental_uris":{"android":"levelo://app?vid=d256c6a4-d35b-4c32-b7db-2bac8ab63b70","ios":"levelo://app?vid=d256c6a4-d35b-4c32-b7db-2bac8ab63b70"},"vehicle_type_id":"4","last_reported":1748120908,"current_range_meters":6800,"station_id":"ce4bhu92rcd13ifvqi70","pricing_plan_id":"cebpf4jnsgd1na2vs0mg"},{"bike_id":"a2dadf34-b81f-457f-9419-d7bb5f9d7d5f","system_id":"levelo_inurba_marseille","lat":43.318895,"lon":5.407367,"is_reserved":false,"is_disabled":false,"rental_uris":{"android":"levelo://app?vid=a2dadf34-b81f-457f-9419-d7bb5f9d7d5f","ios":"levelo://app?vid=a2dadf34-b81f-457f-9419-d7bb5f9d7d5f"},"vehicle_type_id":"4","last_reported":1748120908,"current_range_meters":6400,"station_id":"ce4bhq12rcd13ifvqhig","pricing_plan_id":"cebpf4jnsgd1na2vs0mg"},{"bike_id":"5ecb855b-faf3-443c-b933-d797f231b81d","system_id":"levelo_inurba_marseille","lat":43.23189,"lon":5.39986,"is_reserved":false,"is_disabled":false,"rental_uris":{"android":"levelo://app?vid=5ecb855b-faf3-443c-b933-d797f231b81d","ios":"levelo://app?vid=5ecb855b-faf3-443c-b933-d797f231b81d"},"vehicle_type_id":"4","last_reported":1748120908,"current_range_meters":6800,"station_id":"ce4bhn12rcd13ifvqgqg","pricing_plan_id":"cebpf4jnsgd1na2vs0mg"},{"bike_id":"37f4e142-ea32-48ac-b564-acd0ea25235c","system_id":"levelo_inurba_marseille","lat":43.29256,"lon":5.38429,"is_reserved":false,"is_disabled":false,"rental_uris":{"android":"levelo://app?vid=37f4e142-ea32-48ac-b564-acd0ea25235c","ios":"levelo://app?vid=37f4e142-ea32-48ac-b564-acd0ea25235c"},"vehicle_type_id":"4","last_reported":1748120908,"current_range_meters":6800,"station_id":"ce4bh692rcd13ifvqea0","pricing_plan_id":"cebpf4jnsgd1na2vs0mg"},{"bike_id":"4b21239c-4264-43d2-9677-18eac578f916","system_id":"levelo_inurba_marseille","lat":43.27822,"lon":5.40736,"is_reserved":false,"is_disabled":true,"rental_uris":{"android":"levelo://app?vid=4b21239c-4264-43d2-9677-18eac578f916","ios":"levelo://app?vid=4b21239c-4264-43d2-9677-18eac578f916"},"vehicle_type_id":"4","last_reported":1748120908,"current_range_meters":6800,"station_id":"ce4bhnh2rcd13ifvqgtg","pricing_plan_id":"cebpf4jnsgd1na2vs0mg"},{"bike_id":"af915c90-b8e5-4d64-8a79-f96e2d2ae451","system_id":"levelo_inurba_marseille","lat":43.28033,"lon":5.36953,"is_reserved":false,"is_disabled":false,"rental_uris":{"android":"levelo://app?vid=af915c90-b8e5-4d64-8a79-f96e2d2ae451","ios":"levelo://app?vid=af915c90-b8e5-4d64-8a79-f96e2d2ae451"},"vehicle_type_id":"4","last_reported":1748120908,"current_range_meters":6800,"station_id":"ce4bha12rcd13ifvqef0","pricing_plan_id":"cebpf4jnsgd1na2vs0mg"},{"bike_id":"f5aa9c28-1d79-48fe-9196-fed7c6bf92e6","system_id":"levelo_inurba_marseille","lat":43.2694,"lon":5.40262,"is_reserved":false,"is_disabled":false,"rental_uris":{"android":"levelo://app?vid=f5aa9c28-1d79-48fe-9196-fed7c6bf92e6","ios":"levelo://app?vid=f5aa9c28-1d79-48fe-9196-fed7c6bf92e6"},"vehicle_type_id":"4","last_reported":1748120908,"current_range_meters":6800,"station_id":"cjm6bp8fraef2m0cb0m0","pricing_plan_id":"cebpf4jnsgd1na2vs0mg"},{"bike_id":"b8d7a318-f35e-4b21-8061-7105613ae633","system_id":"levelo_inurba_marseille","lat":43.24794,"lon":5.37432,"is_reserved":false,"is_disabled":false,"rental_uris":{"android":"levelo://app?vid=b8d7a318-f35e-4b21-8061-7105613ae633","ios":"levelo://app?vid=b8d7a318-f35e-4b21-8061-7105613ae633"},"vehicle_type_id":"4","last_reported":1748120908,"current_range_meters":6800,"station_id":"ce4bhgh2rcd13ifvqfb0","pricing_plan_id":"cebpf4jnsgd1na2vs0mg"},{"bike_id":"d562ae30-b1e7-4a7a-94ad-92b7cc645da1","system_id":"levelo_inurba_marseille","lat":43.27653,"lon":5.38932,"is_reserved":false,"is_disabled":true,"rental_uris":{"android":"levelo://app?vid=d562ae30-b1e7-4a7a-94ad-92b7cc645da1","ios":"levelo://app?vid=d562ae30-b1e7-4a7a-94ad-92b7cc645da1"},"vehicle_type_id":"4","last_reported":1748120908,"current_range_meters":7200,"station_id":"ce4bhi12rcd13ifvqfo0","pricing_plan_id":"cebpf4jnsgd1na2vs0mg"},{"bike_id":"b29ac98f-0b12-4d9d-adb4-99a66ddf4099","system_id":"levelo_inurba_marseille","lat":43.28343,"lon":5.38101,"is_reserved":false,"is_disabled":false,"rental_uris":{"android":"levelo://app?vid=b29ac98f-0b12-4d9d-adb4-99a66ddf4099","ios":"levelo://app?vid=b29ac98f-0b12-4d9d-adb4-99a66ddf4099"},"vehicle_type_id":"4","last_reported":1748120908,"current_range_meters":7200,"station_id":"ce4bh412rcd13ifvqdr0","pricing_plan_id":"cebpf4jnsgd1na2vs0mg"},{"bike_id":"70dd2ac9-6ab7-4b8b-87d6-189cb43a5b1b","system_id":"levelo_inurba_marseille","lat":43.26952,"lon":5.40232,"is_reserved":false,"is_disabled":false,"rental_uris":{"android":"levelo://app?vid=70dd2ac9-6ab7-4b8b-87d6-189cb43a5b1b","ios":"levelo://app?vid=70dd2ac9-6ab7-4b8b-87d6-189cb43a5b1b"},"vehicle_type_id":"4","last_reported":1748120908,"current_range_meters":7200,"station_id":"cjm6bp8fraef2m0cb0m0","pricing_plan_id":"cebpf4jnsgd1na2vs0mg"},{"bike_id":"bc394f0d-c49b-4b68-8e6f-119e20bba26f","system_id":"levelo_inurba_marseille","lat":43.29614,"lon":5.37726,"is_reserved":false,"is_disabled":false,"rental_uris":{"android":"levelo://app?vid=bc394f0d-c49b-4b68-8e6f-119e20bba26f","ios":"levelo://app?vid=bc394f0d-c49b-4b68-8e6f-119e20bba26f"},"vehicle_type_id":"4","last_reported":1748120908,"current_range_meters":7200,"station_id":"ce4bgi92rcd13ifvqb90","pricing_plan_id":"cebpf4jnsgd1na2vs0mg"},{"bike_id":"5fc5699c-64da-4769-83bd-d00781394b8f","system_id":"levelo_inurba_marseille","lat":43.29885,"lon":5.39745,"is_reserved":false,"is_disabled":false,"rental_uris":{"android":"levelo://app?vid=5fc5699c-64da-4769-83bd-d00781394b8f","ios":"levelo://app?vid=5fc5699c-64da-4769-83bd-d00781394b8f"},"vehicle_type_id":"4","last_reported":1748120908,"current_range_meters":7200,"station_id":"ce4bh0h2rcd13ifvqd50","pricing_plan_id":"cebpf4jnsgd1na2vs0mg"},{"bike_id":"42567f8b-b6ac-499b-bf80-af93fc3cc58f","system_id":"levelo_inurba_marseille","lat":43.29772,"lon":5.37645,"is_reserved":false,"is_disabled":true,"rental_uris":{"android":"levelo://app?vid=42567f8b-b6ac-499b-bf80-af93fc3cc58f","ios":"levelo://app?vid=42567f8b-b6ac-499b-bf80-af93fc3cc58f"},"vehicle_type_id":"4","last_reported":1748120908,"current_range_meters":7200,"station_id":"ce4bgkh2rcd13ifvqbl0","pricing_plan_id":"cebpf4jnsgd1na2vs0mg"},{"bike_id":"bbbd5fed-f676-49b4-88c7-fb15385791a6","system_id":"levelo_inurba_marseille","lat":43.31615,"lon":5.389252,"is_reserved":false,"is_disabled":false,"rental_uris":{"android":"levelo://app?vid=bbbd5fed-f676-49b4-88c7-fb15385791a6","ios":"levelo://app?vid=bbbd5fed-f676-49b4-88c7-fb15385791a6"},"vehicle_type_id":"4","last_reported":1748120908,"current_range_meters":7200,"station_id":"","pricing_plan_id":"cebpf4jnsgd1na2vs0mg"},{"bike_id":"a7b40038-07c1-4322-bb0f-2c72d9fe221f","system_id":"levelo_inurba_marseille","lat":43.31073,"lon":5.38347,"is_reserved":false,"is_disabled":false,"rental_uris":{"android":"levelo://app?vid=a7b40038-07c1-4322-bb0f-2c72d9fe221f","ios":"levelo://app?vid=a7b40038-07c1-4322-bb0f-2c72d9fe221f"},"vehicle_type_id":"4","last_reported":1748120908,"current_range_meters":7200,"station_id":"ce4bgv92rcd13ifvqcr0","pricing_plan_id":"cebpf4jnsgd1na2vs0mg"},{"bike_id":"00a72b74-e8d9-47f5-9f95-0493ba529dce","system_id":"levelo_inurba_marseille","lat":43.29607,"lon":5.38104,"is_reserved":false,"is_disabled":false,"rental_uris":{"android":"levelo://app?vid=00a72b74-e8d9-47f5-9f95-0493ba529dce","ios":"levelo://app?vid=00a72b74-e8d9-47f5-9f95-0493ba529dce"},"vehicle_type_id":"4","last_reported":1748120908,"current_range_meters":7200,"station_id":"ce4bgl12rcd13ifvqbo0","pricing_plan_id":"cebpf4jnsgd1na2vs0mg"},{"bike_id":"a17a842f-ba04-4d0e-9f38-09b9d8144085","system_id":"levelo_inurba_marseille","lat":43.26905,"lon":5.4028,"is_reserved":false,"is_disabled":true,"rental_uris":{"android":"levelo://app?vid=a17a842f-ba04-4d0e-9f38-09b9d8144085","ios":"levelo://app?vid=a17a842f-ba04-4d0e-9f38-09b9d8144085"},"vehicle_type_id":"4","last_reported":1748120908,"current_range_meters":8000,"station_id":"","pricing_plan_id":"cebpf4jnsgd1na2vs0mg"},{"bike_id":"3524b6d6-6a52-4457-963b-15a713deacdd","system_id":"levelo_inurba_marseille","lat":43.30536,"lon":5.3653,"is_reserved":false,"is_disabled":false,"rental_uris":{"android":"levelo://app?vid=3524b6d6-6a52-4457-963b-15a713deacdd","ios":"levelo://app?vid=3524b6d6-6a52-4457-963b-15a713deacdd"},"vehicle_type_id":"4","last_reported":1748120908,"current_range_meters":7200,"station_id":"ce4bgs12rcd13ifvqcag","pricing_plan_id":"cebpf4jnsgd1na2vs0mg"},{"bike_id":"60ee8b97-5869-4e8c-abd4-d812b40ac34f","system_id":"levelo_inurba_marseille","lat":43.26038,"lon":5.37537,"is_reserved":false,"is_disabled":false,"rental_uris":{"android":"levelo://app?vid=60ee8b97-5869-4e8c-abd4-d812b40ac34f","ios":"levelo://app?vid=60ee8b97-5869-4e8c-abd4-d812b40ac34f"},"vehicle_type_id":"4","last_reported":1748120908,"current_range_meters":8000,"station_id":"ce4bhgh2rcd13ifvqfa0","pricing_plan_id":"cebpf4jnsgd1na2vs0mg"},{"bike_id":"09a76abc-58bc-449b-ada3-bfe181f9de4d","system_id":"levelo_inurba_marseille","lat":43.27319,"lon":5.39074,"is_reserved":false,"is_disabled":false,"rental_uris":{"android":"levelo://app?vid=09a76abc-58bc-449b-ada3-bfe181f9de4d","ios":"levelo://app?vid=09a76abc-58bc-449b-ada3-bfe181f9de4d"},"vehicle_type_id":"4","last_reported":1748120908,"current_range_meters":8000,"station_id":"ce4bhgp2rcd13ifvqfe0","pricing_plan_id":"cebpf4jnsgd1na2vs0mg"},{"bike_id":"8abfbb6c-61f7-4e62-ae60-60acfa401e6e","system_id":"levelo_inurba_marseille","lat":43.29553,"lon":5.38555,"is_reserved":false,"is_disabled":false,"rental_uris":{"android":"levelo://app?vid=8abfbb6c-61f7-4e62-ae60-60acfa401e6e","ios":"levelo://app?vid=8abfbb6c-61f7-4e62-ae60-60acfa401e6e"},"vehicle_type_id":"4","last_reported":1748120908,"current_range_meters":8000,"station_id":"ce4bgih2rcd13ifvqba0","pricing_plan_id":"cebpf4jnsgd1na2vs0mg"},{"bike_id":"f39e38ef-d354-4d30-a33d-d2c481757d50","system_id":"levelo_inurba_marseille","lat":43.28491,"lon":5.38562,"is_reserved":false,"is_disabled":false,"rental_uris":{"android":"levelo://app?vid=f39e38ef-d354-4d30-a33d-d2c481757d50","ios":"levelo://app?vid=f39e38ef-d354-4d30-a33d-d2c481757d50"},"vehicle_type_id":"4","last_reported":1748120908,"current_range_meters":8000,"station_id":"ce4bh8p2rcd13ifvqeb0","pricing_plan_id":"cebpf4jnsgd1na2vs0mg"},{"bike_id":"4121a7b4-5b66-4be6-b308-d174e07d8de1","system_id":"levelo_inurba_marseille","lat":43.27314,"lon":5.3911,"is_reserved":false,"is_disabled":false,"rental_uris":{"android":"levelo://app?vid=4121a7b4-5b66-4be6-b308-d174e07d8de1","ios":"levelo://app?vid=4121a7b4-5b66-4be6-b308-d174e07d8de1"},"vehicle_type_id":"4","last_reported":1748120908,"current_range_meters":8000,"station_id":"ce4bhgp2rcd13ifvqfe0","pricing_plan_id":"cebpf4jnsgd1na2vs0mg"},{"bike_id":"ccf8f055-3943-4d1f-8422-80c8d7e361da","system_id":"levelo_inurba_marseille","lat":43.25813,"lon":5.39419,"is_reserved":false,"is_disabled":false,"rental_uris":{"android":"levelo://app?vid=ccf8f055-3943-4d1f-8422-80c8d7e361da","ios":"levelo://app?vid=ccf8f055-3943-4d1f-8422-80c8d7e361da"},"vehicle_type_id":"4","last_reported":1748120908,"current_range_meters":8000,"station_id":"ce4bhip2rcd13ifvqft0","pricing_plan_id":"cebpf4jnsgd1na2vs0mg"},{"bike_id":"9328bcaa-c09b-4fb2-9414-20c0fa9fe5da","system_id":"levelo_inurba_marseille","lat":43.27995,"lon":5.40007,"is_reserved":false,"is_disabled":false,"rental_uris":{"android":"levelo://app?vid=9328bcaa-c09b-4fb2-9414-20c0fa9fe5da","ios":"levelo://app?vid=9328bcaa-c09b-4fb2-9414-20c0fa9fe5da"},"vehicle_type_id":"4","last_reported":1748120908,"current_range_meters":8000,"station_id":"ce4bho92rcd13ifvqh4g","pricing_plan_id":"cebpf4jnsgd1na2vs0mg"},{"bike_id":"5ef30b68-985f-470c-9da9-aa26798f1e79","system_id":"levelo_inurba_marseille","lat":43.29449,"lon":5.39745,"is_reserved":false,"is_disabled":false,"rental_uris":{"android":"levelo://app?vid=5ef30b68-985f-470c-9da9-aa26798f1e79","ios":"levelo://app?vid=5ef30b68-985f-470c-9da9-aa26798f1e79"},"vehicle_type_id":"4","last_reported":1748120908,"current_range_meters":8000,"station_id":"ce4bh3h2rcd13ifvqdo0","pricing_plan_id":"cebpf4jnsgd1na2vs0mg"},{"bike_id":"008eb757-3757-4501-9e1c-70744032b82b","system_id":"levelo_inurba_marseille","lat":43.30942,"lon":5.39088,"is_reserved":false,"is_disabled":false,"rental_uris":{"android":"levelo://app?vid=008eb757-3757-4501-9e1c-70744032b82b","ios":"levelo://app?vid=008eb757-3757-4501-9e1c-70744032b82b"},"vehicle_type_id":"4","last_reported":1748120908,"current_range_meters":8000,"station_id":"ce4bgup2rcd13ifvqco0","pricing_plan_id":"cebpf4jnsgd1na2vs0mg"},{"bike_id":"c16413fd-5d65-4ca2-8681-abb95bdf2d2a","system_id":"levelo_inurba_marseille","lat":43.30966,"lon":5.37145,"is_reserved":false,"is_disabled":false,"rental_uris":{"android":"levelo://app?vid=c16413fd-5d65-4ca2-8681-abb95bdf2d2a","ios":"levelo://app?vid=c16413fd-5d65-4ca2-8681-abb95bdf2d2a"},"vehicle_type_id":"4","last_reported":1748120908,"current_range_meters":8000,"station_id":"","pricing_plan_id":"cebpf4jnsgd1na2vs0mg"},{"bike_id":"ea503a42-20e6-4660-acc2-f90e9bc6e209","system_id":"levelo_inurba_marseille","lat":43.279137,"lon":5.396034,"is_reserved":false,"is_disabled":false,"rental_uris":{"android":"levelo://app?vid=ea503a42-20e6-4660-acc2-f90e9bc6e209","ios":"levelo://app?vid=ea503a42-20e6-4660-acc2-f90e9bc6e209"},"vehicle_type_id":"4","last_reported":1748120908,"current_range_meters":8400,"station_id":"ce4bhf92rcd13ifvqf40","pricing_plan_id":"cebpf4jnsgd1na2vs0mg"},{"bike_id":"889de11d-97e1-4a4c-8a24-60b33de94cfd","system_id":"levelo_inurba_marseille","lat":43.26804,"lon":5.40272,"is_reserved":false,"is_disabled":false,"rental_uris":{"android":"levelo://app?vid=889de11d-97e1-4a4c-8a24-60b33de94cfd","ios":"levelo://app?vid=889de11d-97e1-4a4c-8a24-60b33de94cfd"},"vehicle_type_id":"4","last_reported":1748120908,"current_range_meters":8400,"station_id":"ce501612rcd8frsf0b60","pricing_plan_id":"cebpf4jnsgd1na2vs0mg"},{"bike_id":"7e87addf-82be-46fe-9aef-8c3380ebf801","system_id":"levelo_inurba_marseille","lat":43.29841,"lon":5.36262,"is_reserved":false,"is_disabled":false,"rental_uris":{"android":"levelo://app?vid=7e87addf-82be-46fe-9aef-8c3380ebf801","ios":"levelo://app?vid=7e87addf-82be-46fe-9aef-8c3380ebf801"},"vehicle_type_id":"4","last_reported":1748120908,"current_range_meters":8400,"station_id":"ce4bgpp2rcd13ifvqc3g","pricing_plan_id":"cebpf4jnsgd1na2vs0mg"},{"bike_id":"3afe289c-83e9-43b4-b6eb-e353410c90db","system_id":"levelo_inurba_marseille","lat":43.2991,"lon":5.38137,"is_reserved":false,"is_disabled":false,"rental_uris":{"android":"levelo://app?vid=3afe289c-83e9-43b4-b6eb-e353410c90db","ios":"levelo://app?vid=3afe289c-83e9-43b4-b6eb-e353410c90db"},"vehicle_type_id":"4","last_reported":1748120908,"current_range_meters":8400,"station_id":"ce4bgj12rcd13ifvqbc0","pricing_plan_id":"cebpf4jnsgd1na2vs0mg"},{"bike_id":"37c3a00e-2b53-4113-9f5a-6768db8ff0f5","system_id":"levelo_inurba_marseille","lat":43.25876,"lon":5.3989,"is_reserved":false,"is_disabled":false,"rental_uris":{"android":"levelo://app?vid=37c3a00e-2b53-4113-9f5a-6768db8ff0f5","ios":"levelo://app?vid=37c3a00e-2b53-4113-9f5a-6768db8ff0f5"},"vehicle_type_id":"4","last_reported":1748120908,"current_range_meters":8400,"station_id":"ce4bhl92rcd13ifvqghg","pricing_plan_id":"cebpf4jnsgd1na2vs0mg"},{"bike_id":"40d5f5df-f4a7-41a4-b16d-63484ff0379d","system_id":"levelo_inurba_marseille","lat":43.30928,"lon":5.40131,"is_reserved":false,"is_disabled":true,"rental_uris":{"android":"levelo://app?vid=40d5f5df-f4a7-41a4-b16d-63484ff0379d","ios":"levelo://app?vid=40d5f5df-f4a7-41a4-b16d-63484ff0379d"},"vehicle_type_id":"4","last_reported":1748120908,"current_range_meters":8400,"station_id":"ce4bgvp2rcd13ifvqct0","pricing_plan_id":"cebpf4jnsgd1na2vs0mg"},{"bike_id":"570aca94-86f6-4416-a181-6c5a92adccbb","system_id":"levelo_inurba_marseille","lat":43.27306,"lon":5.39116,"is_reserved":false,"is_disabled":false,"rental_uris":{"android":"levelo://app?vid=570aca94-86f6-4416-a181-6c5a92adccbb","ios":"levelo://app?vid=570aca94-86f6-4416-a181-6c5a92adccbb"},"vehicle_type_id":"4","last_reported":1748120908,"current_range_meters":8400,"station_id":"ce4bhgp2rcd13ifvqfe0","pricing_plan_id":"cebpf4jnsgd1na2vs0mg"},{"bike_id":"906ff808-2508-4813-9025-edbff405b39a","system_id":"levelo_inurba_marseille","lat":43.33597,"lon":5.41006,"is_reserved":false,"is_disabled":false,"rental_uris":{"android":"levelo://app?vid=906ff808-2508-4813-9025-edbff405b39a","ios":"levelo://app?vid=906ff808-2508-4813-9025-edbff405b39a"},"vehicle_type_id":"4","last_reported":1748120908,"current_range_meters":8400,"station_id":"ce4bhqh2rcd13ifvqhmg","pricing_plan_id":"cebpf4jnsgd1na2vs0mg"},{"bike_id":"d0727502-8dac-47fb-b96d-bb9c1d307591","system_id":"levelo_inurba_marseille","lat":43.31115,"lon":5.37775,"is_reserved":false,"is_disabled":false,"rental_uris":{"android":"levelo://app?vid=d0727502-8dac-47fb-b96d-bb9c1d307591","ios":"levelo://app?vid=d0727502-8dac-47fb-b96d-bb9c1d307591"},"vehicle_type_id":"4","last_reported":1748120908,"current_range_meters":8400,"station_id":"ce4bgt92rcd13ifvqcg0","pricing_plan_id":"cebpf4jnsgd1na2vs0mg"},{"bike_id":"a45244cf-4825-4396-890d-64ca41aad26e","system_id":"levelo_inurba_marseille","lat":43.28955,"lon":5.36409,"is_reserved":false,"is_disabled":false,"rental_uris":{"android":"levelo://app?vid=a45244cf-4825-4396-890d-64ca41aad26e","ios":"levelo://app?vid=a45244cf-4825-4396-890d-64ca41aad26e"},"vehicle_type_id":"4","last_reported":1748120908,"current_range_meters":8800,"station_id":"ce4bhc92rcd13ifvqetg","pricing_plan_id":"cebpf4jnsgd1na2vs0mg"},{"bike_id":"ec560d91-523a-4a47-a0c8-8677940ed065","system_id":"levelo_inurba_marseille","lat":43.27674,"lon":5.38879,"is_reserved":false,"is_disabled":false,"rental_uris":{"android":"levelo://app?vid=ec560d91-523a-4a47-a0c8-8677940ed065","ios":"levelo://app?vid=ec560d91-523a-4a47-a0c8-8677940ed065"},"vehicle_type_id":"4","last_reported":1748120908,"current_range_meters":8800,"station_id":"ce4bhi12rcd13ifvqfo0","pricing_plan_id":"cebpf4jnsgd1na2vs0mg"},{"bike_id":"e7b4a348-4c8f-4f6c-b636-8a67dfaea95d","system_id":"levelo_inurba_marseille","lat":43.26503,"lon":5.39533,"is_reserved":false,"is_disabled":false,"rental_uris":{"android":"levelo://app?vid=e7b4a348-4c8f-4f6c-b636-8a67dfaea95d","ios":"levelo://app?vid=e7b4a348-4c8f-4f6c-b636-8a67dfaea95d"},"vehicle_type_id":"4","last_reported":1748120908,"current_range_meters":8800,"station_id":"ce4bhi12rcd13ifvqfq0","pricing_plan_id":"cebpf4jnsgd1na2vs0mg"},{"bike_id":"7d4313c8-0ca9-4d4f-bb96-9ef242bfa2ee","system_id":"levelo_inurba_marseille","lat":43.29285,"lon":5.38395,"is_reserved":false,"is_disabled":true,"rental_uris":{"android":"levelo://app?vid=7d4313c8-0ca9-4d4f-bb96-9ef242bfa2ee","ios":"levelo://app?vid=7d4313c8-0ca9-4d4f-bb96-9ef242bfa2ee"},"vehicle_type_id":"4","last_reported":1748120908,"current_range_meters":8800,"station_id":"ce4bh692rcd13ifvqea0","pricing_plan_id":"cebpf4jnsgd1na2vs0mg"},{"bike_id":"75f8c4b9-c1e7-482a-b6d4-be91811e8385","system_id":"levelo_inurba_marseille","lat":43.26902,"lon":5.3934,"is_reserved":false,"is_disabled":false,"rental_uris":{"android":"levelo://app?vid=75f8c4b9-c1e7-482a-b6d4-be91811e8385","ios":"levelo://app?vid=75f8c4b9-c1e7-482a-b6d4-be91811e8385"},"vehicle_type_id":"4","last_reported":1748120908,"current_range_meters":8800,"station_id":"","pricing_plan_id":"cebpf4jnsgd1na2vs0mg"},{"bike_id":"1d6bb2f3-dcac-4a9d-b5e5-af172f637980","system_id":"levelo_inurba_marseille","lat":43.29769,"lon":5.37141,"is_reserved":false,"is_disabled":false,"rental_uris":{"android":"levelo://app?vid=1d6bb2f3-dcac-4a9d-b5e5-af172f637980","ios":"levelo://app?vid=1d6bb2f3-dcac-4a9d-b5e5-af172f637980"},"vehicle_type_id":"4","last_reported":1748120908,"current_range_meters":8800,"station_id":"ce4bgop2rcd13ifvqc1g","pricing_plan_id":"cebpf4jnsgd1na2vs0mg"},{"bike_id":"ff29fada-048a-47b7-b4cf-e14dc4279567","system_id":"levelo_inurba_marseille","lat":43.27314,"lon":5.39072,"is_reserved":false,"is_disabled":false,"rental_uris":{"android":"levelo://app?vid=ff29fada-048a-47b7-b4cf-e14dc4279567","ios":"levelo://app?vid=ff29fada-048a-47b7-b4cf-e14dc4279567"},"vehicle_type_id":"4","last_reported":1748120908,"current_range_meters":8800,"station_id":"ce4bhgp2rcd13ifvqfe0","pricing_plan_id":"cebpf4jnsgd1na2vs0mg"},{"bike_id":"91970d0e-6575-4051-a14d-bd8544ec12f7","system_id":"levelo_inurba_marseille","lat":43.28959,"lon":5.39618,"is_reserved":false,"is_disabled":false,"rental_uris":{"android":"levelo://app?vid=91970d0e-6575-4051-a14d-bd8544ec12f7","ios":"levelo://app?vid=91970d0e-6575-4051-a14d-bd8544ec12f7"},"vehicle_type_id":"4","last_reported":1748120908,"current_range_meters":8800,"station_id":"ce4bh3h2rcd13ifvqdn0","pricing_plan_id":"cebpf4jnsgd1na2vs0mg"},{"bike_id":"7033f29b-2f82-40a9-922d-36b6315763bf","system_id":"levelo_inurba_marseille","lat":43.25142,"lon":5.40335,"is_reserved":false,"is_disabled":true,"rental_uris":{"android":"levelo://app?vid=7033f29b-2f82-40a9-922d-36b6315763bf","ios":"levelo://app?vid=7033f29b-2f82-40a9-922d-36b6315763bf"},"vehicle_type_id":"4","last_reported":1748120908,"current_range_meters":8800,"station_id":"ce4bhlh2rcd13ifvqgig","pricing_plan_id":"cebpf4jnsgd1na2vs0mg"},{"bike_id":"3581c28c-41f2-4cb7-b494-0448776c0438","system_id":"levelo_inurba_marseille","lat":43.29636,"lon":5.36022,"is_reserved":false,"is_disabled":false,"rental_uris":{"android":"levelo://app?vid=3581c28c-41f2-4cb7-b494-0448776c0438","ios":"levelo://app?vid=3581c28c-41f2-4cb7-b494-0448776c0438"},"vehicle_type_id":"4","last_reported":1748120908,"current_range_meters":9200,"station_id":"","pricing_plan_id":"cebpf4jnsgd1na2vs0mg"},{"bike_id":"52269cbf-94f1-4b3a-a7ea-52e773ac04c5","system_id":"levelo_inurba_marseille","lat":43.25563,"lon":5.38231,"is_reserved":false,"is_disabled":false,"rental_uris":{"android":"levelo://app?vid=52269cbf-94f1-4b3a-a7ea-52e773ac04c5","ios":"levelo://app?vid=52269cbf-94f1-4b3a-a7ea-52e773ac04c5"},"vehicle_type_id":"4","last_reported":1748120908,"current_range_meters":9200,"station_id":"ce4bhih2rcd13ifvqfs0","pricing_plan_id":"cebpf4jnsgd1na2vs0mg"},{"bike_id":"9546d1ab-1ccb-4fe0-8b3b-7ffc67927051","system_id":"levelo_inurba_marseille","lat":43.28935,"lon":5.36622,"is_reserved":false,"is_disabled":true,"rental_uris":{"android":"levelo://app?vid=9546d1ab-1ccb-4fe0-8b3b-7ffc67927051","ios":"levelo://app?vid=9546d1ab-1ccb-4fe0-8b3b-7ffc67927051"},"vehicle_type_id":"4","last_reported":1748120908,"current_range_meters":9200,"station_id":"ce4bhap2rcd13ifvqek0","pricing_plan_id":"cebpf4jnsgd1na2vs0mg"},{"bike_id":"caf1e107-9dfd-47fc-aae0-9606d8eca857","system_id":"levelo_inurba_marseille","lat":43.27387,"lon":5.36256,"is_reserved":false,"is_disabled":true,"rental_uris":{"android":"levelo://app?vid=caf1e107-9dfd-47fc-aae0-9606d8eca857","ios":"levelo://app?vid=caf1e107-9dfd-47fc-aae0-9606d8eca857"},"vehicle_type_id":"4","last_reported":1748120908,"current_range_meters":9200,"station_id":"ce4bhbh2rcd13ifvqeo0","pricing_plan_id":"cebpf4jnsgd1na2vs0mg"},{"bike_id":"5b4c0476-c125-440a-a460-ac52e594db45","system_id":"levelo_inurba_marseille","lat":43.31703,"lon":5.37773,"is_reserved":false,"is_disabled":false,"rental_uris":{"android":"levelo://app?vid=5b4c0476-c125-440a-a460-ac52e594db45","ios":"levelo://app?vid=5b4c0476-c125-440a-a460-ac52e594db45"},"vehicle_type_id":"4","last_reported":1748120908,"current_range_meters":9200,"station_id":"ce4bgth2rcd13ifvqch0","pricing_plan_id":"cebpf4jnsgd1na2vs0mg"},{"bike_id":"fcc086ed-1c89-4d1d-b45d-39ed024564d0","system_id":"levelo_inurba_marseille","lat":43.31072,"lon":5.38349,"is_reserved":false,"is_disabled":false,"rental_uris":{"android":"levelo://app?vid=fcc086ed-1c89-4d1d-b45d-39ed024564d0","ios":"levelo://app?vid=fcc086ed-1c89-4d1d-b45d-39ed024564d0"},"vehicle_type_id":"4","last_reported":1748120908,"current_range_meters":9200,"station_id":"ce4bgv92rcd13ifvqcr0","pricing_plan_id":"cebpf4jnsgd1na2vs0mg"},{"bike_id":"ceb5dae6-874b-4d60-9609-82bcf4c8d4ed","system_id":"levelo_inurba_marseille","lat":43.30448,"lon":5.38838,"is_reserved":false,"is_disabled":true,"rental_uris":{"android":"levelo://app?vid=ceb5dae6-874b-4d60-9609-82bcf4c8d4ed","ios":"levelo://app?vid=ceb5dae6-874b-4d60-9609-82bcf4c8d4ed"},"vehicle_type_id":"4","last_reported":1748120908,"current_range_meters":9200,"station_id":"ce4bgk12rcd13ifvqbi0","pricing_plan_id":"cebpf4jnsgd1na2vs0mg"},{"bike_id":"0468b8c1-742b-4d16-a57b-294869915738","system_id":"levelo_inurba_marseille","lat":43.28711,"lon":5.37406,"is_reserved":false,"is_disabled":false,"rental_uris":{"android":"levelo://app?vid=0468b8c1-742b-4d16-a57b-294869915738","ios":"levelo://app?vid=0468b8c1-742b-4d16-a57b-294869915738"},"vehicle_type_id":"4","last_reported":1748120908,"current_range_meters":9200,"station_id":"ce4bh3p2rcd13ifvqdq0","pricing_plan_id":"cebpf4jnsgd1na2vs0mg"},{"bike_id":"be35215a-9d24-4c92-9d42-aea4786ece4e","system_id":"levelo_inurba_marseille","lat":43.28705,"lon":5.39989,"is_reserved":false,"is_disabled":false,"rental_uris":{"android":"levelo://app?vid=be35215a-9d24-4c92-9d42-aea4786ece4e","ios":"levelo://app?vid=be35215a-9d24-4c92-9d42-aea4786ece4e"},"vehicle_type_id":"4","last_reported":1748120908,"current_range_meters":9200,"station_id":"ce4bho92rcd13ifvqh3g","pricing_plan_id":"cebpf4jnsgd1na2vs0mg"},{"bike_id":"426ad671-f6ec-45e6-9a96-be97db88ced9","system_id":"levelo_inurba_marseille","lat":43.29984,"lon":5.37176,"is_reserved":false,"is_disabled":false,"rental_uris":{"android":"levelo://app?vid=426ad671-f6ec-45e6-9a96-be97db88ced9","ios":"levelo://app?vid=426ad671-f6ec-45e6-9a96-be97db88ced9"},"vehicle_type_id":"4","last_reported":1748120908,"current_range_meters":9200,"station_id":"ce4bgr92rcd13ifvqc7g","pricing_plan_id":"cebpf4jnsgd1na2vs0mg"},{"bike_id":"c9f87482-946e-49d5-8591-7046e1cb91f2","system_id":"levelo_inurba_marseille","lat":43.28375,"lon":5.38613,"is_reserved":false,"is_disabled":false,"rental_uris":{"android":"levelo://app?vid=c9f87482-946e-49d5-8591-7046e1cb91f2","ios":"levelo://app?vid=c9f87482-946e-49d5-8591-7046e1cb91f2"},"vehicle_type_id":"4","last_reported":1748120908,"current_range_meters":8800,"station_id":"ce4bh492rcd13ifvqdvg","pricing_plan_id":"cebpf4jnsgd1na2vs0mg"},{"bike_id":"9e10a5b8-5080-4f7e-8499-b14ca29da876","system_id":"levelo_inurba_marseille","lat":43.29012,"lon":5.35627,"is_reserved":false,"is_disabled":true,"rental_uris":{"android":"levelo://app?vid=9e10a5b8-5080-4f7e-8499-b14ca29da876","ios":"levelo://app?vid=9e10a5b8-5080-4f7e-8499-b14ca29da876"},"vehicle_type_id":"4","last_reported":1748120908,"current_range_meters":9600,"station_id":"ce4bhb92rcd13ifvqen0","pricing_plan_id":"cebpf4jnsgd1na2vs0mg"},{"bike_id":"fc8c72ad-ca61-42c6-ae90-f61b57e45328","system_id":"levelo_inurba_marseille","lat":43.278996,"lon":5.418684,"is_reserved":false,"is_disabled":false,"rental_uris":{"android":"levelo://app?vid=fc8c72ad-ca61-42c6-ae90-f61b57e45328","ios":"levelo://app?vid=fc8c72ad-ca61-42c6-ae90-f61b57e45328"},"vehicle_type_id":"4","last_reported":1748120908,"current_range_meters":9600,"station_id":"","pricing_plan_id":"cebpf4jnsgd1na2vs0mg"},{"bike_id":"bceea8b3-a78c-4007-b763-79f204bcdca9","system_id":"levelo_inurba_marseille","lat":43.24814,"lon":5.37444,"is_reserved":false,"is_disabled":false,"rental_uris":{"android":"levelo://app?vid=bceea8b3-a78c-4007-b763-79f204bcdca9","ios":"levelo://app?vid=bceea8b3-a78c-4007-b763-79f204bcdca9"},"vehicle_type_id":"4","last_reported":1748120908,"current_range_meters":9200,"station_id":"ce4bhgh2rcd13ifvqfb0","pricing_plan_id":"cebpf4jnsgd1na2vs0mg"},{"bike_id":"9c4e3b88-769c-481a-b82f-348206930253","system_id":"levelo_inurba_marseille","lat":43.28215,"lon":5.3905,"is_reserved":false,"is_disabled":false,"rental_uris":{"android":"levelo://app?vid=9c4e3b88-769c-481a-b82f-348206930253","ios":"levelo://app?vid=9c4e3b88-769c-481a-b82f-348206930253"},"vehicle_type_id":"4","last_reported":1748120908,"current_range_meters":9600,"station_id":"","pricing_plan_id":"cebpf4jnsgd1na2vs0mg"},{"bike_id":"3104e41d-4e90-4275-9ac4-e64d3f2fcb60","system_id":"levelo_inurba_marseille","lat":43.29372,"lon":5.37845,"is_reserved":false,"is_disabled":false,"rental_uris":{"android":"levelo://app?vid=3104e41d-4e90-4275-9ac4-e64d3f2fcb60","ios":"levelo://app?vid=3104e41d-4e90-4275-9ac4-e64d3f2fcb60"},"vehicle_type_id":"4","last_reported":1748120908,"current_range_meters":9600,"station_id":"ce4bgjh2rcd13ifvqbf0","pricing_plan_id":"cebpf4jnsgd1na2vs0mg"},{"bike_id":"1ce0d558-c03a-4109-9d26-d8982ff015ec","system_id":"levelo_inurba_marseille","lat":43.30787,"lon":5.37638,"is_reserved":false,"is_disabled":false,"rental_uris":{"android":"levelo://app?vid=1ce0d558-c03a-4109-9d26-d8982ff015ec","ios":"levelo://app?vid=1ce0d558-c03a-4109-9d26-d8982ff015ec"},"vehicle_type_id":"4","last_reported":1748120908,"current_range_meters":9600,"station_id":"ce4bgv92rcd13ifvqcq0","pricing_plan_id":"cebpf4jnsgd1na2vs0mg"},{"bike_id":"aeb9ef90-389d-4ef3-899b-0a0feff09a32","system_id":"levelo_inurba_marseille","lat":43.31368,"lon":5.38022,"is_reserved":false,"is_disabled":false,"rental_uris":{"android":"levelo://app?vid=aeb9ef90-389d-4ef3-899b-0a0feff09a32","ios":"levelo://app?vid=aeb9ef90-389d-4ef3-899b-0a0feff09a32"},"vehicle_type_id":"4","last_reported":1748120908,"current_range_meters":9600,"station_id":"","pricing_plan_id":"cebpf4jnsgd1na2vs0mg"},{"bike_id":"40572cad-a796-4f87-a02c-44bcfdb01f65","system_id":"levelo_inurba_marseille","lat":43.273422,"lon":5.361547,"is_reserved":false,"is_disabled":false,"rental_uris":{"android":"levelo://app?vid=40572cad-a796-4f87-a02c-44bcfdb01f65","ios":"levelo://app?vid=40572cad-a796-4f87-a02c-44bcfdb01f65"},"vehicle_type_id":"4","last_reported":1748120908,"current_range_meters":9600,"station_id":"","pricing_plan_id":"cebpf4jnsgd1na2vs0mg"},{"bike_id":"22208579-fc41-4db7-a4ee-14ae55a325ff","system_id":"levelo_inurba_marseille","lat":43.31117,"lon":5.37771,"is_reserved":false,"is_disabled":false,"rental_uris":{"android":"levelo://app?vid=22208579-fc41-4db7-a4ee-14ae55a325ff","ios":"levelo://app?vid=22208579-fc41-4db7-a4ee-14ae55a325ff"},"vehicle_type_id":"4","last_reported":1748120908,"current_range_meters":9600,"station_id":"ce4bgt92rcd13ifvqcg0","pricing_plan_id":"cebpf4jnsgd1na2vs0mg"},{"bike_id":"c0b51b19-5a3c-47b6-a728-20e9b0d3fca2","system_id":"levelo_inurba_marseille","lat":43.21763,"lon":5.34609,"is_reserved":false,"is_disabled":true,"rental_uris":{"android":"levelo://app?vid=c0b51b19-5a3c-47b6-a728-20e9b0d3fca2","ios":"levelo://app?vid=c0b51b19-5a3c-47b6-a728-20e9b0d3fca2"},"vehicle_type_id":"4","last_reported":1748120908,"current_range_meters":9600,"station_id":"st_cvj6r9ubvosntc0bgbag","pricing_plan_id":"cebpf4jnsgd1na2vs0mg"},{"bike_id":"07b402ba-a90c-4b76-a9cb-2ecd9bee2aaa","system_id":"levelo_inurba_marseille","lat":43.31094,"lon":5.42425,"is_reserved":false,"is_disabled":false,"rental_uris":{"android":"levelo://app?vid=07b402ba-a90c-4b76-a9cb-2ecd9bee2aaa","ios":"levelo://app?vid=07b402ba-a90c-4b76-a9cb-2ecd9bee2aaa"},"vehicle_type_id":"4","last_reported":1748120908,"current_range_meters":9600,"station_id":"ce4bhp92rcd13ifvqhag","pricing_plan_id":"cebpf4jnsgd1na2vs0mg"},{"bike_id":"782a8907-be81-41a0-ab14-81dd159a5cca","system_id":"levelo_inurba_marseille","lat":43.30646,"lon":5.40075,"is_reserved":false,"is_disabled":false,"rental_uris":{"android":"levelo://app?vid=782a8907-be81-41a0-ab14-81dd159a5cca","ios":"levelo://app?vid=782a8907-be81-41a0-ab14-81dd159a5cca"},"vehicle_type_id":"4","last_reported":1748120908,"current_range_meters":9600,"station_id":"ce4bh112rcd13ifvqda0","pricing_plan_id":"cebpf4jnsgd1na2vs0mg"},{"bike_id":"6a633521-cd49-4778-a84d-0462a491b017","system_id":"levelo_inurba_marseille","lat":43.24812,"lon":5.37458,"is_reserved":false,"is_disabled":false,"rental_uris":{"android":"levelo://app?vid=6a633521-cd49-4778-a84d-0462a491b017","ios":"levelo://app?vid=6a633521-cd49-4778-a84d-0462a491b017"},"vehicle_type_id":"4","last_reported":1748120908,"current_range_meters":10000,"station_id":"ce4bhgh2rcd13ifvqfb0","pricing_plan_id":"cebpf4jnsgd1na2vs0mg"},{"bike_id":"d233e8c8-39f0-4ad7-b9ae-c0a68e5c8718","system_id":"levelo_inurba_marseille","lat":43.269399,"lon":5.402524,"is_reserved":false,"is_disabled":false,"rental_uris":{"android":"levelo://app?vid=d233e8c8-39f0-4ad7-b9ae-c0a68e5c8718","ios":"levelo://app?vid=d233e8c8-39f0-4ad7-b9ae-c0a68e5c8718"},"vehicle_type_id":"4","last_reported":1748120908,"current_range_meters":10000,"station_id":"cjm6bp8fraef2m0cb0m0","pricing_plan_id":"cebpf4jnsgd1na2vs0mg"},{"bike_id":"87b8832c-df79-41dd-927d-c8f335a755c3","system_id":"levelo_inurba_marseille","lat":43.2558,"lon":5.38246,"is_reserved":false,"is_disabled":false,"rental_uris":{"android":"levelo://app?vid=87b8832c-df79-41dd-927d-c8f335a755c3","ios":"levelo://app?vid=87b8832c-df79-41dd-927d-c8f335a755c3"},"vehicle_type_id":"4","last_reported":1748120908,"current_range_meters":10000,"station_id":"ce4bhih2rcd13ifvqfs0","pricing_plan_id":"cebpf4jnsgd1na2vs0mg"},{"bike_id":"50078d24-2e95-4d9a-8285-87427798b141","system_id":"levelo_inurba_marseille","lat":43.30264,"lon":5.40076,"is_reserved":false,"is_disabled":false,"rental_uris":{"android":"levelo://app?vid=50078d24-2e95-4d9a-8285-87427798b141","ios":"levelo://app?vid=50078d24-2e95-4d9a-8285-87427798b141"},"vehicle_type_id":"4","last_reported":1748120908,"current_range_meters":10000,"station_id":"ce4bgvh2rcd13ifvqcs0","pricing_plan_id":"cebpf4jnsgd1na2vs0mg"},{"bike_id":"984d5b10-8d63-471e-8e18-942a215c7b50","system_id":"levelo_inurba_marseille","lat":43.23968,"lon":5.36631,"is_reserved":false,"is_disabled":false,"rental_uris":{"android":"levelo://app?vid=984d5b10-8d63-471e-8e18-942a215c7b50","ios":"levelo://app?vid=984d5b10-8d63-471e-8e18-942a215c7b50"},"vehicle_type_id":"4","last_reported":1748120908,"current_range_meters":9600,"station_id":"ce4bhi12rcd13ifvqfp0","pricing_plan_id":"cebpf4jnsgd1na2vs0mg"},{"bike_id":"59c0f53e-2435-4973-b338-4d5ad79c7d38","system_id":"levelo_inurba_marseille","lat":43.27308,"lon":5.39096,"is_reserved":false,"is_disabled":false,"rental_uris":{"android":"levelo://app?vid=59c0f53e-2435-4973-b338-4d5ad79c7d38","ios":"levelo://app?vid=59c0f53e-2435-4973-b338-4d5ad79c7d38"},"vehicle_type_id":"4","last_reported":1748120908,"current_range_meters":10000,"station_id":"ce4bhgp2rcd13ifvqfe0","pricing_plan_id":"cebpf4jnsgd1na2vs0mg"},{"bike_id":"002cbebe-d947-4f4f-ae6f-b2096a3f220f","system_id":"levelo_inurba_marseille","lat":43.25501,"lon":5.37651,"is_reserved":false,"is_disabled":false,"rental_uris":{"android":"levelo://app?vid=002cbebe-d947-4f4f-ae6f-b2096a3f220f","ios":"levelo://app?vid=002cbebe-d947-4f4f-ae6f-b2096a3f220f"},"vehicle_type_id":"4","last_reported":1748120908,"current_range_meters":10000,"station_id":"ce4bhh12rcd13ifvqff0","pricing_plan_id":"cebpf4jnsgd1na2vs0mg"},{"bike_id":"add85384-f3e3-4627-8f15-11087068eb8b","system_id":"levelo_inurba_marseille","lat":43.28406,"lon":5.37508,"is_reserved":false,"is_disabled":false,"rental_uris":{"android":"levelo://app?vid=add85384-f3e3-4627-8f15-11087068eb8b","ios":"levelo://app?vid=add85384-f3e3-4627-8f15-11087068eb8b"},"vehicle_type_id":"4","last_reported":1748120908,"current_range_meters":10000,"station_id":"ce4bh412rcd13ifvqds0","pricing_plan_id":"cebpf4jnsgd1na2vs0mg"},{"bike_id":"750d488e-82d0-4588-bfa9-99814a14e999","system_id":"levelo_inurba_marseille","lat":43.30803,"lon":5.43511,"is_reserved":false,"is_disabled":false,"rental_uris":{"android":"levelo://app?vid=750d488e-82d0-4588-bfa9-99814a14e999","ios":"levelo://app?vid=750d488e-82d0-4588-bfa9-99814a14e999"},"vehicle_type_id":"4","last_reported":1748120908,"current_range_meters":10800,"station_id":"ce4bhph2rcd13ifvqheg","pricing_plan_id":"cebpf4jnsgd1na2vs0mg"},{"bike_id":"b257e1c4-2f2e-4cd2-bdcb-f4495a7aed9a","system_id":"levelo_inurba_marseille","lat":43.32089,"lon":5.40772,"is_reserved":false,"is_disabled":false,"rental_uris":{"android":"levelo://app?vid=b257e1c4-2f2e-4cd2-bdcb-f4495a7aed9a","ios":"levelo://app?vid=b257e1c4-2f2e-4cd2-bdcb-f4495a7aed9a"},"vehicle_type_id":"4","last_reported":1748120908,"current_range_meters":10800,"station_id":"","pricing_plan_id":"cebpf4jnsgd1na2vs0mg"},{"bike_id":"a2969d9b-b308-43ba-a932-55b8bd550f28","system_id":"levelo_inurba_marseille","lat":43.31502,"lon":5.40354,"is_reserved":false,"is_disabled":false,"rental_uris":{"android":"levelo://app?vid=a2969d9b-b308-43ba-a932-55b8bd550f28","ios":"levelo://app?vid=a2969d9b-b308-43ba-a932-55b8bd550f28"},"vehicle_type_id":"4","last_reported":1748120908,"current_range_meters":10800,"station_id":"","pricing_plan_id":"cebpf4jnsgd1na2vs0mg"},{"bike_id":"9486d080-deea-4b2e-997e-690149ec967b","system_id":"levelo_inurba_marseille","lat":43.29578,"lon":5.3995,"is_reserved":false,"is_disabled":false,"rental_uris":{"android":"levelo://app?vid=9486d080-deea-4b2e-997e-690149ec967b","ios":"levelo://app?vid=9486d080-deea-4b2e-997e-690149ec967b"},"vehicle_type_id":"4","last_reported":1748120908,"current_range_meters":10800,"station_id":"ce4bh312rcd13ifvqdj0","pricing_plan_id":"cebpf4jnsgd1na2vs0mg"},{"bike_id":"a910dfec-052c-4c12-b114-a5942cb78ffa","system_id":"levelo_inurba_marseille","lat":43.28656,"lon":5.385542,"is_reserved":false,"is_disabled":false,"rental_uris":{"android":"levelo://app?vid=a910dfec-052c-4c12-b114-a5942cb78ffa","ios":"levelo://app?vid=a910dfec-052c-4c12-b114-a5942cb78ffa"},"vehicle_type_id":"4","last_reported":1748120908,"current_range_meters":10800,"station_id":"","pricing_plan_id":"cebpf4jnsgd1na2vs0mg"},{"bike_id":"aa2aee6c-d5a2-4b33-bb06-2abf49f421ae","system_id":"levelo_inurba_marseille","lat":43.28478,"lon":5.38414,"is_reserved":false,"is_disabled":true,"rental_uris":{"android":"levelo://app?vid=aa2aee6c-d5a2-4b33-bb06-2abf49f421ae","ios":"levelo://app?vid=aa2aee6c-d5a2-4b33-bb06-2abf49f421ae"},"vehicle_type_id":"4","last_reported":1748120908,"current_range_meters":10800,"station_id":"ce4bh512rcd13ifvqe3g","pricing_plan_id":"cebpf4jnsgd1na2vs0mg"},{"bike_id":"631364b9-4f5e-4cc8-8e04-6ec26ba24d61","system_id":"levelo_inurba_marseille","lat":43.3014,"lon":5.3876,"is_reserved":false,"is_disabled":true,"rental_uris":{"android":"levelo://app?vid=631364b9-4f5e-4cc8-8e04-6ec26ba24d61","ios":"levelo://app?vid=631364b9-4f5e-4cc8-8e04-6ec26ba24d61"},"vehicle_type_id":"4","last_reported":1748120908,"current_range_meters":10800,"station_id":"ce4bghh2rcd13ifvqb60","pricing_plan_id":"cebpf4jnsgd1na2vs0mg"},{"bike_id":"14637430-3a31-4f8d-bab0-405c790b7de3","system_id":"levelo_inurba_marseille","lat":43.30613,"lon":5.37217,"is_reserved":false,"is_disabled":false,"rental_uris":{"android":"levelo://app?vid=14637430-3a31-4f8d-bab0-405c790b7de3","ios":"levelo://app?vid=14637430-3a31-4f8d-bab0-405c790b7de3"},"vehicle_type_id":"4","last_reported":1748120908,"current_range_meters":10800,"station_id":"ce4bgqh2rcd13ifvqc4g","pricing_plan_id":"cebpf4jnsgd1na2vs0mg"},{"bike_id":"88ac5a91-56d3-4573-b0f2-5c6bbb7d986b","system_id":"levelo_inurba_marseille","lat":43.26078,"lon":5.39628,"is_reserved":false,"is_disabled":false,"rental_uris":{"android":"levelo://app?vid=88ac5a91-56d3-4573-b0f2-5c6bbb7d986b","ios":"levelo://app?vid=88ac5a91-56d3-4573-b0f2-5c6bbb7d986b"},"vehicle_type_id":"4","last_reported":1748120908,"current_range_meters":10800,"station_id":"","pricing_plan_id":"cebpf4jnsgd1na2vs0mg"},{"bike_id":"ae3590ee-3470-4794-9f5a-e8aa3ba968f5","system_id":"levelo_inurba_marseille","lat":43.292757,"lon":5.368468,"is_reserved":false,"is_disabled":false,"rental_uris":{"android":"levelo://app?vid=ae3590ee-3470-4794-9f5a-e8aa3ba968f5","ios":"levelo://app?vid=ae3590ee-3470-4794-9f5a-e8aa3ba968f5"},"vehicle_type_id":"4","last_reported":1748120908,"current_range_meters":10800,"station_id":"ce4bhbp2rcd13ifvqesg","pricing_plan_id":"cebpf4jnsgd1na2vs0mg"},{"bike_id":"48bc52b3-a7e9-477b-a237-4b0728ae817f","system_id":"levelo_inurba_marseille","lat":43.29842,"lon":5.36265,"is_reserved":false,"is_disabled":false,"rental_uris":{"android":"levelo://app?vid=48bc52b3-a7e9-477b-a237-4b0728ae817f","ios":"levelo://app?vid=48bc52b3-a7e9-477b-a237-4b0728ae817f"},"vehicle_type_id":"4","last_reported":1748120908,"current_range_meters":10800,"station_id":"ce4bgpp2rcd13ifvqc3g","pricing_plan_id":"cebpf4jnsgd1na2vs0mg"},{"bike_id":"d79dcce0-a904-4e21-95e2-b807aa4b178b","system_id":"levelo_inurba_marseille","lat":43.28493,"lon":5.38421,"is_reserved":false,"is_disabled":false,"rental_uris":{"android":"levelo://app?vid=d79dcce0-a904-4e21-95e2-b807aa4b178b","ios":"levelo://app?vid=d79dcce0-a904-4e21-95e2-b807aa4b178b"},"vehicle_type_id":"4","last_reported":1748120908,"current_range_meters":10800,"station_id":"ce4bh512rcd13ifvqe3g","pricing_plan_id":"cebpf4jnsgd1na2vs0mg"},{"bike_id":"a90e20a6-bffb-4ea1-8324-9ffba03b3cf7","system_id":"levelo_inurba_marseille","lat":43.25118,"lon":5.40313,"is_reserved":false,"is_disabled":false,"rental_uris":{"android":"levelo://app?vid=a90e20a6-bffb-4ea1-8324-9ffba03b3cf7","ios":"levelo://app?vid=a90e20a6-bffb-4ea1-8324-9ffba03b3cf7"},"vehicle_type_id":"4","last_reported":1748120908,"current_range_meters":10800,"station_id":"ce4bhlh2rcd13ifvqgig","pricing_plan_id":"cebpf4jnsgd1na2vs0mg"},{"bike_id":"6b036696-076d-4924-a9fa-0d93cc0744af","system_id":"levelo_inurba_marseille","lat":43.26479,"lon":5.39564,"is_reserved":false,"is_disabled":false,"rental_uris":{"android":"levelo://app?vid=6b036696-076d-4924-a9fa-0d93cc0744af","ios":"levelo://app?vid=6b036696-076d-4924-a9fa-0d93cc0744af"},"vehicle_type_id":"4","last_reported":1748120908,"current_range_meters":10800,"station_id":"ce4bhi12rcd13ifvqfq0","pricing_plan_id":"cebpf4jnsgd1na2vs0mg"},{"bike_id":"88b0dd95-774b-4318-a483-32bfd96a66e6","system_id":"levelo_inurba_marseille","lat":43.2979,"lon":5.39346,"is_reserved":false,"is_disabled":false,"rental_uris":{"android":"levelo://app?vid=88b0dd95-774b-4318-a483-32bfd96a66e6","ios":"levelo://app?vid=88b0dd95-774b-4318-a483-32bfd96a66e6"},"vehicle_type_id":"4","last_reported":1748120908,"current_range_meters":11200,"station_id":"chh1huq6cuj3fo74tm60","pricing_plan_id":"cebpf4jnsgd1na2vs0mg"},{"bike_id":"4d5b91ca-0f7c-49c1-946c-4cf445885a19","system_id":"levelo_inurba_marseille","lat":43.24807,"lon":5.37454,"is_reserved":false,"is_disabled":false,"rental_uris":{"android":"levelo://app?vid=4d5b91ca-0f7c-49c1-946c-4cf445885a19","ios":"levelo://app?vid=4d5b91ca-0f7c-49c1-946c-4cf445885a19"},"vehicle_type_id":"4","last_reported":1748120908,"current_range_meters":10800,"station_id":"ce4bhgh2rcd13ifvqfb0","pricing_plan_id":"cebpf4jnsgd1na2vs0mg"},{"bike_id":"41e8aa44-92d2-486b-a6d4-64aef19385db","system_id":"levelo_inurba_marseille","lat":43.25615,"lon":5.38214,"is_reserved":false,"is_disabled":false,"rental_uris":{"android":"levelo://app?vid=41e8aa44-92d2-486b-a6d4-64aef19385db","ios":"levelo://app?vid=41e8aa44-92d2-486b-a6d4-64aef19385db"},"vehicle_type_id":"4","last_reported":1748120908,"current_range_meters":11200,"station_id":"ce4bhih2rcd13ifvqfs0","pricing_plan_id":"cebpf4jnsgd1na2vs0mg"},{"bike_id":"e588bac4-9a86-4979-bfa2-d6f8331f4471","system_id":"levelo_inurba_marseille","lat":43.304538,"lon":5.400606,"is_reserved":false,"is_disabled":false,"rental_uris":{"android":"levelo://app?vid=e588bac4-9a86-4979-bfa2-d6f8331f4471","ios":"levelo://app?vid=e588bac4-9a86-4979-bfa2-d6f8331f4471"},"vehicle_type_id":"4","last_reported":1748120908,"current_range_meters":11200,"station_id":"ce4bh112rcd13ifvqda0","pricing_plan_id":"cebpf4jnsgd1na2vs0mg"},{"bike_id":"090ca33e-59cb-4535-933f-d1dca780be18","system_id":"levelo_inurba_marseille","lat":43.27307,"lon":5.39086,"is_reserved":false,"is_disabled":false,"rental_uris":{"android":"levelo://app?vid=090ca33e-59cb-4535-933f-d1dca780be18","ios":"levelo://app?vid=090ca33e-59cb-4535-933f-d1dca780be18"},"vehicle_type_id":"4","last_reported":1748120908,"current_range_meters":11200,"station_id":"ce4bhgp2rcd13ifvqfe0","pricing_plan_id":"cebpf4jnsgd1na2vs0mg"},{"bike_id":"b72ccfd1-35cf-4b02-9c1a-90aef7c74e5f","system_id":"levelo_inurba_marseille","lat":43.24869,"lon":5.44191,"is_reserved":false,"is_disabled":false,"rental_uris":{"android":"levelo://app?vid=b72ccfd1-35cf-4b02-9c1a-90aef7c74e5f","ios":"levelo://app?vid=b72ccfd1-35cf-4b02-9c1a-90aef7c74e5f"},"vehicle_type_id":"4","last_reported":1748120908,"current_range_meters":11200,"station_id":"","pricing_plan_id":"cebpf4jnsgd1na2vs0mg"},{"bike_id":"ea8cf5d9-0178-41f5-bdec-a174bbfcb8d9","system_id":"levelo_inurba_marseille","lat":43.29272,"lon":5.38433,"is_reserved":false,"is_disabled":false,"rental_uris":{"android":"levelo://app?vid=ea8cf5d9-0178-41f5-bdec-a174bbfcb8d9","ios":"levelo://app?vid=ea8cf5d9-0178-41f5-bdec-a174bbfcb8d9"},"vehicle_type_id":"4","last_reported":1748120908,"current_range_meters":11600,"station_id":"ce4bh692rcd13ifvqea0","pricing_plan_id":"cebpf4jnsgd1na2vs0mg"},{"bike_id":"53a8fa51-7b73-4bc7-923d-43aea42f7a23","system_id":"levelo_inurba_marseille","lat":43.27316,"lon":5.39096,"is_reserved":false,"is_disabled":false,"rental_uris":{"android":"levelo://app?vid=53a8fa51-7b73-4bc7-923d-43aea42f7a23","ios":"levelo://app?vid=53a8fa51-7b73-4bc7-923d-43aea42f7a23"},"vehicle_type_id":"4","last_reported":1748120908,"current_range_meters":11600,"station_id":"ce4bhgp2rcd13ifvqfe0","pricing_plan_id":"cebpf4jnsgd1na2vs0mg"},{"bike_id":"cd07eb63-8cb3-4a52-a62d-91a94bcdd0d9","system_id":"levelo_inurba_marseille","lat":43.298721,"lon":5.389085,"is_reserved":false,"is_disabled":true,"rental_uris":{"android":"levelo://app?vid=cd07eb63-8cb3-4a52-a62d-91a94bcdd0d9","ios":"levelo://app?vid=cd07eb63-8cb3-4a52-a62d-91a94bcdd0d9"},"vehicle_type_id":"4","last_reported":1748120908,"current_range_meters":11600,"station_id":"ce4bh392rcd13ifvqdl0","pricing_plan_id":"cebpf4jnsgd1na2vs0mg"},{"bike_id":"6abb9ab4-3976-4e3e-b994-f2f72ee02055","system_id":"levelo_inurba_marseille","lat":43.31844,"lon":5.36844,"is_reserved":false,"is_disabled":false,"rental_uris":{"android":"levelo://app?vid=6abb9ab4-3976-4e3e-b994-f2f72ee02055","ios":"levelo://app?vid=6abb9ab4-3976-4e3e-b994-f2f72ee02055"},"vehicle_type_id":"4","last_reported":1748120908,"current_range_meters":11600,"station_id":"","pricing_plan_id":"cebpf4jnsgd1na2vs0mg"},{"bike_id":"688b0695-cbc7-4359-b0c4-b84934a3057c","system_id":"levelo_inurba_marseille","lat":43.26948,"lon":5.40248,"is_reserved":false,"is_disabled":false,"rental_uris":{"android":"levelo://app?vid=688b0695-cbc7-4359-b0c4-b84934a3057c","ios":"levelo://app?vid=688b0695-cbc7-4359-b0c4-b84934a3057c"},"vehicle_type_id":"4","last_reported":1748120908,"current_range_meters":11600,"station_id":"cjm6bp8fraef2m0cb0m0","pricing_plan_id":"cebpf4jnsgd1na2vs0mg"},{"bike_id":"25187bef-1366-4cdc-8413-07e4126804cd","system_id":"levelo_inurba_marseille","lat":43.28859,"lon":5.39316,"is_reserved":false,"is_disabled":false,"rental_uris":{"android":"levelo://app?vid=25187bef-1366-4cdc-8413-07e4126804cd","ios":"levelo://app?vid=25187bef-1366-4cdc-8413-07e4126804cd"},"vehicle_type_id":"4","last_reported":1748120908,"current_range_meters":11600,"station_id":"ce4bh2p2rcd13ifvqdi0","pricing_plan_id":"cebpf4jnsgd1na2vs0mg"},{"bike_id":"0b067f7a-2c6d-4987-b549-215535babb63","system_id":"levelo_inurba_marseille","lat":43.29535,"lon":5.38547,"is_reserved":false,"is_disabled":false,"rental_uris":{"android":"levelo://app?vid=0b067f7a-2c6d-4987-b549-215535babb63","ios":"levelo://app?vid=0b067f7a-2c6d-4987-b549-215535babb63"},"vehicle_type_id":"4","last_reported":1748120908,"current_range_meters":11600,"station_id":"ce4bgih2rcd13ifvqba0","pricing_plan_id":"cebpf4jnsgd1na2vs0mg"},{"bike_id":"b5212b01-f768-4579-bb1f-18803bfb994e","system_id":"levelo_inurba_marseille","lat":43.31644,"lon":5.38904,"is_reserved":false,"is_disabled":false,"rental_uris":{"android":"levelo://app?vid=b5212b01-f768-4579-bb1f-18803bfb994e","ios":"levelo://app?vid=b5212b01-f768-4579-bb1f-18803bfb994e"},"vehicle_type_id":"4","last_reported":1748120908,"current_range_meters":12000,"station_id":"","pricing_plan_id":"cebpf4jnsgd1na2vs0mg"},{"bike_id":"09517566-2b10-4d66-84f9-e586fee29017","system_id":"levelo_inurba_marseille","lat":43.24651,"lon":5.38887,"is_reserved":false,"is_disabled":false,"rental_uris":{"android":"levelo://app?vid=09517566-2b10-4d66-84f9-e586fee29017","ios":"levelo://app?vid=09517566-2b10-4d66-84f9-e586fee29017"},"vehicle_type_id":"4","last_reported":1748120908,"current_range_meters":12000,"station_id":"ce4bhg12rcd13ifvqf60","pricing_plan_id":"cebpf4jnsgd1na2vs0mg"},{"bike_id":"fa5772b6-61d8-47ed-b5a3-80c70da49c79","system_id":"levelo_inurba_marseille","lat":43.28914,"lon":5.38382,"is_reserved":false,"is_disabled":false,"rental_uris":{"android":"levelo://app?vid=fa5772b6-61d8-47ed-b5a3-80c70da49c79","ios":"levelo://app?vid=fa5772b6-61d8-47ed-b5a3-80c70da49c79"},"vehicle_type_id":"4","last_reported":1748120908,"current_range_meters":12000,"station_id":"ce4bh612rcd13ifvqe6g","pricing_plan_id":"cebpf4jnsgd1na2vs0mg"},{"bike_id":"950fff61-bae2-4e7b-8c32-293cff430907","system_id":"levelo_inurba_marseille","lat":43.29225,"lon":5.36063,"is_reserved":false,"is_disabled":true,"rental_uris":{"android":"levelo://app?vid=950fff61-bae2-4e7b-8c32-293cff430907","ios":"levelo://app?vid=950fff61-bae2-4e7b-8c32-293cff430907"},"vehicle_type_id":"4","last_reported":1748120908,"current_range_meters":12000,"station_id":"ce4bhbh2rcd13ifvqeqg","pricing_plan_id":"cebpf4jnsgd1na2vs0mg"},{"bike_id":"37c8c075-8f82-4272-989a-84f131b3479b","system_id":"levelo_inurba_marseille","lat":43.29211,"lon":5.3604,"is_reserved":false,"is_disabled":true,"rental_uris":{"android":"levelo://app?vid=37c8c075-8f82-4272-989a-84f131b3479b","ios":"levelo://app?vid=37c8c075-8f82-4272-989a-84f131b3479b"},"vehicle_type_id":"4","last_reported":1748120908,"current_range_meters":12000,"station_id":"ce4bhbh2rcd13ifvqeqg","pricing_plan_id":"cebpf4jnsgd1na2vs0mg"},{"bike_id":"e61b71a8-498e-40b2-b424-7cf0d55e284c","system_id":"levelo_inurba_marseille","lat":43.26849,"lon":5.40293,"is_reserved":false,"is_disabled":false,"rental_uris":{"android":"levelo://app?vid=e61b71a8-498e-40b2-b424-7cf0d55e284c","ios":"levelo://app?vid=e61b71a8-498e-40b2-b424-7cf0d55e284c"},"vehicle_type_id":"4","last_reported":1748120908,"current_range_meters":12000,"station_id":"","pricing_plan_id":"cebpf4jnsgd1na2vs0mg"},{"bike_id":"c86cfab1-5001-4b22-959b-864e00eafc09","system_id":"levelo_inurba_marseille","lat":43.30883,"lon":5.39633,"is_reserved":false,"is_disabled":false,"rental_uris":{"android":"levelo://app?vid=c86cfab1-5001-4b22-959b-864e00eafc09","ios":"levelo://app?vid=c86cfab1-5001-4b22-959b-864e00eafc09"},"vehicle_type_id":"4","last_reported":1748120908,"current_range_meters":12000,"station_id":"ce4bh012rcd13ifvqcv0","pricing_plan_id":"cebpf4jnsgd1na2vs0mg"},{"bike_id":"14984a86-34a4-449d-8545-22c4a38de7e8","system_id":"levelo_inurba_marseille","lat":43.30139,"lon":5.39851,"is_reserved":false,"is_disabled":false,"rental_uris":{"android":"levelo://app?vid=14984a86-34a4-449d-8545-22c4a38de7e8","ios":"levelo://app?vid=14984a86-34a4-449d-8545-22c4a38de7e8"},"vehicle_type_id":"4","last_reported":1748120908,"current_range_meters":12000,"station_id":"ce4bh0h2rcd13ifvqd40","pricing_plan_id":"cebpf4jnsgd1na2vs0mg"},{"bike_id":"db73ca6b-2093-4a1c-8158-0f3989882442","system_id":"levelo_inurba_marseille","lat":43.30296,"lon":5.36922,"is_reserved":false,"is_disabled":false,"rental_uris":{"android":"levelo://app?vid=db73ca6b-2093-4a1c-8158-0f3989882442","ios":"levelo://app?vid=db73ca6b-2093-4a1c-8158-0f3989882442"},"vehicle_type_id":"4","last_reported":1748120908,"current_range_meters":12000,"station_id":"ce4bgqh2rcd13ifvqc5g","pricing_plan_id":"cebpf4jnsgd1na2vs0mg"},{"bike_id":"0ee4abd8-31f5-4b2f-b0b9-318d7620d615","system_id":"levelo_inurba_marseille","lat":43.26946,"lon":5.40242,"is_reserved":false,"is_disabled":false,"rental_uris":{"android":"levelo://app?vid=0ee4abd8-31f5-4b2f-b0b9-318d7620d615","ios":"levelo://app?vid=0ee4abd8-31f5-4b2f-b0b9-318d7620d615"},"vehicle_type_id":"4","last_reported":1748120908,"current_range_meters":12000,"station_id":"cjm6bp8fraef2m0cb0m0","pricing_plan_id":"cebpf4jnsgd1na2vs0mg"},{"bike_id":"7bb277c8-8548-47e1-8e29-697ca300a8c0","system_id":"levelo_inurba_marseille","lat":43.23054,"lon":5.354966,"is_reserved":false,"is_disabled":false,"rental_uris":{"android":"levelo://app?vid=7bb277c8-8548-47e1-8e29-697ca300a8c0","ios":"levelo://app?vid=7bb277c8-8548-47e1-8e29-697ca300a8c0"},"vehicle_type_id":"4","last_reported":1748120908,"current_range_meters":12000,"station_id":"cpo3342slgdg3j2ifvpg","pricing_plan_id":"cebpf4jnsgd1na2vs0mg"},{"bike_id":"da453a88-f81b-4e0f-9781-5a7f6c1d364c","system_id":"levelo_inurba_marseille","lat":43.337499,"lon":5.374469,"is_reserved":false,"is_disabled":false,"rental_uris":{"android":"levelo://app?vid=da453a88-f81b-4e0f-9781-5a7f6c1d364c","ios":"levelo://app?vid=da453a88-f81b-4e0f-9781-5a7f6c1d364c"},"vehicle_type_id":"4","last_reported":1748120908,"current_range_meters":12400,"station_id":"","pricing_plan_id":"cebpf4jnsgd1na2vs0mg"},{"bike_id":"3016a58e-9ed0-40d4-baa2-11add3a9d9c0","system_id":"levelo_inurba_marseille","lat":43.26936,"lon":5.40236,"is_reserved":false,"is_disabled":false,"rental_uris":{"android":"levelo://app?vid=3016a58e-9ed0-40d4-baa2-11add3a9d9c0","ios":"levelo://app?vid=3016a58e-9ed0-40d4-baa2-11add3a9d9c0"},"vehicle_type_id":"4","last_reported":1748120908,"current_range_meters":12400,"station_id":"cjm6bp8fraef2m0cb0m0","pricing_plan_id":"cebpf4jnsgd1na2vs0mg"},{"bike_id":"84670998-9aaf-4821-b809-d8dbbb1dc5c1","system_id":"levelo_inurba_marseille","lat":43.270783,"lon":5.392857,"is_reserved":false,"is_disabled":false,"rental_uris":{"android":"levelo://app?vid=84670998-9aaf-4821-b809-d8dbbb1dc5c1","ios":"levelo://app?vid=84670998-9aaf-4821-b809-d8dbbb1dc5c1"},"vehicle_type_id":"4","last_reported":1748120908,"current_range_meters":12400,"station_id":"","pricing_plan_id":"cebpf4jnsgd1na2vs0mg"},{"bike_id":"81a9b9c7-99c1-4feb-bdd9-9605afbeefee","system_id":"levelo_inurba_marseille","lat":43.24409,"lon":5.37052,"is_reserved":false,"is_disabled":false,"rental_uris":{"android":"levelo://app?vid=81a9b9c7-99c1-4feb-bdd9-9605afbeefee","ios":"levelo://app?vid=81a9b9c7-99c1-4feb-bdd9-9605afbeefee"},"vehicle_type_id":"4","last_reported":1748120908,"current_range_meters":12400,"station_id":"ce4bhhh2rcd13ifvqfk0","pricing_plan_id":"cebpf4jnsgd1na2vs0mg"},{"bike_id":"46216b9b-8f10-4d6d-b157-f45f75c5bc8a","system_id":"levelo_inurba_marseille","lat":43.29443,"lon":5.39754,"is_reserved":false,"is_disabled":false,"rental_uris":{"android":"levelo://app?vid=46216b9b-8f10-4d6d-b157-f45f75c5bc8a","ios":"levelo://app?vid=46216b9b-8f10-4d6d-b157-f45f75c5bc8a"},"vehicle_type_id":"4","last_reported":1748120908,"current_range_meters":12400,"station_id":"ce4bh3h2rcd13ifvqdo0","pricing_plan_id":"cebpf4jnsgd1na2vs0mg"},{"bike_id":"4e987731-c4c4-49e1-909c-3bbe2712ca41","system_id":"levelo_inurba_marseille","lat":43.29516,"lon":5.37422,"is_reserved":false,"is_disabled":false,"rental_uris":{"android":"levelo://app?vid=4e987731-c4c4-49e1-909c-3bbe2712ca41","ios":"levelo://app?vid=4e987731-c4c4-49e1-909c-3bbe2712ca41"},"vehicle_type_id":"4","last_reported":1748120908,"current_range_meters":12400,"station_id":"ce4bha92rcd13ifvqeh0","pricing_plan_id":"cebpf4jnsgd1na2vs0mg"},{"bike_id":"9e1fa971-373a-4050-8f0b-2e76f97d2fc3","system_id":"levelo_inurba_marseille","lat":43.2587,"lon":5.39921,"is_reserved":false,"is_disabled":false,"rental_uris":{"android":"levelo://app?vid=9e1fa971-373a-4050-8f0b-2e76f97d2fc3","ios":"levelo://app?vid=9e1fa971-373a-4050-8f0b-2e76f97d2fc3"},"vehicle_type_id":"4","last_reported":1748120908,"current_range_meters":12400,"station_id":"ce4bhl92rcd13ifvqghg","pricing_plan_id":"cebpf4jnsgd1na2vs0mg"},{"bike_id":"07c20b36-efcd-49b4-a301-75a9b7505c69","system_id":"levelo_inurba_marseille","lat":43.30138,"lon":5.38982,"is_reserved":false,"is_disabled":false,"rental_uris":{"android":"levelo://app?vid=07c20b36-efcd-49b4-a301-75a9b7505c69","ios":"levelo://app?vid=07c20b36-efcd-49b4-a301-75a9b7505c69"},"vehicle_type_id":"4","last_reported":1748120908,"current_range_meters":12400,"station_id":"","pricing_plan_id":"cebpf4jnsgd1na2vs0mg"},{"bike_id":"4f0adb5e-fcbf-4d9c-9091-a2bbf83763a0","system_id":"levelo_inurba_marseille","lat":43.27086,"lon":5.42266,"is_reserved":false,"is_disabled":false,"rental_uris":{"android":"levelo://app?vid=4f0adb5e-fcbf-4d9c-9091-a2bbf83763a0","ios":"levelo://app?vid=4f0adb5e-fcbf-4d9c-9091-a2bbf83763a0"},"vehicle_type_id":"4","last_reported":1748120908,"current_range_meters":12800,"station_id":"ce4bhk92rcd13ifvqgb0","pricing_plan_id":"cebpf4jnsgd1na2vs0mg"},{"bike_id":"6f916179-faba-4aea-9d40-751f42df6129","system_id":"levelo_inurba_marseille","lat":43.27249,"lon":5.39199,"is_reserved":false,"is_disabled":false,"rental_uris":{"android":"levelo://app?vid=6f916179-faba-4aea-9d40-751f42df6129","ios":"levelo://app?vid=6f916179-faba-4aea-9d40-751f42df6129"},"vehicle_type_id":"4","last_reported":1748120908,"current_range_meters":12800,"station_id":"ce4bhhp2rcd13ifvqfm0","pricing_plan_id":"cebpf4jnsgd1na2vs0mg"},{"bike_id":"bbeaf970-8d16-47a1-80f2-1d3f4e17cd86","system_id":"levelo_inurba_marseille","lat":43.28487,"lon":5.3844,"is_reserved":false,"is_disabled":false,"rental_uris":{"android":"levelo://app?vid=bbeaf970-8d16-47a1-80f2-1d3f4e17cd86","ios":"levelo://app?vid=bbeaf970-8d16-47a1-80f2-1d3f4e17cd86"},"vehicle_type_id":"4","last_reported":1748120908,"current_range_meters":12800,"station_id":"ce4bh512rcd13ifvqe3g","pricing_plan_id":"cebpf4jnsgd1na2vs0mg"},{"bike_id":"57d3f697-0606-47c6-bf97-482d6a1b5410","system_id":"levelo_inurba_marseille","lat":43.24704,"lon":5.38137,"is_reserved":false,"is_disabled":false,"rental_uris":{"android":"levelo://app?vid=57d3f697-0606-47c6-bf97-482d6a1b5410","ios":"levelo://app?vid=57d3f697-0606-47c6-bf97-482d6a1b5410"},"vehicle_type_id":"4","last_reported":1748120908,"current_range_meters":12800,"station_id":"","pricing_plan_id":"cebpf4jnsgd1na2vs0mg"},{"bike_id":"a5949432-2a02-411d-876e-eb896e4a13a3","system_id":"levelo_inurba_marseille","lat":43.25002,"lon":5.38924,"is_reserved":false,"is_disabled":false,"rental_uris":{"android":"levelo://app?vid=a5949432-2a02-411d-876e-eb896e4a13a3","ios":"levelo://app?vid=a5949432-2a02-411d-876e-eb896e4a13a3"},"vehicle_type_id":"4","last_reported":1748120908,"current_range_meters":12400,"station_id":"ce4bhgp2rcd13ifvqfd0","pricing_plan_id":"cebpf4jnsgd1na2vs0mg"},{"bike_id":"dc5e32a2-27fb-44fb-8c48-a3b4775ff4fd","system_id":"levelo_inurba_marseille","lat":43.28842,"lon":5.3932,"is_reserved":false,"is_disabled":false,"rental_uris":{"android":"levelo://app?vid=dc5e32a2-27fb-44fb-8c48-a3b4775ff4fd","ios":"levelo://app?vid=dc5e32a2-27fb-44fb-8c48-a3b4775ff4fd"},"vehicle_type_id":"4","last_reported":1748120908,"current_range_meters":12800,"station_id":"ce4bh2p2rcd13ifvqdi0","pricing_plan_id":"cebpf4jnsgd1na2vs0mg"},{"bike_id":"a3c8be10-0a60-4143-a4cf-bdd347a9d667","system_id":"levelo_inurba_marseille","lat":43.31701,"lon":5.37727,"is_reserved":false,"is_disabled":false,"rental_uris":{"android":"levelo://app?vid=a3c8be10-0a60-4143-a4cf-bdd347a9d667","ios":"levelo://app?vid=a3c8be10-0a60-4143-a4cf-bdd347a9d667"},"vehicle_type_id":"4","last_reported":1748120908,"current_range_meters":13600,"station_id":"ce4bgth2rcd13ifvqch0","pricing_plan_id":"cebpf4jnsgd1na2vs0mg"},{"bike_id":"ebdaa0a3-bb7b-422f-af6b-9eff9ebbfe54","system_id":"levelo_inurba_marseille","lat":43.28044,"lon":5.36947,"is_reserved":false,"is_disabled":false,"rental_uris":{"android":"levelo://app?vid=ebdaa0a3-bb7b-422f-af6b-9eff9ebbfe54","ios":"levelo://app?vid=ebdaa0a3-bb7b-422f-af6b-9eff9ebbfe54"},"vehicle_type_id":"4","last_reported":1748120908,"current_range_meters":13600,"station_id":"ce4bha12rcd13ifvqef0","pricing_plan_id":"cebpf4jnsgd1na2vs0mg"},{"bike_id":"adda7448-f342-4b81-9e8c-4e5211b53b6f","system_id":"levelo_inurba_marseille","lat":43.26809,"lon":5.39408,"is_reserved":false,"is_disabled":false,"rental_uris":{"android":"levelo://app?vid=adda7448-f342-4b81-9e8c-4e5211b53b6f","ios":"levelo://app?vid=adda7448-f342-4b81-9e8c-4e5211b53b6f"},"vehicle_type_id":"4","last_reported":1748120908,"current_range_meters":13600,"station_id":"ce4bhh12rcd13ifvqfg0","pricing_plan_id":"cebpf4jnsgd1na2vs0mg"},{"bike_id":"5dec1043-71e0-4d11-ba39-7dc964faa198","system_id":"levelo_inurba_marseille","lat":43.27909,"lon":5.38013,"is_reserved":false,"is_disabled":false,"rental_uris":{"android":"levelo://app?vid=5dec1043-71e0-4d11-ba39-7dc964faa198","ios":"levelo://app?vid=5dec1043-71e0-4d11-ba39-7dc964faa198"},"vehicle_type_id":"4","last_reported":1748120908,"current_range_meters":13600,"station_id":"ce4bhf92rcd13ifvqf50","pricing_plan_id":"cebpf4jnsgd1na2vs0mg"},{"bike_id":"21597768-21bf-4af9-89cd-f1b6c9fc31f3","system_id":"levelo_inurba_marseille","lat":43.31076,"lon":5.383546,"is_reserved":false,"is_disabled":false,"rental_uris":{"android":"levelo://app?vid=21597768-21bf-4af9-89cd-f1b6c9fc31f3","ios":"levelo://app?vid=21597768-21bf-4af9-89cd-f1b6c9fc31f3"},"vehicle_type_id":"4","last_reported":1748120908,"current_range_meters":13600,"station_id":"ce4bgv92rcd13ifvqcr0","pricing_plan_id":"cebpf4jnsgd1na2vs0mg"},{"bike_id":"50cb89bb-9ce5-41fd-87f5-c89d543abf71","system_id":"levelo_inurba_marseille","lat":43.27915,"lon":5.39575,"is_reserved":false,"is_disabled":false,"rental_uris":{"android":"levelo://app?vid=50cb89bb-9ce5-41fd-87f5-c89d543abf71","ios":"levelo://app?vid=50cb89bb-9ce5-41fd-87f5-c89d543abf71"},"vehicle_type_id":"4","last_reported":1748120908,"current_range_meters":13600,"station_id":"ce4bhf92rcd13ifvqf40","pricing_plan_id":"cebpf4jnsgd1na2vs0mg"},{"bike_id":"2a215a0c-bca6-4bd6-be30-354876dd0bbe","system_id":"levelo_inurba_marseille","lat":43.276583,"lon":5.3887,"is_reserved":false,"is_disabled":false,"rental_uris":{"android":"levelo://app?vid=2a215a0c-bca6-4bd6-be30-354876dd0bbe","ios":"levelo://app?vid=2a215a0c-bca6-4bd6-be30-354876dd0bbe"},"vehicle_type_id":"4","last_reported":1748120908,"current_range_meters":13600,"station_id":"ce4bhi12rcd13ifvqfo0","pricing_plan_id":"cebpf4jnsgd1na2vs0mg"},{"bike_id":"1adfb451-0a8b-42a4-8cf3-78386b3f3b61","system_id":"levelo_inurba_marseille","lat":43.30924,"lon":5.40137,"is_reserved":false,"is_disabled":false,"rental_uris":{"android":"levelo://app?vid=1adfb451-0a8b-42a4-8cf3-78386b3f3b61","ios":"levelo://app?vid=1adfb451-0a8b-42a4-8cf3-78386b3f3b61"},"vehicle_type_id":"4","last_reported":1748120908,"current_range_meters":13600,"station_id":"ce4bgvp2rcd13ifvqct0","pricing_plan_id":"cebpf4jnsgd1na2vs0mg"},{"bike_id":"5abb8a77-fbf0-4d21-805b-29790cff0e49","system_id":"levelo_inurba_marseille","lat":43.31101,"lon":5.42441,"is_reserved":false,"is_disabled":false,"rental_uris":{"android":"levelo://app?vid=5abb8a77-fbf0-4d21-805b-29790cff0e49","ios":"levelo://app?vid=5abb8a77-fbf0-4d21-805b-29790cff0e49"},"vehicle_type_id":"4","last_reported":1748120908,"current_range_meters":13600,"station_id":"ce4bhp92rcd13ifvqhag","pricing_plan_id":"cebpf4jnsgd1na2vs0mg"},{"bike_id":"957716b1-4683-4e78-b0bb-3f29eb4e5161","system_id":"levelo_inurba_marseille","lat":43.2822,"lon":5.3905,"is_reserved":false,"is_disabled":false,"rental_uris":{"android":"levelo://app?vid=957716b1-4683-4e78-b0bb-3f29eb4e5161","ios":"levelo://app?vid=957716b1-4683-4e78-b0bb-3f29eb4e5161"},"vehicle_type_id":"4","last_reported":1748120908,"current_range_meters":14000,"station_id":"","pricing_plan_id":"cebpf4jnsgd1na2vs0mg"},{"bike_id":"b359f782-03e3-459f-b0cf-08c551ffca8a","system_id":"levelo_inurba_marseille","lat":43.26792,"lon":5.39411,"is_reserved":false,"is_disabled":false,"rental_uris":{"android":"levelo://app?vid=b359f782-03e3-459f-b0cf-08c551ffca8a","ios":"levelo://app?vid=b359f782-03e3-459f-b0cf-08c551ffca8a"},"vehicle_type_id":"4","last_reported":1748120908,"current_range_meters":14000,"station_id":"ce4bhh12rcd13ifvqfg0","pricing_plan_id":"cebpf4jnsgd1na2vs0mg"},{"bike_id":"d797e643-aa9e-474a-b05d-bc9db7ee9f02","system_id":"levelo_inurba_marseille","lat":43.248,"lon":5.3745,"is_reserved":false,"is_disabled":false,"rental_uris":{"android":"levelo://app?vid=d797e643-aa9e-474a-b05d-bc9db7ee9f02","ios":"levelo://app?vid=d797e643-aa9e-474a-b05d-bc9db7ee9f02"},"vehicle_type_id":"4","last_reported":1748120908,"current_range_meters":14000,"station_id":"ce4bhgh2rcd13ifvqfb0","pricing_plan_id":"cebpf4jnsgd1na2vs0mg"},{"bike_id":"3cbb1fd3-7e86-46f8-975e-8204a2854c03","system_id":"levelo_inurba_marseille","lat":43.23151,"lon":5.43717,"is_reserved":false,"is_disabled":false,"rental_uris":{"android":"levelo://app?vid=3cbb1fd3-7e86-46f8-975e-8204a2854c03","ios":"levelo://app?vid=3cbb1fd3-7e86-46f8-975e-8204a2854c03"},"vehicle_type_id":"4","last_reported":1748120908,"current_range_meters":14000,"station_id":"ce4bhmp2rcd13ifvqgog","pricing_plan_id":"cebpf4jnsgd1na2vs0mg"},{"bike_id":"164df6c4-8b0e-4e85-a047-6e531a0d7a20","system_id":"levelo_inurba_marseille","lat":43.29718,"lon":5.369841,"is_reserved":false,"is_disabled":false,"rental_uris":{"android":"levelo://app?vid=164df6c4-8b0e-4e85-a047-6e531a0d7a20","ios":"levelo://app?vid=164df6c4-8b0e-4e85-a047-6e531a0d7a20"},"vehicle_type_id":"4","last_reported":1748120908,"current_range_meters":14400,"station_id":"","pricing_plan_id":"cebpf4jnsgd1na2vs0mg"},{"bike_id":"cad06a48-5d5e-4efb-bea6-69c2a06fa63c","system_id":"levelo_inurba_marseille","lat":43.31559,"lon":5.3733,"is_reserved":false,"is_disabled":false,"rental_uris":{"android":"levelo://app?vid=cad06a48-5d5e-4efb-bea6-69c2a06fa63c","ios":"levelo://app?vid=cad06a48-5d5e-4efb-bea6-69c2a06fa63c"},"vehicle_type_id":"4","last_reported":1748120908,"current_range_meters":14000,"station_id":"ce4bgt12rcd13ifvqcd0","pricing_plan_id":"cebpf4jnsgd1na2vs0mg"},{"bike_id":"09bb191e-40ae-496c-b98c-78abc6e7dce1","system_id":"levelo_inurba_marseille","lat":43.25498,"lon":5.37659,"is_reserved":false,"is_disabled":false,"rental_uris":{"android":"levelo://app?vid=09bb191e-40ae-496c-b98c-78abc6e7dce1","ios":"levelo://app?vid=09bb191e-40ae-496c-b98c-78abc6e7dce1"},"vehicle_type_id":"4","last_reported":1748120908,"current_range_meters":14000,"station_id":"ce4bhh12rcd13ifvqff0","pricing_plan_id":"cebpf4jnsgd1na2vs0mg"},{"bike_id":"ef36d46f-f439-46cc-a44f-a93da2212d71","system_id":"levelo_inurba_marseille","lat":43.30546,"lon":5.36559,"is_reserved":false,"is_disabled":false,"rental_uris":{"android":"levelo://app?vid=ef36d46f-f439-46cc-a44f-a93da2212d71","ios":"levelo://app?vid=ef36d46f-f439-46cc-a44f-a93da2212d71"},"vehicle_type_id":"4","last_reported":1748120908,"current_range_meters":14400,"station_id":"ce4bgs12rcd13ifvqcag","pricing_plan_id":"cebpf4jnsgd1na2vs0mg"},{"bike_id":"5f585e8c-90ca-478b-8104-c9425e042ef9","system_id":"levelo_inurba_marseille","lat":43.26563,"lon":5.39012,"is_reserved":false,"is_disabled":false,"rental_uris":{"android":"levelo://app?vid=5f585e8c-90ca-478b-8104-c9425e042ef9","ios":"levelo://app?vid=5f585e8c-90ca-478b-8104-c9425e042ef9"},"vehicle_type_id":"4","last_reported":1748120908,"current_range_meters":14400,"station_id":"ce4bhe12rcd13ifvqf30","pricing_plan_id":"cebpf4jnsgd1na2vs0mg"},{"bike_id":"8c251559-48b7-420f-87ea-85ca31600985","system_id":"levelo_inurba_marseille","lat":43.27956,"lon":5.3873,"is_reserved":false,"is_disabled":false,"rental_uris":{"android":"levelo://app?vid=8c251559-48b7-420f-87ea-85ca31600985","ios":"levelo://app?vid=8c251559-48b7-420f-87ea-85ca31600985"},"vehicle_type_id":"4","last_reported":1748120908,"current_range_meters":14800,"station_id":"ce4bhg12rcd13ifvqf80","pricing_plan_id":"cebpf4jnsgd1na2vs0mg"},{"bike_id":"7c320c1b-fb02-4806-9e80-37a7ccc7f401","system_id":"levelo_inurba_marseille","lat":43.232183,"lon":5.355555,"is_reserved":false,"is_disabled":false,"rental_uris":{"android":"levelo://app?vid=7c320c1b-fb02-4806-9e80-37a7ccc7f401","ios":"levelo://app?vid=7c320c1b-fb02-4806-9e80-37a7ccc7f401"},"vehicle_type_id":"4","last_reported":1748120908,"current_range_meters":14400,"station_id":"ce4bhu92rcd13ifvqi70","pricing_plan_id":"cebpf4jnsgd1na2vs0mg"},{"bike_id":"7d7a6846-55ef-499f-982e-205324745685","system_id":"levelo_inurba_marseille","lat":43.29593,"lon":5.38093,"is_reserved":false,"is_disabled":false,"rental_uris":{"android":"levelo://app?vid=7d7a6846-55ef-499f-982e-205324745685","ios":"levelo://app?vid=7d7a6846-55ef-499f-982e-205324745685"},"vehicle_type_id":"4","last_reported":1748120908,"current_range_meters":14400,"station_id":"ce4bgl12rcd13ifvqbo0","pricing_plan_id":"cebpf4jnsgd1na2vs0mg"},{"bike_id":"98b70874-29e4-45f4-bf16-5e99506984b8","system_id":"levelo_inurba_marseille","lat":43.3372,"lon":5.3919,"is_reserved":false,"is_disabled":false,"rental_uris":{"android":"levelo://app?vid=98b70874-29e4-45f4-bf16-5e99506984b8","ios":"levelo://app?vid=98b70874-29e4-45f4-bf16-5e99506984b8"},"vehicle_type_id":"4","last_reported":1748120908,"current_range_meters":14400,"station_id":"ce4bhr92rcd13ifvqhsg","pricing_plan_id":"cebpf4jnsgd1na2vs0mg"},{"bike_id":"e28f3984-fd96-42cf-8fc3-aeb4c2c6df89","system_id":"levelo_inurba_marseille","lat":43.29321,"lon":5.40183,"is_reserved":false,"is_disabled":false,"rental_uris":{"android":"levelo://app?vid=e28f3984-fd96-42cf-8fc3-aeb4c2c6df89","ios":"levelo://app?vid=e28f3984-fd96-42cf-8fc3-aeb4c2c6df89"},"vehicle_type_id":"4","last_reported":1748120908,"current_range_meters":14800,"station_id":"ce4bh312rcd13ifvqdk0","pricing_plan_id":"cebpf4jnsgd1na2vs0mg"},{"bike_id":"c9623ff6-1f4e-4ff8-88d0-add8216aa646","system_id":"levelo_inurba_marseille","lat":43.33026,"lon":5.39041,"is_reserved":false,"is_disabled":false,"rental_uris":{"android":"levelo://app?vid=c9623ff6-1f4e-4ff8-88d0-add8216aa646","ios":"levelo://app?vid=c9623ff6-1f4e-4ff8-88d0-add8216aa646"},"vehicle_type_id":"4","last_reported":1748120908,"current_range_meters":14800,"station_id":"ce4bhr92rcd13ifvqhrg","pricing_plan_id":"cebpf4jnsgd1na2vs0mg"},{"bike_id":"b8355d95-9094-4bfb-8056-5efd7077b9b4","system_id":"levelo_inurba_marseille","lat":43.31361,"lon":5.38496,"is_reserved":false,"is_disabled":false,"rental_uris":{"android":"levelo://app?vid=b8355d95-9094-4bfb-8056-5efd7077b9b4","ios":"levelo://app?vid=b8355d95-9094-4bfb-8056-5efd7077b9b4"},"vehicle_type_id":"4","last_reported":1748120908,"current_range_meters":14800,"station_id":"ce4bgt92rcd13ifvqcf0","pricing_plan_id":"cebpf4jnsgd1na2vs0mg"},{"bike_id":"7ccb5967-b44e-4696-a291-c80afeb45cd9","system_id":"levelo_inurba_marseille","lat":43.30791,"lon":5.37662,"is_reserved":false,"is_disabled":false,"rental_uris":{"android":"levelo://app?vid=7ccb5967-b44e-4696-a291-c80afeb45cd9","ios":"levelo://app?vid=7ccb5967-b44e-4696-a291-c80afeb45cd9"},"vehicle_type_id":"4","last_reported":1748120908,"current_range_meters":14800,"station_id":"ce4bgv92rcd13ifvqcq0","pricing_plan_id":"cebpf4jnsgd1na2vs0mg"},{"bike_id":"e1cf8163-4b5c-4780-8a60-df2512b3ddef","system_id":"levelo_inurba_marseille","lat":43.254997,"lon":5.376513,"is_reserved":false,"is_disabled":false,"rental_uris":{"android":"levelo://app?vid=e1cf8163-4b5c-4780-8a60-df2512b3ddef","ios":"levelo://app?vid=e1cf8163-4b5c-4780-8a60-df2512b3ddef"},"vehicle_type_id":"4","last_reported":1748120908,"current_range_meters":14800,"station_id":"ce4bhh12rcd13ifvqff0","pricing_plan_id":"cebpf4jnsgd1na2vs0mg"},{"bike_id":"1b95e216-6b3e-4dd5-a706-d4abbfe8b7cc","system_id":"levelo_inurba_marseille","lat":43.27066,"lon":5.39299,"is_reserved":false,"is_disabled":false,"rental_uris":{"android":"levelo://app?vid=1b95e216-6b3e-4dd5-a706-d4abbfe8b7cc","ios":"levelo://app?vid=1b95e216-6b3e-4dd5-a706-d4abbfe8b7cc"},"vehicle_type_id":"4","last_reported":1748120908,"current_range_meters":14800,"station_id":"","pricing_plan_id":"cebpf4jnsgd1na2vs0mg"},{"bike_id":"503e77ba-d207-4c9b-9afd-725500ea3736","system_id":"levelo_inurba_marseille","lat":43.282609,"lon":5.350579,"is_reserved":false,"is_disabled":false,"rental_uris":{"android":"levelo://app?vid=503e77ba-d207-4c9b-9afd-725500ea3736","ios":"levelo://app?vid=503e77ba-d207-4c9b-9afd-725500ea3736"},"vehicle_type_id":"4","last_reported":1748120908,"current_range_meters":14800,"station_id":"ce4bhbp2rcd13ifvqerg","pricing_plan_id":"cebpf4jnsgd1na2vs0mg"},{"bike_id":"2c9d4d00-7a63-473d-b55c-c423bc06eb22","system_id":"levelo_inurba_marseille","lat":43.30767,"lon":5.37652,"is_reserved":false,"is_disabled":false,"rental_uris":{"android":"levelo://app?vid=2c9d4d00-7a63-473d-b55c-c423bc06eb22","ios":"levelo://app?vid=2c9d4d00-7a63-473d-b55c-c423bc06eb22"},"vehicle_type_id":"4","last_reported":1748120908,"current_range_meters":14800,"station_id":"ce4bgv92rcd13ifvqcq0","pricing_plan_id":"cebpf4jnsgd1na2vs0mg"},{"bike_id":"ecb32243-b1ae-48ee-ba8a-a6b1ef5bb8ad","system_id":"levelo_inurba_marseille","lat":43.27303,"lon":5.39099,"is_reserved":false,"is_disabled":false,"rental_uris":{"android":"levelo://app?vid=ecb32243-b1ae-48ee-ba8a-a6b1ef5bb8ad","ios":"levelo://app?vid=ecb32243-b1ae-48ee-ba8a-a6b1ef5bb8ad"},"vehicle_type_id":"4","last_reported":1748120908,"current_range_meters":14800,"station_id":"ce4bhgp2rcd13ifvqfe0","pricing_plan_id":"cebpf4jnsgd1na2vs0mg"},{"bike_id":"20fd03bd-a9ff-4b5a-bc5b-c4e3713c6540","system_id":"levelo_inurba_marseille","lat":43.30936,"lon":5.4014,"is_reserved":false,"is_disabled":false,"rental_uris":{"android":"levelo://app?vid=20fd03bd-a9ff-4b5a-bc5b-c4e3713c6540","ios":"levelo://app?vid=20fd03bd-a9ff-4b5a-bc5b-c4e3713c6540"},"vehicle_type_id":"4","last_reported":1748120908,"current_range_meters":15200,"station_id":"ce4bgvp2rcd13ifvqct0","pricing_plan_id":"cebpf4jnsgd1na2vs0mg"},{"bike_id":"7dbbddf1-96d7-469a-9f36-3cdeeeafe558","system_id":"levelo_inurba_marseille","lat":43.27906,"lon":5.38002,"is_reserved":false,"is_disabled":false,"rental_uris":{"android":"levelo://app?vid=7dbbddf1-96d7-469a-9f36-3cdeeeafe558","ios":"levelo://app?vid=7dbbddf1-96d7-469a-9f36-3cdeeeafe558"},"vehicle_type_id":"4","last_reported":1748120908,"current_range_meters":15200,"station_id":"ce4bhf92rcd13ifvqf50","pricing_plan_id":"cebpf4jnsgd1na2vs0mg"},