{"last_updated":1781269273,"ttl":60,"version":"2.2","data":{"bikes":[{"bike_id":"ec12d144-24c8-4071-abf6-197e520eae96","system_id":"levelo_inurba_marseille","lat":43.337444,"lon":5.374475,"is_reserved":false,"is_disabled":false,"rental_uris":{"android":"levelo://app?vid=ec12d144-24c8-4071-abf6-197e520eae96","ios":"levelo://app?vid=ec12d144-24c8-4071-abf6-197e520eae96"},"vehicle_type_id":"4","last_reported":1781269274,"current_range_meters":0,"station_id":"","pricing_plan_id":"cebpf4jnsgd1na2vs0mg"},{"bike_id":"2dc346bf-588d-4797-bb77-22abfe24886e","system_id":"levelo_inurba_marseille","lat":43.29882,"lon":5.38903,"is_reserved":false,"is_disabled":false,"rental_uris":{"android":"levelo://app?vid=2dc346bf-588d-4797-bb77-22abfe24886e","ios":"levelo://app?vid=2dc346bf-588d-4797-bb77-22abfe24886e"},"vehicle_type_id":"4","last_reported":1781269274,"current_range_meters":2800,"station_id":"ce4bh392rcd13ifvqdl0","pricing_plan_id":"cebpf4jnsgd1na2vs0mg"},{"bike_id":"258d31b0-e32c-41fe-8446-bef258084246","system_id":"levelo_inurba_marseille","lat":43.31898,"lon":5.36818,"is_reserved":false,"is_disabled":false,"rental_uris":{"android":"levelo://app?vid=258d31b0-e32c-41fe-8446-bef258084246","ios":"levelo://app?vid=258d31b0-e32c-41fe-8446-bef258084246"},"vehicle_type_id":"4","last_reported":1781269274,"current_range_meters":2800,"station_id":"st_d6o2h0d0559c73evc1b0","pricing_plan_id":"cebpf4jnsgd1na2vs0mg"},{"bike_id":"a49e079e-56e5-45de-9def-f5d53e5437d9","system_id":"levelo_inurba_marseille","lat":43.28013,"lon":5.35393,"is_reserved":false,"is_disabled":false,"rental_uris":{"android":"levelo://app?vid=a49e079e-56e5-45de-9def-f5d53e5437d9","ios":"levelo://app?vid=a49e079e-56e5-45de-9def-f5d53e5437d9"},"vehicle_type_id":"4","last_reported":1781269274,"current_range_meters":2800,"station_id":"","pricing_plan_id":"cebpf4jnsgd1na2vs0mg"},{"bike_id":"a1daa9b4-ffcd-4f3a-8424-0ae0ded9e264","system_id":"levelo_inurba_marseille","lat":43.29273,"lon":5.38461,"is_reserved":false,"is_disabled":false,"rental_uris":{"android":"levelo://app?vid=a1daa9b4-ffcd-4f3a-8424-0ae0ded9e264","ios":"levelo://app?vid=a1daa9b4-ffcd-4f3a-8424-0ae0ded9e264"},"vehicle_type_id":"4","last_reported":1781269274,"current_range_meters":2800,"station_id":"ce4bh692rcd13ifvqea0","pricing_plan_id":"cebpf4jnsgd1na2vs0mg"},{"bike_id":"e47dfd39-5c0c-45eb-a41f-cf3fd7d5df32","system_id":"levelo_inurba_marseille","lat":43.28975,"lon":5.4611,"is_reserved":false,"is_disabled":true,"rental_uris":{"android":"levelo://app?vid=e47dfd39-5c0c-45eb-a41f-cf3fd7d5df32","ios":"levelo://app?vid=e47dfd39-5c0c-45eb-a41f-cf3fd7d5df32"},"vehicle_type_id":"4","last_reported":1781269274,"current_range_meters":2800,"station_id":"","pricing_plan_id":"cebpf4jnsgd1na2vs0mg"},{"bike_id":"c7e4dd65-c36b-4bdd-a7ed-7a1a867cae26","system_id":"levelo_inurba_marseille","lat":43.29029,"lon":5.35918,"is_reserved":false,"is_disabled":true,"rental_uris":{"android":"levelo://app?vid=c7e4dd65-c36b-4bdd-a7ed-7a1a867cae26","ios":"levelo://app?vid=c7e4dd65-c36b-4bdd-a7ed-7a1a867cae26"},"vehicle_type_id":"4","last_reported":1781269274,"current_range_meters":2800,"station_id":"ce4bha92rcd13ifvqeg0","pricing_plan_id":"cebpf4jnsgd1na2vs0mg"},{"bike_id":"8877cbfe-c174-4864-a2ef-3bd76abdd4a6","system_id":"levelo_inurba_marseille","lat":43.30493,"lon":5.3989,"is_reserved":false,"is_disabled":false,"rental_uris":{"android":"levelo://app?vid=8877cbfe-c174-4864-a2ef-3bd76abdd4a6","ios":"levelo://app?vid=8877cbfe-c174-4864-a2ef-3bd76abdd4a6"},"vehicle_type_id":"4","last_reported":1781269274,"current_range_meters":2800,"station_id":"","pricing_plan_id":"cebpf4jnsgd1na2vs0mg"},{"bike_id":"ee630227-b472-4a9b-99e9-bdd036978952","system_id":"levelo_inurba_marseille","lat":43.28564,"lon":5.39403,"is_reserved":false,"is_disabled":false,"rental_uris":{"android":"levelo://app?vid=ee630227-b472-4a9b-99e9-bdd036978952","ios":"levelo://app?vid=ee630227-b472-4a9b-99e9-bdd036978952"},"vehicle_type_id":"4","last_reported":1781269274,"current_range_meters":2800,"station_id":"","pricing_plan_id":"cebpf4jnsgd1na2vs0mg"},{"bike_id":"7c131e63-4882-494d-814c-185065bffc7c","system_id":"levelo_inurba_marseille","lat":43.28472,"lon":5.48409,"is_reserved":false,"is_disabled":false,"rental_uris":{"android":"levelo://app?vid=7c131e63-4882-494d-814c-185065bffc7c","ios":"levelo://app?vid=7c131e63-4882-494d-814c-185065bffc7c"},"vehicle_type_id":"4","last_reported":1781269274,"current_range_meters":2800,"station_id":"st_d3svhcjqgbts73a3dn0g","pricing_plan_id":"cebpf4jnsgd1na2vs0mg"},{"bike_id":"2a60fe51-56e3-47da-835a-b36be7fde9e0","system_id":"levelo_inurba_marseille","lat":43.28352,"lon":5.38639,"is_reserved":false,"is_disabled":false,"rental_uris":{"android":"levelo://app?vid=2a60fe51-56e3-47da-835a-b36be7fde9e0","ios":"levelo://app?vid=2a60fe51-56e3-47da-835a-b36be7fde9e0"},"vehicle_type_id":"4","last_reported":1781269274,"current_range_meters":2800,"station_id":"ce4bh492rcd13ifvqdvg","pricing_plan_id":"cebpf4jnsgd1na2vs0mg"},{"bike_id":"a239654b-ce81-41a6-84d9-c1affca88d7f","system_id":"levelo_inurba_marseille","lat":43.3088,"lon":5.3679,"is_reserved":false,"is_disabled":false,"rental_uris":{"android":"levelo://app?vid=a239654b-ce81-41a6-84d9-c1affca88d7f","ios":"levelo://app?vid=a239654b-ce81-41a6-84d9-c1affca88d7f"},"vehicle_type_id":"4","last_reported":1781269274,"current_range_meters":2800,"station_id":"","pricing_plan_id":"cebpf4jnsgd1na2vs0mg"},{"bike_id":"9f78c3d6-f61a-4b81-ae6f-53563c8463a8","system_id":"levelo_inurba_marseille","lat":43.28415,"lon":5.35005,"is_reserved":false,"is_disabled":false,"rental_uris":{"android":"levelo://app?vid=9f78c3d6-f61a-4b81-ae6f-53563c8463a8","ios":"levelo://app?vid=9f78c3d6-f61a-4b81-ae6f-53563c8463a8"},"vehicle_type_id":"4","last_reported":1781269274,"current_range_meters":2800,"station_id":"ce4bhbh2rcd13ifvqepg","pricing_plan_id":"cebpf4jnsgd1na2vs0mg"},{"bike_id":"ce06da4f-0abb-4844-94c0-6480ea5d9ebc","system_id":"levelo_inurba_marseille","lat":43.27621,"lon":5.36111,"is_reserved":false,"is_disabled":false,"rental_uris":{"android":"levelo://app?vid=ce06da4f-0abb-4844-94c0-6480ea5d9ebc","ios":"levelo://app?vid=ce06da4f-0abb-4844-94c0-6480ea5d9ebc"},"vehicle_type_id":"4","last_reported":1781269274,"current_range_meters":2800,"station_id":"ce4bgj92rcd13ifvqbe0","pricing_plan_id":"cebpf4jnsgd1na2vs0mg"},{"bike_id":"1d9aba81-dc29-4e2f-a7f3-244302318ea7","system_id":"levelo_inurba_marseille","lat":43.29923,"lon":5.36531,"is_reserved":false,"is_disabled":false,"rental_uris":{"android":"levelo://app?vid=1d9aba81-dc29-4e2f-a7f3-244302318ea7","ios":"levelo://app?vid=1d9aba81-dc29-4e2f-a7f3-244302318ea7"},"vehicle_type_id":"4","last_reported":1781269274,"current_range_meters":2800,"station_id":"ce4bgm92rcd13ifvqbr0","pricing_plan_id":"cebpf4jnsgd1na2vs0mg"},{"bike_id":"a5738529-d6fe-4d63-b356-4ef3c5027584","system_id":"levelo_inurba_marseille","lat":43.24944,"lon":5.39038,"is_reserved":false,"is_disabled":false,"rental_uris":{"android":"levelo://app?vid=a5738529-d6fe-4d63-b356-4ef3c5027584","ios":"levelo://app?vid=a5738529-d6fe-4d63-b356-4ef3c5027584"},"vehicle_type_id":"4","last_reported":1781269274,"current_range_meters":2800,"station_id":"","pricing_plan_id":"cebpf4jnsgd1na2vs0mg"},{"bike_id":"bb20635a-db21-489b-a839-5a22a356ad64","system_id":"levelo_inurba_marseille","lat":43.27926,"lon":5.39601,"is_reserved":false,"is_disabled":false,"rental_uris":{"android":"levelo://app?vid=bb20635a-db21-489b-a839-5a22a356ad64","ios":"levelo://app?vid=bb20635a-db21-489b-a839-5a22a356ad64"},"vehicle_type_id":"4","last_reported":1781269274,"current_range_meters":2800,"station_id":"ce4bhf92rcd13ifvqf40","pricing_plan_id":"cebpf4jnsgd1na2vs0mg"},{"bike_id":"654ca94f-5549-4d2e-b545-6a4ac8b3dbac","system_id":"levelo_inurba_marseille","lat":43.28621,"lon":5.35112,"is_reserved":false,"is_disabled":false,"rental_uris":{"android":"levelo://app?vid=654ca94f-5549-4d2e-b545-6a4ac8b3dbac","ios":"levelo://app?vid=654ca94f-5549-4d2e-b545-6a4ac8b3dbac"},"vehicle_type_id":"4","last_reported":1781269274,"current_range_meters":2800,"station_id":"ce4bhch2rcd13ifvqeug","pricing_plan_id":"cebpf4jnsgd1na2vs0mg"},{"bike_id":"a81cc586-398f-49c7-9878-25a874d53640","system_id":"levelo_inurba_marseille","lat":43.28406,"lon":5.34979,"is_reserved":false,"is_disabled":false,"rental_uris":{"android":"levelo://app?vid=a81cc586-398f-49c7-9878-25a874d53640","ios":"levelo://app?vid=a81cc586-398f-49c7-9878-25a874d53640"},"vehicle_type_id":"4","last_reported":1781269274,"current_range_meters":3200,"station_id":"ce4bhbh2rcd13ifvqepg","pricing_plan_id":"cebpf4jnsgd1na2vs0mg"},{"bike_id":"ead06185-83ad-46af-bbf8-3154a394a502","system_id":"levelo_inurba_marseille","lat":43.28863,"lon":5.38267,"is_reserved":false,"is_disabled":false,"rental_uris":{"android":"levelo://app?vid=ead06185-83ad-46af-bbf8-3154a394a502","ios":"levelo://app?vid=ead06185-83ad-46af-bbf8-3154a394a502"},"vehicle_type_id":"4","last_reported":1781269274,"current_range_meters":3200,"station_id":"","pricing_plan_id":"cebpf4jnsgd1na2vs0mg"},{"bike_id":"581eb976-4601-4f87-b521-f567cf030906","system_id":"levelo_inurba_marseille","lat":43.2393,"lon":5.43795,"is_reserved":false,"is_disabled":false,"rental_uris":{"android":"levelo://app?vid=581eb976-4601-4f87-b521-f567cf030906","ios":"levelo://app?vid=581eb976-4601-4f87-b521-f567cf030906"},"vehicle_type_id":"4","last_reported":1781269274,"current_range_meters":3200,"station_id":"","pricing_plan_id":"cebpf4jnsgd1na2vs0mg"},{"bike_id":"6bcc356f-7f69-45b4-a42f-c8af24594173","system_id":"levelo_inurba_marseille","lat":43.29639,"lon":5.38104,"is_reserved":false,"is_disabled":false,"rental_uris":{"android":"levelo://app?vid=6bcc356f-7f69-45b4-a42f-c8af24594173","ios":"levelo://app?vid=6bcc356f-7f69-45b4-a42f-c8af24594173"},"vehicle_type_id":"4","last_reported":1781269274,"current_range_meters":3200,"station_id":"ce4bgl12rcd13ifvqbo0","pricing_plan_id":"cebpf4jnsgd1na2vs0mg"},{"bike_id":"d41058f5-ac34-4dcb-a344-1cd03c388f49","system_id":"levelo_inurba_marseille","lat":43.27379,"lon":5.3626,"is_reserved":false,"is_disabled":false,"rental_uris":{"android":"levelo://app?vid=d41058f5-ac34-4dcb-a344-1cd03c388f49","ios":"levelo://app?vid=d41058f5-ac34-4dcb-a344-1cd03c388f49"},"vehicle_type_id":"4","last_reported":1781269274,"current_range_meters":3200,"station_id":"ce4bhbh2rcd13ifvqeo0","pricing_plan_id":"cebpf4jnsgd1na2vs0mg"},{"bike_id":"7d697069-780e-4659-8b0f-5679ab0c3df7","system_id":"levelo_inurba_marseille","lat":43.22561,"lon":5.41649,"is_reserved":false,"is_disabled":false,"rental_uris":{"android":"levelo://app?vid=7d697069-780e-4659-8b0f-5679ab0c3df7","ios":"levelo://app?vid=7d697069-780e-4659-8b0f-5679ab0c3df7"},"vehicle_type_id":"4","last_reported":1781269274,"current_range_meters":3200,"station_id":"st_d2o4gvlbi1j2169b742g","pricing_plan_id":"cebpf4jnsgd1na2vs0mg"},{"bike_id":"6d3f63cb-a28f-48c4-9bd2-acdc23f51035","system_id":"levelo_inurba_marseille","lat":43.25505,"lon":5.37674,"is_reserved":false,"is_disabled":false,"rental_uris":{"android":"levelo://app?vid=6d3f63cb-a28f-48c4-9bd2-acdc23f51035","ios":"levelo://app?vid=6d3f63cb-a28f-48c4-9bd2-acdc23f51035"},"vehicle_type_id":"4","last_reported":1781269274,"current_range_meters":3200,"station_id":"ce4bhh12rcd13ifvqff0","pricing_plan_id":"cebpf4jnsgd1na2vs0mg"},{"bike_id":"562552a8-7975-48cf-8a09-94b772a25cda","system_id":"levelo_inurba_marseille","lat":43.23895,"lon":5.37459,"is_reserved":false,"is_disabled":false,"rental_uris":{"android":"levelo://app?vid=562552a8-7975-48cf-8a09-94b772a25cda","ios":"levelo://app?vid=562552a8-7975-48cf-8a09-94b772a25cda"},"vehicle_type_id":"4","last_reported":1781269274,"current_range_meters":3200,"station_id":"st_d6sm7csbq4hs73f8fpjg","pricing_plan_id":"cebpf4jnsgd1na2vs0mg"},{"bike_id":"0ee1632c-7e18-4f9e-9544-38be50a1272b","system_id":"levelo_inurba_marseille","lat":43.27806,"lon":5.40725,"is_reserved":false,"is_disabled":false,"rental_uris":{"android":"levelo://app?vid=0ee1632c-7e18-4f9e-9544-38be50a1272b","ios":"levelo://app?vid=0ee1632c-7e18-4f9e-9544-38be50a1272b"},"vehicle_type_id":"4","last_reported":1781269274,"current_range_meters":3200,"station_id":"ce4bhnh2rcd13ifvqgtg","pricing_plan_id":"cebpf4jnsgd1na2vs0mg"},{"bike_id":"c35c008e-e48c-4c3f-84dd-ece9706c66cc","system_id":"levelo_inurba_marseille","lat":43.24396,"lon":5.37066,"is_reserved":false,"is_disabled":false,"rental_uris":{"android":"levelo://app?vid=c35c008e-e48c-4c3f-84dd-ece9706c66cc","ios":"levelo://app?vid=c35c008e-e48c-4c3f-84dd-ece9706c66cc"},"vehicle_type_id":"4","last_reported":1781269274,"current_range_meters":3200,"station_id":"ce4bhhh2rcd13ifvqfk0","pricing_plan_id":"cebpf4jnsgd1na2vs0mg"},{"bike_id":"46134b5c-3b24-436c-b44a-7bd4d8a551d5","system_id":"levelo_inurba_marseille","lat":43.2992,"lon":5.38157,"is_reserved":false,"is_disabled":false,"rental_uris":{"android":"levelo://app?vid=46134b5c-3b24-436c-b44a-7bd4d8a551d5","ios":"levelo://app?vid=46134b5c-3b24-436c-b44a-7bd4d8a551d5"},"vehicle_type_id":"4","last_reported":1781269274,"current_range_meters":3200,"station_id":"ce4bgj12rcd13ifvqbc0","pricing_plan_id":"cebpf4jnsgd1na2vs0mg"},{"bike_id":"464ab973-7dfe-40f2-ae4e-9602b854a492","system_id":"levelo_inurba_marseille","lat":43.23961,"lon":5.36627,"is_reserved":false,"is_disabled":false,"rental_uris":{"android":"levelo://app?vid=464ab973-7dfe-40f2-ae4e-9602b854a492","ios":"levelo://app?vid=464ab973-7dfe-40f2-ae4e-9602b854a492"},"vehicle_type_id":"4","last_reported":1781269274,"current_range_meters":3200,"station_id":"ce4bhi12rcd13ifvqfp0","pricing_plan_id":"cebpf4jnsgd1na2vs0mg"},{"bike_id":"53a98141-68fa-4114-ac30-be2197263a61","system_id":"levelo_inurba_marseille","lat":43.290763,"lon":5.371556,"is_reserved":false,"is_disabled":false,"rental_uris":{"android":"levelo://app?vid=53a98141-68fa-4114-ac30-be2197263a61","ios":"levelo://app?vid=53a98141-68fa-4114-ac30-be2197263a61"},"vehicle_type_id":"4","last_reported":1781269274,"current_range_meters":3200,"station_id":"ce4bh5p2rcd13ifvqe4g","pricing_plan_id":"cebpf4jnsgd1na2vs0mg"},{"bike_id":"b6c79bca-6aea-4b6b-84cb-4b40964343d5","system_id":"levelo_inurba_marseille","lat":43.29285,"lon":5.40127,"is_reserved":false,"is_disabled":false,"rental_uris":{"android":"levelo://app?vid=b6c79bca-6aea-4b6b-84cb-4b40964343d5","ios":"levelo://app?vid=b6c79bca-6aea-4b6b-84cb-4b40964343d5"},"vehicle_type_id":"4","last_reported":1781269274,"current_range_meters":3200,"station_id":"ce4bh312rcd13ifvqdk0","pricing_plan_id":"cebpf4jnsgd1na2vs0mg"},{"bike_id":"643a5108-6712-460c-84ac-96a9e310c2a1","system_id":"levelo_inurba_marseille","lat":43.32344,"lon":5.36744,"is_reserved":false,"is_disabled":false,"rental_uris":{"android":"levelo://app?vid=643a5108-6712-460c-84ac-96a9e310c2a1","ios":"levelo://app?vid=643a5108-6712-460c-84ac-96a9e310c2a1"},"vehicle_type_id":"4","last_reported":1781269274,"current_range_meters":3600,"station_id":"ce4bhsh2rcd13ifvqi2g","pricing_plan_id":"cebpf4jnsgd1na2vs0mg"},{"bike_id":"b2ad6388-0d4f-4e9c-8ff3-f1ad38b97382","system_id":"levelo_inurba_marseille","lat":43.27676,"lon":5.42441,"is_reserved":false,"is_disabled":false,"rental_uris":{"android":"levelo://app?vid=b2ad6388-0d4f-4e9c-8ff3-f1ad38b97382","ios":"levelo://app?vid=b2ad6388-0d4f-4e9c-8ff3-f1ad38b97382"},"vehicle_type_id":"4","last_reported":1781269274,"current_range_meters":3600,"station_id":"","pricing_plan_id":"cebpf4jnsgd1na2vs0mg"},{"bike_id":"89045bac-5db9-4edf-ae8e-f81a7bc39e2d","system_id":"levelo_inurba_marseille","lat":43.27619,"lon":5.36119,"is_reserved":false,"is_disabled":false,"rental_uris":{"android":"levelo://app?vid=89045bac-5db9-4edf-ae8e-f81a7bc39e2d","ios":"levelo://app?vid=89045bac-5db9-4edf-ae8e-f81a7bc39e2d"},"vehicle_type_id":"4","last_reported":1781269274,"current_range_meters":3600,"station_id":"ce4bgj92rcd13ifvqbe0","pricing_plan_id":"cebpf4jnsgd1na2vs0mg"},{"bike_id":"0a743a51-5728-422c-8a96-f69476a8f4cb","system_id":"levelo_inurba_marseille","lat":43.27608,"lon":5.36121,"is_reserved":false,"is_disabled":false,"rental_uris":{"android":"levelo://app?vid=0a743a51-5728-422c-8a96-f69476a8f4cb","ios":"levelo://app?vid=0a743a51-5728-422c-8a96-f69476a8f4cb"},"vehicle_type_id":"4","last_reported":1781269274,"current_range_meters":3600,"station_id":"ce4bgj92rcd13ifvqbe0","pricing_plan_id":"cebpf4jnsgd1na2vs0mg"},{"bike_id":"a65e9c17-c994-468a-b5ce-849022b5326f","system_id":"levelo_inurba_marseille","lat":43.26955,"lon":5.38644,"is_reserved":false,"is_disabled":false,"rental_uris":{"android":"levelo://app?vid=a65e9c17-c994-468a-b5ce-849022b5326f","ios":"levelo://app?vid=a65e9c17-c994-468a-b5ce-849022b5326f"},"vehicle_type_id":"4","last_reported":1781269274,"current_range_meters":3600,"station_id":"ce4bhh92rcd13ifvqfh0","pricing_plan_id":"cebpf4jnsgd1na2vs0mg"},{"bike_id":"31a0e0b2-8ec5-4970-9c32-6bb245100c8f","system_id":"levelo_inurba_marseille","lat":43.27014,"lon":5.364795,"is_reserved":false,"is_disabled":false,"rental_uris":{"android":"levelo://app?vid=31a0e0b2-8ec5-4970-9c32-6bb245100c8f","ios":"levelo://app?vid=31a0e0b2-8ec5-4970-9c32-6bb245100c8f"},"vehicle_type_id":"4","last_reported":1781269274,"current_range_meters":3600,"station_id":"ce4bhg12rcd13ifvqf70","pricing_plan_id":"cebpf4jnsgd1na2vs0mg"},{"bike_id":"a5fe7e0e-bd7a-41d3-a96b-57f5c8a201f7","system_id":"levelo_inurba_marseille","lat":43.22932,"lon":5.353788,"is_reserved":false,"is_disabled":false,"rental_uris":{"android":"levelo://app?vid=a5fe7e0e-bd7a-41d3-a96b-57f5c8a201f7","ios":"levelo://app?vid=a5fe7e0e-bd7a-41d3-a96b-57f5c8a201f7"},"vehicle_type_id":"4","last_reported":1781269274,"current_range_meters":3600,"station_id":"cpo3532slgdg3j2ikp40","pricing_plan_id":"cebpf4jnsgd1na2vs0mg"},{"bike_id":"7d670955-2936-440c-bd70-613ec77c1cc0","system_id":"levelo_inurba_marseille","lat":43.26208,"lon":5.37441,"is_reserved":false,"is_disabled":false,"rental_uris":{"android":"levelo://app?vid=7d670955-2936-440c-bd70-613ec77c1cc0","ios":"levelo://app?vid=7d670955-2936-440c-bd70-613ec77c1cc0"},"vehicle_type_id":"4","last_reported":1781269274,"current_range_meters":3600,"station_id":"ce4bhgp2rcd13ifvqfc0","pricing_plan_id":"cebpf4jnsgd1na2vs0mg"},{"bike_id":"dec3a6d0-d1d6-4b02-a66e-5f2756e5a29a","system_id":"levelo_inurba_marseille","lat":43.29792,"lon":5.37087,"is_reserved":false,"is_disabled":false,"rental_uris":{"android":"levelo://app?vid=dec3a6d0-d1d6-4b02-a66e-5f2756e5a29a","ios":"levelo://app?vid=dec3a6d0-d1d6-4b02-a66e-5f2756e5a29a"},"vehicle_type_id":"4","last_reported":1781269274,"current_range_meters":3600,"station_id":"ce4bgop2rcd13ifvqc1g","pricing_plan_id":"cebpf4jnsgd1na2vs0mg"},{"bike_id":"5680690f-d7e8-4486-baa8-a87a68cf1146","system_id":"levelo_inurba_marseille","lat":43.27381,"lon":5.36256,"is_reserved":false,"is_disabled":false,"rental_uris":{"android":"levelo://app?vid=5680690f-d7e8-4486-baa8-a87a68cf1146","ios":"levelo://app?vid=5680690f-d7e8-4486-baa8-a87a68cf1146"},"vehicle_type_id":"4","last_reported":1781269274,"current_range_meters":3600,"station_id":"ce4bhbh2rcd13ifvqeo0","pricing_plan_id":"cebpf4jnsgd1na2vs0mg"},{"bike_id":"89d7f188-0768-48c5-8893-81665ae3581c","system_id":"levelo_inurba_marseille","lat":43.29703,"lon":5.36617,"is_reserved":false,"is_disabled":false,"rental_uris":{"android":"levelo://app?vid=89d7f188-0768-48c5-8893-81665ae3581c","ios":"levelo://app?vid=89d7f188-0768-48c5-8893-81665ae3581c"},"vehicle_type_id":"4","last_reported":1781269274,"current_range_meters":3600,"station_id":"ce4bgn12rcd13ifvqbt0","pricing_plan_id":"cebpf4jnsgd1na2vs0mg"},{"bike_id":"bad8a0f8-6bba-49dd-9ec1-8cff4b205dfa","system_id":"levelo_inurba_marseille","lat":43.30386,"lon":5.41917,"is_reserved":false,"is_disabled":false,"rental_uris":{"android":"levelo://app?vid=bad8a0f8-6bba-49dd-9ec1-8cff4b205dfa","ios":"levelo://app?vid=bad8a0f8-6bba-49dd-9ec1-8cff4b205dfa"},"vehicle_type_id":"4","last_reported":1781269274,"current_range_meters":3600,"station_id":"ce4bhop2rcd13ifvqh7g","pricing_plan_id":"cebpf4jnsgd1na2vs0mg"},{"bike_id":"758b8575-bd39-4c4b-83ba-b708bb22f91d","system_id":"levelo_inurba_marseille","lat":43.27558,"lon":5.35957,"is_reserved":false,"is_disabled":false,"rental_uris":{"android":"levelo://app?vid=758b8575-bd39-4c4b-83ba-b708bb22f91d","ios":"levelo://app?vid=758b8575-bd39-4c4b-83ba-b708bb22f91d"},"vehicle_type_id":"4","last_reported":1781269274,"current_range_meters":3600,"station_id":"","pricing_plan_id":"cebpf4jnsgd1na2vs0mg"},{"bike_id":"136f22dd-7519-4f19-a44c-ea3115340aea","system_id":"levelo_inurba_marseille","lat":43.30465,"lon":5.37892,"is_reserved":false,"is_disabled":false,"rental_uris":{"android":"levelo://app?vid=136f22dd-7519-4f19-a44c-ea3115340aea","ios":"levelo://app?vid=136f22dd-7519-4f19-a44c-ea3115340aea"},"vehicle_type_id":"4","last_reported":1781269274,"current_range_meters":3600,"station_id":"ce4bgup2rcd13ifvqcn0","pricing_plan_id":"cebpf4jnsgd1na2vs0mg"},{"bike_id":"548ca3f8-bc2d-46ba-bbc0-fa615c1c43dc","system_id":"levelo_inurba_marseille","lat":43.276682,"lon":5.388784,"is_reserved":false,"is_disabled":true,"rental_uris":{"android":"levelo://app?vid=548ca3f8-bc2d-46ba-bbc0-fa615c1c43dc","ios":"levelo://app?vid=548ca3f8-bc2d-46ba-bbc0-fa615c1c43dc"},"vehicle_type_id":"4","last_reported":1781269274,"current_range_meters":3600,"station_id":"ce4bhi12rcd13ifvqfo0","pricing_plan_id":"cebpf4jnsgd1na2vs0mg"},{"bike_id":"8184427b-bea5-4494-bb32-41fffc6d9711","system_id":"levelo_inurba_marseille","lat":43.25562,"lon":5.38226,"is_reserved":false,"is_disabled":true,"rental_uris":{"android":"levelo://app?vid=8184427b-bea5-4494-bb32-41fffc6d9711","ios":"levelo://app?vid=8184427b-bea5-4494-bb32-41fffc6d9711"},"vehicle_type_id":"4","last_reported":1781269274,"current_range_meters":3600,"station_id":"ce4bhih2rcd13ifvqfs0","pricing_plan_id":"cebpf4jnsgd1na2vs0mg"},{"bike_id":"7aea4b5c-efe6-4787-b2e5-64383b5273bc","system_id":"levelo_inurba_marseille","lat":43.28328,"lon":5.39004,"is_reserved":false,"is_disabled":false,"rental_uris":{"android":"levelo://app?vid=7aea4b5c-efe6-4787-b2e5-64383b5273bc","ios":"levelo://app?vid=7aea4b5c-efe6-4787-b2e5-64383b5273bc"},"vehicle_type_id":"4","last_reported":1781269274,"current_range_meters":3600,"station_id":"","pricing_plan_id":"cebpf4jnsgd1na2vs0mg"},{"bike_id":"32e65dbb-64c4-4911-9176-a4e011b0a593","system_id":"levelo_inurba_marseille","lat":43.28673,"lon":5.42654,"is_reserved":false,"is_disabled":false,"rental_uris":{"android":"levelo://app?vid=32e65dbb-64c4-4911-9176-a4e011b0a593","ios":"levelo://app?vid=32e65dbb-64c4-4911-9176-a4e011b0a593"},"vehicle_type_id":"4","last_reported":1781269274,"current_range_meters":3600,"station_id":"","pricing_plan_id":"cebpf4jnsgd1na2vs0mg"},{"bike_id":"16fc5c50-b32d-467d-a087-385e882b41f1","system_id":"levelo_inurba_marseille","lat":43.29279,"lon":5.40121,"is_reserved":false,"is_disabled":false,"rental_uris":{"android":"levelo://app?vid=16fc5c50-b32d-467d-a087-385e882b41f1","ios":"levelo://app?vid=16fc5c50-b32d-467d-a087-385e882b41f1"},"vehicle_type_id":"4","last_reported":1781269274,"current_range_meters":3600,"station_id":"ce4bh312rcd13ifvqdk0","pricing_plan_id":"cebpf4jnsgd1na2vs0mg"},{"bike_id":"dbbedb1b-931f-4a09-acff-e8e913774b7f","system_id":"levelo_inurba_marseille","lat":43.24805,"lon":5.37456,"is_reserved":false,"is_disabled":false,"rental_uris":{"android":"levelo://app?vid=dbbedb1b-931f-4a09-acff-e8e913774b7f","ios":"levelo://app?vid=dbbedb1b-931f-4a09-acff-e8e913774b7f"},"vehicle_type_id":"4","last_reported":1781269274,"current_range_meters":3600,"station_id":"ce4bhgh2rcd13ifvqfb0","pricing_plan_id":"cebpf4jnsgd1na2vs0mg"},{"bike_id":"cdb51552-946c-4f57-8807-f1cfa55d450c","system_id":"levelo_inurba_marseille","lat":43.31509,"lon":5.37285,"is_reserved":false,"is_disabled":true,"rental_uris":{"android":"levelo://app?vid=cdb51552-946c-4f57-8807-f1cfa55d450c","ios":"levelo://app?vid=cdb51552-946c-4f57-8807-f1cfa55d450c"},"vehicle_type_id":"4","last_reported":1781269274,"current_range_meters":3600,"station_id":"ce4bgt12rcd13ifvqcd0","pricing_plan_id":"cebpf4jnsgd1na2vs0mg"},{"bike_id":"e188c6a9-f807-4a81-98aa-654f43cf275d","system_id":"levelo_inurba_marseille","lat":43.30459,"lon":5.37928,"is_reserved":false,"is_disabled":false,"rental_uris":{"android":"levelo://app?vid=e188c6a9-f807-4a81-98aa-654f43cf275d","ios":"levelo://app?vid=e188c6a9-f807-4a81-98aa-654f43cf275d"},"vehicle_type_id":"4","last_reported":1781269274,"current_range_meters":3600,"station_id":"ce4bgup2rcd13ifvqcn0","pricing_plan_id":"cebpf4jnsgd1na2vs0mg"},{"bike_id":"266ec30c-1814-4588-91c6-57767b3c43b4","system_id":"levelo_inurba_marseille","lat":43.29436,"lon":5.39763,"is_reserved":false,"is_disabled":false,"rental_uris":{"android":"levelo://app?vid=266ec30c-1814-4588-91c6-57767b3c43b4","ios":"levelo://app?vid=266ec30c-1814-4588-91c6-57767b3c43b4"},"vehicle_type_id":"4","last_reported":1781269274,"current_range_meters":4000,"station_id":"ce4bh3h2rcd13ifvqdo0","pricing_plan_id":"cebpf4jnsgd1na2vs0mg"},{"bike_id":"3279c3c6-7a1b-4db0-bda8-489e9add2323","system_id":"levelo_inurba_marseille","lat":43.25578,"lon":5.38245,"is_reserved":false,"is_disabled":true,"rental_uris":{"android":"levelo://app?vid=3279c3c6-7a1b-4db0-bda8-489e9add2323","ios":"levelo://app?vid=3279c3c6-7a1b-4db0-bda8-489e9add2323"},"vehicle_type_id":"4","last_reported":1781269274,"current_range_meters":4000,"station_id":"ce4bhih2rcd13ifvqfs0","pricing_plan_id":"cebpf4jnsgd1na2vs0mg"},{"bike_id":"2e41d0d3-9e86-4c08-89a6-e0a70cc8ae89","system_id":"levelo_inurba_marseille","lat":43.29248,"lon":5.38251,"is_reserved":false,"is_disabled":true,"rental_uris":{"android":"levelo://app?vid=2e41d0d3-9e86-4c08-89a6-e0a70cc8ae89","ios":"levelo://app?vid=2e41d0d3-9e86-4c08-89a6-e0a70cc8ae89"},"vehicle_type_id":"4","last_reported":1781269274,"current_range_meters":4000,"station_id":"","pricing_plan_id":"cebpf4jnsgd1na2vs0mg"},{"bike_id":"5ac28b06-af05-4d8b-a509-2f5043908588","system_id":"levelo_inurba_marseille","lat":43.23461,"lon":5.36893,"is_reserved":false,"is_disabled":false,"rental_uris":{"android":"levelo://app?vid=5ac28b06-af05-4d8b-a509-2f5043908588","ios":"levelo://app?vid=5ac28b06-af05-4d8b-a509-2f5043908588"},"vehicle_type_id":"4","last_reported":1781269274,"current_range_meters":4000,"station_id":"","pricing_plan_id":"cebpf4jnsgd1na2vs0mg"},{"bike_id":"889d857d-9558-474a-a32f-eaaaeccefc27","system_id":"levelo_inurba_marseille","lat":43.26815,"lon":5.40264,"is_reserved":false,"is_disabled":false,"rental_uris":{"android":"levelo://app?vid=889d857d-9558-474a-a32f-eaaaeccefc27","ios":"levelo://app?vid=889d857d-9558-474a-a32f-eaaaeccefc27"},"vehicle_type_id":"4","last_reported":1781269274,"current_range_meters":4000,"station_id":"ce501612rcd8frsf0b60","pricing_plan_id":"cebpf4jnsgd1na2vs0mg"},{"bike_id":"39008bdd-ec06-4509-aef5-6005174c0c03","system_id":"levelo_inurba_marseille","lat":43.27942,"lon":5.38514,"is_reserved":false,"is_disabled":false,"rental_uris":{"android":"levelo://app?vid=39008bdd-ec06-4509-aef5-6005174c0c03","ios":"levelo://app?vid=39008bdd-ec06-4509-aef5-6005174c0c03"},"vehicle_type_id":"4","last_reported":1781269274,"current_range_meters":4000,"station_id":"","pricing_plan_id":"cebpf4jnsgd1na2vs0mg"},{"bike_id":"8859d173-9f5d-4e39-86ed-34ec86a90175","system_id":"levelo_inurba_marseille","lat":43.29918,"lon":5.42783,"is_reserved":false,"is_disabled":false,"rental_uris":{"android":"levelo://app?vid=8859d173-9f5d-4e39-86ed-34ec86a90175","ios":"levelo://app?vid=8859d173-9f5d-4e39-86ed-34ec86a90175"},"vehicle_type_id":"4","last_reported":1781269274,"current_range_meters":4000,"station_id":"","pricing_plan_id":"cebpf4jnsgd1na2vs0mg"},{"bike_id":"f165abb2-7744-4ffb-b278-55e94862d529","system_id":"levelo_inurba_marseille","lat":43.25558,"lon":5.39184,"is_reserved":false,"is_disabled":false,"rental_uris":{"android":"levelo://app?vid=f165abb2-7744-4ffb-b278-55e94862d529","ios":"levelo://app?vid=f165abb2-7744-4ffb-b278-55e94862d529"},"vehicle_type_id":"4","last_reported":1781269274,"current_range_meters":4000,"station_id":"","pricing_plan_id":"cebpf4jnsgd1na2vs0mg"},{"bike_id":"62a15211-3ffa-4f6b-b376-36dec31d28a7","system_id":"levelo_inurba_marseille","lat":43.29263,"lon":5.3845,"is_reserved":false,"is_disabled":false,"rental_uris":{"android":"levelo://app?vid=62a15211-3ffa-4f6b-b376-36dec31d28a7","ios":"levelo://app?vid=62a15211-3ffa-4f6b-b376-36dec31d28a7"},"vehicle_type_id":"4","last_reported":1781269274,"current_range_meters":4000,"station_id":"ce4bh692rcd13ifvqea0","pricing_plan_id":"cebpf4jnsgd1na2vs0mg"},{"bike_id":"db1b1f97-c0a9-4ed5-be1f-4ca9ebc34814","system_id":"levelo_inurba_marseille","lat":43.2862,"lon":5.35108,"is_reserved":false,"is_disabled":false,"rental_uris":{"android":"levelo://app?vid=db1b1f97-c0a9-4ed5-be1f-4ca9ebc34814","ios":"levelo://app?vid=db1b1f97-c0a9-4ed5-be1f-4ca9ebc34814"},"vehicle_type_id":"4","last_reported":1781269274,"current_range_meters":4000,"station_id":"ce4bhch2rcd13ifvqeug","pricing_plan_id":"cebpf4jnsgd1na2vs0mg"},{"bike_id":"d09cb43f-131e-4f11-9d0c-8e9b166be59b","system_id":"levelo_inurba_marseille","lat":43.30078,"lon":5.39054,"is_reserved":false,"is_disabled":false,"rental_uris":{"android":"levelo://app?vid=d09cb43f-131e-4f11-9d0c-8e9b166be59b","ios":"levelo://app?vid=d09cb43f-131e-4f11-9d0c-8e9b166be59b"},"vehicle_type_id":"4","last_reported":1781269274,"current_range_meters":4000,"station_id":"ce4bh192rcd13ifvqdb0","pricing_plan_id":"cebpf4jnsgd1na2vs0mg"},{"bike_id":"1c0ed2bd-a800-409d-84c4-ac3736b20ea0","system_id":"levelo_inurba_marseille","lat":43.31531,"lon":5.38043,"is_reserved":false,"is_disabled":false,"rental_uris":{"android":"levelo://app?vid=1c0ed2bd-a800-409d-84c4-ac3736b20ea0","ios":"levelo://app?vid=1c0ed2bd-a800-409d-84c4-ac3736b20ea0"},"vehicle_type_id":"4","last_reported":1781269274,"current_range_meters":4000,"station_id":"ce4bhsp2rcd13ifvqi50","pricing_plan_id":"cebpf4jnsgd1na2vs0mg"},{"bike_id":"4e72084a-746e-4a59-ba7b-b7676843ea62","system_id":"levelo_inurba_marseille","lat":43.28414,"lon":5.34998,"is_reserved":false,"is_disabled":false,"rental_uris":{"android":"levelo://app?vid=4e72084a-746e-4a59-ba7b-b7676843ea62","ios":"levelo://app?vid=4e72084a-746e-4a59-ba7b-b7676843ea62"},"vehicle_type_id":"4","last_reported":1781269274,"current_range_meters":4000,"station_id":"ce4bhbh2rcd13ifvqepg","pricing_plan_id":"cebpf4jnsgd1na2vs0mg"},{"bike_id":"8682f4e8-0798-4b4f-8fef-c4dc002ea1c8","system_id":"levelo_inurba_marseille","lat":43.29145,"lon":5.46118,"is_reserved":false,"is_disabled":false,"rental_uris":{"android":"levelo://app?vid=8682f4e8-0798-4b4f-8fef-c4dc002ea1c8","ios":"levelo://app?vid=8682f4e8-0798-4b4f-8fef-c4dc002ea1c8"},"vehicle_type_id":"4","last_reported":1781269274,"current_range_meters":4000,"station_id":"","pricing_plan_id":"cebpf4jnsgd1na2vs0mg"},{"bike_id":"69a699b4-09a1-466c-b082-aae47a7461bd","system_id":"levelo_inurba_marseille","lat":43.27995,"lon":5.41668,"is_reserved":false,"is_disabled":false,"rental_uris":{"android":"levelo://app?vid=69a699b4-09a1-466c-b082-aae47a7461bd","ios":"levelo://app?vid=69a699b4-09a1-466c-b082-aae47a7461bd"},"vehicle_type_id":"4","last_reported":1781269274,"current_range_meters":4000,"station_id":"ce4bho12rcd13ifvqh1g","pricing_plan_id":"cebpf4jnsgd1na2vs0mg"},{"bike_id":"dd60785d-8896-4a2e-ae51-f8ac5a078eb9","system_id":"levelo_inurba_marseille","lat":43.27618,"lon":5.36129,"is_reserved":false,"is_disabled":false,"rental_uris":{"android":"levelo://app?vid=dd60785d-8896-4a2e-ae51-f8ac5a078eb9","ios":"levelo://app?vid=dd60785d-8896-4a2e-ae51-f8ac5a078eb9"},"vehicle_type_id":"4","last_reported":1781269274,"current_range_meters":4000,"station_id":"ce4bgj92rcd13ifvqbe0","pricing_plan_id":"cebpf4jnsgd1na2vs0mg"},{"bike_id":"75248494-6e46-4c4b-92d2-9db9ddbe9016","system_id":"levelo_inurba_marseille","lat":43.28479,"lon":5.48396,"is_reserved":false,"is_disabled":false,"rental_uris":{"android":"levelo://app?vid=75248494-6e46-4c4b-92d2-9db9ddbe9016","ios":"levelo://app?vid=75248494-6e46-4c4b-92d2-9db9ddbe9016"},"vehicle_type_id":"4","last_reported":1781269274,"current_range_meters":4000,"station_id":"st_d3svhcjqgbts73a3dn0g","pricing_plan_id":"cebpf4jnsgd1na2vs0mg"},{"bike_id":"216e856e-229a-4998-9698-f2699480ab86","system_id":"levelo_inurba_marseille","lat":43.31034,"lon":5.37209,"is_reserved":false,"is_disabled":false,"rental_uris":{"android":"levelo://app?vid=216e856e-229a-4998-9698-f2699480ab86","ios":"levelo://app?vid=216e856e-229a-4998-9698-f2699480ab86"},"vehicle_type_id":"4","last_reported":1781269274,"current_range_meters":4000,"station_id":"st_d4kl2rp97mjs73e7tdfg","pricing_plan_id":"cebpf4jnsgd1na2vs0mg"},{"bike_id":"b69da2de-bbdc-4fd7-82a0-458a8b12a3e4","system_id":"levelo_inurba_marseille","lat":43.25502,"lon":5.37646,"is_reserved":false,"is_disabled":true,"rental_uris":{"android":"levelo://app?vid=b69da2de-bbdc-4fd7-82a0-458a8b12a3e4","ios":"levelo://app?vid=b69da2de-bbdc-4fd7-82a0-458a8b12a3e4"},"vehicle_type_id":"4","last_reported":1781269274,"current_range_meters":4400,"station_id":"ce4bhh12rcd13ifvqff0","pricing_plan_id":"cebpf4jnsgd1na2vs0mg"},{"bike_id":"6d2d7aea-8197-4351-a1e7-ab2920572530","system_id":"levelo_inurba_marseille","lat":43.28483,"lon":5.38429,"is_reserved":false,"is_disabled":false,"rental_uris":{"android":"levelo://app?vid=6d2d7aea-8197-4351-a1e7-ab2920572530","ios":"levelo://app?vid=6d2d7aea-8197-4351-a1e7-ab2920572530"},"vehicle_type_id":"4","last_reported":1781269274,"current_range_meters":4400,"station_id":"ce4bh512rcd13ifvqe3g","pricing_plan_id":"cebpf4jnsgd1na2vs0mg"},{"bike_id":"977075a4-40dc-4723-a526-d5ddfecea214","system_id":"levelo_inurba_marseille","lat":43.24949,"lon":5.40498,"is_reserved":false,"is_disabled":false,"rental_uris":{"android":"levelo://app?vid=977075a4-40dc-4723-a526-d5ddfecea214","ios":"levelo://app?vid=977075a4-40dc-4723-a526-d5ddfecea214"},"vehicle_type_id":"4","last_reported":1781269274,"current_range_meters":4400,"station_id":"st_d2ngiaodas8pm72gd1h0","pricing_plan_id":"cebpf4jnsgd1na2vs0mg"},{"bike_id":"3643eb2e-b0e4-40f6-9aa2-b567c4963540","system_id":"levelo_inurba_marseille","lat":43.32103,"lon":5.36778,"is_reserved":false,"is_disabled":false,"rental_uris":{"android":"levelo://app?vid=3643eb2e-b0e4-40f6-9aa2-b567c4963540","ios":"levelo://app?vid=3643eb2e-b0e4-40f6-9aa2-b567c4963540"},"vehicle_type_id":"4","last_reported":1781269274,"current_range_meters":4400,"station_id":"ce4bhrh2rcd13ifvqhug","pricing_plan_id":"cebpf4jnsgd1na2vs0mg"},{"bike_id":"f4604c3b-a56a-425f-8d90-3b8e1f77f859","system_id":"levelo_inurba_marseille","lat":43.31353,"lon":5.38503,"is_reserved":false,"is_disabled":false,"rental_uris":{"android":"levelo://app?vid=f4604c3b-a56a-425f-8d90-3b8e1f77f859","ios":"levelo://app?vid=f4604c3b-a56a-425f-8d90-3b8e1f77f859"},"vehicle_type_id":"4","last_reported":1781269274,"current_range_meters":4400,"station_id":"ce4bgt92rcd13ifvqcf0","pricing_plan_id":"cebpf4jnsgd1na2vs0mg"},{"bike_id":"f0818b5d-42d0-4804-9926-1b5efffc7a77","system_id":"levelo_inurba_marseille","lat":43.26219,"lon":5.37476,"is_reserved":false,"is_disabled":false,"rental_uris":{"android":"levelo://app?vid=f0818b5d-42d0-4804-9926-1b5efffc7a77","ios":"levelo://app?vid=f0818b5d-42d0-4804-9926-1b5efffc7a77"},"vehicle_type_id":"4","last_reported":1781269274,"current_range_meters":4400,"station_id":"ce4bhgp2rcd13ifvqfc0","pricing_plan_id":"cebpf4jnsgd1na2vs0mg"},{"bike_id":"5a32e3c4-aa37-4f1f-9095-8e30bf757278","system_id":"levelo_inurba_marseille","lat":43.26567,"lon":5.40329,"is_reserved":false,"is_disabled":false,"rental_uris":{"android":"levelo://app?vid=5a32e3c4-aa37-4f1f-9095-8e30bf757278","ios":"levelo://app?vid=5a32e3c4-aa37-4f1f-9095-8e30bf757278"},"vehicle_type_id":"4","last_reported":1781269274,"current_range_meters":4400,"station_id":"ce4bhmp2rcd13ifvqgng","pricing_plan_id":"cebpf4jnsgd1na2vs0mg"},{"bike_id":"bc2b2d38-4e6b-4745-9f8c-8aeb4fe1e3b9","system_id":"levelo_inurba_marseille","lat":43.28622,"lon":5.35162,"is_reserved":false,"is_disabled":false,"rental_uris":{"android":"levelo://app?vid=bc2b2d38-4e6b-4745-9f8c-8aeb4fe1e3b9","ios":"levelo://app?vid=bc2b2d38-4e6b-4745-9f8c-8aeb4fe1e3b9"},"vehicle_type_id":"4","last_reported":1781269274,"current_range_meters":4400,"station_id":"ce4bhch2rcd13ifvqeug","pricing_plan_id":"cebpf4jnsgd1na2vs0mg"},{"bike_id":"b6d507f5-c915-4915-8d1e-3c84726370da","system_id":"levelo_inurba_marseille","lat":43.32105,"lon":5.36737,"is_reserved":false,"is_disabled":false,"rental_uris":{"android":"levelo://app?vid=b6d507f5-c915-4915-8d1e-3c84726370da","ios":"levelo://app?vid=b6d507f5-c915-4915-8d1e-3c84726370da"},"vehicle_type_id":"4","last_reported":1781269274,"current_range_meters":4400,"station_id":"ce4bhrh2rcd13ifvqhug","pricing_plan_id":"cebpf4jnsgd1na2vs0mg"},{"bike_id":"f63e0e69-6a54-4e19-8d8e-f67680de3ed1","system_id":"levelo_inurba_marseille","lat":43.24635,"lon":5.43176,"is_reserved":false,"is_disabled":false,"rental_uris":{"android":"levelo://app?vid=f63e0e69-6a54-4e19-8d8e-f67680de3ed1","ios":"levelo://app?vid=f63e0e69-6a54-4e19-8d8e-f67680de3ed1"},"vehicle_type_id":"4","last_reported":1781269274,"current_range_meters":4400,"station_id":"st_d2m6c4gdas8pm72e190g","pricing_plan_id":"cebpf4jnsgd1na2vs0mg"},{"bike_id":"e4d243a8-a6d5-40b7-bc61-ad821b7c3b9f","system_id":"levelo_inurba_marseille","lat":43.23154,"lon":5.43706,"is_reserved":false,"is_disabled":false,"rental_uris":{"android":"levelo://app?vid=e4d243a8-a6d5-40b7-bc61-ad821b7c3b9f","ios":"levelo://app?vid=e4d243a8-a6d5-40b7-bc61-ad821b7c3b9f"},"vehicle_type_id":"4","last_reported":1781269274,"current_range_meters":4400,"station_id":"ce4bhmp2rcd13ifvqgog","pricing_plan_id":"cebpf4jnsgd1na2vs0mg"},{"bike_id":"5f721a5f-ca5a-4420-932f-15b3fc7dcc90","system_id":"levelo_inurba_marseille","lat":43.31033,"lon":5.37156,"is_reserved":false,"is_disabled":false,"rental_uris":{"android":"levelo://app?vid=5f721a5f-ca5a-4420-932f-15b3fc7dcc90","ios":"levelo://app?vid=5f721a5f-ca5a-4420-932f-15b3fc7dcc90"},"vehicle_type_id":"4","last_reported":1781269274,"current_range_meters":4400,"station_id":"st_d4kl2rp97mjs73e7tdfg","pricing_plan_id":"cebpf4jnsgd1na2vs0mg"},{"bike_id":"95936fb9-6643-4bdd-8b1f-c4ea9a60a36a","system_id":"levelo_inurba_marseille","lat":43.26221,"lon":5.3878,"is_reserved":false,"is_disabled":false,"rental_uris":{"android":"levelo://app?vid=95936fb9-6643-4bdd-8b1f-c4ea9a60a36a","ios":"levelo://app?vid=95936fb9-6643-4bdd-8b1f-c4ea9a60a36a"},"vehicle_type_id":"4","last_reported":1781269274,"current_range_meters":4400,"station_id":"st_d8gjfg747rts73coq3b0","pricing_plan_id":"cebpf4jnsgd1na2vs0mg"},{"bike_id":"2507d607-3822-4c87-a669-ab9b0690fc01","system_id":"levelo_inurba_marseille","lat":43.28618,"lon":5.35093,"is_reserved":false,"is_disabled":false,"rental_uris":{"android":"levelo://app?vid=2507d607-3822-4c87-a669-ab9b0690fc01","ios":"levelo://app?vid=2507d607-3822-4c87-a669-ab9b0690fc01"},"vehicle_type_id":"4","last_reported":1781269274,"current_range_meters":4400,"station_id":"ce4bhch2rcd13ifvqeug","pricing_plan_id":"cebpf4jnsgd1na2vs0mg"},{"bike_id":"63dbdc45-35d4-4618-aba5-207467753bb9","system_id":"levelo_inurba_marseille","lat":43.30161,"lon":5.38083,"is_reserved":false,"is_disabled":false,"rental_uris":{"android":"levelo://app?vid=63dbdc45-35d4-4618-aba5-207467753bb9","ios":"levelo://app?vid=63dbdc45-35d4-4618-aba5-207467753bb9"},"vehicle_type_id":"4","last_reported":1781269274,"current_range_meters":4400,"station_id":"ce4bgjp2rcd13ifvqbh0","pricing_plan_id":"cebpf4jnsgd1na2vs0mg"},{"bike_id":"39285ea7-aa81-42dc-a362-b941b9752b0d","system_id":"levelo_inurba_marseille","lat":43.28617,"lon":5.35121,"is_reserved":false,"is_disabled":false,"rental_uris":{"android":"levelo://app?vid=39285ea7-aa81-42dc-a362-b941b9752b0d","ios":"levelo://app?vid=39285ea7-aa81-42dc-a362-b941b9752b0d"},"vehicle_type_id":"4","last_reported":1781269274,"current_range_meters":4400,"station_id":"ce4bhch2rcd13ifvqeug","pricing_plan_id":"cebpf4jnsgd1na2vs0mg"},{"bike_id":"e9ce25b8-b480-4907-8ce1-b8aecfbb3105","system_id":"levelo_inurba_marseille","lat":43.32333,"lon":5.36722,"is_reserved":false,"is_disabled":false,"rental_uris":{"android":"levelo://app?vid=e9ce25b8-b480-4907-8ce1-b8aecfbb3105","ios":"levelo://app?vid=e9ce25b8-b480-4907-8ce1-b8aecfbb3105"},"vehicle_type_id":"4","last_reported":1781269274,"current_range_meters":4400,"station_id":"ce4bhsh2rcd13ifvqi2g","pricing_plan_id":"cebpf4jnsgd1na2vs0mg"},{"bike_id":"5e42809e-e480-4191-8127-093097b8b4b2","system_id":"levelo_inurba_marseille","lat":43.24804,"lon":5.37462,"is_reserved":false,"is_disabled":false,"rental_uris":{"android":"levelo://app?vid=5e42809e-e480-4191-8127-093097b8b4b2","ios":"levelo://app?vid=5e42809e-e480-4191-8127-093097b8b4b2"},"vehicle_type_id":"4","last_reported":1781269274,"current_range_meters":4400,"station_id":"ce4bhgh2rcd13ifvqfb0","pricing_plan_id":"cebpf4jnsgd1na2vs0mg"},{"bike_id":"14e3ef24-a961-4d00-9086-77d7b011aac7","system_id":"levelo_inurba_marseille","lat":43.32362,"lon":5.3674,"is_reserved":false,"is_disabled":false,"rental_uris":{"android":"levelo://app?vid=14e3ef24-a961-4d00-9086-77d7b011aac7","ios":"levelo://app?vid=14e3ef24-a961-4d00-9086-77d7b011aac7"},"vehicle_type_id":"4","last_reported":1781269274,"current_range_meters":4400,"station_id":"ce4bhsh2rcd13ifvqi2g","pricing_plan_id":"cebpf4jnsgd1na2vs0mg"},{"bike_id":"a253093c-afeb-4f1c-a762-6320cbca0897","system_id":"levelo_inurba_marseille","lat":43.301373,"lon":5.387798,"is_reserved":false,"is_disabled":false,"rental_uris":{"android":"levelo://app?vid=a253093c-afeb-4f1c-a762-6320cbca0897","ios":"levelo://app?vid=a253093c-afeb-4f1c-a762-6320cbca0897"},"vehicle_type_id":"4","last_reported":1781269274,"current_range_meters":4400,"station_id":"ce4bghh2rcd13ifvqb60","pricing_plan_id":"cebpf4jnsgd1na2vs0mg"},{"bike_id":"190af51e-6184-4793-a801-2133293f26d5","system_id":"levelo_inurba_marseille","lat":43.28957,"lon":5.37813,"is_reserved":false,"is_disabled":false,"rental_uris":{"android":"levelo://app?vid=190af51e-6184-4793-a801-2133293f26d5","ios":"levelo://app?vid=190af51e-6184-4793-a801-2133293f26d5"},"vehicle_type_id":"4","last_reported":1781269274,"current_range_meters":4400,"station_id":"ce4bh9p2rcd13ifvqed0","pricing_plan_id":"cebpf4jnsgd1na2vs0mg"},{"bike_id":"2a192182-021b-439d-a0e2-993561972500","system_id":"levelo_inurba_marseille","lat":43.225345,"lon":5.348271,"is_reserved":false,"is_disabled":false,"rental_uris":{"android":"levelo://app?vid=2a192182-021b-439d-a0e2-993561972500","ios":"levelo://app?vid=2a192182-021b-439d-a0e2-993561972500"},"vehicle_type_id":"4","last_reported":1781269274,"current_range_meters":4800,"station_id":"st_cvj5dfep6f1abm77gieg","pricing_plan_id":"cebpf4jnsgd1na2vs0mg"},{"bike_id":"2a9074db-1b00-4a15-aa53-b6ac9c6c2cea","system_id":"levelo_inurba_marseille","lat":43.30557,"lon":5.3654,"is_reserved":false,"is_disabled":false,"rental_uris":{"android":"levelo://app?vid=2a9074db-1b00-4a15-aa53-b6ac9c6c2cea","ios":"levelo://app?vid=2a9074db-1b00-4a15-aa53-b6ac9c6c2cea"},"vehicle_type_id":"4","last_reported":1781269274,"current_range_meters":4800,"station_id":"ce4bgs12rcd13ifvqcag","pricing_plan_id":"cebpf4jnsgd1na2vs0mg"},{"bike_id":"2e26d0e9-aca9-4cbe-acea-6ca83db1a561","system_id":"levelo_inurba_marseille","lat":43.297053,"lon":5.376977,"is_reserved":false,"is_disabled":false,"rental_uris":{"android":"levelo://app?vid=2e26d0e9-aca9-4cbe-acea-6ca83db1a561","ios":"levelo://app?vid=2e26d0e9-aca9-4cbe-acea-6ca83db1a561"},"vehicle_type_id":"4","last_reported":1781269274,"current_range_meters":4800,"station_id":"ce4bh392rcd13ifvqdm0","pricing_plan_id":"cebpf4jnsgd1na2vs0mg"},{"bike_id":"2366217b-2311-462f-b791-c94659157e08","system_id":"levelo_inurba_marseille","lat":43.29038,"lon":5.38625,"is_reserved":false,"is_disabled":false,"rental_uris":{"android":"levelo://app?vid=2366217b-2311-462f-b791-c94659157e08","ios":"levelo://app?vid=2366217b-2311-462f-b791-c94659157e08"},"vehicle_type_id":"4","last_reported":1781269274,"current_range_meters":4800,"station_id":"ce4bh4p2rcd13ifvqe0g","pricing_plan_id":"cebpf4jnsgd1na2vs0mg"},{"bike_id":"7bce1ea7-3f87-4d5d-bc6a-823171141685","system_id":"levelo_inurba_marseille","lat":43.28275,"lon":5.35079,"is_reserved":false,"is_disabled":false,"rental_uris":{"android":"levelo://app?vid=7bce1ea7-3f87-4d5d-bc6a-823171141685","ios":"levelo://app?vid=7bce1ea7-3f87-4d5d-bc6a-823171141685"},"vehicle_type_id":"4","last_reported":1781269274,"current_range_meters":4800,"station_id":"ce4bhbp2rcd13ifvqerg","pricing_plan_id":"cebpf4jnsgd1na2vs0mg"},{"bike_id":"40de0209-043c-4ed6-84c3-7ac1da5cf58d","system_id":"levelo_inurba_marseille","lat":43.32108,"lon":5.36785,"is_reserved":false,"is_disabled":false,"rental_uris":{"android":"levelo://app?vid=40de0209-043c-4ed6-84c3-7ac1da5cf58d","ios":"levelo://app?vid=40de0209-043c-4ed6-84c3-7ac1da5cf58d"},"vehicle_type_id":"4","last_reported":1781269274,"current_range_meters":4800,"station_id":"ce4bhrh2rcd13ifvqhug","pricing_plan_id":"cebpf4jnsgd1na2vs0mg"},{"bike_id":"aad842e8-0a4c-4ec6-9ab3-c076e0e13392","system_id":"levelo_inurba_marseille","lat":43.30147,"lon":5.38063,"is_reserved":false,"is_disabled":false,"rental_uris":{"android":"levelo://app?vid=aad842e8-0a4c-4ec6-9ab3-c076e0e13392","ios":"levelo://app?vid=aad842e8-0a4c-4ec6-9ab3-c076e0e13392"},"vehicle_type_id":"4","last_reported":1781269274,"current_range_meters":4800,"station_id":"ce4bgjp2rcd13ifvqbh0","pricing_plan_id":"cebpf4jnsgd1na2vs0mg"},{"bike_id":"c0d320b2-c6c8-4a32-af90-5a880f6f9c10","system_id":"levelo_inurba_marseille","lat":43.284088,"lon":5.349749,"is_reserved":false,"is_disabled":false,"rental_uris":{"android":"levelo://app?vid=c0d320b2-c6c8-4a32-af90-5a880f6f9c10","ios":"levelo://app?vid=c0d320b2-c6c8-4a32-af90-5a880f6f9c10"},"vehicle_type_id":"4","last_reported":1781269274,"current_range_meters":4800,"station_id":"ce4bhbh2rcd13ifvqepg","pricing_plan_id":"cebpf4jnsgd1na2vs0mg"},{"bike_id":"559f0721-de4a-4484-b84b-929a8b701e70","system_id":"levelo_inurba_marseille","lat":43.29757,"lon":5.37112,"is_reserved":false,"is_disabled":false,"rental_uris":{"android":"levelo://app?vid=559f0721-de4a-4484-b84b-929a8b701e70","ios":"levelo://app?vid=559f0721-de4a-4484-b84b-929a8b701e70"},"vehicle_type_id":"4","last_reported":1781269274,"current_range_meters":4800,"station_id":"ce4bgop2rcd13ifvqc1g","pricing_plan_id":"cebpf4jnsgd1na2vs0mg"},{"bike_id":"03dc5480-e687-466e-8f4b-f08bf4766fe6","system_id":"levelo_inurba_marseille","lat":43.31703,"lon":5.40456,"is_reserved":false,"is_disabled":false,"rental_uris":{"android":"levelo://app?vid=03dc5480-e687-466e-8f4b-f08bf4766fe6","ios":"levelo://app?vid=03dc5480-e687-466e-8f4b-f08bf4766fe6"},"vehicle_type_id":"4","last_reported":1781269274,"current_range_meters":4800,"station_id":"ce4bh012rcd13ifvqd00","pricing_plan_id":"cebpf4jnsgd1na2vs0mg"},{"bike_id":"3371e92b-963a-4ab0-918d-9217e8fd09be","system_id":"levelo_inurba_marseille","lat":43.28374,"lon":5.36737,"is_reserved":false,"is_disabled":false,"rental_uris":{"android":"levelo://app?vid=3371e92b-963a-4ab0-918d-9217e8fd09be","ios":"levelo://app?vid=3371e92b-963a-4ab0-918d-9217e8fd09be"},"vehicle_type_id":"4","last_reported":1781269274,"current_range_meters":4800,"station_id":"","pricing_plan_id":"cebpf4jnsgd1na2vs0mg"},{"bike_id":"3a44773b-a64a-45f6-9197-56969bf49878","system_id":"levelo_inurba_marseille","lat":43.29706,"lon":5.37055,"is_reserved":false,"is_disabled":false,"rental_uris":{"android":"levelo://app?vid=3a44773b-a64a-45f6-9197-56969bf49878","ios":"levelo://app?vid=3a44773b-a64a-45f6-9197-56969bf49878"},"vehicle_type_id":"4","last_reported":1781269274,"current_range_meters":4800,"station_id":"","pricing_plan_id":"cebpf4jnsgd1na2vs0mg"},{"bike_id":"3e73c5a2-4804-44b5-ba1c-3fe6b2a90310","system_id":"levelo_inurba_marseille","lat":43.307976,"lon":5.381575,"is_reserved":false,"is_disabled":false,"rental_uris":{"android":"levelo://app?vid=3e73c5a2-4804-44b5-ba1c-3fe6b2a90310","ios":"levelo://app?vid=3e73c5a2-4804-44b5-ba1c-3fe6b2a90310"},"vehicle_type_id":"4","last_reported":1781269274,"current_range_meters":4800,"station_id":"ce4bgt12rcd13ifvqce0","pricing_plan_id":"cebpf4jnsgd1na2vs0mg"},{"bike_id":"e3ff2784-0550-43ac-8006-f84b117fdca1","system_id":"levelo_inurba_marseille","lat":43.29523,"lon":5.3854,"is_reserved":false,"is_disabled":false,"rental_uris":{"android":"levelo://app?vid=e3ff2784-0550-43ac-8006-f84b117fdca1","ios":"levelo://app?vid=e3ff2784-0550-43ac-8006-f84b117fdca1"},"vehicle_type_id":"4","last_reported":1781269274,"current_range_meters":4800,"station_id":"ce4bgih2rcd13ifvqba0","pricing_plan_id":"cebpf4jnsgd1na2vs0mg"},{"bike_id":"11546da5-115b-4022-9334-b51d35bfff66","system_id":"levelo_inurba_marseille","lat":43.27891,"lon":5.4174,"is_reserved":false,"is_disabled":false,"rental_uris":{"android":"levelo://app?vid=11546da5-115b-4022-9334-b51d35bfff66","ios":"levelo://app?vid=11546da5-115b-4022-9334-b51d35bfff66"},"vehicle_type_id":"4","last_reported":1781269274,"current_range_meters":4800,"station_id":"ce4bho12rcd13ifvqh1g","pricing_plan_id":"cebpf4jnsgd1na2vs0mg"},{"bike_id":"2ca137e5-3ca8-4479-9cac-39265871a0b1","system_id":"levelo_inurba_marseille","lat":43.27875,"lon":5.42453,"is_reserved":false,"is_disabled":false,"rental_uris":{"android":"levelo://app?vid=2ca137e5-3ca8-4479-9cac-39265871a0b1","ios":"levelo://app?vid=2ca137e5-3ca8-4479-9cac-39265871a0b1"},"vehicle_type_id":"4","last_reported":1781269274,"current_range_meters":4800,"station_id":"","pricing_plan_id":"cebpf4jnsgd1na2vs0mg"},{"bike_id":"b1718be7-cd8e-4220-9590-c5ef2a138c18","system_id":"levelo_inurba_marseille","lat":43.255,"lon":5.37674,"is_reserved":false,"is_disabled":false,"rental_uris":{"android":"levelo://app?vid=b1718be7-cd8e-4220-9590-c5ef2a138c18","ios":"levelo://app?vid=b1718be7-cd8e-4220-9590-c5ef2a138c18"},"vehicle_type_id":"4","last_reported":1781269274,"current_range_meters":4800,"station_id":"ce4bhh12rcd13ifvqff0","pricing_plan_id":"cebpf4jnsgd1na2vs0mg"},{"bike_id":"40877921-cf64-4231-b6a7-7f65220da3fe","system_id":"levelo_inurba_marseille","lat":43.29614,"lon":5.38113,"is_reserved":false,"is_disabled":true,"rental_uris":{"android":"levelo://app?vid=40877921-cf64-4231-b6a7-7f65220da3fe","ios":"levelo://app?vid=40877921-cf64-4231-b6a7-7f65220da3fe"},"vehicle_type_id":"4","last_reported":1781269274,"current_range_meters":5600,"station_id":"ce4bgl12rcd13ifvqbo0","pricing_plan_id":"cebpf4jnsgd1na2vs0mg"},{"bike_id":"5da2ce83-f48c-49bc-bc5d-ebae8bf85b2b","system_id":"levelo_inurba_marseille","lat":43.28279,"lon":5.35054,"is_reserved":false,"is_disabled":false,"rental_uris":{"android":"levelo://app?vid=5da2ce83-f48c-49bc-bc5d-ebae8bf85b2b","ios":"levelo://app?vid=5da2ce83-f48c-49bc-bc5d-ebae8bf85b2b"},"vehicle_type_id":"4","last_reported":1781269274,"current_range_meters":5600,"station_id":"ce4bhbp2rcd13ifvqerg","pricing_plan_id":"cebpf4jnsgd1na2vs0mg"},{"bike_id":"8808880d-833a-4356-9e36-512138b411a8","system_id":"levelo_inurba_marseille","lat":43.28394,"lon":5.34959,"is_reserved":false,"is_disabled":false,"rental_uris":{"android":"levelo://app?vid=8808880d-833a-4356-9e36-512138b411a8","ios":"levelo://app?vid=8808880d-833a-4356-9e36-512138b411a8"},"vehicle_type_id":"4","last_reported":1781269274,"current_range_meters":5600,"station_id":"ce4bhbh2rcd13ifvqepg","pricing_plan_id":"cebpf4jnsgd1na2vs0mg"},{"bike_id":"593d76ab-504c-4c86-9c15-883a0882a604","system_id":"levelo_inurba_marseille","lat":43.28483,"lon":5.38406,"is_reserved":false,"is_disabled":false,"rental_uris":{"android":"levelo://app?vid=593d76ab-504c-4c86-9c15-883a0882a604","ios":"levelo://app?vid=593d76ab-504c-4c86-9c15-883a0882a604"},"vehicle_type_id":"4","last_reported":1781269274,"current_range_meters":5600,"station_id":"ce4bh512rcd13ifvqe3g","pricing_plan_id":"cebpf4jnsgd1na2vs0mg"},{"bike_id":"75c05d49-8a94-417a-8869-c0d0e40ea54f","system_id":"levelo_inurba_marseille","lat":43.28699,"lon":5.37946,"is_reserved":false,"is_disabled":false,"rental_uris":{"android":"levelo://app?vid=75c05d49-8a94-417a-8869-c0d0e40ea54f","ios":"levelo://app?vid=75c05d49-8a94-417a-8869-c0d0e40ea54f"},"vehicle_type_id":"4","last_reported":1781269274,"current_range_meters":5600,"station_id":"ce4bh9p2rcd13ifvqec0","pricing_plan_id":"cebpf4jnsgd1na2vs0mg"},{"bike_id":"c8b4cd61-c65e-4f22-8ff7-164cb39c423a","system_id":"levelo_inurba_marseille","lat":43.30413,"lon":5.41289,"is_reserved":false,"is_disabled":false,"rental_uris":{"android":"levelo://app?vid=c8b4cd61-c65e-4f22-8ff7-164cb39c423a","ios":"levelo://app?vid=c8b4cd61-c65e-4f22-8ff7-164cb39c423a"},"vehicle_type_id":"4","last_reported":1781269274,"current_range_meters":5600,"station_id":"ce4bhop2rcd13ifvqh8g","pricing_plan_id":"cebpf4jnsgd1na2vs0mg"},{"bike_id":"86980992-c341-4d42-9003-5f417602c220","system_id":"levelo_inurba_marseille","lat":43.29598,"lon":5.38012,"is_reserved":false,"is_disabled":false,"rental_uris":{"android":"levelo://app?vid=86980992-c341-4d42-9003-5f417602c220","ios":"levelo://app?vid=86980992-c341-4d42-9003-5f417602c220"},"vehicle_type_id":"4","last_reported":1781269274,"current_range_meters":5600,"station_id":"","pricing_plan_id":"cebpf4jnsgd1na2vs0mg"},{"bike_id":"8b6b68f1-e508-4aca-8408-2e25b4d6ced5","system_id":"levelo_inurba_marseille","lat":43.21197,"lon":5.35074,"is_reserved":false,"is_disabled":false,"rental_uris":{"android":"levelo://app?vid=8b6b68f1-e508-4aca-8408-2e25b4d6ced5","ios":"levelo://app?vid=8b6b68f1-e508-4aca-8408-2e25b4d6ced5"},"vehicle_type_id":"4","last_reported":1781269274,"current_range_meters":5600,"station_id":"st_cvj6sg6p6f1abm77japg","pricing_plan_id":"cebpf4jnsgd1na2vs0mg"},{"bike_id":"f333f164-61ec-4160-845d-706e469795ef","system_id":"levelo_inurba_marseille","lat":43.30946,"lon":5.39037,"is_reserved":false,"is_disabled":false,"rental_uris":{"android":"levelo://app?vid=f333f164-61ec-4160-845d-706e469795ef","ios":"levelo://app?vid=f333f164-61ec-4160-845d-706e469795ef"},"vehicle_type_id":"4","last_reported":1781269274,"current_range_meters":5600,"station_id":"ce4bgup2rcd13ifvqco0","pricing_plan_id":"cebpf4jnsgd1na2vs0mg"},{"bike_id":"1f04f4f4-dd8c-4f11-9ad3-e901cb5a9171","system_id":"levelo_inurba_marseille","lat":43.28258,"lon":5.35074,"is_reserved":false,"is_disabled":false,"rental_uris":{"android":"levelo://app?vid=1f04f4f4-dd8c-4f11-9ad3-e901cb5a9171","ios":"levelo://app?vid=1f04f4f4-dd8c-4f11-9ad3-e901cb5a9171"},"vehicle_type_id":"4","last_reported":1781269274,"current_range_meters":5600,"station_id":"ce4bhbp2rcd13ifvqerg","pricing_plan_id":"cebpf4jnsgd1na2vs0mg"},{"bike_id":"fdc21814-149a-410f-b193-382784505a0f","system_id":"levelo_inurba_marseille","lat":43.2378,"lon":5.36616,"is_reserved":false,"is_disabled":false,"rental_uris":{"android":"levelo://app?vid=fdc21814-149a-410f-b193-382784505a0f","ios":"levelo://app?vid=fdc21814-149a-410f-b193-382784505a0f"},"vehicle_type_id":"4","last_reported":1781269274,"current_range_meters":5600,"station_id":"st_d3nk18o9ro0c73en2l3g","pricing_plan_id":"cebpf4jnsgd1na2vs0mg"},{"bike_id":"90f8f679-21ba-45f4-87f3-79468aeeabc5","system_id":"levelo_inurba_marseille","lat":43.319,"lon":5.36804,"is_reserved":false,"is_disabled":false,"rental_uris":{"android":"levelo://app?vid=90f8f679-21ba-45f4-87f3-79468aeeabc5","ios":"levelo://app?vid=90f8f679-21ba-45f4-87f3-79468aeeabc5"},"vehicle_type_id":"4","last_reported":1781269274,"current_range_meters":5600,"station_id":"st_d6o2h0d0559c73evc1b0","pricing_plan_id":"cebpf4jnsgd1na2vs0mg"},{"bike_id":"e7436c78-757e-40a0-b929-0dc503a10068","system_id":"levelo_inurba_marseille","lat":43.28401,"lon":5.34995,"is_reserved":false,"is_disabled":false,"rental_uris":{"android":"levelo://app?vid=e7436c78-757e-40a0-b929-0dc503a10068","ios":"levelo://app?vid=e7436c78-757e-40a0-b929-0dc503a10068"},"vehicle_type_id":"4","last_reported":1781269274,"current_range_meters":5600,"station_id":"ce4bhbh2rcd13ifvqepg","pricing_plan_id":"cebpf4jnsgd1na2vs0mg"},{"bike_id":"edd7f6cf-c00d-4334-ba4f-ddda86c6a12e","system_id":"levelo_inurba_marseille","lat":43.30269,"lon":5.37675,"is_reserved":false,"is_disabled":false,"rental_uris":{"android":"levelo://app?vid=edd7f6cf-c00d-4334-ba4f-ddda86c6a12e","ios":"levelo://app?vid=edd7f6cf-c00d-4334-ba4f-ddda86c6a12e"},"vehicle_type_id":"4","last_reported":1781269274,"current_range_meters":5600,"station_id":"ce4bguh2rcd13ifvqcj0","pricing_plan_id":"cebpf4jnsgd1na2vs0mg"},{"bike_id":"df0910d2-98e4-41b7-80c0-bc63c01fde5e","system_id":"levelo_inurba_marseille","lat":43.31334,"lon":5.43239,"is_reserved":false,"is_disabled":false,"rental_uris":{"android":"levelo://app?vid=df0910d2-98e4-41b7-80c0-bc63c01fde5e","ios":"levelo://app?vid=df0910d2-98e4-41b7-80c0-bc63c01fde5e"},"vehicle_type_id":"4","last_reported":1781269274,"current_range_meters":5600,"station_id":"","pricing_plan_id":"cebpf4jnsgd1na2vs0mg"},{"bike_id":"088a5444-f5d5-4beb-9db7-274b2519a022","system_id":"levelo_inurba_marseille","lat":43.31877,"lon":5.39994,"is_reserved":false,"is_disabled":false,"rental_uris":{"android":"levelo://app?vid=088a5444-f5d5-4beb-9db7-274b2519a022","ios":"levelo://app?vid=088a5444-f5d5-4beb-9db7-274b2519a022"},"vehicle_type_id":"4","last_reported":1781269274,"current_range_meters":5600,"station_id":"","pricing_plan_id":"cebpf4jnsgd1na2vs0mg"},{"bike_id":"30046d34-eca3-4fba-bf41-b633dac1b4c8","system_id":"levelo_inurba_marseille","lat":43.31879,"lon":5.39989,"is_reserved":false,"is_disabled":false,"rental_uris":{"android":"levelo://app?vid=30046d34-eca3-4fba-bf41-b633dac1b4c8","ios":"levelo://app?vid=30046d34-eca3-4fba-bf41-b633dac1b4c8"},"vehicle_type_id":"4","last_reported":1781269274,"current_range_meters":5600,"station_id":"","pricing_plan_id":"cebpf4jnsgd1na2vs0mg"},{"bike_id":"80994749-0925-4476-bc68-a69a7ec403b6","system_id":"levelo_inurba_marseille","lat":43.28254,"lon":5.35071,"is_reserved":false,"is_disabled":false,"rental_uris":{"android":"levelo://app?vid=80994749-0925-4476-bc68-a69a7ec403b6","ios":"levelo://app?vid=80994749-0925-4476-bc68-a69a7ec403b6"},"vehicle_type_id":"4","last_reported":1781269274,"current_range_meters":6000,"station_id":"ce4bhbp2rcd13ifvqerg","pricing_plan_id":"cebpf4jnsgd1na2vs0mg"},{"bike_id":"cb4a87f1-ecd2-4522-a840-5c2028883f08","system_id":"levelo_inurba_marseille","lat":43.28613,"lon":5.35121,"is_reserved":false,"is_disabled":false,"rental_uris":{"android":"levelo://app?vid=cb4a87f1-ecd2-4522-a840-5c2028883f08","ios":"levelo://app?vid=cb4a87f1-ecd2-4522-a840-5c2028883f08"},"vehicle_type_id":"4","last_reported":1781269274,"current_range_meters":6000,"station_id":"ce4bhch2rcd13ifvqeug","pricing_plan_id":"cebpf4jnsgd1na2vs0mg"},{"bike_id":"2569d490-0385-4986-85ff-b9b3c90c4a98","system_id":"levelo_inurba_marseille","lat":43.25337,"lon":5.42182,"is_reserved":false,"is_disabled":false,"rental_uris":{"android":"levelo://app?vid=2569d490-0385-4986-85ff-b9b3c90c4a98","ios":"levelo://app?vid=2569d490-0385-4986-85ff-b9b3c90c4a98"},"vehicle_type_id":"4","last_reported":1781269274,"current_range_meters":6000,"station_id":"st_d2m65c5bi1j21697t3ng","pricing_plan_id":"cebpf4jnsgd1na2vs0mg"},{"bike_id":"2874ce48-f8f4-4dbb-b03f-ff6f8a09643a","system_id":"levelo_inurba_marseille","lat":43.25504,"lon":5.37658,"is_reserved":false,"is_disabled":false,"rental_uris":{"android":"levelo://app?vid=2874ce48-f8f4-4dbb-b03f-ff6f8a09643a","ios":"levelo://app?vid=2874ce48-f8f4-4dbb-b03f-ff6f8a09643a"},"vehicle_type_id":"4","last_reported":1781269274,"current_range_meters":6000,"station_id":"ce4bhh12rcd13ifvqff0","pricing_plan_id":"cebpf4jnsgd1na2vs0mg"},{"bike_id":"06f6f709-d48a-4e8c-8309-97b0e932c239","system_id":"levelo_inurba_marseille","lat":43.309497,"lon":5.390434,"is_reserved":false,"is_disabled":false,"rental_uris":{"android":"levelo://app?vid=06f6f709-d48a-4e8c-8309-97b0e932c239","ios":"levelo://app?vid=06f6f709-d48a-4e8c-8309-97b0e932c239"},"vehicle_type_id":"4","last_reported":1781269274,"current_range_meters":6000,"station_id":"ce4bgup2rcd13ifvqco0","pricing_plan_id":"cebpf4jnsgd1na2vs0mg"},{"bike_id":"4443ac08-5611-4193-a907-350aae3b0387","system_id":"levelo_inurba_marseille","lat":43.29014,"lon":5.35595,"is_reserved":false,"is_disabled":false,"rental_uris":{"android":"levelo://app?vid=4443ac08-5611-4193-a907-350aae3b0387","ios":"levelo://app?vid=4443ac08-5611-4193-a907-350aae3b0387"},"vehicle_type_id":"4","last_reported":1781269274,"current_range_meters":6000,"station_id":"ce4bhb92rcd13ifvqen0","pricing_plan_id":"cebpf4jnsgd1na2vs0mg"},{"bike_id":"f7698676-1932-4dbf-ab9d-6c907c9bbe14","system_id":"levelo_inurba_marseille","lat":43.31886,"lon":5.37143,"is_reserved":false,"is_disabled":false,"rental_uris":{"android":"levelo://app?vid=f7698676-1932-4dbf-ab9d-6c907c9bbe14","ios":"levelo://app?vid=f7698676-1932-4dbf-ab9d-6c907c9bbe14"},"vehicle_type_id":"4","last_reported":1781269274,"current_range_meters":6000,"station_id":"","pricing_plan_id":"cebpf4jnsgd1na2vs0mg"},{"bike_id":"8afeb7a8-b686-4611-8220-2ade2d33c717","system_id":"levelo_inurba_marseille","lat":43.2961,"lon":5.377,"is_reserved":false,"is_disabled":true,"rental_uris":{"android":"levelo://app?vid=8afeb7a8-b686-4611-8220-2ade2d33c717","ios":"levelo://app?vid=8afeb7a8-b686-4611-8220-2ade2d33c717"},"vehicle_type_id":"4","last_reported":1781269274,"current_range_meters":6000,"station_id":"ce4bgi92rcd13ifvqb90","pricing_plan_id":"cebpf4jnsgd1na2vs0mg"},{"bike_id":"1f4db870-cf31-4d2c-805e-104dfb5bc01f","system_id":"levelo_inurba_marseille","lat":43.28045,"lon":5.35336,"is_reserved":false,"is_disabled":false,"rental_uris":{"android":"levelo://app?vid=1f4db870-cf31-4d2c-805e-104dfb5bc01f","ios":"levelo://app?vid=1f4db870-cf31-4d2c-805e-104dfb5bc01f"},"vehicle_type_id":"4","last_reported":1781269274,"current_range_meters":6000,"station_id":"","pricing_plan_id":"cebpf4jnsgd1na2vs0mg"},{"bike_id":"24f02d56-4cb2-4734-b396-c4353be9b86c","system_id":"levelo_inurba_marseille","lat":43.32107,"lon":5.36786,"is_reserved":false,"is_disabled":false,"rental_uris":{"android":"levelo://app?vid=24f02d56-4cb2-4734-b396-c4353be9b86c","ios":"levelo://app?vid=24f02d56-4cb2-4734-b396-c4353be9b86c"},"vehicle_type_id":"4","last_reported":1781269274,"current_range_meters":6000,"station_id":"ce4bhrh2rcd13ifvqhug","pricing_plan_id":"cebpf4jnsgd1na2vs0mg"},{"bike_id":"4c4e4427-8590-41c7-b3c8-cb442a151f84","system_id":"levelo_inurba_marseille","lat":43.27372,"lon":5.36265,"is_reserved":false,"is_disabled":false,"rental_uris":{"android":"levelo://app?vid=4c4e4427-8590-41c7-b3c8-cb442a151f84","ios":"levelo://app?vid=4c4e4427-8590-41c7-b3c8-cb442a151f84"},"vehicle_type_id":"4","last_reported":1781269274,"current_range_meters":6000,"station_id":"ce4bhbh2rcd13ifvqeo0","pricing_plan_id":"cebpf4jnsgd1na2vs0mg"},{"bike_id":"ee3dbdb1-06d0-48d5-be9e-bcf348336b15","system_id":"levelo_inurba_marseille","lat":43.21752,"lon":5.346,"is_reserved":false,"is_disabled":false,"rental_uris":{"android":"levelo://app?vid=ee3dbdb1-06d0-48d5-be9e-bcf348336b15","ios":"levelo://app?vid=ee3dbdb1-06d0-48d5-be9e-bcf348336b15"},"vehicle_type_id":"4","last_reported":1781269274,"current_range_meters":6000,"station_id":"st_cvj6r9ubvosntc0bgbag","pricing_plan_id":"cebpf4jnsgd1na2vs0mg"},{"bike_id":"61d1814e-b763-4f9d-b945-71f47264a896","system_id":"levelo_inurba_marseille","lat":43.29878,"lon":5.38906,"is_reserved":false,"is_disabled":false,"rental_uris":{"android":"levelo://app?vid=61d1814e-b763-4f9d-b945-71f47264a896","ios":"levelo://app?vid=61d1814e-b763-4f9d-b945-71f47264a896"},"vehicle_type_id":"4","last_reported":1781269274,"current_range_meters":6000,"station_id":"ce4bh392rcd13ifvqdl0","pricing_plan_id":"cebpf4jnsgd1na2vs0mg"},{"bike_id":"9add5ea5-d360-44a6-9dfc-f6a1d8934e60","system_id":"levelo_inurba_marseille","lat":43.30125,"lon":5.40238,"is_reserved":false,"is_disabled":false,"rental_uris":{"android":"levelo://app?vid=9add5ea5-d360-44a6-9dfc-f6a1d8934e60","ios":"levelo://app?vid=9add5ea5-d360-44a6-9dfc-f6a1d8934e60"},"vehicle_type_id":"4","last_reported":1781269274,"current_range_meters":6000,"station_id":"","pricing_plan_id":"cebpf4jnsgd1na2vs0mg"},{"bike_id":"4a880f20-442e-4e0b-9683-a3a832597c68","system_id":"levelo_inurba_marseille","lat":43.25,"lon":5.38929,"is_reserved":false,"is_disabled":false,"rental_uris":{"android":"levelo://app?vid=4a880f20-442e-4e0b-9683-a3a832597c68","ios":"levelo://app?vid=4a880f20-442e-4e0b-9683-a3a832597c68"},"vehicle_type_id":"4","last_reported":1781269274,"current_range_meters":6000,"station_id":"ce4bhgp2rcd13ifvqfd0","pricing_plan_id":"cebpf4jnsgd1na2vs0mg"},{"bike_id":"f0383297-5348-4624-9f71-19332d051084","system_id":"levelo_inurba_marseille","lat":43.3079,"lon":5.37644,"is_reserved":false,"is_disabled":false,"rental_uris":{"android":"levelo://app?vid=f0383297-5348-4624-9f71-19332d051084","ios":"levelo://app?vid=f0383297-5348-4624-9f71-19332d051084"},"vehicle_type_id":"4","last_reported":1781269274,"current_range_meters":6000,"station_id":"ce4bgv92rcd13ifvqcq0","pricing_plan_id":"cebpf4jnsgd1na2vs0mg"},{"bike_id":"31e2ad24-3edc-483e-9c48-bdf3d89974f0","system_id":"levelo_inurba_marseille","lat":43.2813,"lon":5.38314,"is_reserved":false,"is_disabled":false,"rental_uris":{"android":"levelo://app?vid=31e2ad24-3edc-483e-9c48-bdf3d89974f0","ios":"levelo://app?vid=31e2ad24-3edc-483e-9c48-bdf3d89974f0"},"vehicle_type_id":"4","last_reported":1781269274,"current_range_meters":6000,"station_id":"","pricing_plan_id":"cebpf4jnsgd1na2vs0mg"},{"bike_id":"95a6a820-080c-4047-9edc-2eab85cc3ea0","system_id":"levelo_inurba_marseille","lat":43.31229,"lon":5.37284,"is_reserved":false,"is_disabled":false,"rental_uris":{"android":"levelo://app?vid=95a6a820-080c-4047-9edc-2eab85cc3ea0","ios":"levelo://app?vid=95a6a820-080c-4047-9edc-2eab85cc3ea0"},"vehicle_type_id":"4","last_reported":1781269274,"current_range_meters":6000,"station_id":"","pricing_plan_id":"cebpf4jnsgd1na2vs0mg"},{"bike_id":"56303469-03da-4363-89ae-ae73a08c4660","system_id":"levelo_inurba_marseille","lat":43.280384,"lon":5.369466,"is_reserved":false,"is_disabled":false,"rental_uris":{"android":"levelo://app?vid=56303469-03da-4363-89ae-ae73a08c4660","ios":"levelo://app?vid=56303469-03da-4363-89ae-ae73a08c4660"},"vehicle_type_id":"4","last_reported":1781269274,"current_range_meters":6000,"station_id":"ce4bha12rcd13ifvqef0","pricing_plan_id":"cebpf4jnsgd1na2vs0mg"},{"bike_id":"aaa66412-2aa3-4106-bf51-3d316dbc10b4","system_id":"levelo_inurba_marseille","lat":43.22565,"lon":5.41635,"is_reserved":false,"is_disabled":false,"rental_uris":{"android":"levelo://app?vid=aaa66412-2aa3-4106-bf51-3d316dbc10b4","ios":"levelo://app?vid=aaa66412-2aa3-4106-bf51-3d316dbc10b4"},"vehicle_type_id":"4","last_reported":1781269274,"current_range_meters":6400,"station_id":"st_d2o4gvlbi1j2169b742g","pricing_plan_id":"cebpf4jnsgd1na2vs0mg"},{"bike_id":"7f673c32-bf83-4a5d-b1ef-aef6170d7b7f","system_id":"levelo_inurba_marseille","lat":43.282,"lon":5.39092,"is_reserved":false,"is_disabled":false,"rental_uris":{"android":"levelo://app?vid=7f673c32-bf83-4a5d-b1ef-aef6170d7b7f","ios":"levelo://app?vid=7f673c32-bf83-4a5d-b1ef-aef6170d7b7f"},"vehicle_type_id":"4","last_reported":1781269274,"current_range_meters":6400,"station_id":"ce4bhn92rcd13ifvqgsg","pricing_plan_id":"cebpf4jnsgd1na2vs0mg"},{"bike_id":"52e0ca30-f6db-4b40-a595-fe3e1b7ca10e","system_id":"levelo_inurba_marseille","lat":43.2619,"lon":5.37455,"is_reserved":false,"is_disabled":true,"rental_uris":{"android":"levelo://app?vid=52e0ca30-f6db-4b40-a595-fe3e1b7ca10e","ios":"levelo://app?vid=52e0ca30-f6db-4b40-a595-fe3e1b7ca10e"},"vehicle_type_id":"4","last_reported":1781269274,"current_range_meters":6400,"station_id":"ce4bhgp2rcd13ifvqfc0","pricing_plan_id":"cebpf4jnsgd1na2vs0mg"},{"bike_id":"c48d0cd6-9afd-4f24-97bc-cfac1a2467e0","system_id":"levelo_inurba_marseille","lat":43.31261,"lon":5.42782,"is_reserved":false,"is_disabled":false,"rental_uris":{"android":"levelo://app?vid=c48d0cd6-9afd-4f24-97bc-cfac1a2467e0","ios":"levelo://app?vid=c48d0cd6-9afd-4f24-97bc-cfac1a2467e0"},"vehicle_type_id":"4","last_reported":1781269274,"current_range_meters":6400,"station_id":"","pricing_plan_id":"cebpf4jnsgd1na2vs0mg"},{"bike_id":"116e7e79-df73-459e-bb6d-922ab4ccb8bd","system_id":"levelo_inurba_marseille","lat":43.21197,"lon":5.35081,"is_reserved":false,"is_disabled":false,"rental_uris":{"android":"levelo://app?vid=116e7e79-df73-459e-bb6d-922ab4ccb8bd","ios":"levelo://app?vid=116e7e79-df73-459e-bb6d-922ab4ccb8bd"},"vehicle_type_id":"4","last_reported":1781269274,"current_range_meters":6400,"station_id":"st_cvj6sg6p6f1abm77japg","pricing_plan_id":"cebpf4jnsgd1na2vs0mg"},{"bike_id":"ffe64971-2235-4928-8273-139de2def9e3","system_id":"levelo_inurba_marseille","lat":43.29374,"lon":5.3723,"is_reserved":false,"is_disabled":false,"rental_uris":{"android":"levelo://app?vid=ffe64971-2235-4928-8273-139de2def9e3","ios":"levelo://app?vid=ffe64971-2235-4928-8273-139de2def9e3"},"vehicle_type_id":"4","last_reported":1781269274,"current_range_meters":6400,"station_id":"","pricing_plan_id":"cebpf4jnsgd1na2vs0mg"},{"bike_id":"3a76d07b-ceca-4e4c-aec3-6733dc5077bb","system_id":"levelo_inurba_marseille","lat":43.29259,"lon":5.38446,"is_reserved":false,"is_disabled":false,"rental_uris":{"android":"levelo://app?vid=3a76d07b-ceca-4e4c-aec3-6733dc5077bb","ios":"levelo://app?vid=3a76d07b-ceca-4e4c-aec3-6733dc5077bb"},"vehicle_type_id":"4","last_reported":1781269274,"current_range_meters":6400,"station_id":"ce4bh692rcd13ifvqea0","pricing_plan_id":"cebpf4jnsgd1na2vs0mg"},{"bike_id":"a4fb5a2a-5e65-4ce4-81d2-ea0f90918e5a","system_id":"levelo_inurba_marseille","lat":43.28442,"lon":5.35004,"is_reserved":false,"is_disabled":false,"rental_uris":{"android":"levelo://app?vid=a4fb5a2a-5e65-4ce4-81d2-ea0f90918e5a","ios":"levelo://app?vid=a4fb5a2a-5e65-4ce4-81d2-ea0f90918e5a"},"vehicle_type_id":"4","last_reported":1781269274,"current_range_meters":6400,"station_id":"ce4bhbh2rcd13ifvqepg","pricing_plan_id":"cebpf4jnsgd1na2vs0mg"},{"bike_id":"c21752f2-8aa3-4e17-909a-9474c04f9194","system_id":"levelo_inurba_marseille","lat":43.28854,"lon":5.3932,"is_reserved":false,"is_disabled":false,"rental_uris":{"android":"levelo://app?vid=c21752f2-8aa3-4e17-909a-9474c04f9194","ios":"levelo://app?vid=c21752f2-8aa3-4e17-909a-9474c04f9194"},"vehicle_type_id":"4","last_reported":1781269274,"current_range_meters":6400,"station_id":"ce4bh2p2rcd13ifvqdi0","pricing_plan_id":"cebpf4jnsgd1na2vs0mg"},{"bike_id":"b83be4d3-06f4-4b3e-9ba2-a6d47abaf96e","system_id":"levelo_inurba_marseille","lat":43.29266,"lon":5.3763,"is_reserved":false,"is_disabled":true,"rental_uris":{"android":"levelo://app?vid=b83be4d3-06f4-4b3e-9ba2-a6d47abaf96e","ios":"levelo://app?vid=b83be4d3-06f4-4b3e-9ba2-a6d47abaf96e"},"vehicle_type_id":"4","last_reported":1781269274,"current_range_meters":6400,"station_id":"ce4bgi12rcd13ifvqb80","pricing_plan_id":"cebpf4jnsgd1na2vs0mg"},{"bike_id":"8736331c-bd24-4ed7-b186-51d1ac4a475e","system_id":"levelo_inurba_marseille","lat":43.25888,"lon":5.39893,"is_reserved":false,"is_disabled":false,"rental_uris":{"android":"levelo://app?vid=8736331c-bd24-4ed7-b186-51d1ac4a475e","ios":"levelo://app?vid=8736331c-bd24-4ed7-b186-51d1ac4a475e"},"vehicle_type_id":"4","last_reported":1781269274,"current_range_meters":6400,"station_id":"ce4bhl92rcd13ifvqghg","pricing_plan_id":"cebpf4jnsgd1na2vs0mg"},{"bike_id":"663b1295-c975-4756-be08-7c620c399148","system_id":"levelo_inurba_marseille","lat":43.2827,"lon":5.3507,"is_reserved":false,"is_disabled":false,"rental_uris":{"android":"levelo://app?vid=663b1295-c975-4756-be08-7c620c399148","ios":"levelo://app?vid=663b1295-c975-4756-be08-7c620c399148"},"vehicle_type_id":"4","last_reported":1781269274,"current_range_meters":6400,"station_id":"ce4bhbp2rcd13ifvqerg","pricing_plan_id":"cebpf4jnsgd1na2vs0mg"},{"bike_id":"5c4c7c29-d67c-425c-b25c-05cae9e3f92c","system_id":"levelo_inurba_marseille","lat":43.284731,"lon":5.384211,"is_reserved":false,"is_disabled":true,"rental_uris":{"android":"levelo://app?vid=5c4c7c29-d67c-425c-b25c-05cae9e3f92c","ios":"levelo://app?vid=5c4c7c29-d67c-425c-b25c-05cae9e3f92c"},"vehicle_type_id":"4","last_reported":1781269274,"current_range_meters":6400,"station_id":"ce4bh512rcd13ifvqe3g","pricing_plan_id":"cebpf4jnsgd1na2vs0mg"},{"bike_id":"d9bbcfa4-a44d-4020-b0df-d2651b3bdf41","system_id":"levelo_inurba_marseille","lat":43.21198,"lon":5.35094,"is_reserved":false,"is_disabled":false,"rental_uris":{"android":"levelo://app?vid=d9bbcfa4-a44d-4020-b0df-d2651b3bdf41","ios":"levelo://app?vid=d9bbcfa4-a44d-4020-b0df-d2651b3bdf41"},"vehicle_type_id":"4","last_reported":1781269274,"current_range_meters":6400,"station_id":"st_cvj6sg6p6f1abm77japg","pricing_plan_id":"cebpf4jnsgd1na2vs0mg"},{"bike_id":"6edb1571-ff0e-41be-86f6-ab57a8172f99","system_id":"levelo_inurba_marseille","lat":43.32087,"lon":5.36791,"is_reserved":false,"is_disabled":false,"rental_uris":{"android":"levelo://app?vid=6edb1571-ff0e-41be-86f6-ab57a8172f99","ios":"levelo://app?vid=6edb1571-ff0e-41be-86f6-ab57a8172f99"},"vehicle_type_id":"4","last_reported":1781269274,"current_range_meters":6400,"station_id":"ce4bhrh2rcd13ifvqhug","pricing_plan_id":"cebpf4jnsgd1na2vs0mg"},{"bike_id":"84b9eeed-33f7-4406-89ed-21f59bba5937","system_id":"levelo_inurba_marseille","lat":43.30153,"lon":5.37425,"is_reserved":false,"is_disabled":false,"rental_uris":{"android":"levelo://app?vid=84b9eeed-33f7-4406-89ed-21f59bba5937","ios":"levelo://app?vid=84b9eeed-33f7-4406-89ed-21f59bba5937"},"vehicle_type_id":"4","last_reported":1781269274,"current_range_meters":6400,"station_id":"ce4bgs92rcd13ifvqcc0","pricing_plan_id":"cebpf4jnsgd1na2vs0mg"},{"bike_id":"9ad9cd34-713a-4e12-bd9d-a2d2066dace0","system_id":"levelo_inurba_marseille","lat":43.31695,"lon":5.40366,"is_reserved":false,"is_disabled":false,"rental_uris":{"android":"levelo://app?vid=9ad9cd34-713a-4e12-bd9d-a2d2066dace0","ios":"levelo://app?vid=9ad9cd34-713a-4e12-bd9d-a2d2066dace0"},"vehicle_type_id":"4","last_reported":1781269274,"current_range_meters":6400,"station_id":"ce4bh012rcd13ifvqd00","pricing_plan_id":"cebpf4jnsgd1na2vs0mg"},{"bike_id":"c3b6afa1-ea6f-4696-bd7c-80ca8846d2ed","system_id":"levelo_inurba_marseille","lat":43.2481,"lon":5.3745,"is_reserved":false,"is_disabled":false,"rental_uris":{"android":"levelo://app?vid=c3b6afa1-ea6f-4696-bd7c-80ca8846d2ed","ios":"levelo://app?vid=c3b6afa1-ea6f-4696-bd7c-80ca8846d2ed"},"vehicle_type_id":"4","last_reported":1781269274,"current_range_meters":6400,"station_id":"ce4bhgh2rcd13ifvqfb0","pricing_plan_id":"cebpf4jnsgd1na2vs0mg"},{"bike_id":"a848a5d1-feb4-4560-89e7-b2ad298b123f","system_id":"levelo_inurba_marseille","lat":43.24628,"lon":5.43164,"is_reserved":false,"is_disabled":false,"rental_uris":{"android":"levelo://app?vid=a848a5d1-feb4-4560-89e7-b2ad298b123f","ios":"levelo://app?vid=a848a5d1-feb4-4560-89e7-b2ad298b123f"},"vehicle_type_id":"4","last_reported":1781269274,"current_range_meters":6400,"station_id":"st_d2m6c4gdas8pm72e190g","pricing_plan_id":"cebpf4jnsgd1na2vs0mg"},{"bike_id":"b4c0f195-58a3-456c-9ed4-e0663f1468e6","system_id":"levelo_inurba_marseille","lat":43.28269,"lon":5.37396,"is_reserved":false,"is_disabled":false,"rental_uris":{"android":"levelo://app?vid=b4c0f195-58a3-456c-9ed4-e0663f1468e6","ios":"levelo://app?vid=b4c0f195-58a3-456c-9ed4-e0663f1468e6"},"vehicle_type_id":"4","last_reported":1781269274,"current_range_meters":6400,"station_id":"","pricing_plan_id":"cebpf4jnsgd1na2vs0mg"},{"bike_id":"a318bc01-9889-445e-ad9e-b36118278119","system_id":"levelo_inurba_marseille","lat":43.28616,"lon":5.35101,"is_reserved":false,"is_disabled":true,"rental_uris":{"android":"levelo://app?vid=a318bc01-9889-445e-ad9e-b36118278119","ios":"levelo://app?vid=a318bc01-9889-445e-ad9e-b36118278119"},"vehicle_type_id":"4","last_reported":1781269274,"current_range_meters":6400,"station_id":"ce4bhch2rcd13ifvqeug","pricing_plan_id":"cebpf4jnsgd1na2vs0mg"},{"bike_id":"e872d464-7736-4679-8cf4-318cad1fa4e7","system_id":"levelo_inurba_marseille","lat":43.29542,"lon":5.42304,"is_reserved":false,"is_disabled":false,"rental_uris":{"android":"levelo://app?vid=e872d464-7736-4679-8cf4-318cad1fa4e7","ios":"levelo://app?vid=e872d464-7736-4679-8cf4-318cad1fa4e7"},"vehicle_type_id":"4","last_reported":1781269274,"current_range_meters":6400,"station_id":"ce4bhph2rcd13ifvqhdg","pricing_plan_id":"cebpf4jnsgd1na2vs0mg"},{"bike_id":"c7003374-df0a-4adf-a763-b7ffcb27c463","system_id":"levelo_inurba_marseille","lat":43.28476,"lon":5.484,"is_reserved":false,"is_disabled":false,"rental_uris":{"android":"levelo://app?vid=c7003374-df0a-4adf-a763-b7ffcb27c463","ios":"levelo://app?vid=c7003374-df0a-4adf-a763-b7ffcb27c463"},"vehicle_type_id":"4","last_reported":1781269274,"current_range_meters":6400,"station_id":"st_d3svhcjqgbts73a3dn0g","pricing_plan_id":"cebpf4jnsgd1na2vs0mg"},{"bike_id":"750d545d-9962-42b9-9a8e-d0d1cf1bbc44","system_id":"levelo_inurba_marseille","lat":43.25508,"lon":5.37651,"is_reserved":false,"is_disabled":false,"rental_uris":{"android":"levelo://app?vid=750d545d-9962-42b9-9a8e-d0d1cf1bbc44","ios":"levelo://app?vid=750d545d-9962-42b9-9a8e-d0d1cf1bbc44"},"vehicle_type_id":"4","last_reported":1781269274,"current_range_meters":6400,"station_id":"ce4bhh12rcd13ifvqff0","pricing_plan_id":"cebpf4jnsgd1na2vs0mg"},{"bike_id":"ee494397-ad1c-4b5e-80ed-9cc6e888762d","system_id":"levelo_inurba_marseille","lat":43.31896,"lon":5.42482,"is_reserved":false,"is_disabled":false,"rental_uris":{"android":"levelo://app?vid=ee494397-ad1c-4b5e-80ed-9cc6e888762d","ios":"levelo://app?vid=ee494397-ad1c-4b5e-80ed-9cc6e888762d"},"vehicle_type_id":"4","last_reported":1781269274,"current_range_meters":6400,"station_id":"","pricing_plan_id":"cebpf4jnsgd1na2vs0mg"},{"bike_id":"5964db43-3cec-4999-bb95-db962d0a94d2","system_id":"levelo_inurba_marseille","lat":43.27388,"lon":5.36243,"is_reserved":false,"is_disabled":false,"rental_uris":{"android":"levelo://app?vid=5964db43-3cec-4999-bb95-db962d0a94d2","ios":"levelo://app?vid=5964db43-3cec-4999-bb95-db962d0a94d2"},"vehicle_type_id":"4","last_reported":1781269274,"current_range_meters":6400,"station_id":"ce4bhbh2rcd13ifvqeo0","pricing_plan_id":"cebpf4jnsgd1na2vs0mg"},{"bike_id":"4865a1c5-afe2-4dda-8194-f69b08d22f31","system_id":"levelo_inurba_marseille","lat":43.25592,"lon":5.38268,"is_reserved":false,"is_disabled":false,"rental_uris":{"android":"levelo://app?vid=4865a1c5-afe2-4dda-8194-f69b08d22f31","ios":"levelo://app?vid=4865a1c5-afe2-4dda-8194-f69b08d22f31"},"vehicle_type_id":"4","last_reported":1781269274,"current_range_meters":6800,"station_id":"ce4bhih2rcd13ifvqfs0","pricing_plan_id":"cebpf4jnsgd1na2vs0mg"},{"bike_id":"1370b5da-1367-4bd9-93b9-441df665645e","system_id":"levelo_inurba_marseille","lat":43.29927,"lon":5.37506,"is_reserved":false,"is_disabled":false,"rental_uris":{"android":"levelo://app?vid=1370b5da-1367-4bd9-93b9-441df665645e","ios":"levelo://app?vid=1370b5da-1367-4bd9-93b9-441df665645e"},"vehicle_type_id":"4","last_reported":1781269274,"current_range_meters":6800,"station_id":"ce4bgjh2rcd13ifvqbg0","pricing_plan_id":"cebpf4jnsgd1na2vs0mg"},{"bike_id":"b155e34d-1ab7-4d31-a0dc-969a30cc4a3d","system_id":"levelo_inurba_marseille","lat":43.29865,"lon":5.39728,"is_reserved":false,"is_disabled":false,"rental_uris":{"android":"levelo://app?vid=b155e34d-1ab7-4d31-a0dc-969a30cc4a3d","ios":"levelo://app?vid=b155e34d-1ab7-4d31-a0dc-969a30cc4a3d"},"vehicle_type_id":"4","last_reported":1781269274,"current_range_meters":6800,"station_id":"ce4bh0h2rcd13ifvqd50","pricing_plan_id":"cebpf4jnsgd1na2vs0mg"},{"bike_id":"0a498362-6055-45b2-b20e-22d7fcb34656","system_id":"levelo_inurba_marseille","lat":43.248023,"lon":5.374591,"is_reserved":false,"is_disabled":false,"rental_uris":{"android":"levelo://app?vid=0a498362-6055-45b2-b20e-22d7fcb34656","ios":"levelo://app?vid=0a498362-6055-45b2-b20e-22d7fcb34656"},"vehicle_type_id":"4","last_reported":1781269274,"current_range_meters":6800,"station_id":"ce4bhgh2rcd13ifvqfb0","pricing_plan_id":"cebpf4jnsgd1na2vs0mg"},{"bike_id":"d082662a-5641-4b47-819a-bc856b5bb3fd","system_id":"levelo_inurba_marseille","lat":43.28271,"lon":5.35072,"is_reserved":false,"is_disabled":false,"rental_uris":{"android":"levelo://app?vid=d082662a-5641-4b47-819a-bc856b5bb3fd","ios":"levelo://app?vid=d082662a-5641-4b47-819a-bc856b5bb3fd"},"vehicle_type_id":"4","last_reported":1781269274,"current_range_meters":6800,"station_id":"ce4bhbp2rcd13ifvqerg","pricing_plan_id":"cebpf4jnsgd1na2vs0mg"},{"bike_id":"318c2327-cd61-4b3a-8efa-5ff92eb9038b","system_id":"levelo_inurba_marseille","lat":43.3281,"lon":5.36772,"is_reserved":false,"is_disabled":false,"rental_uris":{"android":"levelo://app?vid=318c2327-cd61-4b3a-8efa-5ff92eb9038b","ios":"levelo://app?vid=318c2327-cd61-4b3a-8efa-5ff92eb9038b"},"vehicle_type_id":"4","last_reported":1781269274,"current_range_meters":6800,"station_id":"","pricing_plan_id":"cebpf4jnsgd1na2vs0mg"},{"bike_id":"21c7c68e-9f6b-44e1-82ea-374ab6ba73e8","system_id":"levelo_inurba_marseille","lat":43.23169,"lon":5.43722,"is_reserved":false,"is_disabled":false,"rental_uris":{"android":"levelo://app?vid=21c7c68e-9f6b-44e1-82ea-374ab6ba73e8","ios":"levelo://app?vid=21c7c68e-9f6b-44e1-82ea-374ab6ba73e8"},"vehicle_type_id":"4","last_reported":1781269274,"current_range_meters":6800,"station_id":"ce4bhmp2rcd13ifvqgog","pricing_plan_id":"cebpf4jnsgd1na2vs0mg"},{"bike_id":"7a07e961-80cc-472d-a5a2-4f9cd04d7b37","system_id":"levelo_inurba_marseille","lat":43.28427,"lon":5.34986,"is_reserved":false,"is_disabled":false,"rental_uris":{"android":"levelo://app?vid=7a07e961-80cc-472d-a5a2-4f9cd04d7b37","ios":"levelo://app?vid=7a07e961-80cc-472d-a5a2-4f9cd04d7b37"},"vehicle_type_id":"4","last_reported":1781269274,"current_range_meters":6800,"station_id":"ce4bhbh2rcd13ifvqepg","pricing_plan_id":"cebpf4jnsgd1na2vs0mg"},{"bike_id":"5a011e64-d936-46c3-bbf7-5b0e2d34e0d1","system_id":"levelo_inurba_marseille","lat":43.297198,"lon":5.379624,"is_reserved":false,"is_disabled":false,"rental_uris":{"android":"levelo://app?vid=5a011e64-d936-46c3-bbf7-5b0e2d34e0d1","ios":"levelo://app?vid=5a011e64-d936-46c3-bbf7-5b0e2d34e0d1"},"vehicle_type_id":"4","last_reported":1781269274,"current_range_meters":6800,"station_id":"ce4bgk12rcd13ifvqbj0","pricing_plan_id":"cebpf4jnsgd1na2vs0mg"},{"bike_id":"575b15cd-2926-454c-bb31-9a4428e31ff0","system_id":"levelo_inurba_marseille","lat":43.29518,"lon":5.37503,"is_reserved":false,"is_disabled":false,"rental_uris":{"android":"levelo://app?vid=575b15cd-2926-454c-bb31-9a4428e31ff0","ios":"levelo://app?vid=575b15cd-2926-454c-bb31-9a4428e31ff0"},"vehicle_type_id":"4","last_reported":1781269274,"current_range_meters":6800,"station_id":"ce4bgkp2rcd13ifvqbmg","pricing_plan_id":"cebpf4jnsgd1na2vs0mg"},{"bike_id":"b105e559-ad92-41ad-9bdf-4bd2f454dd68","system_id":"levelo_inurba_marseille","lat":43.30152,"lon":5.44971,"is_reserved":false,"is_disabled":false,"rental_uris":{"android":"levelo://app?vid=b105e559-ad92-41ad-9bdf-4bd2f454dd68","ios":"levelo://app?vid=b105e559-ad92-41ad-9bdf-4bd2f454dd68"},"vehicle_type_id":"4","last_reported":1781269274,"current_range_meters":6800,"station_id":"","pricing_plan_id":"cebpf4jnsgd1na2vs0mg"},{"bike_id":"053da4ad-0e65-446d-a318-557af5f87dd1","system_id":"levelo_inurba_marseille","lat":43.22573,"lon":5.41639,"is_reserved":false,"is_disabled":false,"rental_uris":{"android":"levelo://app?vid=053da4ad-0e65-446d-a318-557af5f87dd1","ios":"levelo://app?vid=053da4ad-0e65-446d-a318-557af5f87dd1"},"vehicle_type_id":"4","last_reported":1781269274,"current_range_meters":6800,"station_id":"st_d2o4gvlbi1j2169b742g","pricing_plan_id":"cebpf4jnsgd1na2vs0mg"},{"bike_id":"8cfca50f-a3a9-4cdc-9686-309ac4a548df","system_id":"levelo_inurba_marseille","lat":43.286222,"lon":5.351033,"is_reserved":false,"is_disabled":false,"rental_uris":{"android":"levelo://app?vid=8cfca50f-a3a9-4cdc-9686-309ac4a548df","ios":"levelo://app?vid=8cfca50f-a3a9-4cdc-9686-309ac4a548df"},"vehicle_type_id":"4","last_reported":1781269274,"current_range_meters":6800,"station_id":"ce4bhch2rcd13ifvqeug","pricing_plan_id":"cebpf4jnsgd1na2vs0mg"},{"bike_id":"c4c8f592-2f0a-488a-9059-30a67bfcfd66","system_id":"levelo_inurba_marseille","lat":43.24819,"lon":5.37465,"is_reserved":false,"is_disabled":false,"rental_uris":{"android":"levelo://app?vid=c4c8f592-2f0a-488a-9059-30a67bfcfd66","ios":"levelo://app?vid=c4c8f592-2f0a-488a-9059-30a67bfcfd66"},"vehicle_type_id":"4","last_reported":1781269274,"current_range_meters":6800,"station_id":"ce4bhgh2rcd13ifvqfb0","pricing_plan_id":"cebpf4jnsgd1na2vs0mg"},{"bike_id":"8148c0e0-aa12-45e8-903a-433ca8b036d1","system_id":"levelo_inurba_marseille","lat":43.28675,"lon":5.38323,"is_reserved":false,"is_disabled":false,"rental_uris":{"android":"levelo://app?vid=8148c0e0-aa12-45e8-903a-433ca8b036d1","ios":"levelo://app?vid=8148c0e0-aa12-45e8-903a-433ca8b036d1"},"vehicle_type_id":"4","last_reported":1781269274,"current_range_meters":6800,"station_id":"","pricing_plan_id":"cebpf4jnsgd1na2vs0mg"},{"bike_id":"3124ce88-1f05-4fdb-a8ce-ab2d7e6b47b0","system_id":"levelo_inurba_marseille","lat":43.26227,"lon":5.38787,"is_reserved":false,"is_disabled":false,"rental_uris":{"android":"levelo://app?vid=3124ce88-1f05-4fdb-a8ce-ab2d7e6b47b0","ios":"levelo://app?vid=3124ce88-1f05-4fdb-a8ce-ab2d7e6b47b0"},"vehicle_type_id":"4","last_reported":1781269274,"current_range_meters":6800,"station_id":"st_d8gjfg747rts73coq3b0","pricing_plan_id":"cebpf4jnsgd1na2vs0mg"},{"bike_id":"5959399d-2a5a-4619-a6df-91439cbfbae4","system_id":"levelo_inurba_marseille","lat":43.27068,"lon":5.38301,"is_reserved":false,"is_disabled":false,"rental_uris":{"android":"levelo://app?vid=5959399d-2a5a-4619-a6df-91439cbfbae4","ios":"levelo://app?vid=5959399d-2a5a-4619-a6df-91439cbfbae4"},"vehicle_type_id":"4","last_reported":1781269274,"current_range_meters":6800,"station_id":"st_d3n2fo6cfp8s73cte1j0","pricing_plan_id":"cebpf4jnsgd1na2vs0mg"},{"bike_id":"74c04854-6b6e-432f-bbcf-4e25f026b9f5","system_id":"levelo_inurba_marseille","lat":43.31899,"lon":5.40725,"is_reserved":false,"is_disabled":false,"rental_uris":{"android":"levelo://app?vid=74c04854-6b6e-432f-bbcf-4e25f026b9f5","ios":"levelo://app?vid=74c04854-6b6e-432f-bbcf-4e25f026b9f5"},"vehicle_type_id":"4","last_reported":1781269274,"current_range_meters":6800,"station_id":"ce4bhq12rcd13ifvqhig","pricing_plan_id":"cebpf4jnsgd1na2vs0mg"},{"bike_id":"b6e23a36-3ca4-4236-9f45-984f57ad089d","system_id":"levelo_inurba_marseille","lat":43.29522,"lon":5.3751,"is_reserved":false,"is_disabled":false,"rental_uris":{"android":"levelo://app?vid=b6e23a36-3ca4-4236-9f45-984f57ad089d","ios":"levelo://app?vid=b6e23a36-3ca4-4236-9f45-984f57ad089d"},"vehicle_type_id":"4","last_reported":1781269274,"current_range_meters":6800,"station_id":"ce4bgkp2rcd13ifvqbmg","pricing_plan_id":"cebpf4jnsgd1na2vs0mg"},{"bike_id":"28d84a61-6fbf-492e-9f77-9e250f4d4fea","system_id":"levelo_inurba_marseille","lat":43.23782,"lon":5.36625,"is_reserved":false,"is_disabled":false,"rental_uris":{"android":"levelo://app?vid=28d84a61-6fbf-492e-9f77-9e250f4d4fea","ios":"levelo://app?vid=28d84a61-6fbf-492e-9f77-9e250f4d4fea"},"vehicle_type_id":"4","last_reported":1781269274,"current_range_meters":6800,"station_id":"st_d3nk18o9ro0c73en2l3g","pricing_plan_id":"cebpf4jnsgd1na2vs0mg"},{"bike_id":"1dbd7eb0-227f-498b-ad6f-4349b2bcff3e","system_id":"levelo_inurba_marseille","lat":43.2927,"lon":5.37615,"is_reserved":false,"is_disabled":false,"rental_uris":{"android":"levelo://app?vid=1dbd7eb0-227f-498b-ad6f-4349b2bcff3e","ios":"levelo://app?vid=1dbd7eb0-227f-498b-ad6f-4349b2bcff3e"},"vehicle_type_id":"4","last_reported":1781269274,"current_range_meters":6800,"station_id":"ce4bgi12rcd13ifvqb80","pricing_plan_id":"cebpf4jnsgd1na2vs0mg"},{"bike_id":"8cdd5134-21fa-471c-bbb5-c51537a7415f","system_id":"levelo_inurba_marseille","lat":43.30562,"lon":5.40495,"is_reserved":false,"is_disabled":false,"rental_uris":{"android":"levelo://app?vid=8cdd5134-21fa-471c-bbb5-c51537a7415f","ios":"levelo://app?vid=8cdd5134-21fa-471c-bbb5-c51537a7415f"},"vehicle_type_id":"4","last_reported":1781269274,"current_range_meters":6800,"station_id":"","pricing_plan_id":"cebpf4jnsgd1na2vs0mg"},{"bike_id":"51893efd-b6bd-444e-ba0c-31972e9fa473","system_id":"levelo_inurba_marseille","lat":43.28426,"lon":5.34976,"is_reserved":false,"is_disabled":false,"rental_uris":{"android":"levelo://app?vid=51893efd-b6bd-444e-ba0c-31972e9fa473","ios":"levelo://app?vid=51893efd-b6bd-444e-ba0c-31972e9fa473"},"vehicle_type_id":"4","last_reported":1781269274,"current_range_meters":6800,"station_id":"ce4bhbh2rcd13ifvqepg","pricing_plan_id":"cebpf4jnsgd1na2vs0mg"},{"bike_id":"4b0d3d84-15a9-46f2-8069-017b6c0401da","system_id":"levelo_inurba_marseille","lat":43.2618,"lon":5.37453,"is_reserved":false,"is_disabled":false,"rental_uris":{"android":"levelo://app?vid=4b0d3d84-15a9-46f2-8069-017b6c0401da","ios":"levelo://app?vid=4b0d3d84-15a9-46f2-8069-017b6c0401da"},"vehicle_type_id":"4","last_reported":1781269274,"current_range_meters":6800,"station_id":"ce4bhgp2rcd13ifvqfc0","pricing_plan_id":"cebpf4jnsgd1na2vs0mg"},{"bike_id":"3e4303bd-4e13-42f8-ae0c-25a66192c901","system_id":"levelo_inurba_marseille","lat":43.31536,"lon":5.38823,"is_reserved":false,"is_disabled":false,"rental_uris":{"android":"levelo://app?vid=3e4303bd-4e13-42f8-ae0c-25a66192c901","ios":"levelo://app?vid=3e4303bd-4e13-42f8-ae0c-25a66192c901"},"vehicle_type_id":"4","last_reported":1781269274,"current_range_meters":7200,"station_id":"","pricing_plan_id":"cebpf4jnsgd1na2vs0mg"},{"bike_id":"70db804e-364e-41dd-905a-45a3a6815464","system_id":"levelo_inurba_marseille","lat":43.25365,"lon":5.40725,"is_reserved":false,"is_disabled":false,"rental_uris":{"android":"levelo://app?vid=70db804e-364e-41dd-905a-45a3a6815464","ios":"levelo://app?vid=70db804e-364e-41dd-905a-45a3a6815464"},"vehicle_type_id":"4","last_reported":1781269274,"current_range_meters":7200,"station_id":"","pricing_plan_id":"cebpf4jnsgd1na2vs0mg"},{"bike_id":"7a5d3611-88fa-4aa8-8162-ee13b664b17e","system_id":"levelo_inurba_marseille","lat":43.29217,"lon":5.36071,"is_reserved":false,"is_disabled":false,"rental_uris":{"android":"levelo://app?vid=7a5d3611-88fa-4aa8-8162-ee13b664b17e","ios":"levelo://app?vid=7a5d3611-88fa-4aa8-8162-ee13b664b17e"},"vehicle_type_id":"4","last_reported":1781269274,"current_range_meters":7200,"station_id":"ce4bhbh2rcd13ifvqeqg","pricing_plan_id":"cebpf4jnsgd1na2vs0mg"},{"bike_id":"315d3cd3-9556-47d2-bf87-42573b9faa84","system_id":"levelo_inurba_marseille","lat":43.29897,"lon":5.38378,"is_reserved":false,"is_disabled":false,"rental_uris":{"android":"levelo://app?vid=315d3cd3-9556-47d2-bf87-42573b9faa84","ios":"levelo://app?vid=315d3cd3-9556-47d2-bf87-42573b9faa84"},"vehicle_type_id":"4","last_reported":1781269274,"current_range_meters":7200,"station_id":"","pricing_plan_id":"cebpf4jnsgd1na2vs0mg"},{"bike_id":"f312a474-3688-43e4-8515-a784a5c48528","system_id":"levelo_inurba_marseille","lat":43.2119,"lon":5.350777,"is_reserved":false,"is_disabled":true,"rental_uris":{"android":"levelo://app?vid=f312a474-3688-43e4-8515-a784a5c48528","ios":"levelo://app?vid=f312a474-3688-43e4-8515-a784a5c48528"},"vehicle_type_id":"4","last_reported":1781269274,"current_range_meters":7200,"station_id":"st_cvj6sg6p6f1abm77japg","pricing_plan_id":"cebpf4jnsgd1na2vs0mg"},{"bike_id":"f85210b9-4360-4392-aebf-a886e8a9977b","system_id":"levelo_inurba_marseille","lat":43.30606,"lon":5.37231,"is_reserved":false,"is_disabled":false,"rental_uris":{"android":"levelo://app?vid=f85210b9-4360-4392-aebf-a886e8a9977b","ios":"levelo://app?vid=f85210b9-4360-4392-aebf-a886e8a9977b"},"vehicle_type_id":"4","last_reported":1781269274,"current_range_meters":7200,"station_id":"ce4bgqh2rcd13ifvqc4g","pricing_plan_id":"cebpf4jnsgd1na2vs0mg"},{"bike_id":"88d88840-9fc2-4a2e-b363-e13f413fcb82","system_id":"levelo_inurba_marseille","lat":43.31094,"lon":5.37172,"is_reserved":false,"is_disabled":false,"rental_uris":{"android":"levelo://app?vid=88d88840-9fc2-4a2e-b363-e13f413fcb82","ios":"levelo://app?vid=88d88840-9fc2-4a2e-b363-e13f413fcb82"},"vehicle_type_id":"4","last_reported":1781269274,"current_range_meters":7200,"station_id":"st_d4kl2rp97mjs73e7tdfg","pricing_plan_id":"cebpf4jnsgd1na2vs0mg"},{"bike_id":"1092cd7f-d680-45ee-8ff2-7815bf031c7e","system_id":"levelo_inurba_marseille","lat":43.31743,"lon":5.37714,"is_reserved":false,"is_disabled":false,"rental_uris":{"android":"levelo://app?vid=1092cd7f-d680-45ee-8ff2-7815bf031c7e","ios":"levelo://app?vid=1092cd7f-d680-45ee-8ff2-7815bf031c7e"},"vehicle_type_id":"4","last_reported":1781269274,"current_range_meters":7200,"station_id":"ce4bgth2rcd13ifvqch0","pricing_plan_id":"cebpf4jnsgd1na2vs0mg"},{"bike_id":"c77e711e-e141-4d52-870e-72ea26fee60b","system_id":"levelo_inurba_marseille","lat":43.28403,"lon":5.35002,"is_reserved":false,"is_disabled":false,"rental_uris":{"android":"levelo://app?vid=c77e711e-e141-4d52-870e-72ea26fee60b","ios":"levelo://app?vid=c77e711e-e141-4d52-870e-72ea26fee60b"},"vehicle_type_id":"4","last_reported":1781269274,"current_range_meters":7200,"station_id":"ce4bhbh2rcd13ifvqepg","pricing_plan_id":"cebpf4jnsgd1na2vs0mg"},{"bike_id":"d8dd6150-460a-4763-8b9e-c74e9044c3da","system_id":"levelo_inurba_marseille","lat":43.28821,"lon":5.35892,"is_reserved":false,"is_disabled":false,"rental_uris":{"android":"levelo://app?vid=d8dd6150-460a-4763-8b9e-c74e9044c3da","ios":"levelo://app?vid=d8dd6150-460a-4763-8b9e-c74e9044c3da"},"vehicle_type_id":"4","last_reported":1781269274,"current_range_meters":7200,"station_id":"","pricing_plan_id":"cebpf4jnsgd1na2vs0mg"},{"bike_id":"1b85e271-5b83-4b2c-9678-799e3e8d6619","system_id":"levelo_inurba_marseille","lat":43.28271,"lon":5.3508,"is_reserved":false,"is_disabled":false,"rental_uris":{"android":"levelo://app?vid=1b85e271-5b83-4b2c-9678-799e3e8d6619","ios":"levelo://app?vid=1b85e271-5b83-4b2c-9678-799e3e8d6619"},"vehicle_type_id":"4","last_reported":1781269274,"current_range_meters":7200,"station_id":"ce4bhbp2rcd13ifvqerg","pricing_plan_id":"cebpf4jnsgd1na2vs0mg"},{"bike_id":"36b13e6a-58b6-4e0a-8432-095be52066f2","system_id":"levelo_inurba_marseille","lat":43.27834,"lon":5.39204,"is_reserved":false,"is_disabled":false,"rental_uris":{"android":"levelo://app?vid=36b13e6a-58b6-4e0a-8432-095be52066f2","ios":"levelo://app?vid=36b13e6a-58b6-4e0a-8432-095be52066f2"},"vehicle_type_id":"4","last_reported":1781269274,"current_range_meters":7200,"station_id":"ce4bhjp2rcd13ifvqga0","pricing_plan_id":"cebpf4jnsgd1na2vs0mg"},{"bike_id":"ab74a032-1b11-434e-90d8-6f4ff787aed5","system_id":"levelo_inurba_marseille","lat":43.28272,"lon":5.35097,"is_reserved":false,"is_disabled":false,"rental_uris":{"android":"levelo://app?vid=ab74a032-1b11-434e-90d8-6f4ff787aed5","ios":"levelo://app?vid=ab74a032-1b11-434e-90d8-6f4ff787aed5"},"vehicle_type_id":"4","last_reported":1781269274,"current_range_meters":7200,"station_id":"ce4bhbp2rcd13ifvqerg","pricing_plan_id":"cebpf4jnsgd1na2vs0mg"},{"bike_id":"bcbc040e-b644-4f84-890c-263ec74ed33e","system_id":"levelo_inurba_marseille","lat":43.30123,"lon":5.43118,"is_reserved":false,"is_disabled":false,"rental_uris":{"android":"levelo://app?vid=bcbc040e-b644-4f84-890c-263ec74ed33e","ios":"levelo://app?vid=bcbc040e-b644-4f84-890c-263ec74ed33e"},"vehicle_type_id":"4","last_reported":1781269274,"current_range_meters":7200,"station_id":"st_d3js3co5814s73ftftug","pricing_plan_id":"cebpf4jnsgd1na2vs0mg"},{"bike_id":"d2f40494-7705-4a88-8ec5-125a6496c1c9","system_id":"levelo_inurba_marseille","lat":43.27377,"lon":5.36272,"is_reserved":false,"is_disabled":false,"rental_uris":{"android":"levelo://app?vid=d2f40494-7705-4a88-8ec5-125a6496c1c9","ios":"levelo://app?vid=d2f40494-7705-4a88-8ec5-125a6496c1c9"},"vehicle_type_id":"4","last_reported":1781269274,"current_range_meters":7200,"station_id":"ce4bhbh2rcd13ifvqeo0","pricing_plan_id":"cebpf4jnsgd1na2vs0mg"},{"bike_id":"3f5735fc-0f6c-42e9-bae9-f9f7e24a0d0d","system_id":"levelo_inurba_marseille","lat":43.30541,"lon":5.38447,"is_reserved":false,"is_disabled":false,"rental_uris":{"android":"levelo://app?vid=3f5735fc-0f6c-42e9-bae9-f9f7e24a0d0d","ios":"levelo://app?vid=3f5735fc-0f6c-42e9-bae9-f9f7e24a0d0d"},"vehicle_type_id":"4","last_reported":1781269274,"current_range_meters":7200,"station_id":"ce4bgg92rcd13ifvqb30","pricing_plan_id":"cebpf4jnsgd1na2vs0mg"},{"bike_id":"651232e3-fbf7-4a83-ac7d-b2bcba5398be","system_id":"levelo_inurba_marseille","lat":43.26549,"lon":5.37287,"is_reserved":false,"is_disabled":false,"rental_uris":{"android":"levelo://app?vid=651232e3-fbf7-4a83-ac7d-b2bcba5398be","ios":"levelo://app?vid=651232e3-fbf7-4a83-ac7d-b2bcba5398be"},"vehicle_type_id":"4","last_reported":1781269274,"current_range_meters":8000,"station_id":"ce4bhg12rcd13ifvqf70","pricing_plan_id":"cebpf4jnsgd1na2vs0mg"},{"bike_id":"daa9cf9d-228f-40f1-9f05-7ad854eec263","system_id":"levelo_inurba_marseille","lat":43.287026,"lon":5.399876,"is_reserved":false,"is_disabled":false,"rental_uris":{"android":"levelo://app?vid=daa9cf9d-228f-40f1-9f05-7ad854eec263","ios":"levelo://app?vid=daa9cf9d-228f-40f1-9f05-7ad854eec263"},"vehicle_type_id":"4","last_reported":1781269274,"current_range_meters":8000,"station_id":"ce4bho92rcd13ifvqh3g","pricing_plan_id":"cebpf4jnsgd1na2vs0mg"},{"bike_id":"d39db183-6bf7-420a-96f5-b25822544857","system_id":"levelo_inurba_marseille","lat":43.32345,"lon":5.36732,"is_reserved":false,"is_disabled":false,"rental_uris":{"android":"levelo://app?vid=d39db183-6bf7-420a-96f5-b25822544857","ios":"levelo://app?vid=d39db183-6bf7-420a-96f5-b25822544857"},"vehicle_type_id":"4","last_reported":1781269274,"current_range_meters":8000,"station_id":"ce4bhsh2rcd13ifvqi2g","pricing_plan_id":"cebpf4jnsgd1na2vs0mg"},{"bike_id":"e709d536-92d3-4ca3-8221-f3eccb7a50dc","system_id":"levelo_inurba_marseille","lat":43.33582,"lon":5.37512,"is_reserved":false,"is_disabled":false,"rental_uris":{"android":"levelo://app?vid=e709d536-92d3-4ca3-8221-f3eccb7a50dc","ios":"levelo://app?vid=e709d536-92d3-4ca3-8221-f3eccb7a50dc"},"vehicle_type_id":"4","last_reported":1781269274,"current_range_meters":8000,"station_id":"st_d46tts09ee8s73dlu43g","pricing_plan_id":"cebpf4jnsgd1na2vs0mg"},{"bike_id":"5e91578c-c3d4-48c0-b561-da17b5977358","system_id":"levelo_inurba_marseille","lat":43.27371,"lon":5.36218,"is_reserved":false,"is_disabled":false,"rental_uris":{"android":"levelo://app?vid=5e91578c-c3d4-48c0-b561-da17b5977358","ios":"levelo://app?vid=5e91578c-c3d4-48c0-b561-da17b5977358"},"vehicle_type_id":"4","last_reported":1781269274,"current_range_meters":8000,"station_id":"ce4bhbh2rcd13ifvqeo0","pricing_plan_id":"cebpf4jnsgd1na2vs0mg"},{"bike_id":"0bfa30f2-9064-420d-a48a-a650a411e291","system_id":"levelo_inurba_marseille","lat":43.25565,"lon":5.38253,"is_reserved":false,"is_disabled":false,"rental_uris":{"android":"levelo://app?vid=0bfa30f2-9064-420d-a48a-a650a411e291","ios":"levelo://app?vid=0bfa30f2-9064-420d-a48a-a650a411e291"},"vehicle_type_id":"4","last_reported":1781269274,"current_range_meters":8000,"station_id":"ce4bhih2rcd13ifvqfs0","pricing_plan_id":"cebpf4jnsgd1na2vs0mg"},{"bike_id":"a0d2ac5f-fff6-43f6-831d-dfa81e9c3981","system_id":"levelo_inurba_marseille","lat":43.29585,"lon":5.36406,"is_reserved":false,"is_disabled":false,"rental_uris":{"android":"levelo://app?vid=a0d2ac5f-fff6-43f6-831d-dfa81e9c3981","ios":"levelo://app?vid=a0d2ac5f-fff6-43f6-831d-dfa81e9c3981"},"vehicle_type_id":"4","last_reported":1781269274,"current_range_meters":8000,"station_id":"","pricing_plan_id":"cebpf4jnsgd1na2vs0mg"},{"bike_id":"3171beed-ba41-4290-affc-9ea88eff5208","system_id":"levelo_inurba_marseille","lat":43.24953,"lon":5.40511,"is_reserved":false,"is_disabled":false,"rental_uris":{"android":"levelo://app?vid=3171beed-ba41-4290-affc-9ea88eff5208","ios":"levelo://app?vid=3171beed-ba41-4290-affc-9ea88eff5208"},"vehicle_type_id":"4","last_reported":1781269274,"current_range_meters":8000,"station_id":"st_d2ngiaodas8pm72gd1h0","pricing_plan_id":"cebpf4jnsgd1na2vs0mg"},{"bike_id":"76b5dbf6-4dec-4e15-b75c-64bfd5286ab8","system_id":"levelo_inurba_marseille","lat":43.33559,"lon":5.37482,"is_reserved":false,"is_disabled":false,"rental_uris":{"android":"levelo://app?vid=76b5dbf6-4dec-4e15-b75c-64bfd5286ab8","ios":"levelo://app?vid=76b5dbf6-4dec-4e15-b75c-64bfd5286ab8"},