{"last_updated":1691309281,"ttl":30,"version":"2.2","data":{"bikes":[{"bike_id":"58734183-fbb9-4227-8fe3-e6c489de409f","system_id":"levelo_inurba_marseille","lat":43.31341,"lon":5.367098,"is_reserved":false,"is_disabled":false,"rental_uris":{"android":"levelo://app?vid=58734183-fbb9-4227-8fe3-e6c489de409f","ios":"levelo://app?vid=58734183-fbb9-4227-8fe3-e6c489de409f"},"vehicle_type_id":"4","last_reported":1691309281,"current_range_meters":31600,"station_id":"ce4bgr92rcd13ifvqc6g","pricing_plan_id":"free"},{"bike_id":"c1b1be25-cd96-4083-be15-a488ef764a95","system_id":"levelo_inurba_marseille","lat":43.313391,"lon":5.36706,"is_reserved":false,"is_disabled":false,"rental_uris":{"android":"levelo://app?vid=c1b1be25-cd96-4083-be15-a488ef764a95","ios":"levelo://app?vid=c1b1be25-cd96-4083-be15-a488ef764a95"},"vehicle_type_id":"4","last_reported":1691309281,"current_range_meters":28000,"station_id":"ce4bgr92rcd13ifvqc6g","pricing_plan_id":"free"},{"bike_id":"62e36260-2422-4c4f-917b-693f29366b22","system_id":"levelo_inurba_marseille","lat":43.313391,"lon":5.36706,"is_reserved":false,"is_disabled":false,"rental_uris":{"android":"levelo://app?vid=62e36260-2422-4c4f-917b-693f29366b22","ios":"levelo://app?vid=62e36260-2422-4c4f-917b-693f29366b22"},"vehicle_type_id":"4","last_reported":1691309281,"current_range_meters":30400,"station_id":"ce4bgr92rcd13ifvqc6g","pricing_plan_id":"free"},{"bike_id":"d248b7df-946c-4e6a-af7e-0a3f02cb4872","system_id":"levelo_inurba_marseille","lat":43.31341,"lon":5.367098,"is_reserved":false,"is_disabled":false,"rental_uris":{"android":"levelo://app?vid=d248b7df-946c-4e6a-af7e-0a3f02cb4872","ios":"levelo://app?vid=d248b7df-946c-4e6a-af7e-0a3f02cb4872"},"vehicle_type_id":"4","last_reported":1691309281,"current_range_meters":13600,"station_id":"ce4bgr92rcd13ifvqc6g","pricing_plan_id":"free"},{"bike_id":"8ee750b7-bb17-42f8-8cd1-13fe11413758","system_id":"levelo_inurba_marseille","lat":43.31341,"lon":5.367098,"is_reserved":false,"is_disabled":false,"rental_uris":{"android":"levelo://app?vid=8ee750b7-bb17-42f8-8cd1-13fe11413758","ios":"levelo://app?vid=8ee750b7-bb17-42f8-8cd1-13fe11413758"},"vehicle_type_id":"4","last_reported":1691309281,"current_range_meters":29200,"station_id":"ce4bgr92rcd13ifvqc6g","pricing_plan_id":"free"},{"bike_id":"05d8e89b-ad73-461b-a850-aa6b7bd3087a","system_id":"levelo_inurba_marseille","lat":43.312239,"lon":5.368562,"is_reserved":false,"is_disabled":false,"rental_uris":{"android":"levelo://app?vid=05d8e89b-ad73-461b-a850-aa6b7bd3087a","ios":"levelo://app?vid=05d8e89b-ad73-461b-a850-aa6b7bd3087a"},"vehicle_type_id":"4","last_reported":1691309281,"current_range_meters":16400,"station_id":"ce4bgl92rcd13ifvqbq0","pricing_plan_id":"free"},{"bike_id":"5bdf8c20-9c72-47ab-afc6-2b84567e0617","system_id":"levelo_inurba_marseille","lat":43.31225,"lon":5.3684,"is_reserved":false,"is_disabled":false,"rental_uris":{"android":"levelo://app?vid=5bdf8c20-9c72-47ab-afc6-2b84567e0617","ios":"levelo://app?vid=5bdf8c20-9c72-47ab-afc6-2b84567e0617"},"vehicle_type_id":"4","last_reported":1691309281,"current_range_meters":14400,"station_id":"ce4bgl92rcd13ifvqbq0","pricing_plan_id":"free"},{"bike_id":"d31122e6-e65b-4e35-b9ad-0bae407fb5a5","system_id":"levelo_inurba_marseille","lat":43.312239,"lon":5.368562,"is_reserved":false,"is_disabled":false,"rental_uris":{"android":"levelo://app?vid=d31122e6-e65b-4e35-b9ad-0bae407fb5a5","ios":"levelo://app?vid=d31122e6-e65b-4e35-b9ad-0bae407fb5a5"},"vehicle_type_id":"4","last_reported":1691309281,"current_range_meters":13200,"station_id":"ce4bgl92rcd13ifvqbq0","pricing_plan_id":"free"},{"bike_id":"22bed36d-b2d5-4351-a2a0-3bcc3d1e349e","system_id":"levelo_inurba_marseille","lat":43.312239,"lon":5.368562,"is_reserved":false,"is_disabled":false,"rental_uris":{"android":"levelo://app?vid=22bed36d-b2d5-4351-a2a0-3bcc3d1e349e","ios":"levelo://app?vid=22bed36d-b2d5-4351-a2a0-3bcc3d1e349e"},"vehicle_type_id":"4","last_reported":1691309281,"current_range_meters":29600,"station_id":"ce4bgl92rcd13ifvqbq0","pricing_plan_id":"free"},{"bike_id":"63e4f977-31fa-440e-aaf1-ee59a505a3c3","system_id":"levelo_inurba_marseille","lat":43.31224,"lon":5.36862,"is_reserved":false,"is_disabled":false,"rental_uris":{"android":"levelo://app?vid=63e4f977-31fa-440e-aaf1-ee59a505a3c3","ios":"levelo://app?vid=63e4f977-31fa-440e-aaf1-ee59a505a3c3"},"vehicle_type_id":"4","last_reported":1691309281,"current_range_meters":5200,"station_id":"ce4bgl92rcd13ifvqbq0","pricing_plan_id":"free"},{"bike_id":"33951078-daff-46c4-9627-38f8bc17cb36","system_id":"levelo_inurba_marseille","lat":43.314811,"lon":5.373103,"is_reserved":false,"is_disabled":false,"rental_uris":{"android":"levelo://app?vid=33951078-daff-46c4-9627-38f8bc17cb36","ios":"levelo://app?vid=33951078-daff-46c4-9627-38f8bc17cb36"},"vehicle_type_id":"4","last_reported":1691309281,"current_range_meters":30800,"station_id":"ce4bgt12rcd13ifvqcd0","pricing_plan_id":"free"},{"bike_id":"1d34d82d-c264-4a80-aec0-e449b84e99c0","system_id":"levelo_inurba_marseille","lat":43.314811,"lon":5.373103,"is_reserved":false,"is_disabled":false,"rental_uris":{"android":"levelo://app?vid=1d34d82d-c264-4a80-aec0-e449b84e99c0","ios":"levelo://app?vid=1d34d82d-c264-4a80-aec0-e449b84e99c0"},"vehicle_type_id":"4","last_reported":1691309281,"current_range_meters":31200,"station_id":"ce4bgt12rcd13ifvqcd0","pricing_plan_id":"free"},{"bike_id":"fff6cc56-76c9-43b2-8a10-d4d1c3f87d51","system_id":"levelo_inurba_marseille","lat":43.314811,"lon":5.373103,"is_reserved":false,"is_disabled":false,"rental_uris":{"android":"levelo://app?vid=fff6cc56-76c9-43b2-8a10-d4d1c3f87d51","ios":"levelo://app?vid=fff6cc56-76c9-43b2-8a10-d4d1c3f87d51"},"vehicle_type_id":"4","last_reported":1691309281,"current_range_meters":31600,"station_id":"ce4bgt12rcd13ifvqcd0","pricing_plan_id":"free"},{"bike_id":"8f78bd04-8c9d-4926-ac08-ab3032ad6429","system_id":"levelo_inurba_marseille","lat":43.314811,"lon":5.373104,"is_reserved":false,"is_disabled":false,"rental_uris":{"android":"levelo://app?vid=8f78bd04-8c9d-4926-ac08-ab3032ad6429","ios":"levelo://app?vid=8f78bd04-8c9d-4926-ac08-ab3032ad6429"},"vehicle_type_id":"4","last_reported":1691309281,"current_range_meters":6000,"station_id":"ce4bgt12rcd13ifvqcd0","pricing_plan_id":"free"},{"bike_id":"2364cf7f-0315-4589-a199-670f96592df8","system_id":"levelo_inurba_marseille","lat":43.314811,"lon":5.373103,"is_reserved":false,"is_disabled":false,"rental_uris":{"android":"levelo://app?vid=2364cf7f-0315-4589-a199-670f96592df8","ios":"levelo://app?vid=2364cf7f-0315-4589-a199-670f96592df8"},"vehicle_type_id":"4","last_reported":1691309281,"current_range_meters":29600,"station_id":"ce4bgt12rcd13ifvqcd0","pricing_plan_id":"free"},{"bike_id":"eadf12d3-390e-4e80-af57-2dbbec3617cf","system_id":"levelo_inurba_marseille","lat":43.314811,"lon":5.373104,"is_reserved":false,"is_disabled":false,"rental_uris":{"android":"levelo://app?vid=eadf12d3-390e-4e80-af57-2dbbec3617cf","ios":"levelo://app?vid=eadf12d3-390e-4e80-af57-2dbbec3617cf"},"vehicle_type_id":"4","last_reported":1691309281,"current_range_meters":31600,"station_id":"ce4bgt12rcd13ifvqcd0","pricing_plan_id":"free"},{"bike_id":"5c9d617d-982c-44be-a622-2b6ac4978f36","system_id":"levelo_inurba_marseille","lat":43.314811,"lon":5.373104,"is_reserved":false,"is_disabled":false,"rental_uris":{"android":"levelo://app?vid=5c9d617d-982c-44be-a622-2b6ac4978f36","ios":"levelo://app?vid=5c9d617d-982c-44be-a622-2b6ac4978f36"},"vehicle_type_id":"4","last_reported":1691309281,"current_range_meters":26400,"station_id":"ce4bgt12rcd13ifvqcd0","pricing_plan_id":"free"},{"bike_id":"954a02e3-be86-4119-9696-565f14e92251","system_id":"levelo_inurba_marseille","lat":43.309039,"lon":5.371797,"is_reserved":false,"is_disabled":false,"rental_uris":{"android":"levelo://app?vid=954a02e3-be86-4119-9696-565f14e92251","ios":"levelo://app?vid=954a02e3-be86-4119-9696-565f14e92251"},"vehicle_type_id":"4","last_reported":1691309281,"current_range_meters":31600,"station_id":"ce4bguh2rcd13ifvqckg","pricing_plan_id":"free"},{"bike_id":"7cfb81a3-fd7f-41d1-987d-c1037b7c6b4a","system_id":"levelo_inurba_marseille","lat":43.31391,"lon":5.37422,"is_reserved":false,"is_disabled":false,"rental_uris":{"android":"levelo://app?vid=7cfb81a3-fd7f-41d1-987d-c1037b7c6b4a","ios":"levelo://app?vid=7cfb81a3-fd7f-41d1-987d-c1037b7c6b4a"},"vehicle_type_id":"4","last_reported":1691309281,"current_range_meters":8400,"station_id":"","pricing_plan_id":"free"},{"bike_id":"977af5cc-3361-494d-9371-c93faffa693e","system_id":"levelo_inurba_marseille","lat":43.30552,"lon":5.36697,"is_reserved":false,"is_disabled":false,"rental_uris":{"android":"levelo://app?vid=977af5cc-3361-494d-9371-c93faffa693e","ios":"levelo://app?vid=977af5cc-3361-494d-9371-c93faffa693e"},"vehicle_type_id":"4","last_reported":1691309281,"current_range_meters":12000,"station_id":"ce4bgrp2rcd13ifvqc9g","pricing_plan_id":"free"},{"bike_id":"846d2b45-f98b-47dc-a4cc-fe7bce61002c","system_id":"levelo_inurba_marseille","lat":43.305714,"lon":5.365633,"is_reserved":false,"is_disabled":false,"rental_uris":{"android":"levelo://app?vid=846d2b45-f98b-47dc-a4cc-fe7bce61002c","ios":"levelo://app?vid=846d2b45-f98b-47dc-a4cc-fe7bce61002c"},"vehicle_type_id":"4","last_reported":1691309281,"current_range_meters":22800,"station_id":"ce4bgs12rcd13ifvqcag","pricing_plan_id":"free"},{"bike_id":"32dee3c6-83fb-4f38-95d0-7ef990776130","system_id":"levelo_inurba_marseille","lat":43.30541,"lon":5.36712,"is_reserved":false,"is_disabled":false,"rental_uris":{"android":"levelo://app?vid=32dee3c6-83fb-4f38-95d0-7ef990776130","ios":"levelo://app?vid=32dee3c6-83fb-4f38-95d0-7ef990776130"},"vehicle_type_id":"4","last_reported":1691309281,"current_range_meters":9200,"station_id":"ce4bgrp2rcd13ifvqc9g","pricing_plan_id":"free"},{"bike_id":"844d20d8-bbb2-4512-84f6-23356d8a3027","system_id":"levelo_inurba_marseille","lat":43.305714,"lon":5.365633,"is_reserved":false,"is_disabled":false,"rental_uris":{"android":"levelo://app?vid=844d20d8-bbb2-4512-84f6-23356d8a3027","ios":"levelo://app?vid=844d20d8-bbb2-4512-84f6-23356d8a3027"},"vehicle_type_id":"4","last_reported":1691309281,"current_range_meters":22400,"station_id":"ce4bgs12rcd13ifvqcag","pricing_plan_id":"free"},{"bike_id":"4e4d3dde-0a9d-402e-9a98-277b84024ea8","system_id":"levelo_inurba_marseille","lat":43.30527,"lon":5.36533,"is_reserved":false,"is_disabled":false,"rental_uris":{"android":"levelo://app?vid=4e4d3dde-0a9d-402e-9a98-277b84024ea8","ios":"levelo://app?vid=4e4d3dde-0a9d-402e-9a98-277b84024ea8"},"vehicle_type_id":"4","last_reported":1691309281,"current_range_meters":30400,"station_id":"ce4bgs12rcd13ifvqcag","pricing_plan_id":"free"},{"bike_id":"31d150ef-37b9-45dc-b38d-628e1bd55832","system_id":"levelo_inurba_marseille","lat":43.305989,"lon":5.37225,"is_reserved":false,"is_disabled":false,"rental_uris":{"android":"levelo://app?vid=31d150ef-37b9-45dc-b38d-628e1bd55832","ios":"levelo://app?vid=31d150ef-37b9-45dc-b38d-628e1bd55832"},"vehicle_type_id":"4","last_reported":1691309281,"current_range_meters":28400,"station_id":"ce4bgqh2rcd13ifvqc4g","pricing_plan_id":"free"},{"bike_id":"f96b54ac-dfd6-4c96-9dd1-99d3c97ef6f9","system_id":"levelo_inurba_marseille","lat":43.30598,"lon":5.3721,"is_reserved":false,"is_disabled":false,"rental_uris":{"android":"levelo://app?vid=f96b54ac-dfd6-4c96-9dd1-99d3c97ef6f9","ios":"levelo://app?vid=f96b54ac-dfd6-4c96-9dd1-99d3c97ef6f9"},"vehicle_type_id":"4","last_reported":1691309281,"current_range_meters":31600,"station_id":"","pricing_plan_id":"free"},{"bike_id":"694c99e6-2a15-40f1-b444-f9f956fde505","system_id":"levelo_inurba_marseille","lat":43.305989,"lon":5.37225,"is_reserved":false,"is_disabled":false,"rental_uris":{"android":"levelo://app?vid=694c99e6-2a15-40f1-b444-f9f956fde505","ios":"levelo://app?vid=694c99e6-2a15-40f1-b444-f9f956fde505"},"vehicle_type_id":"4","last_reported":1691309281,"current_range_meters":32000,"station_id":"ce4bgqh2rcd13ifvqc4g","pricing_plan_id":"free"},{"bike_id":"ed5bb2e0-1a19-4617-b0ae-dd6a8c37f7da","system_id":"levelo_inurba_marseille","lat":43.305989,"lon":5.37225,"is_reserved":false,"is_disabled":false,"rental_uris":{"android":"levelo://app?vid=ed5bb2e0-1a19-4617-b0ae-dd6a8c37f7da","ios":"levelo://app?vid=ed5bb2e0-1a19-4617-b0ae-dd6a8c37f7da"},"vehicle_type_id":"4","last_reported":1691309281,"current_range_meters":25600,"station_id":"ce4bgqh2rcd13ifvqc4g","pricing_plan_id":"free"},{"bike_id":"e9eb0069-1671-4a91-b949-164ecccff20b","system_id":"levelo_inurba_marseille","lat":43.305989,"lon":5.37225,"is_reserved":false,"is_disabled":false,"rental_uris":{"android":"levelo://app?vid=e9eb0069-1671-4a91-b949-164ecccff20b","ios":"levelo://app?vid=e9eb0069-1671-4a91-b949-164ecccff20b"},"vehicle_type_id":"4","last_reported":1691309281,"current_range_meters":31600,"station_id":"ce4bgqh2rcd13ifvqc4g","pricing_plan_id":"free"},{"bike_id":"f20ea888-8740-440b-bfeb-8eb2a7c1f652","system_id":"levelo_inurba_marseille","lat":43.305989,"lon":5.37225,"is_reserved":false,"is_disabled":false,"rental_uris":{"android":"levelo://app?vid=f20ea888-8740-440b-bfeb-8eb2a7c1f652","ios":"levelo://app?vid=f20ea888-8740-440b-bfeb-8eb2a7c1f652"},"vehicle_type_id":"4","last_reported":1691309281,"current_range_meters":31600,"station_id":"ce4bgqh2rcd13ifvqc4g","pricing_plan_id":"free"},{"bike_id":"b23ae0fa-3dbd-4138-97da-639d2b67295e","system_id":"levelo_inurba_marseille","lat":43.306,"lon":5.37239,"is_reserved":false,"is_disabled":false,"rental_uris":{"android":"levelo://app?vid=b23ae0fa-3dbd-4138-97da-639d2b67295e","ios":"levelo://app?vid=b23ae0fa-3dbd-4138-97da-639d2b67295e"},"vehicle_type_id":"4","last_reported":1691309281,"current_range_meters":20400,"station_id":"ce4bgqh2rcd13ifvqc4g","pricing_plan_id":"free"},{"bike_id":"5e41b596-3044-4cae-a13f-1335a5dd5bdb","system_id":"levelo_inurba_marseille","lat":43.311125,"lon":5.377624,"is_reserved":false,"is_disabled":false,"rental_uris":{"android":"levelo://app?vid=5e41b596-3044-4cae-a13f-1335a5dd5bdb","ios":"levelo://app?vid=5e41b596-3044-4cae-a13f-1335a5dd5bdb"},"vehicle_type_id":"4","last_reported":1691309281,"current_range_meters":10000,"station_id":"ce4bgt92rcd13ifvqcg0","pricing_plan_id":"free"},{"bike_id":"fe516c60-3a10-4b39-9136-8571493a4aa8","system_id":"levelo_inurba_marseille","lat":43.30776,"lon":5.37641,"is_reserved":false,"is_disabled":false,"rental_uris":{"android":"levelo://app?vid=fe516c60-3a10-4b39-9136-8571493a4aa8","ios":"levelo://app?vid=fe516c60-3a10-4b39-9136-8571493a4aa8"},"vehicle_type_id":"4","last_reported":1691309281,"current_range_meters":0,"station_id":"ce4bgv92rcd13ifvqcq0","pricing_plan_id":"free"},{"bike_id":"05c1ae01-0d85-4dfb-9c59-2efa05d710e3","system_id":"levelo_inurba_marseille","lat":43.307945,"lon":5.376487,"is_reserved":false,"is_disabled":false,"rental_uris":{"android":"levelo://app?vid=05c1ae01-0d85-4dfb-9c59-2efa05d710e3","ios":"levelo://app?vid=05c1ae01-0d85-4dfb-9c59-2efa05d710e3"},"vehicle_type_id":"4","last_reported":1691309281,"current_range_meters":2000,"station_id":"ce4bgv92rcd13ifvqcq0","pricing_plan_id":"free"},{"bike_id":"27ff5d3a-47ea-4a6b-9da8-9e5ebe3ae4c3","system_id":"levelo_inurba_marseille","lat":43.317075,"lon":5.377367,"is_reserved":false,"is_disabled":false,"rental_uris":{"android":"levelo://app?vid=27ff5d3a-47ea-4a6b-9da8-9e5ebe3ae4c3","ios":"levelo://app?vid=27ff5d3a-47ea-4a6b-9da8-9e5ebe3ae4c3"},"vehicle_type_id":"4","last_reported":1691309281,"current_range_meters":31600,"station_id":"ce4bgth2rcd13ifvqch0","pricing_plan_id":"free"},{"bike_id":"d65f31fd-588e-4e32-b675-72af623a8dac","system_id":"levelo_inurba_marseille","lat":43.31705,"lon":5.37761,"is_reserved":false,"is_disabled":false,"rental_uris":{"android":"levelo://app?vid=d65f31fd-588e-4e32-b675-72af623a8dac","ios":"levelo://app?vid=d65f31fd-588e-4e32-b675-72af623a8dac"},"vehicle_type_id":"4","last_reported":1691309281,"current_range_meters":400,"station_id":"ce4bgth2rcd13ifvqch0","pricing_plan_id":"free"},{"bike_id":"2dcfb817-b7bf-40b0-9209-2d61b46940cb","system_id":"levelo_inurba_marseille","lat":43.315293,"lon":5.380349,"is_reserved":false,"is_disabled":false,"rental_uris":{"android":"levelo://app?vid=2dcfb817-b7bf-40b0-9209-2d61b46940cb","ios":"levelo://app?vid=2dcfb817-b7bf-40b0-9209-2d61b46940cb"},"vehicle_type_id":"4","last_reported":1691309281,"current_range_meters":18800,"station_id":"ce4bhsp2rcd13ifvqi50","pricing_plan_id":"free"},{"bike_id":"8c19fac9-0322-484f-8e7d-9982d5b54555","system_id":"levelo_inurba_marseille","lat":43.315293,"lon":5.380349,"is_reserved":false,"is_disabled":false,"rental_uris":{"android":"levelo://app?vid=8c19fac9-0322-484f-8e7d-9982d5b54555","ios":"levelo://app?vid=8c19fac9-0322-484f-8e7d-9982d5b54555"},"vehicle_type_id":"4","last_reported":1691309281,"current_range_meters":2400,"station_id":"ce4bhsp2rcd13ifvqi50","pricing_plan_id":"free"},{"bike_id":"04527312-1c3e-4d12-a204-55b6f23e6bd8","system_id":"levelo_inurba_marseille","lat":43.3048,"lon":5.37905,"is_reserved":false,"is_disabled":false,"rental_uris":{"android":"levelo://app?vid=04527312-1c3e-4d12-a204-55b6f23e6bd8","ios":"levelo://app?vid=04527312-1c3e-4d12-a204-55b6f23e6bd8"},"vehicle_type_id":"4","last_reported":1691309281,"current_range_meters":31600,"station_id":"","pricing_plan_id":"free"},{"bike_id":"979f1606-9dd4-4ecc-b0e2-9afc34129525","system_id":"levelo_inurba_marseille","lat":43.304606,"lon":5.379026,"is_reserved":false,"is_disabled":false,"rental_uris":{"android":"levelo://app?vid=979f1606-9dd4-4ecc-b0e2-9afc34129525","ios":"levelo://app?vid=979f1606-9dd4-4ecc-b0e2-9afc34129525"},"vehicle_type_id":"4","last_reported":1691309281,"current_range_meters":31600,"station_id":"ce4bgup2rcd13ifvqcn0","pricing_plan_id":"free"},{"bike_id":"19d07761-504d-4be3-84ab-51918b5ba3a3","system_id":"levelo_inurba_marseille","lat":43.304606,"lon":5.379026,"is_reserved":false,"is_disabled":false,"rental_uris":{"android":"levelo://app?vid=19d07761-504d-4be3-84ab-51918b5ba3a3","ios":"levelo://app?vid=19d07761-504d-4be3-84ab-51918b5ba3a3"},"vehicle_type_id":"4","last_reported":1691309281,"current_range_meters":31600,"station_id":"ce4bgup2rcd13ifvqcn0","pricing_plan_id":"free"},{"bike_id":"a336ccb5-0262-49ad-be66-776098a94248","system_id":"levelo_inurba_marseille","lat":43.30465,"lon":5.37901,"is_reserved":false,"is_disabled":false,"rental_uris":{"android":"levelo://app?vid=a336ccb5-0262-49ad-be66-776098a94248","ios":"levelo://app?vid=a336ccb5-0262-49ad-be66-776098a94248"},"vehicle_type_id":"4","last_reported":1691309281,"current_range_meters":30400,"station_id":"ce4bgup2rcd13ifvqcn0","pricing_plan_id":"free"},{"bike_id":"2757a471-ef70-4a5b-894a-2e06a2b01723","system_id":"levelo_inurba_marseille","lat":43.304606,"lon":5.379026,"is_reserved":false,"is_disabled":false,"rental_uris":{"android":"levelo://app?vid=2757a471-ef70-4a5b-894a-2e06a2b01723","ios":"levelo://app?vid=2757a471-ef70-4a5b-894a-2e06a2b01723"},"vehicle_type_id":"4","last_reported":1691309281,"current_range_meters":7200,"station_id":"ce4bgup2rcd13ifvqcn0","pricing_plan_id":"free"},{"bike_id":"65a9744f-f678-4c35-b2eb-8bbb67e0b5e6","system_id":"levelo_inurba_marseille","lat":43.304606,"lon":5.379026,"is_reserved":false,"is_disabled":false,"rental_uris":{"android":"levelo://app?vid=65a9744f-f678-4c35-b2eb-8bbb67e0b5e6","ios":"levelo://app?vid=65a9744f-f678-4c35-b2eb-8bbb67e0b5e6"},"vehicle_type_id":"4","last_reported":1691309281,"current_range_meters":7200,"station_id":"ce4bgup2rcd13ifvqcn0","pricing_plan_id":"free"},{"bike_id":"58362499-4b18-412b-bedf-0a397d2ed190","system_id":"levelo_inurba_marseille","lat":43.304606,"lon":5.379026,"is_reserved":false,"is_disabled":false,"rental_uris":{"android":"levelo://app?vid=58362499-4b18-412b-bedf-0a397d2ed190","ios":"levelo://app?vid=58362499-4b18-412b-bedf-0a397d2ed190"},"vehicle_type_id":"4","last_reported":1691309281,"current_range_meters":24800,"station_id":"ce4bgup2rcd13ifvqcn0","pricing_plan_id":"free"},{"bike_id":"f7464e74-b5e4-44d0-a57f-86ab7eeed501","system_id":"levelo_inurba_marseille","lat":43.304606,"lon":5.379026,"is_reserved":false,"is_disabled":false,"rental_uris":{"android":"levelo://app?vid=f7464e74-b5e4-44d0-a57f-86ab7eeed501","ios":"levelo://app?vid=f7464e74-b5e4-44d0-a57f-86ab7eeed501"},"vehicle_type_id":"4","last_reported":1691309281,"current_range_meters":29600,"station_id":"ce4bgup2rcd13ifvqcn0","pricing_plan_id":"free"},{"bike_id":"e1d32c92-32de-4149-b2dc-1a2edafd0a5f","system_id":"levelo_inurba_marseille","lat":43.304606,"lon":5.379026,"is_reserved":false,"is_disabled":false,"rental_uris":{"android":"levelo://app?vid=e1d32c92-32de-4149-b2dc-1a2edafd0a5f","ios":"levelo://app?vid=e1d32c92-32de-4149-b2dc-1a2edafd0a5f"},"vehicle_type_id":"4","last_reported":1691309281,"current_range_meters":29600,"station_id":"ce4bgup2rcd13ifvqcn0","pricing_plan_id":"free"},{"bike_id":"ce820944-de1b-4362-bcb2-bba6890d6d5a","system_id":"levelo_inurba_marseille","lat":43.302784,"lon":5.377158,"is_reserved":false,"is_disabled":false,"rental_uris":{"android":"levelo://app?vid=ce820944-de1b-4362-bcb2-bba6890d6d5a","ios":"levelo://app?vid=ce820944-de1b-4362-bcb2-bba6890d6d5a"},"vehicle_type_id":"4","last_reported":1691309281,"current_range_meters":31600,"station_id":"ce4bguh2rcd13ifvqcj0","pricing_plan_id":"free"},{"bike_id":"fab5eff2-a576-427a-a23b-df9639d149a3","system_id":"levelo_inurba_marseille","lat":43.302784,"lon":5.377158,"is_reserved":false,"is_disabled":false,"rental_uris":{"android":"levelo://app?vid=fab5eff2-a576-427a-a23b-df9639d149a3","ios":"levelo://app?vid=fab5eff2-a576-427a-a23b-df9639d149a3"},"vehicle_type_id":"4","last_reported":1691309281,"current_range_meters":31600,"station_id":"ce4bguh2rcd13ifvqcj0","pricing_plan_id":"free"},{"bike_id":"bf80654a-1d69-48c7-8fa0-647f9dc4b17c","system_id":"levelo_inurba_marseille","lat":43.302784,"lon":5.377158,"is_reserved":false,"is_disabled":false,"rental_uris":{"android":"levelo://app?vid=bf80654a-1d69-48c7-8fa0-647f9dc4b17c","ios":"levelo://app?vid=bf80654a-1d69-48c7-8fa0-647f9dc4b17c"},"vehicle_type_id":"4","last_reported":1691309281,"current_range_meters":28800,"station_id":"ce4bguh2rcd13ifvqcj0","pricing_plan_id":"free"},{"bike_id":"240424c5-b0f4-4443-9e01-79ace73464aa","system_id":"levelo_inurba_marseille","lat":43.302784,"lon":5.377158,"is_reserved":false,"is_disabled":false,"rental_uris":{"android":"levelo://app?vid=240424c5-b0f4-4443-9e01-79ace73464aa","ios":"levelo://app?vid=240424c5-b0f4-4443-9e01-79ace73464aa"},"vehicle_type_id":"4","last_reported":1691309281,"current_range_meters":30800,"station_id":"ce4bguh2rcd13ifvqcj0","pricing_plan_id":"free"},{"bike_id":"cb31e567-1f56-4c43-a0bd-9189e49b78a1","system_id":"levelo_inurba_marseille","lat":43.319935,"lon":5.381699,"is_reserved":false,"is_disabled":false,"rental_uris":{"android":"levelo://app?vid=cb31e567-1f56-4c43-a0bd-9189e49b78a1","ios":"levelo://app?vid=cb31e567-1f56-4c43-a0bd-9189e49b78a1"},"vehicle_type_id":"4","last_reported":1691309281,"current_range_meters":3600,"station_id":"ce4bhr12rcd13ifvqhpg","pricing_plan_id":"free"},{"bike_id":"91c1e68c-072c-41ed-ab7d-e40ec14976ba","system_id":"levelo_inurba_marseille","lat":43.31996,"lon":5.38149,"is_reserved":false,"is_disabled":false,"rental_uris":{"android":"levelo://app?vid=91c1e68c-072c-41ed-ab7d-e40ec14976ba","ios":"levelo://app?vid=91c1e68c-072c-41ed-ab7d-e40ec14976ba"},"vehicle_type_id":"4","last_reported":1691309281,"current_range_meters":0,"station_id":"ce4bhr12rcd13ifvqhpg","pricing_plan_id":"free"},{"bike_id":"ff46f9b7-a2db-4c9d-b92d-bd2a79131d20","system_id":"levelo_inurba_marseille","lat":43.313571,"lon":5.384829,"is_reserved":false,"is_disabled":false,"rental_uris":{"android":"levelo://app?vid=ff46f9b7-a2db-4c9d-b92d-bd2a79131d20","ios":"levelo://app?vid=ff46f9b7-a2db-4c9d-b92d-bd2a79131d20"},"vehicle_type_id":"4","last_reported":1691309281,"current_range_meters":26800,"station_id":"ce4bgt92rcd13ifvqcf0","pricing_plan_id":"free"},{"bike_id":"6d9b2612-c13d-4e29-a571-1583b63e3c2a","system_id":"levelo_inurba_marseille","lat":43.31365,"lon":5.38492,"is_reserved":false,"is_disabled":false,"rental_uris":{"android":"levelo://app?vid=6d9b2612-c13d-4e29-a571-1583b63e3c2a","ios":"levelo://app?vid=6d9b2612-c13d-4e29-a571-1583b63e3c2a"},"vehicle_type_id":"4","last_reported":1691309281,"current_range_meters":0,"station_id":"ce4bgt92rcd13ifvqcf0","pricing_plan_id":"free"},{"bike_id":"b3af5a03-19e6-4e85-9cf6-58c734704b85","system_id":"levelo_inurba_marseille","lat":43.29932,"lon":5.36539,"is_reserved":false,"is_disabled":false,"rental_uris":{"android":"levelo://app?vid=b3af5a03-19e6-4e85-9cf6-58c734704b85","ios":"levelo://app?vid=b3af5a03-19e6-4e85-9cf6-58c734704b85"},"vehicle_type_id":"4","last_reported":1691309281,"current_range_meters":20400,"station_id":"ce4bgm92rcd13ifvqbr0","pricing_plan_id":"free"},{"bike_id":"a80d1e1f-db47-439d-91b2-b4884267ac24","system_id":"levelo_inurba_marseille","lat":43.29851,"lon":5.36289,"is_reserved":false,"is_disabled":false,"rental_uris":{"android":"levelo://app?vid=a80d1e1f-db47-439d-91b2-b4884267ac24","ios":"levelo://app?vid=a80d1e1f-db47-439d-91b2-b4884267ac24"},"vehicle_type_id":"4","last_reported":1691309281,"current_range_meters":10400,"station_id":"ce4bgpp2rcd13ifvqc3g","pricing_plan_id":"free"},{"bike_id":"68daaaa7-fe81-4880-9e24-7d01f1ddd306","system_id":"levelo_inurba_marseille","lat":43.298433,"lon":5.362774,"is_reserved":false,"is_disabled":false,"rental_uris":{"android":"levelo://app?vid=68daaaa7-fe81-4880-9e24-7d01f1ddd306","ios":"levelo://app?vid=68daaaa7-fe81-4880-9e24-7d01f1ddd306"},"vehicle_type_id":"4","last_reported":1691309281,"current_range_meters":31600,"station_id":"ce4bgpp2rcd13ifvqc3g","pricing_plan_id":"free"},{"bike_id":"6ac3bf15-f738-4efb-aa46-1b695485822d","system_id":"levelo_inurba_marseille","lat":43.298433,"lon":5.362774,"is_reserved":false,"is_disabled":false,"rental_uris":{"android":"levelo://app?vid=6ac3bf15-f738-4efb-aa46-1b695485822d","ios":"levelo://app?vid=6ac3bf15-f738-4efb-aa46-1b695485822d"},"vehicle_type_id":"4","last_reported":1691309281,"current_range_meters":28800,"station_id":"ce4bgpp2rcd13ifvqc3g","pricing_plan_id":"free"},{"bike_id":"ad836cad-3347-434e-989c-2491a70c60ed","system_id":"levelo_inurba_marseille","lat":43.298433,"lon":5.362774,"is_reserved":false,"is_disabled":false,"rental_uris":{"android":"levelo://app?vid=ad836cad-3347-434e-989c-2491a70c60ed","ios":"levelo://app?vid=ad836cad-3347-434e-989c-2491a70c60ed"},"vehicle_type_id":"4","last_reported":1691309281,"current_range_meters":19200,"station_id":"ce4bgpp2rcd13ifvqc3g","pricing_plan_id":"free"},{"bike_id":"e7259dd5-f0a3-4bbd-8088-b4dbb5ec5710","system_id":"levelo_inurba_marseille","lat":43.298433,"lon":5.362774,"is_reserved":false,"is_disabled":false,"rental_uris":{"android":"levelo://app?vid=e7259dd5-f0a3-4bbd-8088-b4dbb5ec5710","ios":"levelo://app?vid=e7259dd5-f0a3-4bbd-8088-b4dbb5ec5710"},"vehicle_type_id":"4","last_reported":1691309281,"current_range_meters":20800,"station_id":"ce4bgpp2rcd13ifvqc3g","pricing_plan_id":"free"},{"bike_id":"30537d43-af02-4a10-b928-7b9b8cf633d2","system_id":"levelo_inurba_marseille","lat":43.30533,"lon":5.38426,"is_reserved":false,"is_disabled":false,"rental_uris":{"android":"levelo://app?vid=30537d43-af02-4a10-b928-7b9b8cf633d2","ios":"levelo://app?vid=30537d43-af02-4a10-b928-7b9b8cf633d2"},"vehicle_type_id":"4","last_reported":1691309281,"current_range_meters":30400,"station_id":"ce4bgg92rcd13ifvqb30","pricing_plan_id":"free"},{"bike_id":"ee17bdb7-d8e1-402d-bb21-4b8d44eb1508","system_id":"levelo_inurba_marseille","lat":43.298433,"lon":5.362774,"is_reserved":false,"is_disabled":false,"rental_uris":{"android":"levelo://app?vid=ee17bdb7-d8e1-402d-bb21-4b8d44eb1508","ios":"levelo://app?vid=ee17bdb7-d8e1-402d-bb21-4b8d44eb1508"},"vehicle_type_id":"4","last_reported":1691309281,"current_range_meters":19200,"station_id":"ce4bgpp2rcd13ifvqc3g","pricing_plan_id":"free"},{"bike_id":"db58e97a-0382-4e8d-a8bf-598fd944aa9a","system_id":"levelo_inurba_marseille","lat":43.298433,"lon":5.362774,"is_reserved":false,"is_disabled":false,"rental_uris":{"android":"levelo://app?vid=db58e97a-0382-4e8d-a8bf-598fd944aa9a","ios":"levelo://app?vid=db58e97a-0382-4e8d-a8bf-598fd944aa9a"},"vehicle_type_id":"4","last_reported":1691309281,"current_range_meters":11600,"station_id":"ce4bgpp2rcd13ifvqc3g","pricing_plan_id":"free"},{"bike_id":"18f146a9-0caa-4091-8d94-419a449a7ca5","system_id":"levelo_inurba_marseille","lat":43.300852,"lon":5.390859,"is_reserved":false,"is_disabled":false,"rental_uris":{"android":"levelo://app?vid=18f146a9-0caa-4091-8d94-419a449a7ca5","ios":"levelo://app?vid=18f146a9-0caa-4091-8d94-419a449a7ca5"},"vehicle_type_id":"4","last_reported":1691309281,"current_range_meters":31200,"station_id":"ce4bh192rcd13ifvqdb0","pricing_plan_id":"free"},{"bike_id":"480801d0-9d8d-4c31-9deb-287754a5a112","system_id":"levelo_inurba_marseille","lat":43.305364,"lon":5.384119,"is_reserved":false,"is_disabled":false,"rental_uris":{"android":"levelo://app?vid=480801d0-9d8d-4c31-9deb-287754a5a112","ios":"levelo://app?vid=480801d0-9d8d-4c31-9deb-287754a5a112"},"vehicle_type_id":"4","last_reported":1691309281,"current_range_meters":2400,"station_id":"ce4bgg92rcd13ifvqb30","pricing_plan_id":"free"},{"bike_id":"e0fb50df-62b8-4d8c-b986-c0500b908e1f","system_id":"levelo_inurba_marseille","lat":43.299243,"lon":5.37481,"is_reserved":false,"is_disabled":false,"rental_uris":{"android":"levelo://app?vid=e0fb50df-62b8-4d8c-b986-c0500b908e1f","ios":"levelo://app?vid=e0fb50df-62b8-4d8c-b986-c0500b908e1f"},"vehicle_type_id":"4","last_reported":1691309281,"current_range_meters":29200,"station_id":"ce4bgjh2rcd13ifvqbg0","pricing_plan_id":"free"},{"bike_id":"7e38a432-6ac9-49a4-9660-151a43ce99aa","system_id":"levelo_inurba_marseille","lat":43.30525,"lon":5.3843,"is_reserved":false,"is_disabled":false,"rental_uris":{"android":"levelo://app?vid=7e38a432-6ac9-49a4-9660-151a43ce99aa","ios":"levelo://app?vid=7e38a432-6ac9-49a4-9660-151a43ce99aa"},"vehicle_type_id":"4","last_reported":1691309281,"current_range_meters":6000,"station_id":"ce4bgg92rcd13ifvqb30","pricing_plan_id":"free"},{"bike_id":"a7d10311-731c-4d89-b53f-699d0861ea63","system_id":"levelo_inurba_marseille","lat":43.30525,"lon":5.38436,"is_reserved":false,"is_disabled":false,"rental_uris":{"android":"levelo://app?vid=a7d10311-731c-4d89-b53f-699d0861ea63","ios":"levelo://app?vid=a7d10311-731c-4d89-b53f-699d0861ea63"},"vehicle_type_id":"4","last_reported":1691309281,"current_range_meters":2800,"station_id":"ce4bgg92rcd13ifvqb30","pricing_plan_id":"free"},{"bike_id":"fa2682dc-1e97-461c-9952-66505205c5be","system_id":"levelo_inurba_marseille","lat":43.299243,"lon":5.37481,"is_reserved":false,"is_disabled":false,"rental_uris":{"android":"levelo://app?vid=fa2682dc-1e97-461c-9952-66505205c5be","ios":"levelo://app?vid=fa2682dc-1e97-461c-9952-66505205c5be"},"vehicle_type_id":"4","last_reported":1691309281,"current_range_meters":25600,"station_id":"ce4bgjh2rcd13ifvqbg0","pricing_plan_id":"free"},{"bike_id":"2238746c-29fa-4988-8a39-310dedd30da3","system_id":"levelo_inurba_marseille","lat":43.311722,"lon":5.387247,"is_reserved":false,"is_disabled":false,"rental_uris":{"android":"levelo://app?vid=2238746c-29fa-4988-8a39-310dedd30da3","ios":"levelo://app?vid=2238746c-29fa-4988-8a39-310dedd30da3"},"vehicle_type_id":"4","last_reported":1691309281,"current_range_meters":14800,"station_id":"ce4bgv12rcd13ifvqcp0","pricing_plan_id":"free"},{"bike_id":"d3653f8f-b785-4f2b-977d-e93db1541255","system_id":"levelo_inurba_marseille","lat":43.297794,"lon":5.370888,"is_reserved":false,"is_disabled":false,"rental_uris":{"android":"levelo://app?vid=d3653f8f-b785-4f2b-977d-e93db1541255","ios":"levelo://app?vid=d3653f8f-b785-4f2b-977d-e93db1541255"},"vehicle_type_id":"4","last_reported":1691309281,"current_range_meters":28400,"station_id":"ce4bgop2rcd13ifvqc1g","pricing_plan_id":"free"},{"bike_id":"366b51a1-9eb8-4599-aa98-d4a98b64f98c","system_id":"levelo_inurba_marseille","lat":43.297794,"lon":5.370888,"is_reserved":false,"is_disabled":false,"rental_uris":{"android":"levelo://app?vid=366b51a1-9eb8-4599-aa98-d4a98b64f98c","ios":"levelo://app?vid=366b51a1-9eb8-4599-aa98-d4a98b64f98c"},"vehicle_type_id":"4","last_reported":1691309281,"current_range_meters":31200,"station_id":"ce4bgop2rcd13ifvqc1g","pricing_plan_id":"free"},{"bike_id":"9b07c73a-43a5-4881-96a5-be41f6251138","system_id":"levelo_inurba_marseille","lat":43.30132,"lon":5.3808,"is_reserved":false,"is_disabled":false,"rental_uris":{"android":"levelo://app?vid=9b07c73a-43a5-4881-96a5-be41f6251138","ios":"levelo://app?vid=9b07c73a-43a5-4881-96a5-be41f6251138"},"vehicle_type_id":"4","last_reported":1691309281,"current_range_meters":30800,"station_id":"","pricing_plan_id":"free"},{"bike_id":"3235488a-5abe-4f27-a56a-50e7b9989127","system_id":"levelo_inurba_marseille","lat":43.322872,"lon":5.382756,"is_reserved":false,"is_disabled":false,"rental_uris":{"android":"levelo://app?vid=3235488a-5abe-4f27-a56a-50e7b9989127","ios":"levelo://app?vid=3235488a-5abe-4f27-a56a-50e7b9989127"},"vehicle_type_id":"4","last_reported":1691309281,"current_range_meters":29600,"station_id":"ce4bhr12rcd13ifvqhqg","pricing_plan_id":"free"},{"bike_id":"fbc3a92c-f948-48e9-a3fc-f0e8af1a9259","system_id":"levelo_inurba_marseille","lat":43.32283,"lon":5.38274,"is_reserved":false,"is_disabled":false,"rental_uris":{"android":"levelo://app?vid=fbc3a92c-f948-48e9-a3fc-f0e8af1a9259","ios":"levelo://app?vid=fbc3a92c-f948-48e9-a3fc-f0e8af1a9259"},"vehicle_type_id":"4","last_reported":1691309281,"current_range_meters":27200,"station_id":"ce4bhr12rcd13ifvqhqg","pricing_plan_id":"free"},{"bike_id":"54af0d74-1de2-450f-8445-78b5259f2d29","system_id":"levelo_inurba_marseille","lat":43.309589,"lon":5.390258,"is_reserved":false,"is_disabled":false,"rental_uris":{"android":"levelo://app?vid=54af0d74-1de2-450f-8445-78b5259f2d29","ios":"levelo://app?vid=54af0d74-1de2-450f-8445-78b5259f2d29"},"vehicle_type_id":"4","last_reported":1691309281,"current_range_meters":24400,"station_id":"ce4bgup2rcd13ifvqco0","pricing_plan_id":"free"},{"bike_id":"696ed9b6-9beb-423c-9d06-defcf66f30b9","system_id":"levelo_inurba_marseille","lat":43.322872,"lon":5.382756,"is_reserved":false,"is_disabled":false,"rental_uris":{"android":"levelo://app?vid=696ed9b6-9beb-423c-9d06-defcf66f30b9","ios":"levelo://app?vid=696ed9b6-9beb-423c-9d06-defcf66f30b9"},"vehicle_type_id":"4","last_reported":1691309281,"current_range_meters":7600,"station_id":"ce4bhr12rcd13ifvqhqg","pricing_plan_id":"free"},{"bike_id":"b47ca02a-40ba-4dc8-abeb-b1a2c4b62cd0","system_id":"levelo_inurba_marseille","lat":43.322872,"lon":5.382756,"is_reserved":false,"is_disabled":false,"rental_uris":{"android":"levelo://app?vid=b47ca02a-40ba-4dc8-abeb-b1a2c4b62cd0","ios":"levelo://app?vid=b47ca02a-40ba-4dc8-abeb-b1a2c4b62cd0"},"vehicle_type_id":"4","last_reported":1691309281,"current_range_meters":26400,"station_id":"ce4bhr12rcd13ifvqhqg","pricing_plan_id":"free"},{"bike_id":"a9186102-1f32-4e64-902a-4d3ca2da5057","system_id":"levelo_inurba_marseille","lat":43.32821,"lon":5.36683,"is_reserved":false,"is_disabled":false,"rental_uris":{"android":"levelo://app?vid=a9186102-1f32-4e64-902a-4d3ca2da5057","ios":"levelo://app?vid=a9186102-1f32-4e64-902a-4d3ca2da5057"},"vehicle_type_id":"4","last_reported":1691309281,"current_range_meters":0,"station_id":"ce4bhs92rcd13ifvqi0g","pricing_plan_id":"free"},{"bike_id":"531004d1-4723-4c7e-94a0-70f07e0d4b89","system_id":"levelo_inurba_marseille","lat":43.32823,"lon":5.36687,"is_reserved":false,"is_disabled":false,"rental_uris":{"android":"levelo://app?vid=531004d1-4723-4c7e-94a0-70f07e0d4b89","ios":"levelo://app?vid=531004d1-4723-4c7e-94a0-70f07e0d4b89"},"vehicle_type_id":"4","last_reported":1691309281,"current_range_meters":7600,"station_id":"ce4bhs92rcd13ifvqi0g","pricing_plan_id":"free"},{"bike_id":"6f02e09a-b26c-49fa-bf68-b76cd9d4ceff","system_id":"levelo_inurba_marseille","lat":43.328371,"lon":5.366909,"is_reserved":false,"is_disabled":false,"rental_uris":{"android":"levelo://app?vid=6f02e09a-b26c-49fa-bf68-b76cd9d4ceff","ios":"levelo://app?vid=6f02e09a-b26c-49fa-bf68-b76cd9d4ceff"},"vehicle_type_id":"4","last_reported":1691309281,"current_range_meters":31600,"station_id":"ce4bhs92rcd13ifvqi0g","pricing_plan_id":"free"},{"bike_id":"f3a2ce3e-e2ec-4940-9eb3-9ecf5bedfd7e","system_id":"levelo_inurba_marseille","lat":43.32826,"lon":5.3669,"is_reserved":false,"is_disabled":false,"rental_uris":{"android":"levelo://app?vid=f3a2ce3e-e2ec-4940-9eb3-9ecf5bedfd7e","ios":"levelo://app?vid=f3a2ce3e-e2ec-4940-9eb3-9ecf5bedfd7e"},"vehicle_type_id":"4","last_reported":1691309281,"current_range_meters":12800,"station_id":"ce4bhs92rcd13ifvqi0g","pricing_plan_id":"free"},{"bike_id":"5a1615d2-24e1-4219-b84b-ec593666fc81","system_id":"levelo_inurba_marseille","lat":43.32826,"lon":5.36677,"is_reserved":false,"is_disabled":false,"rental_uris":{"android":"levelo://app?vid=5a1615d2-24e1-4219-b84b-ec593666fc81","ios":"levelo://app?vid=5a1615d2-24e1-4219-b84b-ec593666fc81"},"vehicle_type_id":"4","last_reported":1691309281,"current_range_meters":16400,"station_id":"ce4bhs92rcd13ifvqi0g","pricing_plan_id":"free"},{"bike_id":"b817d5ed-7bfc-4b4f-ab91-d197cc36525d","system_id":"levelo_inurba_marseille","lat":43.32827,"lon":5.36683,"is_reserved":false,"is_disabled":false,"rental_uris":{"android":"levelo://app?vid=b817d5ed-7bfc-4b4f-ab91-d197cc36525d","ios":"levelo://app?vid=b817d5ed-7bfc-4b4f-ab91-d197cc36525d"},"vehicle_type_id":"4","last_reported":1691309281,"current_range_meters":24400,"station_id":"ce4bhs92rcd13ifvqi0g","pricing_plan_id":"free"},{"bike_id":"6907dfba-df99-4097-a1a2-17dfb1346b19","system_id":"levelo_inurba_marseille","lat":43.32828,"lon":5.36682,"is_reserved":false,"is_disabled":false,"rental_uris":{"android":"levelo://app?vid=6907dfba-df99-4097-a1a2-17dfb1346b19","ios":"levelo://app?vid=6907dfba-df99-4097-a1a2-17dfb1346b19"},"vehicle_type_id":"4","last_reported":1691309281,"current_range_meters":19600,"station_id":"ce4bhs92rcd13ifvqi0g","pricing_plan_id":"free"},{"bike_id":"dd789220-e7b5-42c1-b9dc-dc4243148021","system_id":"levelo_inurba_marseille","lat":43.297163,"lon":5.365866,"is_reserved":false,"is_disabled":false,"rental_uris":{"android":"levelo://app?vid=dd789220-e7b5-42c1-b9dc-dc4243148021","ios":"levelo://app?vid=dd789220-e7b5-42c1-b9dc-dc4243148021"},"vehicle_type_id":"4","last_reported":1691309281,"current_range_meters":31600,"station_id":"ce4bgn12rcd13ifvqbt0","pricing_plan_id":"free"},{"bike_id":"7b12ec14-bcac-40e0-a338-2999fa263c32","system_id":"levelo_inurba_marseille","lat":43.297163,"lon":5.365866,"is_reserved":false,"is_disabled":false,"rental_uris":{"android":"levelo://app?vid=7b12ec14-bcac-40e0-a338-2999fa263c32","ios":"levelo://app?vid=7b12ec14-bcac-40e0-a338-2999fa263c32"},"vehicle_type_id":"4","last_reported":1691309281,"current_range_meters":30000,"station_id":"ce4bgn12rcd13ifvqbt0","pricing_plan_id":"free"},{"bike_id":"cb53f4b9-75aa-4a7d-a489-11a5e9355a07","system_id":"levelo_inurba_marseille","lat":43.297163,"lon":5.365866,"is_reserved":false,"is_disabled":false,"rental_uris":{"android":"levelo://app?vid=cb53f4b9-75aa-4a7d-a489-11a5e9355a07","ios":"levelo://app?vid=cb53f4b9-75aa-4a7d-a489-11a5e9355a07"},"vehicle_type_id":"4","last_reported":1691309281,"current_range_meters":31600,"station_id":"ce4bgn12rcd13ifvqbt0","pricing_plan_id":"free"},{"bike_id":"4419d85c-8be6-446f-8521-d64130e12f8a","system_id":"levelo_inurba_marseille","lat":43.297163,"lon":5.365866,"is_reserved":false,"is_disabled":false,"rental_uris":{"android":"levelo://app?vid=4419d85c-8be6-446f-8521-d64130e12f8a","ios":"levelo://app?vid=4419d85c-8be6-446f-8521-d64130e12f8a"},"vehicle_type_id":"4","last_reported":1691309281,"current_range_meters":26000,"station_id":"ce4bgn12rcd13ifvqbt0","pricing_plan_id":"free"},{"bike_id":"0ae91ea5-6e75-438a-a8ad-6ef388630f55","system_id":"levelo_inurba_marseille","lat":43.297163,"lon":5.365866,"is_reserved":false,"is_disabled":false,"rental_uris":{"android":"levelo://app?vid=0ae91ea5-6e75-438a-a8ad-6ef388630f55","ios":"levelo://app?vid=0ae91ea5-6e75-438a-a8ad-6ef388630f55"},"vehicle_type_id":"4","last_reported":1691309281,"current_range_meters":30800,"station_id":"ce4bgn12rcd13ifvqbt0","pricing_plan_id":"free"},{"bike_id":"be15bbe4-d56f-48f1-b15d-4f2df92168b4","system_id":"levelo_inurba_marseille","lat":43.2968,"lon":5.37291,"is_reserved":false,"is_disabled":false,"rental_uris":{"android":"levelo://app?vid=be15bbe4-d56f-48f1-b15d-4f2df92168b4","ios":"levelo://app?vid=be15bbe4-d56f-48f1-b15d-4f2df92168b4"},"vehicle_type_id":"4","last_reported":1691309281,"current_range_meters":26400,"station_id":"ce4bgk12rcd13ifvqbj0","pricing_plan_id":"free"},{"bike_id":"0e026aae-c201-4aff-b290-3bfeb36c3fd7","system_id":"levelo_inurba_marseille","lat":43.2968,"lon":5.37291,"is_reserved":false,"is_disabled":false,"rental_uris":{"android":"levelo://app?vid=0e026aae-c201-4aff-b290-3bfeb36c3fd7","ios":"levelo://app?vid=0e026aae-c201-4aff-b290-3bfeb36c3fd7"},"vehicle_type_id":"4","last_reported":1691309281,"current_range_meters":18000,"station_id":"ce4bgk12rcd13ifvqbj0","pricing_plan_id":"free"},{"bike_id":"579d8766-1f25-4ac4-aa39-7c838512fcbe","system_id":"levelo_inurba_marseille","lat":43.296131,"lon":5.370791,"is_reserved":false,"is_disabled":false,"rental_uris":{"android":"levelo://app?vid=579d8766-1f25-4ac4-aa39-7c838512fcbe","ios":"levelo://app?vid=579d8766-1f25-4ac4-aa39-7c838512fcbe"},"vehicle_type_id":"4","last_reported":1691309281,"current_range_meters":31200,"station_id":"ce4bgnh2rcd13ifvqc0g","pricing_plan_id":"free"},{"bike_id":"43ccea3b-1804-4457-9fe0-8c811ab88f14","system_id":"levelo_inurba_marseille","lat":43.29573,"lon":5.367355,"is_reserved":false,"is_disabled":false,"rental_uris":{"android":"levelo://app?vid=43ccea3b-1804-4457-9fe0-8c811ab88f14","ios":"levelo://app?vid=43ccea3b-1804-4457-9fe0-8c811ab88f14"},"vehicle_type_id":"4","last_reported":1691309281,"current_range_meters":28800,"station_id":"ce4bgph2rcd13ifvqc2g","pricing_plan_id":"free"},{"bike_id":"c0e15387-3109-4c4c-b17b-6d0a87aaea71","system_id":"levelo_inurba_marseille","lat":43.29573,"lon":5.367355,"is_reserved":false,"is_disabled":false,"rental_uris":{"android":"levelo://app?vid=c0e15387-3109-4c4c-b17b-6d0a87aaea71","ios":"levelo://app?vid=c0e15387-3109-4c4c-b17b-6d0a87aaea71"},"vehicle_type_id":"4","last_reported":1691309281,"current_range_meters":28800,"station_id":"ce4bgph2rcd13ifvqc2g","pricing_plan_id":"free"},{"bike_id":"0268be2e-44eb-469d-b213-7ad9cb093c1a","system_id":"levelo_inurba_marseille","lat":43.29573,"lon":5.367355,"is_reserved":false,"is_disabled":false,"rental_uris":{"android":"levelo://app?vid=0268be2e-44eb-469d-b213-7ad9cb093c1a","ios":"levelo://app?vid=0268be2e-44eb-469d-b213-7ad9cb093c1a"},"vehicle_type_id":"4","last_reported":1691309281,"current_range_meters":27600,"station_id":"ce4bgph2rcd13ifvqc2g","pricing_plan_id":"free"},{"bike_id":"171188bc-00c9-4dac-9668-c723e6187c51","system_id":"levelo_inurba_marseille","lat":43.296935,"lon":5.376544,"is_reserved":false,"is_disabled":false,"rental_uris":{"android":"levelo://app?vid=171188bc-00c9-4dac-9668-c723e6187c51","ios":"levelo://app?vid=171188bc-00c9-4dac-9668-c723e6187c51"},"vehicle_type_id":"4","last_reported":1691309281,"current_range_meters":20800,"station_id":"ce4bgkh2rcd13ifvqbl0","pricing_plan_id":"free"},{"bike_id":"cd5c1ea8-acf4-457e-afa7-ebdd2a586deb","system_id":"levelo_inurba_marseille","lat":43.309589,"lon":5.390258,"is_reserved":false,"is_disabled":false,"rental_uris":{"android":"levelo://app?vid=cd5c1ea8-acf4-457e-afa7-ebdd2a586deb","ios":"levelo://app?vid=cd5c1ea8-acf4-457e-afa7-ebdd2a586deb"},"vehicle_type_id":"4","last_reported":1691309281,"current_range_meters":30800,"station_id":"ce4bgup2rcd13ifvqco0","pricing_plan_id":"free"},{"bike_id":"8e143615-a6be-4831-8957-268a950e21ad","system_id":"levelo_inurba_marseille","lat":43.299028,"lon":5.381509,"is_reserved":false,"is_disabled":false,"rental_uris":{"android":"levelo://app?vid=8e143615-a6be-4831-8957-268a950e21ad","ios":"levelo://app?vid=8e143615-a6be-4831-8957-268a950e21ad"},"vehicle_type_id":"4","last_reported":1691309281,"current_range_meters":30800,"station_id":"ce4bgj12rcd13ifvqbc0","pricing_plan_id":"free"},{"bike_id":"90e2a87b-20e6-4bb8-a558-284431709b7a","system_id":"levelo_inurba_marseille","lat":43.299028,"lon":5.381509,"is_reserved":false,"is_disabled":false,"rental_uris":{"android":"levelo://app?vid=90e2a87b-20e6-4bb8-a558-284431709b7a","ios":"levelo://app?vid=90e2a87b-20e6-4bb8-a558-284431709b7a"},"vehicle_type_id":"4","last_reported":1691309281,"current_range_meters":28800,"station_id":"ce4bgj12rcd13ifvqbc0","pricing_plan_id":"free"},{"bike_id":"95c86baa-fb50-4182-aa06-bc509694af14","system_id":"levelo_inurba_marseille","lat":43.299028,"lon":5.381509,"is_reserved":false,"is_disabled":false,"rental_uris":{"android":"levelo://app?vid=95c86baa-fb50-4182-aa06-bc509694af14","ios":"levelo://app?vid=95c86baa-fb50-4182-aa06-bc509694af14"},"vehicle_type_id":"4","last_reported":1691309281,"current_range_meters":26800,"station_id":"ce4bgj12rcd13ifvqbc0","pricing_plan_id":"free"},{"bike_id":"30019a73-f7c0-4c02-a083-16620b19d625","system_id":"levelo_inurba_marseille","lat":43.299028,"lon":5.381509,"is_reserved":false,"is_disabled":false,"rental_uris":{"android":"levelo://app?vid=30019a73-f7c0-4c02-a083-16620b19d625","ios":"levelo://app?vid=30019a73-f7c0-4c02-a083-16620b19d625"},"vehicle_type_id":"4","last_reported":1691309281,"current_range_meters":28000,"station_id":"ce4bgj12rcd13ifvqbc0","pricing_plan_id":"free"},{"bike_id":"f0b1921d-8fc5-42f6-8214-26455e772ce5","system_id":"levelo_inurba_marseille","lat":43.309589,"lon":5.390258,"is_reserved":false,"is_disabled":false,"rental_uris":{"android":"levelo://app?vid=f0b1921d-8fc5-42f6-8214-26455e772ce5","ios":"levelo://app?vid=f0b1921d-8fc5-42f6-8214-26455e772ce5"},"vehicle_type_id":"4","last_reported":1691309281,"current_range_meters":25600,"station_id":"ce4bgup2rcd13ifvqco0","pricing_plan_id":"free"},{"bike_id":"c2e85071-a393-45a8-ad95-bb4a2822a4ef","system_id":"levelo_inurba_marseille","lat":43.317557,"lon":5.390173,"is_reserved":false,"is_disabled":false,"rental_uris":{"android":"levelo://app?vid=c2e85071-a393-45a8-ad95-bb4a2822a4ef","ios":"levelo://app?vid=c2e85071-a393-45a8-ad95-bb4a2822a4ef"},"vehicle_type_id":"4","last_reported":1691309281,"current_range_meters":30000,"station_id":"ce4bhqp2rcd13ifvqhng","pricing_plan_id":"free"},{"bike_id":"c070a522-6c17-4333-a9ee-bbef4dc643ed","system_id":"levelo_inurba_marseille","lat":43.317557,"lon":5.390173,"is_reserved":false,"is_disabled":false,"rental_uris":{"android":"levelo://app?vid=c070a522-6c17-4333-a9ee-bbef4dc643ed","ios":"levelo://app?vid=c070a522-6c17-4333-a9ee-bbef4dc643ed"},"vehicle_type_id":"4","last_reported":1691309281,"current_range_meters":31600,"station_id":"ce4bhqp2rcd13ifvqhng","pricing_plan_id":"free"},{"bike_id":"fb5d1b63-b2f2-4d34-b700-b062bf6b4e69","system_id":"levelo_inurba_marseille","lat":43.317557,"lon":5.390173,"is_reserved":false,"is_disabled":false,"rental_uris":{"android":"levelo://app?vid=fb5d1b63-b2f2-4d34-b700-b062bf6b4e69","ios":"levelo://app?vid=fb5d1b63-b2f2-4d34-b700-b062bf6b4e69"},"vehicle_type_id":"4","last_reported":1691309281,"current_range_meters":31600,"station_id":"ce4bhqp2rcd13ifvqhng","pricing_plan_id":"free"},{"bike_id":"aeba4117-4324-492b-b05b-37bcc45b3f39","system_id":"levelo_inurba_marseille","lat":43.317557,"lon":5.390173,"is_reserved":false,"is_disabled":false,"rental_uris":{"android":"levelo://app?vid=aeba4117-4324-492b-b05b-37bcc45b3f39","ios":"levelo://app?vid=aeba4117-4324-492b-b05b-37bcc45b3f39"},"vehicle_type_id":"4","last_reported":1691309281,"current_range_meters":18000,"station_id":"ce4bhqp2rcd13ifvqhng","pricing_plan_id":"free"},{"bike_id":"ffe83563-fe7b-4abd-90a1-b737e09347c0","system_id":"levelo_inurba_marseille","lat":43.317557,"lon":5.390173,"is_reserved":false,"is_disabled":false,"rental_uris":{"android":"levelo://app?vid=ffe83563-fe7b-4abd-90a1-b737e09347c0","ios":"levelo://app?vid=ffe83563-fe7b-4abd-90a1-b737e09347c0"},"vehicle_type_id":"4","last_reported":1691309281,"current_range_meters":32000,"station_id":"ce4bhqp2rcd13ifvqhng","pricing_plan_id":"free"},{"bike_id":"4879b09e-5533-49cc-808c-be115b214b19","system_id":"levelo_inurba_marseille","lat":43.317557,"lon":5.390173,"is_reserved":false,"is_disabled":false,"rental_uris":{"android":"levelo://app?vid=4879b09e-5533-49cc-808c-be115b214b19","ios":"levelo://app?vid=4879b09e-5533-49cc-808c-be115b214b19"},"vehicle_type_id":"4","last_reported":1691309281,"current_range_meters":32000,"station_id":"ce4bhqp2rcd13ifvqhng","pricing_plan_id":"free"},{"bike_id":"ea01d5ca-46b8-4e12-9d73-863370000a06","system_id":"levelo_inurba_marseille","lat":43.317557,"lon":5.390173,"is_reserved":false,"is_disabled":false,"rental_uris":{"android":"levelo://app?vid=ea01d5ca-46b8-4e12-9d73-863370000a06","ios":"levelo://app?vid=ea01d5ca-46b8-4e12-9d73-863370000a06"},"vehicle_type_id":"4","last_reported":1691309281,"current_range_meters":31600,"station_id":"ce4bhqp2rcd13ifvqhng","pricing_plan_id":"free"},{"bike_id":"0d833c59-9d31-4c27-9424-d8b32358bf56","system_id":"levelo_inurba_marseille","lat":43.317557,"lon":5.390173,"is_reserved":false,"is_disabled":false,"rental_uris":{"android":"levelo://app?vid=0d833c59-9d31-4c27-9424-d8b32358bf56","ios":"levelo://app?vid=0d833c59-9d31-4c27-9424-d8b32358bf56"},"vehicle_type_id":"4","last_reported":1691309281,"current_range_meters":31600,"station_id":"ce4bhqp2rcd13ifvqhng","pricing_plan_id":"free"},{"bike_id":"90569ba5-8bb9-4d2d-b876-dc35e42f9a0c","system_id":"levelo_inurba_marseille","lat":43.317557,"lon":5.390173,"is_reserved":false,"is_disabled":false,"rental_uris":{"android":"levelo://app?vid=90569ba5-8bb9-4d2d-b876-dc35e42f9a0c","ios":"levelo://app?vid=90569ba5-8bb9-4d2d-b876-dc35e42f9a0c"},"vehicle_type_id":"4","last_reported":1691309281,"current_range_meters":32000,"station_id":"ce4bhqp2rcd13ifvqhng","pricing_plan_id":"free"},{"bike_id":"a4df99ce-0488-49dd-a888-94686f562e88","system_id":"levelo_inurba_marseille","lat":43.295748,"lon":5.37522,"is_reserved":false,"is_disabled":false,"rental_uris":{"android":"levelo://app?vid=a4df99ce-0488-49dd-a888-94686f562e88","ios":"levelo://app?vid=a4df99ce-0488-49dd-a888-94686f562e88"},"vehicle_type_id":"4","last_reported":1691309281,"current_range_meters":31600,"station_id":"ce4bgh92rcd13ifvqb50","pricing_plan_id":"free"},{"bike_id":"dbfc54a1-01b1-4960-a638-82ff5654fb4c","system_id":"levelo_inurba_marseille","lat":43.304278,"lon":5.388868,"is_reserved":false,"is_disabled":false,"rental_uris":{"android":"levelo://app?vid=dbfc54a1-01b1-4960-a638-82ff5654fb4c","ios":"levelo://app?vid=dbfc54a1-01b1-4960-a638-82ff5654fb4c"},"vehicle_type_id":"4","last_reported":1691309281,"current_range_meters":31200,"station_id":"ce4bgk12rcd13ifvqbi0","pricing_plan_id":"free"},{"bike_id":"f51bc843-e82b-4c82-9bb0-379ef29549ef","system_id":"levelo_inurba_marseille","lat":43.304274,"lon":5.388873,"is_reserved":false,"is_disabled":false,"rental_uris":{"android":"levelo://app?vid=f51bc843-e82b-4c82-9bb0-379ef29549ef","ios":"levelo://app?vid=f51bc843-e82b-4c82-9bb0-379ef29549ef"},"vehicle_type_id":"4","last_reported":1691309281,"current_range_meters":31600,"station_id":"ce4bgk12rcd13ifvqbi0","pricing_plan_id":"free"},{"bike_id":"fd65d7ee-5407-4a0b-81a2-e1c92a5b021b","system_id":"levelo_inurba_marseille","lat":43.30423,"lon":5.38881,"is_reserved":false,"is_disabled":false,"rental_uris":{"android":"levelo://app?vid=fd65d7ee-5407-4a0b-81a2-e1c92a5b021b","ios":"levelo://app?vid=fd65d7ee-5407-4a0b-81a2-e1c92a5b021b"},"vehicle_type_id":"4","last_reported":1691309281,"current_range_meters":25200,"station_id":"ce4bgk12rcd13ifvqbi0","pricing_plan_id":"free"},{"bike_id":"7eea5c03-4e1c-4007-9a1c-190822279c13","system_id":"levelo_inurba_marseille","lat":43.29785,"lon":5.38103,"is_reserved":false,"is_disabled":false,"rental_uris":{"android":"levelo://app?vid=7eea5c03-4e1c-4007-9a1c-190822279c13","ios":"levelo://app?vid=7eea5c03-4e1c-4007-9a1c-190822279c13"},"vehicle_type_id":"4","last_reported":1691309281,"current_range_meters":0,"station_id":"ce4bgip2rcd13ifvqbb0","pricing_plan_id":"free"},{"bike_id":"4bbd5aa9-3436-47f5-a200-c47bcf1ba7ad","system_id":"levelo_inurba_marseille","lat":43.295748,"lon":5.37522,"is_reserved":false,"is_disabled":false,"rental_uris":{"android":"levelo://app?vid=4bbd5aa9-3436-47f5-a200-c47bcf1ba7ad","ios":"levelo://app?vid=4bbd5aa9-3436-47f5-a200-c47bcf1ba7ad"},"vehicle_type_id":"4","last_reported":1691309281,"current_range_meters":16800,"station_id":"ce4bgh92rcd13ifvqb50","pricing_plan_id":"free"},{"bike_id":"3dbfb2a6-38cb-46ac-903f-3bb1daddee81","system_id":"levelo_inurba_marseille","lat":43.295748,"lon":5.37522,"is_reserved":false,"is_disabled":false,"rental_uris":{"android":"levelo://app?vid=3dbfb2a6-38cb-46ac-903f-3bb1daddee81","ios":"levelo://app?vid=3dbfb2a6-38cb-46ac-903f-3bb1daddee81"},"vehicle_type_id":"4","last_reported":1691309281,"current_range_meters":5600,"station_id":"ce4bgh92rcd13ifvqb50","pricing_plan_id":"free"},{"bike_id":"47be0c63-2b0d-4a61-8cbb-36bfa2b62390","system_id":"levelo_inurba_marseille","lat":43.304274,"lon":5.388873,"is_reserved":false,"is_disabled":false,"rental_uris":{"android":"levelo://app?vid=47be0c63-2b0d-4a61-8cbb-36bfa2b62390","ios":"levelo://app?vid=47be0c63-2b0d-4a61-8cbb-36bfa2b62390"},"vehicle_type_id":"4","last_reported":1691309281,"current_range_meters":28800,"station_id":"ce4bgk12rcd13ifvqbi0","pricing_plan_id":"free"},{"bike_id":"ed8befd2-9e88-4358-b7f7-e48ed3d6c4e5","system_id":"levelo_inurba_marseille","lat":43.296263,"lon":5.377094,"is_reserved":false,"is_disabled":false,"rental_uris":{"android":"levelo://app?vid=ed8befd2-9e88-4358-b7f7-e48ed3d6c4e5","ios":"levelo://app?vid=ed8befd2-9e88-4358-b7f7-e48ed3d6c4e5"},"vehicle_type_id":"4","last_reported":1691309281,"current_range_meters":26800,"station_id":"ce4bgi92rcd13ifvqb90","pricing_plan_id":"free"},{"bike_id":"6f27ae85-55e5-4b47-a13f-ae76cb27cdb1","system_id":"levelo_inurba_marseille","lat":43.295279,"lon":5.375048,"is_reserved":false,"is_disabled":false,"rental_uris":{"android":"levelo://app?vid=6f27ae85-55e5-4b47-a13f-ae76cb27cdb1","ios":"levelo://app?vid=6f27ae85-55e5-4b47-a13f-ae76cb27cdb1"},"vehicle_type_id":"4","last_reported":1691309281,"current_range_meters":27600,"station_id":"ce4bgkp2rcd13ifvqbmg","pricing_plan_id":"free"},{"bike_id":"34614c68-a303-4247-bddb-02f76e8cdfca","system_id":"levelo_inurba_marseille","lat":43.295279,"lon":5.375048,"is_reserved":false,"is_disabled":false,"rental_uris":{"android":"levelo://app?vid=34614c68-a303-4247-bddb-02f76e8cdfca","ios":"levelo://app?vid=34614c68-a303-4247-bddb-02f76e8cdfca"},"vehicle_type_id":"4","last_reported":1691309281,"current_range_meters":30400,"station_id":"ce4bgkp2rcd13ifvqbmg","pricing_plan_id":"free"},{"bike_id":"cfd87ee9-ded0-4b80-b29e-4c2c40c3a844","system_id":"levelo_inurba_marseille","lat":43.295279,"lon":5.375048,"is_reserved":false,"is_disabled":false,"rental_uris":{"android":"levelo://app?vid=cfd87ee9-ded0-4b80-b29e-4c2c40c3a844","ios":"levelo://app?vid=cfd87ee9-ded0-4b80-b29e-4c2c40c3a844"},"vehicle_type_id":"4","last_reported":1691309281,"current_range_meters":29600,"station_id":"ce4bgkp2rcd13ifvqbmg","pricing_plan_id":"free"},{"bike_id":"70129cea-ad2f-4f6d-962d-af0addb4e3dd","system_id":"levelo_inurba_marseille","lat":43.299707,"lon":5.384859,"is_reserved":false,"is_disabled":false,"rental_uris":{"android":"levelo://app?vid=70129cea-ad2f-4f6d-962d-af0addb4e3dd","ios":"levelo://app?vid=70129cea-ad2f-4f6d-962d-af0addb4e3dd"},"vehicle_type_id":"4","last_reported":1691309281,"current_range_meters":13200,"station_id":"ce4bgj92rcd13ifvqbd0","pricing_plan_id":"free"},{"bike_id":"fb3cec99-293a-4570-983d-0b20d71a7e88","system_id":"levelo_inurba_marseille","lat":43.299707,"lon":5.384859,"is_reserved":false,"is_disabled":false,"rental_uris":{"android":"levelo://app?vid=fb3cec99-293a-4570-983d-0b20d71a7e88","ios":"levelo://app?vid=fb3cec99-293a-4570-983d-0b20d71a7e88"},"vehicle_type_id":"4","last_reported":1691309281,"current_range_meters":28000,"station_id":"ce4bgj92rcd13ifvqbd0","pricing_plan_id":"free"},{"bike_id":"82d09b95-c81a-4265-bc46-62c5fc405c91","system_id":"levelo_inurba_marseille","lat":43.299707,"lon":5.384859,"is_reserved":false,"is_disabled":false,"rental_uris":{"android":"levelo://app?vid=82d09b95-c81a-4265-bc46-62c5fc405c91","ios":"levelo://app?vid=82d09b95-c81a-4265-bc46-62c5fc405c91"},"vehicle_type_id":"4","last_reported":1691309281,"current_range_meters":26000,"station_id":"ce4bgj92rcd13ifvqbd0","pricing_plan_id":"free"},{"bike_id":"34d03c91-c4ea-4a89-84f0-90a6767a042d","system_id":"levelo_inurba_marseille","lat":43.29971,"lon":5.38497,"is_reserved":false,"is_disabled":false,"rental_uris":{"android":"levelo://app?vid=34d03c91-c4ea-4a89-84f0-90a6767a042d","ios":"levelo://app?vid=34d03c91-c4ea-4a89-84f0-90a6767a042d"},"vehicle_type_id":"4","last_reported":1691309281,"current_range_meters":0,"station_id":"ce4bgj92rcd13ifvqbd0","pricing_plan_id":"free"},{"bike_id":"4d53ea14-a259-45d5-bd4b-884c34da99ca","system_id":"levelo_inurba_marseille","lat":43.295279,"lon":5.375048,"is_reserved":false,"is_disabled":false,"rental_uris":{"android":"levelo://app?vid=4d53ea14-a259-45d5-bd4b-884c34da99ca","ios":"levelo://app?vid=4d53ea14-a259-45d5-bd4b-884c34da99ca"},"vehicle_type_id":"4","last_reported":1691309281,"current_range_meters":13200,"station_id":"ce4bgkp2rcd13ifvqbmg","pricing_plan_id":"free"},{"bike_id":"abdbe176-ef59-4f3a-afe2-f7625c07054c","system_id":"levelo_inurba_marseille","lat":43.295279,"lon":5.375048,"is_reserved":false,"is_disabled":false,"rental_uris":{"android":"levelo://app?vid=abdbe176-ef59-4f3a-afe2-f7625c07054c","ios":"levelo://app?vid=abdbe176-ef59-4f3a-afe2-f7625c07054c"},"vehicle_type_id":"4","last_reported":1691309281,"current_range_meters":28400,"station_id":"ce4bgkp2rcd13ifvqbmg","pricing_plan_id":"free"},{"bike_id":"f86d4d9a-92cc-43c4-8efd-d67936f744f7","system_id":"levelo_inurba_marseille","lat":43.295279,"lon":5.375048,"is_reserved":false,"is_disabled":false,"rental_uris":{"android":"levelo://app?vid=f86d4d9a-92cc-43c4-8efd-d67936f744f7","ios":"levelo://app?vid=f86d4d9a-92cc-43c4-8efd-d67936f744f7"},"vehicle_type_id":"4","last_reported":1691309281,"current_range_meters":22800,"station_id":"ce4bgkp2rcd13ifvqbmg","pricing_plan_id":"free"},{"bike_id":"38d8a4e6-5426-45c1-8a48-43cc010b1707","system_id":"levelo_inurba_marseille","lat":43.295279,"lon":5.375048,"is_reserved":false,"is_disabled":false,"rental_uris":{"android":"levelo://app?vid=38d8a4e6-5426-45c1-8a48-43cc010b1707","ios":"levelo://app?vid=38d8a4e6-5426-45c1-8a48-43cc010b1707"},"vehicle_type_id":"4","last_reported":1691309281,"current_range_meters":22000,"station_id":"ce4bgkp2rcd13ifvqbmg","pricing_plan_id":"free"},{"bike_id":"ed5b971a-2b8a-4f89-9487-7e8342d0b66b","system_id":"levelo_inurba_marseille","lat":43.32362,"lon":5.38876,"is_reserved":false,"is_disabled":false,"rental_uris":{"android":"levelo://app?vid=ed5b971a-2b8a-4f89-9487-7e8342d0b66b","ios":"levelo://app?vid=ed5b971a-2b8a-4f89-9487-7e8342d0b66b"},"vehicle_type_id":"4","last_reported":1691309281,"current_range_meters":30800,"station_id":"ce4bhqp2rcd13ifvqhog","pricing_plan_id":"free"},{"bike_id":"34ef5601-8765-4b80-bdc1-e9818152ffab","system_id":"levelo_inurba_marseille","lat":43.32367,"lon":5.388836,"is_reserved":false,"is_disabled":false,"rental_uris":{"android":"levelo://app?vid=34ef5601-8765-4b80-bdc1-e9818152ffab","ios":"levelo://app?vid=34ef5601-8765-4b80-bdc1-e9818152ffab"},"vehicle_type_id":"4","last_reported":1691309281,"current_range_meters":21200,"station_id":"ce4bhqp2rcd13ifvqhog","pricing_plan_id":"free"},{"bike_id":"51a94a8b-791c-4738-b220-ee8689f99230","system_id":"levelo_inurba_marseille","lat":43.32362,"lon":5.38881,"is_reserved":false,"is_disabled":false,"rental_uris":{"android":"levelo://app?vid=51a94a8b-791c-4738-b220-ee8689f99230","ios":"levelo://app?vid=51a94a8b-791c-4738-b220-ee8689f99230"},"vehicle_type_id":"4","last_reported":1691309281,"current_range_meters":28800,"station_id":"ce4bhqp2rcd13ifvqhog","pricing_plan_id":"free"},{"bike_id":"5f1c231d-5549-420b-a974-1b1406435a60","system_id":"levelo_inurba_marseille","lat":43.32367,"lon":5.388836,"is_reserved":false,"is_disabled":false,"rental_uris":{"android":"levelo://app?vid=5f1c231d-5549-420b-a974-1b1406435a60","ios":"levelo://app?vid=5f1c231d-5549-420b-a974-1b1406435a60"},"vehicle_type_id":"4","last_reported":1691309281,"current_range_meters":18000,"station_id":"ce4bhqp2rcd13ifvqhog","pricing_plan_id":"free"},{"bike_id":"153806a9-c106-4acb-8efe-f81ba29b58d3","system_id":"levelo_inurba_marseille","lat":43.32364,"lon":5.3888,"is_reserved":false,"is_disabled":false,"rental_uris":{"android":"levelo://app?vid=153806a9-c106-4acb-8efe-f81ba29b58d3","ios":"levelo://app?vid=153806a9-c106-4acb-8efe-f81ba29b58d3"},"vehicle_type_id":"4","last_reported":1691309281,"current_range_meters":20800,"station_id":"ce4bhqp2rcd13ifvqhog","pricing_plan_id":"free"},{"bike_id":"660e75c8-af2c-4908-941b-1209dfdb6848","system_id":"levelo_inurba_marseille","lat":43.32365,"lon":5.38881,"is_reserved":false,"is_disabled":false,"rental_uris":{"android":"levelo://app?vid=660e75c8-af2c-4908-941b-1209dfdb6848","ios":"levelo://app?vid=660e75c8-af2c-4908-941b-1209dfdb6848"},"vehicle_type_id":"4","last_reported":1691309281,"current_range_meters":26000,"station_id":"ce4bhqp2rcd13ifvqhog","pricing_plan_id":"free"},{"bike_id":"31c4ebe8-2a4f-41b7-966a-7ad502ff3d8a","system_id":"levelo_inurba_marseille","lat":43.32367,"lon":5.38881,"is_reserved":false,"is_disabled":false,"rental_uris":{"android":"levelo://app?vid=31c4ebe8-2a4f-41b7-966a-7ad502ff3d8a","ios":"levelo://app?vid=31c4ebe8-2a4f-41b7-966a-7ad502ff3d8a"},"vehicle_type_id":"4","last_reported":1691309281,"current_range_meters":16000,"station_id":"ce4bhqp2rcd13ifvqhog","pricing_plan_id":"free"},{"bike_id":"6be534a9-96c6-4989-b3bb-e9dea76376c4","system_id":"levelo_inurba_marseille","lat":43.32365,"lon":5.38887,"is_reserved":false,"is_disabled":false,"rental_uris":{"android":"levelo://app?vid=6be534a9-96c6-4989-b3bb-e9dea76376c4","ios":"levelo://app?vid=6be534a9-96c6-4989-b3bb-e9dea76376c4"},"vehicle_type_id":"4","last_reported":1691309281,"current_range_meters":28400,"station_id":"ce4bhqp2rcd13ifvqhog","pricing_plan_id":"free"},{"bike_id":"ac4f06b2-1db5-4ff0-9bde-d3fbc89689ae","system_id":"levelo_inurba_marseille","lat":43.292749,"lon":5.368398,"is_reserved":false,"is_disabled":false,"rental_uris":{"android":"levelo://app?vid=ac4f06b2-1db5-4ff0-9bde-d3fbc89689ae","ios":"levelo://app?vid=ac4f06b2-1db5-4ff0-9bde-d3fbc89689ae"},"vehicle_type_id":"4","last_reported":1691309281,"current_range_meters":25600,"station_id":"ce4bhbp2rcd13ifvqesg","pricing_plan_id":"free"},{"bike_id":"4d80021c-6fec-4848-b441-a1dbde578ea1","system_id":"levelo_inurba_marseille","lat":43.292749,"lon":5.368402,"is_reserved":false,"is_disabled":false,"rental_uris":{"android":"levelo://app?vid=4d80021c-6fec-4848-b441-a1dbde578ea1","ios":"levelo://app?vid=4d80021c-6fec-4848-b441-a1dbde578ea1"},"vehicle_type_id":"4","last_reported":1691309281,"current_range_meters":30000,"station_id":"ce4bhbp2rcd13ifvqesg","pricing_plan_id":"free"},{"bike_id":"d3a6e9f4-3b1e-4be1-a5b0-0b552b304ad6","system_id":"levelo_inurba_marseille","lat":43.305994,"lon":5.393687,"is_reserved":false,"is_disabled":false,"rental_uris":{"android":"levelo://app?vid=d3a6e9f4-3b1e-4be1-a5b0-0b552b304ad6","ios":"levelo://app?vid=d3a6e9f4-3b1e-4be1-a5b0-0b552b304ad6"},"vehicle_type_id":"4","last_reported":1691309281,"current_range_meters":17600,"station_id":"ce4bh0p2rcd13ifvqd80","pricing_plan_id":"free"},{"bike_id":"1382dceb-6a1a-455f-8890-f8403e04174e","system_id":"levelo_inurba_marseille","lat":43.305994,"lon":5.393687,"is_reserved":false,"is_disabled":false,"rental_uris":{"android":"levelo://app?vid=1382dceb-6a1a-455f-8890-f8403e04174e","ios":"levelo://app?vid=1382dceb-6a1a-455f-8890-f8403e04174e"},"vehicle_type_id":"4","last_reported":1691309281,"current_range_meters":16400,"station_id":"ce4bh0p2rcd13ifvqd80","pricing_plan_id":"free"},{"bike_id":"bd10b951-71aa-4140-b5ae-7adc8a467c98","system_id":"levelo_inurba_marseille","lat":43.293009,"lon":5.374584,"is_reserved":false,"is_disabled":false,"rental_uris":{"android":"levelo://app?vid=bd10b951-71aa-4140-b5ae-7adc8a467c98","ios":"levelo://app?vid=bd10b951-71aa-4140-b5ae-7adc8a467c98"},"vehicle_type_id":"4","last_reported":1691309281,"current_range_meters":30000,"station_id":"ce4bgi12rcd13ifvqb70","pricing_plan_id":"free"},{"bike_id":"fc62e57d-bbc9-40e1-9442-085ac461c838","system_id":"levelo_inurba_marseille","lat":43.30296,"lon":5.392,"is_reserved":false,"is_disabled":false,"rental_uris":{"android":"levelo://app?vid=fc62e57d-bbc9-40e1-9442-085ac461c838","ios":"levelo://app?vid=fc62e57d-bbc9-40e1-9442-085ac461c838"},"vehicle_type_id":"4","last_reported":1691309281,"current_range_meters":8400,"station_id":"ce4bgkh2rcd13ifvqbk0","pricing_plan_id":"free"},{"bike_id":"a916e500-def2-4ce2-bb77-961d587b1348","system_id":"levelo_inurba_marseille","lat":43.30401,"lon":5.39296,"is_reserved":false,"is_disabled":false,"rental_uris":{"android":"levelo://app?vid=a916e500-def2-4ce2-bb77-961d587b1348","ios":"levelo://app?vid=a916e500-def2-4ce2-bb77-961d587b1348"},"vehicle_type_id":"4","last_reported":1691309281,"current_range_meters":15600,"station_id":"","pricing_plan_id":"free"},{"bike_id":"b0ef03fe-c84f-44c2-9810-53752b5ba144","system_id":"levelo_inurba_marseille","lat":43.292311,"lon":5.360731,"is_reserved":false,"is_disabled":false,"rental_uris":{"android":"levelo://app?vid=b0ef03fe-c84f-44c2-9810-53752b5ba144","ios":"levelo://app?vid=b0ef03fe-c84f-44c2-9810-53752b5ba144"},"vehicle_type_id":"4","last_reported":1691309281,"current_range_meters":22400,"station_id":"ce4bhbh2rcd13ifvqeqg","pricing_plan_id":"free"},{"bike_id":"d0889bb6-f429-40de-a5ad-bf12983b0989","system_id":"levelo_inurba_marseille","lat":43.292311,"lon":5.360731,"is_reserved":false,"is_disabled":false,"rental_uris":{"android":"levelo://app?vid=d0889bb6-f429-40de-a5ad-bf12983b0989","ios":"levelo://app?vid=d0889bb6-f429-40de-a5ad-bf12983b0989"},"vehicle_type_id":"4","last_reported":1691309281,"current_range_meters":25200,"station_id":"ce4bhbh2rcd13ifvqeqg","pricing_plan_id":"free"},{"bike_id":"88268657-f1ec-4fe7-80f3-a449fb5f0a6f","system_id":"levelo_inurba_marseille","lat":43.30085,"lon":5.390856,"is_reserved":false,"is_disabled":false,"rental_uris":{"android":"levelo://app?vid=88268657-f1ec-4fe7-80f3-a449fb5f0a6f","ios":"levelo://app?vid=88268657-f1ec-4fe7-80f3-a449fb5f0a6f"},"vehicle_type_id":"4","last_reported":1691309281,"current_range_meters":31600,"station_id":"ce4bh192rcd13ifvqdb0","pricing_plan_id":"free"},{"bike_id":"2323bdea-b949-4c2f-a741-4383d806d212","system_id":"levelo_inurba_marseille","lat":43.292311,"lon":5.360731,"is_reserved":false,"is_disabled":false,"rental_uris":{"android":"levelo://app?vid=2323bdea-b949-4c2f-a741-4383d806d212","ios":"levelo://app?vid=2323bdea-b949-4c2f-a741-4383d806d212"},"vehicle_type_id":"4","last_reported":1691309281,"current_range_meters":12800,"station_id":"ce4bhbh2rcd13ifvqeqg","pricing_plan_id":"free"},{"bike_id":"fd695166-90f0-44d3-bf95-96b98f98856a","system_id":"levelo_inurba_marseille","lat":43.300852,"lon":5.390859,"is_reserved":false,"is_disabled":false,"rental_uris":{"android":"levelo://app?vid=fd695166-90f0-44d3-bf95-96b98f98856a","ios":"levelo://app?vid=fd695166-90f0-44d3-bf95-96b98f98856a"},"vehicle_type_id":"4","last_reported":1691309281,"current_range_meters":31200,"station_id":"ce4bh192rcd13ifvqdb0","pricing_plan_id":"free"},{"bike_id":"733e9177-8619-4015-9a03-2af283502614","system_id":"levelo_inurba_marseille","lat":43.291675,"lon":5.371583,"is_reserved":false,"is_disabled":false,"rental_uris":{"android":"levelo://app?vid=733e9177-8619-4015-9a03-2af283502614","ios":"levelo://app?vid=733e9177-8619-4015-9a03-2af283502614"},"vehicle_type_id":"4","last_reported":1691309281,"current_range_meters":30800,"station_id":"ce4bha92rcd13ifvqeh0","pricing_plan_id":"free"},{"bike_id":"03043de6-f122-4bff-b30b-0804681297f0","system_id":"levelo_inurba_marseille","lat":43.292663,"lon":5.376389,"is_reserved":false,"is_disabled":false,"rental_uris":{"android":"levelo://app?vid=03043de6-f122-4bff-b30b-0804681297f0","ios":"levelo://app?vid=03043de6-f122-4bff-b30b-0804681297f0"},"vehicle_type_id":"4","last_reported":1691309281,"current_range_meters":21200,"station_id":"ce4bgi12rcd13ifvqb80","pricing_plan_id":"free"},{"bike_id":"126096f3-a682-411c-9219-da8b3df9ad34","system_id":"levelo_inurba_marseille","lat":43.29878,"lon":5.38919,"is_reserved":false,"is_disabled":false,"rental_uris":{"android":"levelo://app?vid=126096f3-a682-411c-9219-da8b3df9ad34","ios":"levelo://app?vid=126096f3-a682-411c-9219-da8b3df9ad34"},"vehicle_type_id":"4","last_reported":1691309281,"current_range_meters":23600,"station_id":"ce4bh392rcd13ifvqdl0","pricing_plan_id":"free"},{"bike_id":"3dc0f7fb-391d-4f81-badb-3e4076ffe3ef","system_id":"levelo_inurba_marseille","lat":43.309038,"lon":5.396546,"is_reserved":false,"is_disabled":false,"rental_uris":{"android":"levelo://app?vid=3dc0f7fb-391d-4f81-badb-3e4076ffe3ef","ios":"levelo://app?vid=3dc0f7fb-391d-4f81-badb-3e4076ffe3ef"},"vehicle_type_id":"4","last_reported":1691309281,"current_range_meters":14000,"station_id":"ce4bh012rcd13ifvqcv0","pricing_plan_id":"free"},{"bike_id":"45dac5a3-c5ba-46e0-8b19-aa007b955686","system_id":"levelo_inurba_marseille","lat":43.309038,"lon":5.396546,"is_reserved":false,"is_disabled":false,"rental_uris":{"android":"levelo://app?vid=45dac5a3-c5ba-46e0-8b19-aa007b955686","ios":"levelo://app?vid=45dac5a3-c5ba-46e0-8b19-aa007b955686"},"vehicle_type_id":"4","last_reported":1691309281,"current_range_meters":19600,"station_id":"ce4bh012rcd13ifvqcv0","pricing_plan_id":"free"},{"bike_id":"fed21c79-fa7d-4c11-9db6-385eb38d528c","system_id":"levelo_inurba_marseille","lat":43.30881,"lon":5.39637,"is_reserved":false,"is_disabled":false,"rental_uris":{"android":"levelo://app?vid=fed21c79-fa7d-4c11-9db6-385eb38d528c","ios":"levelo://app?vid=fed21c79-fa7d-4c11-9db6-385eb38d528c"},"vehicle_type_id":"4","last_reported":1691309281,"current_range_meters":31200,"station_id":"ce4bh012rcd13ifvqcv0","pricing_plan_id":"free"},{"bike_id":"c2c4f8b7-7a79-482d-8b03-2d0e826b8b70","system_id":"levelo_inurba_marseille","lat":43.31325,"lon":5.39689,"is_reserved":false,"is_disabled":false,"rental_uris":{"android":"levelo://app?vid=c2c4f8b7-7a79-482d-8b03-2d0e826b8b70","ios":"levelo://app?vid=c2c4f8b7-7a79-482d-8b03-2d0e826b8b70"},"vehicle_type_id":"4","last_reported":1691309281,"current_range_meters":31200,"station_id":"ce4bgvp2rcd13ifvqcu0","pricing_plan_id":"free"},{"bike_id":"8e14d3b7-6225-4aa5-a192-27c9c015b332","system_id":"levelo_inurba_marseille","lat":43.31329,"lon":5.39692,"is_reserved":false,"is_disabled":false,"rental_uris":{"android":"levelo://app?vid=8e14d3b7-6225-4aa5-a192-27c9c015b332","ios":"levelo://app?vid=8e14d3b7-6225-4aa5-a192-27c9c015b332"},"vehicle_type_id":"4","last_reported":1691309281,"current_range_meters":30400,"station_id":"ce4bgvp2rcd13ifvqcu0","pricing_plan_id":"free"},{"bike_id":"ea7a9fbd-79bf-4fc5-9cf5-600ce47a3c6f","system_id":"levelo_inurba_marseille","lat":43.31327,"lon":5.39693,"is_reserved":false,"is_disabled":false,"rental_uris":{"android":"levelo://app?vid=ea7a9fbd-79bf-4fc5-9cf5-600ce47a3c6f","ios":"levelo://app?vid=ea7a9fbd-79bf-4fc5-9cf5-600ce47a3c6f"},"vehicle_type_id":"4","last_reported":1691309281,"current_range_meters":7200,"station_id":"ce4bgvp2rcd13ifvqcu0","pricing_plan_id":"free"},{"bike_id":"57026afd-ad98-403e-a76f-d84be1fa9485","system_id":"levelo_inurba_marseille","lat":43.29536,"lon":5.3854,"is_reserved":false,"is_disabled":false,"rental_uris":{"android":"levelo://app?vid=57026afd-ad98-403e-a76f-d84be1fa9485","ios":"levelo://app?vid=57026afd-ad98-403e-a76f-d84be1fa9485"},"vehicle_type_id":"4","last_reported":1691309281,"current_range_meters":0,"station_id":"ce4bgih2rcd13ifvqba0","pricing_plan_id":"free"},{"bike_id":"61391ea9-40ea-4fbd-bf41-22705ff966bb","system_id":"levelo_inurba_marseille","lat":43.290779,"lon":5.371482,"is_reserved":false,"is_disabled":false,"rental_uris":{"android":"levelo://app?vid=61391ea9-40ea-4fbd-bf41-22705ff966bb","ios":"levelo://app?vid=61391ea9-40ea-4fbd-bf41-22705ff966bb"},"vehicle_type_id":"4","last_reported":1691309281,"current_range_meters":21600,"station_id":"ce4bh5p2rcd13ifvqe4g","pricing_plan_id":"free"},{"bike_id":"14879d66-3955-4fe8-b7ad-d57cc4e0ff46","system_id":"levelo_inurba_marseille","lat":43.29058,"lon":5.37169,"is_reserved":false,"is_disabled":false,"rental_uris":{"android":"levelo://app?vid=14879d66-3955-4fe8-b7ad-d57cc4e0ff46","ios":"levelo://app?vid=14879d66-3955-4fe8-b7ad-d57cc4e0ff46"},"vehicle_type_id":"4","last_reported":1691309281,"current_range_meters":30400,"station_id":"","pricing_plan_id":"free"},{"bike_id":"dc83581f-d63f-477c-9462-e941729284a5","system_id":"levelo_inurba_marseille","lat":43.290779,"lon":5.371482,"is_reserved":false,"is_disabled":false,"rental_uris":{"android":"levelo://app?vid=dc83581f-d63f-477c-9462-e941729284a5","ios":"levelo://app?vid=dc83581f-d63f-477c-9462-e941729284a5"},"vehicle_type_id":"4","last_reported":1691309281,"current_range_meters":17200,"station_id":"ce4bh5p2rcd13ifvqe4g","pricing_plan_id":"free"},{"bike_id":"0938c9de-3f33-4207-94aa-c267a0cb1db2","system_id":"levelo_inurba_marseille","lat":43.302008,"lon":5.394694,"is_reserved":false,"is_disabled":false,"rental_uris":{"android":"levelo://app?vid=0938c9de-3f33-4207-94aa-c267a0cb1db2","ios":"levelo://app?vid=0938c9de-3f33-4207-94aa-c267a0cb1db2"},"vehicle_type_id":"4","last_reported":1691309281,"current_range_meters":25600,"station_id":"ce4bh0p2rcd13ifvqd70","pricing_plan_id":"free"},{"bike_id":"d423ef12-3b23-48d0-92b7-a3bd5628ac91","system_id":"levelo_inurba_marseille","lat":43.302008,"lon":5.394694,"is_reserved":false,"is_disabled":false,"rental_uris":{"android":"levelo://app?vid=d423ef12-3b23-48d0-92b7-a3bd5628ac91","ios":"levelo://app?vid=d423ef12-3b23-48d0-92b7-a3bd5628ac91"},"vehicle_type_id":"4","last_reported":1691309281,"current_range_meters":31200,"station_id":"ce4bh0p2rcd13ifvqd70","pricing_plan_id":"free"},{"bike_id":"569296e0-d95f-4a79-9576-edd8762156fc","system_id":"levelo_inurba_marseille","lat":43.302008,"lon":5.394694,"is_reserved":false,"is_disabled":false,"rental_uris":{"android":"levelo://app?vid=569296e0-d95f-4a79-9576-edd8762156fc","ios":"levelo://app?vid=569296e0-d95f-4a79-9576-edd8762156fc"},"vehicle_type_id":"4","last_reported":1691309281,"current_range_meters":29200,"station_id":"ce4bh0p2rcd13ifvqd70","pricing_plan_id":"free"},{"bike_id":"caf9cb29-b38a-42ee-b109-b1f99022a003","system_id":"levelo_inurba_marseille","lat":43.290327,"lon":5.375711,"is_reserved":false,"is_disabled":false,"rental_uris":{"android":"levelo://app?vid=caf9cb29-b38a-42ee-b109-b1f99022a003","ios":"levelo://app?vid=caf9cb29-b38a-42ee-b109-b1f99022a003"},"vehicle_type_id":"4","last_reported":1691309281,"current_range_meters":21600,"station_id":"ce4bh692rcd13ifvqe90","pricing_plan_id":"free"},{"bike_id":"5b0ed543-ed6c-4467-84d1-a28db28702b4","system_id":"levelo_inurba_marseille","lat":43.304296,"lon":5.397513,"is_reserved":false,"is_disabled":false,"rental_uris":{"android":"levelo://app?vid=5b0ed543-ed6c-4467-84d1-a28db28702b4","ios":"levelo://app?vid=5b0ed543-ed6c-4467-84d1-a28db28702b4"},"vehicle_type_id":"4","last_reported":1691309281,"current_range_meters":15200,"station_id":"ce4bh092rcd13ifvqd20","pricing_plan_id":"free"},{"bike_id":"0d9d7df7-cdab-4b6a-b4fb-7142f438400f","system_id":"levelo_inurba_marseille","lat":43.292642,"lon":5.384254,"is_reserved":false,"is_disabled":false,"rental_uris":{"android":"levelo://app?vid=0d9d7df7-cdab-4b6a-b4fb-7142f438400f","ios":"levelo://app?vid=0d9d7df7-cdab-4b6a-b4fb-7142f438400f"},"vehicle_type_id":"4","last_reported":1691309281,"current_range_meters":31200,"station_id":"ce4bh692rcd13ifvqea0","pricing_plan_id":"free"},{"bike_id":"eac9d0b6-b693-4802-8ace-86c7e8bdf9fb","system_id":"levelo_inurba_marseille","lat":43.292642,"lon":5.384254,"is_reserved":false,"is_disabled":false,"rental_uris":{"android":"levelo://app?vid=eac9d0b6-b693-4802-8ace-86c7e8bdf9fb","ios":"levelo://app?vid=eac9d0b6-b693-4802-8ace-86c7e8bdf9fb"},"vehicle_type_id":"4","last_reported":1691309281,"current_range_meters":12400,"station_id":"ce4bh692rcd13ifvqea0","pricing_plan_id":"free"},{"bike_id":"2f2d42a2-8de0-405f-9429-d3eae654394c","system_id":"levelo_inurba_marseille","lat":43.33037,"lon":5.38914,"is_reserved":false,"is_disabled":false,"rental_uris":{"android":"levelo://app?vid=2f2d42a2-8de0-405f-9429-d3eae654394c","ios":"levelo://app?vid=2f2d42a2-8de0-405f-9429-d3eae654394c"},"vehicle_type_id":"4","last_reported":1691309281,"current_range_meters":13200,"station_id":"ce4bhr92rcd13ifvqhrg","pricing_plan_id":"free"},{"bike_id":"a9a3da13-eb8a-4844-b4f7-b0e57d717f0b","system_id":"levelo_inurba_marseille","lat":43.292642,"lon":5.384254,"is_reserved":false,"is_disabled":false,"rental_uris":{"android":"levelo://app?vid=a9a3da13-eb8a-4844-b4f7-b0e57d717f0b","ios":"levelo://app?vid=a9a3da13-eb8a-4844-b4f7-b0e57d717f0b"},"vehicle_type_id":"4","last_reported":1691309281,"current_range_meters":16400,"station_id":"ce4bh692rcd13ifvqea0","pricing_plan_id":"free"},{"bike_id":"38c1adea-6867-4940-9699-a628b1958570","system_id":"levelo_inurba_marseille","lat":43.33038,"lon":5.38915,"is_reserved":false,"is_disabled":false,"rental_uris":{"android":"levelo://app?vid=38c1adea-6867-4940-9699-a628b1958570","ios":"levelo://app?vid=38c1adea-6867-4940-9699-a628b1958570"},"vehicle_type_id":"4","last_reported":1691309281,"current_range_meters":24800,"station_id":"ce4bhr92rcd13ifvqhrg","pricing_plan_id":"free"},{"bike_id":"aa4222fd-f0c2-4695-b97d-5f2ef476c423","system_id":"levelo_inurba_marseille","lat":43.33039,"lon":5.38915,"is_reserved":false,"is_disabled":false,"rental_uris":{"android":"levelo://app?vid=aa4222fd-f0c2-4695-b97d-5f2ef476c423","ios":"levelo://app?vid=aa4222fd-f0c2-4695-b97d-5f2ef476c423"},"vehicle_type_id":"4","last_reported":1691309281,"current_range_meters":30400,"station_id":"ce4bhr92rcd13ifvqhrg","pricing_plan_id":"free"},{"bike_id":"a6bada1d-9bd5-4c5e-b66a-f1d8a9247bea","system_id":"levelo_inurba_marseille","lat":43.33041,"lon":5.38914,"is_reserved":false,"is_disabled":false,"rental_uris":{"android":"levelo://app?vid=a6bada1d-9bd5-4c5e-b66a-f1d8a9247bea","ios":"levelo://app?vid=a6bada1d-9bd5-4c5e-b66a-f1d8a9247bea"},"vehicle_type_id":"4","last_reported":1691309281,"current_range_meters":31200,"station_id":"ce4bhr92rcd13ifvqhrg","pricing_plan_id":"free"},{"bike_id":"f2491ac2-fbd3-4d08-8d2f-631d777becaa","system_id":"levelo_inurba_marseille","lat":43.292642,"lon":5.384254,"is_reserved":false,"is_disabled":false,"rental_uris":{"android":"levelo://app?vid=f2491ac2-fbd3-4d08-8d2f-631d777becaa","ios":"levelo://app?vid=f2491ac2-fbd3-4d08-8d2f-631d777becaa"},"vehicle_type_id":"4","last_reported":1691309281,"current_range_meters":31600,"station_id":"ce4bh692rcd13ifvqea0","pricing_plan_id":"free"},{"bike_id":"20cf3f6d-acf4-4653-bf24-baa04253f77a","system_id":"levelo_inurba_marseille","lat":43.33042,"lon":5.38915,"is_reserved":false,"is_disabled":false,"rental_uris":{"android":"levelo://app?vid=20cf3f6d-acf4-4653-bf24-baa04253f77a","ios":"levelo://app?vid=20cf3f6d-acf4-4653-bf24-baa04253f77a"},"vehicle_type_id":"4","last_reported":1691309281,"current_range_meters":30000,"station_id":"ce4bhr92rcd13ifvqhrg","pricing_plan_id":"free"},{"bike_id":"f67edc25-bcc7-41fb-8431-1add679b0933","system_id":"levelo_inurba_marseille","lat":43.33048,"lon":5.38908,"is_reserved":false,"is_disabled":false,"rental_uris":{"android":"levelo://app?vid=f67edc25-bcc7-41fb-8431-1add679b0933","ios":"levelo://app?vid=f67edc25-bcc7-41fb-8431-1add679b0933"},"vehicle_type_id":"4","last_reported":1691309281,"current_range_meters":12000,"station_id":"ce4bhr92rcd13ifvqhrg","pricing_plan_id":"free"},{"bike_id":"9cfb68fb-e653-4175-a543-0e9c1ea9f2bf","system_id":"levelo_inurba_marseille","lat":43.33039,"lon":5.38922,"is_reserved":false,"is_disabled":false,"rental_uris":{"android":"levelo://app?vid=9cfb68fb-e653-4175-a543-0e9c1ea9f2bf","ios":"levelo://app?vid=9cfb68fb-e653-4175-a543-0e9c1ea9f2bf"},"vehicle_type_id":"4","last_reported":1691309281,"current_range_meters":30400,"station_id":"ce4bhr92rcd13ifvqhrg","pricing_plan_id":"free"},{"bike_id":"9ce62819-7d94-47c9-aff2-f56e39f0ba59","system_id":"levelo_inurba_marseille","lat":43.3304,"lon":5.38922,"is_reserved":false,"is_disabled":false,"rental_uris":{"android":"levelo://app?vid=9ce62819-7d94-47c9-aff2-f56e39f0ba59","ios":"levelo://app?vid=9ce62819-7d94-47c9-aff2-f56e39f0ba59"},"vehicle_type_id":"4","last_reported":1691309281,"current_range_meters":24000,"station_id":"ce4bhr92rcd13ifvqhrg","pricing_plan_id":"free"},{"bike_id":"0856f63e-1cff-478f-821e-b7ffab7f1302","system_id":"levelo_inurba_marseille","lat":43.33045,"lon":5.38917,"is_reserved":false,"is_disabled":false,"rental_uris":{"android":"levelo://app?vid=0856f63e-1cff-478f-821e-b7ffab7f1302","ios":"levelo://app?vid=0856f63e-1cff-478f-821e-b7ffab7f1302"},"vehicle_type_id":"4","last_reported":1691309281,"current_range_meters":20400,"station_id":"ce4bhr92rcd13ifvqhrg","pricing_plan_id":"free"},{"bike_id":"0ad39b2d-5ea7-4993-88d6-88a772550ebb","system_id":"levelo_inurba_marseille","lat":43.33045,"lon":5.38918,"is_reserved":false,"is_disabled":false,"rental_uris":{"android":"levelo://app?vid=0ad39b2d-5ea7-4993-88d6-88a772550ebb","ios":"levelo://app?vid=0ad39b2d-5ea7-4993-88d6-88a772550ebb"},"vehicle_type_id":"4","last_reported":1691309281,"current_range_meters":13600,"station_id":"ce4bhr92rcd13ifvqhrg","pricing_plan_id":"free"},{"bike_id":"c009b609-b195-4572-b5eb-a1af74cc62b3","system_id":"levelo_inurba_marseille","lat":43.29005,"lon":5.35606,"is_reserved":false,"is_disabled":false,"rental_uris":{"android":"levelo://app?vid=c009b609-b195-4572-b5eb-a1af74cc62b3","ios":"levelo://app?vid=c009b609-b195-4572-b5eb-a1af74cc62b3"},"vehicle_type_id":"4","last_reported":1691309281,"current_range_meters":28800,"station_id":"ce4bhb92rcd13ifvqen0","pricing_plan_id":"free"},{"bike_id":"17d3a5cc-7192-4573-99c8-8b823ce005ff","system_id":"levelo_inurba_marseille","lat":43.33044,"lon":5.38928,"is_reserved":false,"is_disabled":false,"rental_uris":{"android":"levelo://app?vid=17d3a5cc-7192-4573-99c8-8b823ce005ff","ios":"levelo://app?vid=17d3a5cc-7192-4573-99c8-8b823ce005ff"},"vehicle_type_id":"4","last_reported":1691309281,"current_range_meters":31200,"station_id":"ce4bhr92rcd13ifvqhrg","pricing_plan_id":"free"},{"bike_id":"de69ae41-242d-442a-8cc7-f077154b27cb","system_id":"levelo_inurba_marseille","lat":43.290103,"lon":5.356114,"is_reserved":false,"is_disabled":false,"rental_uris":{"android":"levelo://app?vid=de69ae41-242d-442a-8cc7-f077154b27cb","ios":"levelo://app?vid=de69ae41-242d-442a-8cc7-f077154b27cb"},"vehicle_type_id":"4","last_reported":1691309281,"current_range_meters":31200,"station_id":"ce4bhb92rcd13ifvqen0","pricing_plan_id":"free"},{"bike_id":"5a947846-a83f-4609-b2f1-59bad885ed06","system_id":"levelo_inurba_marseille","lat":43.290995,"lon":5.381361,"is_reserved":false,"is_disabled":false,"rental_uris":{"android":"levelo://app?vid=5a947846-a83f-4609-b2f1-59bad885ed06","ios":"levelo://app?vid=5a947846-a83f-4609-b2f1-59bad885ed06"},"vehicle_type_id":"4","last_reported":1691309281,"current_range_meters":24800,"station_id":"ce4bh512rcd13ifvqe2g","pricing_plan_id":"free"},{"bike_id":"05bf2cc0-c80b-4d3b-9303-5cea93148e89","system_id":"levelo_inurba_marseille","lat":43.290995,"lon":5.381361,"is_reserved":false,"is_disabled":false,"rental_uris":{"android":"levelo://app?vid=05bf2cc0-c80b-4d3b-9303-5cea93148e89","ios":"levelo://app?vid=05bf2cc0-c80b-4d3b-9303-5cea93148e89"},"vehicle_type_id":"4","last_reported":1691309281,"current_range_meters":31200,"station_id":"ce4bh512rcd13ifvqe2g","pricing_plan_id":"free"},{"bike_id":"7c0b62c9-d183-4c0f-9f3f-ee84465d5dc8","system_id":"levelo_inurba_marseille","lat":43.297815,"lon":5.393548,"is_reserved":false,"is_disabled":false,"rental_uris":{"android":"levelo://app?vid=7c0b62c9-d183-4c0f-9f3f-ee84465d5dc8","ios":"levelo://app?vid=7c0b62c9-d183-4c0f-9f3f-ee84465d5dc8"},"vehicle_type_id":"4","last_reported":1691309281,"current_range_meters":30400,"station_id":"chh1huq6cuj3fo74tm60","pricing_plan_id":"free"},{"bike_id":"5a20956f-bf0c-4b5b-995d-54a6edd31589","system_id":"levelo_inurba_marseille","lat":43.2901,"lon":5.381269,"is_reserved":false,"is_disabled":false,"rental_uris":{"android":"levelo://app?vid=5a20956f-bf0c-4b5b-995d-54a6edd31589","ios":"levelo://app?vid=5a20956f-bf0c-4b5b-995d-54a6edd31589"},"vehicle_type_id":"4","last_reported":1691309281,"current_range_meters":14000,"station_id":"ce4bh4p2rcd13ifvqe1g","pricing_plan_id":"free"},{"bike_id":"ae86ec6e-8270-4e0c-9f3b-a7f30c06b946","system_id":"levelo_inurba_marseille","lat":43.28856,"lon":5.358371,"is_reserved":false,"is_disabled":false,"rental_uris":{"android":"levelo://app?vid=ae86ec6e-8270-4e0c-9f3b-a7f30c06b946","ios":"levelo://app?vid=ae86ec6e-8270-4e0c-9f3b-a7f30c06b946"},"vehicle_type_id":"4","last_reported":1691309281,"current_range_meters":23200,"station_id":"ce4bhb12rcd13ifvqem0","pricing_plan_id":"free"},{"bike_id":"c556bd46-b7e5-435a-8b52-26b7069ea942","system_id":"levelo_inurba_marseille","lat":43.28856,"lon":5.358371,"is_reserved":false,"is_disabled":false,"rental_uris":{"android":"levelo://app?vid=c556bd46-b7e5-435a-8b52-26b7069ea942","ios":"levelo://app?vid=c556bd46-b7e5-435a-8b52-26b7069ea942"},"vehicle_type_id":"4","last_reported":1691309281,"current_range_meters":31600,"station_id":"ce4bhb12rcd13ifvqem0","pricing_plan_id":"free"},{"bike_id":"b2fe0e94-62a8-41fd-a458-2756b18ea5a5","system_id":"levelo_inurba_marseille","lat":43.309371,"lon":5.401449,"is_reserved":false,"is_disabled":false,"rental_uris":{"android":"levelo://app?vid=b2fe0e94-62a8-41fd-a458-2756b18ea5a5","ios":"levelo://app?vid=b2fe0e94-62a8-41fd-a458-2756b18ea5a5"},"vehicle_type_id":"4","last_reported":1691309281,"current_range_meters":2800,"station_id":"ce4bgvp2rcd13ifvqct0","pricing_plan_id":"free"},{"bike_id":"c7069878-3e01-42ac-a4c3-7b7a0eb893e7","system_id":"levelo_inurba_marseille","lat":43.309371,"lon":5.401449,"is_reserved":false,"is_disabled":false,"rental_uris":{"android":"levelo://app?vid=c7069878-3e01-42ac-a4c3-7b7a0eb893e7","ios":"levelo://app?vid=c7069878-3e01-42ac-a4c3-7b7a0eb893e7"},"vehicle_type_id":"4","last_reported":1691309281,"current_range_meters":31200,"station_id":"ce4bgvp2rcd13ifvqct0","pricing_plan_id":"free"},{"bike_id":"33839deb-97bc-4dff-9158-c9f466361cec","system_id":"levelo_inurba_marseille","lat":43.30642,"lon":5.401031,"is_reserved":false,"is_disabled":false,"rental_uris":{"android":"levelo://app?vid=33839deb-97bc-4dff-9158-c9f466361cec","ios":"levelo://app?vid=33839deb-97bc-4dff-9158-c9f466361cec"},"vehicle_type_id":"4","last_reported":1691309281,"current_range_meters":24400,"station_id":"ce4bh112rcd13ifvqda0","pricing_plan_id":"free"},{"bike_id":"a3aecc07-28b1-4395-ad0a-347b148e25ef","system_id":"levelo_inurba_marseille","lat":43.309371,"lon":5.401449,"is_reserved":false,"is_disabled":false,"rental_uris":{"android":"levelo://app?vid=a3aecc07-28b1-4395-ad0a-347b148e25ef","ios":"levelo://app?vid=a3aecc07-28b1-4395-ad0a-347b148e25ef"},"vehicle_type_id":"4","last_reported":1691309281,"current_range_meters":31200,"station_id":"ce4bgvp2rcd13ifvqct0","pricing_plan_id":"free"},{"bike_id":"ce995fb4-c872-42ed-b825-754290e055bc","system_id":"levelo_inurba_marseille","lat":43.3064,"lon":5.40071,"is_reserved":false,"is_disabled":false,"rental_uris":{"android":"levelo://app?vid=ce995fb4-c872-42ed-b825-754290e055bc","ios":"levelo://app?vid=ce995fb4-c872-42ed-b825-754290e055bc"},"vehicle_type_id":"4","last_reported":1691309281,"current_range_meters":25200,"station_id":"ce4bh112rcd13ifvqda0","pricing_plan_id":"free"},{"bike_id":"59faea16-6e4b-4846-98d2-b1324adf1d76","system_id":"levelo_inurba_marseille","lat":43.30642,"lon":5.401031,"is_reserved":false,"is_disabled":false,"rental_uris":{"android":"levelo://app?vid=59faea16-6e4b-4846-98d2-b1324adf1d76","ios":"levelo://app?vid=59faea16-6e4b-4846-98d2-b1324adf1d76"},"vehicle_type_id":"4","last_reported":1691309281,"current_range_meters":1600,"station_id":"ce4bh112rcd13ifvqda0","pricing_plan_id":"free"},{"bike_id":"9c7d3d3e-2e03-438f-be41-bd2a25c3fb6d","system_id":"levelo_inurba_marseille","lat":43.30931,"lon":5.40153,"is_reserved":false,"is_disabled":false,"rental_uris":{"android":"levelo://app?vid=9c7d3d3e-2e03-438f-be41-bd2a25c3fb6d","ios":"levelo://app?vid=9c7d3d3e-2e03-438f-be41-bd2a25c3fb6d"},"vehicle_type_id":"4","last_reported":1691309281,"current_range_meters":400,"station_id":"ce4bgvp2rcd13ifvqct0","pricing_plan_id":"free"},{"bike_id":"9d7139ec-1b73-4220-94b4-767281cf6be3","system_id":"levelo_inurba_marseille","lat":43.3065,"lon":5.40083,"is_reserved":false,"is_disabled":false,"rental_uris":{"android":"levelo://app?vid=9d7139ec-1b73-4220-94b4-767281cf6be3","ios":"levelo://app?vid=9d7139ec-1b73-4220-94b4-767281cf6be3"},"vehicle_type_id":"4","last_reported":1691309281,"current_range_meters":0,"station_id":"ce4bh112rcd13ifvqda0","pricing_plan_id":"free"},{"bike_id":"21e5594d-1bcc-4afe-8531-a5d85954fbe1","system_id":"levelo_inurba_marseille","lat":43.30642,"lon":5.401031,"is_reserved":false,"is_disabled":false,"rental_uris":{"android":"levelo://app?vid=21e5594d-1bcc-4afe-8531-a5d85954fbe1","ios":"levelo://app?vid=21e5594d-1bcc-4afe-8531-a5d85954fbe1"},"vehicle_type_id":"4","last_reported":1691309281,"current_range_meters":19600,"station_id":"ce4bh112rcd13ifvqda0","pricing_plan_id":"free"},{"bike_id":"89ad3259-95a6-4dce-b561-4223f277fcb9","system_id":"levelo_inurba_marseille","lat":43.301117,"lon":5.398795,"is_reserved":false,"is_disabled":false,"rental_uris":{"android":"levelo://app?vid=89ad3259-95a6-4dce-b561-4223f277fcb9","ios":"levelo://app?vid=89ad3259-95a6-4dce-b561-4223f277fcb9"},"vehicle_type_id":"4","last_reported":1691309281,"current_range_meters":31200,"station_id":"ce4bh0h2rcd13ifvqd40","pricing_plan_id":"free"},{"bike_id":"b7d5cae2-8382-44bd-aa4e-e0337930b805","system_id":"levelo_inurba_marseille","lat":43.301117,"lon":5.398795,"is_reserved":false,"is_disabled":false,"rental_uris":{"android":"levelo://app?vid=b7d5cae2-8382-44bd-aa4e-e0337930b805","ios":"levelo://app?vid=b7d5cae2-8382-44bd-aa4e-e0337930b805"},"vehicle_type_id":"4","last_reported":1691309281,"current_range_meters":400,"station_id":"ce4bh0h2rcd13ifvqd40","pricing_plan_id":"free"},{"bike_id":"6456c8a9-5cfc-49f6-b6f0-d86d43c8f343","system_id":"levelo_inurba_marseille","lat":43.301117,"lon":5.398795,"is_reserved":false,"is_disabled":false,"rental_uris":{"android":"levelo://app?vid=6456c8a9-5cfc-49f6-b6f0-d86d43c8f343","ios":"levelo://app?vid=6456c8a9-5cfc-49f6-b6f0-d86d43c8f343"},"vehicle_type_id":"4","last_reported":1691309281,"current_range_meters":24800,"station_id":"ce4bh0h2rcd13ifvqd40","pricing_plan_id":"free"},{"bike_id":"31eb788d-9cc3-420b-a587-935337e6620a","system_id":"levelo_inurba_marseille","lat":43.301117,"lon":5.398795,"is_reserved":false,"is_disabled":false,"rental_uris":{"android":"levelo://app?vid=31eb788d-9cc3-420b-a587-935337e6620a","ios":"levelo://app?vid=31eb788d-9cc3-420b-a587-935337e6620a"},"vehicle_type_id":"4","last_reported":1691309281,"current_range_meters":29600,"station_id":"ce4bh0h2rcd13ifvqd40","pricing_plan_id":"free"},{"bike_id":"d6d34a0a-d745-4638-a9b6-ff3d817da496","system_id":"levelo_inurba_marseille","lat":43.301117,"lon":5.398795,"is_reserved":false,"is_disabled":false,"rental_uris":{"android":"levelo://app?vid=d6d34a0a-d745-4638-a9b6-ff3d817da496","ios":"levelo://app?vid=d6d34a0a-d745-4638-a9b6-ff3d817da496"},"vehicle_type_id":"4","last_reported":1691309281,"current_range_meters":31600,"station_id":"ce4bh0h2rcd13ifvqd40","pricing_plan_id":"free"},{"bike_id":"5604d236-91dc-41ab-92d3-63bdbe685fdc","system_id":"levelo_inurba_marseille","lat":43.298681,"lon":5.397225,"is_reserved":false,"is_disabled":false,"rental_uris":{"android":"levelo://app?vid=5604d236-91dc-41ab-92d3-63bdbe685fdc","ios":"levelo://app?vid=5604d236-91dc-41ab-92d3-63bdbe685fdc"},"vehicle_type_id":"4","last_reported":1691309281,"current_range_meters":10400,"station_id":"ce4bh0h2rcd13ifvqd50","pricing_plan_id":"free"},{"bike_id":"c2fedd18-9464-46b6-ba52-7b24db3ef9cc","system_id":"levelo_inurba_marseille","lat":43.286591,"lon":5.363346,"is_reserved":false,"is_disabled":false,"rental_uris":{"android":"levelo://app?vid=c2fedd18-9464-46b6-ba52-7b24db3ef9cc","ios":"levelo://app?vid=c2fedd18-9464-46b6-ba52-7b24db3ef9cc"},"vehicle_type_id":"4","last_reported":1691309281,"current_range_meters":30800,"station_id":"ce4bhah2rcd13ifvqej0","pricing_plan_id":"free"},{"bike_id":"75199276-b705-4ad7-b6a9-49aeaa84628a","system_id":"levelo_inurba_marseille","lat":43.286591,"lon":5.363346,"is_reserved":false,"is_disabled":false,"rental_uris":{"android":"levelo://app?vid=75199276-b705-4ad7-b6a9-49aeaa84628a","ios":"levelo://app?vid=75199276-b705-4ad7-b6a9-49aeaa84628a"},"vehicle_type_id":"4","last_reported":1691309281,"current_range_meters":31600,"station_id":"ce4bhah2rcd13ifvqej0","pricing_plan_id":"free"},{"bike_id":"7b9e2d57-7c2f-4652-8ec0-ee4d147afe24","system_id":"levelo_inurba_marseille","lat":43.302548,"lon":5.400568,"is_reserved":false,"is_disabled":false,"rental_uris":{"android":"levelo://app?vid=7b9e2d57-7c2f-4652-8ec0-ee4d147afe24","ios":"levelo://app?vid=7b9e2d57-7c2f-4652-8ec0-ee4d147afe24"},"vehicle_type_id":"4","last_reported":1691309281,"current_range_meters":8000,"station_id":"","pricing_plan_id":"free"},{"bike_id":"fccd2445-3854-48f1-baf5-b5d2e48d3539","system_id":"levelo_inurba_marseille","lat":43.290336,"lon":5.386425,"is_reserved":false,"is_disabled":false,"rental_uris":{"android":"levelo://app?vid=fccd2445-3854-48f1-baf5-b5d2e48d3539","ios":"levelo://app?vid=fccd2445-3854-48f1-baf5-b5d2e48d3539"},"vehicle_type_id":"4","last_reported":1691309281,"current_range_meters":27600,"station_id":"ce4bh4p2rcd13ifvqe0g","pricing_plan_id":"free"},{"bike_id":"6871477e-5ab7-480b-a288-d469d4d5c7d1","system_id":"levelo_inurba_marseille","lat":43.302759,"lon":5.400793,"is_reserved":false,"is_disabled":false,"rental_uris":{"android":"levelo://app?vid=6871477e-5ab7-480b-a288-d469d4d5c7d1","ios":"levelo://app?vid=6871477e-5ab7-480b-a288-d469d4d5c7d1"},"vehicle_type_id":"4","last_reported":1691309281,"current_range_meters":32000,"station_id":"ce4bgvh2rcd13ifvqcs0","pricing_plan_id":"free"},{"bike_id":"0e8af9e0-979d-4465-9c6a-9ae2efd44c34","system_id":"levelo_inurba_marseille","lat":43.302759,"lon":5.400793,"is_reserved":false,"is_disabled":false,"rental_uris":{"android":"levelo://app?vid=0e8af9e0-979d-4465-9c6a-9ae2efd44c34","ios":"levelo://app?vid=0e8af9e0-979d-4465-9c6a-9ae2efd44c34"},"vehicle_type_id":"4","last_reported":1691309281,"current_range_meters":31600,"station_id":"ce4bgvh2rcd13ifvqcs0","pricing_plan_id":"free"},{"bike_id":"c8bb82dc-71ea-45a5-aaf8-cd371a512ca8","system_id":"levelo_inurba_marseille","lat":43.302759,"lon":5.400793,"is_reserved":false,"is_disabled":false,"rental_uris":{"android":"levelo://app?vid=c8bb82dc-71ea-45a5-aaf8-cd371a512ca8","ios":"levelo://app?vid=c8bb82dc-71ea-45a5-aaf8-cd371a512ca8"},"vehicle_type_id":"4","last_reported":1691309281,"current_range_meters":31600,"station_id":"ce4bgvh2rcd13ifvqcs0","pricing_plan_id":"free"},{"bike_id":"5df173ca-558d-4e94-8830-5c09aa73b746","system_id":"levelo_inurba_marseille","lat":43.302759,"lon":5.400793,"is_reserved":false,"is_disabled":false,"rental_uris":{"android":"levelo://app?vid=5df173ca-558d-4e94-8830-5c09aa73b746","ios":"levelo://app?vid=5df173ca-558d-4e94-8830-5c09aa73b746"},"vehicle_type_id":"4","last_reported":1691309281,"current_range_meters":6400,"station_id":"ce4bgvh2rcd13ifvqcs0","pricing_plan_id":"free"},{"bike_id":"d0a0565a-8ba1-4570-acea-2f5266376318","system_id":"levelo_inurba_marseille","lat":43.287184,"lon":5.37937,"is_reserved":false,"is_disabled":false,"rental_uris":{"android":"levelo://app?vid=d0a0565a-8ba1-4570-acea-2f5266376318","ios":"levelo://app?vid=d0a0565a-8ba1-4570-acea-2f5266376318"},"vehicle_type_id":"4","last_reported":1691309281,"current_range_meters":31200,"station_id":"ce4bh9p2rcd13ifvqec0","pricing_plan_id":"free"},{"bike_id":"47347395-1fe7-4be9-8ef5-52edde368ef4","system_id":"levelo_inurba_marseille","lat":43.287184,"lon":5.37937,"is_reserved":false,"is_disabled":false,"rental_uris":{"android":"levelo://app?vid=47347395-1fe7-4be9-8ef5-52edde368ef4","ios":"levelo://app?vid=47347395-1fe7-4be9-8ef5-52edde368ef4"},"vehicle_type_id":"4","last_reported":1691309281,"current_range_meters":1600,"station_id":"ce4bh9p2rcd13ifvqec0","pricing_plan_id":"free"},{"bike_id":"fd1763d2-9edc-426e-9c28-c2a2da963662","system_id":"levelo_inurba_marseille","lat":43.316517,"lon":5.404375,"is_reserved":false,"is_disabled":false,"rental_uris":{"android":"levelo://app?vid=fd1763d2-9edc-426e-9c28-c2a2da963662","ios":"levelo://app?vid=fd1763d2-9edc-426e-9c28-c2a2da963662"},"vehicle_type_id":"4","last_reported":1691309281,"current_range_meters":10400,"station_id":"ce4bh012rcd13ifvqd00","pricing_plan_id":"free"},{"bike_id":"d430d71a-35eb-4645-8198-f19b78a41fe7","system_id":"levelo_inurba_marseille","lat":43.31644,"lon":5.40438,"is_reserved":false,"is_disabled":false,"rental_uris":{"android":"levelo://app?vid=d430d71a-35eb-4645-8198-f19b78a41fe7","ios":"levelo://app?vid=d430d71a-35eb-4645-8198-f19b78a41fe7"},"vehicle_type_id":"4","last_reported":1691309281,"current_range_meters":30800,"station_id":"ce4bh012rcd13ifvqd00","pricing_plan_id":"free"},{"bike_id":"b6bff6cd-d3fd-430b-b5ed-f37b7ce47a82","system_id":"levelo_inurba_marseille","lat":43.31648,"lon":5.40439,"is_reserved":false,"is_disabled":false,"rental_uris":{"android":"levelo://app?vid=b6bff6cd-d3fd-430b-b5ed-f37b7ce47a82","ios":"levelo://app?vid=b6bff6cd-d3fd-430b-b5ed-f37b7ce47a82"},"vehicle_type_id":"4","last_reported":1691309281,"current_range_meters":31200,"station_id":"ce4bh012rcd13ifvqd00","pricing_plan_id":"free"},{"bike_id":"605dac92-3b1d-44b7-9dc0-6fd904172d0e","system_id":"levelo_inurba_marseille","lat":43.31647,"lon":5.40442,"is_reserved":false,"is_disabled":false,"rental_uris":{"android":"levelo://app?vid=605dac92-3b1d-44b7-9dc0-6fd904172d0e","ios":"levelo://app?vid=605dac92-3b1d-44b7-9dc0-6fd904172d0e"},"vehicle_type_id":"4","last_reported":1691309281,"current_range_meters":16000,"station_id":"ce4bh012rcd13ifvqd00","pricing_plan_id":"free"},{"bike_id":"a051a954-23df-448a-ac89-91756d10610f","system_id":"levelo_inurba_marseille","lat":43.31646,"lon":5.40444,"is_reserved":false,"is_disabled":false,"rental_uris":{"android":"levelo://app?vid=a051a954-23df-448a-ac89-91756d10610f","ios":"levelo://app?vid=a051a954-23df-448a-ac89-91756d10610f"},"vehicle_type_id":"4","last_reported":1691309281,"current_range_meters":31200,"station_id":"ce4bh012rcd13ifvqd00","pricing_plan_id":"free"},{"bike_id":"f13c1d68-c9ee-4cf0-b786-38eaf32a5152","system_id":"levelo_inurba_marseille","lat":43.291994,"lon":5.392907,"is_reserved":false,"is_disabled":false,"rental_uris":{"android":"levelo://app?vid=f13c1d68-c9ee-4cf0-b786-38eaf32a5152","ios":"levelo://app?vid=f13c1d68-c9ee-4cf0-b786-38eaf32a5152"},"vehicle_type_id":"4","last_reported":1691309281,"current_range_meters":28800,"station_id":"ce4bh192rcd13ifvqdd0","pricing_plan_id":"free"},{"bike_id":"e85777b9-2c85-4b24-a914-bdf725451723","system_id":"levelo_inurba_marseille","lat":43.28461,"lon":5.35891,"is_reserved":false,"is_disabled":false,"rental_uris":{"android":"levelo://app?vid=e85777b9-2c85-4b24-a914-bdf725451723","ios":"levelo://app?vid=e85777b9-2c85-4b24-a914-bdf725451723"},"vehicle_type_id":"4","last_reported":1691309281,"current_range_meters":5600,"station_id":"ce4bhah2rcd13ifvqei0","pricing_plan_id":"free"},