{"last_updated":1749654712,"ttl":60,"version":"2.2","data":{"bikes":[{"bike_id":"07501c08-b74f-4d85-84dd-319b39e0e3d7","system_id":"levelo_inurba_marseille","lat":43.26816,"lon":5.42035,"is_reserved":false,"is_disabled":false,"rental_uris":{"android":"levelo://app?vid=07501c08-b74f-4d85-84dd-319b39e0e3d7","ios":"levelo://app?vid=07501c08-b74f-4d85-84dd-319b39e0e3d7"},"vehicle_type_id":"4","last_reported":1749654712,"current_range_meters":2800,"station_id":"ce4bhk92rcd13ifvqgb0","pricing_plan_id":"cebpf4jnsgd1na2vs0mg"},{"bike_id":"f55e9dd1-a36b-4a73-b67b-871bc41df4e2","system_id":"levelo_inurba_marseille","lat":43.30886,"lon":5.39637,"is_reserved":false,"is_disabled":false,"rental_uris":{"android":"levelo://app?vid=f55e9dd1-a36b-4a73-b67b-871bc41df4e2","ios":"levelo://app?vid=f55e9dd1-a36b-4a73-b67b-871bc41df4e2"},"vehicle_type_id":"4","last_reported":1749654712,"current_range_meters":2000,"station_id":"ce4bh012rcd13ifvqcv0","pricing_plan_id":"cebpf4jnsgd1na2vs0mg"},{"bike_id":"ce526313-e4c7-47eb-856f-183916936663","system_id":"levelo_inurba_marseille","lat":43.26208,"lon":5.39559,"is_reserved":false,"is_disabled":false,"rental_uris":{"android":"levelo://app?vid=ce526313-e4c7-47eb-856f-183916936663","ios":"levelo://app?vid=ce526313-e4c7-47eb-856f-183916936663"},"vehicle_type_id":"4","last_reported":1749654712,"current_range_meters":2800,"station_id":"","pricing_plan_id":"cebpf4jnsgd1na2vs0mg"},{"bike_id":"9b58cea8-d6ab-4592-90d6-a95c648d5594","system_id":"levelo_inurba_marseille","lat":43.289978,"lon":5.356154,"is_reserved":false,"is_disabled":false,"rental_uris":{"android":"levelo://app?vid=9b58cea8-d6ab-4592-90d6-a95c648d5594","ios":"levelo://app?vid=9b58cea8-d6ab-4592-90d6-a95c648d5594"},"vehicle_type_id":"4","last_reported":1749654712,"current_range_meters":2800,"station_id":"ce4bhb92rcd13ifvqen0","pricing_plan_id":"cebpf4jnsgd1na2vs0mg"},{"bike_id":"71a6ad24-4e18-4bd8-917d-5666aa0c4d76","system_id":"levelo_inurba_marseille","lat":43.33743,"lon":5.37487,"is_reserved":false,"is_disabled":false,"rental_uris":{"android":"levelo://app?vid=71a6ad24-4e18-4bd8-917d-5666aa0c4d76","ios":"levelo://app?vid=71a6ad24-4e18-4bd8-917d-5666aa0c4d76"},"vehicle_type_id":"4","last_reported":1749654712,"current_range_meters":3200,"station_id":"","pricing_plan_id":"cebpf4jnsgd1na2vs0mg"},{"bike_id":"681d0c05-12a3-47ae-b38a-6d871f1fa89b","system_id":"levelo_inurba_marseille","lat":43.29577,"lon":5.37699,"is_reserved":false,"is_disabled":false,"rental_uris":{"android":"levelo://app?vid=681d0c05-12a3-47ae-b38a-6d871f1fa89b","ios":"levelo://app?vid=681d0c05-12a3-47ae-b38a-6d871f1fa89b"},"vehicle_type_id":"4","last_reported":1749654712,"current_range_meters":3200,"station_id":"","pricing_plan_id":"cebpf4jnsgd1na2vs0mg"},{"bike_id":"ad641959-702f-4953-bad0-80634fd4ecf9","system_id":"levelo_inurba_marseille","lat":43.286133,"lon":5.351109,"is_reserved":false,"is_disabled":false,"rental_uris":{"android":"levelo://app?vid=ad641959-702f-4953-bad0-80634fd4ecf9","ios":"levelo://app?vid=ad641959-702f-4953-bad0-80634fd4ecf9"},"vehicle_type_id":"4","last_reported":1749654712,"current_range_meters":2800,"station_id":"ce4bhch2rcd13ifvqeug","pricing_plan_id":"cebpf4jnsgd1na2vs0mg"},{"bike_id":"037c2bdf-52a2-4493-bf01-752a14a8d74f","system_id":"levelo_inurba_marseille","lat":43.28409,"lon":5.34996,"is_reserved":false,"is_disabled":false,"rental_uris":{"android":"levelo://app?vid=037c2bdf-52a2-4493-bf01-752a14a8d74f","ios":"levelo://app?vid=037c2bdf-52a2-4493-bf01-752a14a8d74f"},"vehicle_type_id":"4","last_reported":1749654712,"current_range_meters":3600,"station_id":"ce4bhbh2rcd13ifvqepg","pricing_plan_id":"cebpf4jnsgd1na2vs0mg"},{"bike_id":"2e171292-1776-4b63-98b5-64adb8b5e81e","system_id":"levelo_inurba_marseille","lat":43.27913,"lon":5.39576,"is_reserved":false,"is_disabled":false,"rental_uris":{"android":"levelo://app?vid=2e171292-1776-4b63-98b5-64adb8b5e81e","ios":"levelo://app?vid=2e171292-1776-4b63-98b5-64adb8b5e81e"},"vehicle_type_id":"4","last_reported":1749654712,"current_range_meters":4000,"station_id":"ce4bhf92rcd13ifvqf40","pricing_plan_id":"cebpf4jnsgd1na2vs0mg"},{"bike_id":"3606b1ba-beea-40ff-8876-623f7e1a690c","system_id":"levelo_inurba_marseille","lat":43.28106,"lon":5.37839,"is_reserved":false,"is_disabled":false,"rental_uris":{"android":"levelo://app?vid=3606b1ba-beea-40ff-8876-623f7e1a690c","ios":"levelo://app?vid=3606b1ba-beea-40ff-8876-623f7e1a690c"},"vehicle_type_id":"4","last_reported":1749654712,"current_range_meters":4000,"station_id":"ce4bha12rcd13ifvqee0","pricing_plan_id":"cebpf4jnsgd1na2vs0mg"},{"bike_id":"f03d01ba-69c9-4fde-b43f-046462417145","system_id":"levelo_inurba_marseille","lat":43.29726,"lon":5.37676,"is_reserved":false,"is_disabled":false,"rental_uris":{"android":"levelo://app?vid=f03d01ba-69c9-4fde-b43f-046462417145","ios":"levelo://app?vid=f03d01ba-69c9-4fde-b43f-046462417145"},"vehicle_type_id":"4","last_reported":1749654712,"current_range_meters":4000,"station_id":"ce4bgkh2rcd13ifvqbl0","pricing_plan_id":"cebpf4jnsgd1na2vs0mg"},{"bike_id":"378f127a-3c51-45c7-862e-0629ccc6c6e1","system_id":"levelo_inurba_marseille","lat":43.29793,"lon":5.38108,"is_reserved":false,"is_disabled":false,"rental_uris":{"android":"levelo://app?vid=378f127a-3c51-45c7-862e-0629ccc6c6e1","ios":"levelo://app?vid=378f127a-3c51-45c7-862e-0629ccc6c6e1"},"vehicle_type_id":"4","last_reported":1749654712,"current_range_meters":4000,"station_id":"ce4bgip2rcd13ifvqbb0","pricing_plan_id":"cebpf4jnsgd1na2vs0mg"},{"bike_id":"c03d2bdb-c808-41cf-882e-d5392ef8a799","system_id":"levelo_inurba_marseille","lat":43.306,"lon":5.37224,"is_reserved":false,"is_disabled":false,"rental_uris":{"android":"levelo://app?vid=c03d2bdb-c808-41cf-882e-d5392ef8a799","ios":"levelo://app?vid=c03d2bdb-c808-41cf-882e-d5392ef8a799"},"vehicle_type_id":"4","last_reported":1749654712,"current_range_meters":4400,"station_id":"ce4bgqh2rcd13ifvqc4g","pricing_plan_id":"cebpf4jnsgd1na2vs0mg"},{"bike_id":"dc95927e-4787-412d-bd7c-cae5c4684663","system_id":"levelo_inurba_marseille","lat":43.30126,"lon":5.39848,"is_reserved":false,"is_disabled":false,"rental_uris":{"android":"levelo://app?vid=dc95927e-4787-412d-bd7c-cae5c4684663","ios":"levelo://app?vid=dc95927e-4787-412d-bd7c-cae5c4684663"},"vehicle_type_id":"4","last_reported":1749654712,"current_range_meters":4400,"station_id":"ce4bh0h2rcd13ifvqd40","pricing_plan_id":"cebpf4jnsgd1na2vs0mg"},{"bike_id":"ec371e40-d9ef-4f46-9137-5b9965e15d2c","system_id":"levelo_inurba_marseille","lat":43.28265,"lon":5.35068,"is_reserved":false,"is_disabled":false,"rental_uris":{"android":"levelo://app?vid=ec371e40-d9ef-4f46-9137-5b9965e15d2c","ios":"levelo://app?vid=ec371e40-d9ef-4f46-9137-5b9965e15d2c"},"vehicle_type_id":"4","last_reported":1749654712,"current_range_meters":4400,"station_id":"ce4bhbp2rcd13ifvqerg","pricing_plan_id":"cebpf4jnsgd1na2vs0mg"},{"bike_id":"0f70d38c-bae0-43b6-bc79-061e326961dd","system_id":"levelo_inurba_marseille","lat":43.240805,"lon":5.377543,"is_reserved":false,"is_disabled":false,"rental_uris":{"android":"levelo://app?vid=0f70d38c-bae0-43b6-bc79-061e326961dd","ios":"levelo://app?vid=0f70d38c-bae0-43b6-bc79-061e326961dd"},"vehicle_type_id":"4","last_reported":1749654712,"current_range_meters":4400,"station_id":"","pricing_plan_id":"cebpf4jnsgd1na2vs0mg"},{"bike_id":"40d63a1c-527f-49a6-aaad-7808e9774b58","system_id":"levelo_inurba_marseille","lat":43.28266,"lon":5.35066,"is_reserved":false,"is_disabled":false,"rental_uris":{"android":"levelo://app?vid=40d63a1c-527f-49a6-aaad-7808e9774b58","ios":"levelo://app?vid=40d63a1c-527f-49a6-aaad-7808e9774b58"},"vehicle_type_id":"4","last_reported":1749654712,"current_range_meters":4800,"station_id":"ce4bhbp2rcd13ifvqerg","pricing_plan_id":"cebpf4jnsgd1na2vs0mg"},{"bike_id":"08cae427-0196-4f86-bd40-5f1d1d8f511f","system_id":"levelo_inurba_marseille","lat":43.31713,"lon":5.42413,"is_reserved":false,"is_disabled":false,"rental_uris":{"android":"levelo://app?vid=08cae427-0196-4f86-bd40-5f1d1d8f511f","ios":"levelo://app?vid=08cae427-0196-4f86-bd40-5f1d1d8f511f"},"vehicle_type_id":"4","last_reported":1749654712,"current_range_meters":4800,"station_id":"ce4bhp92rcd13ifvqhbg","pricing_plan_id":"cebpf4jnsgd1na2vs0mg"},{"bike_id":"0a2cd4f2-b24c-4afc-88b0-5cb6f6a00646","system_id":"levelo_inurba_marseille","lat":43.24655,"lon":5.43583,"is_reserved":false,"is_disabled":true,"rental_uris":{"android":"levelo://app?vid=0a2cd4f2-b24c-4afc-88b0-5cb6f6a00646","ios":"levelo://app?vid=0a2cd4f2-b24c-4afc-88b0-5cb6f6a00646"},"vehicle_type_id":"4","last_reported":1749654712,"current_range_meters":4800,"station_id":"","pricing_plan_id":"cebpf4jnsgd1na2vs0mg"},{"bike_id":"5679d5d0-2ddc-4033-bd5c-042251d3d036","system_id":"levelo_inurba_marseille","lat":43.28945,"lon":5.36396,"is_reserved":false,"is_disabled":false,"rental_uris":{"android":"levelo://app?vid=5679d5d0-2ddc-4033-bd5c-042251d3d036","ios":"levelo://app?vid=5679d5d0-2ddc-4033-bd5c-042251d3d036"},"vehicle_type_id":"4","last_reported":1749654712,"current_range_meters":4400,"station_id":"ce4bhc92rcd13ifvqetg","pricing_plan_id":"cebpf4jnsgd1na2vs0mg"},{"bike_id":"e556de35-ba18-4441-b06a-967067a4d768","system_id":"levelo_inurba_marseille","lat":43.284203,"lon":5.350083,"is_reserved":false,"is_disabled":false,"rental_uris":{"android":"levelo://app?vid=e556de35-ba18-4441-b06a-967067a4d768","ios":"levelo://app?vid=e556de35-ba18-4441-b06a-967067a4d768"},"vehicle_type_id":"4","last_reported":1749654712,"current_range_meters":5600,"station_id":"ce4bhbh2rcd13ifvqepg","pricing_plan_id":"cebpf4jnsgd1na2vs0mg"},{"bike_id":"7046bafd-ea8c-425c-9cf6-2d298efef2dd","system_id":"levelo_inurba_marseille","lat":43.28417,"lon":5.34985,"is_reserved":false,"is_disabled":false,"rental_uris":{"android":"levelo://app?vid=7046bafd-ea8c-425c-9cf6-2d298efef2dd","ios":"levelo://app?vid=7046bafd-ea8c-425c-9cf6-2d298efef2dd"},"vehicle_type_id":"4","last_reported":1749654712,"current_range_meters":5600,"station_id":"ce4bhbh2rcd13ifvqepg","pricing_plan_id":"cebpf4jnsgd1na2vs0mg"},{"bike_id":"9370294e-c4e4-406d-9321-1cbcd95c622f","system_id":"levelo_inurba_marseille","lat":43.28615,"lon":5.35107,"is_reserved":false,"is_disabled":false,"rental_uris":{"android":"levelo://app?vid=9370294e-c4e4-406d-9321-1cbcd95c622f","ios":"levelo://app?vid=9370294e-c4e4-406d-9321-1cbcd95c622f"},"vehicle_type_id":"4","last_reported":1749654712,"current_range_meters":6000,"station_id":"ce4bhch2rcd13ifvqeug","pricing_plan_id":"cebpf4jnsgd1na2vs0mg"},{"bike_id":"9d35a195-f83f-4e65-8671-965d440ae2a0","system_id":"levelo_inurba_marseille","lat":43.28139,"lon":5.4269,"is_reserved":false,"is_disabled":false,"rental_uris":{"android":"levelo://app?vid=9d35a195-f83f-4e65-8671-965d440ae2a0","ios":"levelo://app?vid=9d35a195-f83f-4e65-8671-965d440ae2a0"},"vehicle_type_id":"4","last_reported":1749654712,"current_range_meters":6000,"station_id":"ce4bhnh2rcd13ifvqgug","pricing_plan_id":"cebpf4jnsgd1na2vs0mg"},{"bike_id":"39d32260-51d5-455a-ba53-6471389bd255","system_id":"levelo_inurba_marseille","lat":43.3197,"lon":5.37621,"is_reserved":false,"is_disabled":false,"rental_uris":{"android":"levelo://app?vid=39d32260-51d5-455a-ba53-6471389bd255","ios":"levelo://app?vid=39d32260-51d5-455a-ba53-6471389bd255"},"vehicle_type_id":"4","last_reported":1749654712,"current_range_meters":6000,"station_id":"","pricing_plan_id":"cebpf4jnsgd1na2vs0mg"},{"bike_id":"87bad186-0fd0-4e7a-924d-dbd6635567db","system_id":"levelo_inurba_marseille","lat":43.29577,"lon":5.37574,"is_reserved":false,"is_disabled":false,"rental_uris":{"android":"levelo://app?vid=87bad186-0fd0-4e7a-924d-dbd6635567db","ios":"levelo://app?vid=87bad186-0fd0-4e7a-924d-dbd6635567db"},"vehicle_type_id":"4","last_reported":1749654712,"current_range_meters":6400,"station_id":"ce4bgh92rcd13ifvqb50","pricing_plan_id":"cebpf4jnsgd1na2vs0mg"},{"bike_id":"8cf4c8bc-17ef-43a1-8370-f763103aff73","system_id":"levelo_inurba_marseille","lat":43.265612,"lon":5.372801,"is_reserved":false,"is_disabled":true,"rental_uris":{"android":"levelo://app?vid=8cf4c8bc-17ef-43a1-8370-f763103aff73","ios":"levelo://app?vid=8cf4c8bc-17ef-43a1-8370-f763103aff73"},"vehicle_type_id":"4","last_reported":1749654712,"current_range_meters":6400,"station_id":"ce4bhg12rcd13ifvqf70","pricing_plan_id":"cebpf4jnsgd1na2vs0mg"},{"bike_id":"08aef169-adde-47f8-a9b1-f85853958cf9","system_id":"levelo_inurba_marseille","lat":43.28264,"lon":5.35064,"is_reserved":false,"is_disabled":false,"rental_uris":{"android":"levelo://app?vid=08aef169-adde-47f8-a9b1-f85853958cf9","ios":"levelo://app?vid=08aef169-adde-47f8-a9b1-f85853958cf9"},"vehicle_type_id":"4","last_reported":1749654712,"current_range_meters":6400,"station_id":"ce4bhbp2rcd13ifvqerg","pricing_plan_id":"cebpf4jnsgd1na2vs0mg"},{"bike_id":"852b8ed7-b6d1-430c-9313-3b7af5120209","system_id":"levelo_inurba_marseille","lat":43.23188,"lon":5.39996,"is_reserved":false,"is_disabled":false,"rental_uris":{"android":"levelo://app?vid=852b8ed7-b6d1-430c-9313-3b7af5120209","ios":"levelo://app?vid=852b8ed7-b6d1-430c-9313-3b7af5120209"},"vehicle_type_id":"4","last_reported":1749654712,"current_range_meters":6800,"station_id":"ce4bhn12rcd13ifvqgqg","pricing_plan_id":"cebpf4jnsgd1na2vs0mg"},{"bike_id":"0ae7d8c3-c4f5-4db4-9747-55e1e07bb878","system_id":"levelo_inurba_marseille","lat":43.32052,"lon":5.41538,"is_reserved":false,"is_disabled":false,"rental_uris":{"android":"levelo://app?vid=0ae7d8c3-c4f5-4db4-9747-55e1e07bb878","ios":"levelo://app?vid=0ae7d8c3-c4f5-4db4-9747-55e1e07bb878"},"vehicle_type_id":"4","last_reported":1749654712,"current_range_meters":6800,"station_id":"ce4bhq92rcd13ifvqhkg","pricing_plan_id":"cebpf4jnsgd1na2vs0mg"},{"bike_id":"bb9abe73-0458-4df0-be23-ab48d1b1fdd4","system_id":"levelo_inurba_marseille","lat":43.28404,"lon":5.34993,"is_reserved":false,"is_disabled":false,"rental_uris":{"android":"levelo://app?vid=bb9abe73-0458-4df0-be23-ab48d1b1fdd4","ios":"levelo://app?vid=bb9abe73-0458-4df0-be23-ab48d1b1fdd4"},"vehicle_type_id":"4","last_reported":1749654712,"current_range_meters":6800,"station_id":"ce4bhbh2rcd13ifvqepg","pricing_plan_id":"cebpf4jnsgd1na2vs0mg"},{"bike_id":"a9334c0d-cdfc-464f-8eab-e98192ed3454","system_id":"levelo_inurba_marseille","lat":43.29234,"lon":5.39917,"is_reserved":false,"is_disabled":false,"rental_uris":{"android":"levelo://app?vid=a9334c0d-cdfc-464f-8eab-e98192ed3454","ios":"levelo://app?vid=a9334c0d-cdfc-464f-8eab-e98192ed3454"},"vehicle_type_id":"4","last_reported":1749654712,"current_range_meters":6800,"station_id":"","pricing_plan_id":"cebpf4jnsgd1na2vs0mg"},{"bike_id":"125bd855-10ed-4a56-9707-403f3a8b58a0","system_id":"levelo_inurba_marseille","lat":43.33047,"lon":5.40526,"is_reserved":false,"is_disabled":false,"rental_uris":{"android":"levelo://app?vid=125bd855-10ed-4a56-9707-403f3a8b58a0","ios":"levelo://app?vid=125bd855-10ed-4a56-9707-403f3a8b58a0"},"vehicle_type_id":"4","last_reported":1749654712,"current_range_meters":6800,"station_id":"","pricing_plan_id":"cebpf4jnsgd1na2vs0mg"},{"bike_id":"6528c9c9-da9f-4464-aaf6-565ceeca64b0","system_id":"levelo_inurba_marseille","lat":43.29305,"lon":5.37182,"is_reserved":false,"is_disabled":false,"rental_uris":{"android":"levelo://app?vid=6528c9c9-da9f-4464-aaf6-565ceeca64b0","ios":"levelo://app?vid=6528c9c9-da9f-4464-aaf6-565ceeca64b0"},"vehicle_type_id":"4","last_reported":1749654712,"current_range_meters":6800,"station_id":"ce4bgh92rcd13ifvqb40","pricing_plan_id":"cebpf4jnsgd1na2vs0mg"},{"bike_id":"c2e7f4c4-ff1c-4e05-a648-c5ab655497ac","system_id":"levelo_inurba_marseille","lat":43.27061,"lon":5.40245,"is_reserved":false,"is_disabled":false,"rental_uris":{"android":"levelo://app?vid=c2e7f4c4-ff1c-4e05-a648-c5ab655497ac","ios":"levelo://app?vid=c2e7f4c4-ff1c-4e05-a648-c5ab655497ac"},"vehicle_type_id":"4","last_reported":1749654712,"current_range_meters":6800,"station_id":"ce4bhk92rcd13ifvqgc0","pricing_plan_id":"cebpf4jnsgd1na2vs0mg"},{"bike_id":"f3c20113-ba53-443c-8345-650cc0c3a4a9","system_id":"levelo_inurba_marseille","lat":43.29294,"lon":5.37457,"is_reserved":false,"is_disabled":false,"rental_uris":{"android":"levelo://app?vid=f3c20113-ba53-443c-8345-650cc0c3a4a9","ios":"levelo://app?vid=f3c20113-ba53-443c-8345-650cc0c3a4a9"},"vehicle_type_id":"4","last_reported":1749654712,"current_range_meters":7200,"station_id":"ce4bgi12rcd13ifvqb70","pricing_plan_id":"cebpf4jnsgd1na2vs0mg"},{"bike_id":"ddb298ec-e7ab-4e34-8133-c6a598435dcf","system_id":"levelo_inurba_marseille","lat":43.3121,"lon":5.36829,"is_reserved":false,"is_disabled":false,"rental_uris":{"android":"levelo://app?vid=ddb298ec-e7ab-4e34-8133-c6a598435dcf","ios":"levelo://app?vid=ddb298ec-e7ab-4e34-8133-c6a598435dcf"},"vehicle_type_id":"4","last_reported":1749654712,"current_range_meters":7200,"station_id":"ce4bgl92rcd13ifvqbq0","pricing_plan_id":"cebpf4jnsgd1na2vs0mg"},{"bike_id":"cec9c75f-bde7-40eb-b593-49ff6ff220c9","system_id":"levelo_inurba_marseille","lat":43.28428,"lon":5.34996,"is_reserved":false,"is_disabled":false,"rental_uris":{"android":"levelo://app?vid=cec9c75f-bde7-40eb-b593-49ff6ff220c9","ios":"levelo://app?vid=cec9c75f-bde7-40eb-b593-49ff6ff220c9"},"vehicle_type_id":"4","last_reported":1749654712,"current_range_meters":7200,"station_id":"ce4bhbh2rcd13ifvqepg","pricing_plan_id":"cebpf4jnsgd1na2vs0mg"},{"bike_id":"2f107680-fdd7-4472-9d8f-789fbe501f33","system_id":"levelo_inurba_marseille","lat":43.31321,"lon":5.3972,"is_reserved":false,"is_disabled":false,"rental_uris":{"android":"levelo://app?vid=2f107680-fdd7-4472-9d8f-789fbe501f33","ios":"levelo://app?vid=2f107680-fdd7-4472-9d8f-789fbe501f33"},"vehicle_type_id":"4","last_reported":1749654712,"current_range_meters":7200,"station_id":"ce4bgvp2rcd13ifvqcu0","pricing_plan_id":"cebpf4jnsgd1na2vs0mg"},{"bike_id":"00793cc7-3aa4-4db5-b4eb-b976b8442b97","system_id":"levelo_inurba_marseille","lat":43.308004,"lon":5.435217,"is_reserved":false,"is_disabled":false,"rental_uris":{"android":"levelo://app?vid=00793cc7-3aa4-4db5-b4eb-b976b8442b97","ios":"levelo://app?vid=00793cc7-3aa4-4db5-b4eb-b976b8442b97"},"vehicle_type_id":"4","last_reported":1749654712,"current_range_meters":8000,"station_id":"ce4bhph2rcd13ifvqheg","pricing_plan_id":"cebpf4jnsgd1na2vs0mg"},{"bike_id":"8b9a55f1-a1f9-4fac-9f0a-0263bc7a9fa9","system_id":"levelo_inurba_marseille","lat":43.32286,"lon":5.38263,"is_reserved":false,"is_disabled":false,"rental_uris":{"android":"levelo://app?vid=8b9a55f1-a1f9-4fac-9f0a-0263bc7a9fa9","ios":"levelo://app?vid=8b9a55f1-a1f9-4fac-9f0a-0263bc7a9fa9"},"vehicle_type_id":"4","last_reported":1749654712,"current_range_meters":9600,"station_id":"ce4bhr12rcd13ifvqhqg","pricing_plan_id":"cebpf4jnsgd1na2vs0mg"},{"bike_id":"6ea8de33-977c-4737-a17a-8a7bd2aee26a","system_id":"levelo_inurba_marseille","lat":43.27907,"lon":5.39576,"is_reserved":false,"is_disabled":false,"rental_uris":{"android":"levelo://app?vid=6ea8de33-977c-4737-a17a-8a7bd2aee26a","ios":"levelo://app?vid=6ea8de33-977c-4737-a17a-8a7bd2aee26a"},"vehicle_type_id":"4","last_reported":1749654712,"current_range_meters":8000,"station_id":"ce4bhf92rcd13ifvqf40","pricing_plan_id":"cebpf4jnsgd1na2vs0mg"},{"bike_id":"18759061-77d6-468f-98a8-b5bab7d472b0","system_id":"levelo_inurba_marseille","lat":43.265742,"lon":5.390206,"is_reserved":false,"is_disabled":true,"rental_uris":{"android":"levelo://app?vid=18759061-77d6-468f-98a8-b5bab7d472b0","ios":"levelo://app?vid=18759061-77d6-468f-98a8-b5bab7d472b0"},"vehicle_type_id":"4","last_reported":1749654712,"current_range_meters":8000,"station_id":"ce4bhe12rcd13ifvqf30","pricing_plan_id":"cebpf4jnsgd1na2vs0mg"},{"bike_id":"c952e094-a356-42bd-bdfc-bd687a128c11","system_id":"levelo_inurba_marseille","lat":43.24178,"lon":5.39724,"is_reserved":false,"is_disabled":false,"rental_uris":{"android":"levelo://app?vid=c952e094-a356-42bd-bdfc-bd687a128c11","ios":"levelo://app?vid=c952e094-a356-42bd-bdfc-bd687a128c11"},"vehicle_type_id":"4","last_reported":1749654712,"current_range_meters":8000,"station_id":"ce4bhn12rcd13ifvqgpg","pricing_plan_id":"cebpf4jnsgd1na2vs0mg"},{"bike_id":"5077581b-cebb-46fc-ba69-4fa8272d4810","system_id":"levelo_inurba_marseille","lat":43.21361,"lon":5.35532,"is_reserved":false,"is_disabled":false,"rental_uris":{"android":"levelo://app?vid=5077581b-cebb-46fc-ba69-4fa8272d4810","ios":"levelo://app?vid=5077581b-cebb-46fc-ba69-4fa8272d4810"},"vehicle_type_id":"4","last_reported":1749654712,"current_range_meters":8400,"station_id":"","pricing_plan_id":"cebpf4jnsgd1na2vs0mg"},{"bike_id":"259b3bb7-470d-4511-af68-f5ff118b0b70","system_id":"levelo_inurba_marseille","lat":43.330146,"lon":5.390541,"is_reserved":false,"is_disabled":false,"rental_uris":{"android":"levelo://app?vid=259b3bb7-470d-4511-af68-f5ff118b0b70","ios":"levelo://app?vid=259b3bb7-470d-4511-af68-f5ff118b0b70"},"vehicle_type_id":"4","last_reported":1749654712,"current_range_meters":8400,"station_id":"ce4bhr92rcd13ifvqhrg","pricing_plan_id":"cebpf4jnsgd1na2vs0mg"},{"bike_id":"fbc2dee2-8d4c-452d-a4dc-dc9fcae756cd","system_id":"levelo_inurba_marseille","lat":43.28371,"lon":5.38638,"is_reserved":false,"is_disabled":false,"rental_uris":{"android":"levelo://app?vid=fbc2dee2-8d4c-452d-a4dc-dc9fcae756cd","ios":"levelo://app?vid=fbc2dee2-8d4c-452d-a4dc-dc9fcae756cd"},"vehicle_type_id":"4","last_reported":1749654712,"current_range_meters":8400,"station_id":"ce4bh492rcd13ifvqdvg","pricing_plan_id":"cebpf4jnsgd1na2vs0mg"},{"bike_id":"3cc6e8ad-9bf5-42e2-b7b1-5099067732f4","system_id":"levelo_inurba_marseille","lat":43.23186,"lon":5.39978,"is_reserved":false,"is_disabled":false,"rental_uris":{"android":"levelo://app?vid=3cc6e8ad-9bf5-42e2-b7b1-5099067732f4","ios":"levelo://app?vid=3cc6e8ad-9bf5-42e2-b7b1-5099067732f4"},"vehicle_type_id":"4","last_reported":1749654712,"current_range_meters":8400,"station_id":"ce4bhn12rcd13ifvqgqg","pricing_plan_id":"cebpf4jnsgd1na2vs0mg"},{"bike_id":"8eb3d170-3268-41f5-addf-0bc8a6ff1f29","system_id":"levelo_inurba_marseille","lat":43.29007,"lon":5.35608,"is_reserved":false,"is_disabled":true,"rental_uris":{"android":"levelo://app?vid=8eb3d170-3268-41f5-addf-0bc8a6ff1f29","ios":"levelo://app?vid=8eb3d170-3268-41f5-addf-0bc8a6ff1f29"},"vehicle_type_id":"4","last_reported":1749654712,"current_range_meters":8400,"station_id":"ce4bhb92rcd13ifvqen0","pricing_plan_id":"cebpf4jnsgd1na2vs0mg"},{"bike_id":"624ef451-4644-4ba8-bac2-ba85ccee885f","system_id":"levelo_inurba_marseille","lat":43.28457,"lon":5.35882,"is_reserved":false,"is_disabled":false,"rental_uris":{"android":"levelo://app?vid=624ef451-4644-4ba8-bac2-ba85ccee885f","ios":"levelo://app?vid=624ef451-4644-4ba8-bac2-ba85ccee885f"},"vehicle_type_id":"4","last_reported":1749654712,"current_range_meters":8800,"station_id":"ce4bhah2rcd13ifvqei0","pricing_plan_id":"cebpf4jnsgd1na2vs0mg"},{"bike_id":"f45ecfb6-6d84-4e2a-a549-add3b7ff77b5","system_id":"levelo_inurba_marseille","lat":43.28268,"lon":5.35056,"is_reserved":false,"is_disabled":false,"rental_uris":{"android":"levelo://app?vid=f45ecfb6-6d84-4e2a-a549-add3b7ff77b5","ios":"levelo://app?vid=f45ecfb6-6d84-4e2a-a549-add3b7ff77b5"},"vehicle_type_id":"4","last_reported":1749654712,"current_range_meters":8800,"station_id":"ce4bhbp2rcd13ifvqerg","pricing_plan_id":"cebpf4jnsgd1na2vs0mg"},{"bike_id":"0ba39b70-b235-4701-88b8-ebef0c128562","system_id":"levelo_inurba_marseille","lat":43.29258,"lon":5.37608,"is_reserved":false,"is_disabled":false,"rental_uris":{"android":"levelo://app?vid=0ba39b70-b235-4701-88b8-ebef0c128562","ios":"levelo://app?vid=0ba39b70-b235-4701-88b8-ebef0c128562"},"vehicle_type_id":"4","last_reported":1749654712,"current_range_meters":8800,"station_id":"ce4bgi12rcd13ifvqb80","pricing_plan_id":"cebpf4jnsgd1na2vs0mg"},{"bike_id":"a126cb0e-1902-40c5-aedc-5984221b45b5","system_id":"levelo_inurba_marseille","lat":43.31115,"lon":5.37762,"is_reserved":false,"is_disabled":false,"rental_uris":{"android":"levelo://app?vid=a126cb0e-1902-40c5-aedc-5984221b45b5","ios":"levelo://app?vid=a126cb0e-1902-40c5-aedc-5984221b45b5"},"vehicle_type_id":"4","last_reported":1749654712,"current_range_meters":8800,"station_id":"ce4bgt92rcd13ifvqcg0","pricing_plan_id":"cebpf4jnsgd1na2vs0mg"},{"bike_id":"665b65a9-293f-4b33-8447-dd171f8f91a3","system_id":"levelo_inurba_marseille","lat":43.28926,"lon":5.38397,"is_reserved":false,"is_disabled":false,"rental_uris":{"android":"levelo://app?vid=665b65a9-293f-4b33-8447-dd171f8f91a3","ios":"levelo://app?vid=665b65a9-293f-4b33-8447-dd171f8f91a3"},"vehicle_type_id":"4","last_reported":1749654712,"current_range_meters":8400,"station_id":"ce4bh612rcd13ifvqe6g","pricing_plan_id":"cebpf4jnsgd1na2vs0mg"},{"bike_id":"ab5d796b-6f87-4b6e-a5bd-6ac051fcacd1","system_id":"levelo_inurba_marseille","lat":43.32463,"lon":5.36556,"is_reserved":false,"is_disabled":false,"rental_uris":{"android":"levelo://app?vid=ab5d796b-6f87-4b6e-a5bd-6ac051fcacd1","ios":"levelo://app?vid=ab5d796b-6f87-4b6e-a5bd-6ac051fcacd1"},"vehicle_type_id":"4","last_reported":1749654712,"current_range_meters":8800,"station_id":"ce4bhs12rcd13ifvqhvg","pricing_plan_id":"cebpf4jnsgd1na2vs0mg"},{"bike_id":"ca27e12a-1f2d-4cf2-be29-12a2b9ff1547","system_id":"levelo_inurba_marseille","lat":43.31717,"lon":5.42409,"is_reserved":false,"is_disabled":false,"rental_uris":{"android":"levelo://app?vid=ca27e12a-1f2d-4cf2-be29-12a2b9ff1547","ios":"levelo://app?vid=ca27e12a-1f2d-4cf2-be29-12a2b9ff1547"},"vehicle_type_id":"4","last_reported":1749654712,"current_range_meters":8800,"station_id":"ce4bhp92rcd13ifvqhbg","pricing_plan_id":"cebpf4jnsgd1na2vs0mg"},{"bike_id":"dccf9c72-c0d0-442f-80c4-44d6a1957125","system_id":"levelo_inurba_marseille","lat":43.298088,"lon":5.40404,"is_reserved":false,"is_disabled":false,"rental_uris":{"android":"levelo://app?vid=dccf9c72-c0d0-442f-80c4-44d6a1957125","ios":"levelo://app?vid=dccf9c72-c0d0-442f-80c4-44d6a1957125"},"vehicle_type_id":"4","last_reported":1749654712,"current_range_meters":8800,"station_id":"ce4bh112rcd13ifvqd90","pricing_plan_id":"cebpf4jnsgd1na2vs0mg"},{"bike_id":"3fedbba9-4405-445d-a1f3-d21378574976","system_id":"levelo_inurba_marseille","lat":43.231758,"lon":5.39978,"is_reserved":false,"is_disabled":false,"rental_uris":{"android":"levelo://app?vid=3fedbba9-4405-445d-a1f3-d21378574976","ios":"levelo://app?vid=3fedbba9-4405-445d-a1f3-d21378574976"},"vehicle_type_id":"4","last_reported":1749654712,"current_range_meters":8800,"station_id":"ce4bhn12rcd13ifvqgqg","pricing_plan_id":"cebpf4jnsgd1na2vs0mg"},{"bike_id":"325adbf7-3210-4f42-9fa3-23c5b94ad930","system_id":"levelo_inurba_marseille","lat":43.28706,"lon":5.37947,"is_reserved":false,"is_disabled":false,"rental_uris":{"android":"levelo://app?vid=325adbf7-3210-4f42-9fa3-23c5b94ad930","ios":"levelo://app?vid=325adbf7-3210-4f42-9fa3-23c5b94ad930"},"vehicle_type_id":"4","last_reported":1749654712,"current_range_meters":9200,"station_id":"ce4bh9p2rcd13ifvqec0","pricing_plan_id":"cebpf4jnsgd1na2vs0mg"},{"bike_id":"15890935-4206-46eb-aaf6-abddc419f332","system_id":"levelo_inurba_marseille","lat":43.299652,"lon":5.384768,"is_reserved":false,"is_disabled":true,"rental_uris":{"android":"levelo://app?vid=15890935-4206-46eb-aaf6-abddc419f332","ios":"levelo://app?vid=15890935-4206-46eb-aaf6-abddc419f332"},"vehicle_type_id":"4","last_reported":1749654712,"current_range_meters":9200,"station_id":"ce4bgj92rcd13ifvqbd0","pricing_plan_id":"cebpf4jnsgd1na2vs0mg"},{"bike_id":"a71147d6-d89a-49eb-a4a9-16d2f44572ec","system_id":"levelo_inurba_marseille","lat":43.23144,"lon":5.43721,"is_reserved":false,"is_disabled":false,"rental_uris":{"android":"levelo://app?vid=a71147d6-d89a-49eb-a4a9-16d2f44572ec","ios":"levelo://app?vid=a71147d6-d89a-49eb-a4a9-16d2f44572ec"},"vehicle_type_id":"4","last_reported":1749654712,"current_range_meters":8800,"station_id":"ce4bhmp2rcd13ifvqgog","pricing_plan_id":"cebpf4jnsgd1na2vs0mg"},{"bike_id":"1e20f032-0f6a-40b2-ad29-e4d2225496fa","system_id":"levelo_inurba_marseille","lat":43.30286,"lon":5.37084,"is_reserved":false,"is_disabled":false,"rental_uris":{"android":"levelo://app?vid=1e20f032-0f6a-40b2-ad29-e4d2225496fa","ios":"levelo://app?vid=1e20f032-0f6a-40b2-ad29-e4d2225496fa"},"vehicle_type_id":"4","last_reported":1749654712,"current_range_meters":9200,"station_id":"","pricing_plan_id":"cebpf4jnsgd1na2vs0mg"},{"bike_id":"57ae981b-f992-4b9e-bd1e-447b95ce922f","system_id":"levelo_inurba_marseille","lat":43.30701,"lon":5.38077,"is_reserved":false,"is_disabled":false,"rental_uris":{"android":"levelo://app?vid=57ae981b-f992-4b9e-bd1e-447b95ce922f","ios":"levelo://app?vid=57ae981b-f992-4b9e-bd1e-447b95ce922f"},"vehicle_type_id":"4","last_reported":1749654712,"current_range_meters":9200,"station_id":"","pricing_plan_id":"cebpf4jnsgd1na2vs0mg"},{"bike_id":"e41e1863-4b5e-409d-a47e-30d663df267a","system_id":"levelo_inurba_marseille","lat":43.28607,"lon":5.35103,"is_reserved":false,"is_disabled":false,"rental_uris":{"android":"levelo://app?vid=e41e1863-4b5e-409d-a47e-30d663df267a","ios":"levelo://app?vid=e41e1863-4b5e-409d-a47e-30d663df267a"},"vehicle_type_id":"4","last_reported":1749654712,"current_range_meters":9200,"station_id":"ce4bhch2rcd13ifvqeug","pricing_plan_id":"cebpf4jnsgd1na2vs0mg"},{"bike_id":"a2013f1f-0f5f-4639-95a8-35d5f7462ef8","system_id":"levelo_inurba_marseille","lat":43.29883,"lon":5.38909,"is_reserved":false,"is_disabled":false,"rental_uris":{"android":"levelo://app?vid=a2013f1f-0f5f-4639-95a8-35d5f7462ef8","ios":"levelo://app?vid=a2013f1f-0f5f-4639-95a8-35d5f7462ef8"},"vehicle_type_id":"4","last_reported":1749654712,"current_range_meters":9600,"station_id":"ce4bh392rcd13ifvqdl0","pricing_plan_id":"cebpf4jnsgd1na2vs0mg"},{"bike_id":"4005c274-b967-4005-810c-42c83ca88050","system_id":"levelo_inurba_marseille","lat":43.29112,"lon":5.38169,"is_reserved":false,"is_disabled":true,"rental_uris":{"android":"levelo://app?vid=4005c274-b967-4005-810c-42c83ca88050","ios":"levelo://app?vid=4005c274-b967-4005-810c-42c83ca88050"},"vehicle_type_id":"4","last_reported":1749654712,"current_range_meters":10000,"station_id":"ce4bh512rcd13ifvqe2g","pricing_plan_id":"cebpf4jnsgd1na2vs0mg"},{"bike_id":"a5d8bf67-e00f-4b3f-8720-d6497651122a","system_id":"levelo_inurba_marseille","lat":43.28425,"lon":5.349926,"is_reserved":false,"is_disabled":false,"rental_uris":{"android":"levelo://app?vid=a5d8bf67-e00f-4b3f-8720-d6497651122a","ios":"levelo://app?vid=a5d8bf67-e00f-4b3f-8720-d6497651122a"},"vehicle_type_id":"4","last_reported":1749654712,"current_range_meters":10000,"station_id":"ce4bhbh2rcd13ifvqepg","pricing_plan_id":"cebpf4jnsgd1na2vs0mg"},{"bike_id":"14257a63-b996-4ed4-ad15-5919c9c559e3","system_id":"levelo_inurba_marseille","lat":43.321,"lon":5.36807,"is_reserved":false,"is_disabled":false,"rental_uris":{"android":"levelo://app?vid=14257a63-b996-4ed4-ad15-5919c9c559e3","ios":"levelo://app?vid=14257a63-b996-4ed4-ad15-5919c9c559e3"},"vehicle_type_id":"4","last_reported":1749654712,"current_range_meters":10000,"station_id":"ce4bhrh2rcd13ifvqhug","pricing_plan_id":"cebpf4jnsgd1na2vs0mg"},{"bike_id":"4311929d-decb-4656-bfe1-7e40bd203681","system_id":"levelo_inurba_marseille","lat":43.31165,"lon":5.38728,"is_reserved":false,"is_disabled":false,"rental_uris":{"android":"levelo://app?vid=4311929d-decb-4656-bfe1-7e40bd203681","ios":"levelo://app?vid=4311929d-decb-4656-bfe1-7e40bd203681"},"vehicle_type_id":"4","last_reported":1749654712,"current_range_meters":9600,"station_id":"ce4bgv12rcd13ifvqcp0","pricing_plan_id":"cebpf4jnsgd1na2vs0mg"},{"bike_id":"262903a9-22b9-4b2d-96c2-2e5dbd155090","system_id":"levelo_inurba_marseille","lat":43.32487,"lon":5.36558,"is_reserved":false,"is_disabled":false,"rental_uris":{"android":"levelo://app?vid=262903a9-22b9-4b2d-96c2-2e5dbd155090","ios":"levelo://app?vid=262903a9-22b9-4b2d-96c2-2e5dbd155090"},"vehicle_type_id":"4","last_reported":1749654712,"current_range_meters":11200,"station_id":"ce4bhs12rcd13ifvqhvg","pricing_plan_id":"cebpf4jnsgd1na2vs0mg"},{"bike_id":"f5db53c2-39c8-4781-b30f-b57c98968b37","system_id":"levelo_inurba_marseille","lat":43.29415,"lon":5.38634,"is_reserved":false,"is_disabled":true,"rental_uris":{"android":"levelo://app?vid=f5db53c2-39c8-4781-b30f-b57c98968b37","ios":"levelo://app?vid=f5db53c2-39c8-4781-b30f-b57c98968b37"},"vehicle_type_id":"4","last_reported":1749654712,"current_range_meters":10800,"station_id":"ce4bh2h2rcd13ifvqdh0","pricing_plan_id":"cebpf4jnsgd1na2vs0mg"},{"bike_id":"bab40520-da76-4b40-bd26-a960d2b1a182","system_id":"levelo_inurba_marseille","lat":43.29541,"lon":5.39406,"is_reserved":false,"is_disabled":false,"rental_uris":{"android":"levelo://app?vid=bab40520-da76-4b40-bd26-a960d2b1a182","ios":"levelo://app?vid=bab40520-da76-4b40-bd26-a960d2b1a182"},"vehicle_type_id":"4","last_reported":1749654712,"current_range_meters":10800,"station_id":"ce4bh292rcd13ifvqdf0","pricing_plan_id":"cebpf4jnsgd1na2vs0mg"},{"bike_id":"6663ba43-fdb9-4cc1-bd2a-c80dbbea792f","system_id":"levelo_inurba_marseille","lat":43.29781,"lon":5.39342,"is_reserved":false,"is_disabled":false,"rental_uris":{"android":"levelo://app?vid=6663ba43-fdb9-4cc1-bd2a-c80dbbea792f","ios":"levelo://app?vid=6663ba43-fdb9-4cc1-bd2a-c80dbbea792f"},"vehicle_type_id":"4","last_reported":1749654712,"current_range_meters":10800,"station_id":"chh1huq6cuj3fo74tm60","pricing_plan_id":"cebpf4jnsgd1na2vs0mg"},{"bike_id":"a6a9aa78-7299-47ac-a784-76282a099506","system_id":"levelo_inurba_marseille","lat":43.30135,"lon":5.38097,"is_reserved":false,"is_disabled":true,"rental_uris":{"android":"levelo://app?vid=a6a9aa78-7299-47ac-a784-76282a099506","ios":"levelo://app?vid=a6a9aa78-7299-47ac-a784-76282a099506"},"vehicle_type_id":"4","last_reported":1749654712,"current_range_meters":11200,"station_id":"ce4bgjp2rcd13ifvqbh0","pricing_plan_id":"cebpf4jnsgd1na2vs0mg"},{"bike_id":"5ffc5d75-9066-40cf-9730-75b3d557a59f","system_id":"levelo_inurba_marseille","lat":43.29917,"lon":5.37785,"is_reserved":false,"is_disabled":false,"rental_uris":{"android":"levelo://app?vid=5ffc5d75-9066-40cf-9730-75b3d557a59f","ios":"levelo://app?vid=5ffc5d75-9066-40cf-9730-75b3d557a59f"},"vehicle_type_id":"4","last_reported":1749654712,"current_range_meters":10800,"station_id":"","pricing_plan_id":"cebpf4jnsgd1na2vs0mg"},{"bike_id":"e2e805ab-ba29-45f7-9e35-b6dd5933dacc","system_id":"levelo_inurba_marseille","lat":43.27811,"lon":5.4071,"is_reserved":false,"is_disabled":false,"rental_uris":{"android":"levelo://app?vid=e2e805ab-ba29-45f7-9e35-b6dd5933dacc","ios":"levelo://app?vid=e2e805ab-ba29-45f7-9e35-b6dd5933dacc"},"vehicle_type_id":"4","last_reported":1749654712,"current_range_meters":10800,"station_id":"ce4bhnh2rcd13ifvqgtg","pricing_plan_id":"cebpf4jnsgd1na2vs0mg"},{"bike_id":"884a773d-4995-4fed-b5f9-ad6a646567cc","system_id":"levelo_inurba_marseille","lat":43.28973,"lon":5.37844,"is_reserved":false,"is_disabled":false,"rental_uris":{"android":"levelo://app?vid=884a773d-4995-4fed-b5f9-ad6a646567cc","ios":"levelo://app?vid=884a773d-4995-4fed-b5f9-ad6a646567cc"},"vehicle_type_id":"4","last_reported":1749654712,"current_range_meters":11200,"station_id":"ce4bh9p2rcd13ifvqed0","pricing_plan_id":"cebpf4jnsgd1na2vs0mg"},{"bike_id":"eebd47d8-6f79-4fc9-ace2-902c328b50fe","system_id":"levelo_inurba_marseille","lat":43.28141,"lon":5.42624,"is_reserved":false,"is_disabled":false,"rental_uris":{"android":"levelo://app?vid=eebd47d8-6f79-4fc9-ace2-902c328b50fe","ios":"levelo://app?vid=eebd47d8-6f79-4fc9-ace2-902c328b50fe"},"vehicle_type_id":"4","last_reported":1749654712,"current_range_meters":10800,"station_id":"ce4bhnh2rcd13ifvqgug","pricing_plan_id":"cebpf4jnsgd1na2vs0mg"},{"bike_id":"fe2ea149-39bb-4947-ad42-51f6feefdb29","system_id":"levelo_inurba_marseille","lat":43.31717,"lon":5.42406,"is_reserved":false,"is_disabled":false,"rental_uris":{"android":"levelo://app?vid=fe2ea149-39bb-4947-ad42-51f6feefdb29","ios":"levelo://app?vid=fe2ea149-39bb-4947-ad42-51f6feefdb29"},"vehicle_type_id":"4","last_reported":1749654712,"current_range_meters":10800,"station_id":"ce4bhp92rcd13ifvqhbg","pricing_plan_id":"cebpf4jnsgd1na2vs0mg"},{"bike_id":"0923e79e-3960-4eec-9027-38089346fe3a","system_id":"levelo_inurba_marseille","lat":43.23195,"lon":5.35557,"is_reserved":false,"is_disabled":true,"rental_uris":{"android":"levelo://app?vid=0923e79e-3960-4eec-9027-38089346fe3a","ios":"levelo://app?vid=0923e79e-3960-4eec-9027-38089346fe3a"},"vehicle_type_id":"4","last_reported":1749654712,"current_range_meters":10800,"station_id":"ce4bhu92rcd13ifvqi70","pricing_plan_id":"cebpf4jnsgd1na2vs0mg"},{"bike_id":"8cd59bea-2496-447a-b5c8-17bcf0de364c","system_id":"levelo_inurba_marseille","lat":43.28394,"lon":5.37516,"is_reserved":false,"is_disabled":false,"rental_uris":{"android":"levelo://app?vid=8cd59bea-2496-447a-b5c8-17bcf0de364c","ios":"levelo://app?vid=8cd59bea-2496-447a-b5c8-17bcf0de364c"},"vehicle_type_id":"4","last_reported":1749654712,"current_range_meters":11200,"station_id":"ce4bh412rcd13ifvqds0","pricing_plan_id":"cebpf4jnsgd1na2vs0mg"},{"bike_id":"ccf6687f-1d7c-4f64-8d64-18d8e1524138","system_id":"levelo_inurba_marseille","lat":43.2846,"lon":5.35894,"is_reserved":false,"is_disabled":false,"rental_uris":{"android":"levelo://app?vid=ccf6687f-1d7c-4f64-8d64-18d8e1524138","ios":"levelo://app?vid=ccf6687f-1d7c-4f64-8d64-18d8e1524138"},"vehicle_type_id":"4","last_reported":1749654712,"current_range_meters":10800,"station_id":"ce4bhah2rcd13ifvqei0","pricing_plan_id":"cebpf4jnsgd1na2vs0mg"},{"bike_id":"84f5a926-1dd6-4535-b647-2764ce0ca103","system_id":"levelo_inurba_marseille","lat":43.321111,"lon":5.367716,"is_reserved":false,"is_disabled":false,"rental_uris":{"android":"levelo://app?vid=84f5a926-1dd6-4535-b647-2764ce0ca103","ios":"levelo://app?vid=84f5a926-1dd6-4535-b647-2764ce0ca103"},"vehicle_type_id":"4","last_reported":1749654712,"current_range_meters":11200,"station_id":"ce4bhrh2rcd13ifvqhug","pricing_plan_id":"cebpf4jnsgd1na2vs0mg"},{"bike_id":"e093e03b-428e-4b3a-95f2-e8b703a55e31","system_id":"levelo_inurba_marseille","lat":43.29777,"lon":5.38106,"is_reserved":false,"is_disabled":false,"rental_uris":{"android":"levelo://app?vid=e093e03b-428e-4b3a-95f2-e8b703a55e31","ios":"levelo://app?vid=e093e03b-428e-4b3a-95f2-e8b703a55e31"},"vehicle_type_id":"4","last_reported":1749654712,"current_range_meters":11200,"station_id":"ce4bgip2rcd13ifvqbb0","pricing_plan_id":"cebpf4jnsgd1na2vs0mg"},{"bike_id":"2e7bcf76-77eb-42a2-9ae3-8c7b16b8103f","system_id":"levelo_inurba_marseille","lat":43.32114,"lon":5.36755,"is_reserved":false,"is_disabled":false,"rental_uris":{"android":"levelo://app?vid=2e7bcf76-77eb-42a2-9ae3-8c7b16b8103f","ios":"levelo://app?vid=2e7bcf76-77eb-42a2-9ae3-8c7b16b8103f"},"vehicle_type_id":"4","last_reported":1749654712,"current_range_meters":11200,"station_id":"ce4bhrh2rcd13ifvqhug","pricing_plan_id":"cebpf4jnsgd1na2vs0mg"},{"bike_id":"4220c3f1-dd96-4f3e-a186-336464ef48f9","system_id":"levelo_inurba_marseille","lat":43.28414,"lon":5.34993,"is_reserved":false,"is_disabled":false,"rental_uris":{"android":"levelo://app?vid=4220c3f1-dd96-4f3e-a186-336464ef48f9","ios":"levelo://app?vid=4220c3f1-dd96-4f3e-a186-336464ef48f9"},"vehicle_type_id":"4","last_reported":1749654712,"current_range_meters":11200,"station_id":"ce4bhbh2rcd13ifvqepg","pricing_plan_id":"cebpf4jnsgd1na2vs0mg"},{"bike_id":"4684e521-60ff-48b5-99a1-bdf6c93254b6","system_id":"levelo_inurba_marseille","lat":43.27921,"lon":5.39584,"is_reserved":false,"is_disabled":false,"rental_uris":{"android":"levelo://app?vid=4684e521-60ff-48b5-99a1-bdf6c93254b6","ios":"levelo://app?vid=4684e521-60ff-48b5-99a1-bdf6c93254b6"},"vehicle_type_id":"4","last_reported":1749654712,"current_range_meters":11600,"station_id":"ce4bhf92rcd13ifvqf40","pricing_plan_id":"cebpf4jnsgd1na2vs0mg"},{"bike_id":"e4e3d43d-4b4d-4d67-b150-83310140977b","system_id":"levelo_inurba_marseille","lat":43.28269,"lon":5.3508,"is_reserved":false,"is_disabled":false,"rental_uris":{"android":"levelo://app?vid=e4e3d43d-4b4d-4d67-b150-83310140977b","ios":"levelo://app?vid=e4e3d43d-4b4d-4d67-b150-83310140977b"},"vehicle_type_id":"4","last_reported":1749654712,"current_range_meters":11600,"station_id":"ce4bhbp2rcd13ifvqerg","pricing_plan_id":"cebpf4jnsgd1na2vs0mg"},{"bike_id":"a3fcb8a8-0d82-483e-b5f2-ee8f8ccf7d02","system_id":"levelo_inurba_marseille","lat":43.28269,"lon":5.35073,"is_reserved":false,"is_disabled":false,"rental_uris":{"android":"levelo://app?vid=a3fcb8a8-0d82-483e-b5f2-ee8f8ccf7d02","ios":"levelo://app?vid=a3fcb8a8-0d82-483e-b5f2-ee8f8ccf7d02"},"vehicle_type_id":"4","last_reported":1749654712,"current_range_meters":11600,"station_id":"ce4bhbp2rcd13ifvqerg","pricing_plan_id":"cebpf4jnsgd1na2vs0mg"},{"bike_id":"8b363ffb-be81-41ec-b06f-ce133f546c25","system_id":"levelo_inurba_marseille","lat":43.29611,"lon":5.37719,"is_reserved":false,"is_disabled":false,"rental_uris":{"android":"levelo://app?vid=8b363ffb-be81-41ec-b06f-ce133f546c25","ios":"levelo://app?vid=8b363ffb-be81-41ec-b06f-ce133f546c25"},"vehicle_type_id":"4","last_reported":1749654712,"current_range_meters":12000,"station_id":"ce4bgi92rcd13ifvqb90","pricing_plan_id":"cebpf4jnsgd1na2vs0mg"},{"bike_id":"cebea4f3-560d-4d47-8a5f-2983ef9c71f8","system_id":"levelo_inurba_marseille","lat":43.28657,"lon":5.36351,"is_reserved":false,"is_disabled":false,"rental_uris":{"android":"levelo://app?vid=cebea4f3-560d-4d47-8a5f-2983ef9c71f8","ios":"levelo://app?vid=cebea4f3-560d-4d47-8a5f-2983ef9c71f8"},"vehicle_type_id":"4","last_reported":1749654712,"current_range_meters":12000,"station_id":"ce4bhah2rcd13ifvqej0","pricing_plan_id":"cebpf4jnsgd1na2vs0mg"},{"bike_id":"5fc99e29-f5eb-4b0e-954a-040e7002271e","system_id":"levelo_inurba_marseille","lat":43.27369,"lon":5.36252,"is_reserved":false,"is_disabled":false,"rental_uris":{"android":"levelo://app?vid=5fc99e29-f5eb-4b0e-954a-040e7002271e","ios":"levelo://app?vid=5fc99e29-f5eb-4b0e-954a-040e7002271e"},"vehicle_type_id":"4","last_reported":1749654712,"current_range_meters":12000,"station_id":"ce4bhbh2rcd13ifvqeo0","pricing_plan_id":"cebpf4jnsgd1na2vs0mg"},{"bike_id":"d75aaeda-ece7-43a3-b703-b22a4490ea7d","system_id":"levelo_inurba_marseille","lat":43.28984,"lon":5.38126,"is_reserved":false,"is_disabled":true,"rental_uris":{"android":"levelo://app?vid=d75aaeda-ece7-43a3-b703-b22a4490ea7d","ios":"levelo://app?vid=d75aaeda-ece7-43a3-b703-b22a4490ea7d"},"vehicle_type_id":"4","last_reported":1749654712,"current_range_meters":12000,"station_id":"ce4bh4p2rcd13ifvqe1g","pricing_plan_id":"cebpf4jnsgd1na2vs0mg"},{"bike_id":"94ac77e5-fb41-4f71-8e8f-383e5d866df9","system_id":"levelo_inurba_marseille","lat":43.295288,"lon":5.385426,"is_reserved":false,"is_disabled":false,"rental_uris":{"android":"levelo://app?vid=94ac77e5-fb41-4f71-8e8f-383e5d866df9","ios":"levelo://app?vid=94ac77e5-fb41-4f71-8e8f-383e5d866df9"},"vehicle_type_id":"4","last_reported":1749654712,"current_range_meters":12000,"station_id":"ce4bgih2rcd13ifvqba0","pricing_plan_id":"cebpf4jnsgd1na2vs0mg"},{"bike_id":"e2ab8eba-7083-4745-9245-927a9e9c668c","system_id":"levelo_inurba_marseille","lat":43.28428,"lon":5.3501,"is_reserved":false,"is_disabled":false,"rental_uris":{"android":"levelo://app?vid=e2ab8eba-7083-4745-9245-927a9e9c668c","ios":"levelo://app?vid=e2ab8eba-7083-4745-9245-927a9e9c668c"},"vehicle_type_id":"4","last_reported":1749654712,"current_range_meters":12400,"station_id":"ce4bhbh2rcd13ifvqepg","pricing_plan_id":"cebpf4jnsgd1na2vs0mg"},{"bike_id":"752ebfa1-a8e9-4725-b808-58aa618033e5","system_id":"levelo_inurba_marseille","lat":43.2826,"lon":5.35076,"is_reserved":false,"is_disabled":false,"rental_uris":{"android":"levelo://app?vid=752ebfa1-a8e9-4725-b808-58aa618033e5","ios":"levelo://app?vid=752ebfa1-a8e9-4725-b808-58aa618033e5"},"vehicle_type_id":"4","last_reported":1749654712,"current_range_meters":12400,"station_id":"ce4bhbp2rcd13ifvqerg","pricing_plan_id":"cebpf4jnsgd1na2vs0mg"},{"bike_id":"2c7a13aa-9a16-4880-8e65-7cb3af8d8d1b","system_id":"levelo_inurba_marseille","lat":43.289781,"lon":5.37852,"is_reserved":false,"is_disabled":true,"rental_uris":{"android":"levelo://app?vid=2c7a13aa-9a16-4880-8e65-7cb3af8d8d1b","ios":"levelo://app?vid=2c7a13aa-9a16-4880-8e65-7cb3af8d8d1b"},"vehicle_type_id":"4","last_reported":1749654712,"current_range_meters":12400,"station_id":"ce4bh9p2rcd13ifvqed0","pricing_plan_id":"cebpf4jnsgd1na2vs0mg"},{"bike_id":"91252cb4-db98-4cff-ba49-0337a6eacf8f","system_id":"levelo_inurba_marseille","lat":43.31988,"lon":5.38782,"is_reserved":false,"is_disabled":false,"rental_uris":{"android":"levelo://app?vid=91252cb4-db98-4cff-ba49-0337a6eacf8f","ios":"levelo://app?vid=91252cb4-db98-4cff-ba49-0337a6eacf8f"},"vehicle_type_id":"4","last_reported":1749654712,"current_range_meters":12400,"station_id":"","pricing_plan_id":"cebpf4jnsgd1na2vs0mg"},{"bike_id":"1acfb620-cad7-48c0-8901-d7a5b74a5b65","system_id":"levelo_inurba_marseille","lat":43.33751,"lon":5.37456,"is_reserved":false,"is_disabled":false,"rental_uris":{"android":"levelo://app?vid=1acfb620-cad7-48c0-8901-d7a5b74a5b65","ios":"levelo://app?vid=1acfb620-cad7-48c0-8901-d7a5b74a5b65"},"vehicle_type_id":"4","last_reported":1749654712,"current_range_meters":12400,"station_id":"","pricing_plan_id":"cebpf4jnsgd1na2vs0mg"},{"bike_id":"86bc7297-d959-48bc-ba54-0f74b328a5b5","system_id":"levelo_inurba_marseille","lat":43.23963,"lon":5.3663,"is_reserved":false,"is_disabled":false,"rental_uris":{"android":"levelo://app?vid=86bc7297-d959-48bc-ba54-0f74b328a5b5","ios":"levelo://app?vid=86bc7297-d959-48bc-ba54-0f74b328a5b5"},"vehicle_type_id":"4","last_reported":1749654712,"current_range_meters":12800,"station_id":"ce4bhi12rcd13ifvqfp0","pricing_plan_id":"cebpf4jnsgd1na2vs0mg"},{"bike_id":"cdb1d7d1-68ac-46fe-9cd7-bad250783ac2","system_id":"levelo_inurba_marseille","lat":43.28454,"lon":5.35893,"is_reserved":false,"is_disabled":false,"rental_uris":{"android":"levelo://app?vid=cdb1d7d1-68ac-46fe-9cd7-bad250783ac2","ios":"levelo://app?vid=cdb1d7d1-68ac-46fe-9cd7-bad250783ac2"},"vehicle_type_id":"4","last_reported":1749654712,"current_range_meters":12400,"station_id":"ce4bhah2rcd13ifvqei0","pricing_plan_id":"cebpf4jnsgd1na2vs0mg"},{"bike_id":"f39cff6d-518d-44a1-8152-1fcd97c5809e","system_id":"levelo_inurba_marseille","lat":43.28412,"lon":5.34982,"is_reserved":false,"is_disabled":false,"rental_uris":{"android":"levelo://app?vid=f39cff6d-518d-44a1-8152-1fcd97c5809e","ios":"levelo://app?vid=f39cff6d-518d-44a1-8152-1fcd97c5809e"},"vehicle_type_id":"4","last_reported":1749654712,"current_range_meters":12800,"station_id":"ce4bhbh2rcd13ifvqepg","pricing_plan_id":"cebpf4jnsgd1na2vs0mg"},{"bike_id":"5c7467ea-1bef-475a-a3c5-09e2c36bf23b","system_id":"levelo_inurba_marseille","lat":43.29552,"lon":5.42289,"is_reserved":false,"is_disabled":false,"rental_uris":{"android":"levelo://app?vid=5c7467ea-1bef-475a-a3c5-09e2c36bf23b","ios":"levelo://app?vid=5c7467ea-1bef-475a-a3c5-09e2c36bf23b"},"vehicle_type_id":"4","last_reported":1749654712,"current_range_meters":12800,"station_id":"ce4bhph2rcd13ifvqhdg","pricing_plan_id":"cebpf4jnsgd1na2vs0mg"},{"bike_id":"24b11e1e-38b4-4e96-8ac8-ff512846be42","system_id":"levelo_inurba_marseille","lat":43.24076,"lon":5.3776,"is_reserved":false,"is_disabled":false,"rental_uris":{"android":"levelo://app?vid=24b11e1e-38b4-4e96-8ac8-ff512846be42","ios":"levelo://app?vid=24b11e1e-38b4-4e96-8ac8-ff512846be42"},"vehicle_type_id":"4","last_reported":1749654712,"current_range_meters":13600,"station_id":"ce4bhnp2rcd13ifvqgvg","pricing_plan_id":"cebpf4jnsgd1na2vs0mg"},{"bike_id":"69b7c853-bb0b-4b8f-b29d-95dc61030243","system_id":"levelo_inurba_marseille","lat":43.26547,"lon":5.37339,"is_reserved":false,"is_disabled":false,"rental_uris":{"android":"levelo://app?vid=69b7c853-bb0b-4b8f-b29d-95dc61030243","ios":"levelo://app?vid=69b7c853-bb0b-4b8f-b29d-95dc61030243"},"vehicle_type_id":"4","last_reported":1749654712,"current_range_meters":13600,"station_id":"ce4bhg12rcd13ifvqf70","pricing_plan_id":"cebpf4jnsgd1na2vs0mg"},{"bike_id":"c6f3bcf3-515a-4859-b7db-b66b04494fbc","system_id":"levelo_inurba_marseille","lat":43.21748,"lon":5.34604,"is_reserved":false,"is_disabled":false,"rental_uris":{"android":"levelo://app?vid=c6f3bcf3-515a-4859-b7db-b66b04494fbc","ios":"levelo://app?vid=c6f3bcf3-515a-4859-b7db-b66b04494fbc"},"vehicle_type_id":"4","last_reported":1749654712,"current_range_meters":13600,"station_id":"st_cvj6r9ubvosntc0bgbag","pricing_plan_id":"cebpf4jnsgd1na2vs0mg"},{"bike_id":"859c6d64-1885-4daa-9e95-5e7e4571efc2","system_id":"levelo_inurba_marseille","lat":43.22946,"lon":5.35379,"is_reserved":false,"is_disabled":false,"rental_uris":{"android":"levelo://app?vid=859c6d64-1885-4daa-9e95-5e7e4571efc2","ios":"levelo://app?vid=859c6d64-1885-4daa-9e95-5e7e4571efc2"},"vehicle_type_id":"4","last_reported":1749654712,"current_range_meters":13600,"station_id":"cpo3532slgdg3j2ikp40","pricing_plan_id":"cebpf4jnsgd1na2vs0mg"},{"bike_id":"e82995bb-753b-4b29-ba32-dff9b65905ff","system_id":"levelo_inurba_marseille","lat":43.28412,"lon":5.34994,"is_reserved":false,"is_disabled":false,"rental_uris":{"android":"levelo://app?vid=e82995bb-753b-4b29-ba32-dff9b65905ff","ios":"levelo://app?vid=e82995bb-753b-4b29-ba32-dff9b65905ff"},"vehicle_type_id":"4","last_reported":1749654712,"current_range_meters":13600,"station_id":"ce4bhbh2rcd13ifvqepg","pricing_plan_id":"cebpf4jnsgd1na2vs0mg"},{"bike_id":"53380ed8-5d91-4dd2-8aa6-a05cc6bb6a35","system_id":"levelo_inurba_marseille","lat":43.2957,"lon":5.39672,"is_reserved":false,"is_disabled":false,"rental_uris":{"android":"levelo://app?vid=53380ed8-5d91-4dd2-8aa6-a05cc6bb6a35","ios":"levelo://app?vid=53380ed8-5d91-4dd2-8aa6-a05cc6bb6a35"},"vehicle_type_id":"4","last_reported":1749654712,"current_range_meters":14000,"station_id":"","pricing_plan_id":"cebpf4jnsgd1na2vs0mg"},{"bike_id":"77015528-214e-41cf-96ed-c6c79ce74de3","system_id":"levelo_inurba_marseille","lat":43.30422,"lon":5.38887,"is_reserved":false,"is_disabled":false,"rental_uris":{"android":"levelo://app?vid=77015528-214e-41cf-96ed-c6c79ce74de3","ios":"levelo://app?vid=77015528-214e-41cf-96ed-c6c79ce74de3"},"vehicle_type_id":"4","last_reported":1749654712,"current_range_meters":14000,"station_id":"ce4bgk12rcd13ifvqbi0","pricing_plan_id":"cebpf4jnsgd1na2vs0mg"},{"bike_id":"08d78a49-d56a-4007-bfe7-ef80380d51ac","system_id":"levelo_inurba_marseille","lat":43.28264,"lon":5.35072,"is_reserved":false,"is_disabled":false,"rental_uris":{"android":"levelo://app?vid=08d78a49-d56a-4007-bfe7-ef80380d51ac","ios":"levelo://app?vid=08d78a49-d56a-4007-bfe7-ef80380d51ac"},"vehicle_type_id":"4","last_reported":1749654712,"current_range_meters":14000,"station_id":"ce4bhbp2rcd13ifvqerg","pricing_plan_id":"cebpf4jnsgd1na2vs0mg"},{"bike_id":"9adcd94c-cd0d-47e9-a753-58390099163e","system_id":"levelo_inurba_marseille","lat":43.30542,"lon":5.365469,"is_reserved":false,"is_disabled":false,"rental_uris":{"android":"levelo://app?vid=9adcd94c-cd0d-47e9-a753-58390099163e","ios":"levelo://app?vid=9adcd94c-cd0d-47e9-a753-58390099163e"},"vehicle_type_id":"4","last_reported":1749654712,"current_range_meters":13600,"station_id":"ce4bgs12rcd13ifvqcag","pricing_plan_id":"cebpf4jnsgd1na2vs0mg"},{"bike_id":"0a0d22f9-9ff9-40f8-9d93-4c86d6393e23","system_id":"levelo_inurba_marseille","lat":43.26209,"lon":5.37444,"is_reserved":false,"is_disabled":false,"rental_uris":{"android":"levelo://app?vid=0a0d22f9-9ff9-40f8-9d93-4c86d6393e23","ios":"levelo://app?vid=0a0d22f9-9ff9-40f8-9d93-4c86d6393e23"},"vehicle_type_id":"4","last_reported":1749654712,"current_range_meters":14000,"station_id":"ce4bhgp2rcd13ifvqfc0","pricing_plan_id":"cebpf4jnsgd1na2vs0mg"},{"bike_id":"8afb6112-33a3-4866-adc8-e3fe04e3f604","system_id":"levelo_inurba_marseille","lat":43.2827,"lon":5.35079,"is_reserved":false,"is_disabled":false,"rental_uris":{"android":"levelo://app?vid=8afb6112-33a3-4866-adc8-e3fe04e3f604","ios":"levelo://app?vid=8afb6112-33a3-4866-adc8-e3fe04e3f604"},"vehicle_type_id":"4","last_reported":1749654712,"current_range_meters":14000,"station_id":"ce4bhbp2rcd13ifvqerg","pricing_plan_id":"cebpf4jnsgd1na2vs0mg"},{"bike_id":"c0d539ea-c1d9-4e3f-9147-d87ed4ef3fc9","system_id":"levelo_inurba_marseille","lat":43.24069,"lon":5.37764,"is_reserved":false,"is_disabled":false,"rental_uris":{"android":"levelo://app?vid=c0d539ea-c1d9-4e3f-9147-d87ed4ef3fc9","ios":"levelo://app?vid=c0d539ea-c1d9-4e3f-9147-d87ed4ef3fc9"},"vehicle_type_id":"4","last_reported":1749654712,"current_range_meters":14000,"station_id":"ce4bhnp2rcd13ifvqgvg","pricing_plan_id":"cebpf4jnsgd1na2vs0mg"},{"bike_id":"d6515318-ac2c-47f0-b0e4-ac5ab2c5d151","system_id":"levelo_inurba_marseille","lat":43.241658,"lon":5.363991,"is_reserved":false,"is_disabled":false,"rental_uris":{"android":"levelo://app?vid=d6515318-ac2c-47f0-b0e4-ac5ab2c5d151","ios":"levelo://app?vid=d6515318-ac2c-47f0-b0e4-ac5ab2c5d151"},"vehicle_type_id":"4","last_reported":1749654712,"current_range_meters":14000,"station_id":"cpo36qri1sfpv3e86is0","pricing_plan_id":"cebpf4jnsgd1na2vs0mg"},{"bike_id":"26458859-f290-440c-ae9c-21fae7264218","system_id":"levelo_inurba_marseille","lat":43.28269,"lon":5.35068,"is_reserved":false,"is_disabled":false,"rental_uris":{"android":"levelo://app?vid=26458859-f290-440c-ae9c-21fae7264218","ios":"levelo://app?vid=26458859-f290-440c-ae9c-21fae7264218"},"vehicle_type_id":"4","last_reported":1749654712,"current_range_meters":14000,"station_id":"ce4bhbp2rcd13ifvqerg","pricing_plan_id":"cebpf4jnsgd1na2vs0mg"},{"bike_id":"551eb4fc-691a-4ccf-b03d-d34e83f49274","system_id":"levelo_inurba_marseille","lat":43.29576,"lon":5.36743,"is_reserved":false,"is_disabled":false,"rental_uris":{"android":"levelo://app?vid=551eb4fc-691a-4ccf-b03d-d34e83f49274","ios":"levelo://app?vid=551eb4fc-691a-4ccf-b03d-d34e83f49274"},"vehicle_type_id":"4","last_reported":1749654712,"current_range_meters":14000,"station_id":"ce4bgph2rcd13ifvqc2g","pricing_plan_id":"cebpf4jnsgd1na2vs0mg"},{"bike_id":"b9084427-2b46-4b93-98d6-b075c216bcca","system_id":"levelo_inurba_marseille","lat":43.27566,"lon":5.38421,"is_reserved":false,"is_disabled":false,"rental_uris":{"android":"levelo://app?vid=b9084427-2b46-4b93-98d6-b075c216bcca","ios":"levelo://app?vid=b9084427-2b46-4b93-98d6-b075c216bcca"},"vehicle_type_id":"4","last_reported":1749654712,"current_range_meters":14000,"station_id":"ce4bhh92rcd13ifvqfi0","pricing_plan_id":"cebpf4jnsgd1na2vs0mg"},{"bike_id":"0857e852-f48e-4930-9716-bd1596c84aea","system_id":"levelo_inurba_marseille","lat":43.31164,"lon":5.38724,"is_reserved":false,"is_disabled":false,"rental_uris":{"android":"levelo://app?vid=0857e852-f48e-4930-9716-bd1596c84aea","ios":"levelo://app?vid=0857e852-f48e-4930-9716-bd1596c84aea"},"vehicle_type_id":"4","last_reported":1749654712,"current_range_meters":14400,"station_id":"ce4bgv12rcd13ifvqcp0","pricing_plan_id":"cebpf4jnsgd1na2vs0mg"},{"bike_id":"f779b611-c10e-4619-9bdb-6b076750df1c","system_id":"levelo_inurba_marseille","lat":43.24068,"lon":5.37763,"is_reserved":false,"is_disabled":false,"rental_uris":{"android":"levelo://app?vid=f779b611-c10e-4619-9bdb-6b076750df1c","ios":"levelo://app?vid=f779b611-c10e-4619-9bdb-6b076750df1c"},"vehicle_type_id":"4","last_reported":1749654712,"current_range_meters":14400,"station_id":"ce4bhnp2rcd13ifvqgvg","pricing_plan_id":"cebpf4jnsgd1na2vs0mg"},{"bike_id":"a2421370-e442-436f-a98a-844d44299694","system_id":"levelo_inurba_marseille","lat":43.32357,"lon":5.36746,"is_reserved":false,"is_disabled":false,"rental_uris":{"android":"levelo://app?vid=a2421370-e442-436f-a98a-844d44299694","ios":"levelo://app?vid=a2421370-e442-436f-a98a-844d44299694"},"vehicle_type_id":"4","last_reported":1749654712,"current_range_meters":14800,"station_id":"ce4bhsh2rcd13ifvqi2g","pricing_plan_id":"cebpf4jnsgd1na2vs0mg"},{"bike_id":"dd5ce0fd-2c93-43b3-ae02-cb8067424258","system_id":"levelo_inurba_marseille","lat":43.29181,"lon":5.39329,"is_reserved":false,"is_disabled":false,"rental_uris":{"android":"levelo://app?vid=dd5ce0fd-2c93-43b3-ae02-cb8067424258","ios":"levelo://app?vid=dd5ce0fd-2c93-43b3-ae02-cb8067424258"},"vehicle_type_id":"4","last_reported":1749654712,"current_range_meters":14800,"station_id":"ce4bh192rcd13ifvqdd0","pricing_plan_id":"cebpf4jnsgd1na2vs0mg"},{"bike_id":"d4147519-9a0f-4a17-9992-3895d25b11ca","system_id":"levelo_inurba_marseille","lat":43.28671,"lon":5.36365,"is_reserved":false,"is_disabled":false,"rental_uris":{"android":"levelo://app?vid=d4147519-9a0f-4a17-9992-3895d25b11ca","ios":"levelo://app?vid=d4147519-9a0f-4a17-9992-3895d25b11ca"},"vehicle_type_id":"4","last_reported":1749654712,"current_range_meters":14400,"station_id":"ce4bhah2rcd13ifvqej0","pricing_plan_id":"cebpf4jnsgd1na2vs0mg"},{"bike_id":"a7061507-877b-4e7c-9377-91083948e064","system_id":"levelo_inurba_marseille","lat":43.27369,"lon":5.36253,"is_reserved":false,"is_disabled":false,"rental_uris":{"android":"levelo://app?vid=a7061507-877b-4e7c-9377-91083948e064","ios":"levelo://app?vid=a7061507-877b-4e7c-9377-91083948e064"},"vehicle_type_id":"4","last_reported":1749654712,"current_range_meters":14800,"station_id":"ce4bhbh2rcd13ifvqeo0","pricing_plan_id":"cebpf4jnsgd1na2vs0mg"},{"bike_id":"03e99185-e778-4ccf-af48-bb80112546c3","system_id":"levelo_inurba_marseille","lat":43.26244,"lon":5.37438,"is_reserved":false,"is_disabled":false,"rental_uris":{"android":"levelo://app?vid=03e99185-e778-4ccf-af48-bb80112546c3","ios":"levelo://app?vid=03e99185-e778-4ccf-af48-bb80112546c3"},"vehicle_type_id":"4","last_reported":1749654712,"current_range_meters":14800,"station_id":"","pricing_plan_id":"cebpf4jnsgd1na2vs0mg"},{"bike_id":"1c533ff4-5987-4762-9e10-a2a1d8221238","system_id":"levelo_inurba_marseille","lat":43.28265,"lon":5.35079,"is_reserved":false,"is_disabled":false,"rental_uris":{"android":"levelo://app?vid=1c533ff4-5987-4762-9e10-a2a1d8221238","ios":"levelo://app?vid=1c533ff4-5987-4762-9e10-a2a1d8221238"},"vehicle_type_id":"4","last_reported":1749654712,"current_range_meters":14800,"station_id":"ce4bhbp2rcd13ifvqerg","pricing_plan_id":"cebpf4jnsgd1na2vs0mg"},{"bike_id":"01b53ea9-5963-4456-ac52-b335e6cee31c","system_id":"levelo_inurba_marseille","lat":43.284123,"lon":5.349823,"is_reserved":false,"is_disabled":false,"rental_uris":{"android":"levelo://app?vid=01b53ea9-5963-4456-ac52-b335e6cee31c","ios":"levelo://app?vid=01b53ea9-5963-4456-ac52-b335e6cee31c"},"vehicle_type_id":"4","last_reported":1749654712,"current_range_meters":14800,"station_id":"ce4bhbh2rcd13ifvqepg","pricing_plan_id":"cebpf4jnsgd1na2vs0mg"},{"bike_id":"354a1076-00d7-46ec-830b-28e28e2cb143","system_id":"levelo_inurba_marseille","lat":43.29267,"lon":5.36841,"is_reserved":false,"is_disabled":true,"rental_uris":{"android":"levelo://app?vid=354a1076-00d7-46ec-830b-28e28e2cb143","ios":"levelo://app?vid=354a1076-00d7-46ec-830b-28e28e2cb143"},"vehicle_type_id":"4","last_reported":1749654712,"current_range_meters":14800,"station_id":"ce4bhbp2rcd13ifvqesg","pricing_plan_id":"cebpf4jnsgd1na2vs0mg"},{"bike_id":"3d3604e2-7c6c-48fd-9f51-e25f72e6d4d9","system_id":"levelo_inurba_marseille","lat":43.2738,"lon":5.36264,"is_reserved":false,"is_disabled":false,"rental_uris":{"android":"levelo://app?vid=3d3604e2-7c6c-48fd-9f51-e25f72e6d4d9","ios":"levelo://app?vid=3d3604e2-7c6c-48fd-9f51-e25f72e6d4d9"},"vehicle_type_id":"4","last_reported":1749654712,"current_range_meters":15200,"station_id":"ce4bhbh2rcd13ifvqeo0","pricing_plan_id":"cebpf4jnsgd1na2vs0mg"},{"bike_id":"f10adc7e-6a3a-4a5d-9515-dc52fefe2058","system_id":"levelo_inurba_marseille","lat":43.32359,"lon":5.36754,"is_reserved":false,"is_disabled":false,"rental_uris":{"android":"levelo://app?vid=f10adc7e-6a3a-4a5d-9515-dc52fefe2058","ios":"levelo://app?vid=f10adc7e-6a3a-4a5d-9515-dc52fefe2058"},"vehicle_type_id":"4","last_reported":1749654712,"current_range_meters":15200,"station_id":"ce4bhsh2rcd13ifvqi2g","pricing_plan_id":"cebpf4jnsgd1na2vs0mg"},{"bike_id":"b46fc879-cbd2-489e-b2ca-045773f8f23d","system_id":"levelo_inurba_marseille","lat":43.273826,"lon":5.362572,"is_reserved":false,"is_disabled":false,"rental_uris":{"android":"levelo://app?vid=b46fc879-cbd2-489e-b2ca-045773f8f23d","ios":"levelo://app?vid=b46fc879-cbd2-489e-b2ca-045773f8f23d"},"vehicle_type_id":"4","last_reported":1749654712,"current_range_meters":16000,"station_id":"ce4bhbh2rcd13ifvqeo0","pricing_plan_id":"cebpf4jnsgd1na2vs0mg"},{"bike_id":"54265529-c802-41ea-a434-8efe037aed4d","system_id":"levelo_inurba_marseille","lat":43.284213,"lon":5.349841,"is_reserved":false,"is_disabled":false,"rental_uris":{"android":"levelo://app?vid=54265529-c802-41ea-a434-8efe037aed4d","ios":"levelo://app?vid=54265529-c802-41ea-a434-8efe037aed4d"},"vehicle_type_id":"4","last_reported":1749654712,"current_range_meters":16000,"station_id":"ce4bhbh2rcd13ifvqepg","pricing_plan_id":"cebpf4jnsgd1na2vs0mg"},{"bike_id":"fc2cc419-c261-45cc-843a-b2a8e80ec161","system_id":"levelo_inurba_marseille","lat":43.28152,"lon":5.42641,"is_reserved":false,"is_disabled":false,"rental_uris":{"android":"levelo://app?vid=fc2cc419-c261-45cc-843a-b2a8e80ec161","ios":"levelo://app?vid=fc2cc419-c261-45cc-843a-b2a8e80ec161"},"vehicle_type_id":"4","last_reported":1749654712,"current_range_meters":16000,"station_id":"ce4bhnh2rcd13ifvqgug","pricing_plan_id":"cebpf4jnsgd1na2vs0mg"},{"bike_id":"e70c17ea-cf15-4cd8-8ca9-87d54374f23f","system_id":"levelo_inurba_marseille","lat":43.286133,"lon":5.350969,"is_reserved":false,"is_disabled":false,"rental_uris":{"android":"levelo://app?vid=e70c17ea-cf15-4cd8-8ca9-87d54374f23f","ios":"levelo://app?vid=e70c17ea-cf15-4cd8-8ca9-87d54374f23f"},"vehicle_type_id":"4","last_reported":1749654712,"current_range_meters":16000,"station_id":"ce4bhch2rcd13ifvqeug","pricing_plan_id":"cebpf4jnsgd1na2vs0mg"},{"bike_id":"4be5cada-a8b4-4c62-8c77-005426fe7950","system_id":"levelo_inurba_marseille","lat":43.25496,"lon":5.3765,"is_reserved":false,"is_disabled":false,"rental_uris":{"android":"levelo://app?vid=4be5cada-a8b4-4c62-8c77-005426fe7950","ios":"levelo://app?vid=4be5cada-a8b4-4c62-8c77-005426fe7950"},"vehicle_type_id":"4","last_reported":1749654712,"current_range_meters":15200,"station_id":"ce4bhh12rcd13ifvqff0","pricing_plan_id":"cebpf4jnsgd1na2vs0mg"},{"bike_id":"6b518f16-19b5-4a07-ae9d-a1dbd7aab1bc","system_id":"levelo_inurba_marseille","lat":43.296105,"lon":5.369872,"is_reserved":false,"is_disabled":false,"rental_uris":{"android":"levelo://app?vid=6b518f16-19b5-4a07-ae9d-a1dbd7aab1bc","ios":"levelo://app?vid=6b518f16-19b5-4a07-ae9d-a1dbd7aab1bc"},"vehicle_type_id":"4","last_reported":1749654712,"current_range_meters":16000,"station_id":"ce4bgph2rcd13ifvqc2g","pricing_plan_id":"cebpf4jnsgd1na2vs0mg"},{"bike_id":"b1e72ba7-b4c9-4fe9-80c0-8b85a1ce12cf","system_id":"levelo_inurba_marseille","lat":43.28051,"lon":5.36936,"is_reserved":false,"is_disabled":false,"rental_uris":{"android":"levelo://app?vid=b1e72ba7-b4c9-4fe9-80c0-8b85a1ce12cf","ios":"levelo://app?vid=b1e72ba7-b4c9-4fe9-80c0-8b85a1ce12cf"},"vehicle_type_id":"4","last_reported":1749654712,"current_range_meters":16000,"station_id":"ce4bha12rcd13ifvqef0","pricing_plan_id":"cebpf4jnsgd1na2vs0mg"},{"bike_id":"6b096574-7a86-431e-adb1-6c86a9fb9dd0","system_id":"levelo_inurba_marseille","lat":43.26932,"lon":5.40265,"is_reserved":false,"is_disabled":true,"rental_uris":{"android":"levelo://app?vid=6b096574-7a86-431e-adb1-6c86a9fb9dd0","ios":"levelo://app?vid=6b096574-7a86-431e-adb1-6c86a9fb9dd0"},"vehicle_type_id":"4","last_reported":1749654712,"current_range_meters":16400,"station_id":"cjm6bp8fraef2m0cb0m0","pricing_plan_id":"cebpf4jnsgd1na2vs0mg"},{"bike_id":"7f6c80d6-b015-4145-8e00-338178446921","system_id":"levelo_inurba_marseille","lat":43.25092,"lon":5.3951,"is_reserved":false,"is_disabled":true,"rental_uris":{"android":"levelo://app?vid=7f6c80d6-b015-4145-8e00-338178446921","ios":"levelo://app?vid=7f6c80d6-b015-4145-8e00-338178446921"},"vehicle_type_id":"4","last_reported":1749654712,"current_range_meters":16400,"station_id":"ce4bhm12rcd13ifvqgkg","pricing_plan_id":"cebpf4jnsgd1na2vs0mg"},{"bike_id":"e7cf65d5-8de8-443a-aea0-cf8994faefa3","system_id":"levelo_inurba_marseille","lat":43.2988,"lon":5.38891,"is_reserved":false,"is_disabled":false,"rental_uris":{"android":"levelo://app?vid=e7cf65d5-8de8-443a-aea0-cf8994faefa3","ios":"levelo://app?vid=e7cf65d5-8de8-443a-aea0-cf8994faefa3"},"vehicle_type_id":"4","last_reported":1749654712,"current_range_meters":16400,"station_id":"ce4bh392rcd13ifvqdl0","pricing_plan_id":"cebpf4jnsgd1na2vs0mg"},{"bike_id":"2b199de8-93ed-4092-bac0-9bf4e83bd63a","system_id":"levelo_inurba_marseille","lat":43.22929,"lon":5.35382,"is_reserved":false,"is_disabled":false,"rental_uris":{"android":"levelo://app?vid=2b199de8-93ed-4092-bac0-9bf4e83bd63a","ios":"levelo://app?vid=2b199de8-93ed-4092-bac0-9bf4e83bd63a"},"vehicle_type_id":"4","last_reported":1749654712,"current_range_meters":16400,"station_id":"cpo3532slgdg3j2ikp40","pricing_plan_id":"cebpf4jnsgd1na2vs0mg"},{"bike_id":"7f9818a5-3d77-4206-a408-a42f90ecca41","system_id":"levelo_inurba_marseille","lat":43.284136,"lon":5.374975,"is_reserved":false,"is_disabled":false,"rental_uris":{"android":"levelo://app?vid=7f9818a5-3d77-4206-a408-a42f90ecca41","ios":"levelo://app?vid=7f9818a5-3d77-4206-a408-a42f90ecca41"},"vehicle_type_id":"4","last_reported":1749654712,"current_range_meters":16400,"station_id":"ce4bh412rcd13ifvqds0","pricing_plan_id":"cebpf4jnsgd1na2vs0mg"},{"bike_id":"c8acc72b-5ece-4e56-907d-33af210c0702","system_id":"levelo_inurba_marseille","lat":43.26233,"lon":5.37067,"is_reserved":false,"is_disabled":false,"rental_uris":{"android":"levelo://app?vid=c8acc72b-5ece-4e56-907d-33af210c0702","ios":"levelo://app?vid=c8acc72b-5ece-4e56-907d-33af210c0702"},"vehicle_type_id":"4","last_reported":1749654712,"current_range_meters":16400,"station_id":"","pricing_plan_id":"cebpf4jnsgd1na2vs0mg"},{"bike_id":"048f2f2b-8e86-4fe8-80fa-0a30dafb1ed2","system_id":"levelo_inurba_marseille","lat":43.298596,"lon":5.362928,"is_reserved":false,"is_disabled":false,"rental_uris":{"android":"levelo://app?vid=048f2f2b-8e86-4fe8-80fa-0a30dafb1ed2","ios":"levelo://app?vid=048f2f2b-8e86-4fe8-80fa-0a30dafb1ed2"},"vehicle_type_id":"4","last_reported":1749654712,"current_range_meters":16800,"station_id":"","pricing_plan_id":"cebpf4jnsgd1na2vs0mg"},{"bike_id":"638b9117-c70b-47a3-9192-610d8a8acdda","system_id":"levelo_inurba_marseille","lat":43.298956,"lon":5.436625,"is_reserved":false,"is_disabled":false,"rental_uris":{"android":"levelo://app?vid=638b9117-c70b-47a3-9192-610d8a8acdda","ios":"levelo://app?vid=638b9117-c70b-47a3-9192-610d8a8acdda"},"vehicle_type_id":"4","last_reported":1749654712,"current_range_meters":16800,"station_id":"ce4bhpp2rcd13ifvqhfg","pricing_plan_id":"cebpf4jnsgd1na2vs0mg"},{"bike_id":"ede41ca9-aabd-4603-9149-30cc242c3ecc","system_id":"levelo_inurba_marseille","lat":43.30647,"lon":5.40095,"is_reserved":false,"is_disabled":false,"rental_uris":{"android":"levelo://app?vid=ede41ca9-aabd-4603-9149-30cc242c3ecc","ios":"levelo://app?vid=ede41ca9-aabd-4603-9149-30cc242c3ecc"},"vehicle_type_id":"4","last_reported":1749654712,"current_range_meters":16800,"station_id":"ce4bh112rcd13ifvqda0","pricing_plan_id":"cebpf4jnsgd1na2vs0mg"},{"bike_id":"59808e72-1866-4f4a-8f11-f6d75ee68c9b","system_id":"levelo_inurba_marseille","lat":43.28416,"lon":5.35014,"is_reserved":false,"is_disabled":false,"rental_uris":{"android":"levelo://app?vid=59808e72-1866-4f4a-8f11-f6d75ee68c9b","ios":"levelo://app?vid=59808e72-1866-4f4a-8f11-f6d75ee68c9b"},"vehicle_type_id":"4","last_reported":1749654712,"current_range_meters":16800,"station_id":"ce4bhbh2rcd13ifvqepg","pricing_plan_id":"cebpf4jnsgd1na2vs0mg"},{"bike_id":"743245d4-5457-49b9-9efc-d95c90d69b8e","system_id":"levelo_inurba_marseille","lat":43.314873,"lon":5.373081,"is_reserved":false,"is_disabled":false,"rental_uris":{"android":"levelo://app?vid=743245d4-5457-49b9-9efc-d95c90d69b8e","ios":"levelo://app?vid=743245d4-5457-49b9-9efc-d95c90d69b8e"},"vehicle_type_id":"4","last_reported":1749654712,"current_range_meters":16800,"station_id":"ce4bhip2rcd13ifvqft0","pricing_plan_id":"cebpf4jnsgd1na2vs0mg"},{"bike_id":"4634d944-f29d-4c22-9607-26d5765c28a8","system_id":"levelo_inurba_marseille","lat":43.28268,"lon":5.35081,"is_reserved":false,"is_disabled":false,"rental_uris":{"android":"levelo://app?vid=4634d944-f29d-4c22-9607-26d5765c28a8","ios":"levelo://app?vid=4634d944-f29d-4c22-9607-26d5765c28a8"},"vehicle_type_id":"4","last_reported":1749654712,"current_range_meters":16800,"station_id":"ce4bhbp2rcd13ifvqerg","pricing_plan_id":"cebpf4jnsgd1na2vs0mg"},{"bike_id":"165ecccf-321b-45ee-abfd-553d9801aac0","system_id":"levelo_inurba_marseille","lat":43.29018,"lon":5.35609,"is_reserved":false,"is_disabled":false,"rental_uris":{"android":"levelo://app?vid=165ecccf-321b-45ee-abfd-553d9801aac0","ios":"levelo://app?vid=165ecccf-321b-45ee-abfd-553d9801aac0"},"vehicle_type_id":"4","last_reported":1749654712,"current_range_meters":16800,"station_id":"ce4bhb92rcd13ifvqen0","pricing_plan_id":"cebpf4jnsgd1na2vs0mg"},{"bike_id":"90d37cd4-456e-43a2-b8f5-3a3b7fcdd7ef","system_id":"levelo_inurba_marseille","lat":43.2827,"lon":5.35067,"is_reserved":false,"is_disabled":false,"rental_uris":{"android":"levelo://app?vid=90d37cd4-456e-43a2-b8f5-3a3b7fcdd7ef","ios":"levelo://app?vid=90d37cd4-456e-43a2-b8f5-3a3b7fcdd7ef"},"vehicle_type_id":"4","last_reported":1749654712,"current_range_meters":16800,"station_id":"ce4bhbp2rcd13ifvqerg","pricing_plan_id":"cebpf4jnsgd1na2vs0mg"},{"bike_id":"707fb64a-4983-4a34-ade7-ee60c8e43453","system_id":"levelo_inurba_marseille","lat":43.23187,"lon":5.4368,"is_reserved":false,"is_disabled":false,"rental_uris":{"android":"levelo://app?vid=707fb64a-4983-4a34-ade7-ee60c8e43453","ios":"levelo://app?vid=707fb64a-4983-4a34-ade7-ee60c8e43453"},"vehicle_type_id":"4","last_reported":1749654712,"current_range_meters":16800,"station_id":"ce4bhmp2rcd13ifvqgog","pricing_plan_id":"cebpf4jnsgd1na2vs0mg"},{"bike_id":"db517f0e-9af4-44ab-acdb-7e14966028f7","system_id":"levelo_inurba_marseille","lat":43.304233,"lon":5.378407,"is_reserved":false,"is_disabled":false,"rental_uris":{"android":"levelo://app?vid=db517f0e-9af4-44ab-acdb-7e14966028f7","ios":"levelo://app?vid=db517f0e-9af4-44ab-acdb-7e14966028f7"},"vehicle_type_id":"4","last_reported":1749654712,"current_range_meters":16800,"station_id":"ce4bgup2rcd13ifvqcn0","pricing_plan_id":"cebpf4jnsgd1na2vs0mg"},{"bike_id":"54287288-4e66-4a65-ab1e-f6b8519f26e9","system_id":"levelo_inurba_marseille","lat":43.27969,"lon":5.38745,"is_reserved":false,"is_disabled":false,"rental_uris":{"android":"levelo://app?vid=54287288-4e66-4a65-ab1e-f6b8519f26e9","ios":"levelo://app?vid=54287288-4e66-4a65-ab1e-f6b8519f26e9"},"vehicle_type_id":"4","last_reported":1749654712,"current_range_meters":16800,"station_id":"ce4bhg12rcd13ifvqf80","pricing_plan_id":"cebpf4jnsgd1na2vs0mg"},{"bike_id":"a0ba27d9-6955-439b-b334-b6f6fa47bd8e","system_id":"levelo_inurba_marseille","lat":43.26218,"lon":5.3746,"is_reserved":false,"is_disabled":false,"rental_uris":{"android":"levelo://app?vid=a0ba27d9-6955-439b-b334-b6f6fa47bd8e","ios":"levelo://app?vid=a0ba27d9-6955-439b-b334-b6f6fa47bd8e"},"vehicle_type_id":"4","last_reported":1749654712,"current_range_meters":16800,"station_id":"ce4bhgp2rcd13ifvqfc0","pricing_plan_id":"cebpf4jnsgd1na2vs0mg"},{"bike_id":"0066dba7-990d-4d26-9511-3c3178cfe237","system_id":"levelo_inurba_marseille","lat":43.28408,"lon":5.34978,"is_reserved":false,"is_disabled":false,"rental_uris":{"android":"levelo://app?vid=0066dba7-990d-4d26-9511-3c3178cfe237","ios":"levelo://app?vid=0066dba7-990d-4d26-9511-3c3178cfe237"},"vehicle_type_id":"4","last_reported":1749654712,"current_range_meters":17200,"station_id":"ce4bhbh2rcd13ifvqepg","pricing_plan_id":"cebpf4jnsgd1na2vs0mg"},{"bike_id":"a3097270-62ef-4cb9-8326-375d6c243566","system_id":"levelo_inurba_marseille","lat":43.27317,"lon":5.3911,"is_reserved":false,"is_disabled":false,"rental_uris":{"android":"levelo://app?vid=a3097270-62ef-4cb9-8326-375d6c243566","ios":"levelo://app?vid=a3097270-62ef-4cb9-8326-375d6c243566"},"vehicle_type_id":"4","last_reported":1749654712,"current_range_meters":17200,"station_id":"ce4bhgp2rcd13ifvqfe0","pricing_plan_id":"cebpf4jnsgd1na2vs0mg"},{"bike_id":"8401f5cc-8a2b-4da6-9a6e-a8dd35a555da","system_id":"levelo_inurba_marseille","lat":43.29592,"lon":5.37582,"is_reserved":false,"is_disabled":false,"rental_uris":{"android":"levelo://app?vid=8401f5cc-8a2b-4da6-9a6e-a8dd35a555da","ios":"levelo://app?vid=8401f5cc-8a2b-4da6-9a6e-a8dd35a555da"},"vehicle_type_id":"4","last_reported":1749654712,"current_range_meters":17200,"station_id":"","pricing_plan_id":"cebpf4jnsgd1na2vs0mg"},{"bike_id":"5b5bd648-0748-4ed8-82f6-4224fa62522d","system_id":"levelo_inurba_marseille","lat":43.26192,"lon":5.37449,"is_reserved":false,"is_disabled":false,"rental_uris":{"android":"levelo://app?vid=5b5bd648-0748-4ed8-82f6-4224fa62522d","ios":"levelo://app?vid=5b5bd648-0748-4ed8-82f6-4224fa62522d"},"vehicle_type_id":"4","last_reported":1749654712,"current_range_meters":17200,"station_id":"ce4bhgp2rcd13ifvqfc0","pricing_plan_id":"cebpf4jnsgd1na2vs0mg"},{"bike_id":"c887d6c2-3132-4ba9-94a5-3fd697b52b4f","system_id":"levelo_inurba_marseille","lat":43.27364,"lon":5.36266,"is_reserved":false,"is_disabled":false,"rental_uris":{"android":"levelo://app?vid=c887d6c2-3132-4ba9-94a5-3fd697b52b4f","ios":"levelo://app?vid=c887d6c2-3132-4ba9-94a5-3fd697b52b4f"},"vehicle_type_id":"4","last_reported":1749654712,"current_range_meters":17200,"station_id":"ce4bhbh2rcd13ifvqeo0","pricing_plan_id":"cebpf4jnsgd1na2vs0mg"},{"bike_id":"48fe015f-a073-4946-b778-30b5d397bace","system_id":"levelo_inurba_marseille","lat":43.268305,"lon":5.419796,"is_reserved":false,"is_disabled":false,"rental_uris":{"android":"levelo://app?vid=48fe015f-a073-4946-b778-30b5d397bace","ios":"levelo://app?vid=48fe015f-a073-4946-b778-30b5d397bace"},"vehicle_type_id":"4","last_reported":1749654712,"current_range_meters":17200,"station_id":"ce4bhk92rcd13ifvqgb0","pricing_plan_id":"cebpf4jnsgd1na2vs0mg"},{"bike_id":"644ee1a1-5326-4de8-bc66-1becb4c8466f","system_id":"levelo_inurba_marseille","lat":43.29705,"lon":5.36606,"is_reserved":false,"is_disabled":false,"rental_uris":{"android":"levelo://app?vid=644ee1a1-5326-4de8-bc66-1becb4c8466f","ios":"levelo://app?vid=644ee1a1-5326-4de8-bc66-1becb4c8466f"},"vehicle_type_id":"4","last_reported":1749654712,"current_range_meters":17200,"station_id":"ce4bgn12rcd13ifvqbt0","pricing_plan_id":"cebpf4jnsgd1na2vs0mg"},{"bike_id":"92d53ca1-03c3-4309-8325-40b63541cbab","system_id":"levelo_inurba_marseille","lat":43.25092,"lon":5.39519,"is_reserved":false,"is_disabled":true,"rental_uris":{"android":"levelo://app?vid=92d53ca1-03c3-4309-8325-40b63541cbab","ios":"levelo://app?vid=92d53ca1-03c3-4309-8325-40b63541cbab"},"vehicle_type_id":"4","last_reported":1749654712,"current_range_meters":17200,"station_id":"ce4bhm12rcd13ifvqgkg","pricing_plan_id":"cebpf4jnsgd1na2vs0mg"},{"bike_id":"f86b472f-ab37-4323-98c8-b666aabd1da9","system_id":"levelo_inurba_marseille","lat":43.3014,"lon":5.37419,"is_reserved":false,"is_disabled":false,"rental_uris":{"android":"levelo://app?vid=f86b472f-ab37-4323-98c8-b666aabd1da9","ios":"levelo://app?vid=f86b472f-ab37-4323-98c8-b666aabd1da9"},"vehicle_type_id":"4","last_reported":1749654712,"current_range_meters":17600,"station_id":"ce4bgs92rcd13ifvqcc0","pricing_plan_id":"cebpf4jnsgd1na2vs0mg"},{"bike_id":"27c3ce4c-2f83-41ff-abde-3fb4e2e068fb","system_id":"levelo_inurba_marseille","lat":43.30984,"lon":5.37468,"is_reserved":false,"is_disabled":false,"rental_uris":{"android":"levelo://app?vid=27c3ce4c-2f83-41ff-abde-3fb4e2e068fb","ios":"levelo://app?vid=27c3ce4c-2f83-41ff-abde-3fb4e2e068fb"},"vehicle_type_id":"4","last_reported":1749654712,"current_range_meters":17600,"station_id":"","pricing_plan_id":"cebpf4jnsgd1na2vs0mg"},{"bike_id":"6e2b2316-fcd3-4a61-9d8e-b80b5d162e57","system_id":"levelo_inurba_marseille","lat":43.27203,"lon":5.39178,"is_reserved":false,"is_disabled":false,"rental_uris":{"android":"levelo://app?vid=6e2b2316-fcd3-4a61-9d8e-b80b5d162e57","ios":"levelo://app?vid=6e2b2316-fcd3-4a61-9d8e-b80b5d162e57"},"vehicle_type_id":"4","last_reported":1749654712,"current_range_meters":17600,"station_id":"ce4bhhp2rcd13ifvqfm0","pricing_plan_id":"cebpf4jnsgd1na2vs0mg"},{"bike_id":"1b986ab5-899b-45c0-ae8f-5234203e90af","system_id":"levelo_inurba_marseille","lat":43.32101,"lon":5.36807,"is_reserved":false,"is_disabled":false,"rental_uris":{"android":"levelo://app?vid=1b986ab5-899b-45c0-ae8f-5234203e90af","ios":"levelo://app?vid=1b986ab5-899b-45c0-ae8f-5234203e90af"},"vehicle_type_id":"4","last_reported":1749654712,"current_range_meters":18000,"station_id":"ce4bhrh2rcd13ifvqhug","pricing_plan_id":"cebpf4jnsgd1na2vs0mg"},{"bike_id":"89952bdf-8423-4dee-a648-f625ccf1e098","system_id":"levelo_inurba_marseille","lat":43.28272,"lon":5.35068,"is_reserved":false,"is_disabled":false,"rental_uris":{"android":"levelo://app?vid=89952bdf-8423-4dee-a648-f625ccf1e098","ios":"levelo://app?vid=89952bdf-8423-4dee-a648-f625ccf1e098"},"vehicle_type_id":"4","last_reported":1749654712,"current_range_meters":18000,"station_id":"ce4bhbp2rcd13ifvqerg","pricing_plan_id":"cebpf4jnsgd1na2vs0mg"},{"bike_id":"8318ec27-b3c5-4406-b014-8ba170ff3389","system_id":"levelo_inurba_marseille","lat":43.30121,"lon":5.39859,"is_reserved":false,"is_disabled":false,"rental_uris":{"android":"levelo://app?vid=8318ec27-b3c5-4406-b014-8ba170ff3389","ios":"levelo://app?vid=8318ec27-b3c5-4406-b014-8ba170ff3389"},"vehicle_type_id":"4","last_reported":1749654712,"current_range_meters":18000,"station_id":"ce4bh0h2rcd13ifvqd40","pricing_plan_id":"cebpf4jnsgd1na2vs0mg"},{"bike_id":"c0bd4251-d527-48a7-9378-e4e80c1c274f","system_id":"levelo_inurba_marseille","lat":43.318034,"lon":5.373582,"is_reserved":false,"is_disabled":false,"rental_uris":{"android":"levelo://app?vid=c0bd4251-d527-48a7-9378-e4e80c1c274f","ios":"levelo://app?vid=c0bd4251-d527-48a7-9378-e4e80c1c274f"},"vehicle_type_id":"4","last_reported":1749654712,"current_range_meters":18000,"station_id":"","pricing_plan_id":"cebpf4jnsgd1na2vs0mg"},{"bike_id":"b21450a4-463f-4eb5-a5b1-a818c0abb90a","system_id":"levelo_inurba_marseille","lat":43.298937,"lon":5.436661,"is_reserved":false,"is_disabled":false,"rental_uris":{"android":"levelo://app?vid=b21450a4-463f-4eb5-a5b1-a818c0abb90a","ios":"levelo://app?vid=b21450a4-463f-4eb5-a5b1-a818c0abb90a"},"vehicle_type_id":"4","last_reported":1749654712,"current_range_meters":18000,"station_id":"ce4bhpp2rcd13ifvqhfg","pricing_plan_id":"cebpf4jnsgd1na2vs0mg"},{"bike_id":"8f8b317c-144f-4109-a9e1-a9cc3de86cce","system_id":"levelo_inurba_marseille","lat":43.25581,"lon":5.38231,"is_reserved":false,"is_disabled":false,"rental_uris":{"android":"levelo://app?vid=8f8b317c-144f-4109-a9e1-a9cc3de86cce","ios":"levelo://app?vid=8f8b317c-144f-4109-a9e1-a9cc3de86cce"},"vehicle_type_id":"4","last_reported":1749654712,"current_range_meters":18000,"station_id":"ce4bhih2rcd13ifvqfs0","pricing_plan_id":"cebpf4jnsgd1na2vs0mg"},{"bike_id":"61c65c12-2f66-41c4-bb38-dbd56f58e8e9","system_id":"levelo_inurba_marseille","lat":43.2867,"lon":5.35101,"is_reserved":false,"is_disabled":false,"rental_uris":{"android":"levelo://app?vid=61c65c12-2f66-41c4-bb38-dbd56f58e8e9","ios":"levelo://app?vid=61c65c12-2f66-41c4-bb38-dbd56f58e8e9"},"vehicle_type_id":"4","last_reported":1749654712,"current_range_meters":18800,"station_id":"ce4bhch2rcd13ifvqeug","pricing_plan_id":"cebpf4jnsgd1na2vs0mg"},{"bike_id":"0db40102-158a-42a7-9960-74ab1bdde2a2","system_id":"levelo_inurba_marseille","lat":43.30742,"lon":5.3728,"is_reserved":false,"is_disabled":false,"rental_uris":{"android":"levelo://app?vid=0db40102-158a-42a7-9960-74ab1bdde2a2","ios":"levelo://app?vid=0db40102-158a-42a7-9960-74ab1bdde2a2"},"vehicle_type_id":"4","last_reported":1749654712,"current_range_meters":18800,"station_id":"","pricing_plan_id":"cebpf4jnsgd1na2vs0mg"},{"bike_id":"334906fd-3e52-458f-93d2-bb42ff037cec","system_id":"levelo_inurba_marseille","lat":43.2454,"lon":5.39523,"is_reserved":false,"is_disabled":false,"rental_uris":{"android":"levelo://app?vid=334906fd-3e52-458f-93d2-bb42ff037cec","ios":"levelo://app?vid=334906fd-3e52-458f-93d2-bb42ff037cec"},"vehicle_type_id":"4","last_reported":1749654712,"current_range_meters":18800,"station_id":"ce4bhlp2rcd13ifvqgjg","pricing_plan_id":"cebpf4jnsgd1na2vs0mg"},{"bike_id":"56552302-e7bc-4ea0-8224-24a54c2f5354","system_id":"levelo_inurba_marseille","lat":43.30593,"lon":5.37229,"is_reserved":false,"is_disabled":false,"rental_uris":{"android":"levelo://app?vid=56552302-e7bc-4ea0-8224-24a54c2f5354","ios":"levelo://app?vid=56552302-e7bc-4ea0-8224-24a54c2f5354"},"vehicle_type_id":"4","last_reported":1749654712,"current_range_meters":18000,"station_id":"ce4bgqh2rcd13ifvqc4g","pricing_plan_id":"cebpf4jnsgd1na2vs0mg"},{"bike_id":"5d87649a-35c3-44dd-8bb0-cb263158ab9a","system_id":"levelo_inurba_marseille","lat":43.25006,"lon":5.38913,"is_reserved":false,"is_disabled":true,"rental_uris":{"android":"levelo://app?vid=5d87649a-35c3-44dd-8bb0-cb263158ab9a","ios":"levelo://app?vid=5d87649a-35c3-44dd-8bb0-cb263158ab9a"},"vehicle_type_id":"4","last_reported":1749654712,"current_range_meters":18800,"station_id":"ce4bhgp2rcd13ifvqfd0","pricing_plan_id":"cebpf4jnsgd1na2vs0mg"},{"bike_id":"e0249f4b-8d8b-4dc7-a224-9ea697947c37","system_id":"levelo_inurba_marseille","lat":43.31719,"lon":5.42407,"is_reserved":false,"is_disabled":false,"rental_uris":{"android":"levelo://app?vid=e0249f4b-8d8b-4dc7-a224-9ea697947c37","ios":"levelo://app?vid=e0249f4b-8d8b-4dc7-a224-9ea697947c37"},"vehicle_type_id":"4","last_reported":1749654712,"current_range_meters":18800,"station_id":"ce4bhp92rcd13ifvqhbg","pricing_plan_id":"cebpf4jnsgd1na2vs0mg"},{"bike_id":"1aa334d5-afac-4a12-9507-575bce360cf8","system_id":"levelo_inurba_marseille","lat":43.28616,"lon":5.35115,"is_reserved":false,"is_disabled":false,"rental_uris":{"android":"levelo://app?vid=1aa334d5-afac-4a12-9507-575bce360cf8","ios":"levelo://app?vid=1aa334d5-afac-4a12-9507-575bce360cf8"},"vehicle_type_id":"4","last_reported":1749654712,"current_range_meters":18800,"station_id":"ce4bhch2rcd13ifvqeug","pricing_plan_id":"cebpf4jnsgd1na2vs0mg"},{"bike_id":"3f091ab2-d036-4a00-b99c-c40a7c14c235","system_id":"levelo_inurba_marseille","lat":43.32414,"lon":5.36541,"is_reserved":false,"is_disabled":false,"rental_uris":{"android":"levelo://app?vid=3f091ab2-d036-4a00-b99c-c40a7c14c235","ios":"levelo://app?vid=3f091ab2-d036-4a00-b99c-c40a7c14c235"},"vehicle_type_id":"4","last_reported":1749654712,"current_range_meters":18800,"station_id":"","pricing_plan_id":"cebpf4jnsgd1na2vs0mg"},{"bike_id":"f9ba2e76-62e9-4c4d-8d9c-0342e60cf9b9","system_id":"levelo_inurba_marseille","lat":43.27375,"lon":5.36241,"is_reserved":false,"is_disabled":false,"rental_uris":{"android":"levelo://app?vid=f9ba2e76-62e9-4c4d-8d9c-0342e60cf9b9","ios":"levelo://app?vid=f9ba2e76-62e9-4c4d-8d9c-0342e60cf9b9"},"vehicle_type_id":"4","last_reported":1749654712,"current_range_meters":18800,"station_id":"ce4bhbh2rcd13ifvqeo0","pricing_plan_id":"cebpf4jnsgd1na2vs0mg"},{"bike_id":"d0f5fd5e-82d0-4068-b904-613e884eaef5","system_id":"levelo_inurba_marseille","lat":43.28265,"lon":5.35092,"is_reserved":false,"is_disabled":false,"rental_uris":{"android":"levelo://app?vid=d0f5fd5e-82d0-4068-b904-613e884eaef5","ios":"levelo://app?vid=d0f5fd5e-82d0-4068-b904-613e884eaef5"},"vehicle_type_id":"4","last_reported":1749654712,"current_range_meters":19200,"station_id":"ce4bhbp2rcd13ifvqerg","pricing_plan_id":"cebpf4jnsgd1na2vs0mg"},{"bike_id":"d09dc515-277a-4646-8816-f10cec5d4457","system_id":"levelo_inurba_marseille","lat":43.30914,"lon":5.40165,"is_reserved":false,"is_disabled":true,"rental_uris":{"android":"levelo://app?vid=d09dc515-277a-4646-8816-f10cec5d4457","ios":"levelo://app?vid=d09dc515-277a-4646-8816-f10cec5d4457"},"vehicle_type_id":"4","last_reported":1749654712,"current_range_meters":19200,"station_id":"ce4bgvp2rcd13ifvqct0","pricing_plan_id":"cebpf4jnsgd1na2vs0mg"},{"bike_id":"b5b1a2cd-c2e8-42a9-8210-a8f26c7e2629","system_id":"levelo_inurba_marseille","lat":43.27371,"lon":5.36261,"is_reserved":false,"is_disabled":false,"rental_uris":{"android":"levelo://app?vid=b5b1a2cd-c2e8-42a9-8210-a8f26c7e2629","ios":"levelo://app?vid=b5b1a2cd-c2e8-42a9-8210-a8f26c7e2629"},"vehicle_type_id":"4","last_reported":1749654712,"current_range_meters":19200,"station_id":"ce4bhbh2rcd13ifvqeo0","pricing_plan_id":"cebpf4jnsgd1na2vs0mg"},{"bike_id":"0b33822a-9a7c-43fc-b0a6-08c1c01b6e6b","system_id":"levelo_inurba_marseille","lat":43.22931,"lon":5.35374,"is_reserved":false,"is_disabled":false,"rental_uris":{"android":"levelo://app?vid=0b33822a-9a7c-43fc-b0a6-08c1c01b6e6b","ios":"levelo://app?vid=0b33822a-9a7c-43fc-b0a6-08c1c01b6e6b"},"vehicle_type_id":"4","last_reported":1749654712,"current_range_meters":19200,"station_id":"cpo3532slgdg3j2ikp40","pricing_plan_id":"cebpf4jnsgd1na2vs0mg"},{"bike_id":"7003b93c-725d-412e-9127-fbade718cbc3","system_id":"levelo_inurba_marseille","lat":43.21239,"lon":5.35049,"is_reserved":false,"is_disabled":false,"rental_uris":{"android":"levelo://app?vid=7003b93c-725d-412e-9127-fbade718cbc3","ios":"levelo://app?vid=7003b93c-725d-412e-9127-fbade718cbc3"},"vehicle_type_id":"4","last_reported":1749654712,"current_range_meters":19200,"station_id":"st_cvj6sg6p6f1abm77japg","pricing_plan_id":"cebpf4jnsgd1na2vs0mg"},{"bike_id":"2a7344b5-7126-4cc1-bbd1-a9bb0e44b7bd","system_id":"levelo_inurba_marseille","lat":43.23048,"lon":5.35499,"is_reserved":false,"is_disabled":false,"rental_uris":{"android":"levelo://app?vid=2a7344b5-7126-4cc1-bbd1-a9bb0e44b7bd","ios":"levelo://app?vid=2a7344b5-7126-4cc1-bbd1-a9bb0e44b7bd"},"vehicle_type_id":"4","last_reported":1749654712,"current_range_meters":19200,"station_id":"cpo3342slgdg3j2ifvpg","pricing_plan_id":"cebpf4jnsgd1na2vs0mg"},{"bike_id":"11926c67-c581-4a5d-8203-15313e951bcf","system_id":"levelo_inurba_marseille","lat":43.21747,"lon":5.34612,"is_reserved":false,"is_disabled":false,"rental_uris":{"android":"levelo://app?vid=11926c67-c581-4a5d-8203-15313e951bcf","ios":"levelo://app?vid=11926c67-c581-4a5d-8203-15313e951bcf"},"vehicle_type_id":"4","last_reported":1749654712,"current_range_meters":19200,"station_id":"st_cvj6r9ubvosntc0bgbag","pricing_plan_id":"cebpf4jnsgd1na2vs0mg"},{"bike_id":"1bb3ba90-a94e-4d16-8276-925d117909d7","system_id":"levelo_inurba_marseille","lat":43.30147,"lon":5.38098,"is_reserved":false,"is_disabled":false,"rental_uris":{"android":"levelo://app?vid=1bb3ba90-a94e-4d16-8276-925d117909d7","ios":"levelo://app?vid=1bb3ba90-a94e-4d16-8276-925d117909d7"},"vehicle_type_id":"4","last_reported":1749654712,"current_range_meters":19200,"station_id":"ce4bgjp2rcd13ifvqbh0","pricing_plan_id":"cebpf4jnsgd1na2vs0mg"},{"bike_id":"80e093aa-1c8e-4303-9074-67237f4d838a","system_id":"levelo_inurba_marseille","lat":43.28568,"lon":5.39501,"is_reserved":false,"is_disabled":false,"rental_uris":{"android":"levelo://app?vid=80e093aa-1c8e-4303-9074-67237f4d838a","ios":"levelo://app?vid=80e093aa-1c8e-4303-9074-67237f4d838a"},"vehicle_type_id":"4","last_reported":1749654712,"current_range_meters":19200,"station_id":"ce4bh292rcd13ifvqdg0","pricing_plan_id":"cebpf4jnsgd1na2vs0mg"},{"bike_id":"67bf10a8-273a-4ea5-80e3-3a89aa91a7bc","system_id":"levelo_inurba_marseille","lat":43.304744,"lon":5.390498,"is_reserved":false,"is_disabled":false,"rental_uris":{"android":"levelo://app?vid=67bf10a8-273a-4ea5-80e3-3a89aa91a7bc","ios":"levelo://app?vid=67bf10a8-273a-4ea5-80e3-3a89aa91a7bc"},"vehicle_type_id":"4","last_reported":1749654712,"current_range_meters":19600,"station_id":"ce4bgk12rcd13ifvqbi0","pricing_plan_id":"cebpf4jnsgd1na2vs0mg"},{"bike_id":"13d5d731-77e5-4a63-b52a-5d1a0959b563","system_id":"levelo_inurba_marseille","lat":43.29042,"lon":5.39973,"is_reserved":false,"is_disabled":false,"rental_uris":{"android":"levelo://app?vid=13d5d731-77e5-4a63-b52a-5d1a0959b563","ios":"levelo://app?vid=13d5d731-77e5-4a63-b52a-5d1a0959b563"},"vehicle_type_id":"4","last_reported":1749654712,"current_range_meters":19600,"station_id":"ce4bh392rcd13ifvqdm0","pricing_plan_id":"cebpf4jnsgd1na2vs0mg"},{"bike_id":"5240f6fd-7c4d-480e-89e7-ad5430e3da82","system_id":"levelo_inurba_marseille","lat":43.2842,"lon":5.35,"is_reserved":false,"is_disabled":false,"rental_uris":{"android":"levelo://app?vid=5240f6fd-7c4d-480e-89e7-ad5430e3da82","ios":"levelo://app?vid=5240f6fd-7c4d-480e-89e7-ad5430e3da82"},"vehicle_type_id":"4","last_reported":1749654712,"current_range_meters":19600,"station_id":"ce4bhbh2rcd13ifvqepg","pricing_plan_id":"cebpf4jnsgd1na2vs0mg"},{"bike_id":"b0d741b6-f979-46ce-b67c-4766a34d8a74","system_id":"levelo_inurba_marseille","lat":43.21747,"lon":5.34603,"is_reserved":false,"is_disabled":false,"rental_uris":{"android":"levelo://app?vid=b0d741b6-f979-46ce-b67c-4766a34d8a74","ios":"levelo://app?vid=b0d741b6-f979-46ce-b67c-4766a34d8a74"},"vehicle_type_id":"4","last_reported":1749654712,"current_range_meters":19600,"station_id":"st_cvj6r9ubvosntc0bgbag","pricing_plan_id":"cebpf4jnsgd1na2vs0mg"},{"bike_id":"7ecde9b2-0848-4631-b23e-d505a87ecd32","system_id":"levelo_inurba_marseille","lat":43.2842,"lon":5.34993,"is_reserved":false,"is_disabled":false,"rental_uris":{"android":"levelo://app?vid=7ecde9b2-0848-4631-b23e-d505a87ecd32","ios":"levelo://app?vid=7ecde9b2-0848-4631-b23e-d505a87ecd32"},"vehicle_type_id":"4","last_reported":1749654712,"current_range_meters":19600,"station_id":"ce4bhbh2rcd13ifvqepg","pricing_plan_id":"cebpf4jnsgd1na2vs0mg"},{"bike_id":"66c9bec5-d2d0-47df-b3d9-cdc5ec9d1cbf","system_id":"levelo_inurba_marseille","lat":43.2319,"lon":5.35557,"is_reserved":false,"is_disabled":false,"rental_uris":{"android":"levelo://app?vid=66c9bec5-d2d0-47df-b3d9-cdc5ec9d1cbf","ios":"levelo://app?vid=66c9bec5-d2d0-47df-b3d9-cdc5ec9d1cbf"},"vehicle_type_id":"4","last_reported":1749654712,"current_range_meters":19600,"station_id":"ce4bhu92rcd13ifvqi70","pricing_plan_id":"cebpf4jnsgd1na2vs0mg"},{"bike_id":"bcb0f840-58a7-453e-9118-c21be5fd7b84","system_id":"levelo_inurba_marseille","lat":43.300247,"lon":5.400813,"is_reserved":false,"is_disabled":false,"rental_uris":{"android":"levelo://app?vid=bcb0f840-58a7-453e-9118-c21be5fd7b84","ios":"levelo://app?vid=bcb0f840-58a7-453e-9118-c21be5fd7b84"},"vehicle_type_id":"4","last_reported":1749654712,"current_range_meters":19600,"station_id":"","pricing_plan_id":"cebpf4jnsgd1na2vs0mg"},{"bike_id":"1bfbd770-ad9f-4da2-965a-d88db4d3366d","system_id":"levelo_inurba_marseille","lat":43.32364,"lon":5.36765,"is_reserved":false,"is_disabled":false,"rental_uris":{"android":"levelo://app?vid=1bfbd770-ad9f-4da2-965a-d88db4d3366d","ios":"levelo://app?vid=1bfbd770-ad9f-4da2-965a-d88db4d3366d"},"vehicle_type_id":"4","last_reported":1749654712,"current_range_meters":19600,"station_id":"ce4bhsh2rcd13ifvqi2g","pricing_plan_id":"cebpf4jnsgd1na2vs0mg"},{"bike_id":"690a825e-4d38-4fef-ad63-2882f5f96cba","system_id":"levelo_inurba_marseille","lat":43.301407,"lon":5.387805,"is_reserved":false,"is_disabled":false,"rental_uris":{"android":"levelo://app?vid=690a825e-4d38-4fef-ad63-2882f5f96cba","ios":"levelo://app?vid=690a825e-4d38-4fef-ad63-2882f5f96cba"},"vehicle_type_id":"4","last_reported":1749654712,"current_range_meters":19600,"station_id":"ce4bghh2rcd13ifvqb60","pricing_plan_id":"cebpf4jnsgd1na2vs0mg"},{"bike_id":"9a48437a-434c-486e-b5f9-b232626e98f5","system_id":"levelo_inurba_marseille","lat":43.2175,"lon":5.34606,"is_reserved":false,"is_disabled":false,"rental_uris":{"android":"levelo://app?vid=9a48437a-434c-486e-b5f9-b232626e98f5","ios":"levelo://app?vid=9a48437a-434c-486e-b5f9-b232626e98f5"},"vehicle_type_id":"4","last_reported":1749654712,"current_range_meters":19600,"station_id":"st_cvj6r9ubvosntc0bgbag","pricing_plan_id":"cebpf4jnsgd1na2vs0mg"},{"bike_id":"6e464720-93b0-4699-80fe-881649eb71cd","system_id":"levelo_inurba_marseille","lat":43.23239,"lon":5.35582,"is_reserved":false,"is_disabled":false,"rental_uris":{"android":"levelo://app?vid=6e464720-93b0-4699-80fe-881649eb71cd","ios":"levelo://app?vid=6e464720-93b0-4699-80fe-881649eb71cd"},"vehicle_type_id":"4","last_reported":1749654712,"current_range_meters":19600,"station_id":"","pricing_plan_id":"cebpf4jnsgd1na2vs0mg"},{"bike_id":"c0c54018-f3a5-40bc-a223-ba5f26540666","system_id":"levelo_inurba_marseille","lat":43.26059,"lon":5.39397,"is_reserved":false,"is_disabled":false,"rental_uris":{"android":"levelo://app?vid=c0c54018-f3a5-40bc-a223-ba5f26540666","ios":"levelo://app?vid=c0c54018-f3a5-40bc-a223-ba5f26540666"},"vehicle_type_id":"4","last_reported":1749654712,"current_range_meters":20000,"station_id":"ce4bhh92rcd13ifvqfj0","pricing_plan_id":"cebpf4jnsgd1na2vs0mg"},{"bike_id":"a322f25f-f3be-412d-b049-4b187fa2a7db","system_id":"levelo_inurba_marseille","lat":43.28269,"lon":5.35077,"is_reserved":false,"is_disabled":false,"rental_uris":{"android":"levelo://app?vid=a322f25f-f3be-412d-b049-4b187fa2a7db","ios":"levelo://app?vid=a322f25f-f3be-412d-b049-4b187fa2a7db"},"vehicle_type_id":"4","last_reported":1749654712,"current_range_meters":20000,"station_id":"ce4bhbp2rcd13ifvqerg","pricing_plan_id":"cebpf4jnsgd1na2vs0mg"},{"bike_id":"184f9a33-fa9c-4236-9ce3-1ff5c1faa753","system_id":"levelo_inurba_marseille","lat":43.28243,"lon":5.3524,"is_reserved":false,"is_disabled":false,"rental_uris":{"android":"levelo://app?vid=184f9a33-fa9c-4236-9ce3-1ff5c1faa753","ios":"levelo://app?vid=184f9a33-fa9c-4236-9ce3-1ff5c1faa753"},"vehicle_type_id":"4","last_reported":1749654712,"current_range_meters":20000,"station_id":"","pricing_plan_id":"cebpf4jnsgd1na2vs0mg"},{"bike_id":"b3a13eb4-b9e9-4345-948e-2b40fc5e6633","system_id":"levelo_inurba_marseille","lat":43.31062,"lon":5.38342,"is_reserved":false,"is_disabled":false,"rental_uris":{"android":"levelo://app?vid=b3a13eb4-b9e9-4345-948e-2b40fc5e6633","ios":"levelo://app?vid=b3a13eb4-b9e9-4345-948e-2b40fc5e6633"},"vehicle_type_id":"4","last_reported":1749654712,"current_range_meters":20000,"station_id":"ce4bgv92rcd13ifvqcr0","pricing_plan_id":"cebpf4jnsgd1na2vs0mg"},{"bike_id":"a5780e05-0cb9-498f-833b-d09a36dfc72e","system_id":"levelo_inurba_marseille","lat":43.28292,"lon":5.35125,"is_reserved":false,"is_disabled":false,"rental_uris":{"android":"levelo://app?vid=a5780e05-0cb9-498f-833b-d09a36dfc72e","ios":"levelo://app?vid=a5780e05-0cb9-498f-833b-d09a36dfc72e"},"vehicle_type_id":"4","last_reported":1749654712,"current_range_meters":20000,"station_id":"","pricing_plan_id":"cebpf4jnsgd1na2vs0mg"},{"bike_id":"2129ebf9-6f03-47b8-b81c-b26b70a5073d","system_id":"levelo_inurba_marseille","lat":43.29715,"lon":5.37689,"is_reserved":false,"is_disabled":false,"rental_uris":{"android":"levelo://app?vid=2129ebf9-6f03-47b8-b81c-b26b70a5073d","ios":"levelo://app?vid=2129ebf9-6f03-47b8-b81c-b26b70a5073d"},"vehicle_type_id":"4","last_reported":1749654712,"current_range_meters":20400,"station_id":"ce4bgkh2rcd13ifvqbl0","pricing_plan_id":"cebpf4jnsgd1na2vs0mg"},{"bike_id":"2276c90b-1abb-4801-97fa-4b4a67305a9b","system_id":"levelo_inurba_marseille","lat":43.28261,"lon":5.35095,"is_reserved":false,"is_disabled":false,"rental_uris":{"android":"levelo://app?vid=2276c90b-1abb-4801-97fa-4b4a67305a9b","ios":"levelo://app?vid=2276c90b-1abb-4801-97fa-4b4a67305a9b"},"vehicle_type_id":"4","last_reported":1749654712,"current_range_meters":20000,"station_id":"ce4bhbp2rcd13ifvqerg","pricing_plan_id":"cebpf4jnsgd1na2vs0mg"},{"bike_id":"53371f4a-d27c-4b2a-8475-ef50516f5a14","system_id":"levelo_inurba_marseille","lat":43.25572,"lon":5.38218,"is_reserved":false,"is_disabled":false,"rental_uris":{"android":"levelo://app?vid=53371f4a-d27c-4b2a-8475-ef50516f5a14","ios":"levelo://app?vid=53371f4a-d27c-4b2a-8475-ef50516f5a14"},"vehicle_type_id":"4","last_reported":1749654712,"current_range_meters":20400,"station_id":"ce4bhih2rcd13ifvqfs0","pricing_plan_id":"cebpf4jnsgd1na2vs0mg"},{"bike_id":"1268e070-f02d-4537-93df-0bfd5c4daa05","system_id":"levelo_inurba_marseille","lat":43.327,"lon":5.37683,"is_reserved":false,"is_disabled":false,"rental_uris":{"android":"levelo://app?vid=1268e070-f02d-4537-93df-0bfd5c4daa05","ios":"levelo://app?vid=1268e070-f02d-4537-93df-0bfd5c4daa05"},"vehicle_type_id":"4","last_reported":1749654712,"current_range_meters":20400,"station_id":"","pricing_plan_id":"cebpf4jnsgd1na2vs0mg"},{"bike_id":"c96a7954-df15-4c22-a118-9fb65f20cc61","system_id":"levelo_inurba_marseille","lat":43.284077,"lon":5.349853,"is_reserved":false,"is_disabled":false,"rental_uris":{"android":"levelo://app?vid=c96a7954-df15-4c22-a118-9fb65f20cc61","ios":"levelo://app?vid=c96a7954-df15-4c22-a118-9fb65f20cc61"},"vehicle_type_id":"4","last_reported":1749654712,"current_range_meters":20400,"station_id":"ce4bhbh2rcd13ifvqepg","pricing_plan_id":"cebpf4jnsgd1na2vs0mg"},{"bike_id":"370660a5-3b67-44bc-a063-7ed69ca0ea8a","system_id":"levelo_inurba_marseille","lat":43.32335,"lon":5.40623,"is_reserved":false,"is_disabled":false,"rental_uris":{"android":"levelo://app?vid=370660a5-3b67-44bc-a063-7ed69ca0ea8a","ios":"levelo://app?vid=370660a5-3b67-44bc-a063-7ed69ca0ea8a"},"vehicle_type_id":"4","last_reported":1749654712,"current_range_meters":20400,"station_id":"ce4bhq92rcd13ifvqhjg","pricing_plan_id":"cebpf4jnsgd1na2vs0mg"},{"bike_id":"eddef02d-0e40-4d93-8735-f733c261e6a6","system_id":"levelo_inurba_marseille","lat":43.217514,"lon":5.345985,"is_reserved":false,"is_disabled":false,"rental_uris":{"android":"levelo://app?vid=eddef02d-0e40-4d93-8735-f733c261e6a6","ios":"levelo://app?vid=eddef02d-0e40-4d93-8735-f733c261e6a6"},"vehicle_type_id":"4","last_reported":1749654712,"current_range_meters":20400,"station_id":"st_cvj6r9ubvosntc0bgbag","pricing_plan_id":"cebpf4jnsgd1na2vs0mg"},{"bike_id":"346f3f80-6b15-4406-b905-bb78596f5bac","system_id":"levelo_inurba_marseille","lat":43.32365,"lon":5.36762,"is_reserved":false,"is_disabled":false,"rental_uris":{"android":"levelo://app?vid=346f3f80-6b15-4406-b905-bb78596f5bac","ios":"levelo://app?vid=346f3f80-6b15-4406-b905-bb78596f5bac"},"vehicle_type_id":"4","last_reported":1749654712,"current_range_meters":20400,"station_id":"ce4bhsh2rcd13ifvqi2g","pricing_plan_id":"cebpf4jnsgd1na2vs0mg"},{"bike_id":"fda8c9a5-12ba-444a-b338-669d2a7622ec","system_id":"levelo_inurba_marseille","lat":43.24079,"lon":5.37762,"is_reserved":false,"is_disabled":false,"rental_uris":{"android":"levelo://app?vid=fda8c9a5-12ba-444a-b338-669d2a7622ec","ios":"levelo://app?vid=fda8c9a5-12ba-444a-b338-669d2a7622ec"},"vehicle_type_id":"4","last_reported":1749654712,"current_range_meters":20400,"station_id":"ce4bhnp2rcd13ifvqgvg","pricing_plan_id":"cebpf4jnsgd1na2vs0mg"},{"bike_id":"5bfc75b9-0af8-4b15-add9-3e31bdf4f36b","system_id":"levelo_inurba_marseille","lat":43.3188,"lon":5.40735,"is_reserved":false,"is_disabled":false,"rental_uris":{"android":"levelo://app?vid=5bfc75b9-0af8-4b15-add9-3e31bdf4f36b","ios":"levelo://app?vid=5bfc75b9-0af8-4b15-add9-3e31bdf4f36b"},"vehicle_type_id":"4","last_reported":1749654712,"current_range_meters":20800,"station_id":"ce4bhq12rcd13ifvqhig","pricing_plan_id":"cebpf4jnsgd1na2vs0mg"},{"bike_id":"43ad5c6c-e193-4d99-8e28-b0a1f4fa08a9","system_id":"levelo_inurba_marseille","lat":43.27069,"lon":5.4228,"is_reserved":false,"is_disabled":false,"rental_uris":{"android":"levelo://app?vid=43ad5c6c-e193-4d99-8e28-b0a1f4fa08a9","ios":"levelo://app?vid=43ad5c6c-e193-4d99-8e28-b0a1f4fa08a9"},"vehicle_type_id":"4","last_reported":1749654712,"current_range_meters":20400,"station_id":"ce4bhk92rcd13ifvqgb0","pricing_plan_id":"cebpf4jnsgd1na2vs0mg"},{"bike_id":"48711ea2-c332-42b3-844c-149fab9ce392","system_id":"levelo_inurba_marseille","lat":43.27053,"lon":5.4026,"is_reserved":false,"is_disabled":false,"rental_uris":{"android":"levelo://app?vid=48711ea2-c332-42b3-844c-149fab9ce392","ios":"levelo://app?vid=48711ea2-c332-42b3-844c-149fab9ce392"},"vehicle_type_id":"4","last_reported":1749654712,"current_range_meters":20800,"station_id":"ce4bhk92rcd13ifvqgc0","pricing_plan_id":"cebpf4jnsgd1na2vs0mg"},{"bike_id":"25789c0b-6211-4a5b-a7f6-b827c3afdb2d","system_id":"levelo_inurba_marseille","lat":43.29868,"lon":5.389,"is_reserved":false,"is_disabled":false,"rental_uris":{"android":"levelo://app?vid=25789c0b-6211-4a5b-a7f6-b827c3afdb2d","ios":"levelo://app?vid=25789c0b-6211-4a5b-a7f6-b827c3afdb2d"},