{"last_updated":1722179256,"ttl":30,"version":"2.2","data":{"bikes":[{"bike_id":"dcc85088-63a5-459f-a2a4-2f4d8f4a3822","system_id":"levelo_inurba_marseille","lat":43.312239,"lon":5.368562,"is_reserved":false,"is_disabled":false,"rental_uris":{"android":"levelo://app?vid=dcc85088-63a5-459f-a2a4-2f4d8f4a3822","ios":"levelo://app?vid=dcc85088-63a5-459f-a2a4-2f4d8f4a3822"},"vehicle_type_id":"4","last_reported":1722179256,"current_range_meters":800,"station_id":"ce4bgl92rcd13ifvqbq0","pricing_plan_id":"cebpf4jnsgd1na2vs0mg"},{"bike_id":"6c8730d7-1a63-4a37-b240-06bde3b3828a","system_id":"levelo_inurba_marseille","lat":43.31229,"lon":5.36861,"is_reserved":false,"is_disabled":false,"rental_uris":{"android":"levelo://app?vid=6c8730d7-1a63-4a37-b240-06bde3b3828a","ios":"levelo://app?vid=6c8730d7-1a63-4a37-b240-06bde3b3828a"},"vehicle_type_id":"4","last_reported":1722179256,"current_range_meters":24000,"station_id":"ce4bgl92rcd13ifvqbq0","pricing_plan_id":"cebpf4jnsgd1na2vs0mg"},{"bike_id":"271558cb-fef1-40f1-b045-8eba2a5786e2","system_id":"levelo_inurba_marseille","lat":43.312239,"lon":5.368562,"is_reserved":false,"is_disabled":false,"rental_uris":{"android":"levelo://app?vid=271558cb-fef1-40f1-b045-8eba2a5786e2","ios":"levelo://app?vid=271558cb-fef1-40f1-b045-8eba2a5786e2"},"vehicle_type_id":"4","last_reported":1722179256,"current_range_meters":2400,"station_id":"ce4bgl92rcd13ifvqbq0","pricing_plan_id":"cebpf4jnsgd1na2vs0mg"},{"bike_id":"978a0795-7438-4c64-9a6a-b1e426d188d6","system_id":"levelo_inurba_marseille","lat":43.317501,"lon":5.368734,"is_reserved":false,"is_disabled":false,"rental_uris":{"android":"levelo://app?vid=978a0795-7438-4c64-9a6a-b1e426d188d6","ios":"levelo://app?vid=978a0795-7438-4c64-9a6a-b1e426d188d6"},"vehicle_type_id":"4","last_reported":1722179256,"current_range_meters":2000,"station_id":"","pricing_plan_id":"cebpf4jnsgd1na2vs0mg"},{"bike_id":"99850872-f5fa-4367-8e27-844bad9ca648","system_id":"levelo_inurba_marseille","lat":43.31496,"lon":5.37319,"is_reserved":false,"is_disabled":false,"rental_uris":{"android":"levelo://app?vid=99850872-f5fa-4367-8e27-844bad9ca648","ios":"levelo://app?vid=99850872-f5fa-4367-8e27-844bad9ca648"},"vehicle_type_id":"4","last_reported":1722179256,"current_range_meters":13600,"station_id":"ce4bgt12rcd13ifvqcd0","pricing_plan_id":"cebpf4jnsgd1na2vs0mg"},{"bike_id":"ba10a556-6729-416d-bd3c-8d2a05d36a2c","system_id":"levelo_inurba_marseille","lat":43.305712,"lon":5.365641,"is_reserved":false,"is_disabled":false,"rental_uris":{"android":"levelo://app?vid=ba10a556-6729-416d-bd3c-8d2a05d36a2c","ios":"levelo://app?vid=ba10a556-6729-416d-bd3c-8d2a05d36a2c"},"vehicle_type_id":"4","last_reported":1722179256,"current_range_meters":400,"station_id":"ce4bgs12rcd13ifvqcag","pricing_plan_id":"cebpf4jnsgd1na2vs0mg"},{"bike_id":"e31b7490-3e3e-448d-983c-d14bde2bf611","system_id":"levelo_inurba_marseille","lat":43.30706,"lon":5.37307,"is_reserved":false,"is_disabled":false,"rental_uris":{"android":"levelo://app?vid=e31b7490-3e3e-448d-983c-d14bde2bf611","ios":"levelo://app?vid=e31b7490-3e3e-448d-983c-d14bde2bf611"},"vehicle_type_id":"4","last_reported":1722179256,"current_range_meters":2800,"station_id":"","pricing_plan_id":"cebpf4jnsgd1na2vs0mg"},{"bike_id":"2d8fd02b-c68d-484f-9c6a-4923d2a9fd5b","system_id":"levelo_inurba_marseille","lat":43.316682,"lon":5.375264,"is_reserved":false,"is_disabled":false,"rental_uris":{"android":"levelo://app?vid=2d8fd02b-c68d-484f-9c6a-4923d2a9fd5b","ios":"levelo://app?vid=2d8fd02b-c68d-484f-9c6a-4923d2a9fd5b"},"vehicle_type_id":"4","last_reported":1722179256,"current_range_meters":27200,"station_id":"","pricing_plan_id":"cebpf4jnsgd1na2vs0mg"},{"bike_id":"fd17bc1a-9536-42e4-9601-3ca69577c3e0","system_id":"levelo_inurba_marseille","lat":43.305714,"lon":5.365633,"is_reserved":false,"is_disabled":false,"rental_uris":{"android":"levelo://app?vid=fd17bc1a-9536-42e4-9601-3ca69577c3e0","ios":"levelo://app?vid=fd17bc1a-9536-42e4-9601-3ca69577c3e0"},"vehicle_type_id":"4","last_reported":1722179256,"current_range_meters":0,"station_id":"ce4bgs12rcd13ifvqcag","pricing_plan_id":"cebpf4jnsgd1na2vs0mg"},{"bike_id":"1f5af9fb-90ae-4e24-acce-519b904483e3","system_id":"levelo_inurba_marseille","lat":43.30537,"lon":5.367345,"is_reserved":false,"is_disabled":false,"rental_uris":{"android":"levelo://app?vid=1f5af9fb-90ae-4e24-acce-519b904483e3","ios":"levelo://app?vid=1f5af9fb-90ae-4e24-acce-519b904483e3"},"vehicle_type_id":"4","last_reported":1722179256,"current_range_meters":1200,"station_id":"ce4bgrp2rcd13ifvqc9g","pricing_plan_id":"cebpf4jnsgd1na2vs0mg"},{"bike_id":"4fe40310-5593-4568-b3c6-4671205692fc","system_id":"levelo_inurba_marseille","lat":43.305368,"lon":5.367343,"is_reserved":false,"is_disabled":false,"rental_uris":{"android":"levelo://app?vid=4fe40310-5593-4568-b3c6-4671205692fc","ios":"levelo://app?vid=4fe40310-5593-4568-b3c6-4671205692fc"},"vehicle_type_id":"4","last_reported":1722179256,"current_range_meters":20400,"station_id":"ce4bgrp2rcd13ifvqc9g","pricing_plan_id":"cebpf4jnsgd1na2vs0mg"},{"bike_id":"5c6d272c-c311-46d6-9924-ceb414d30c1e","system_id":"levelo_inurba_marseille","lat":43.307945,"lon":5.376487,"is_reserved":false,"is_disabled":false,"rental_uris":{"android":"levelo://app?vid=5c6d272c-c311-46d6-9924-ceb414d30c1e","ios":"levelo://app?vid=5c6d272c-c311-46d6-9924-ceb414d30c1e"},"vehicle_type_id":"4","last_reported":1722179256,"current_range_meters":1200,"station_id":"ce4bgv92rcd13ifvqcq0","pricing_plan_id":"cebpf4jnsgd1na2vs0mg"},{"bike_id":"000068f8-b552-4ec0-98f0-ad4180e67735","system_id":"levelo_inurba_marseille","lat":43.304606,"lon":5.379026,"is_reserved":false,"is_disabled":false,"rental_uris":{"android":"levelo://app?vid=000068f8-b552-4ec0-98f0-ad4180e67735","ios":"levelo://app?vid=000068f8-b552-4ec0-98f0-ad4180e67735"},"vehicle_type_id":"4","last_reported":1722179256,"current_range_meters":11200,"station_id":"ce4bgup2rcd13ifvqcn0","pricing_plan_id":"cebpf4jnsgd1na2vs0mg"},{"bike_id":"a331118d-f6d6-4c9d-8790-311182fb216a","system_id":"levelo_inurba_marseille","lat":43.304606,"lon":5.379026,"is_reserved":false,"is_disabled":false,"rental_uris":{"android":"levelo://app?vid=a331118d-f6d6-4c9d-8790-311182fb216a","ios":"levelo://app?vid=a331118d-f6d6-4c9d-8790-311182fb216a"},"vehicle_type_id":"4","last_reported":1722179256,"current_range_meters":6000,"station_id":"ce4bgup2rcd13ifvqcn0","pricing_plan_id":"cebpf4jnsgd1na2vs0mg"},{"bike_id":"109906a7-98bc-4f02-a31d-2de2f5b21c43","system_id":"levelo_inurba_marseille","lat":43.324771,"lon":5.36557,"is_reserved":false,"is_disabled":false,"rental_uris":{"android":"levelo://app?vid=109906a7-98bc-4f02-a31d-2de2f5b21c43","ios":"levelo://app?vid=109906a7-98bc-4f02-a31d-2de2f5b21c43"},"vehicle_type_id":"4","last_reported":1722179256,"current_range_meters":29200,"station_id":"ce4bhs12rcd13ifvqhvg","pricing_plan_id":"cebpf4jnsgd1na2vs0mg"},{"bike_id":"fab94295-f288-41d0-bda0-bd7eba7a7aa9","system_id":"levelo_inurba_marseille","lat":43.32479,"lon":5.36573,"is_reserved":false,"is_disabled":false,"rental_uris":{"android":"levelo://app?vid=fab94295-f288-41d0-bda0-bd7eba7a7aa9","ios":"levelo://app?vid=fab94295-f288-41d0-bda0-bd7eba7a7aa9"},"vehicle_type_id":"4","last_reported":1722179256,"current_range_meters":27200,"station_id":"ce4bhs12rcd13ifvqhvg","pricing_plan_id":"cebpf4jnsgd1na2vs0mg"},{"bike_id":"8add2df5-9e48-4842-a4c4-c9ad89537666","system_id":"levelo_inurba_marseille","lat":43.310804,"lon":5.38359,"is_reserved":false,"is_disabled":false,"rental_uris":{"android":"levelo://app?vid=8add2df5-9e48-4842-a4c4-c9ad89537666","ios":"levelo://app?vid=8add2df5-9e48-4842-a4c4-c9ad89537666"},"vehicle_type_id":"4","last_reported":1722179256,"current_range_meters":0,"station_id":"ce4bgv92rcd13ifvqcr0","pricing_plan_id":"cebpf4jnsgd1na2vs0mg"},{"bike_id":"12ac87c1-2a61-4acf-94d2-8551a6539d3b","system_id":"levelo_inurba_marseille","lat":43.302784,"lon":5.377158,"is_reserved":false,"is_disabled":false,"rental_uris":{"android":"levelo://app?vid=12ac87c1-2a61-4acf-94d2-8551a6539d3b","ios":"levelo://app?vid=12ac87c1-2a61-4acf-94d2-8551a6539d3b"},"vehicle_type_id":"4","last_reported":1722179256,"current_range_meters":6800,"station_id":"ce4bguh2rcd13ifvqcj0","pricing_plan_id":"cebpf4jnsgd1na2vs0mg"},{"bike_id":"a6244e35-0d73-436e-ac68-2bc25b59d36f","system_id":"levelo_inurba_marseille","lat":43.301429,"lon":5.37413,"is_reserved":false,"is_disabled":false,"rental_uris":{"android":"levelo://app?vid=a6244e35-0d73-436e-ac68-2bc25b59d36f","ios":"levelo://app?vid=a6244e35-0d73-436e-ac68-2bc25b59d36f"},"vehicle_type_id":"4","last_reported":1722179256,"current_range_meters":0,"station_id":"ce4bgs92rcd13ifvqcc0","pricing_plan_id":"cebpf4jnsgd1na2vs0mg"},{"bike_id":"ad79e0f0-b9ac-4a91-8053-43fba5bcdb54","system_id":"levelo_inurba_marseille","lat":43.301429,"lon":5.37413,"is_reserved":false,"is_disabled":false,"rental_uris":{"android":"levelo://app?vid=ad79e0f0-b9ac-4a91-8053-43fba5bcdb54","ios":"levelo://app?vid=ad79e0f0-b9ac-4a91-8053-43fba5bcdb54"},"vehicle_type_id":"4","last_reported":1722179256,"current_range_meters":25200,"station_id":"ce4bgs92rcd13ifvqcc0","pricing_plan_id":"cebpf4jnsgd1na2vs0mg"},{"bike_id":"64efb8ba-933f-47fc-b58f-b13d857f90b0","system_id":"levelo_inurba_marseille","lat":43.31612,"lon":5.38393,"is_reserved":false,"is_disabled":false,"rental_uris":{"android":"levelo://app?vid=64efb8ba-933f-47fc-b58f-b13d857f90b0","ios":"levelo://app?vid=64efb8ba-933f-47fc-b58f-b13d857f90b0"},"vehicle_type_id":"4","last_reported":1722179256,"current_range_meters":28400,"station_id":"","pricing_plan_id":"cebpf4jnsgd1na2vs0mg"},{"bike_id":"34d5f260-e33f-4b30-b4e5-1d675d64a8a0","system_id":"levelo_inurba_marseille","lat":43.319935,"lon":5.381699,"is_reserved":false,"is_disabled":false,"rental_uris":{"android":"levelo://app?vid=34d5f260-e33f-4b30-b4e5-1d675d64a8a0","ios":"levelo://app?vid=34d5f260-e33f-4b30-b4e5-1d675d64a8a0"},"vehicle_type_id":"4","last_reported":1722179256,"current_range_meters":8800,"station_id":"ce4bhr12rcd13ifvqhpg","pricing_plan_id":"cebpf4jnsgd1na2vs0mg"},{"bike_id":"ba751eab-e386-4f42-b81e-204bfba1b413","system_id":"levelo_inurba_marseille","lat":43.319935,"lon":5.381699,"is_reserved":false,"is_disabled":false,"rental_uris":{"android":"levelo://app?vid=ba751eab-e386-4f42-b81e-204bfba1b413","ios":"levelo://app?vid=ba751eab-e386-4f42-b81e-204bfba1b413"},"vehicle_type_id":"4","last_reported":1722179256,"current_range_meters":24800,"station_id":"ce4bhr12rcd13ifvqhpg","pricing_plan_id":"cebpf4jnsgd1na2vs0mg"},{"bike_id":"8afa1b4f-88c8-4361-bb52-857a44d46615","system_id":"levelo_inurba_marseille","lat":43.299222,"lon":5.365554,"is_reserved":false,"is_disabled":false,"rental_uris":{"android":"levelo://app?vid=8afa1b4f-88c8-4361-bb52-857a44d46615","ios":"levelo://app?vid=8afa1b4f-88c8-4361-bb52-857a44d46615"},"vehicle_type_id":"4","last_reported":1722179256,"current_range_meters":1200,"station_id":"ce4bgm92rcd13ifvqbr0","pricing_plan_id":"cebpf4jnsgd1na2vs0mg"},{"bike_id":"154e3c08-46a0-40bc-952a-60edebf5127d","system_id":"levelo_inurba_marseille","lat":43.299222,"lon":5.365554,"is_reserved":false,"is_disabled":false,"rental_uris":{"android":"levelo://app?vid=154e3c08-46a0-40bc-952a-60edebf5127d","ios":"levelo://app?vid=154e3c08-46a0-40bc-952a-60edebf5127d"},"vehicle_type_id":"4","last_reported":1722179256,"current_range_meters":8800,"station_id":"ce4bgm92rcd13ifvqbr0","pricing_plan_id":"cebpf4jnsgd1na2vs0mg"},{"bike_id":"7e24ee44-ccdd-4e91-b810-3ba97f1ca433","system_id":"levelo_inurba_marseille","lat":43.299222,"lon":5.365554,"is_reserved":false,"is_disabled":false,"rental_uris":{"android":"levelo://app?vid=7e24ee44-ccdd-4e91-b810-3ba97f1ca433","ios":"levelo://app?vid=7e24ee44-ccdd-4e91-b810-3ba97f1ca433"},"vehicle_type_id":"4","last_reported":1722179256,"current_range_meters":1600,"station_id":"ce4bgm92rcd13ifvqbr0","pricing_plan_id":"cebpf4jnsgd1na2vs0mg"},{"bike_id":"9ec1dc84-5e9c-40e8-af26-07b97b032fb6","system_id":"levelo_inurba_marseille","lat":43.29856,"lon":5.36294,"is_reserved":false,"is_disabled":false,"rental_uris":{"android":"levelo://app?vid=9ec1dc84-5e9c-40e8-af26-07b97b032fb6","ios":"levelo://app?vid=9ec1dc84-5e9c-40e8-af26-07b97b032fb6"},"vehicle_type_id":"4","last_reported":1722179256,"current_range_meters":4000,"station_id":"ce4bgpp2rcd13ifvqc3g","pricing_plan_id":"cebpf4jnsgd1na2vs0mg"},{"bike_id":"14a2c56d-8773-4f40-bb70-64d42998808a","system_id":"levelo_inurba_marseille","lat":43.299243,"lon":5.374807,"is_reserved":false,"is_disabled":false,"rental_uris":{"android":"levelo://app?vid=14a2c56d-8773-4f40-bb70-64d42998808a","ios":"levelo://app?vid=14a2c56d-8773-4f40-bb70-64d42998808a"},"vehicle_type_id":"4","last_reported":1722179256,"current_range_meters":17200,"station_id":"ce4bgjh2rcd13ifvqbg0","pricing_plan_id":"cebpf4jnsgd1na2vs0mg"},{"bike_id":"5040a1cb-7412-49b4-8f97-2a2c8e83b4ee","system_id":"levelo_inurba_marseille","lat":43.311722,"lon":5.387247,"is_reserved":false,"is_disabled":false,"rental_uris":{"android":"levelo://app?vid=5040a1cb-7412-49b4-8f97-2a2c8e83b4ee","ios":"levelo://app?vid=5040a1cb-7412-49b4-8f97-2a2c8e83b4ee"},"vehicle_type_id":"4","last_reported":1722179256,"current_range_meters":7200,"station_id":"ce4bgv12rcd13ifvqcp0","pricing_plan_id":"cebpf4jnsgd1na2vs0mg"},{"bike_id":"5c5efd09-5497-4031-9c71-3477073f6e29","system_id":"levelo_inurba_marseille","lat":43.311722,"lon":5.387247,"is_reserved":false,"is_disabled":false,"rental_uris":{"android":"levelo://app?vid=5c5efd09-5497-4031-9c71-3477073f6e29","ios":"levelo://app?vid=5c5efd09-5497-4031-9c71-3477073f6e29"},"vehicle_type_id":"4","last_reported":1722179256,"current_range_meters":15600,"station_id":"ce4bgv12rcd13ifvqcp0","pricing_plan_id":"cebpf4jnsgd1na2vs0mg"},{"bike_id":"fdcb936c-9222-45a7-bc64-343ffb01a419","system_id":"levelo_inurba_marseille","lat":43.311722,"lon":5.387247,"is_reserved":false,"is_disabled":false,"rental_uris":{"android":"levelo://app?vid=fdcb936c-9222-45a7-bc64-343ffb01a419","ios":"levelo://app?vid=fdcb936c-9222-45a7-bc64-343ffb01a419"},"vehicle_type_id":"4","last_reported":1722179256,"current_range_meters":12400,"station_id":"ce4bgv12rcd13ifvqcp0","pricing_plan_id":"cebpf4jnsgd1na2vs0mg"},{"bike_id":"97ea167d-a595-4157-b14e-1f1a0da24c19","system_id":"levelo_inurba_marseille","lat":43.311722,"lon":5.387247,"is_reserved":false,"is_disabled":false,"rental_uris":{"android":"levelo://app?vid=97ea167d-a595-4157-b14e-1f1a0da24c19","ios":"levelo://app?vid=97ea167d-a595-4157-b14e-1f1a0da24c19"},"vehicle_type_id":"4","last_reported":1722179256,"current_range_meters":3200,"station_id":"ce4bgv12rcd13ifvqcp0","pricing_plan_id":"cebpf4jnsgd1na2vs0mg"},{"bike_id":"4ca1bf4c-2b98-40e3-926a-f00e31cfe706","system_id":"levelo_inurba_marseille","lat":43.297794,"lon":5.370888,"is_reserved":false,"is_disabled":false,"rental_uris":{"android":"levelo://app?vid=4ca1bf4c-2b98-40e3-926a-f00e31cfe706","ios":"levelo://app?vid=4ca1bf4c-2b98-40e3-926a-f00e31cfe706"},"vehicle_type_id":"4","last_reported":1722179256,"current_range_meters":18400,"station_id":"ce4bgop2rcd13ifvqc1g","pricing_plan_id":"cebpf4jnsgd1na2vs0mg"},{"bike_id":"271e9858-b3db-464b-a1a0-6263dd2ebddb","system_id":"levelo_inurba_marseille","lat":43.297794,"lon":5.370888,"is_reserved":false,"is_disabled":false,"rental_uris":{"android":"levelo://app?vid=271e9858-b3db-464b-a1a0-6263dd2ebddb","ios":"levelo://app?vid=271e9858-b3db-464b-a1a0-6263dd2ebddb"},"vehicle_type_id":"4","last_reported":1722179256,"current_range_meters":16000,"station_id":"ce4bgop2rcd13ifvqc1g","pricing_plan_id":"cebpf4jnsgd1na2vs0mg"},{"bike_id":"22e41778-51bb-4239-91a8-cf2d50ed1db8","system_id":"levelo_inurba_marseille","lat":43.31894,"lon":5.38638,"is_reserved":false,"is_disabled":false,"rental_uris":{"android":"levelo://app?vid=22e41778-51bb-4239-91a8-cf2d50ed1db8","ios":"levelo://app?vid=22e41778-51bb-4239-91a8-cf2d50ed1db8"},"vehicle_type_id":"4","last_reported":1722179256,"current_range_meters":27600,"station_id":"","pricing_plan_id":"cebpf4jnsgd1na2vs0mg"},{"bike_id":"77ebd6f7-0e15-4246-8feb-b1d720ac899a","system_id":"levelo_inurba_marseille","lat":43.30059,"lon":5.38222,"is_reserved":false,"is_disabled":false,"rental_uris":{"android":"levelo://app?vid=77ebd6f7-0e15-4246-8feb-b1d720ac899a","ios":"levelo://app?vid=77ebd6f7-0e15-4246-8feb-b1d720ac899a"},"vehicle_type_id":"4","last_reported":1722179256,"current_range_meters":14800,"station_id":"","pricing_plan_id":"cebpf4jnsgd1na2vs0mg"},{"bike_id":"19791f7c-16ca-4ad0-86e5-0cbacc523633","system_id":"levelo_inurba_marseille","lat":43.296873,"lon":5.37364,"is_reserved":false,"is_disabled":false,"rental_uris":{"android":"levelo://app?vid=19791f7c-16ca-4ad0-86e5-0cbacc523633","ios":"levelo://app?vid=19791f7c-16ca-4ad0-86e5-0cbacc523633"},"vehicle_type_id":"4","last_reported":1722179256,"current_range_meters":26000,"station_id":"","pricing_plan_id":"cebpf4jnsgd1na2vs0mg"},{"bike_id":"7096ac2a-1c3c-4b88-b37f-e5a4264b4bec","system_id":"levelo_inurba_marseille","lat":43.29588,"lon":5.3675,"is_reserved":false,"is_disabled":false,"rental_uris":{"android":"levelo://app?vid=7096ac2a-1c3c-4b88-b37f-e5a4264b4bec","ios":"levelo://app?vid=7096ac2a-1c3c-4b88-b37f-e5a4264b4bec"},"vehicle_type_id":"4","last_reported":1722179256,"current_range_meters":0,"station_id":"ce4bgph2rcd13ifvqc2g","pricing_plan_id":"cebpf4jnsgd1na2vs0mg"},{"bike_id":"5311fc14-27ba-4695-baf9-5b3ad0deb1f5","system_id":"levelo_inurba_marseille","lat":43.296921,"lon":5.376579,"is_reserved":false,"is_disabled":false,"rental_uris":{"android":"levelo://app?vid=5311fc14-27ba-4695-baf9-5b3ad0deb1f5","ios":"levelo://app?vid=5311fc14-27ba-4695-baf9-5b3ad0deb1f5"},"vehicle_type_id":"4","last_reported":1722179256,"current_range_meters":31200,"station_id":"ce4bgkh2rcd13ifvqbl0","pricing_plan_id":"cebpf4jnsgd1na2vs0mg"},{"bike_id":"7a46cb3f-bfd9-4ab1-8d48-0ab6e238fcfa","system_id":"levelo_inurba_marseille","lat":43.29615,"lon":5.36131,"is_reserved":false,"is_disabled":false,"rental_uris":{"android":"levelo://app?vid=7a46cb3f-bfd9-4ab1-8d48-0ab6e238fcfa","ios":"levelo://app?vid=7a46cb3f-bfd9-4ab1-8d48-0ab6e238fcfa"},"vehicle_type_id":"4","last_reported":1722179256,"current_range_meters":26000,"station_id":"","pricing_plan_id":"cebpf4jnsgd1na2vs0mg"},{"bike_id":"815b68cd-3c35-467c-acf4-5e0dffcf33b5","system_id":"levelo_inurba_marseille","lat":43.29917,"lon":5.38137,"is_reserved":false,"is_disabled":false,"rental_uris":{"android":"levelo://app?vid=815b68cd-3c35-467c-acf4-5e0dffcf33b5","ios":"levelo://app?vid=815b68cd-3c35-467c-acf4-5e0dffcf33b5"},"vehicle_type_id":"4","last_reported":1722179256,"current_range_meters":0,"station_id":"ce4bgj12rcd13ifvqbc0","pricing_plan_id":"cebpf4jnsgd1na2vs0mg"},{"bike_id":"2c8735ad-64b9-466f-85f2-e1d3083a0ae3","system_id":"levelo_inurba_marseille","lat":43.299028,"lon":5.381509,"is_reserved":false,"is_disabled":false,"rental_uris":{"android":"levelo://app?vid=2c8735ad-64b9-466f-85f2-e1d3083a0ae3","ios":"levelo://app?vid=2c8735ad-64b9-466f-85f2-e1d3083a0ae3"},"vehicle_type_id":"4","last_reported":1722179256,"current_range_meters":0,"station_id":"ce4bgj12rcd13ifvqbc0","pricing_plan_id":"cebpf4jnsgd1na2vs0mg"},{"bike_id":"6515f95a-5f45-4135-912a-c2c4fb72819c","system_id":"levelo_inurba_marseille","lat":43.309589,"lon":5.390258,"is_reserved":false,"is_disabled":false,"rental_uris":{"android":"levelo://app?vid=6515f95a-5f45-4135-912a-c2c4fb72819c","ios":"levelo://app?vid=6515f95a-5f45-4135-912a-c2c4fb72819c"},"vehicle_type_id":"4","last_reported":1722179256,"current_range_meters":0,"station_id":"ce4bgup2rcd13ifvqco0","pricing_plan_id":"cebpf4jnsgd1na2vs0mg"},{"bike_id":"4f557fbe-1433-423e-924f-17d45e78b71b","system_id":"levelo_inurba_marseille","lat":43.309589,"lon":5.390258,"is_reserved":false,"is_disabled":false,"rental_uris":{"android":"levelo://app?vid=4f557fbe-1433-423e-924f-17d45e78b71b","ios":"levelo://app?vid=4f557fbe-1433-423e-924f-17d45e78b71b"},"vehicle_type_id":"4","last_reported":1722179256,"current_range_meters":18000,"station_id":"ce4bgup2rcd13ifvqco0","pricing_plan_id":"cebpf4jnsgd1na2vs0mg"},{"bike_id":"26fff7c4-5da7-433d-ac60-a3b8631696f1","system_id":"levelo_inurba_marseille","lat":43.30961,"lon":5.39039,"is_reserved":false,"is_disabled":false,"rental_uris":{"android":"levelo://app?vid=26fff7c4-5da7-433d-ac60-a3b8631696f1","ios":"levelo://app?vid=26fff7c4-5da7-433d-ac60-a3b8631696f1"},"vehicle_type_id":"4","last_reported":1722179256,"current_range_meters":1200,"station_id":"ce4bgup2rcd13ifvqco0","pricing_plan_id":"cebpf4jnsgd1na2vs0mg"},{"bike_id":"09076fce-9db7-4300-aed7-e74509e91ac7","system_id":"levelo_inurba_marseille","lat":43.309589,"lon":5.390258,"is_reserved":false,"is_disabled":false,"rental_uris":{"android":"levelo://app?vid=09076fce-9db7-4300-aed7-e74509e91ac7","ios":"levelo://app?vid=09076fce-9db7-4300-aed7-e74509e91ac7"},"vehicle_type_id":"4","last_reported":1722179256,"current_range_meters":14800,"station_id":"ce4bgup2rcd13ifvqco0","pricing_plan_id":"cebpf4jnsgd1na2vs0mg"},{"bike_id":"4496c404-3c32-4a6a-a8d4-fe28ae420eb9","system_id":"levelo_inurba_marseille","lat":43.317557,"lon":5.390173,"is_reserved":false,"is_disabled":false,"rental_uris":{"android":"levelo://app?vid=4496c404-3c32-4a6a-a8d4-fe28ae420eb9","ios":"levelo://app?vid=4496c404-3c32-4a6a-a8d4-fe28ae420eb9"},"vehicle_type_id":"4","last_reported":1722179256,"current_range_meters":31200,"station_id":"ce4bhqp2rcd13ifvqhng","pricing_plan_id":"cebpf4jnsgd1na2vs0mg"},{"bike_id":"7765f2f9-0a5b-45da-97e2-aceb9dd4dd25","system_id":"levelo_inurba_marseille","lat":43.317557,"lon":5.390173,"is_reserved":false,"is_disabled":false,"rental_uris":{"android":"levelo://app?vid=7765f2f9-0a5b-45da-97e2-aceb9dd4dd25","ios":"levelo://app?vid=7765f2f9-0a5b-45da-97e2-aceb9dd4dd25"},"vehicle_type_id":"4","last_reported":1722179256,"current_range_meters":16800,"station_id":"ce4bhqp2rcd13ifvqhng","pricing_plan_id":"cebpf4jnsgd1na2vs0mg"},{"bike_id":"d1c2a194-0f6e-4976-ae74-c1a3531c57d1","system_id":"levelo_inurba_marseille","lat":43.317557,"lon":5.390173,"is_reserved":false,"is_disabled":false,"rental_uris":{"android":"levelo://app?vid=d1c2a194-0f6e-4976-ae74-c1a3531c57d1","ios":"levelo://app?vid=d1c2a194-0f6e-4976-ae74-c1a3531c57d1"},"vehicle_type_id":"4","last_reported":1722179256,"current_range_meters":6800,"station_id":"ce4bhqp2rcd13ifvqhng","pricing_plan_id":"cebpf4jnsgd1na2vs0mg"},{"bike_id":"c442f73a-d361-4da3-9fde-5e644cb13510","system_id":"levelo_inurba_marseille","lat":43.29716,"lon":5.37899,"is_reserved":false,"is_disabled":false,"rental_uris":{"android":"levelo://app?vid=c442f73a-d361-4da3-9fde-5e644cb13510","ios":"levelo://app?vid=c442f73a-d361-4da3-9fde-5e644cb13510"},"vehicle_type_id":"4","last_reported":1722179256,"current_range_meters":28400,"station_id":"","pricing_plan_id":"cebpf4jnsgd1na2vs0mg"},{"bike_id":"7d43147c-d5c7-4acb-b23d-9803f5977c51","system_id":"levelo_inurba_marseille","lat":43.295748,"lon":5.37522,"is_reserved":false,"is_disabled":false,"rental_uris":{"android":"levelo://app?vid=7d43147c-d5c7-4acb-b23d-9803f5977c51","ios":"levelo://app?vid=7d43147c-d5c7-4acb-b23d-9803f5977c51"},"vehicle_type_id":"4","last_reported":1722179256,"current_range_meters":22400,"station_id":"ce4bgh92rcd13ifvqb50","pricing_plan_id":"cebpf4jnsgd1na2vs0mg"},{"bike_id":"a4897ab9-a936-411e-9511-fe8363df88c8","system_id":"levelo_inurba_marseille","lat":43.295748,"lon":5.37522,"is_reserved":false,"is_disabled":false,"rental_uris":{"android":"levelo://app?vid=a4897ab9-a936-411e-9511-fe8363df88c8","ios":"levelo://app?vid=a4897ab9-a936-411e-9511-fe8363df88c8"},"vehicle_type_id":"4","last_reported":1722179256,"current_range_meters":0,"station_id":"ce4bgh92rcd13ifvqb50","pricing_plan_id":"cebpf4jnsgd1na2vs0mg"},{"bike_id":"9db90bdb-dbc5-4896-804c-2c5ab8216325","system_id":"levelo_inurba_marseille","lat":43.30433,"lon":5.38891,"is_reserved":false,"is_disabled":false,"rental_uris":{"android":"levelo://app?vid=9db90bdb-dbc5-4896-804c-2c5ab8216325","ios":"levelo://app?vid=9db90bdb-dbc5-4896-804c-2c5ab8216325"},"vehicle_type_id":"4","last_reported":1722179256,"current_range_meters":8000,"station_id":"ce4bgk12rcd13ifvqbi0","pricing_plan_id":"cebpf4jnsgd1na2vs0mg"},{"bike_id":"3039ba27-082b-45b5-9b18-c2d973ab0040","system_id":"levelo_inurba_marseille","lat":43.303957,"lon":5.389077,"is_reserved":false,"is_disabled":false,"rental_uris":{"android":"levelo://app?vid=3039ba27-082b-45b5-9b18-c2d973ab0040","ios":"levelo://app?vid=3039ba27-082b-45b5-9b18-c2d973ab0040"},"vehicle_type_id":"4","last_reported":1722179256,"current_range_meters":14000,"station_id":"ce4bgk12rcd13ifvqbi0","pricing_plan_id":"cebpf4jnsgd1na2vs0mg"},{"bike_id":"423766c5-a260-4840-97a9-08b7ea7d1ca1","system_id":"levelo_inurba_marseille","lat":43.295279,"lon":5.375048,"is_reserved":false,"is_disabled":false,"rental_uris":{"android":"levelo://app?vid=423766c5-a260-4840-97a9-08b7ea7d1ca1","ios":"levelo://app?vid=423766c5-a260-4840-97a9-08b7ea7d1ca1"},"vehicle_type_id":"4","last_reported":1722179256,"current_range_meters":0,"station_id":"ce4bgkp2rcd13ifvqbmg","pricing_plan_id":"cebpf4jnsgd1na2vs0mg"},{"bike_id":"94c41bca-2f44-4df5-9238-7c883ea4355d","system_id":"levelo_inurba_marseille","lat":43.295279,"lon":5.375048,"is_reserved":false,"is_disabled":false,"rental_uris":{"android":"levelo://app?vid=94c41bca-2f44-4df5-9238-7c883ea4355d","ios":"levelo://app?vid=94c41bca-2f44-4df5-9238-7c883ea4355d"},"vehicle_type_id":"4","last_reported":1722179256,"current_range_meters":2800,"station_id":"ce4bgkp2rcd13ifvqbmg","pricing_plan_id":"cebpf4jnsgd1na2vs0mg"},{"bike_id":"6ffa35bc-a0ad-4319-90a4-9c6bf0326185","system_id":"levelo_inurba_marseille","lat":43.295279,"lon":5.375048,"is_reserved":false,"is_disabled":false,"rental_uris":{"android":"levelo://app?vid=6ffa35bc-a0ad-4319-90a4-9c6bf0326185","ios":"levelo://app?vid=6ffa35bc-a0ad-4319-90a4-9c6bf0326185"},"vehicle_type_id":"4","last_reported":1722179256,"current_range_meters":15200,"station_id":"ce4bgkp2rcd13ifvqbmg","pricing_plan_id":"cebpf4jnsgd1na2vs0mg"},{"bike_id":"6a60a62a-575f-4518-830c-e8e47c8b46dd","system_id":"levelo_inurba_marseille","lat":43.32367,"lon":5.388836,"is_reserved":false,"is_disabled":false,"rental_uris":{"android":"levelo://app?vid=6a60a62a-575f-4518-830c-e8e47c8b46dd","ios":"levelo://app?vid=6a60a62a-575f-4518-830c-e8e47c8b46dd"},"vehicle_type_id":"4","last_reported":1722179256,"current_range_meters":0,"station_id":"ce4bhqp2rcd13ifvqhog","pricing_plan_id":"cebpf4jnsgd1na2vs0mg"},{"bike_id":"c15b24c4-b77e-49a6-bf53-30269e940a61","system_id":"levelo_inurba_marseille","lat":43.32367,"lon":5.388836,"is_reserved":false,"is_disabled":false,"rental_uris":{"android":"levelo://app?vid=c15b24c4-b77e-49a6-bf53-30269e940a61","ios":"levelo://app?vid=c15b24c4-b77e-49a6-bf53-30269e940a61"},"vehicle_type_id":"4","last_reported":1722179256,"current_range_meters":8800,"station_id":"ce4bhqp2rcd13ifvqhog","pricing_plan_id":"cebpf4jnsgd1na2vs0mg"},{"bike_id":"fff9ce80-e3a6-4300-a750-f133cdb858c3","system_id":"levelo_inurba_marseille","lat":43.29351,"lon":5.37132,"is_reserved":false,"is_disabled":false,"rental_uris":{"android":"levelo://app?vid=fff9ce80-e3a6-4300-a750-f133cdb858c3","ios":"levelo://app?vid=fff9ce80-e3a6-4300-a750-f133cdb858c3"},"vehicle_type_id":"4","last_reported":1722179256,"current_range_meters":10400,"station_id":"","pricing_plan_id":"cebpf4jnsgd1na2vs0mg"},{"bike_id":"8da763fa-aeea-4879-a7da-dccfc3893849","system_id":"levelo_inurba_marseille","lat":43.29602,"lon":5.381084,"is_reserved":false,"is_disabled":false,"rental_uris":{"android":"levelo://app?vid=8da763fa-aeea-4879-a7da-dccfc3893849","ios":"levelo://app?vid=8da763fa-aeea-4879-a7da-dccfc3893849"},"vehicle_type_id":"4","last_reported":1722179256,"current_range_meters":0,"station_id":"ce4bgl12rcd13ifvqbo0","pricing_plan_id":"cebpf4jnsgd1na2vs0mg"},{"bike_id":"b5e03ff3-478d-4e9f-b77a-2d01dbcbed37","system_id":"levelo_inurba_marseille","lat":43.293084,"lon":5.374464,"is_reserved":false,"is_disabled":false,"rental_uris":{"android":"levelo://app?vid=b5e03ff3-478d-4e9f-b77a-2d01dbcbed37","ios":"levelo://app?vid=b5e03ff3-478d-4e9f-b77a-2d01dbcbed37"},"vehicle_type_id":"4","last_reported":1722179256,"current_range_meters":29200,"station_id":"ce4bgi12rcd13ifvqb70","pricing_plan_id":"cebpf4jnsgd1na2vs0mg"},{"bike_id":"4ca44a8e-91e4-4a43-9c10-99240e533be1","system_id":"levelo_inurba_marseille","lat":43.29305,"lon":5.37459,"is_reserved":false,"is_disabled":false,"rental_uris":{"android":"levelo://app?vid=4ca44a8e-91e4-4a43-9c10-99240e533be1","ios":"levelo://app?vid=4ca44a8e-91e4-4a43-9c10-99240e533be1"},"vehicle_type_id":"4","last_reported":1722179256,"current_range_meters":0,"station_id":"ce4bgi12rcd13ifvqb70","pricing_plan_id":"cebpf4jnsgd1na2vs0mg"},{"bike_id":"3a1bee20-a6b0-4d2d-a3fd-b1b6c1379b1a","system_id":"levelo_inurba_marseille","lat":43.2936,"lon":5.37835,"is_reserved":false,"is_disabled":false,"rental_uris":{"android":"levelo://app?vid=3a1bee20-a6b0-4d2d-a3fd-b1b6c1379b1a","ios":"levelo://app?vid=3a1bee20-a6b0-4d2d-a3fd-b1b6c1379b1a"},"vehicle_type_id":"4","last_reported":1722179256,"current_range_meters":800,"station_id":"ce4bgjh2rcd13ifvqbf0","pricing_plan_id":"cebpf4jnsgd1na2vs0mg"},{"bike_id":"0e633ca4-e5d0-4855-99a8-5c1788e47412","system_id":"levelo_inurba_marseille","lat":43.303002,"lon":5.392142,"is_reserved":false,"is_disabled":false,"rental_uris":{"android":"levelo://app?vid=0e633ca4-e5d0-4855-99a8-5c1788e47412","ios":"levelo://app?vid=0e633ca4-e5d0-4855-99a8-5c1788e47412"},"vehicle_type_id":"4","last_reported":1722179256,"current_range_meters":6000,"station_id":"ce4bgkh2rcd13ifvqbk0","pricing_plan_id":"cebpf4jnsgd1na2vs0mg"},{"bike_id":"a5196313-73ba-4e6c-87a5-ca42198c21fa","system_id":"levelo_inurba_marseille","lat":43.292311,"lon":5.360731,"is_reserved":false,"is_disabled":false,"rental_uris":{"android":"levelo://app?vid=a5196313-73ba-4e6c-87a5-ca42198c21fa","ios":"levelo://app?vid=a5196313-73ba-4e6c-87a5-ca42198c21fa"},"vehicle_type_id":"4","last_reported":1722179256,"current_range_meters":0,"station_id":"ce4bhbh2rcd13ifvqeqg","pricing_plan_id":"cebpf4jnsgd1na2vs0mg"},{"bike_id":"b27a82ad-a505-4b11-a89a-ee05cc727eaa","system_id":"levelo_inurba_marseille","lat":43.313243,"lon":5.396819,"is_reserved":false,"is_disabled":false,"rental_uris":{"android":"levelo://app?vid=b27a82ad-a505-4b11-a89a-ee05cc727eaa","ios":"levelo://app?vid=b27a82ad-a505-4b11-a89a-ee05cc727eaa"},"vehicle_type_id":"4","last_reported":1722179256,"current_range_meters":0,"station_id":"ce4bgvp2rcd13ifvqcu0","pricing_plan_id":"cebpf4jnsgd1na2vs0mg"},{"bike_id":"a04c7240-6092-41c5-9880-ddf81e6d2f67","system_id":"levelo_inurba_marseille","lat":43.295375,"lon":5.38546,"is_reserved":false,"is_disabled":false,"rental_uris":{"android":"levelo://app?vid=a04c7240-6092-41c5-9880-ddf81e6d2f67","ios":"levelo://app?vid=a04c7240-6092-41c5-9880-ddf81e6d2f67"},"vehicle_type_id":"4","last_reported":1722179256,"current_range_meters":0,"station_id":"ce4bgih2rcd13ifvqba0","pricing_plan_id":"cebpf4jnsgd1na2vs0mg"},{"bike_id":"43a9e655-e857-4721-866d-ac98057b24d4","system_id":"levelo_inurba_marseille","lat":43.29529,"lon":5.385581,"is_reserved":false,"is_disabled":false,"rental_uris":{"android":"levelo://app?vid=43a9e655-e857-4721-866d-ac98057b24d4","ios":"levelo://app?vid=43a9e655-e857-4721-866d-ac98057b24d4"},"vehicle_type_id":"4","last_reported":1722179256,"current_range_meters":3200,"station_id":"ce4bgih2rcd13ifvqba0","pricing_plan_id":"cebpf4jnsgd1na2vs0mg"},{"bike_id":"f8472108-d2c1-478c-ae4e-adc004894f94","system_id":"levelo_inurba_marseille","lat":43.290779,"lon":5.371482,"is_reserved":false,"is_disabled":false,"rental_uris":{"android":"levelo://app?vid=f8472108-d2c1-478c-ae4e-adc004894f94","ios":"levelo://app?vid=f8472108-d2c1-478c-ae4e-adc004894f94"},"vehicle_type_id":"4","last_reported":1722179256,"current_range_meters":0,"station_id":"ce4bh5p2rcd13ifvqe4g","pricing_plan_id":"cebpf4jnsgd1na2vs0mg"},{"bike_id":"ce59dbb4-65c8-4185-9e5f-9ea27d8028b8","system_id":"levelo_inurba_marseille","lat":43.289184,"lon":5.366408,"is_reserved":false,"is_disabled":false,"rental_uris":{"android":"levelo://app?vid=ce59dbb4-65c8-4185-9e5f-9ea27d8028b8","ios":"levelo://app?vid=ce59dbb4-65c8-4185-9e5f-9ea27d8028b8"},"vehicle_type_id":"4","last_reported":1722179256,"current_range_meters":2800,"station_id":"ce4bhap2rcd13ifvqek0","pricing_plan_id":"cebpf4jnsgd1na2vs0mg"},{"bike_id":"ba96f96e-60bf-4108-86d3-bf3b7b508be6","system_id":"levelo_inurba_marseille","lat":43.289184,"lon":5.366408,"is_reserved":false,"is_disabled":false,"rental_uris":{"android":"levelo://app?vid=ba96f96e-60bf-4108-86d3-bf3b7b508be6","ios":"levelo://app?vid=ba96f96e-60bf-4108-86d3-bf3b7b508be6"},"vehicle_type_id":"4","last_reported":1722179256,"current_range_meters":0,"station_id":"ce4bhap2rcd13ifvqek0","pricing_plan_id":"cebpf4jnsgd1na2vs0mg"},{"bike_id":"1553b13c-8c12-4e13-93ec-b35a931af456","system_id":"levelo_inurba_marseille","lat":43.294153,"lon":5.386305,"is_reserved":false,"is_disabled":false,"rental_uris":{"android":"levelo://app?vid=1553b13c-8c12-4e13-93ec-b35a931af456","ios":"levelo://app?vid=1553b13c-8c12-4e13-93ec-b35a931af456"},"vehicle_type_id":"4","last_reported":1722179256,"current_range_meters":3200,"station_id":"ce4bh2h2rcd13ifvqdh0","pricing_plan_id":"cebpf4jnsgd1na2vs0mg"},{"bike_id":"9fec6dbb-9288-4b24-afa3-9342931fbca5","system_id":"levelo_inurba_marseille","lat":43.294162,"lon":5.386292,"is_reserved":false,"is_disabled":false,"rental_uris":{"android":"levelo://app?vid=9fec6dbb-9288-4b24-afa3-9342931fbca5","ios":"levelo://app?vid=9fec6dbb-9288-4b24-afa3-9342931fbca5"},"vehicle_type_id":"4","last_reported":1722179256,"current_range_meters":25200,"station_id":"ce4bh2h2rcd13ifvqdh0","pricing_plan_id":"cebpf4jnsgd1na2vs0mg"},{"bike_id":"8c1a5599-01b6-44a7-9c5e-46ebc5563c0e","system_id":"levelo_inurba_marseille","lat":43.294162,"lon":5.386292,"is_reserved":false,"is_disabled":false,"rental_uris":{"android":"levelo://app?vid=8c1a5599-01b6-44a7-9c5e-46ebc5563c0e","ios":"levelo://app?vid=8c1a5599-01b6-44a7-9c5e-46ebc5563c0e"},"vehicle_type_id":"4","last_reported":1722179256,"current_range_meters":7200,"station_id":"ce4bh2h2rcd13ifvqdh0","pricing_plan_id":"cebpf4jnsgd1na2vs0mg"},{"bike_id":"6ddeb218-a2fb-4e54-9ead-1c5f032a8e4f","system_id":"levelo_inurba_marseille","lat":43.28944,"lon":5.36414,"is_reserved":false,"is_disabled":false,"rental_uris":{"android":"levelo://app?vid=6ddeb218-a2fb-4e54-9ead-1c5f032a8e4f","ios":"levelo://app?vid=6ddeb218-a2fb-4e54-9ead-1c5f032a8e4f"},"vehicle_type_id":"4","last_reported":1722179256,"current_range_meters":22400,"station_id":"ce4bhc92rcd13ifvqetg","pricing_plan_id":"cebpf4jnsgd1na2vs0mg"},{"bike_id":"1ea0ac6f-2a4c-4aac-b26f-4affac08c4f2","system_id":"levelo_inurba_marseille","lat":43.28942,"lon":5.36407,"is_reserved":false,"is_disabled":false,"rental_uris":{"android":"levelo://app?vid=1ea0ac6f-2a4c-4aac-b26f-4affac08c4f2","ios":"levelo://app?vid=1ea0ac6f-2a4c-4aac-b26f-4affac08c4f2"},"vehicle_type_id":"4","last_reported":1722179256,"current_range_meters":4000,"station_id":"ce4bhc92rcd13ifvqetg","pricing_plan_id":"cebpf4jnsgd1na2vs0mg"},{"bike_id":"8d1cec69-d59e-4f97-841f-93d3a76964d4","system_id":"levelo_inurba_marseille","lat":43.292642,"lon":5.384254,"is_reserved":false,"is_disabled":false,"rental_uris":{"android":"levelo://app?vid=8d1cec69-d59e-4f97-841f-93d3a76964d4","ios":"levelo://app?vid=8d1cec69-d59e-4f97-841f-93d3a76964d4"},"vehicle_type_id":"4","last_reported":1722179256,"current_range_meters":21600,"station_id":"ce4bh692rcd13ifvqea0","pricing_plan_id":"cebpf4jnsgd1na2vs0mg"},{"bike_id":"ec4d7979-a094-4313-9a45-6b0c60f56dcf","system_id":"levelo_inurba_marseille","lat":43.292642,"lon":5.384254,"is_reserved":false,"is_disabled":false,"rental_uris":{"android":"levelo://app?vid=ec4d7979-a094-4313-9a45-6b0c60f56dcf","ios":"levelo://app?vid=ec4d7979-a094-4313-9a45-6b0c60f56dcf"},"vehicle_type_id":"4","last_reported":1722179256,"current_range_meters":3600,"station_id":"ce4bh692rcd13ifvqea0","pricing_plan_id":"cebpf4jnsgd1na2vs0mg"},{"bike_id":"b088dd97-7f21-4f89-bd27-30f8431f68c2","system_id":"levelo_inurba_marseille","lat":43.2901,"lon":5.35609,"is_reserved":false,"is_disabled":false,"rental_uris":{"android":"levelo://app?vid=b088dd97-7f21-4f89-bd27-30f8431f68c2","ios":"levelo://app?vid=b088dd97-7f21-4f89-bd27-30f8431f68c2"},"vehicle_type_id":"4","last_reported":1722179256,"current_range_meters":0,"station_id":"ce4bhb92rcd13ifvqen0","pricing_plan_id":"cebpf4jnsgd1na2vs0mg"},{"bike_id":"b295bae0-edc7-4c95-a67c-325effda7a19","system_id":"levelo_inurba_marseille","lat":43.29015,"lon":5.35511,"is_reserved":false,"is_disabled":false,"rental_uris":{"android":"levelo://app?vid=b295bae0-edc7-4c95-a67c-325effda7a19","ios":"levelo://app?vid=b295bae0-edc7-4c95-a67c-325effda7a19"},"vehicle_type_id":"4","last_reported":1722179256,"current_range_meters":3200,"station_id":"","pricing_plan_id":"cebpf4jnsgd1na2vs0mg"},{"bike_id":"8c6f0aa8-1d72-49fc-99fa-7ad6777bf448","system_id":"levelo_inurba_marseille","lat":43.290734,"lon":5.380737,"is_reserved":false,"is_disabled":false,"rental_uris":{"android":"levelo://app?vid=8c6f0aa8-1d72-49fc-99fa-7ad6777bf448","ios":"levelo://app?vid=8c6f0aa8-1d72-49fc-99fa-7ad6777bf448"},"vehicle_type_id":"4","last_reported":1722179256,"current_range_meters":20000,"station_id":"","pricing_plan_id":"cebpf4jnsgd1na2vs0mg"},{"bike_id":"91153540-4be0-4d00-88ce-a1dc081d04b6","system_id":"levelo_inurba_marseille","lat":43.289741,"lon":5.378306,"is_reserved":false,"is_disabled":false,"rental_uris":{"android":"levelo://app?vid=91153540-4be0-4d00-88ce-a1dc081d04b6","ios":"levelo://app?vid=91153540-4be0-4d00-88ce-a1dc081d04b6"},"vehicle_type_id":"4","last_reported":1722179256,"current_range_meters":0,"station_id":"ce4bh9p2rcd13ifvqed0","pricing_plan_id":"cebpf4jnsgd1na2vs0mg"},{"bike_id":"7bfe8c9a-ba5f-438f-8de7-9a54c2071b59","system_id":"levelo_inurba_marseille","lat":43.330442,"lon":5.389148,"is_reserved":false,"is_disabled":false,"rental_uris":{"android":"levelo://app?vid=7bfe8c9a-ba5f-438f-8de7-9a54c2071b59","ios":"levelo://app?vid=7bfe8c9a-ba5f-438f-8de7-9a54c2071b59"},"vehicle_type_id":"4","last_reported":1722179256,"current_range_meters":28400,"station_id":"ce4bhr92rcd13ifvqhrg","pricing_plan_id":"cebpf4jnsgd1na2vs0mg"},{"bike_id":"a0439e65-fd09-4e16-96a4-850f9e3fa4d8","system_id":"levelo_inurba_marseille","lat":43.3303,"lon":5.39043,"is_reserved":false,"is_disabled":false,"rental_uris":{"android":"levelo://app?vid=a0439e65-fd09-4e16-96a4-850f9e3fa4d8","ios":"levelo://app?vid=a0439e65-fd09-4e16-96a4-850f9e3fa4d8"},"vehicle_type_id":"4","last_reported":1722179256,"current_range_meters":2800,"station_id":"ce4bhr92rcd13ifvqhrg","pricing_plan_id":"cebpf4jnsgd1na2vs0mg"},{"bike_id":"6a516469-0cce-462e-bcd6-4ff6f0af162a","system_id":"levelo_inurba_marseille","lat":43.2901,"lon":5.381269,"is_reserved":false,"is_disabled":false,"rental_uris":{"android":"levelo://app?vid=6a516469-0cce-462e-bcd6-4ff6f0af162a","ios":"levelo://app?vid=6a516469-0cce-462e-bcd6-4ff6f0af162a"},"vehicle_type_id":"4","last_reported":1722179256,"current_range_meters":26000,"station_id":"ce4bh4p2rcd13ifvqe1g","pricing_plan_id":"cebpf4jnsgd1na2vs0mg"},{"bike_id":"67a05b44-1b02-4bba-81fe-17dbe92868b5","system_id":"levelo_inurba_marseille","lat":43.310583,"lon":5.401081,"is_reserved":false,"is_disabled":false,"rental_uris":{"android":"levelo://app?vid=67a05b44-1b02-4bba-81fe-17dbe92868b5","ios":"levelo://app?vid=67a05b44-1b02-4bba-81fe-17dbe92868b5"},"vehicle_type_id":"4","last_reported":1722179256,"current_range_meters":24000,"station_id":"","pricing_plan_id":"cebpf4jnsgd1na2vs0mg"},{"bike_id":"6ff48f3c-927a-470d-a08e-7714539082f0","system_id":"levelo_inurba_marseille","lat":43.33735,"lon":5.37468,"is_reserved":false,"is_disabled":false,"rental_uris":{"android":"levelo://app?vid=6ff48f3c-927a-470d-a08e-7714539082f0","ios":"levelo://app?vid=6ff48f3c-927a-470d-a08e-7714539082f0"},"vehicle_type_id":"4","last_reported":1722179256,"current_range_meters":0,"station_id":"","pricing_plan_id":"cebpf4jnsgd1na2vs0mg"},{"bike_id":"3e79250c-7764-488c-b465-61fd16d31170","system_id":"levelo_inurba_marseille","lat":43.33736,"lon":5.37477,"is_reserved":false,"is_disabled":false,"rental_uris":{"android":"levelo://app?vid=3e79250c-7764-488c-b465-61fd16d31170","ios":"levelo://app?vid=3e79250c-7764-488c-b465-61fd16d31170"},"vehicle_type_id":"4","last_reported":1722179256,"current_range_meters":25200,"station_id":"","pricing_plan_id":"cebpf4jnsgd1na2vs0mg"},{"bike_id":"e92bf1d5-b1ca-44cd-9b31-a0496082825d","system_id":"levelo_inurba_marseille","lat":43.33733,"lon":5.37507,"is_reserved":false,"is_disabled":false,"rental_uris":{"android":"levelo://app?vid=e92bf1d5-b1ca-44cd-9b31-a0496082825d","ios":"levelo://app?vid=e92bf1d5-b1ca-44cd-9b31-a0496082825d"},"vehicle_type_id":"4","last_reported":1722179256,"current_range_meters":25200,"station_id":"","pricing_plan_id":"cebpf4jnsgd1na2vs0mg"},{"bike_id":"f8e8dd66-c7d6-4bd0-91ac-ef4274ae24f3","system_id":"levelo_inurba_marseille","lat":43.337405,"lon":5.374671,"is_reserved":false,"is_disabled":false,"rental_uris":{"android":"levelo://app?vid=f8e8dd66-c7d6-4bd0-91ac-ef4274ae24f3","ios":"levelo://app?vid=f8e8dd66-c7d6-4bd0-91ac-ef4274ae24f3"},"vehicle_type_id":"4","last_reported":1722179256,"current_range_meters":15600,"station_id":"","pricing_plan_id":"cebpf4jnsgd1na2vs0mg"},{"bike_id":"20a7bf81-31fd-4cb5-b454-68d5314a31b8","system_id":"levelo_inurba_marseille","lat":43.337403,"lon":5.374698,"is_reserved":false,"is_disabled":false,"rental_uris":{"android":"levelo://app?vid=20a7bf81-31fd-4cb5-b454-68d5314a31b8","ios":"levelo://app?vid=20a7bf81-31fd-4cb5-b454-68d5314a31b8"},"vehicle_type_id":"4","last_reported":1722179256,"current_range_meters":26800,"station_id":"","pricing_plan_id":"cebpf4jnsgd1na2vs0mg"},{"bike_id":"0aa226e6-2195-431b-bdc4-34bf44420451","system_id":"levelo_inurba_marseille","lat":43.337467,"lon":5.374397,"is_reserved":false,"is_disabled":false,"rental_uris":{"android":"levelo://app?vid=0aa226e6-2195-431b-bdc4-34bf44420451","ios":"levelo://app?vid=0aa226e6-2195-431b-bdc4-34bf44420451"},"vehicle_type_id":"4","last_reported":1722179256,"current_range_meters":23200,"station_id":"","pricing_plan_id":"cebpf4jnsgd1na2vs0mg"},{"bike_id":"28ff567c-281c-4a43-913e-e1206badf942","system_id":"levelo_inurba_marseille","lat":43.337429,"lon":5.374711,"is_reserved":false,"is_disabled":false,"rental_uris":{"android":"levelo://app?vid=28ff567c-281c-4a43-913e-e1206badf942","ios":"levelo://app?vid=28ff567c-281c-4a43-913e-e1206badf942"},"vehicle_type_id":"4","last_reported":1722179256,"current_range_meters":18800,"station_id":"","pricing_plan_id":"cebpf4jnsgd1na2vs0mg"},{"bike_id":"f0338c4f-2f14-449f-abf8-25e44f36ca55","system_id":"levelo_inurba_marseille","lat":43.337503,"lon":5.374507,"is_reserved":false,"is_disabled":false,"rental_uris":{"android":"levelo://app?vid=f0338c4f-2f14-449f-abf8-25e44f36ca55","ios":"levelo://app?vid=f0338c4f-2f14-449f-abf8-25e44f36ca55"},"vehicle_type_id":"4","last_reported":1722179256,"current_range_meters":25600,"station_id":"","pricing_plan_id":"cebpf4jnsgd1na2vs0mg"},{"bike_id":"6cf0c176-f7c0-4e29-a014-f3a3b29e1d2a","system_id":"levelo_inurba_marseille","lat":43.337532,"lon":5.374385,"is_reserved":false,"is_disabled":false,"rental_uris":{"android":"levelo://app?vid=6cf0c176-f7c0-4e29-a014-f3a3b29e1d2a","ios":"levelo://app?vid=6cf0c176-f7c0-4e29-a014-f3a3b29e1d2a"},"vehicle_type_id":"4","last_reported":1722179256,"current_range_meters":24000,"station_id":"","pricing_plan_id":"cebpf4jnsgd1na2vs0mg"},{"bike_id":"ce2a281f-6b17-464e-8289-d463ea4cfa07","system_id":"levelo_inurba_marseille","lat":43.337553,"lon":5.374554,"is_reserved":false,"is_disabled":false,"rental_uris":{"android":"levelo://app?vid=ce2a281f-6b17-464e-8289-d463ea4cfa07","ios":"levelo://app?vid=ce2a281f-6b17-464e-8289-d463ea4cfa07"},"vehicle_type_id":"4","last_reported":1722179256,"current_range_meters":26000,"station_id":"","pricing_plan_id":"cebpf4jnsgd1na2vs0mg"},{"bike_id":"47cff5f3-0ef2-4804-b193-faa40d9bf3c5","system_id":"levelo_inurba_marseille","lat":43.301117,"lon":5.398795,"is_reserved":false,"is_disabled":false,"rental_uris":{"android":"levelo://app?vid=47cff5f3-0ef2-4804-b193-faa40d9bf3c5","ios":"levelo://app?vid=47cff5f3-0ef2-4804-b193-faa40d9bf3c5"},"vehicle_type_id":"4","last_reported":1722179256,"current_range_meters":400,"station_id":"ce4bh0h2rcd13ifvqd40","pricing_plan_id":"cebpf4jnsgd1na2vs0mg"},{"bike_id":"96827327-48c7-42ac-87e6-d2827b4b5e65","system_id":"levelo_inurba_marseille","lat":43.286961,"lon":5.373785,"is_reserved":false,"is_disabled":false,"rental_uris":{"android":"levelo://app?vid=96827327-48c7-42ac-87e6-d2827b4b5e65","ios":"levelo://app?vid=96827327-48c7-42ac-87e6-d2827b4b5e65"},"vehicle_type_id":"4","last_reported":1722179256,"current_range_meters":0,"station_id":"ce4bh3p2rcd13ifvqdq0","pricing_plan_id":"cebpf4jnsgd1na2vs0mg"},{"bike_id":"7d923782-04a0-4426-bd56-2c212d97b664","system_id":"levelo_inurba_marseille","lat":43.286961,"lon":5.373785,"is_reserved":false,"is_disabled":false,"rental_uris":{"android":"levelo://app?vid=7d923782-04a0-4426-bd56-2c212d97b664","ios":"levelo://app?vid=7d923782-04a0-4426-bd56-2c212d97b664"},"vehicle_type_id":"4","last_reported":1722179256,"current_range_meters":0,"station_id":"ce4bh3p2rcd13ifvqdq0","pricing_plan_id":"cebpf4jnsgd1na2vs0mg"},{"bike_id":"25f7770f-0476-4c95-87be-1af3bda6c002","system_id":"levelo_inurba_marseille","lat":43.286593,"lon":5.363346,"is_reserved":false,"is_disabled":false,"rental_uris":{"android":"levelo://app?vid=25f7770f-0476-4c95-87be-1af3bda6c002","ios":"levelo://app?vid=25f7770f-0476-4c95-87be-1af3bda6c002"},"vehicle_type_id":"4","last_reported":1722179256,"current_range_meters":800,"station_id":"ce4bhah2rcd13ifvqej0","pricing_plan_id":"cebpf4jnsgd1na2vs0mg"},{"bike_id":"b6d46ec1-3b61-4854-853e-efe673d13433","system_id":"levelo_inurba_marseille","lat":43.286593,"lon":5.363346,"is_reserved":false,"is_disabled":false,"rental_uris":{"android":"levelo://app?vid=b6d46ec1-3b61-4854-853e-efe673d13433","ios":"levelo://app?vid=b6d46ec1-3b61-4854-853e-efe673d13433"},"vehicle_type_id":"4","last_reported":1722179256,"current_range_meters":15600,"station_id":"ce4bhah2rcd13ifvqej0","pricing_plan_id":"cebpf4jnsgd1na2vs0mg"},{"bike_id":"8016ebef-2a24-4877-8616-294d049d0385","system_id":"levelo_inurba_marseille","lat":43.302759,"lon":5.400793,"is_reserved":false,"is_disabled":false,"rental_uris":{"android":"levelo://app?vid=8016ebef-2a24-4877-8616-294d049d0385","ios":"levelo://app?vid=8016ebef-2a24-4877-8616-294d049d0385"},"vehicle_type_id":"4","last_reported":1722179256,"current_range_meters":2400,"station_id":"ce4bgvh2rcd13ifvqcs0","pricing_plan_id":"cebpf4jnsgd1na2vs0mg"},{"bike_id":"9832dbd9-50ab-4233-b13b-46ced7994cba","system_id":"levelo_inurba_marseille","lat":43.302223,"lon":5.400757,"is_reserved":false,"is_disabled":false,"rental_uris":{"android":"levelo://app?vid=9832dbd9-50ab-4233-b13b-46ced7994cba","ios":"levelo://app?vid=9832dbd9-50ab-4233-b13b-46ced7994cba"},"vehicle_type_id":"4","last_reported":1722179256,"current_range_meters":2400,"station_id":"","pricing_plan_id":"cebpf4jnsgd1na2vs0mg"},{"bike_id":"17c6f313-b997-4fa6-aeac-a7dd0ac0117c","system_id":"levelo_inurba_marseille","lat":43.2861,"lon":5.37068,"is_reserved":false,"is_disabled":false,"rental_uris":{"android":"levelo://app?vid=17c6f313-b997-4fa6-aeac-a7dd0ac0117c","ios":"levelo://app?vid=17c6f313-b997-4fa6-aeac-a7dd0ac0117c"},"vehicle_type_id":"4","last_reported":1722179256,"current_range_meters":18000,"station_id":"ce4bht12rcd13ifvqi60","pricing_plan_id":"cebpf4jnsgd1na2vs0mg"},{"bike_id":"38bc940e-da7d-4e5f-b6ca-2f00b945fe12","system_id":"levelo_inurba_marseille","lat":43.298681,"lon":5.397225,"is_reserved":false,"is_disabled":false,"rental_uris":{"android":"levelo://app?vid=38bc940e-da7d-4e5f-b6ca-2f00b945fe12","ios":"levelo://app?vid=38bc940e-da7d-4e5f-b6ca-2f00b945fe12"},"vehicle_type_id":"4","last_reported":1722179256,"current_range_meters":28000,"station_id":"ce4bh0h2rcd13ifvqd50","pricing_plan_id":"cebpf4jnsgd1na2vs0mg"},{"bike_id":"84bb5619-1d9f-43ec-b101-dda4ac1e967b","system_id":"levelo_inurba_marseille","lat":43.33449,"lon":5.3906,"is_reserved":false,"is_disabled":false,"rental_uris":{"android":"levelo://app?vid=84bb5619-1d9f-43ec-b101-dda4ac1e967b","ios":"levelo://app?vid=84bb5619-1d9f-43ec-b101-dda4ac1e967b"},"vehicle_type_id":"4","last_reported":1722179256,"current_range_meters":24800,"station_id":"","pricing_plan_id":"cebpf4jnsgd1na2vs0mg"},{"bike_id":"0038eac4-4c00-44de-bfc4-de0661f23b69","system_id":"levelo_inurba_marseille","lat":43.316853,"lon":5.404691,"is_reserved":false,"is_disabled":false,"rental_uris":{"android":"levelo://app?vid=0038eac4-4c00-44de-bfc4-de0661f23b69","ios":"levelo://app?vid=0038eac4-4c00-44de-bfc4-de0661f23b69"},"vehicle_type_id":"4","last_reported":1722179256,"current_range_meters":31200,"station_id":"ce4bhq92rcd13ifvqhjg","pricing_plan_id":"cebpf4jnsgd1na2vs0mg"},{"bike_id":"02501ff0-cb67-4cc1-b80e-c9ab31a94bb7","system_id":"levelo_inurba_marseille","lat":43.316821,"lon":5.404737,"is_reserved":false,"is_disabled":false,"rental_uris":{"android":"levelo://app?vid=02501ff0-cb67-4cc1-b80e-c9ab31a94bb7","ios":"levelo://app?vid=02501ff0-cb67-4cc1-b80e-c9ab31a94bb7"},"vehicle_type_id":"4","last_reported":1722179256,"current_range_meters":30000,"station_id":"ce4bh012rcd13ifvqd00","pricing_plan_id":"cebpf4jnsgd1na2vs0mg"},{"bike_id":"c7302eda-53d4-427f-831e-bcd9ec1344df","system_id":"levelo_inurba_marseille","lat":43.284538,"lon":5.358657,"is_reserved":false,"is_disabled":false,"rental_uris":{"android":"levelo://app?vid=c7302eda-53d4-427f-831e-bcd9ec1344df","ios":"levelo://app?vid=c7302eda-53d4-427f-831e-bcd9ec1344df"},"vehicle_type_id":"4","last_reported":1722179256,"current_range_meters":15600,"station_id":"ce4bhah2rcd13ifvqei0","pricing_plan_id":"cebpf4jnsgd1na2vs0mg"},{"bike_id":"8c617e0e-1d27-4440-9b64-07af8801d661","system_id":"levelo_inurba_marseille","lat":43.294314,"lon":5.397498,"is_reserved":false,"is_disabled":false,"rental_uris":{"android":"levelo://app?vid=8c617e0e-1d27-4440-9b64-07af8801d661","ios":"levelo://app?vid=8c617e0e-1d27-4440-9b64-07af8801d661"},"vehicle_type_id":"4","last_reported":1722179256,"current_range_meters":0,"station_id":"ce4bh3h2rcd13ifvqdo0","pricing_plan_id":"cebpf4jnsgd1na2vs0mg"},{"bike_id":"5d8da56e-8132-425e-92a3-794f56b63d1a","system_id":"levelo_inurba_marseille","lat":43.286282,"lon":5.351145,"is_reserved":false,"is_disabled":false,"rental_uris":{"android":"levelo://app?vid=5d8da56e-8132-425e-92a3-794f56b63d1a","ios":"levelo://app?vid=5d8da56e-8132-425e-92a3-794f56b63d1a"},"vehicle_type_id":"4","last_reported":1722179256,"current_range_meters":1600,"station_id":"","pricing_plan_id":"cebpf4jnsgd1na2vs0mg"},{"bike_id":"c1f278e1-3507-4aec-9783-fa1cbb02beb2","system_id":"levelo_inurba_marseille","lat":43.28619,"lon":5.35116,"is_reserved":false,"is_disabled":false,"rental_uris":{"android":"levelo://app?vid=c1f278e1-3507-4aec-9783-fa1cbb02beb2","ios":"levelo://app?vid=c1f278e1-3507-4aec-9783-fa1cbb02beb2"},"vehicle_type_id":"4","last_reported":1722179256,"current_range_meters":29200,"station_id":"ce4bhch2rcd13ifvqeug","pricing_plan_id":"cebpf4jnsgd1na2vs0mg"},{"bike_id":"0601ded5-8829-4d8f-aab8-18d2a086959e","system_id":"levelo_inurba_marseille","lat":43.28621,"lon":5.35108,"is_reserved":false,"is_disabled":false,"rental_uris":{"android":"levelo://app?vid=0601ded5-8829-4d8f-aab8-18d2a086959e","ios":"levelo://app?vid=0601ded5-8829-4d8f-aab8-18d2a086959e"},"vehicle_type_id":"4","last_reported":1722179256,"current_range_meters":31200,"station_id":"ce4bhch2rcd13ifvqeug","pricing_plan_id":"cebpf4jnsgd1na2vs0mg"},{"bike_id":"98eddab1-c0f8-43b8-9419-8ac46662030a","system_id":"levelo_inurba_marseille","lat":43.2862,"lon":5.35108,"is_reserved":false,"is_disabled":false,"rental_uris":{"android":"levelo://app?vid=98eddab1-c0f8-43b8-9419-8ac46662030a","ios":"levelo://app?vid=98eddab1-c0f8-43b8-9419-8ac46662030a"},"vehicle_type_id":"4","last_reported":1722179256,"current_range_meters":27600,"station_id":"ce4bhch2rcd13ifvqeug","pricing_plan_id":"cebpf4jnsgd1na2vs0mg"},{"bike_id":"9f5794dc-b803-4480-9023-b9edace4b248","system_id":"levelo_inurba_marseille","lat":43.28616,"lon":5.35116,"is_reserved":false,"is_disabled":false,"rental_uris":{"android":"levelo://app?vid=9f5794dc-b803-4480-9023-b9edace4b248","ios":"levelo://app?vid=9f5794dc-b803-4480-9023-b9edace4b248"},"vehicle_type_id":"4","last_reported":1722179256,"current_range_meters":0,"station_id":"ce4bhch2rcd13ifvqeug","pricing_plan_id":"cebpf4jnsgd1na2vs0mg"},{"bike_id":"1214b7f2-0c75-4f47-9b43-508992feeddc","system_id":"levelo_inurba_marseille","lat":43.28618,"lon":5.35105,"is_reserved":false,"is_disabled":false,"rental_uris":{"android":"levelo://app?vid=1214b7f2-0c75-4f47-9b43-508992feeddc","ios":"levelo://app?vid=1214b7f2-0c75-4f47-9b43-508992feeddc"},"vehicle_type_id":"4","last_reported":1722179256,"current_range_meters":28000,"station_id":"ce4bhch2rcd13ifvqeug","pricing_plan_id":"cebpf4jnsgd1na2vs0mg"},{"bike_id":"a679ace7-089c-46c3-b3ce-b3e7557c8e7c","system_id":"levelo_inurba_marseille","lat":43.286156,"lon":5.351069,"is_reserved":false,"is_disabled":false,"rental_uris":{"android":"levelo://app?vid=a679ace7-089c-46c3-b3ce-b3e7557c8e7c","ios":"levelo://app?vid=a679ace7-089c-46c3-b3ce-b3e7557c8e7c"},"vehicle_type_id":"4","last_reported":1722179256,"current_range_meters":14800,"station_id":"ce4bhch2rcd13ifvqeug","pricing_plan_id":"cebpf4jnsgd1na2vs0mg"},{"bike_id":"ca5f13af-6463-43e5-bbb3-ac6f2b4980be","system_id":"levelo_inurba_marseille","lat":43.285856,"lon":5.350771,"is_reserved":false,"is_disabled":false,"rental_uris":{"android":"levelo://app?vid=ca5f13af-6463-43e5-bbb3-ac6f2b4980be","ios":"levelo://app?vid=ca5f13af-6463-43e5-bbb3-ac6f2b4980be"},"vehicle_type_id":"4","last_reported":1722179256,"current_range_meters":20800,"station_id":"ce4bhch2rcd13ifvqeug","pricing_plan_id":"cebpf4jnsgd1na2vs0mg"},{"bike_id":"bb3bf093-cf6e-4efc-a3fc-254a372e24c5","system_id":"levelo_inurba_marseille","lat":43.28614,"lon":5.35107,"is_reserved":false,"is_disabled":false,"rental_uris":{"android":"levelo://app?vid=bb3bf093-cf6e-4efc-a3fc-254a372e24c5","ios":"levelo://app?vid=bb3bf093-cf6e-4efc-a3fc-254a372e24c5"},"vehicle_type_id":"4","last_reported":1722179256,"current_range_meters":0,"station_id":"ce4bhch2rcd13ifvqeug","pricing_plan_id":"cebpf4jnsgd1na2vs0mg"},{"bike_id":"1435fa2f-e67d-40a2-a10e-75608c2de28b","system_id":"levelo_inurba_marseille","lat":43.28615,"lon":5.35103,"is_reserved":false,"is_disabled":false,"rental_uris":{"android":"levelo://app?vid=1435fa2f-e67d-40a2-a10e-75608c2de28b","ios":"levelo://app?vid=1435fa2f-e67d-40a2-a10e-75608c2de28b"},"vehicle_type_id":"4","last_reported":1722179256,"current_range_meters":26800,"station_id":"ce4bhch2rcd13ifvqeug","pricing_plan_id":"cebpf4jnsgd1na2vs0mg"},{"bike_id":"d15c8bd8-7c1a-44fb-9b13-3a32a5a35e9c","system_id":"levelo_inurba_marseille","lat":43.28615,"lon":5.35103,"is_reserved":false,"is_disabled":false,"rental_uris":{"android":"levelo://app?vid=d15c8bd8-7c1a-44fb-9b13-3a32a5a35e9c","ios":"levelo://app?vid=d15c8bd8-7c1a-44fb-9b13-3a32a5a35e9c"},"vehicle_type_id":"4","last_reported":1722179256,"current_range_meters":31200,"station_id":"ce4bhch2rcd13ifvqeug","pricing_plan_id":"cebpf4jnsgd1na2vs0mg"},{"bike_id":"5bcb6281-dcec-4154-b1dc-7e7e64d8e948","system_id":"levelo_inurba_marseille","lat":43.28615,"lon":5.351,"is_reserved":false,"is_disabled":false,"rental_uris":{"android":"levelo://app?vid=5bcb6281-dcec-4154-b1dc-7e7e64d8e948","ios":"levelo://app?vid=5bcb6281-dcec-4154-b1dc-7e7e64d8e948"},"vehicle_type_id":"4","last_reported":1722179256,"current_range_meters":31200,"station_id":"ce4bhch2rcd13ifvqeug","pricing_plan_id":"cebpf4jnsgd1na2vs0mg"},{"bike_id":"1d523919-ec2c-40df-902d-ccab4729d7d3","system_id":"levelo_inurba_marseille","lat":43.28615,"lon":5.351,"is_reserved":false,"is_disabled":false,"rental_uris":{"android":"levelo://app?vid=1d523919-ec2c-40df-902d-ccab4729d7d3","ios":"levelo://app?vid=1d523919-ec2c-40df-902d-ccab4729d7d3"},"vehicle_type_id":"4","last_reported":1722179256,"current_range_meters":12800,"station_id":"ce4bhch2rcd13ifvqeug","pricing_plan_id":"cebpf4jnsgd1na2vs0mg"},{"bike_id":"6a530439-79ef-4d28-8d7e-960f61ef2954","system_id":"levelo_inurba_marseille","lat":43.28612,"lon":5.35108,"is_reserved":false,"is_disabled":false,"rental_uris":{"android":"levelo://app?vid=6a530439-79ef-4d28-8d7e-960f61ef2954","ios":"levelo://app?vid=6a530439-79ef-4d28-8d7e-960f61ef2954"},"vehicle_type_id":"4","last_reported":1722179256,"current_range_meters":15200,"station_id":"ce4bhch2rcd13ifvqeug","pricing_plan_id":"cebpf4jnsgd1na2vs0mg"},{"bike_id":"13871e00-a4af-4a63-941a-82b6695c1279","system_id":"levelo_inurba_marseille","lat":43.28613,"lon":5.35104,"is_reserved":false,"is_disabled":false,"rental_uris":{"android":"levelo://app?vid=13871e00-a4af-4a63-941a-82b6695c1279","ios":"levelo://app?vid=13871e00-a4af-4a63-941a-82b6695c1279"},"vehicle_type_id":"4","last_reported":1722179256,"current_range_meters":12400,"station_id":"ce4bhch2rcd13ifvqeug","pricing_plan_id":"cebpf4jnsgd1na2vs0mg"},{"bike_id":"d5e20577-e13e-4c5e-9160-5b39396a195c","system_id":"levelo_inurba_marseille","lat":43.28613,"lon":5.35103,"is_reserved":false,"is_disabled":false,"rental_uris":{"android":"levelo://app?vid=d5e20577-e13e-4c5e-9160-5b39396a195c","ios":"levelo://app?vid=d5e20577-e13e-4c5e-9160-5b39396a195c"},"vehicle_type_id":"4","last_reported":1722179256,"current_range_meters":31200,"station_id":"ce4bhch2rcd13ifvqeug","pricing_plan_id":"cebpf4jnsgd1na2vs0mg"},{"bike_id":"7c09103e-0e5d-482d-be68-b8ee242ba218","system_id":"levelo_inurba_marseille","lat":43.28613,"lon":5.35103,"is_reserved":false,"is_disabled":false,"rental_uris":{"android":"levelo://app?vid=7c09103e-0e5d-482d-be68-b8ee242ba218","ios":"levelo://app?vid=7c09103e-0e5d-482d-be68-b8ee242ba218"},"vehicle_type_id":"4","last_reported":1722179256,"current_range_meters":7200,"station_id":"ce4bhch2rcd13ifvqeug","pricing_plan_id":"cebpf4jnsgd1na2vs0mg"},{"bike_id":"b01bf39a-cbcf-4bb7-a4b1-eebb65d4467f","system_id":"levelo_inurba_marseille","lat":43.28611,"lon":5.35107,"is_reserved":false,"is_disabled":false,"rental_uris":{"android":"levelo://app?vid=b01bf39a-cbcf-4bb7-a4b1-eebb65d4467f","ios":"levelo://app?vid=b01bf39a-cbcf-4bb7-a4b1-eebb65d4467f"},"vehicle_type_id":"4","last_reported":1722179256,"current_range_meters":31600,"station_id":"ce4bhch2rcd13ifvqeug","pricing_plan_id":"cebpf4jnsgd1na2vs0mg"},{"bike_id":"184f59fc-cff5-45ce-9622-4084aa7f68ab","system_id":"levelo_inurba_marseille","lat":43.28613,"lon":5.351,"is_reserved":false,"is_disabled":false,"rental_uris":{"android":"levelo://app?vid=184f59fc-cff5-45ce-9622-4084aa7f68ab","ios":"levelo://app?vid=184f59fc-cff5-45ce-9622-4084aa7f68ab"},"vehicle_type_id":"4","last_reported":1722179256,"current_range_meters":22400,"station_id":"ce4bhch2rcd13ifvqeug","pricing_plan_id":"cebpf4jnsgd1na2vs0mg"},{"bike_id":"fec3a184-2b2f-455b-a5cd-c6b86c2077be","system_id":"levelo_inurba_marseille","lat":43.2861,"lon":5.35105,"is_reserved":false,"is_disabled":false,"rental_uris":{"android":"levelo://app?vid=fec3a184-2b2f-455b-a5cd-c6b86c2077be","ios":"levelo://app?vid=fec3a184-2b2f-455b-a5cd-c6b86c2077be"},"vehicle_type_id":"4","last_reported":1722179256,"current_range_meters":24800,"station_id":"ce4bhch2rcd13ifvqeug","pricing_plan_id":"cebpf4jnsgd1na2vs0mg"},{"bike_id":"94521bc0-0451-49b5-8263-3e146be05b41","system_id":"levelo_inurba_marseille","lat":43.2861,"lon":5.351,"is_reserved":false,"is_disabled":false,"rental_uris":{"android":"levelo://app?vid=94521bc0-0451-49b5-8263-3e146be05b41","ios":"levelo://app?vid=94521bc0-0451-49b5-8263-3e146be05b41"},"vehicle_type_id":"4","last_reported":1722179256,"current_range_meters":17600,"station_id":"ce4bhch2rcd13ifvqeug","pricing_plan_id":"cebpf4jnsgd1na2vs0mg"},{"bike_id":"911829b2-0f0d-4418-b6e9-b83faddae96d","system_id":"levelo_inurba_marseille","lat":43.28411,"lon":5.37506,"is_reserved":false,"is_disabled":false,"rental_uris":{"android":"levelo://app?vid=911829b2-0f0d-4418-b6e9-b83faddae96d","ios":"levelo://app?vid=911829b2-0f0d-4418-b6e9-b83faddae96d"},"vehicle_type_id":"4","last_reported":1722179256,"current_range_meters":13600,"station_id":"ce4bh412rcd13ifvqds0","pricing_plan_id":"cebpf4jnsgd1na2vs0mg"},{"bike_id":"d692fc51-958e-419d-a433-e0dd2d87a87b","system_id":"levelo_inurba_marseille","lat":43.29572,"lon":5.39974,"is_reserved":false,"is_disabled":false,"rental_uris":{"android":"levelo://app?vid=d692fc51-958e-419d-a433-e0dd2d87a87b","ios":"levelo://app?vid=d692fc51-958e-419d-a433-e0dd2d87a87b"},"vehicle_type_id":"4","last_reported":1722179256,"current_range_meters":0,"station_id":"ce4bh312rcd13ifvqdj0","pricing_plan_id":"cebpf4jnsgd1na2vs0mg"},{"bike_id":"fa958f03-0bf7-435e-a875-d6e1b3be7f7e","system_id":"levelo_inurba_marseille","lat":43.286793,"lon":5.386553,"is_reserved":false,"is_disabled":false,"rental_uris":{"android":"levelo://app?vid=fa958f03-0bf7-435e-a875-d6e1b3be7f7e","ios":"levelo://app?vid=fa958f03-0bf7-435e-a875-d6e1b3be7f7e"},"vehicle_type_id":"4","last_reported":1722179256,"current_range_meters":0,"station_id":"ce4bh492rcd13ifvqdug","pricing_plan_id":"cebpf4jnsgd1na2vs0mg"},{"bike_id":"f52f36c8-fa6e-491a-ac44-cd3cd49e9ab3","system_id":"levelo_inurba_marseille","lat":43.283302,"lon":5.374938,"is_reserved":false,"is_disabled":false,"rental_uris":{"android":"levelo://app?vid=f52f36c8-fa6e-491a-ac44-cd3cd49e9ab3","ios":"levelo://app?vid=f52f36c8-fa6e-491a-ac44-cd3cd49e9ab3"},"vehicle_type_id":"4","last_reported":1722179256,"current_range_meters":28400,"station_id":"ce4bhbh2rcd13ifvqeo0","pricing_plan_id":"cebpf4jnsgd1na2vs0mg"},{"bike_id":"9b8782e3-a07f-4924-9af8-dcf8c29a49c0","system_id":"levelo_inurba_marseille","lat":43.33717,"lon":5.391857,"is_reserved":false,"is_disabled":false,"rental_uris":{"android":"levelo://app?vid=9b8782e3-a07f-4924-9af8-dcf8c29a49c0","ios":"levelo://app?vid=9b8782e3-a07f-4924-9af8-dcf8c29a49c0"},"vehicle_type_id":"4","last_reported":1722179256,"current_range_meters":16800,"station_id":"ce4bhr92rcd13ifvqhsg","pricing_plan_id":"cebpf4jnsgd1na2vs0mg"},{"bike_id":"e9814d99-d1a3-4363-9963-378ca5e26107","system_id":"levelo_inurba_marseille","lat":43.32335,"lon":5.4062,"is_reserved":false,"is_disabled":false,"rental_uris":{"android":"levelo://app?vid=e9814d99-d1a3-4363-9963-378ca5e26107","ios":"levelo://app?vid=e9814d99-d1a3-4363-9963-378ca5e26107"},"vehicle_type_id":"4","last_reported":1722179256,"current_range_meters":0,"station_id":"ce4bhq92rcd13ifvqhjg","pricing_plan_id":"cebpf4jnsgd1na2vs0mg"},{"bike_id":"3439f520-7411-4a89-bbd2-a2c4b4d4923d","system_id":"levelo_inurba_marseille","lat":43.337168,"lon":5.391825,"is_reserved":false,"is_disabled":false,"rental_uris":{"android":"levelo://app?vid=3439f520-7411-4a89-bbd2-a2c4b4d4923d","ios":"levelo://app?vid=3439f520-7411-4a89-bbd2-a2c4b4d4923d"},"vehicle_type_id":"4","last_reported":1722179256,"current_range_meters":31200,"station_id":"ce4bhr92rcd13ifvqhsg","pricing_plan_id":"cebpf4jnsgd1na2vs0mg"},{"bike_id":"156787cb-d488-460b-b98a-1f0b1ec7bdea","system_id":"levelo_inurba_marseille","lat":43.337168,"lon":5.391825,"is_reserved":false,"is_disabled":false,"rental_uris":{"android":"levelo://app?vid=156787cb-d488-460b-b98a-1f0b1ec7bdea","ios":"levelo://app?vid=156787cb-d488-460b-b98a-1f0b1ec7bdea"},"vehicle_type_id":"4","last_reported":1722179256,"current_range_meters":1200,"station_id":"ce4bhr92rcd13ifvqhsg","pricing_plan_id":"cebpf4jnsgd1na2vs0mg"},{"bike_id":"5de983e4-5d9c-44bb-a84e-76a44ef387be","system_id":"levelo_inurba_marseille","lat":43.284787,"lon":5.384116,"is_reserved":false,"is_disabled":false,"rental_uris":{"android":"levelo://app?vid=5de983e4-5d9c-44bb-a84e-76a44ef387be","ios":"levelo://app?vid=5de983e4-5d9c-44bb-a84e-76a44ef387be"},"vehicle_type_id":"4","last_reported":1722179256,"current_range_meters":800,"station_id":"ce4bh512rcd13ifvqe3g","pricing_plan_id":"cebpf4jnsgd1na2vs0mg"},{"bike_id":"8c4eea0d-b38c-438b-b2e6-9c7375bdfad6","system_id":"levelo_inurba_marseille","lat":43.283494,"lon":5.380945,"is_reserved":false,"is_disabled":false,"rental_uris":{"android":"levelo://app?vid=8c4eea0d-b38c-438b-b2e6-9c7375bdfad6","ios":"levelo://app?vid=8c4eea0d-b38c-438b-b2e6-9c7375bdfad6"},"vehicle_type_id":"4","last_reported":1722179256,"current_range_meters":9200,"station_id":"ce4bh412rcd13ifvqdr0","pricing_plan_id":"cebpf4jnsgd1na2vs0mg"},{"bike_id":"bbaaa9c7-922d-43ba-b1b6-2c1be04489e0","system_id":"levelo_inurba_marseille","lat":43.288497,"lon":5.393089,"is_reserved":false,"is_disabled":false,"rental_uris":{"android":"levelo://app?vid=bbaaa9c7-922d-43ba-b1b6-2c1be04489e0","ios":"levelo://app?vid=bbaaa9c7-922d-43ba-b1b6-2c1be04489e0"},"vehicle_type_id":"4","last_reported":1722179256,"current_range_meters":16400,"station_id":"ce4bh2p2rcd13ifvqdi0","pricing_plan_id":"cebpf4jnsgd1na2vs0mg"},{"bike_id":"e5c0d479-3048-46dd-9854-1f599cef54d8","system_id":"levelo_inurba_marseille","lat":43.284219,"lon":5.3497,"is_reserved":false,"is_disabled":false,"rental_uris":{"android":"levelo://app?vid=e5c0d479-3048-46dd-9854-1f599cef54d8","ios":"levelo://app?vid=e5c0d479-3048-46dd-9854-1f599cef54d8"},"vehicle_type_id":"4","last_reported":1722179256,"current_range_meters":31600,"station_id":"ce4bhbh2rcd13ifvqepg","pricing_plan_id":"cebpf4jnsgd1na2vs0mg"},{"bike_id":"fcc3f00e-2ee9-4eb1-ab3f-113f0460f136","system_id":"levelo_inurba_marseille","lat":43.284219,"lon":5.3497,"is_reserved":false,"is_disabled":false,"rental_uris":{"android":"levelo://app?vid=fcc3f00e-2ee9-4eb1-ab3f-113f0460f136","ios":"levelo://app?vid=fcc3f00e-2ee9-4eb1-ab3f-113f0460f136"},"vehicle_type_id":"4","last_reported":1722179256,"current_range_meters":31200,"station_id":"ce4bhbh2rcd13ifvqepg","pricing_plan_id":"cebpf4jnsgd1na2vs0mg"},{"bike_id":"286e2cd1-9912-4a1f-8197-09ac7f8495a0","system_id":"levelo_inurba_marseille","lat":43.284219,"lon":5.3497,"is_reserved":false,"is_disabled":false,"rental_uris":{"android":"levelo://app?vid=286e2cd1-9912-4a1f-8197-09ac7f8495a0","ios":"levelo://app?vid=286e2cd1-9912-4a1f-8197-09ac7f8495a0"},"vehicle_type_id":"4","last_reported":1722179256,"current_range_meters":15200,"station_id":"ce4bhbh2rcd13ifvqepg","pricing_plan_id":"cebpf4jnsgd1na2vs0mg"},{"bike_id":"06bd86d5-a9e6-4a16-b30c-33b3e03e7654","system_id":"levelo_inurba_marseille","lat":43.284219,"lon":5.3497,"is_reserved":false,"is_disabled":false,"rental_uris":{"android":"levelo://app?vid=06bd86d5-a9e6-4a16-b30c-33b3e03e7654","ios":"levelo://app?vid=06bd86d5-a9e6-4a16-b30c-33b3e03e7654"},"vehicle_type_id":"4","last_reported":1722179256,"current_range_meters":22800,"station_id":"ce4bhbh2rcd13ifvqepg","pricing_plan_id":"cebpf4jnsgd1na2vs0mg"},{"bike_id":"c79c3a3c-1798-416b-b08a-ce321ad222fe","system_id":"levelo_inurba_marseille","lat":43.284219,"lon":5.3497,"is_reserved":false,"is_disabled":false,"rental_uris":{"android":"levelo://app?vid=c79c3a3c-1798-416b-b08a-ce321ad222fe","ios":"levelo://app?vid=c79c3a3c-1798-416b-b08a-ce321ad222fe"},"vehicle_type_id":"4","last_reported":1722179256,"current_range_meters":800,"station_id":"ce4bhbh2rcd13ifvqepg","pricing_plan_id":"cebpf4jnsgd1na2vs0mg"},{"bike_id":"ba8c1575-5c00-4f0f-bec1-3edb6de6d337","system_id":"levelo_inurba_marseille","lat":43.2842,"lon":5.34993,"is_reserved":false,"is_disabled":false,"rental_uris":{"android":"levelo://app?vid=ba8c1575-5c00-4f0f-bec1-3edb6de6d337","ios":"levelo://app?vid=ba8c1575-5c00-4f0f-bec1-3edb6de6d337"},"vehicle_type_id":"4","last_reported":1722179256,"current_range_meters":31200,"station_id":"ce4bhbh2rcd13ifvqepg","pricing_plan_id":"cebpf4jnsgd1na2vs0mg"},{"bike_id":"91080e46-6f22-4e0b-97c9-ba9ba49a512a","system_id":"levelo_inurba_marseille","lat":43.284219,"lon":5.3497,"is_reserved":false,"is_disabled":false,"rental_uris":{"android":"levelo://app?vid=91080e46-6f22-4e0b-97c9-ba9ba49a512a","ios":"levelo://app?vid=91080e46-6f22-4e0b-97c9-ba9ba49a512a"},"vehicle_type_id":"4","last_reported":1722179256,"current_range_meters":18400,"station_id":"ce4bhbh2rcd13ifvqepg","pricing_plan_id":"cebpf4jnsgd1na2vs0mg"},{"bike_id":"595893ca-341b-46e4-afb9-7d49bc8da4a5","system_id":"levelo_inurba_marseille","lat":43.2842,"lon":5.34992,"is_reserved":false,"is_disabled":false,"rental_uris":{"android":"levelo://app?vid=595893ca-341b-46e4-afb9-7d49bc8da4a5","ios":"levelo://app?vid=595893ca-341b-46e4-afb9-7d49bc8da4a5"},"vehicle_type_id":"4","last_reported":1722179256,"current_range_meters":23200,"station_id":"ce4bhbh2rcd13ifvqepg","pricing_plan_id":"cebpf4jnsgd1na2vs0mg"},{"bike_id":"b8637fd4-274e-4322-8c77-848627f921c3","system_id":"levelo_inurba_marseille","lat":43.283395,"lon":5.381119,"is_reserved":false,"is_disabled":false,"rental_uris":{"android":"levelo://app?vid=b8637fd4-274e-4322-8c77-848627f921c3","ios":"levelo://app?vid=b8637fd4-274e-4322-8c77-848627f921c3"},"vehicle_type_id":"4","last_reported":1722179256,"current_range_meters":31200,"station_id":"ce4bh412rcd13ifvqdr0","pricing_plan_id":"cebpf4jnsgd1na2vs0mg"},{"bike_id":"1cab26bf-9771-4a67-8fa6-441a4eee3ebd","system_id":"levelo_inurba_marseille","lat":43.284219,"lon":5.3497,"is_reserved":false,"is_disabled":false,"rental_uris":{"android":"levelo://app?vid=1cab26bf-9771-4a67-8fa6-441a4eee3ebd","ios":"levelo://app?vid=1cab26bf-9771-4a67-8fa6-441a4eee3ebd"},"vehicle_type_id":"4","last_reported":1722179256,"current_range_meters":13200,"station_id":"ce4bhbh2rcd13ifvqepg","pricing_plan_id":"cebpf4jnsgd1na2vs0mg"},{"bike_id":"da0076e8-bde1-457e-b994-79a47448d73d","system_id":"levelo_inurba_marseille","lat":43.28423,"lon":5.34979,"is_reserved":false,"is_disabled":false,"rental_uris":{"android":"levelo://app?vid=da0076e8-bde1-457e-b994-79a47448d73d","ios":"levelo://app?vid=da0076e8-bde1-457e-b994-79a47448d73d"},"vehicle_type_id":"4","last_reported":1722179256,"current_range_meters":30400,"station_id":"ce4bhbh2rcd13ifvqepg","pricing_plan_id":"cebpf4jnsgd1na2vs0mg"},{"bike_id":"d3e4259c-d70e-4bc8-921c-5a1f0005828f","system_id":"levelo_inurba_marseille","lat":43.284215,"lon":5.349825,"is_reserved":false,"is_disabled":false,"rental_uris":{"android":"levelo://app?vid=d3e4259c-d70e-4bc8-921c-5a1f0005828f","ios":"levelo://app?vid=d3e4259c-d70e-4bc8-921c-5a1f0005828f"},"vehicle_type_id":"4","last_reported":1722179256,"current_range_meters":18800,"station_id":"ce4bhbh2rcd13ifvqepg","pricing_plan_id":"cebpf4jnsgd1na2vs0mg"},{"bike_id":"7002c7f3-d737-47b1-ba14-e92661b02a2e","system_id":"levelo_inurba_marseille","lat":43.284219,"lon":5.3497,"is_reserved":false,"is_disabled":false,"rental_uris":{"android":"levelo://app?vid=7002c7f3-d737-47b1-ba14-e92661b02a2e","ios":"levelo://app?vid=7002c7f3-d737-47b1-ba14-e92661b02a2e"},"vehicle_type_id":"4","last_reported":1722179256,"current_range_meters":16800,"station_id":"ce4bhbh2rcd13ifvqepg","pricing_plan_id":"cebpf4jnsgd1na2vs0mg"},{"bike_id":"98235f87-4b6a-498c-9724-cf52915d30d3","system_id":"levelo_inurba_marseille","lat":43.28419,"lon":5.3499,"is_reserved":false,"is_disabled":false,"rental_uris":{"android":"levelo://app?vid=98235f87-4b6a-498c-9724-cf52915d30d3","ios":"levelo://app?vid=98235f87-4b6a-498c-9724-cf52915d30d3"},"vehicle_type_id":"4","last_reported":1722179256,"current_range_meters":2800,"station_id":"ce4bhbh2rcd13ifvqepg","pricing_plan_id":"cebpf4jnsgd1na2vs0mg"},{"bike_id":"915ce34c-76d6-45e2-963e-ea7e65af58ba","system_id":"levelo_inurba_marseille","lat":43.284219,"lon":5.3497,"is_reserved":false,"is_disabled":false,"rental_uris":{"android":"levelo://app?vid=915ce34c-76d6-45e2-963e-ea7e65af58ba","ios":"levelo://app?vid=915ce34c-76d6-45e2-963e-ea7e65af58ba"},"vehicle_type_id":"4","last_reported":1722179256,"current_range_meters":20800,"station_id":"ce4bhbh2rcd13ifvqepg","pricing_plan_id":"cebpf4jnsgd1na2vs0mg"},{"bike_id":"109fcc8c-2a0c-4088-9e56-fa6fb9478109","system_id":"levelo_inurba_marseille","lat":43.28416,"lon":5.34995,"is_reserved":false,"is_disabled":false,"rental_uris":{"android":"levelo://app?vid=109fcc8c-2a0c-4088-9e56-fa6fb9478109","ios":"levelo://app?vid=109fcc8c-2a0c-4088-9e56-fa6fb9478109"},"vehicle_type_id":"4","last_reported":1722179256,"current_range_meters":24800,"station_id":"ce4bhbh2rcd13ifvqepg","pricing_plan_id":"cebpf4jnsgd1na2vs0mg"},{"bike_id":"a4888aee-ab3f-4cc4-83bb-92bd028d8613","system_id":"levelo_inurba_marseille","lat":43.28416,"lon":5.3499,"is_reserved":false,"is_disabled":false,"rental_uris":{"android":"levelo://app?vid=a4888aee-ab3f-4cc4-83bb-92bd028d8613","ios":"levelo://app?vid=a4888aee-ab3f-4cc4-83bb-92bd028d8613"},"vehicle_type_id":"4","last_reported":1722179256,"current_range_meters":0,"station_id":"ce4bhbh2rcd13ifvqepg","pricing_plan_id":"cebpf4jnsgd1na2vs0mg"},{"bike_id":"f8d1fcdd-3ac5-4f15-becb-8316d463c5ed","system_id":"levelo_inurba_marseille","lat":43.284217,"lon":5.349697,"is_reserved":false,"is_disabled":false,"rental_uris":{"android":"levelo://app?vid=f8d1fcdd-3ac5-4f15-becb-8316d463c5ed","ios":"levelo://app?vid=f8d1fcdd-3ac5-4f15-becb-8316d463c5ed"},"vehicle_type_id":"4","last_reported":1722179256,"current_range_meters":11600,"station_id":"ce4bhbh2rcd13ifvqepg","pricing_plan_id":"cebpf4jnsgd1na2vs0mg"},{"bike_id":"14ddf4d8-5d3a-4aca-80d3-bbcd673ba22b","system_id":"levelo_inurba_marseille","lat":43.28414,"lon":5.34994,"is_reserved":false,"is_disabled":false,"rental_uris":{"android":"levelo://app?vid=14ddf4d8-5d3a-4aca-80d3-bbcd673ba22b","ios":"levelo://app?vid=14ddf4d8-5d3a-4aca-80d3-bbcd673ba22b"},"vehicle_type_id":"4","last_reported":1722179256,"current_range_meters":11600,"station_id":"ce4bhbh2rcd13ifvqepg","pricing_plan_id":"cebpf4jnsgd1na2vs0mg"},{"bike_id":"fd61c035-8efb-405a-9be5-0528e2f5424d","system_id":"levelo_inurba_marseille","lat":43.28417,"lon":5.34979,"is_reserved":false,"is_disabled":false,"rental_uris":{"android":"levelo://app?vid=fd61c035-8efb-405a-9be5-0528e2f5424d","ios":"levelo://app?vid=fd61c035-8efb-405a-9be5-0528e2f5424d"},"vehicle_type_id":"4","last_reported":1722179256,"current_range_meters":8400,"station_id":"ce4bhbh2rcd13ifvqepg","pricing_plan_id":"cebpf4jnsgd1na2vs0mg"},{"bike_id":"5bcccf47-68e2-4114-8dcb-586ed3ab51ab","system_id":"levelo_inurba_marseille","lat":43.284219,"lon":5.3497,"is_reserved":false,"is_disabled":false,"rental_uris":{"android":"levelo://app?vid=5bcccf47-68e2-4114-8dcb-586ed3ab51ab","ios":"levelo://app?vid=5bcccf47-68e2-4114-8dcb-586ed3ab51ab"},"vehicle_type_id":"4","last_reported":1722179256,"current_range_meters":9200,"station_id":"ce4bhbh2rcd13ifvqepg","pricing_plan_id":"cebpf4jnsgd1na2vs0mg"},{"bike_id":"27300112-95fb-46d7-9b5e-df0e45060812","system_id":"levelo_inurba_marseille","lat":43.28414,"lon":5.34981,"is_reserved":false,"is_disabled":false,"rental_uris":{"android":"levelo://app?vid=27300112-95fb-46d7-9b5e-df0e45060812","ios":"levelo://app?vid=27300112-95fb-46d7-9b5e-df0e45060812"},"vehicle_type_id":"4","last_reported":1722179256,"current_range_meters":16400,"station_id":"ce4bhbh2rcd13ifvqepg","pricing_plan_id":"cebpf4jnsgd1na2vs0mg"},{"bike_id":"48285b51-cdc5-4c06-bc95-1e73b62196b2","system_id":"levelo_inurba_marseille","lat":43.28412,"lon":5.34986,"is_reserved":false,"is_disabled":false,"rental_uris":{"android":"levelo://app?vid=48285b51-cdc5-4c06-bc95-1e73b62196b2","ios":"levelo://app?vid=48285b51-cdc5-4c06-bc95-1e73b62196b2"},"vehicle_type_id":"4","last_reported":1722179256,"current_range_meters":18400,"station_id":"ce4bhbh2rcd13ifvqepg","pricing_plan_id":"cebpf4jnsgd1na2vs0mg"},{"bike_id":"f67cb7dc-3a78-46ef-9cab-00f84ca248ed","system_id":"levelo_inurba_marseille","lat":43.284094,"lon":5.349933,"is_reserved":false,"is_disabled":false,"rental_uris":{"android":"levelo://app?vid=f67cb7dc-3a78-46ef-9cab-00f84ca248ed","ios":"levelo://app?vid=f67cb7dc-3a78-46ef-9cab-00f84ca248ed"},"vehicle_type_id":"4","last_reported":1722179256,"current_range_meters":4400,"station_id":"ce4bhbh2rcd13ifvqepg","pricing_plan_id":"cebpf4jnsgd1na2vs0mg"},{"bike_id":"436f6a65-c7c0-46ce-abc3-49683121e043","system_id":"levelo_inurba_marseille","lat":43.284101,"lon":5.349855,"is_reserved":false,"is_disabled":false,"rental_uris":{"android":"levelo://app?vid=436f6a65-c7c0-46ce-abc3-49683121e043","ios":"levelo://app?vid=436f6a65-c7c0-46ce-abc3-49683121e043"},"vehicle_type_id":"4","last_reported":1722179256,"current_range_meters":15200,"station_id":"ce4bhbh2rcd13ifvqepg","pricing_plan_id":"cebpf4jnsgd1na2vs0mg"},{"bike_id":"22652bd1-43e7-4f3b-8639-5b94c3e0ceda","system_id":"levelo_inurba_marseille","lat":43.284047,"lon":5.349953,"is_reserved":false,"is_disabled":false,"rental_uris":{"android":"levelo://app?vid=22652bd1-43e7-4f3b-8639-5b94c3e0ceda","ios":"levelo://app?vid=22652bd1-43e7-4f3b-8639-5b94c3e0ceda"},"vehicle_type_id":"4","last_reported":1722179256,"current_range_meters":22000,"station_id":"ce4bhbh2rcd13ifvqepg","pricing_plan_id":"cebpf4jnsgd1na2vs0mg"},{"bike_id":"c30a0bd6-432a-4179-8c30-bf2700ba18a1","system_id":"levelo_inurba_marseille","lat":43.28405,"lon":5.3499,"is_reserved":false,"is_disabled":false,"rental_uris":{"android":"levelo://app?vid=c30a0bd6-432a-4179-8c30-bf2700ba18a1","ios":"levelo://app?vid=c30a0bd6-432a-4179-8c30-bf2700ba18a1"},"vehicle_type_id":"4","last_reported":1722179256,"current_range_meters":26000,"station_id":"ce4bhbh2rcd13ifvqepg","pricing_plan_id":"cebpf4jnsgd1na2vs0mg"},{"bike_id":"f5e47feb-f9d8-40e5-9326-fbe4a71fc1a7","system_id":"levelo_inurba_marseille","lat":43.283095,"lon":5.352478,"is_reserved":false,"is_disabled":false,"rental_uris":{"android":"levelo://app?vid=f5e47feb-f9d8-40e5-9326-fbe4a71fc1a7","ios":"levelo://app?vid=f5e47feb-f9d8-40e5-9326-fbe4a71fc1a7"},"vehicle_type_id":"4","last_reported":1722179256,"current_range_meters":12800,"station_id":"ce4bhbh2rcd13ifvqepg","pricing_plan_id":"cebpf4jnsgd1na2vs0mg"},{"bike_id":"17439842-f51a-46ba-a0b2-44e4b92dc3c3","system_id":"levelo_inurba_marseille","lat":43.28938,"lon":5.39614,"is_reserved":false,"is_disabled":false,"rental_uris":{"android":"levelo://app?vid=17439842-f51a-46ba-a0b2-44e4b92dc3c3","ios":"levelo://app?vid=17439842-f51a-46ba-a0b2-44e4b92dc3c3"},"vehicle_type_id":"4","last_reported":1722179256,"current_range_meters":0,"station_id":"ce4bh3h2rcd13ifvqdn0","pricing_plan_id":"cebpf4jnsgd1na2vs0mg"},{"bike_id":"b4076ad0-9083-4bf5-81b9-2f71e3c21b2c","system_id":"levelo_inurba_marseille","lat":43.28281,"lon":5.35083,"is_reserved":false,"is_disabled":false,"rental_uris":{"android":"levelo://app?vid=b4076ad0-9083-4bf5-81b9-2f71e3c21b2c","ios":"levelo://app?vid=b4076ad0-9083-4bf5-81b9-2f71e3c21b2c"},"vehicle_type_id":"4","last_reported":1722179256,"current_range_meters":0,"station_id":"ce4bhbp2rcd13ifvqerg","pricing_plan_id":"cebpf4jnsgd1na2vs0mg"},{"bike_id":"98ee1953-a10f-40b0-9466-9d8b541ea5a0","system_id":"levelo_inurba_marseille","lat":43.28281,"lon":5.3508,"is_reserved":false,"is_disabled":false,"rental_uris":{"android":"levelo://app?vid=98ee1953-a10f-40b0-9466-9d8b541ea5a0","ios":"levelo://app?vid=98ee1953-a10f-40b0-9466-9d8b541ea5a0"},"vehicle_type_id":"4","last_reported":1722179256,"current_range_meters":2800,"station_id":"ce4bhbp2rcd13ifvqerg","pricing_plan_id":"cebpf4jnsgd1na2vs0mg"},{"bike_id":"3c82fc9c-2b47-42c9-9df9-988383fe32d3","system_id":"levelo_inurba_marseille","lat":43.282754,"lon":5.350519,"is_reserved":false,"is_disabled":false,"rental_uris":{"android":"levelo://app?vid=3c82fc9c-2b47-42c9-9df9-988383fe32d3","ios":"levelo://app?vid=3c82fc9c-2b47-42c9-9df9-988383fe32d3"},"vehicle_type_id":"4","last_reported":1722179256,"current_range_meters":18800,"station_id":"ce4bhbp2rcd13ifvqerg","pricing_plan_id":"cebpf4jnsgd1na2vs0mg"},{"bike_id":"282819bd-e6b3-4e1c-bff2-dd0b464f2236","system_id":"levelo_inurba_marseille","lat":43.2828,"lon":5.35077,"is_reserved":false,"is_disabled":false,"rental_uris":{"android":"levelo://app?vid=282819bd-e6b3-4e1c-bff2-dd0b464f2236","ios":"levelo://app?vid=282819bd-e6b3-4e1c-bff2-dd0b464f2236"},"vehicle_type_id":"4","last_reported":1722179256,"current_range_meters":0,"station_id":"ce4bhbp2rcd13ifvqerg","pricing_plan_id":"cebpf4jnsgd1na2vs0mg"},{"bike_id":"48209f47-6229-4205-8d14-94442e8d646d","system_id":"levelo_inurba_marseille","lat":43.282744,"lon":5.350533,"is_reserved":false,"is_disabled":false,"rental_uris":{"android":"levelo://app?vid=48209f47-6229-4205-8d14-94442e8d646d","ios":"levelo://app?vid=48209f47-6229-4205-8d14-94442e8d646d"},"vehicle_type_id":"4","last_reported":1722179256,"current_range_meters":12400,"station_id":"ce4bhbp2rcd13ifvqerg","pricing_plan_id":"cebpf4jnsgd1na2vs0mg"},{"bike_id":"477e812e-871f-4e6f-98c4-b1cfe5998588","system_id":"levelo_inurba_marseille","lat":43.282744,"lon":5.350533,"is_reserved":false,"is_disabled":false,"rental_uris":{"android":"levelo://app?vid=477e812e-871f-4e6f-98c4-b1cfe5998588","ios":"levelo://app?vid=477e812e-871f-4e6f-98c4-b1cfe5998588"},"vehicle_type_id":"4","last_reported":1722179256,"current_range_meters":6000,"station_id":"ce4bhbp2rcd13ifvqerg","pricing_plan_id":"cebpf4jnsgd1na2vs0mg"},{"bike_id":"a14adf98-f29c-44b3-a514-2c6595f817ce","system_id":"levelo_inurba_marseille","lat":43.28278,"lon":5.35065,"is_reserved":false,"is_disabled":false,"rental_uris":{"android":"levelo://app?vid=a14adf98-f29c-44b3-a514-2c6595f817ce","ios":"levelo://app?vid=a14adf98-f29c-44b3-a514-2c6595f817ce"},"vehicle_type_id":"4","last_reported":1722179256,"current_range_meters":12800,"station_id":"ce4bhbp2rcd13ifvqerg","pricing_plan_id":"cebpf4jnsgd1na2vs0mg"},{"bike_id":"dde3595d-ae75-4d91-b1a2-b8eaac5a83d1","system_id":"levelo_inurba_marseille","lat":43.28279,"lon":5.35059,"is_reserved":false,"is_disabled":false,"rental_uris":{"android":"levelo://app?vid=dde3595d-ae75-4d91-b1a2-b8eaac5a83d1","ios":"levelo://app?vid=dde3595d-ae75-4d91-b1a2-b8eaac5a83d1"},"vehicle_type_id":"4","last_reported":1722179256,"current_range_meters":6400,"station_id":"ce4bhbp2rcd13ifvqerg","pricing_plan_id":"cebpf4jnsgd1na2vs0mg"},{"bike_id":"d6c6979c-d494-4ca9-be86-140e624e5bc3","system_id":"levelo_inurba_marseille","lat":43.28274,"lon":5.3507,"is_reserved":false,"is_disabled":false,"rental_uris":{"android":"levelo://app?vid=d6c6979c-d494-4ca9-be86-140e624e5bc3","ios":"levelo://app?vid=d6c6979c-d494-4ca9-be86-140e624e5bc3"},"vehicle_type_id":"4","last_reported":1722179256,"current_range_meters":0,"station_id":"ce4bhbp2rcd13ifvqerg","pricing_plan_id":"cebpf4jnsgd1na2vs0mg"},{"bike_id":"284bffd6-d449-4703-af3f-5b333c9ba40e","system_id":"levelo_inurba_marseille","lat":43.28277,"lon":5.35059,"is_reserved":false,"is_disabled":false,"rental_uris":{"android":"levelo://app?vid=284bffd6-d449-4703-af3f-5b333c9ba40e","ios":"levelo://app?vid=284bffd6-d449-4703-af3f-5b333c9ba40e"},"vehicle_type_id":"4","last_reported":1722179256,"current_range_meters":12800,"station_id":"ce4bhbp2rcd13ifvqerg","pricing_plan_id":"cebpf4jnsgd1na2vs0mg"},{"bike_id":"c0cfd95d-3bbc-4c14-ab9c-2a86d0a791a6","system_id":"levelo_inurba_marseille","lat":43.28276,"lon":5.35059,"is_reserved":false,"is_disabled":false,"rental_uris":{"android":"levelo://app?vid=c0cfd95d-3bbc-4c14-ab9c-2a86d0a791a6","ios":"levelo://app?vid=c0cfd95d-3bbc-4c14-ab9c-2a86d0a791a6"},"vehicle_type_id":"4","last_reported":1722179256,"current_range_meters":4000,"station_id":"ce4bhbp2rcd13ifvqerg","pricing_plan_id":"cebpf4jnsgd1na2vs0mg"},{"bike_id":"9e2027d9-7620-498d-b25c-41828b7e3dd2","system_id":"levelo_inurba_marseille","lat":43.28273,"lon":5.35069,"is_reserved":false,"is_disabled":false,"rental_uris":{"android":"levelo://app?vid=9e2027d9-7620-498d-b25c-41828b7e3dd2","ios":"levelo://app?vid=9e2027d9-7620-498d-b25c-41828b7e3dd2"},"vehicle_type_id":"4","last_reported":1722179256,"current_range_meters":2800,"station_id":"ce4bhbp2rcd13ifvqerg","pricing_plan_id":"cebpf4jnsgd1na2vs0mg"},{"bike_id":"b67d532f-d85d-4662-9e49-527bee0c8dc9","system_id":"levelo_inurba_marseille","lat":43.28273,"lon":5.35068,"is_reserved":false,"is_disabled":false,"rental_uris":{"android":"levelo://app?vid=b67d532f-d85d-4662-9e49-527bee0c8dc9","ios":"levelo://app?vid=b67d532f-d85d-4662-9e49-527bee0c8dc9"},"vehicle_type_id":"4","last_reported":1722179256,"current_range_meters":0,"station_id":"ce4bhbp2rcd13ifvqerg","pricing_plan_id":"cebpf4jnsgd1na2vs0mg"},{"bike_id":"47a80419-7786-4d20-a06d-7686aec1ec97","system_id":"levelo_inurba_marseille","lat":43.28272,"lon":5.35071,"is_reserved":false,"is_disabled":false,"rental_uris":{"android":"levelo://app?vid=47a80419-7786-4d20-a06d-7686aec1ec97","ios":"levelo://app?vid=47a80419-7786-4d20-a06d-7686aec1ec97"},"vehicle_type_id":"4","last_reported":1722179256,"current_range_meters":3200,"station_id":"ce4bhbp2rcd13ifvqerg","pricing_plan_id":"cebpf4jnsgd1na2vs0mg"},{"bike_id":"0345b6bc-a196-4a41-a598-261b136b257a","system_id":"levelo_inurba_marseille","lat":43.28274,"lon":5.35064,"is_reserved":false,"is_disabled":false,"rental_uris":{"android":"levelo://app?vid=0345b6bc-a196-4a41-a598-261b136b257a","ios":"levelo://app?vid=0345b6bc-a196-4a41-a598-261b136b257a"},"vehicle_type_id":"4","last_reported":1722179256,"current_range_meters":19200,"station_id":"ce4bhbp2rcd13ifvqerg","pricing_plan_id":"cebpf4jnsgd1na2vs0mg"},{"bike_id":"4c071695-7de3-4812-8a26-6184e295960c","system_id":"levelo_inurba_marseille","lat":43.28271,"lon":5.35074,"is_reserved":false,"is_disabled":false,"rental_uris":{"android":"levelo://app?vid=4c071695-7de3-4812-8a26-6184e295960c","ios":"levelo://app?vid=4c071695-7de3-4812-8a26-6184e295960c"},"vehicle_type_id":"4","last_reported":1722179256,"current_range_meters":0,"station_id":"ce4bhbp2rcd13ifvqerg","pricing_plan_id":"cebpf4jnsgd1na2vs0mg"},{"bike_id":"1ee562e0-1c59-4824-b1e4-39181633ca86","system_id":"levelo_inurba_marseille","lat":43.282744,"lon":5.350533,"is_reserved":false,"is_disabled":false,"rental_uris":{"android":"levelo://app?vid=1ee562e0-1c59-4824-b1e4-39181633ca86","ios":"levelo://app?vid=1ee562e0-1c59-4824-b1e4-39181633ca86"},"vehicle_type_id":"4","last_reported":1722179256,"current_range_meters":30800,"station_id":"ce4bhbp2rcd13ifvqerg","pricing_plan_id":"cebpf4jnsgd1na2vs0mg"},{"bike_id":"dc69750d-f057-4601-aa70-ea3bf22b4f7a","system_id":"levelo_inurba_marseille","lat":43.28272,"lon":5.35064,"is_reserved":false,"is_disabled":false,"rental_uris":{"android":"levelo://app?vid=dc69750d-f057-4601-aa70-ea3bf22b4f7a","ios":"levelo://app?vid=dc69750d-f057-4601-aa70-ea3bf22b4f7a"},"vehicle_type_id":"4","last_reported":1722179256,"current_range_meters":0,"station_id":"ce4bhbp2rcd13ifvqerg","pricing_plan_id":"cebpf4jnsgd1na2vs0mg"},{"bike_id":"1a79a2b7-dfd2-434d-8b2f-085f806a6611","system_id":"levelo_inurba_marseille","lat":43.282656,"lon":5.350576,"is_reserved":false,"is_disabled":false,"rental_uris":{"android":"levelo://app?vid=1a79a2b7-dfd2-434d-8b2f-085f806a6611","ios":"levelo://app?vid=1a79a2b7-dfd2-434d-8b2f-085f806a6611"},"vehicle_type_id":"4","last_reported":1722179256,"current_range_meters":0,"station_id":"","pricing_plan_id":"cebpf4jnsgd1na2vs0mg"},{"bike_id":"a2ce4fa0-e3ef-4e47-803e-c2167a031f46","system_id":"levelo_inurba_marseille","lat":43.282744,"lon":5.350533,"is_reserved":false,"is_disabled":false,"rental_uris":{"android":"levelo://app?vid=a2ce4fa0-e3ef-4e47-803e-c2167a031f46","ios":"levelo://app?vid=a2ce4fa0-e3ef-4e47-803e-c2167a031f46"},"vehicle_type_id":"4","last_reported":1722179256,"current_range_meters":19600,"station_id":"ce4bhbp2rcd13ifvqerg","pricing_plan_id":"cebpf4jnsgd1na2vs0mg"},{"bike_id":"0c09e4d3-d7af-4a66-bc1b-4abe5a4d4815","system_id":"levelo_inurba_marseille","lat":43.28043,"lon":5.36936,"is_reserved":false,"is_disabled":false,"rental_uris":{"android":"levelo://app?vid=0c09e4d3-d7af-4a66-bc1b-4abe5a4d4815","ios":"levelo://app?vid=0c09e4d3-d7af-4a66-bc1b-4abe5a4d4815"},"vehicle_type_id":"4","last_reported":1722179256,"current_range_meters":0,"station_id":"ce4bha12rcd13ifvqef0","pricing_plan_id":"cebpf4jnsgd1na2vs0mg"},{"bike_id":"3bb4a3bf-4d06-4885-b59e-9b2d2367b225","system_id":"levelo_inurba_marseille","lat":43.28041,"lon":5.36958,"is_reserved":false,"is_disabled":false,"rental_uris":{"android":"levelo://app?vid=3bb4a3bf-4d06-4885-b59e-9b2d2367b225","ios":"levelo://app?vid=3bb4a3bf-4d06-4885-b59e-9b2d2367b225"},"vehicle_type_id":"4","last_reported":1722179256,"current_range_meters":0,"station_id":"ce4bha12rcd13ifvqef0","pricing_plan_id":"cebpf4jnsgd1na2vs0mg"},{"bike_id":"1c354e21-751c-4602-89c3-44d402a1abbf","system_id":"levelo_inurba_marseille","lat":43.282744,"lon":5.350533,"is_reserved":false,"is_disabled":false,"rental_uris":{"android":"levelo://app?vid=1c354e21-751c-4602-89c3-44d402a1abbf","ios":"levelo://app?vid=1c354e21-751c-4602-89c3-44d402a1abbf"},"vehicle_type_id":"4","last_reported":1722179256,"current_range_meters":400,"station_id":"ce4bhbp2rcd13ifvqerg","pricing_plan_id":"cebpf4jnsgd1na2vs0mg"},{"bike_id":"0371a5e6-7af8-47ab-a3e1-74e1f931f18f","system_id":"levelo_inurba_marseille","lat":43.281044,"lon":5.378308,"is_reserved":false,"is_disabled":false,"rental_uris":{"android":"levelo://app?vid=0371a5e6-7af8-47ab-a3e1-74e1f931f18f","ios":"levelo://app?vid=0371a5e6-7af8-47ab-a3e1-74e1f931f18f"},"vehicle_type_id":"4","last_reported":1722179256,"current_range_meters":30000,"station_id":"ce4bha12rcd13ifvqee0","pricing_plan_id":"cebpf4jnsgd1na2vs0mg"},{"bike_id":"f380b3ab-aa28-4457-89b7-219bb442a469","system_id":"levelo_inurba_marseille","lat":43.296263,"lon":5.40601,"is_reserved":false,"is_disabled":false,"rental_uris":{"android":"levelo://app?vid=f380b3ab-aa28-4457-89b7-219bb442a469","ios":"levelo://app?vid=f380b3ab-aa28-4457-89b7-219bb442a469"},"vehicle_type_id":"4","last_reported":1722179256,"current_range_meters":5200,"station_id":"ce4bh0h2rcd13ifvqd60","pricing_plan_id":"cebpf4jnsgd1na2vs0mg"},{"bike_id":"ef1dfde2-1b18-4150-ae9b-42499ff6d54e","system_id":"levelo_inurba_marseille","lat":43.28091,"lon":5.37853,"is_reserved":false,"is_disabled":false,"rental_uris":{"android":"levelo://app?vid=ef1dfde2-1b18-4150-ae9b-42499ff6d54e","ios":"levelo://app?vid=ef1dfde2-1b18-4150-ae9b-42499ff6d54e"},"vehicle_type_id":"4","last_reported":1722179256,"current_range_meters":16000,"station_id":"ce4bha12rcd13ifvqee0","pricing_plan_id":"cebpf4jnsgd1na2vs0mg"},{"bike_id":"e8080547-572f-47d1-bde8-ffc26f12c275","system_id":"levelo_inurba_marseille","lat":43.34091,"lon":5.39103,"is_reserved":false,"is_disabled":false,"rental_uris":{"android":"levelo://app?vid=e8080547-572f-47d1-bde8-ffc26f12c275","ios":"levelo://app?vid=e8080547-572f-47d1-bde8-ffc26f12c275"},"vehicle_type_id":"4","last_reported":1722179256,"current_range_meters":8800,"station_id":"","pricing_plan_id":"cebpf4jnsgd1na2vs0mg"},{"bike_id":"1c0311e6-744d-43d8-9b47-5a8fbe95e63f","system_id":"levelo_inurba_marseille","lat":43.28222,"lon":5.34893,"is_reserved":false,"is_disabled":false,"rental_uris":{"android":"levelo://app?vid=1c0311e6-744d-43d8-9b47-5a8fbe95e63f","ios":"levelo://app?vid=1c0311e6-744d-43d8-9b47-5a8fbe95e63f"},"vehicle_type_id":"4","last_reported":1722179256,"current_range_meters":0,"station_id":"","pricing_plan_id":"cebpf4jnsgd1na2vs0mg"},{"bike_id":"0dc23daf-ceb0-4558-b491-50503b89d50f","system_id":"levelo_inurba_marseille","lat":43.282744,"lon":5.350533,"is_reserved":false,"is_disabled":false,"rental_uris":{"android":"levelo://app?vid=0dc23daf-ceb0-4558-b491-50503b89d50f","ios":"levelo://app?vid=0dc23daf-ceb0-4558-b491-50503b89d50f"},"vehicle_type_id":"4","last_reported":1722179256,"current_range_meters":0,"station_id":"ce4bhbp2rcd13ifvqerg","pricing_plan_id":"cebpf4jnsgd1na2vs0mg"},{"bike_id":"f0a77d1b-31df-4cb3-a65b-05a2fd0dc828","system_id":"levelo_inurba_marseille","lat":43.284462,"lon":5.392121,"is_reserved":false,"is_disabled":false,"rental_uris":{"android":"levelo://app?vid=f0a77d1b-31df-4cb3-a65b-05a2fd0dc828","ios":"levelo://app?vid=f0a77d1b-31df-4cb3-a65b-05a2fd0dc828"},"vehicle_type_id":"4","last_reported":1722179256,"current_range_meters":0,"station_id":"ce4bhoh2rcd13ifvqh5g","pricing_plan_id":"cebpf4jnsgd1na2vs0mg"},{"bike_id":"36076753-96cd-42f9-b374-ab36a8a378fd","system_id":"levelo_inurba_marseille","lat":43.284462,"lon":5.392121,"is_reserved":false,"is_disabled":false,"rental_uris":{"android":"levelo://app?vid=36076753-96cd-42f9-b374-ab36a8a378fd","ios":"levelo://app?vid=36076753-96cd-42f9-b374-ab36a8a378fd"},"vehicle_type_id":"4","last_reported":1722179256,"current_range_meters":6400,"station_id":"ce4bhoh2rcd13ifvqh5g","pricing_plan_id":"cebpf4jnsgd1na2vs0mg"},{"bike_id":"eb22bc29-dfdf-40cc-bb63-fb8646f01ae4","system_id":"levelo_inurba_marseille","lat":43.326605,"lon":5.409903,"is_reserved":false,"is_disabled":false,"rental_uris":{"android":"levelo://app?vid=eb22bc29-dfdf-40cc-bb63-fb8646f01ae4","ios":"levelo://app?vid=eb22bc29-dfdf-40cc-bb63-fb8646f01ae4"},"vehicle_type_id":"4","last_reported":1722179256,"current_range_meters":7600,"station_id":"ce4bhpp2rcd13ifvqhgg","pricing_plan_id":"cebpf4jnsgd1na2vs0mg"},{"bike_id":"dcf0b742-0829-41a1-8a31-f8edcc4bbccf","system_id":"levelo_inurba_marseille","lat":43.279087,"lon":5.380114,"is_reserved":false,"is_disabled":false,"rental_uris":{"android":"levelo://app?vid=dcf0b742-0829-41a1-8a31-f8edcc4bbccf","ios":"levelo://app?vid=dcf0b742-0829-41a1-8a31-f8edcc4bbccf"},"vehicle_type_id":"4","last_reported":1722179256,"current_range_meters":20000,"station_id":"ce4bhf92rcd13ifvqf50","pricing_plan_id":"cebpf4jnsgd1na2vs0mg"},{"bike_id":"48868a67-daba-4d8f-8aef-700d9d70d8f1","system_id":"levelo_inurba_marseille","lat":43.347816,"lon":5.373733,"is_reserved":false,"is_disabled":false,"rental_uris":{"android":"levelo://app?vid=48868a67-daba-4d8f-8aef-700d9d70d8f1","ios":"levelo://app?vid=48868a67-daba-4d8f-8aef-700d9d70d8f1"},"vehicle_type_id":"4","last_reported":1722179256,"current_range_meters":8800,"station_id":"","pricing_plan_id":"cebpf4jnsgd1na2vs0mg"},{"bike_id":"a9de3ab6-f9b2-442b-818f-e9f1055df2d4","system_id":"levelo_inurba_marseille","lat":43.279742,"lon":5.38744,"is_reserved":false,"is_disabled":false,"rental_uris":{"android":"levelo://app?vid=a9de3ab6-f9b2-442b-818f-e9f1055df2d4","ios":"levelo://app?vid=a9de3ab6-f9b2-442b-818f-e9f1055df2d4"},"vehicle_type_id":"4","last_reported":1722179256,"current_range_meters":2400,"station_id":"ce4bhg12rcd13ifvqf80","pricing_plan_id":"cebpf4jnsgd1na2vs0mg"},{"bike_id":"7d22dd0d-d9b6-436f-a640-4f34c4c88b59","system_id":"levelo_inurba_marseille","lat":43.279742,"lon":5.38744,"is_reserved":false,"is_disabled":false,"rental_uris":{"android":"levelo://app?vid=7d22dd0d-d9b6-436f-a640-4f34c4c88b59","ios":"levelo://app?vid=7d22dd0d-d9b6-436f-a640-4f34c4c88b59"},"vehicle_type_id":"4","last_reported":1722179256,"current_range_meters":800,"station_id":"ce4bhg12rcd13ifvqf80","pricing_plan_id":"cebpf4jnsgd1na2vs0mg"},{"bike_id":"e49d4c2d-aaa7-4ca7-a85b-febe25e40be4","system_id":"levelo_inurba_marseille","lat":43.258224,"lon":5.394369,"is_reserved":false,"is_disabled":false,"rental_uris":{"android":"levelo://app?vid=e49d4c2d-aaa7-4ca7-a85b-febe25e40be4","ios":"levelo://app?vid=e49d4c2d-aaa7-4ca7-a85b-febe25e40be4"},"vehicle_type_id":"4","last_reported":1722179256,"current_range_meters":22400,"station_id":"ce4bhip2rcd13ifvqft0","pricing_plan_id":"cebpf4jnsgd1na2vs0mg"},{"bike_id":"15fa1d91-b802-459c-9017-50c18091f010","system_id":"levelo_inurba_marseille","lat":43.279742,"lon":5.38744,"is_reserved":false,"is_disabled":false,"rental_uris":{"android":"levelo://app?vid=15fa1d91-b802-459c-9017-50c18091f010","ios":"levelo://app?vid=15fa1d91-b802-459c-9017-50c18091f010"},"vehicle_type_id":"4","last_reported":1722179256,"current_range_meters":15200,"station_id":"ce4bhg12rcd13ifvqf80","pricing_plan_id":"cebpf4jnsgd1na2vs0mg"},{"bike_id":"517b4365-d468-4f71-8611-68d1e91ccf41","system_id":"levelo_inurba_marseille","lat":43.320406,"lon":5.415656,"is_reserved":false,"is_disabled":false,"rental_uris":{"android":"levelo://app?vid=517b4365-d468-4f71-8611-68d1e91ccf41","ios":"levelo://app?vid=517b4365-d468-4f71-8611-68d1e91ccf41"},"vehicle_type_id":"4","last_reported":1722179256,"current_range_meters":3200,"station_id":"ce4bhq92rcd13ifvqhkg","pricing_plan_id":"cebpf4jnsgd1na2vs0mg"},{"bike_id":"44f797d1-41d3-4912-b152-ebd4f19e6574","system_id":"levelo_inurba_marseille","lat":43.27618,"lon":5.361009,"is_reserved":false,"is_disabled":false,"rental_uris":{"android":"levelo://app?vid=44f797d1-41d3-4912-b152-ebd4f19e6574","ios":"levelo://app?vid=44f797d1-41d3-4912-b152-ebd4f19e6574"},"vehicle_type_id":"4","last_reported":1722179256,"current_range_meters":2000,"station_id":"ce4bgj92rcd13ifvqbe0","pricing_plan_id":"cebpf4jnsgd1na2vs0mg"},{"bike_id":"1100654e-439b-4f5b-8a5d-31ef7b1a0e29","system_id":"levelo_inurba_marseille","lat":43.292571,"lon":5.409107,"is_reserved":false,"is_disabled":false,"rental_uris":{"android":"levelo://app?vid=1100654e-439b-4f5b-8a5d-31ef7b1a0e29","ios":"levelo://app?vid=1100654e-439b-4f5b-8a5d-31ef7b1a0e29"},"vehicle_type_id":"4","last_reported":1722179256,"current_range_meters":0,"station_id":"ce4bh192rcd13ifvqdc0","pricing_plan_id":"cebpf4jnsgd1na2vs0mg"},{"bike_id":"ad68280f-919e-448b-8d6b-efbb7beba03d","system_id":"levelo_inurba_marseille","lat":43.325233,"lon":5.414318,"is_reserved":false,"is_disabled":false,"rental_uris":{"android":"levelo://app?vid=ad68280f-919e-448b-8d6b-efbb7beba03d","ios":"levelo://app?vid=ad68280f-919e-448b-8d6b-efbb7beba03d"},"vehicle_type_id":"4","last_reported":1722179256,"current_range_meters":31600,"station_id":"ce4bhq12rcd13ifvqhhg","pricing_plan_id":"cebpf4jnsgd1na2vs0mg"},{"bike_id":"8a0587e3-b110-40ef-91fb-5a8bd9542733","system_id":"levelo_inurba_marseille","lat":43.276179,"lon":5.361009,"is_reserved":false,"is_disabled":false,"rental_uris":{"android":"levelo://app?vid=8a0587e3-b110-40ef-91fb-5a8bd9542733","ios":"levelo://app?vid=8a0587e3-b110-40ef-91fb-5a8bd9542733"},"vehicle_type_id":"4","last_reported":1722179256,"current_range_meters":8000,"station_id":"ce4bgj92rcd13ifvqbe0","pricing_plan_id":"cebpf4jnsgd1na2vs0mg"},{"bike_id":"a17bbf28-ba85-454f-95c5-58d5dfe850b6","system_id":"levelo_inurba_marseille","lat":43.325233,"lon":5.414318,"is_reserved":false,"is_disabled":false,"rental_uris":{"android":"levelo://app?vid=a17bbf28-ba85-454f-95c5-58d5dfe850b6","ios":"levelo://app?vid=a17bbf28-ba85-454f-95c5-58d5dfe850b6"},"vehicle_type_id":"4","last_reported":1722179256,"current_range_meters":12800,"station_id":"ce4bhq12rcd13ifvqhhg","pricing_plan_id":"cebpf4jnsgd1na2vs0mg"},{"bike_id":"48547892-e257-4079-af67-fbd20c771d28","system_id":"levelo_inurba_marseille","lat":43.276179,"lon":5.361009,"is_reserved":false,"is_disabled":false,"rental_uris":{"android":"levelo://app?vid=48547892-e257-4079-af67-fbd20c771d28","ios":"levelo://app?vid=48547892-e257-4079-af67-fbd20c771d28"},"vehicle_type_id":"4","last_reported":1722179256,"current_range_meters":24400,"station_id":"ce4bgj92rcd13ifvqbe0","pricing_plan_id":"cebpf4jnsgd1na2vs0mg"},{"bike_id":"4b6264df-a202-4b31-9a21-200387ec4f60","system_id":"levelo_inurba_marseille","lat":43.27618,"lon":5.361009,"is_reserved":false,"is_disabled":false,"rental_uris":{"android":"levelo://app?vid=4b6264df-a202-4b31-9a21-200387ec4f60","ios":"levelo://app?vid=4b6264df-a202-4b31-9a21-200387ec4f60"},"vehicle_type_id":"4","last_reported":1722179256,"current_range_meters":3600,"station_id":"ce4bgj92rcd13ifvqbe0","pricing_plan_id":"cebpf4jnsgd1na2vs0mg"},{"bike_id":"96de632e-6e11-4f7e-93e3-6e171162e656","system_id":"levelo_inurba_marseille","lat":43.325243,"lon":5.414326,"is_reserved":false,"is_disabled":false,"rental_uris":{"android":"levelo://app?vid=96de632e-6e11-4f7e-93e3-6e171162e656","ios":"levelo://app?vid=96de632e-6e11-4f7e-93e3-6e171162e656"},"vehicle_type_id":"4","last_reported":1722179256,"current_range_meters":28400,"station_id":"ce4bhq12rcd13ifvqhhg","pricing_plan_id":"cebpf4jnsgd1na2vs0mg"},{"bike_id":"2b9468c1-d213-4bfc-9af7-4f29373d4513","system_id":"levelo_inurba_marseille","lat":43.325325,"lon":5.414545,"is_reserved":false,"is_disabled":false,"rental_uris":{"android":"levelo://app?vid=2b9468c1-d213-4bfc-9af7-4f29373d4513","ios":"levelo://app?vid=2b9468c1-d213-4bfc-9af7-4f29373d4513"},"vehicle_type_id":"4","last_reported":1722179256,"current_range_meters":26800,"station_id":"ce4bhq12rcd13ifvqhhg","pricing_plan_id":"cebpf4jnsgd1na2vs0mg"},