{"last_updated":1726376953,"ttl":30,"version":"2.2","data":{"bikes":[{"bike_id":"3b175dd1-1b87-40ba-8d45-5aa32031f6a1","system_id":"levelo_inurba_marseille","lat":43.23206,"lon":5.39985,"is_reserved":false,"is_disabled":false,"rental_uris":{"android":"levelo://app?vid=3b175dd1-1b87-40ba-8d45-5aa32031f6a1","ios":"levelo://app?vid=3b175dd1-1b87-40ba-8d45-5aa32031f6a1"},"vehicle_type_id":"4","last_reported":1726376953,"current_range_meters":26000,"station_id":"ce4bhn12rcd13ifvqgqg","pricing_plan_id":"cebpf4jnsgd1na2vs0mg"},{"bike_id":"a084d085-043f-4c8c-a597-c0982ab2119f","system_id":"levelo_inurba_marseille","lat":43.33013,"lon":5.39,"is_reserved":false,"is_disabled":false,"rental_uris":{"android":"levelo://app?vid=a084d085-043f-4c8c-a597-c0982ab2119f","ios":"levelo://app?vid=a084d085-043f-4c8c-a597-c0982ab2119f"},"vehicle_type_id":"4","last_reported":1726376953,"current_range_meters":28400,"station_id":"ce4bhr92rcd13ifvqhrg","pricing_plan_id":"cebpf4jnsgd1na2vs0mg"},{"bike_id":"da74842e-8b51-42a6-8c35-5d7d26dd14c1","system_id":"levelo_inurba_marseille","lat":43.31071,"lon":5.38352,"is_reserved":false,"is_disabled":false,"rental_uris":{"android":"levelo://app?vid=da74842e-8b51-42a6-8c35-5d7d26dd14c1","ios":"levelo://app?vid=da74842e-8b51-42a6-8c35-5d7d26dd14c1"},"vehicle_type_id":"4","last_reported":1726376953,"current_range_meters":38400,"station_id":"ce4bgv92rcd13ifvqcr0","pricing_plan_id":"cebpf4jnsgd1na2vs0mg"},{"bike_id":"120f5118-0c17-4b4d-9cb6-f2de60174be1","system_id":"levelo_inurba_marseille","lat":43.30597,"lon":5.37216,"is_reserved":false,"is_disabled":false,"rental_uris":{"android":"levelo://app?vid=120f5118-0c17-4b4d-9cb6-f2de60174be1","ios":"levelo://app?vid=120f5118-0c17-4b4d-9cb6-f2de60174be1"},"vehicle_type_id":"4","last_reported":1726376953,"current_range_meters":38800,"station_id":"ce4bgqh2rcd13ifvqc4g","pricing_plan_id":"cebpf4jnsgd1na2vs0mg"},{"bike_id":"41794888-f987-44d1-a96d-7e23df1159dd","system_id":"levelo_inurba_marseille","lat":43.25872,"lon":5.39898,"is_reserved":false,"is_disabled":false,"rental_uris":{"android":"levelo://app?vid=41794888-f987-44d1-a96d-7e23df1159dd","ios":"levelo://app?vid=41794888-f987-44d1-a96d-7e23df1159dd"},"vehicle_type_id":"4","last_reported":1726376953,"current_range_meters":38800,"station_id":"ce4bhl92rcd13ifvqghg","pricing_plan_id":"cebpf4jnsgd1na2vs0mg"},{"bike_id":"cf218508-2eb5-4647-865a-14c64208161f","system_id":"levelo_inurba_marseille","lat":43.30887,"lon":5.37189,"is_reserved":false,"is_disabled":false,"rental_uris":{"android":"levelo://app?vid=cf218508-2eb5-4647-865a-14c64208161f","ios":"levelo://app?vid=cf218508-2eb5-4647-865a-14c64208161f"},"vehicle_type_id":"4","last_reported":1726376953,"current_range_meters":35600,"station_id":"ce4bguh2rcd13ifvqckg","pricing_plan_id":"cebpf4jnsgd1na2vs0mg"},{"bike_id":"a9a28913-6db6-4db2-8d78-9a3449d23e3e","system_id":"levelo_inurba_marseille","lat":43.23193,"lon":5.3556,"is_reserved":false,"is_disabled":false,"rental_uris":{"android":"levelo://app?vid=a9a28913-6db6-4db2-8d78-9a3449d23e3e","ios":"levelo://app?vid=a9a28913-6db6-4db2-8d78-9a3449d23e3e"},"vehicle_type_id":"4","last_reported":1726376953,"current_range_meters":27600,"station_id":"ce4bhu92rcd13ifvqi70","pricing_plan_id":"cebpf4jnsgd1na2vs0mg"},{"bike_id":"083984dd-1abd-4a7d-84c6-e8ceb7b63abe","system_id":"levelo_inurba_marseille","lat":43.31294,"lon":5.37812,"is_reserved":false,"is_disabled":false,"rental_uris":{"android":"levelo://app?vid=083984dd-1abd-4a7d-84c6-e8ceb7b63abe","ios":"levelo://app?vid=083984dd-1abd-4a7d-84c6-e8ceb7b63abe"},"vehicle_type_id":"4","last_reported":1726376953,"current_range_meters":35200,"station_id":"","pricing_plan_id":"cebpf4jnsgd1na2vs0mg"},{"bike_id":"96784f44-bef6-4581-914e-08be01dd0e33","system_id":"levelo_inurba_marseille","lat":43.28264,"lon":5.35078,"is_reserved":false,"is_disabled":false,"rental_uris":{"android":"levelo://app?vid=96784f44-bef6-4581-914e-08be01dd0e33","ios":"levelo://app?vid=96784f44-bef6-4581-914e-08be01dd0e33"},"vehicle_type_id":"4","last_reported":1726376953,"current_range_meters":38000,"station_id":"ce4bhbp2rcd13ifvqerg","pricing_plan_id":"cebpf4jnsgd1na2vs0mg"},{"bike_id":"a31b5fb2-f16c-4520-a792-d86ab96d4231","system_id":"levelo_inurba_marseille","lat":43.28857,"lon":5.39319,"is_reserved":false,"is_disabled":false,"rental_uris":{"android":"levelo://app?vid=a31b5fb2-f16c-4520-a792-d86ab96d4231","ios":"levelo://app?vid=a31b5fb2-f16c-4520-a792-d86ab96d4231"},"vehicle_type_id":"4","last_reported":1726376953,"current_range_meters":38800,"station_id":"ce4bh2p2rcd13ifvqdi0","pricing_plan_id":"cebpf4jnsgd1na2vs0mg"},{"bike_id":"be13ad90-bbb4-40da-9e8c-853f0dfe2473","system_id":"levelo_inurba_marseille","lat":43.30931,"lon":5.40147,"is_reserved":false,"is_disabled":false,"rental_uris":{"android":"levelo://app?vid=be13ad90-bbb4-40da-9e8c-853f0dfe2473","ios":"levelo://app?vid=be13ad90-bbb4-40da-9e8c-853f0dfe2473"},"vehicle_type_id":"4","last_reported":1726376953,"current_range_meters":7200,"station_id":"ce4bgvp2rcd13ifvqct0","pricing_plan_id":"cebpf4jnsgd1na2vs0mg"},{"bike_id":"1ab4fe47-af07-415e-ad6d-64df2b3e0479","system_id":"levelo_inurba_marseille","lat":43.29253,"lon":5.40911,"is_reserved":false,"is_disabled":false,"rental_uris":{"android":"levelo://app?vid=1ab4fe47-af07-415e-ad6d-64df2b3e0479","ios":"levelo://app?vid=1ab4fe47-af07-415e-ad6d-64df2b3e0479"},"vehicle_type_id":"4","last_reported":1726376953,"current_range_meters":30800,"station_id":"ce4bh192rcd13ifvqdc0","pricing_plan_id":"cebpf4jnsgd1na2vs0mg"},{"bike_id":"9bec1e45-b00e-4096-b952-6dc362ff5fa3","system_id":"levelo_inurba_marseille","lat":43.30325,"lon":5.40436,"is_reserved":false,"is_disabled":false,"rental_uris":{"android":"levelo://app?vid=9bec1e45-b00e-4096-b952-6dc362ff5fa3","ios":"levelo://app?vid=9bec1e45-b00e-4096-b952-6dc362ff5fa3"},"vehicle_type_id":"4","last_reported":1726376953,"current_range_meters":34000,"station_id":"ce4bh012rcd13ifvqd10","pricing_plan_id":"cebpf4jnsgd1na2vs0mg"},{"bike_id":"367cb39f-57ef-4690-afdb-fabf62007e06","system_id":"levelo_inurba_marseille","lat":43.28616,"lon":5.35106,"is_reserved":false,"is_disabled":false,"rental_uris":{"android":"levelo://app?vid=367cb39f-57ef-4690-afdb-fabf62007e06","ios":"levelo://app?vid=367cb39f-57ef-4690-afdb-fabf62007e06"},"vehicle_type_id":"4","last_reported":1726376953,"current_range_meters":17600,"station_id":"ce4bhch2rcd13ifvqeug","pricing_plan_id":"cebpf4jnsgd1na2vs0mg"},{"bike_id":"13c4bde3-79a1-495d-a0c0-1dbceff892e5","system_id":"levelo_inurba_marseille","lat":43.25933,"lon":5.40911,"is_reserved":false,"is_disabled":false,"rental_uris":{"android":"levelo://app?vid=13c4bde3-79a1-495d-a0c0-1dbceff892e5","ios":"levelo://app?vid=13c4bde3-79a1-495d-a0c0-1dbceff892e5"},"vehicle_type_id":"4","last_reported":1726376953,"current_range_meters":4400,"station_id":"ce4bhm92rcd13ifvqglg","pricing_plan_id":"cebpf4jnsgd1na2vs0mg"},{"bike_id":"10728045-d652-461a-a9ab-b0440d533a3f","system_id":"levelo_inurba_marseille","lat":43.24391,"lon":5.37063,"is_reserved":false,"is_disabled":false,"rental_uris":{"android":"levelo://app?vid=10728045-d652-461a-a9ab-b0440d533a3f","ios":"levelo://app?vid=10728045-d652-461a-a9ab-b0440d533a3f"},"vehicle_type_id":"4","last_reported":1726376953,"current_range_meters":19600,"station_id":"ce4bhhh2rcd13ifvqfk0","pricing_plan_id":"cebpf4jnsgd1na2vs0mg"},{"bike_id":"1484d332-30fe-4f3d-8e8c-4f90f3830819","system_id":"levelo_inurba_marseille","lat":43.23191,"lon":5.39982,"is_reserved":false,"is_disabled":false,"rental_uris":{"android":"levelo://app?vid=1484d332-30fe-4f3d-8e8c-4f90f3830819","ios":"levelo://app?vid=1484d332-30fe-4f3d-8e8c-4f90f3830819"},"vehicle_type_id":"4","last_reported":1726376953,"current_range_meters":38800,"station_id":"ce4bhn12rcd13ifvqgqg","pricing_plan_id":"cebpf4jnsgd1na2vs0mg"},{"bike_id":"e12b556d-45d5-4f92-9b6c-c229879ce816","system_id":"levelo_inurba_marseille","lat":43.30639,"lon":5.40086,"is_reserved":false,"is_disabled":false,"rental_uris":{"android":"levelo://app?vid=e12b556d-45d5-4f92-9b6c-c229879ce816","ios":"levelo://app?vid=e12b556d-45d5-4f92-9b6c-c229879ce816"},"vehicle_type_id":"4","last_reported":1726376953,"current_range_meters":38800,"station_id":"ce4bh112rcd13ifvqda0","pricing_plan_id":"cebpf4jnsgd1na2vs0mg"},{"bike_id":"13ec4916-f0ea-4897-8afc-596425b42c42","system_id":"levelo_inurba_marseille","lat":43.23189,"lon":5.35547,"is_reserved":false,"is_disabled":false,"rental_uris":{"android":"levelo://app?vid=13ec4916-f0ea-4897-8afc-596425b42c42","ios":"levelo://app?vid=13ec4916-f0ea-4897-8afc-596425b42c42"},"vehicle_type_id":"4","last_reported":1726376953,"current_range_meters":24000,"station_id":"ce4bhu92rcd13ifvqi70","pricing_plan_id":"cebpf4jnsgd1na2vs0mg"},{"bike_id":"057b70ac-43ad-4a9d-b1c8-8c155f62cbde","system_id":"levelo_inurba_marseille","lat":43.25121,"lon":5.40323,"is_reserved":false,"is_disabled":false,"rental_uris":{"android":"levelo://app?vid=057b70ac-43ad-4a9d-b1c8-8c155f62cbde","ios":"levelo://app?vid=057b70ac-43ad-4a9d-b1c8-8c155f62cbde"},"vehicle_type_id":"4","last_reported":1726376953,"current_range_meters":38800,"station_id":"ce4bhlh2rcd13ifvqgig","pricing_plan_id":"cebpf4jnsgd1na2vs0mg"},{"bike_id":"b6eb2043-0c47-44ca-a934-2a61ccc622b8","system_id":"levelo_inurba_marseille","lat":43.31709,"lon":5.37743,"is_reserved":false,"is_disabled":false,"rental_uris":{"android":"levelo://app?vid=b6eb2043-0c47-44ca-a934-2a61ccc622b8","ios":"levelo://app?vid=b6eb2043-0c47-44ca-a934-2a61ccc622b8"},"vehicle_type_id":"4","last_reported":1726376953,"current_range_meters":20400,"station_id":"ce4bgth2rcd13ifvqch0","pricing_plan_id":"cebpf4jnsgd1na2vs0mg"},{"bike_id":"344880e3-ce90-437f-a8da-22ec22dc470a","system_id":"levelo_inurba_marseille","lat":43.29558,"lon":5.42285,"is_reserved":false,"is_disabled":false,"rental_uris":{"android":"levelo://app?vid=344880e3-ce90-437f-a8da-22ec22dc470a","ios":"levelo://app?vid=344880e3-ce90-437f-a8da-22ec22dc470a"},"vehicle_type_id":"4","last_reported":1726376953,"current_range_meters":14400,"station_id":"ce4bhph2rcd13ifvqhdg","pricing_plan_id":"cebpf4jnsgd1na2vs0mg"},{"bike_id":"7533a431-4fcd-44d0-8ffa-5299fbd3f544","system_id":"levelo_inurba_marseille","lat":43.28663,"lon":5.38651,"is_reserved":false,"is_disabled":false,"rental_uris":{"android":"levelo://app?vid=7533a431-4fcd-44d0-8ffa-5299fbd3f544","ios":"levelo://app?vid=7533a431-4fcd-44d0-8ffa-5299fbd3f544"},"vehicle_type_id":"4","last_reported":1726376953,"current_range_meters":38400,"station_id":"ce4bh492rcd13ifvqdug","pricing_plan_id":"cebpf4jnsgd1na2vs0mg"},{"bike_id":"1b69e28d-b657-4802-b5dd-aa17fb5a768b","system_id":"levelo_inurba_marseille","lat":43.27127,"lon":5.42794,"is_reserved":false,"is_disabled":false,"rental_uris":{"android":"levelo://app?vid=1b69e28d-b657-4802-b5dd-aa17fb5a768b","ios":"levelo://app?vid=1b69e28d-b657-4802-b5dd-aa17fb5a768b"},"vehicle_type_id":"4","last_reported":1726376953,"current_range_meters":23200,"station_id":"","pricing_plan_id":"cebpf4jnsgd1na2vs0mg"},{"bike_id":"6829a716-ca2c-417e-b3c4-3d7639065619","system_id":"levelo_inurba_marseille","lat":43.3107,"lon":5.38346,"is_reserved":false,"is_disabled":false,"rental_uris":{"android":"levelo://app?vid=6829a716-ca2c-417e-b3c4-3d7639065619","ios":"levelo://app?vid=6829a716-ca2c-417e-b3c4-3d7639065619"},"vehicle_type_id":"4","last_reported":1726376953,"current_range_meters":6800,"station_id":"ce4bgv92rcd13ifvqcr0","pricing_plan_id":"cebpf4jnsgd1na2vs0mg"},{"bike_id":"e803638f-c791-41b5-83c4-bab3d75b3614","system_id":"levelo_inurba_marseille","lat":43.24809,"lon":5.37457,"is_reserved":false,"is_disabled":false,"rental_uris":{"android":"levelo://app?vid=e803638f-c791-41b5-83c4-bab3d75b3614","ios":"levelo://app?vid=e803638f-c791-41b5-83c4-bab3d75b3614"},"vehicle_type_id":"4","last_reported":1726376953,"current_range_meters":38800,"station_id":"ce4bhgh2rcd13ifvqfb0","pricing_plan_id":"cebpf4jnsgd1na2vs0mg"},{"bike_id":"b98b8bb7-a17f-4a86-b0aa-24d848657332","system_id":"levelo_inurba_marseille","lat":43.29002,"lon":5.35617,"is_reserved":false,"is_disabled":false,"rental_uris":{"android":"levelo://app?vid=b98b8bb7-a17f-4a86-b0aa-24d848657332","ios":"levelo://app?vid=b98b8bb7-a17f-4a86-b0aa-24d848657332"},"vehicle_type_id":"4","last_reported":1726376953,"current_range_meters":20400,"station_id":"ce4bhb92rcd13ifvqen0","pricing_plan_id":"cebpf4jnsgd1na2vs0mg"},{"bike_id":"b2300b49-404f-4db4-8744-43ebcde60dc7","system_id":"levelo_inurba_marseille","lat":43.24179,"lon":5.39736,"is_reserved":false,"is_disabled":false,"rental_uris":{"android":"levelo://app?vid=b2300b49-404f-4db4-8744-43ebcde60dc7","ios":"levelo://app?vid=b2300b49-404f-4db4-8744-43ebcde60dc7"},"vehicle_type_id":"4","last_reported":1726376953,"current_range_meters":6800,"station_id":"ce4bhn12rcd13ifvqgpg","pricing_plan_id":"cebpf4jnsgd1na2vs0mg"},{"bike_id":"995d3a7e-289e-4ebd-b785-9d2da426ad57","system_id":"levelo_inurba_marseille","lat":43.23191,"lon":5.35546,"is_reserved":false,"is_disabled":false,"rental_uris":{"android":"levelo://app?vid=995d3a7e-289e-4ebd-b785-9d2da426ad57","ios":"levelo://app?vid=995d3a7e-289e-4ebd-b785-9d2da426ad57"},"vehicle_type_id":"4","last_reported":1726376953,"current_range_meters":16000,"station_id":"ce4bhu92rcd13ifvqi70","pricing_plan_id":"cebpf4jnsgd1na2vs0mg"},{"bike_id":"74c67d55-8a5f-40c9-8066-d68354718f8c","system_id":"levelo_inurba_marseille","lat":43.23195,"lon":5.35547,"is_reserved":false,"is_disabled":false,"rental_uris":{"android":"levelo://app?vid=74c67d55-8a5f-40c9-8066-d68354718f8c","ios":"levelo://app?vid=74c67d55-8a5f-40c9-8066-d68354718f8c"},"vehicle_type_id":"4","last_reported":1726376953,"current_range_meters":20800,"station_id":"ce4bhu92rcd13ifvqi70","pricing_plan_id":"cebpf4jnsgd1na2vs0mg"},{"bike_id":"8386a455-95b4-4dd9-943d-9d9a546d6c69","system_id":"levelo_inurba_marseille","lat":43.27943,"lon":5.41043,"is_reserved":false,"is_disabled":false,"rental_uris":{"android":"levelo://app?vid=8386a455-95b4-4dd9-943d-9d9a546d6c69","ios":"levelo://app?vid=8386a455-95b4-4dd9-943d-9d9a546d6c69"},"vehicle_type_id":"4","last_reported":1726376953,"current_range_meters":6000,"station_id":"ce4bhnp2rcd13ifvqh0g","pricing_plan_id":"cebpf4jnsgd1na2vs0mg"},{"bike_id":"c1937baf-808b-431f-b1af-a779e7b8ae42","system_id":"levelo_inurba_marseille","lat":43.25117,"lon":5.40321,"is_reserved":false,"is_disabled":false,"rental_uris":{"android":"levelo://app?vid=c1937baf-808b-431f-b1af-a779e7b8ae42","ios":"levelo://app?vid=c1937baf-808b-431f-b1af-a779e7b8ae42"},"vehicle_type_id":"4","last_reported":1726376953,"current_range_meters":24800,"station_id":"ce4bhlh2rcd13ifvqgig","pricing_plan_id":"cebpf4jnsgd1na2vs0mg"},{"bike_id":"1bfce992-f39a-4ce4-8aed-178a2a99c1b6","system_id":"levelo_inurba_marseille","lat":43.32481,"lon":5.36563,"is_reserved":false,"is_disabled":false,"rental_uris":{"android":"levelo://app?vid=1bfce992-f39a-4ce4-8aed-178a2a99c1b6","ios":"levelo://app?vid=1bfce992-f39a-4ce4-8aed-178a2a99c1b6"},"vehicle_type_id":"4","last_reported":1726376953,"current_range_meters":38000,"station_id":"ce4bhs12rcd13ifvqhvg","pricing_plan_id":"cebpf4jnsgd1na2vs0mg"},{"bike_id":"2348432a-2e1b-4480-8221-dc0ae33b40e8","system_id":"levelo_inurba_marseille","lat":43.24395,"lon":5.37059,"is_reserved":false,"is_disabled":false,"rental_uris":{"android":"levelo://app?vid=2348432a-2e1b-4480-8221-dc0ae33b40e8","ios":"levelo://app?vid=2348432a-2e1b-4480-8221-dc0ae33b40e8"},"vehicle_type_id":"4","last_reported":1726376953,"current_range_meters":19600,"station_id":"ce4bhhh2rcd13ifvqfk0","pricing_plan_id":"cebpf4jnsgd1na2vs0mg"},{"bike_id":"d0698402-85d8-4942-960d-db4ee8bd1c46","system_id":"levelo_inurba_marseille","lat":43.32474,"lon":5.36552,"is_reserved":false,"is_disabled":false,"rental_uris":{"android":"levelo://app?vid=d0698402-85d8-4942-960d-db4ee8bd1c46","ios":"levelo://app?vid=d0698402-85d8-4942-960d-db4ee8bd1c46"},"vehicle_type_id":"4","last_reported":1726376953,"current_range_meters":6800,"station_id":"ce4bhs12rcd13ifvqhvg","pricing_plan_id":"cebpf4jnsgd1na2vs0mg"},{"bike_id":"e3d6d5ac-d031-4c7f-9e27-3a9794538b2f","system_id":"levelo_inurba_marseille","lat":43.30645,"lon":5.40079,"is_reserved":false,"is_disabled":false,"rental_uris":{"android":"levelo://app?vid=e3d6d5ac-d031-4c7f-9e27-3a9794538b2f","ios":"levelo://app?vid=e3d6d5ac-d031-4c7f-9e27-3a9794538b2f"},"vehicle_type_id":"4","last_reported":1726376953,"current_range_meters":38800,"station_id":"ce4bh112rcd13ifvqda0","pricing_plan_id":"cebpf4jnsgd1na2vs0mg"},{"bike_id":"1aeff3de-970e-4440-8b84-9abb74479e56","system_id":"levelo_inurba_marseille","lat":43.29963,"lon":5.41328,"is_reserved":false,"is_disabled":false,"rental_uris":{"android":"levelo://app?vid=1aeff3de-970e-4440-8b84-9abb74479e56","ios":"levelo://app?vid=1aeff3de-970e-4440-8b84-9abb74479e56"},"vehicle_type_id":"4","last_reported":1726376953,"current_range_meters":22000,"station_id":"ce4bhp12rcd13ifvqh9g","pricing_plan_id":"cebpf4jnsgd1na2vs0mg"},{"bike_id":"dfb89513-f211-47bc-95b2-ffac780f14a8","system_id":"levelo_inurba_marseille","lat":43.23193,"lon":5.35554,"is_reserved":false,"is_disabled":false,"rental_uris":{"android":"levelo://app?vid=dfb89513-f211-47bc-95b2-ffac780f14a8","ios":"levelo://app?vid=dfb89513-f211-47bc-95b2-ffac780f14a8"},"vehicle_type_id":"4","last_reported":1726376953,"current_range_meters":9600,"station_id":"ce4bhu92rcd13ifvqi70","pricing_plan_id":"cebpf4jnsgd1na2vs0mg"},{"bike_id":"2b6e00c9-4f08-4eae-8556-14721a22f247","system_id":"levelo_inurba_marseille","lat":43.27922,"lon":5.39572,"is_reserved":false,"is_disabled":false,"rental_uris":{"android":"levelo://app?vid=2b6e00c9-4f08-4eae-8556-14721a22f247","ios":"levelo://app?vid=2b6e00c9-4f08-4eae-8556-14721a22f247"},"vehicle_type_id":"4","last_reported":1726376953,"current_range_meters":38800,"station_id":"ce4bhf92rcd13ifvqf40","pricing_plan_id":"cebpf4jnsgd1na2vs0mg"},{"bike_id":"2fa19ec0-6a1f-4441-9150-465e791f8909","system_id":"levelo_inurba_marseille","lat":43.28013,"lon":5.39392,"is_reserved":false,"is_disabled":false,"rental_uris":{"android":"levelo://app?vid=2fa19ec0-6a1f-4441-9150-465e791f8909","ios":"levelo://app?vid=2fa19ec0-6a1f-4441-9150-465e791f8909"},"vehicle_type_id":"4","last_reported":1726376953,"current_range_meters":26800,"station_id":"","pricing_plan_id":"cebpf4jnsgd1na2vs0mg"},{"bike_id":"5695be2b-9a5b-4c85-9c3e-237c284c36d2","system_id":"levelo_inurba_marseille","lat":43.32297,"lon":5.3826,"is_reserved":false,"is_disabled":false,"rental_uris":{"android":"levelo://app?vid=5695be2b-9a5b-4c85-9c3e-237c284c36d2","ios":"levelo://app?vid=5695be2b-9a5b-4c85-9c3e-237c284c36d2"},"vehicle_type_id":"4","last_reported":1726376953,"current_range_meters":39200,"station_id":"ce4bhr12rcd13ifvqhqg","pricing_plan_id":"cebpf4jnsgd1na2vs0mg"},{"bike_id":"5a78e784-be7b-4197-828d-8c294afe59c9","system_id":"levelo_inurba_marseille","lat":43.31532,"lon":5.38031,"is_reserved":false,"is_disabled":false,"rental_uris":{"android":"levelo://app?vid=5a78e784-be7b-4197-828d-8c294afe59c9","ios":"levelo://app?vid=5a78e784-be7b-4197-828d-8c294afe59c9"},"vehicle_type_id":"4","last_reported":1726376953,"current_range_meters":25200,"station_id":"ce4bhsp2rcd13ifvqi50","pricing_plan_id":"cebpf4jnsgd1na2vs0mg"},{"bike_id":"282df74a-fc48-4048-98c0-c7e7da0b0e4a","system_id":"levelo_inurba_marseille","lat":43.28438,"lon":5.39191,"is_reserved":false,"is_disabled":false,"rental_uris":{"android":"levelo://app?vid=282df74a-fc48-4048-98c0-c7e7da0b0e4a","ios":"levelo://app?vid=282df74a-fc48-4048-98c0-c7e7da0b0e4a"},"vehicle_type_id":"4","last_reported":1726376953,"current_range_meters":38800,"station_id":"ce4bhoh2rcd13ifvqh5g","pricing_plan_id":"cebpf4jnsgd1na2vs0mg"},{"bike_id":"aac07f6f-d068-41e5-80ed-ad695afca2fa","system_id":"levelo_inurba_marseille","lat":43.25717,"lon":5.4111,"is_reserved":false,"is_disabled":false,"rental_uris":{"android":"levelo://app?vid=aac07f6f-d068-41e5-80ed-ad695afca2fa","ios":"levelo://app?vid=aac07f6f-d068-41e5-80ed-ad695afca2fa"},"vehicle_type_id":"4","last_reported":1726376953,"current_range_meters":32800,"station_id":"ce4bhkp2rcd13ifvqgd0","pricing_plan_id":"cebpf4jnsgd1na2vs0mg"},{"bike_id":"8f7d2222-b8b1-4df4-8f4e-3209ab742980","system_id":"levelo_inurba_marseille","lat":43.30884,"lon":5.39641,"is_reserved":false,"is_disabled":false,"rental_uris":{"android":"levelo://app?vid=8f7d2222-b8b1-4df4-8f4e-3209ab742980","ios":"levelo://app?vid=8f7d2222-b8b1-4df4-8f4e-3209ab742980"},"vehicle_type_id":"4","last_reported":1726376953,"current_range_meters":25600,"station_id":"ce4bh012rcd13ifvqcv0","pricing_plan_id":"cebpf4jnsgd1na2vs0mg"},{"bike_id":"6ab32654-3a6a-4788-91f1-4c0caf8881e3","system_id":"levelo_inurba_marseille","lat":43.31167,"lon":5.38714,"is_reserved":false,"is_disabled":false,"rental_uris":{"android":"levelo://app?vid=6ab32654-3a6a-4788-91f1-4c0caf8881e3","ios":"levelo://app?vid=6ab32654-3a6a-4788-91f1-4c0caf8881e3"},"vehicle_type_id":"4","last_reported":1726376953,"current_range_meters":38800,"station_id":"ce4bgv12rcd13ifvqcp0","pricing_plan_id":"cebpf4jnsgd1na2vs0mg"},{"bike_id":"fd0880df-a304-40e8-8a57-9ac951892822","system_id":"levelo_inurba_marseille","lat":43.31071,"lon":5.38348,"is_reserved":false,"is_disabled":false,"rental_uris":{"android":"levelo://app?vid=fd0880df-a304-40e8-8a57-9ac951892822","ios":"levelo://app?vid=fd0880df-a304-40e8-8a57-9ac951892822"},"vehicle_type_id":"4","last_reported":1726376953,"current_range_meters":22000,"station_id":"ce4bgv92rcd13ifvqcr0","pricing_plan_id":"cebpf4jnsgd1na2vs0mg"},{"bike_id":"9860c891-eef4-404c-a851-5d147d847001","system_id":"levelo_inurba_marseille","lat":43.2707,"lon":5.42278,"is_reserved":false,"is_disabled":false,"rental_uris":{"android":"levelo://app?vid=9860c891-eef4-404c-a851-5d147d847001","ios":"levelo://app?vid=9860c891-eef4-404c-a851-5d147d847001"},"vehicle_type_id":"4","last_reported":1726376953,"current_range_meters":26000,"station_id":"ce4bhk92rcd13ifvqgb0","pricing_plan_id":"cebpf4jnsgd1na2vs0mg"},{"bike_id":"30fc1f51-20b6-4e13-8f56-75175e166910","system_id":"levelo_inurba_marseille","lat":43.23057,"lon":5.35496,"is_reserved":false,"is_disabled":false,"rental_uris":{"android":"levelo://app?vid=30fc1f51-20b6-4e13-8f56-75175e166910","ios":"levelo://app?vid=30fc1f51-20b6-4e13-8f56-75175e166910"},"vehicle_type_id":"4","last_reported":1726376953,"current_range_meters":36800,"station_id":"cpo3342slgdg3j2ifvpg","pricing_plan_id":"cebpf4jnsgd1na2vs0mg"},{"bike_id":"835a46da-7a3b-4140-9d95-9a367ef4a6f3","system_id":"levelo_inurba_marseille","lat":43.27684,"lon":5.38884,"is_reserved":false,"is_disabled":false,"rental_uris":{"android":"levelo://app?vid=835a46da-7a3b-4140-9d95-9a367ef4a6f3","ios":"levelo://app?vid=835a46da-7a3b-4140-9d95-9a367ef4a6f3"},"vehicle_type_id":"4","last_reported":1726376953,"current_range_meters":38400,"station_id":"ce4bhi12rcd13ifvqfo0","pricing_plan_id":"cebpf4jnsgd1na2vs0mg"},{"bike_id":"b99405e5-87fa-46e7-a10f-8d8121ff7672","system_id":"levelo_inurba_marseille","lat":43.3361,"lon":5.41022,"is_reserved":false,"is_disabled":false,"rental_uris":{"android":"levelo://app?vid=b99405e5-87fa-46e7-a10f-8d8121ff7672","ios":"levelo://app?vid=b99405e5-87fa-46e7-a10f-8d8121ff7672"},"vehicle_type_id":"4","last_reported":1726376953,"current_range_meters":24000,"station_id":"ce4bhqh2rcd13ifvqhmg","pricing_plan_id":"cebpf4jnsgd1na2vs0mg"},{"bike_id":"872cd4aa-e34d-48c8-b071-121143f4a33f","system_id":"levelo_inurba_marseille","lat":43.25722,"lon":5.41114,"is_reserved":false,"is_disabled":false,"rental_uris":{"android":"levelo://app?vid=872cd4aa-e34d-48c8-b071-121143f4a33f","ios":"levelo://app?vid=872cd4aa-e34d-48c8-b071-121143f4a33f"},"vehicle_type_id":"4","last_reported":1726376953,"current_range_meters":38800,"station_id":"ce4bhkp2rcd13ifvqgd0","pricing_plan_id":"cebpf4jnsgd1na2vs0mg"},{"bike_id":"a7170a63-a323-43c5-9dec-df4ebfd58425","system_id":"levelo_inurba_marseille","lat":43.2919,"lon":5.35797,"is_reserved":false,"is_disabled":false,"rental_uris":{"android":"levelo://app?vid=a7170a63-a323-43c5-9dec-df4ebfd58425","ios":"levelo://app?vid=a7170a63-a323-43c5-9dec-df4ebfd58425"},"vehicle_type_id":"4","last_reported":1726376953,"current_range_meters":24000,"station_id":"ce4bhb12rcd13ifvqel0","pricing_plan_id":"cebpf4jnsgd1na2vs0mg"},{"bike_id":"062aebc2-5f36-481d-b29c-7a2ceca59360","system_id":"levelo_inurba_marseille","lat":43.31326,"lon":5.39691,"is_reserved":false,"is_disabled":false,"rental_uris":{"android":"levelo://app?vid=062aebc2-5f36-481d-b29c-7a2ceca59360","ios":"levelo://app?vid=062aebc2-5f36-481d-b29c-7a2ceca59360"},"vehicle_type_id":"4","last_reported":1726376953,"current_range_meters":25600,"station_id":"ce4bgvp2rcd13ifvqcu0","pricing_plan_id":"cebpf4jnsgd1na2vs0mg"},{"bike_id":"ec9006f1-9246-40db-9584-a79270db200a","system_id":"levelo_inurba_marseille","lat":43.3172,"lon":5.42407,"is_reserved":false,"is_disabled":false,"rental_uris":{"android":"levelo://app?vid=ec9006f1-9246-40db-9584-a79270db200a","ios":"levelo://app?vid=ec9006f1-9246-40db-9584-a79270db200a"},"vehicle_type_id":"4","last_reported":1726376953,"current_range_meters":39200,"station_id":"ce4bhp92rcd13ifvqhbg","pricing_plan_id":"cebpf4jnsgd1na2vs0mg"},{"bike_id":"af390aaa-4ef7-492c-aded-06fda96c9f12","system_id":"levelo_inurba_marseille","lat":43.31711,"lon":5.4371,"is_reserved":false,"is_disabled":false,"rental_uris":{"android":"levelo://app?vid=af390aaa-4ef7-492c-aded-06fda96c9f12","ios":"levelo://app?vid=af390aaa-4ef7-492c-aded-06fda96c9f12"},"vehicle_type_id":"4","last_reported":1726376953,"current_range_meters":31200,"station_id":"ce4bhp92rcd13ifvqhcg","pricing_plan_id":"cebpf4jnsgd1na2vs0mg"},{"bike_id":"c86b0092-7fc7-4b72-93c6-667605627665","system_id":"levelo_inurba_marseille","lat":43.30752,"lon":5.38295,"is_reserved":false,"is_disabled":false,"rental_uris":{"android":"levelo://app?vid=c86b0092-7fc7-4b72-93c6-667605627665","ios":"levelo://app?vid=c86b0092-7fc7-4b72-93c6-667605627665"},"vehicle_type_id":"4","last_reported":1726376953,"current_range_meters":4400,"station_id":"","pricing_plan_id":"cebpf4jnsgd1na2vs0mg"},{"bike_id":"f89ebaff-608b-48c6-99bf-a4efd018954e","system_id":"levelo_inurba_marseille","lat":43.25722,"lon":5.41119,"is_reserved":false,"is_disabled":false,"rental_uris":{"android":"levelo://app?vid=f89ebaff-608b-48c6-99bf-a4efd018954e","ios":"levelo://app?vid=f89ebaff-608b-48c6-99bf-a4efd018954e"},"vehicle_type_id":"4","last_reported":1726376953,"current_range_meters":17200,"station_id":"ce4bhkp2rcd13ifvqgd0","pricing_plan_id":"cebpf4jnsgd1na2vs0mg"},{"bike_id":"1d8e6872-0709-486a-a3ec-0844675a8a40","system_id":"levelo_inurba_marseille","lat":43.26062,"lon":5.39394,"is_reserved":false,"is_disabled":false,"rental_uris":{"android":"levelo://app?vid=1d8e6872-0709-486a-a3ec-0844675a8a40","ios":"levelo://app?vid=1d8e6872-0709-486a-a3ec-0844675a8a40"},"vehicle_type_id":"4","last_reported":1726376953,"current_range_meters":28400,"station_id":"ce4bhh92rcd13ifvqfj0","pricing_plan_id":"cebpf4jnsgd1na2vs0mg"},{"bike_id":"65c19f49-c4fe-4c2d-8a06-e52117f63875","system_id":"levelo_inurba_marseille","lat":43.24998,"lon":5.38909,"is_reserved":false,"is_disabled":false,"rental_uris":{"android":"levelo://app?vid=65c19f49-c4fe-4c2d-8a06-e52117f63875","ios":"levelo://app?vid=65c19f49-c4fe-4c2d-8a06-e52117f63875"},"vehicle_type_id":"4","last_reported":1726376953,"current_range_meters":6000,"station_id":"ce4bhgp2rcd13ifvqfd0","pricing_plan_id":"cebpf4jnsgd1na2vs0mg"},{"bike_id":"f6437437-0271-4253-b265-47225f3ca4d8","system_id":"levelo_inurba_marseille","lat":43.3133,"lon":5.39691,"is_reserved":false,"is_disabled":false,"rental_uris":{"android":"levelo://app?vid=f6437437-0271-4253-b265-47225f3ca4d8","ios":"levelo://app?vid=f6437437-0271-4253-b265-47225f3ca4d8"},"vehicle_type_id":"4","last_reported":1726376953,"current_range_meters":23200,"station_id":"ce4bgvp2rcd13ifvqcu0","pricing_plan_id":"cebpf4jnsgd1na2vs0mg"},{"bike_id":"e4892479-4160-4009-9ce1-980765d3375d","system_id":"levelo_inurba_marseille","lat":43.26809,"lon":5.40269,"is_reserved":false,"is_disabled":false,"rental_uris":{"android":"levelo://app?vid=e4892479-4160-4009-9ce1-980765d3375d","ios":"levelo://app?vid=e4892479-4160-4009-9ce1-980765d3375d"},"vehicle_type_id":"4","last_reported":1726376953,"current_range_meters":4000,"station_id":"ce501612rcd8frsf0b60","pricing_plan_id":"cebpf4jnsgd1na2vs0mg"},{"bike_id":"c5dd4feb-12d2-4aab-b7e0-58b69563947c","system_id":"levelo_inurba_marseille","lat":43.31719,"lon":5.42405,"is_reserved":false,"is_disabled":false,"rental_uris":{"android":"levelo://app?vid=c5dd4feb-12d2-4aab-b7e0-58b69563947c","ios":"levelo://app?vid=c5dd4feb-12d2-4aab-b7e0-58b69563947c"},"vehicle_type_id":"4","last_reported":1726376953,"current_range_meters":38000,"station_id":"ce4bhp92rcd13ifvqhbg","pricing_plan_id":"cebpf4jnsgd1na2vs0mg"},{"bike_id":"236e6f77-deac-4fe1-bbcc-8fb45a986847","system_id":"levelo_inurba_marseille","lat":43.24671,"lon":5.38162,"is_reserved":false,"is_disabled":false,"rental_uris":{"android":"levelo://app?vid=236e6f77-deac-4fe1-bbcc-8fb45a986847","ios":"levelo://app?vid=236e6f77-deac-4fe1-bbcc-8fb45a986847"},"vehicle_type_id":"4","last_reported":1726376953,"current_range_meters":38800,"station_id":"ce4bhih2rcd13ifvqfr0","pricing_plan_id":"cebpf4jnsgd1na2vs0mg"},{"bike_id":"b163cf08-6ce3-4d2f-a3d2-6a4eb4ce7991","system_id":"levelo_inurba_marseille","lat":43.28151,"lon":5.4265,"is_reserved":false,"is_disabled":false,"rental_uris":{"android":"levelo://app?vid=b163cf08-6ce3-4d2f-a3d2-6a4eb4ce7991","ios":"levelo://app?vid=b163cf08-6ce3-4d2f-a3d2-6a4eb4ce7991"},"vehicle_type_id":"4","last_reported":1726376953,"current_range_meters":9600,"station_id":"ce4bhnh2rcd13ifvqgug","pricing_plan_id":"cebpf4jnsgd1na2vs0mg"},{"bike_id":"6df0faed-9658-4ca5-97fa-47d2be0e7cd7","system_id":"levelo_inurba_marseille","lat":43.28861,"lon":5.35854,"is_reserved":false,"is_disabled":false,"rental_uris":{"android":"levelo://app?vid=6df0faed-9658-4ca5-97fa-47d2be0e7cd7","ios":"levelo://app?vid=6df0faed-9658-4ca5-97fa-47d2be0e7cd7"},"vehicle_type_id":"4","last_reported":1726376953,"current_range_meters":38800,"station_id":"ce4bhb12rcd13ifvqem0","pricing_plan_id":"cebpf4jnsgd1na2vs0mg"},{"bike_id":"d4d52a54-0e2d-4ef9-b12d-5717da74e194","system_id":"levelo_inurba_marseille","lat":43.27126,"lon":5.40394,"is_reserved":false,"is_disabled":false,"rental_uris":{"android":"levelo://app?vid=d4d52a54-0e2d-4ef9-b12d-5717da74e194","ios":"levelo://app?vid=d4d52a54-0e2d-4ef9-b12d-5717da74e194"},"vehicle_type_id":"4","last_reported":1726376953,"current_range_meters":20800,"station_id":"","pricing_plan_id":"cebpf4jnsgd1na2vs0mg"},{"bike_id":"ec20cb84-20f0-48a0-950e-21cf06a16dca","system_id":"levelo_inurba_marseille","lat":43.31758,"lon":5.39025,"is_reserved":false,"is_disabled":false,"rental_uris":{"android":"levelo://app?vid=ec20cb84-20f0-48a0-950e-21cf06a16dca","ios":"levelo://app?vid=ec20cb84-20f0-48a0-950e-21cf06a16dca"},"vehicle_type_id":"4","last_reported":1726376953,"current_range_meters":20400,"station_id":"ce4bhqp2rcd13ifvqhng","pricing_plan_id":"cebpf4jnsgd1na2vs0mg"},{"bike_id":"fa520970-b02f-48ef-8a4c-a0b6221dc909","system_id":"levelo_inurba_marseille","lat":43.28154,"lon":5.42644,"is_reserved":false,"is_disabled":false,"rental_uris":{"android":"levelo://app?vid=fa520970-b02f-48ef-8a4c-a0b6221dc909","ios":"levelo://app?vid=fa520970-b02f-48ef-8a4c-a0b6221dc909"},"vehicle_type_id":"4","last_reported":1726376953,"current_range_meters":23200,"station_id":"ce4bhnh2rcd13ifvqgug","pricing_plan_id":"cebpf4jnsgd1na2vs0mg"},{"bike_id":"8b8d4bd8-8588-461d-9808-73dac3f5354d","system_id":"levelo_inurba_marseille","lat":43.28461,"lon":5.35884,"is_reserved":false,"is_disabled":false,"rental_uris":{"android":"levelo://app?vid=8b8d4bd8-8588-461d-9808-73dac3f5354d","ios":"levelo://app?vid=8b8d4bd8-8588-461d-9808-73dac3f5354d"},"vehicle_type_id":"4","last_reported":1726376953,"current_range_meters":32000,"station_id":"ce4bhah2rcd13ifvqei0","pricing_plan_id":"cebpf4jnsgd1na2vs0mg"},{"bike_id":"f79ff168-7c1f-43a6-9a48-819ae1e3b151","system_id":"levelo_inurba_marseille","lat":43.24071,"lon":5.37756,"is_reserved":false,"is_disabled":false,"rental_uris":{"android":"levelo://app?vid=f79ff168-7c1f-43a6-9a48-819ae1e3b151","ios":"levelo://app?vid=f79ff168-7c1f-43a6-9a48-819ae1e3b151"},"vehicle_type_id":"4","last_reported":1726376953,"current_range_meters":14800,"station_id":"ce4bhnp2rcd13ifvqgvg","pricing_plan_id":"cebpf4jnsgd1na2vs0mg"},{"bike_id":"3ecad9f3-1e6f-4f49-af4b-f14b4ca326cc","system_id":"levelo_inurba_marseille","lat":43.28698,"lon":5.39978,"is_reserved":false,"is_disabled":false,"rental_uris":{"android":"levelo://app?vid=3ecad9f3-1e6f-4f49-af4b-f14b4ca326cc","ios":"levelo://app?vid=3ecad9f3-1e6f-4f49-af4b-f14b4ca326cc"},"vehicle_type_id":"4","last_reported":1726376953,"current_range_meters":18800,"station_id":"ce4bho92rcd13ifvqh3g","pricing_plan_id":"cebpf4jnsgd1na2vs0mg"},{"bike_id":"37aa0e75-da6f-4c08-b56e-acbda555996b","system_id":"levelo_inurba_marseille","lat":43.29287,"lon":5.4012,"is_reserved":false,"is_disabled":false,"rental_uris":{"android":"levelo://app?vid=37aa0e75-da6f-4c08-b56e-acbda555996b","ios":"levelo://app?vid=37aa0e75-da6f-4c08-b56e-acbda555996b"},"vehicle_type_id":"4","last_reported":1726376953,"current_range_meters":38800,"station_id":"ce4bh312rcd13ifvqdk0","pricing_plan_id":"cebpf4jnsgd1na2vs0mg"},{"bike_id":"a1ffb9c7-fcdf-4542-8125-5706b42d8d3c","system_id":"levelo_inurba_marseille","lat":43.30647,"lon":5.40077,"is_reserved":false,"is_disabled":false,"rental_uris":{"android":"levelo://app?vid=a1ffb9c7-fcdf-4542-8125-5706b42d8d3c","ios":"levelo://app?vid=a1ffb9c7-fcdf-4542-8125-5706b42d8d3c"},"vehicle_type_id":"4","last_reported":1726376953,"current_range_meters":32400,"station_id":"ce4bh112rcd13ifvqda0","pricing_plan_id":"cebpf4jnsgd1na2vs0mg"},{"bike_id":"36adddef-987d-42d8-aa08-a14bfa0d5473","system_id":"levelo_inurba_marseille","lat":43.24075,"lon":5.37755,"is_reserved":false,"is_disabled":false,"rental_uris":{"android":"levelo://app?vid=36adddef-987d-42d8-aa08-a14bfa0d5473","ios":"levelo://app?vid=36adddef-987d-42d8-aa08-a14bfa0d5473"},"vehicle_type_id":"4","last_reported":1726376953,"current_range_meters":30000,"station_id":"ce4bhnp2rcd13ifvqgvg","pricing_plan_id":"cebpf4jnsgd1na2vs0mg"},{"bike_id":"6c6e046a-c880-4d0a-8c4b-6e38b80b7b95","system_id":"levelo_inurba_marseille","lat":43.28702,"lon":5.39978,"is_reserved":false,"is_disabled":false,"rental_uris":{"android":"levelo://app?vid=6c6e046a-c880-4d0a-8c4b-6e38b80b7b95","ios":"levelo://app?vid=6c6e046a-c880-4d0a-8c4b-6e38b80b7b95"},"vehicle_type_id":"4","last_reported":1726376953,"current_range_meters":38800,"station_id":"ce4bho92rcd13ifvqh3g","pricing_plan_id":"cebpf4jnsgd1na2vs0mg"},{"bike_id":"90521811-f8fd-48e1-ade7-4d07ddb065bb","system_id":"levelo_inurba_marseille","lat":43.23193,"lon":5.35559,"is_reserved":false,"is_disabled":false,"rental_uris":{"android":"levelo://app?vid=90521811-f8fd-48e1-ade7-4d07ddb065bb","ios":"levelo://app?vid=90521811-f8fd-48e1-ade7-4d07ddb065bb"},"vehicle_type_id":"4","last_reported":1726376953,"current_range_meters":14400,"station_id":"ce4bhu92rcd13ifvqi70","pricing_plan_id":"cebpf4jnsgd1na2vs0mg"},{"bike_id":"cdf95407-b386-49d4-b786-20ec20de8fed","system_id":"levelo_inurba_marseille","lat":43.27966,"lon":5.38714,"is_reserved":false,"is_disabled":false,"rental_uris":{"android":"levelo://app?vid=cdf95407-b386-49d4-b786-20ec20de8fed","ios":"levelo://app?vid=cdf95407-b386-49d4-b786-20ec20de8fed"},"vehicle_type_id":"4","last_reported":1726376953,"current_range_meters":37600,"station_id":"ce4bhg12rcd13ifvqf80","pricing_plan_id":"cebpf4jnsgd1na2vs0mg"},{"bike_id":"dafcc4cd-b2f7-4125-9846-74323a3593b1","system_id":"levelo_inurba_marseille","lat":43.23186,"lon":5.39981,"is_reserved":false,"is_disabled":false,"rental_uris":{"android":"levelo://app?vid=dafcc4cd-b2f7-4125-9846-74323a3593b1","ios":"levelo://app?vid=dafcc4cd-b2f7-4125-9846-74323a3593b1"},"vehicle_type_id":"4","last_reported":1726376953,"current_range_meters":8400,"station_id":"ce4bhn12rcd13ifvqgqg","pricing_plan_id":"cebpf4jnsgd1na2vs0mg"},{"bike_id":"1fb5da9e-6df7-4106-a459-3f96f567eb25","system_id":"levelo_inurba_marseille","lat":43.23147,"lon":5.43716,"is_reserved":false,"is_disabled":false,"rental_uris":{"android":"levelo://app?vid=1fb5da9e-6df7-4106-a459-3f96f567eb25","ios":"levelo://app?vid=1fb5da9e-6df7-4106-a459-3f96f567eb25"},"vehicle_type_id":"4","last_reported":1726376953,"current_range_meters":38000,"station_id":"ce4bhmp2rcd13ifvqgog","pricing_plan_id":"cebpf4jnsgd1na2vs0mg"},{"bike_id":"f524e6ce-bd11-4cfb-bffa-8bd27d264bc1","system_id":"levelo_inurba_marseille","lat":43.2511,"lon":5.40324,"is_reserved":false,"is_disabled":false,"rental_uris":{"android":"levelo://app?vid=f524e6ce-bd11-4cfb-bffa-8bd27d264bc1","ios":"levelo://app?vid=f524e6ce-bd11-4cfb-bffa-8bd27d264bc1"},"vehicle_type_id":"4","last_reported":1726376953,"current_range_meters":38800,"station_id":"ce4bhlh2rcd13ifvqgig","pricing_plan_id":"cebpf4jnsgd1na2vs0mg"},{"bike_id":"ac0be630-90c8-4443-9bf9-63c4efa95547","system_id":"levelo_inurba_marseille","lat":43.295733,"lon":5.422671,"is_reserved":false,"is_disabled":false,"rental_uris":{"android":"levelo://app?vid=ac0be630-90c8-4443-9bf9-63c4efa95547","ios":"levelo://app?vid=ac0be630-90c8-4443-9bf9-63c4efa95547"},"vehicle_type_id":"4","last_reported":1726376953,"current_range_meters":38000,"station_id":"ce4bhph2rcd13ifvqhdg","pricing_plan_id":"cebpf4jnsgd1na2vs0mg"},{"bike_id":"ed7636a2-70c2-44d8-b603-2ff97787aaf2","system_id":"levelo_inurba_marseille","lat":43.29631,"lon":5.40605,"is_reserved":false,"is_disabled":false,"rental_uris":{"android":"levelo://app?vid=ed7636a2-70c2-44d8-b603-2ff97787aaf2","ios":"levelo://app?vid=ed7636a2-70c2-44d8-b603-2ff97787aaf2"},"vehicle_type_id":"4","last_reported":1726376953,"current_range_meters":14400,"station_id":"ce4bh0h2rcd13ifvqd60","pricing_plan_id":"cebpf4jnsgd1na2vs0mg"},{"bike_id":"19464f98-331b-4d71-9e0e-3d4d3a63f502","system_id":"levelo_inurba_marseille","lat":43.24668,"lon":5.38163,"is_reserved":false,"is_disabled":false,"rental_uris":{"android":"levelo://app?vid=19464f98-331b-4d71-9e0e-3d4d3a63f502","ios":"levelo://app?vid=19464f98-331b-4d71-9e0e-3d4d3a63f502"},"vehicle_type_id":"4","last_reported":1726376953,"current_range_meters":38800,"station_id":"ce4bhih2rcd13ifvqfr0","pricing_plan_id":"cebpf4jnsgd1na2vs0mg"},{"bike_id":"fe7d7640-31b4-4680-bbc0-971c61390d2e","system_id":"levelo_inurba_marseille","lat":43.25085,"lon":5.39509,"is_reserved":false,"is_disabled":false,"rental_uris":{"android":"levelo://app?vid=fe7d7640-31b4-4680-bbc0-971c61390d2e","ios":"levelo://app?vid=fe7d7640-31b4-4680-bbc0-971c61390d2e"},"vehicle_type_id":"4","last_reported":1726376953,"current_range_meters":30000,"station_id":"ce4bhm12rcd13ifvqgkg","pricing_plan_id":"cebpf4jnsgd1na2vs0mg"},{"bike_id":"26db0265-0a91-4c66-8aa8-67a94f7eef0d","system_id":"levelo_inurba_marseille","lat":43.26942,"lon":5.40043,"is_reserved":false,"is_disabled":false,"rental_uris":{"android":"levelo://app?vid=26db0265-0a91-4c66-8aa8-67a94f7eef0d","ios":"levelo://app?vid=26db0265-0a91-4c66-8aa8-67a94f7eef0d"},"vehicle_type_id":"4","last_reported":1726376953,"current_range_meters":12000,"station_id":"","pricing_plan_id":"cebpf4jnsgd1na2vs0mg"},{"bike_id":"9b49fc06-69dc-4375-9bc8-2ab31283d424","system_id":"levelo_inurba_marseille","lat":43.29903,"lon":5.43662,"is_reserved":false,"is_disabled":false,"rental_uris":{"android":"levelo://app?vid=9b49fc06-69dc-4375-9bc8-2ab31283d424","ios":"levelo://app?vid=9b49fc06-69dc-4375-9bc8-2ab31283d424"},"vehicle_type_id":"4","last_reported":1726376953,"current_range_meters":28800,"station_id":"ce4bhpp2rcd13ifvqhfg","pricing_plan_id":"cebpf4jnsgd1na2vs0mg"},{"bike_id":"8b9b65f6-c979-4ea6-b29b-2856eb84bf4f","system_id":"levelo_inurba_marseille","lat":43.30141,"lon":5.39871,"is_reserved":false,"is_disabled":false,"rental_uris":{"android":"levelo://app?vid=8b9b65f6-c979-4ea6-b29b-2856eb84bf4f","ios":"levelo://app?vid=8b9b65f6-c979-4ea6-b29b-2856eb84bf4f"},"vehicle_type_id":"4","last_reported":1726376953,"current_range_meters":38400,"station_id":"ce4bh0h2rcd13ifvqd40","pricing_plan_id":"cebpf4jnsgd1na2vs0mg"},{"bike_id":"381e8b41-33ea-453c-8093-8eb6f6c0f3f7","system_id":"levelo_inurba_marseille","lat":43.33611,"lon":5.41025,"is_reserved":false,"is_disabled":false,"rental_uris":{"android":"levelo://app?vid=381e8b41-33ea-453c-8093-8eb6f6c0f3f7","ios":"levelo://app?vid=381e8b41-33ea-453c-8093-8eb6f6c0f3f7"},"vehicle_type_id":"4","last_reported":1726376953,"current_range_meters":16400,"station_id":"ce4bhqh2rcd13ifvqhmg","pricing_plan_id":"cebpf4jnsgd1na2vs0mg"},{"bike_id":"14c7c49e-ac4e-4dba-94e4-3e14fb40b26f","system_id":"levelo_inurba_marseille","lat":43.30811,"lon":5.3815,"is_reserved":false,"is_disabled":false,"rental_uris":{"android":"levelo://app?vid=14c7c49e-ac4e-4dba-94e4-3e14fb40b26f","ios":"levelo://app?vid=14c7c49e-ac4e-4dba-94e4-3e14fb40b26f"},"vehicle_type_id":"4","last_reported":1726376953,"current_range_meters":26000,"station_id":"ce4bgt12rcd13ifvqce0","pricing_plan_id":"cebpf4jnsgd1na2vs0mg"},{"bike_id":"5e0f91a3-3920-4f6a-be63-6777996c8186","system_id":"levelo_inurba_marseille","lat":43.29261,"lon":5.40908,"is_reserved":false,"is_disabled":false,"rental_uris":{"android":"levelo://app?vid=5e0f91a3-3920-4f6a-be63-6777996c8186","ios":"levelo://app?vid=5e0f91a3-3920-4f6a-be63-6777996c8186"},"vehicle_type_id":"4","last_reported":1726376953,"current_range_meters":38800,"station_id":"ce4bh192rcd13ifvqdc0","pricing_plan_id":"cebpf4jnsgd1na2vs0mg"},{"bike_id":"2da0511b-41ba-4d8d-b20b-0fbad00fbb43","system_id":"levelo_inurba_marseille","lat":43.25115,"lon":5.4032,"is_reserved":false,"is_disabled":false,"rental_uris":{"android":"levelo://app?vid=2da0511b-41ba-4d8d-b20b-0fbad00fbb43","ios":"levelo://app?vid=2da0511b-41ba-4d8d-b20b-0fbad00fbb43"},"vehicle_type_id":"4","last_reported":1726376953,"current_range_meters":14800,"station_id":"ce4bhlh2rcd13ifvqgig","pricing_plan_id":"cebpf4jnsgd1na2vs0mg"},{"bike_id":"eb76b597-8d80-4e89-87bb-574f221a98b6","system_id":"levelo_inurba_marseille","lat":43.27213,"lon":5.39176,"is_reserved":false,"is_disabled":false,"rental_uris":{"android":"levelo://app?vid=eb76b597-8d80-4e89-87bb-574f221a98b6","ios":"levelo://app?vid=eb76b597-8d80-4e89-87bb-574f221a98b6"},"vehicle_type_id":"4","last_reported":1726376953,"current_range_meters":16800,"station_id":"ce4bhhp2rcd13ifvqfm0","pricing_plan_id":"cebpf4jnsgd1na2vs0mg"},{"bike_id":"fa0bba81-ae28-438c-aaa0-a2a0c9d69ac5","system_id":"levelo_inurba_marseille","lat":43.29557,"lon":5.42283,"is_reserved":false,"is_disabled":false,"rental_uris":{"android":"levelo://app?vid=fa0bba81-ae28-438c-aaa0-a2a0c9d69ac5","ios":"levelo://app?vid=fa0bba81-ae28-438c-aaa0-a2a0c9d69ac5"},"vehicle_type_id":"4","last_reported":1726376953,"current_range_meters":32800,"station_id":"ce4bhph2rcd13ifvqhdg","pricing_plan_id":"cebpf4jnsgd1na2vs0mg"},{"bike_id":"e00d038a-00c7-4258-ab4b-259bdb081cfd","system_id":"levelo_inurba_marseille","lat":43.23192,"lon":5.35548,"is_reserved":false,"is_disabled":false,"rental_uris":{"android":"levelo://app?vid=e00d038a-00c7-4258-ab4b-259bdb081cfd","ios":"levelo://app?vid=e00d038a-00c7-4258-ab4b-259bdb081cfd"},"vehicle_type_id":"4","last_reported":1726376953,"current_range_meters":30000,"station_id":"ce4bhu92rcd13ifvqi70","pricing_plan_id":"cebpf4jnsgd1na2vs0mg"},{"bike_id":"4f847161-8733-40c0-9d1a-924c211b3057","system_id":"levelo_inurba_marseille","lat":43.23188,"lon":5.35543,"is_reserved":false,"is_disabled":false,"rental_uris":{"android":"levelo://app?vid=4f847161-8733-40c0-9d1a-924c211b3057","ios":"levelo://app?vid=4f847161-8733-40c0-9d1a-924c211b3057"},"vehicle_type_id":"4","last_reported":1726376953,"current_range_meters":34800,"station_id":"ce4bhu92rcd13ifvqi70","pricing_plan_id":"cebpf4jnsgd1na2vs0mg"},{"bike_id":"dc9b571a-1f28-4f4b-8d92-9cc390bd9439","system_id":"levelo_inurba_marseille","lat":43.30351,"lon":5.41876,"is_reserved":false,"is_disabled":false,"rental_uris":{"android":"levelo://app?vid=dc9b571a-1f28-4f4b-8d92-9cc390bd9439","ios":"levelo://app?vid=dc9b571a-1f28-4f4b-8d92-9cc390bd9439"},"vehicle_type_id":"4","last_reported":1726376953,"current_range_meters":26000,"station_id":"ce4bhop2rcd13ifvqh7g","pricing_plan_id":"cebpf4jnsgd1na2vs0mg"},{"bike_id":"87562a71-da36-4d20-a8f8-be04c5975b96","system_id":"levelo_inurba_marseille","lat":43.30184,"lon":5.36623,"is_reserved":false,"is_disabled":false,"rental_uris":{"android":"levelo://app?vid=87562a71-da36-4d20-a8f8-be04c5975b96","ios":"levelo://app?vid=87562a71-da36-4d20-a8f8-be04c5975b96"},"vehicle_type_id":"4","last_reported":1726376953,"current_range_meters":37600,"station_id":"ce4bgrh2rcd13ifvqc8g","pricing_plan_id":"cebpf4jnsgd1na2vs0mg"},{"bike_id":"aced5ab7-b508-4250-8809-353d2c8a330a","system_id":"levelo_inurba_marseille","lat":43.255829,"lon":5.38236,"is_reserved":false,"is_disabled":false,"rental_uris":{"android":"levelo://app?vid=aced5ab7-b508-4250-8809-353d2c8a330a","ios":"levelo://app?vid=aced5ab7-b508-4250-8809-353d2c8a330a"},"vehicle_type_id":"4","last_reported":1726376953,"current_range_meters":16000,"station_id":"ce4bhih2rcd13ifvqfs0","pricing_plan_id":"cebpf4jnsgd1na2vs0mg"},{"bike_id":"10256dff-84cb-440b-8e7d-2facb565bd8b","system_id":"levelo_inurba_marseille","lat":43.30798,"lon":5.43525,"is_reserved":false,"is_disabled":false,"rental_uris":{"android":"levelo://app?vid=10256dff-84cb-440b-8e7d-2facb565bd8b","ios":"levelo://app?vid=10256dff-84cb-440b-8e7d-2facb565bd8b"},"vehicle_type_id":"4","last_reported":1726376953,"current_range_meters":25200,"station_id":"ce4bhph2rcd13ifvqheg","pricing_plan_id":"cebpf4jnsgd1na2vs0mg"},{"bike_id":"8d3ee9a4-51a1-44e0-8b30-166e67777a82","system_id":"levelo_inurba_marseille","lat":43.25855,"lon":5.399,"is_reserved":false,"is_disabled":false,"rental_uris":{"android":"levelo://app?vid=8d3ee9a4-51a1-44e0-8b30-166e67777a82","ios":"levelo://app?vid=8d3ee9a4-51a1-44e0-8b30-166e67777a82"},"vehicle_type_id":"4","last_reported":1726376953,"current_range_meters":38800,"station_id":"ce4bhl92rcd13ifvqghg","pricing_plan_id":"cebpf4jnsgd1na2vs0mg"},{"bike_id":"c62e4517-269d-4e4c-915f-b20642d0b7d9","system_id":"levelo_inurba_marseille","lat":43.31511,"lon":5.37298,"is_reserved":false,"is_disabled":false,"rental_uris":{"android":"levelo://app?vid=c62e4517-269d-4e4c-915f-b20642d0b7d9","ios":"levelo://app?vid=c62e4517-269d-4e4c-915f-b20642d0b7d9"},"vehicle_type_id":"4","last_reported":1726376953,"current_range_meters":32400,"station_id":"ce4bgt12rcd13ifvqcd0","pricing_plan_id":"cebpf4jnsgd1na2vs0mg"},{"bike_id":"b8640a1b-d4a2-4e08-b27f-f6878ec4cbf7","system_id":"levelo_inurba_marseille","lat":43.31698,"lon":5.40461,"is_reserved":false,"is_disabled":false,"rental_uris":{"android":"levelo://app?vid=b8640a1b-d4a2-4e08-b27f-f6878ec4cbf7","ios":"levelo://app?vid=b8640a1b-d4a2-4e08-b27f-f6878ec4cbf7"},"vehicle_type_id":"4","last_reported":1726376953,"current_range_meters":33600,"station_id":"ce4bh012rcd13ifvqd00","pricing_plan_id":"cebpf4jnsgd1na2vs0mg"},{"bike_id":"0bd7b192-89f0-459c-b98d-6bf4bca50e7f","system_id":"levelo_inurba_marseille","lat":43.26944,"lon":5.40248,"is_reserved":false,"is_disabled":false,"rental_uris":{"android":"levelo://app?vid=0bd7b192-89f0-459c-b98d-6bf4bca50e7f","ios":"levelo://app?vid=0bd7b192-89f0-459c-b98d-6bf4bca50e7f"},"vehicle_type_id":"4","last_reported":1726376953,"current_range_meters":37600,"station_id":"cjm6bp8fraef2m0cb0m0","pricing_plan_id":"cebpf4jnsgd1na2vs0mg"},{"bike_id":"d72b2ab6-ea3d-4024-88f8-d9b1b25fb544","system_id":"levelo_inurba_marseille","lat":43.30777,"lon":5.37654,"is_reserved":false,"is_disabled":false,"rental_uris":{"android":"levelo://app?vid=d72b2ab6-ea3d-4024-88f8-d9b1b25fb544","ios":"levelo://app?vid=d72b2ab6-ea3d-4024-88f8-d9b1b25fb544"},"vehicle_type_id":"4","last_reported":1726376953,"current_range_meters":25200,"station_id":"ce4bgv92rcd13ifvqcq0","pricing_plan_id":"cebpf4jnsgd1na2vs0mg"},{"bike_id":"3c4c5b85-5b79-4029-86ae-4feb397ccf8c","system_id":"levelo_inurba_marseille","lat":43.24806,"lon":5.37454,"is_reserved":false,"is_disabled":false,"rental_uris":{"android":"levelo://app?vid=3c4c5b85-5b79-4029-86ae-4feb397ccf8c","ios":"levelo://app?vid=3c4c5b85-5b79-4029-86ae-4feb397ccf8c"},"vehicle_type_id":"4","last_reported":1726376953,"current_range_meters":38800,"station_id":"ce4bhgh2rcd13ifvqfb0","pricing_plan_id":"cebpf4jnsgd1na2vs0mg"},{"bike_id":"202d8cbb-462c-4f7e-b909-68c6dd6bce3a","system_id":"levelo_inurba_marseille","lat":43.29036,"lon":5.39967,"is_reserved":false,"is_disabled":false,"rental_uris":{"android":"levelo://app?vid=202d8cbb-462c-4f7e-b909-68c6dd6bce3a","ios":"levelo://app?vid=202d8cbb-462c-4f7e-b909-68c6dd6bce3a"},"vehicle_type_id":"4","last_reported":1726376953,"current_range_meters":38000,"station_id":"ce4bh392rcd13ifvqdm0","pricing_plan_id":"cebpf4jnsgd1na2vs0mg"},{"bike_id":"cf4306ab-ec49-44e9-a678-fc57450de71b","system_id":"levelo_inurba_marseille","lat":43.3153,"lon":5.38027,"is_reserved":false,"is_disabled":false,"rental_uris":{"android":"levelo://app?vid=cf4306ab-ec49-44e9-a678-fc57450de71b","ios":"levelo://app?vid=cf4306ab-ec49-44e9-a678-fc57450de71b"},"vehicle_type_id":"4","last_reported":1726376953,"current_range_meters":39200,"station_id":"ce4bhsp2rcd13ifvqi50","pricing_plan_id":"cebpf4jnsgd1na2vs0mg"},{"bike_id":"e773dc43-23c9-4934-bff0-2de0b967fe14","system_id":"levelo_inurba_marseille","lat":43.24076,"lon":5.37753,"is_reserved":false,"is_disabled":false,"rental_uris":{"android":"levelo://app?vid=e773dc43-23c9-4934-bff0-2de0b967fe14","ios":"levelo://app?vid=e773dc43-23c9-4934-bff0-2de0b967fe14"},"vehicle_type_id":"4","last_reported":1726376953,"current_range_meters":12000,"station_id":"ce4bhnp2rcd13ifvqgvg","pricing_plan_id":"cebpf4jnsgd1na2vs0mg"},{"bike_id":"df293ba3-6137-4aac-9bcb-adfad5f91d0b","system_id":"levelo_inurba_marseille","lat":43.3133,"lon":5.39692,"is_reserved":false,"is_disabled":false,"rental_uris":{"android":"levelo://app?vid=df293ba3-6137-4aac-9bcb-adfad5f91d0b","ios":"levelo://app?vid=df293ba3-6137-4aac-9bcb-adfad5f91d0b"},"vehicle_type_id":"4","last_reported":1726376953,"current_range_meters":25600,"station_id":"ce4bgvp2rcd13ifvqcu0","pricing_plan_id":"cebpf4jnsgd1na2vs0mg"},{"bike_id":"ee3ab8b4-bd07-4b17-ba95-610e0fa46eef","system_id":"levelo_inurba_marseille","lat":43.26031,"lon":5.3754,"is_reserved":false,"is_disabled":false,"rental_uris":{"android":"levelo://app?vid=ee3ab8b4-bd07-4b17-ba95-610e0fa46eef","ios":"levelo://app?vid=ee3ab8b4-bd07-4b17-ba95-610e0fa46eef"},"vehicle_type_id":"4","last_reported":1726376953,"current_range_meters":37600,"station_id":"ce4bhgh2rcd13ifvqfa0","pricing_plan_id":"cebpf4jnsgd1na2vs0mg"},{"bike_id":"7b5477b4-ea69-430c-9451-f5bb6834d95c","system_id":"levelo_inurba_marseille","lat":43.2866,"lon":5.36357,"is_reserved":false,"is_disabled":false,"rental_uris":{"android":"levelo://app?vid=7b5477b4-ea69-430c-9451-f5bb6834d95c","ios":"levelo://app?vid=7b5477b4-ea69-430c-9451-f5bb6834d95c"},"vehicle_type_id":"4","last_reported":1726376953,"current_range_meters":36800,"station_id":"ce4bhah2rcd13ifvqej0","pricing_plan_id":"cebpf4jnsgd1na2vs0mg"},{"bike_id":"ebe53a77-6994-49b3-8fcb-41dbc95c6d08","system_id":"levelo_inurba_marseille","lat":43.30944,"lon":5.40134,"is_reserved":false,"is_disabled":false,"rental_uris":{"android":"levelo://app?vid=ebe53a77-6994-49b3-8fcb-41dbc95c6d08","ios":"levelo://app?vid=ebe53a77-6994-49b3-8fcb-41dbc95c6d08"},"vehicle_type_id":"4","last_reported":1726376953,"current_range_meters":26800,"station_id":"ce4bgvp2rcd13ifvqct0","pricing_plan_id":"cebpf4jnsgd1na2vs0mg"},{"bike_id":"6b54968e-7a14-4f1e-8290-2c6e6b0b9711","system_id":"levelo_inurba_marseille","lat":43.30933,"lon":5.40142,"is_reserved":false,"is_disabled":false,"rental_uris":{"android":"levelo://app?vid=6b54968e-7a14-4f1e-8290-2c6e6b0b9711","ios":"levelo://app?vid=6b54968e-7a14-4f1e-8290-2c6e6b0b9711"},"vehicle_type_id":"4","last_reported":1726376953,"current_range_meters":38800,"station_id":"ce4bgvp2rcd13ifvqct0","pricing_plan_id":"cebpf4jnsgd1na2vs0mg"},{"bike_id":"a0ed5178-484f-47cc-bd63-846aeaa97be3","system_id":"levelo_inurba_marseille","lat":43.30778,"lon":5.37653,"is_reserved":false,"is_disabled":false,"rental_uris":{"android":"levelo://app?vid=a0ed5178-484f-47cc-bd63-846aeaa97be3","ios":"levelo://app?vid=a0ed5178-484f-47cc-bd63-846aeaa97be3"},"vehicle_type_id":"4","last_reported":1726376953,"current_range_meters":38800,"station_id":"ce4bgv92rcd13ifvqcq0","pricing_plan_id":"cebpf4jnsgd1na2vs0mg"},{"bike_id":"c1cbc8f3-2245-4c97-8aef-76f11efb9c90","system_id":"levelo_inurba_marseille","lat":43.2987,"lon":5.39728,"is_reserved":false,"is_disabled":false,"rental_uris":{"android":"levelo://app?vid=c1cbc8f3-2245-4c97-8aef-76f11efb9c90","ios":"levelo://app?vid=c1cbc8f3-2245-4c97-8aef-76f11efb9c90"},"vehicle_type_id":"4","last_reported":1726376953,"current_range_meters":37600,"station_id":"ce4bh0h2rcd13ifvqd50","pricing_plan_id":"cebpf4jnsgd1na2vs0mg"},{"bike_id":"b1db6496-7d7b-4acc-a88c-e5406d38e100","system_id":"levelo_inurba_marseille","lat":43.23197,"lon":5.35546,"is_reserved":false,"is_disabled":false,"rental_uris":{"android":"levelo://app?vid=b1db6496-7d7b-4acc-a88c-e5406d38e100","ios":"levelo://app?vid=b1db6496-7d7b-4acc-a88c-e5406d38e100"},"vehicle_type_id":"4","last_reported":1726376953,"current_range_meters":38000,"station_id":"ce4bhu92rcd13ifvqi70","pricing_plan_id":"cebpf4jnsgd1na2vs0mg"},{"bike_id":"370deb58-86b2-45b7-bd04-3d1900688b7b","system_id":"levelo_inurba_marseille","lat":43.32474,"lon":5.36561,"is_reserved":false,"is_disabled":false,"rental_uris":{"android":"levelo://app?vid=370deb58-86b2-45b7-bd04-3d1900688b7b","ios":"levelo://app?vid=370deb58-86b2-45b7-bd04-3d1900688b7b"},"vehicle_type_id":"4","last_reported":1726376953,"current_range_meters":25600,"station_id":"ce4bhs12rcd13ifvqhvg","pricing_plan_id":"cebpf4jnsgd1na2vs0mg"},{"bike_id":"ee721f16-71d0-49c8-9da4-858f78b55bcb","system_id":"levelo_inurba_marseille","lat":43.25938,"lon":5.40902,"is_reserved":false,"is_disabled":false,"rental_uris":{"android":"levelo://app?vid=ee721f16-71d0-49c8-9da4-858f78b55bcb","ios":"levelo://app?vid=ee721f16-71d0-49c8-9da4-858f78b55bcb"},"vehicle_type_id":"4","last_reported":1726376953,"current_range_meters":27200,"station_id":"ce4bhm92rcd13ifvqglg","pricing_plan_id":"cebpf4jnsgd1na2vs0mg"},{"bike_id":"4af6fd3a-aef1-43db-816e-c64d386db18f","system_id":"levelo_inurba_marseille","lat":43.30892,"lon":5.37193,"is_reserved":false,"is_disabled":false,"rental_uris":{"android":"levelo://app?vid=4af6fd3a-aef1-43db-816e-c64d386db18f","ios":"levelo://app?vid=4af6fd3a-aef1-43db-816e-c64d386db18f"},"vehicle_type_id":"4","last_reported":1726376953,"current_range_meters":8800,"station_id":"ce4bguh2rcd13ifvqckg","pricing_plan_id":"cebpf4jnsgd1na2vs0mg"},{"bike_id":"03aa104c-fa70-4660-8124-c74da53980cb","system_id":"levelo_inurba_marseille","lat":43.30962,"lon":5.39035,"is_reserved":false,"is_disabled":false,"rental_uris":{"android":"levelo://app?vid=03aa104c-fa70-4660-8124-c74da53980cb","ios":"levelo://app?vid=03aa104c-fa70-4660-8124-c74da53980cb"},"vehicle_type_id":"4","last_reported":1726376953,"current_range_meters":38800,"station_id":"ce4bgup2rcd13ifvqco0","pricing_plan_id":"cebpf4jnsgd1na2vs0mg"},{"bike_id":"b7607453-b26c-447f-958b-b6b7b5783a91","system_id":"levelo_inurba_marseille","lat":43.30215,"lon":5.39464,"is_reserved":false,"is_disabled":false,"rental_uris":{"android":"levelo://app?vid=b7607453-b26c-447f-958b-b6b7b5783a91","ios":"levelo://app?vid=b7607453-b26c-447f-958b-b6b7b5783a91"},"vehicle_type_id":"4","last_reported":1726376953,"current_range_meters":37600,"station_id":"ce4bh0p2rcd13ifvqd70","pricing_plan_id":"cebpf4jnsgd1na2vs0mg"},{"bike_id":"1c4c93e0-18f5-46d5-8255-f40a4e48a0ce","system_id":"levelo_inurba_marseille","lat":43.29043,"lon":5.35897,"is_reserved":false,"is_disabled":false,"rental_uris":{"android":"levelo://app?vid=1c4c93e0-18f5-46d5-8255-f40a4e48a0ce","ios":"levelo://app?vid=1c4c93e0-18f5-46d5-8255-f40a4e48a0ce"},"vehicle_type_id":"4","last_reported":1726376953,"current_range_meters":17200,"station_id":"ce4bha92rcd13ifvqeg0","pricing_plan_id":"cebpf4jnsgd1na2vs0mg"},{"bike_id":"5cf4c2f1-f092-4550-b8cf-369099ebc3bc","system_id":"levelo_inurba_marseille","lat":43.24565,"lon":5.41549,"is_reserved":false,"is_disabled":false,"rental_uris":{"android":"levelo://app?vid=5cf4c2f1-f092-4550-b8cf-369099ebc3bc","ios":"levelo://app?vid=5cf4c2f1-f092-4550-b8cf-369099ebc3bc"},"vehicle_type_id":"4","last_reported":1726376953,"current_range_meters":16800,"station_id":"ce4bhlh2rcd13ifvqgig","pricing_plan_id":"cebpf4jnsgd1na2vs0mg"},{"bike_id":"16aa4811-381d-4881-804c-8092846dc67d","system_id":"levelo_inurba_marseille","lat":43.29282,"lon":5.40125,"is_reserved":false,"is_disabled":false,"rental_uris":{"android":"levelo://app?vid=16aa4811-381d-4881-804c-8092846dc67d","ios":"levelo://app?vid=16aa4811-381d-4881-804c-8092846dc67d"},"vehicle_type_id":"4","last_reported":1726376953,"current_range_meters":38800,"station_id":"ce4bh312rcd13ifvqdk0","pricing_plan_id":"cebpf4jnsgd1na2vs0mg"},{"bike_id":"362161cd-dad3-4629-a750-f306b00831c5","system_id":"levelo_inurba_marseille","lat":43.30782,"lon":5.37648,"is_reserved":false,"is_disabled":false,"rental_uris":{"android":"levelo://app?vid=362161cd-dad3-4629-a750-f306b00831c5","ios":"levelo://app?vid=362161cd-dad3-4629-a750-f306b00831c5"},"vehicle_type_id":"4","last_reported":1726376953,"current_range_meters":25600,"station_id":"ce4bgv92rcd13ifvqcq0","pricing_plan_id":"cebpf4jnsgd1na2vs0mg"},{"bike_id":"ba6915fc-8ede-479e-8d30-2a4495d0361a","system_id":"levelo_inurba_marseille","lat":43.292296,"lon":5.360679,"is_reserved":false,"is_disabled":false,"rental_uris":{"android":"levelo://app?vid=ba6915fc-8ede-479e-8d30-2a4495d0361a","ios":"levelo://app?vid=ba6915fc-8ede-479e-8d30-2a4495d0361a"},"vehicle_type_id":"4","last_reported":1726376953,"current_range_meters":26800,"station_id":"ce4bhbh2rcd13ifvqeqg","pricing_plan_id":"cebpf4jnsgd1na2vs0mg"},{"bike_id":"191aaad7-3947-47de-b3b9-0cc2faf013d9","system_id":"levelo_inurba_marseille","lat":43.28157,"lon":5.42639,"is_reserved":false,"is_disabled":false,"rental_uris":{"android":"levelo://app?vid=191aaad7-3947-47de-b3b9-0cc2faf013d9","ios":"levelo://app?vid=191aaad7-3947-47de-b3b9-0cc2faf013d9"},"vehicle_type_id":"4","last_reported":1726376953,"current_range_meters":38800,"station_id":"ce4bhnh2rcd13ifvqgug","pricing_plan_id":"cebpf4jnsgd1na2vs0mg"},{"bike_id":"dfc7e944-178a-43bd-85e8-0abf1cafc416","system_id":"levelo_inurba_marseille","lat":43.22923,"lon":5.35379,"is_reserved":false,"is_disabled":false,"rental_uris":{"android":"levelo://app?vid=dfc7e944-178a-43bd-85e8-0abf1cafc416","ios":"levelo://app?vid=dfc7e944-178a-43bd-85e8-0abf1cafc416"},"vehicle_type_id":"4","last_reported":1726376953,"current_range_meters":23200,"station_id":"cpo3532slgdg3j2ikp40","pricing_plan_id":"cebpf4jnsgd1na2vs0mg"},{"bike_id":"074a5e33-94f4-45ec-ad07-778b7d83aced","system_id":"levelo_inurba_marseille","lat":43.30608,"lon":5.37225,"is_reserved":false,"is_disabled":false,"rental_uris":{"android":"levelo://app?vid=074a5e33-94f4-45ec-ad07-778b7d83aced","ios":"levelo://app?vid=074a5e33-94f4-45ec-ad07-778b7d83aced"},"vehicle_type_id":"4","last_reported":1726376953,"current_range_meters":37600,"station_id":"ce4bgqh2rcd13ifvqc4g","pricing_plan_id":"cebpf4jnsgd1na2vs0mg"},{"bike_id":"6dddbab5-c16e-4541-846f-31261364d687","system_id":"levelo_inurba_marseille","lat":43.31334,"lon":5.39698,"is_reserved":false,"is_disabled":false,"rental_uris":{"android":"levelo://app?vid=6dddbab5-c16e-4541-846f-31261364d687","ios":"levelo://app?vid=6dddbab5-c16e-4541-846f-31261364d687"},"vehicle_type_id":"4","last_reported":1726376953,"current_range_meters":12000,"station_id":"ce4bgvp2rcd13ifvqcu0","pricing_plan_id":"cebpf4jnsgd1na2vs0mg"},{"bike_id":"d14a89a3-5876-4d42-aaa8-8644b282b1ec","system_id":"levelo_inurba_marseille","lat":43.33602,"lon":5.41035,"is_reserved":false,"is_disabled":false,"rental_uris":{"android":"levelo://app?vid=d14a89a3-5876-4d42-aaa8-8644b282b1ec","ios":"levelo://app?vid=d14a89a3-5876-4d42-aaa8-8644b282b1ec"},"vehicle_type_id":"4","last_reported":1726376953,"current_range_meters":22000,"station_id":"ce4bhqh2rcd13ifvqhmg","pricing_plan_id":"cebpf4jnsgd1na2vs0mg"},{"bike_id":"6ab66dd8-4728-47f3-b08b-e0286098c124","system_id":"levelo_inurba_marseille","lat":43.305527,"lon":5.384276,"is_reserved":false,"is_disabled":false,"rental_uris":{"android":"levelo://app?vid=6ab66dd8-4728-47f3-b08b-e0286098c124","ios":"levelo://app?vid=6ab66dd8-4728-47f3-b08b-e0286098c124"},"vehicle_type_id":"4","last_reported":1726376953,"current_range_meters":30000,"station_id":"ce4bgg92rcd13ifvqb30","pricing_plan_id":"cebpf4jnsgd1na2vs0mg"},{"bike_id":"f1a060cd-b023-45af-b205-f4250fba925a","system_id":"levelo_inurba_marseille","lat":43.2467,"lon":5.3816,"is_reserved":false,"is_disabled":false,"rental_uris":{"android":"levelo://app?vid=f1a060cd-b023-45af-b205-f4250fba925a","ios":"levelo://app?vid=f1a060cd-b023-45af-b205-f4250fba925a"},"vehicle_type_id":"4","last_reported":1726376953,"current_range_meters":38400,"station_id":"ce4bhih2rcd13ifvqfr0","pricing_plan_id":"cebpf4jnsgd1na2vs0mg"},{"bike_id":"b645ac77-0d58-4fa9-8ad3-947af8bdb1d9","system_id":"levelo_inurba_marseille","lat":43.29895,"lon":5.43659,"is_reserved":false,"is_disabled":false,"rental_uris":{"android":"levelo://app?vid=b645ac77-0d58-4fa9-8ad3-947af8bdb1d9","ios":"levelo://app?vid=b645ac77-0d58-4fa9-8ad3-947af8bdb1d9"},"vehicle_type_id":"4","last_reported":1726376953,"current_range_meters":36000,"station_id":"ce4bhpp2rcd13ifvqhfg","pricing_plan_id":"cebpf4jnsgd1na2vs0mg"},{"bike_id":"03515e55-0de8-4f6d-953a-abbf71a9cce4","system_id":"levelo_inurba_marseille","lat":43.24071,"lon":5.37759,"is_reserved":false,"is_disabled":false,"rental_uris":{"android":"levelo://app?vid=03515e55-0de8-4f6d-953a-abbf71a9cce4","ios":"levelo://app?vid=03515e55-0de8-4f6d-953a-abbf71a9cce4"},"vehicle_type_id":"4","last_reported":1726376953,"current_range_meters":19200,"station_id":"ce4bhnp2rcd13ifvqgvg","pricing_plan_id":"cebpf4jnsgd1na2vs0mg"},{"bike_id":"a5678295-0458-4f6d-9ccb-6897bde67101","system_id":"levelo_inurba_marseille","lat":43.24131,"lon":5.3644,"is_reserved":false,"is_disabled":false,"rental_uris":{"android":"levelo://app?vid=a5678295-0458-4f6d-9ccb-6897bde67101","ios":"levelo://app?vid=a5678295-0458-4f6d-9ccb-6897bde67101"},"vehicle_type_id":"4","last_reported":1726376953,"current_range_meters":36800,"station_id":"cpo36qri1sfpv3e86is0","pricing_plan_id":"cebpf4jnsgd1na2vs0mg"},{"bike_id":"91d155a1-0e95-42f4-9cf2-24e586735a13","system_id":"levelo_inurba_marseille","lat":43.33726,"lon":5.39186,"is_reserved":false,"is_disabled":false,"rental_uris":{"android":"levelo://app?vid=91d155a1-0e95-42f4-9cf2-24e586735a13","ios":"levelo://app?vid=91d155a1-0e95-42f4-9cf2-24e586735a13"},"vehicle_type_id":"4","last_reported":1726376953,"current_range_meters":38800,"station_id":"ce4bhr92rcd13ifvqhsg","pricing_plan_id":"cebpf4jnsgd1na2vs0mg"},{"bike_id":"5cbfba17-7966-47bc-bd57-385605875a81","system_id":"levelo_inurba_marseille","lat":43.2481,"lon":5.37458,"is_reserved":false,"is_disabled":false,"rental_uris":{"android":"levelo://app?vid=5cbfba17-7966-47bc-bd57-385605875a81","ios":"levelo://app?vid=5cbfba17-7966-47bc-bd57-385605875a81"},"vehicle_type_id":"4","last_reported":1726376953,"current_range_meters":37600,"station_id":"ce4bhgh2rcd13ifvqfb0","pricing_plan_id":"cebpf4jnsgd1na2vs0mg"},{"bike_id":"c11f97d6-87cf-4460-8a76-9af979a978f6","system_id":"levelo_inurba_marseille","lat":43.30909,"lon":5.36848,"is_reserved":false,"is_disabled":false,"rental_uris":{"android":"levelo://app?vid=c11f97d6-87cf-4460-8a76-9af979a978f6","ios":"levelo://app?vid=c11f97d6-87cf-4460-8a76-9af979a978f6"},"vehicle_type_id":"4","last_reported":1726376953,"current_range_meters":10000,"station_id":"ce4bgn92rcd13ifvqbvg","pricing_plan_id":"cebpf4jnsgd1na2vs0mg"},{"bike_id":"d09e889c-91fc-429c-858f-8477102c0db7","system_id":"levelo_inurba_marseille","lat":43.31072,"lon":5.38348,"is_reserved":false,"is_disabled":false,"rental_uris":{"android":"levelo://app?vid=d09e889c-91fc-429c-858f-8477102c0db7","ios":"levelo://app?vid=d09e889c-91fc-429c-858f-8477102c0db7"},"vehicle_type_id":"4","last_reported":1726376953,"current_range_meters":30800,"station_id":"ce4bgv92rcd13ifvqcr0","pricing_plan_id":"cebpf4jnsgd1na2vs0mg"},{"bike_id":"4123515d-635a-4a62-9f56-c2589ef20496","system_id":"levelo_inurba_marseille","lat":43.29895,"lon":5.43668,"is_reserved":false,"is_disabled":false,"rental_uris":{"android":"levelo://app?vid=4123515d-635a-4a62-9f56-c2589ef20496","ios":"levelo://app?vid=4123515d-635a-4a62-9f56-c2589ef20496"},"vehicle_type_id":"4","last_reported":1726376953,"current_range_meters":38800,"station_id":"ce4bhpp2rcd13ifvqhfg","pricing_plan_id":"cebpf4jnsgd1na2vs0mg"},{"bike_id":"7abc2a25-404a-4f70-a7c0-c89315b5c4bc","system_id":"levelo_inurba_marseille","lat":43.30346,"lon":5.36682,"is_reserved":false,"is_disabled":false,"rental_uris":{"android":"levelo://app?vid=7abc2a25-404a-4f70-a7c0-c89315b5c4bc","ios":"levelo://app?vid=7abc2a25-404a-4f70-a7c0-c89315b5c4bc"},"vehicle_type_id":"4","last_reported":1726376953,"current_range_meters":28800,"station_id":"","pricing_plan_id":"cebpf4jnsgd1na2vs0mg"},{"bike_id":"fd83cc85-fb39-4529-9ec4-67df617c15df","system_id":"levelo_inurba_marseille","lat":43.28263,"lon":5.35382,"is_reserved":false,"is_disabled":false,"rental_uris":{"android":"levelo://app?vid=fd83cc85-fb39-4529-9ec4-67df617c15df","ios":"levelo://app?vid=fd83cc85-fb39-4529-9ec4-67df617c15df"},"vehicle_type_id":"4","last_reported":1726376953,"current_range_meters":18000,"station_id":"","pricing_plan_id":"cebpf4jnsgd1na2vs0mg"},{"bike_id":"680b296f-8a9e-4ce9-90dd-5edf4faa61c1","system_id":"levelo_inurba_marseille","lat":43.31762,"lon":5.39005,"is_reserved":false,"is_disabled":false,"rental_uris":{"android":"levelo://app?vid=680b296f-8a9e-4ce9-90dd-5edf4faa61c1","ios":"levelo://app?vid=680b296f-8a9e-4ce9-90dd-5edf4faa61c1"},"vehicle_type_id":"4","last_reported":1726376953,"current_range_meters":38800,"station_id":"ce4bhqp2rcd13ifvqhng","pricing_plan_id":"cebpf4jnsgd1na2vs0mg"},{"bike_id":"bbd2450a-84a7-42e1-bc94-af6bf7be8eb5","system_id":"levelo_inurba_marseille","lat":43.33023,"lon":5.39051,"is_reserved":false,"is_disabled":false,"rental_uris":{"android":"levelo://app?vid=bbd2450a-84a7-42e1-bc94-af6bf7be8eb5","ios":"levelo://app?vid=bbd2450a-84a7-42e1-bc94-af6bf7be8eb5"},"vehicle_type_id":"4","last_reported":1726376953,"current_range_meters":34800,"station_id":"ce4bhr92rcd13ifvqhrg","pricing_plan_id":"cebpf4jnsgd1na2vs0mg"},{"bike_id":"fceea905-a923-4535-9027-2c306cebf83f","system_id":"levelo_inurba_marseille","lat":43.27951,"lon":5.41048,"is_reserved":false,"is_disabled":false,"rental_uris":{"android":"levelo://app?vid=fceea905-a923-4535-9027-2c306cebf83f","ios":"levelo://app?vid=fceea905-a923-4535-9027-2c306cebf83f"},"vehicle_type_id":"4","last_reported":1726376953,"current_range_meters":38800,"station_id":"ce4bhnp2rcd13ifvqh0g","pricing_plan_id":"cebpf4jnsgd1na2vs0mg"},{"bike_id":"e8a9a88f-e3dd-4130-8491-dcbfd4fb4893","system_id":"levelo_inurba_marseille","lat":43.33727,"lon":5.39183,"is_reserved":false,"is_disabled":false,"rental_uris":{"android":"levelo://app?vid=e8a9a88f-e3dd-4130-8491-dcbfd4fb4893","ios":"levelo://app?vid=e8a9a88f-e3dd-4130-8491-dcbfd4fb4893"},"vehicle_type_id":"4","last_reported":1726376953,"current_range_meters":37600,"station_id":"ce4bhr92rcd13ifvqhsg","pricing_plan_id":"cebpf4jnsgd1na2vs0mg"},{"bike_id":"46fa0628-63da-403c-a9e3-76cf9989cf96","system_id":"levelo_inurba_marseille","lat":43.31329,"lon":5.39692,"is_reserved":false,"is_disabled":false,"rental_uris":{"android":"levelo://app?vid=46fa0628-63da-403c-a9e3-76cf9989cf96","ios":"levelo://app?vid=46fa0628-63da-403c-a9e3-76cf9989cf96"},"vehicle_type_id":"4","last_reported":1726376953,"current_range_meters":38800,"station_id":"ce4bgvp2rcd13ifvqcu0","pricing_plan_id":"cebpf4jnsgd1na2vs0mg"},{"bike_id":"873ac64c-a3b4-489d-b67e-8f966df25667","system_id":"levelo_inurba_marseille","lat":43.30884,"lon":5.39644,"is_reserved":false,"is_disabled":false,"rental_uris":{"android":"levelo://app?vid=873ac64c-a3b4-489d-b67e-8f966df25667","ios":"levelo://app?vid=873ac64c-a3b4-489d-b67e-8f966df25667"},"vehicle_type_id":"4","last_reported":1726376953,"current_range_meters":38400,"station_id":"ce4bh012rcd13ifvqcv0","pricing_plan_id":"cebpf4jnsgd1na2vs0mg"},{"bike_id":"d1ff2331-d251-403d-9f39-2bb7a84d72b5","system_id":"levelo_inurba_marseille","lat":43.24671,"lon":5.3815,"is_reserved":false,"is_disabled":false,"rental_uris":{"android":"levelo://app?vid=d1ff2331-d251-403d-9f39-2bb7a84d72b5","ios":"levelo://app?vid=d1ff2331-d251-403d-9f39-2bb7a84d72b5"},"vehicle_type_id":"4","last_reported":1726376953,"current_range_meters":14800,"station_id":"ce4bhih2rcd13ifvqfr0","pricing_plan_id":"cebpf4jnsgd1na2vs0mg"},{"bike_id":"9c725688-b0c1-459c-ac5a-39ed339a416d","system_id":"levelo_inurba_marseille","lat":43.29195,"lon":5.35807,"is_reserved":false,"is_disabled":false,"rental_uris":{"android":"levelo://app?vid=9c725688-b0c1-459c-ac5a-39ed339a416d","ios":"levelo://app?vid=9c725688-b0c1-459c-ac5a-39ed339a416d"},"vehicle_type_id":"4","last_reported":1726376953,"current_range_meters":38800,"station_id":"ce4bhb12rcd13ifvqel0","pricing_plan_id":"cebpf4jnsgd1na2vs0mg"},{"bike_id":"ac2f8b18-c4e8-4836-947b-b533a20a9549","system_id":"levelo_inurba_marseille","lat":43.29041,"lon":5.35906,"is_reserved":false,"is_disabled":false,"rental_uris":{"android":"levelo://app?vid=ac2f8b18-c4e8-4836-947b-b533a20a9549","ios":"levelo://app?vid=ac2f8b18-c4e8-4836-947b-b533a20a9549"},"vehicle_type_id":"4","last_reported":1726376953,"current_range_meters":36400,"station_id":"ce4bha92rcd13ifvqeg0","pricing_plan_id":"cebpf4jnsgd1na2vs0mg"},{"bike_id":"2f2ec0be-eca5-43ef-afb7-d9c9efbb93bd","system_id":"levelo_inurba_marseille","lat":43.32286,"lon":5.38262,"is_reserved":false,"is_disabled":false,"rental_uris":{"android":"levelo://app?vid=2f2ec0be-eca5-43ef-afb7-d9c9efbb93bd","ios":"levelo://app?vid=2f2ec0be-eca5-43ef-afb7-d9c9efbb93bd"},"vehicle_type_id":"4","last_reported":1726376953,"current_range_meters":10800,"station_id":"ce4bhr12rcd13ifvqhqg","pricing_plan_id":"cebpf4jnsgd1na2vs0mg"},{"bike_id":"552ccea4-a0ab-4fa2-9015-1ea8da64cd61","system_id":"levelo_inurba_marseille","lat":43.2558,"lon":5.38232,"is_reserved":false,"is_disabled":false,"rental_uris":{"android":"levelo://app?vid=552ccea4-a0ab-4fa2-9015-1ea8da64cd61","ios":"levelo://app?vid=552ccea4-a0ab-4fa2-9015-1ea8da64cd61"},"vehicle_type_id":"4","last_reported":1726376953,"current_range_meters":4800,"station_id":"ce4bhih2rcd13ifvqfs0","pricing_plan_id":"cebpf4jnsgd1na2vs0mg"},{"bike_id":"9891c37e-0015-4fb5-b721-3755085cd71a","system_id":"levelo_inurba_marseille","lat":43.31329,"lon":5.39699,"is_reserved":false,"is_disabled":false,"rental_uris":{"android":"levelo://app?vid=9891c37e-0015-4fb5-b721-3755085cd71a","ios":"levelo://app?vid=9891c37e-0015-4fb5-b721-3755085cd71a"},"vehicle_type_id":"4","last_reported":1726376953,"current_range_meters":37600,"station_id":"ce4bgvp2rcd13ifvqcu0","pricing_plan_id":"cebpf4jnsgd1na2vs0mg"},{"bike_id":"bd74b983-d573-4437-be03-061ab212135e","system_id":"levelo_inurba_marseille","lat":43.292786,"lon":5.40119,"is_reserved":false,"is_disabled":false,"rental_uris":{"android":"levelo://app?vid=bd74b983-d573-4437-be03-061ab212135e","ios":"levelo://app?vid=bd74b983-d573-4437-be03-061ab212135e"},"vehicle_type_id":"4","last_reported":1726376953,"current_range_meters":24800,"station_id":"ce4bh312rcd13ifvqdk0","pricing_plan_id":"cebpf4jnsgd1na2vs0mg"},{"bike_id":"39573caa-dcd0-4ff4-97bc-2e189f2b1f8c","system_id":"levelo_inurba_marseille","lat":43.22933,"lon":5.35382,"is_reserved":false,"is_disabled":false,"rental_uris":{"android":"levelo://app?vid=39573caa-dcd0-4ff4-97bc-2e189f2b1f8c","ios":"levelo://app?vid=39573caa-dcd0-4ff4-97bc-2e189f2b1f8c"},"vehicle_type_id":"4","last_reported":1726376953,"current_range_meters":28400,"station_id":"cpo3532slgdg3j2ikp40","pricing_plan_id":"cebpf4jnsgd1na2vs0mg"},{"bike_id":"b8cfd7e7-5313-497a-b136-54748d691d21","system_id":"levelo_inurba_marseille","lat":43.31709,"lon":5.43708,"is_reserved":false,"is_disabled":false,"rental_uris":{"android":"levelo://app?vid=b8cfd7e7-5313-497a-b136-54748d691d21","ios":"levelo://app?vid=b8cfd7e7-5313-497a-b136-54748d691d21"},"vehicle_type_id":"4","last_reported":1726376953,"current_range_meters":38800,"station_id":"ce4bhp92rcd13ifvqhcg","pricing_plan_id":"cebpf4jnsgd1na2vs0mg"},{"bike_id":"06a4474b-9574-4d82-977d-1163f17b7819","system_id":"levelo_inurba_marseille","lat":43.24664,"lon":5.38158,"is_reserved":false,"is_disabled":false,"rental_uris":{"android":"levelo://app?vid=06a4474b-9574-4d82-977d-1163f17b7819","ios":"levelo://app?vid=06a4474b-9574-4d82-977d-1163f17b7819"},"vehicle_type_id":"4","last_reported":1726376953,"current_range_meters":38800,"station_id":"ce4bhih2rcd13ifvqfr0","pricing_plan_id":"cebpf4jnsgd1na2vs0mg"},{"bike_id":"e913674e-3e20-42a5-890a-6007ca92b33d","system_id":"levelo_inurba_marseille","lat":43.31321,"lon":5.3969,"is_reserved":false,"is_disabled":false,"rental_uris":{"android":"levelo://app?vid=e913674e-3e20-42a5-890a-6007ca92b33d","ios":"levelo://app?vid=e913674e-3e20-42a5-890a-6007ca92b33d"},"vehicle_type_id":"4","last_reported":1726376953,"current_range_meters":32000,"station_id":"ce4bgvp2rcd13ifvqcu0","pricing_plan_id":"cebpf4jnsgd1na2vs0mg"},{"bike_id":"c9c7c381-e016-4c51-a76a-8a48c6709198","system_id":"levelo_inurba_marseille","lat":43.28701,"lon":5.39972,"is_reserved":false,"is_disabled":false,"rental_uris":{"android":"levelo://app?vid=c9c7c381-e016-4c51-a76a-8a48c6709198","ios":"levelo://app?vid=c9c7c381-e016-4c51-a76a-8a48c6709198"},"vehicle_type_id":"4","last_reported":1726376953,"current_range_meters":34800,"station_id":"ce4bho92rcd13ifvqh3g","pricing_plan_id":"cebpf4jnsgd1na2vs0mg"},{"bike_id":"7251d55d-befd-400d-90d9-ab0b68ba8caa","system_id":"levelo_inurba_marseille","lat":43.24811,"lon":5.37456,"is_reserved":false,"is_disabled":false,"rental_uris":{"android":"levelo://app?vid=7251d55d-befd-400d-90d9-ab0b68ba8caa","ios":"levelo://app?vid=7251d55d-befd-400d-90d9-ab0b68ba8caa"},"vehicle_type_id":"4","last_reported":1726376953,"current_range_meters":38400,"station_id":"ce4bhgh2rcd13ifvqfb0","pricing_plan_id":"cebpf4jnsgd1na2vs0mg"},{"bike_id":"53a2d874-293d-47cc-bdbd-a03b3468623b","system_id":"levelo_inurba_marseille","lat":43.29902,"lon":5.43677,"is_reserved":false,"is_disabled":false,"rental_uris":{"android":"levelo://app?vid=53a2d874-293d-47cc-bdbd-a03b3468623b","ios":"levelo://app?vid=53a2d874-293d-47cc-bdbd-a03b3468623b"},"vehicle_type_id":"4","last_reported":1726376953,"current_range_meters":6800,"station_id":"ce4bhpp2rcd13ifvqhfg","pricing_plan_id":"cebpf4jnsgd1na2vs0mg"},{"bike_id":"667f841a-38bd-416e-aa2b-3d465ae68086","system_id":"levelo_inurba_marseille","lat":43.31364,"lon":5.367,"is_reserved":false,"is_disabled":false,"rental_uris":{"android":"levelo://app?vid=667f841a-38bd-416e-aa2b-3d465ae68086","ios":"levelo://app?vid=667f841a-38bd-416e-aa2b-3d465ae68086"},"vehicle_type_id":"4","last_reported":1726376953,"current_range_meters":8400,"station_id":"ce4bgr92rcd13ifvqc6g","pricing_plan_id":"cebpf4jnsgd1na2vs0mg"},{"bike_id":"bb7acf50-b6bc-4b2d-adf4-833abc23b24c","system_id":"levelo_inurba_marseille","lat":43.23199,"lon":5.35552,"is_reserved":false,"is_disabled":false,"rental_uris":{"android":"levelo://app?vid=bb7acf50-b6bc-4b2d-adf4-833abc23b24c","ios":"levelo://app?vid=bb7acf50-b6bc-4b2d-adf4-833abc23b24c"},"vehicle_type_id":"4","last_reported":1726376953,"current_range_meters":38800,"station_id":"ce4bhu92rcd13ifvqi70","pricing_plan_id":"cebpf4jnsgd1na2vs0mg"},{"bike_id":"19628bd1-9172-46c3-bfa1-37d603408e00","system_id":"levelo_inurba_marseille","lat":43.31324,"lon":5.39693,"is_reserved":false,"is_disabled":false,"rental_uris":{"android":"levelo://app?vid=19628bd1-9172-46c3-bfa1-37d603408e00","ios":"levelo://app?vid=19628bd1-9172-46c3-bfa1-37d603408e00"},"vehicle_type_id":"4","last_reported":1726376953,"current_range_meters":38800,"station_id":"ce4bgvp2rcd13ifvqcu0","pricing_plan_id":"cebpf4jnsgd1na2vs0mg"},{"bike_id":"f6de5503-3f64-4c45-a987-7e74ca5c7044","system_id":"levelo_inurba_marseille","lat":43.24173,"lon":5.36398,"is_reserved":false,"is_disabled":false,"rental_uris":{"android":"levelo://app?vid=f6de5503-3f64-4c45-a987-7e74ca5c7044","ios":"levelo://app?vid=f6de5503-3f64-4c45-a987-7e74ca5c7044"},"vehicle_type_id":"4","last_reported":1726376953,"current_range_meters":27200,"station_id":"cpo36qri1sfpv3e86is0","pricing_plan_id":"cebpf4jnsgd1na2vs0mg"},{"bike_id":"7319afac-86dc-439b-ad6c-fa6f60706380","system_id":"levelo_inurba_marseille","lat":43.27985,"lon":5.41651,"is_reserved":false,"is_disabled":false,"rental_uris":{"android":"levelo://app?vid=7319afac-86dc-439b-ad6c-fa6f60706380","ios":"levelo://app?vid=7319afac-86dc-439b-ad6c-fa6f60706380"},"vehicle_type_id":"4","last_reported":1726376953,"current_range_meters":29600,"station_id":"ce4bho12rcd13ifvqh1g","pricing_plan_id":"cebpf4jnsgd1na2vs0mg"},{"bike_id":"67e81cca-6b7c-458e-847c-900b28a76b98","system_id":"levelo_inurba_marseille","lat":43.26493,"lon":5.39546,"is_reserved":false,"is_disabled":false,"rental_uris":{"android":"levelo://app?vid=67e81cca-6b7c-458e-847c-900b28a76b98","ios":"levelo://app?vid=67e81cca-6b7c-458e-847c-900b28a76b98"},"vehicle_type_id":"4","last_reported":1726376953,"current_range_meters":38800,"station_id":"ce4bhi12rcd13ifvqfq0","pricing_plan_id":"cebpf4jnsgd1na2vs0mg"},{"bike_id":"0e45f569-2e44-4e68-8b20-a0944937cde0","system_id":"levelo_inurba_marseille","lat":43.2467,"lon":5.38163,"is_reserved":false,"is_disabled":false,"rental_uris":{"android":"levelo://app?vid=0e45f569-2e44-4e68-8b20-a0944937cde0","ios":"levelo://app?vid=0e45f569-2e44-4e68-8b20-a0944937cde0"},"vehicle_type_id":"4","last_reported":1726376953,"current_range_meters":6800,"station_id":"ce4bhih2rcd13ifvqfr0","pricing_plan_id":"cebpf4jnsgd1na2vs0mg"},{"bike_id":"1a538afb-7212-418a-a0b8-2d921b0b0e66","system_id":"levelo_inurba_marseille","lat":43.32654,"lon":5.40991,"is_reserved":false,"is_disabled":false,"rental_uris":{"android":"levelo://app?vid=1a538afb-7212-418a-a0b8-2d921b0b0e66","ios":"levelo://app?vid=1a538afb-7212-418a-a0b8-2d921b0b0e66"},"vehicle_type_id":"4","last_reported":1726376953,"current_range_meters":38400,"station_id":"ce4bhpp2rcd13ifvqhgg","pricing_plan_id":"cebpf4jnsgd1na2vs0mg"},{"bike_id":"cc0d038e-8a62-435b-9ac6-bfd1505a2d4f","system_id":"levelo_inurba_marseille","lat":43.31723,"lon":5.42404,"is_reserved":false,"is_disabled":false,"rental_uris":{"android":"levelo://app?vid=cc0d038e-8a62-435b-9ac6-bfd1505a2d4f","ios":"levelo://app?vid=cc0d038e-8a62-435b-9ac6-bfd1505a2d4f"},"vehicle_type_id":"4","last_reported":1726376953,"current_range_meters":37600,"station_id":"ce4bhp92rcd13ifvqhbg","pricing_plan_id":"cebpf4jnsgd1na2vs0mg"},{"bike_id":"3724b353-02bf-4b0e-9c4f-8cdf2a4f51bd","system_id":"levelo_inurba_marseille","lat":43.31498,"lon":5.37301,"is_reserved":false,"is_disabled":false,"rental_uris":{"android":"levelo://app?vid=3724b353-02bf-4b0e-9c4f-8cdf2a4f51bd","ios":"levelo://app?vid=3724b353-02bf-4b0e-9c4f-8cdf2a4f51bd"},"vehicle_type_id":"4","last_reported":1726376953,"current_range_meters":23200,"station_id":"ce4bgt12rcd13ifvqcd0","pricing_plan_id":"cebpf4jnsgd1na2vs0mg"},{"bike_id":"941d3af7-4ffc-473a-97fa-a0a42ead1a75","system_id":"levelo_inurba_marseille","lat":43.24644,"lon":5.38891,"is_reserved":false,"is_disabled":false,"rental_uris":{"android":"levelo://app?vid=941d3af7-4ffc-473a-97fa-a0a42ead1a75","ios":"levelo://app?vid=941d3af7-4ffc-473a-97fa-a0a42ead1a75"},"vehicle_type_id":"4","last_reported":1726376953,"current_range_meters":30800,"station_id":"ce4bhg12rcd13ifvqf60","pricing_plan_id":"cebpf4jnsgd1na2vs0mg"},{"bike_id":"7f5df2c6-7e1e-42fe-b508-8ee82456fcff","system_id":"levelo_inurba_marseille","lat":43.31076,"lon":5.3835,"is_reserved":false,"is_disabled":false,"rental_uris":{"android":"levelo://app?vid=7f5df2c6-7e1e-42fe-b508-8ee82456fcff","ios":"levelo://app?vid=7f5df2c6-7e1e-42fe-b508-8ee82456fcff"},"vehicle_type_id":"4","last_reported":1726376953,"current_range_meters":34000,"station_id":"ce4bgv92rcd13ifvqcr0","pricing_plan_id":"cebpf4jnsgd1na2vs0mg"},{"bike_id":"d56cbbe5-b13f-48cb-8b7d-140885a7b197","system_id":"levelo_inurba_marseille","lat":43.3132,"lon":5.39701,"is_reserved":false,"is_disabled":false,"rental_uris":{"android":"levelo://app?vid=d56cbbe5-b13f-48cb-8b7d-140885a7b197","ios":"levelo://app?vid=d56cbbe5-b13f-48cb-8b7d-140885a7b197"},"vehicle_type_id":"4","last_reported":1726376953,"current_range_meters":20000,"station_id":"ce4bgvp2rcd13ifvqcu0","pricing_plan_id":"cebpf4jnsgd1na2vs0mg"},{"bike_id":"bb046787-1b6f-4a52-9f6c-67f38be48f9e","system_id":"levelo_inurba_marseille","lat":43.24542,"lon":5.39522,"is_reserved":false,"is_disabled":false,"rental_uris":{"android":"levelo://app?vid=bb046787-1b6f-4a52-9f6c-67f38be48f9e","ios":"levelo://app?vid=bb046787-1b6f-4a52-9f6c-67f38be48f9e"},"vehicle_type_id":"4","last_reported":1726376953,"current_range_meters":32800,"station_id":"ce4bhlp2rcd13ifvqgjg","pricing_plan_id":"cebpf4jnsgd1na2vs0mg"},{"bike_id":"44d30458-7a32-46f7-8934-a046be5b9eff","system_id":"levelo_inurba_marseille","lat":43.24664,"lon":5.38165,"is_reserved":false,"is_disabled":false,"rental_uris":{"android":"levelo://app?vid=44d30458-7a32-46f7-8934-a046be5b9eff","ios":"levelo://app?vid=44d30458-7a32-46f7-8934-a046be5b9eff"},"vehicle_type_id":"4","last_reported":1726376953,"current_range_meters":30800,"station_id":"ce4bhih2rcd13ifvqfr0","pricing_plan_id":"cebpf4jnsgd1na2vs0mg"},{"bike_id":"8c324614-3b42-4de6-a84b-fab6043da302","system_id":"levelo_inurba_marseille","lat":43.29256,"lon":5.40904,"is_reserved":false,"is_disabled":false,"rental_uris":{"android":"levelo://app?vid=8c324614-3b42-4de6-a84b-fab6043da302","ios":"levelo://app?vid=8c324614-3b42-4de6-a84b-fab6043da302"},"vehicle_type_id":"4","last_reported":1726376953,"current_range_meters":25600,"station_id":"ce4bh192rcd13ifvqdc0","pricing_plan_id":"cebpf4jnsgd1na2vs0mg"},{"bike_id":"4989235e-f121-4663-8b50-6a6c2a209338","system_id":"levelo_inurba_marseille","lat":43.28938,"lon":5.36395,"is_reserved":false,"is_disabled":false,"rental_uris":{"android":"levelo://app?vid=4989235e-f121-4663-8b50-6a6c2a209338","ios":"levelo://app?vid=4989235e-f121-4663-8b50-6a6c2a209338"},"vehicle_type_id":"4","last_reported":1726376953,"current_range_meters":37600,"station_id":"ce4bhc92rcd13ifvqetg","pricing_plan_id":"cebpf4jnsgd1na2vs0mg"},{"bike_id":"bf2621fd-1f9a-44dd-87a8-8270a61cd875","system_id":"levelo_inurba_marseille","lat":43.30436,"lon":5.38881,"is_reserved":false,"is_disabled":false,"rental_uris":{"android":"levelo://app?vid=bf2621fd-1f9a-44dd-87a8-8270a61cd875","ios":"levelo://app?vid=bf2621fd-1f9a-44dd-87a8-8270a61cd875"},"vehicle_type_id":"4","last_reported":1726376953,"current_range_meters":6800,"station_id":"ce4bgk12rcd13ifvqbi0","pricing_plan_id":"cebpf4jnsgd1na2vs0mg"},{"bike_id":"7f7c7a3b-5c3a-49f3-b3f2-119b69922886","system_id":"levelo_inurba_marseille","lat":43.27941,"lon":5.41019,"is_reserved":false,"is_disabled":false,"rental_uris":{"android":"levelo://app?vid=7f7c7a3b-5c3a-49f3-b3f2-119b69922886","ios":"levelo://app?vid=7f7c7a3b-5c3a-49f3-b3f2-119b69922886"},"vehicle_type_id":"4","last_reported":1726376953,"current_range_meters":8400,"station_id":"ce4bhnp2rcd13ifvqh0g","pricing_plan_id":"cebpf4jnsgd1na2vs0mg"},{"bike_id":"7dc85e2c-d5b9-4cc9-8f5e-81a4ef97f919","system_id":"levelo_inurba_marseille","lat":43.31071,"lon":5.38353,"is_reserved":false,"is_disabled":false,"rental_uris":{"android":"levelo://app?vid=7dc85e2c-d5b9-4cc9-8f5e-81a4ef97f919","ios":"levelo://app?vid=7dc85e2c-d5b9-4cc9-8f5e-81a4ef97f919"},"vehicle_type_id":"4","last_reported":1726376953,"current_range_meters":38800,"station_id":"ce4bgv92rcd13ifvqcr0","pricing_plan_id":"cebpf4jnsgd1na2vs0mg"},{"bike_id":"ece1c1da-1c56-49d0-9e30-ae29ef104a57","system_id":"levelo_inurba_marseille","lat":43.31891,"lon":5.40728,"is_reserved":false,"is_disabled":false,"rental_uris":{"android":"levelo://app?vid=ece1c1da-1c56-49d0-9e30-ae29ef104a57","ios":"levelo://app?vid=ece1c1da-1c56-49d0-9e30-ae29ef104a57"},"vehicle_type_id":"4","last_reported":1726376953,"current_range_meters":8800,"station_id":"ce4bhq12rcd13ifvqhig","pricing_plan_id":"cebpf4jnsgd1na2vs0mg"},{"bike_id":"1a21ba56-24de-4621-b554-0c4ecad69764","system_id":"levelo_inurba_marseille","lat":43.3088,"lon":5.39652,"is_reserved":false,"is_disabled":false,"rental_uris":{"android":"levelo://app?vid=1a21ba56-24de-4621-b554-0c4ecad69764","ios":"levelo://app?vid=1a21ba56-24de-4621-b554-0c4ecad69764"},"vehicle_type_id":"4","last_reported":1726376953,"current_range_meters":38800,"station_id":"ce4bh012rcd13ifvqcv0","pricing_plan_id":"cebpf4jnsgd1na2vs0mg"},{"bike_id":"d8346437-a8a5-4c60-bf2d-f16983de1f17","system_id":"levelo_inurba_marseille","lat":43.28035,"lon":5.36938,"is_reserved":false,"is_disabled":false,"rental_uris":{"android":"levelo://app?vid=d8346437-a8a5-4c60-bf2d-f16983de1f17","ios":"levelo://app?vid=d8346437-a8a5-4c60-bf2d-f16983de1f17"},"vehicle_type_id":"4","last_reported":1726376953,"current_range_meters":34000,"station_id":"ce4bha12rcd13ifvqef0","pricing_plan_id":"cebpf4jnsgd1na2vs0mg"},{"bike_id":"2c7efd20-fbe8-42db-a717-040e5c5febe9","system_id":"levelo_inurba_marseille","lat":43.28935,"lon":5.39623,"is_reserved":false,"is_disabled":false,"rental_uris":{"android":"levelo://app?vid=2c7efd20-fbe8-42db-a717-040e5c5febe9","ios":"levelo://app?vid=2c7efd20-fbe8-42db-a717-040e5c5febe9"},"vehicle_type_id":"4","last_reported":1726376953,"current_range_meters":37600,"station_id":"ce4bh3h2rcd13ifvqdn0","pricing_plan_id":"cebpf4jnsgd1na2vs0mg"},{"bike_id":"43c28601-524c-41bd-ae04-aa369b513cc3","system_id":"levelo_inurba_marseille","lat":43.31072,"lon":5.38351,"is_reserved":false,"is_disabled":false,"rental_uris":{"android":"levelo://app?vid=43c28601-524c-41bd-ae04-aa369b513cc3","ios":"levelo://app?vid=43c28601-524c-41bd-ae04-aa369b513cc3"},"vehicle_type_id":"4","last_reported":1726376953,"current_range_meters":34800,"station_id":"ce4bgv92rcd13ifvqcr0","pricing_plan_id":"cebpf4jnsgd1na2vs0mg"},{"bike_id":"b4e37b1f-c814-4281-bb70-788a67c85fa2","system_id":"levelo_inurba_marseille","lat":43.2467,"lon":5.38159,"is_reserved":false,"is_disabled":false,"rental_uris":{"android":"levelo://app?vid=b4e37b1f-c814-4281-bb70-788a67c85fa2","ios":"levelo://app?vid=b4e37b1f-c814-4281-bb70-788a67c85fa2"},"vehicle_type_id":"4","last_reported":1726376953,"current_range_meters":9200,"station_id":"ce4bhih2rcd13ifvqfr0","pricing_plan_id":"cebpf4jnsgd1na2vs0mg"},{"bike_id":"82529a51-4778-41d3-a591-b23f59aad69b","system_id":"levelo_inurba_marseille","lat":43.330271,"lon":5.390379,"is_reserved":false,"is_disabled":false,"rental_uris":{"android":"levelo://app?vid=82529a51-4778-41d3-a591-b23f59aad69b","ios":"levelo://app?vid=82529a51-4778-41d3-a591-b23f59aad69b"},"vehicle_type_id":"4","last_reported":1726376953,"current_range_meters":4800,"station_id":"ce4bhr92rcd13ifvqhrg","pricing_plan_id":"cebpf4jnsgd1na2vs0mg"},{"bike_id":"ccc81115-c769-40cb-a420-a414e3f0cc3b","system_id":"levelo_inurba_marseille","lat":43.24398,"lon":5.37066,"is_reserved":false,"is_disabled":false,"rental_uris":{"android":"levelo://app?vid=ccc81115-c769-40cb-a420-a414e3f0cc3b","ios":"levelo://app?vid=ccc81115-c769-40cb-a420-a414e3f0cc3b"},"vehicle_type_id":"4","last_reported":1726376953,"current_range_meters":38000,"station_id":"ce4bhhh2rcd13ifvqfk0","pricing_plan_id":"cebpf4jnsgd1na2vs0mg"},{"bike_id":"79c7425f-d06b-4fba-ae99-295551647050","system_id":"levelo_inurba_marseille","lat":43.2706,"lon":5.40259,"is_reserved":false,"is_disabled":false,"rental_uris":{"android":"levelo://app?vid=79c7425f-d06b-4fba-ae99-295551647050","ios":"levelo://app?vid=79c7425f-d06b-4fba-ae99-295551647050"},"vehicle_type_id":"4","last_reported":1726376953,"current_range_meters":28800,"station_id":"ce4bhk92rcd13ifvqgc0","pricing_plan_id":"cebpf4jnsgd1na2vs0mg"},{"bike_id":"0d7ff766-7bab-46b2-9f8e-51364134239f","system_id":"levelo_inurba_marseille","lat":43.31171,"lon":5.38718,"is_reserved":false,"is_disabled":false,"rental_uris":{"android":"levelo://app?vid=0d7ff766-7bab-46b2-9f8e-51364134239f","ios":"levelo://app?vid=0d7ff766-7bab-46b2-9f8e-51364134239f"},"vehicle_type_id":"4","last_reported":1726376953,"current_range_meters":39200,"station_id":"ce4bgv12rcd13ifvqcp0","pricing_plan_id":"cebpf4jnsgd1na2vs0mg"},{"bike_id":"364290a4-076b-4d63-adcf-27249cc77e92","system_id":"levelo_inurba_marseille","lat":43.28726,"lon":5.36081,"is_reserved":false,"is_disabled":false,"rental_uris":{"android":"levelo://app?vid=364290a4-076b-4d63-adcf-27249cc77e92","ios":"levelo://app?vid=364290a4-076b-4d63-adcf-27249cc77e92"},"vehicle_type_id":"4","last_reported":1726376953,"current_range_meters":38800,"station_id":"cki0cbj6b192h4jlfktg","pricing_plan_id":"cebpf4jnsgd1na2vs0mg"},{"bike_id":"e2fb27c8-13d5-4471-8eb1-9c4bcc5e03bb","system_id":"levelo_inurba_marseille","lat":43.24997,"lon":5.38924,"is_reserved":false,"is_disabled":false,"rental_uris":{"android":"levelo://app?vid=e2fb27c8-13d5-4471-8eb1-9c4bcc5e03bb","ios":"levelo://app?vid=e2fb27c8-13d5-4471-8eb1-9c4bcc5e03bb"},"vehicle_type_id":"4","last_reported":1726376953,"current_range_meters":37600,"station_id":"ce4bhgp2rcd13ifvqfd0","pricing_plan_id":"cebpf4jnsgd1na2vs0mg"},{"bike_id":"ed4c6a00-f5a5-4c0e-8e34-b6c5a6277526","system_id":"levelo_inurba_marseille","lat":43.25868,"lon":5.39897,"is_reserved":false,"is_disabled":false,"rental_uris":{"android":"levelo://app?vid=ed4c6a00-f5a5-4c0e-8e34-b6c5a6277526","ios":"levelo://app?vid=ed4c6a00-f5a5-4c0e-8e34-b6c5a6277526"},"vehicle_type_id":"4","last_reported":1726376953,"current_range_meters":7200,"station_id":"ce4bhl92rcd13ifvqghg","pricing_plan_id":"cebpf4jnsgd1na2vs0mg"},{"bike_id":"0ca03ed3-5511-48ce-886c-521e33133c4a","system_id":"levelo_inurba_marseille","lat":43.28942,"lon":5.36629,"is_reserved":false,"is_disabled":false,"rental_uris":{"android":"levelo://app?vid=0ca03ed3-5511-48ce-886c-521e33133c4a","ios":"levelo://app?vid=0ca03ed3-5511-48ce-886c-521e33133c4a"},"vehicle_type_id":"4","last_reported":1726376953,"current_range_meters":38800,"station_id":"ce4bhap2rcd13ifvqek0","pricing_plan_id":"cebpf4jnsgd1na2vs0mg"},{"bike_id":"c8e24e00-2891-42da-a3ed-ad230737d574","system_id":"levelo_inurba_marseille","lat":43.30249,"lon":5.400697,"is_reserved":false,"is_disabled":false,"rental_uris":{"android":"levelo://app?vid=c8e24e00-2891-42da-a3ed-ad230737d574","ios":"levelo://app?vid=c8e24e00-2891-42da-a3ed-ad230737d574"},"vehicle_type_id":"4","last_reported":1726376953,"current_range_meters":9200,"station_id":"ce4bgvh2rcd13ifvqcs0","pricing_plan_id":"cebpf4jnsgd1na2vs0mg"},{"bike_id":"3b6bbdfc-082e-4703-816b-0c2069e3e8ff","system_id":"levelo_inurba_marseille","lat":43.27674,"lon":5.38932,"is_reserved":false,"is_disabled":false,"rental_uris":{"android":"levelo://app?vid=3b6bbdfc-082e-4703-816b-0c2069e3e8ff","ios":"levelo://app?vid=3b6bbdfc-082e-4703-816b-0c2069e3e8ff"},"vehicle_type_id":"4","last_reported":1726376953,"current_range_meters":37600,"station_id":"ce4bhi12rcd13ifvqfo0","pricing_plan_id":"cebpf4jnsgd1na2vs0mg"},{"bike_id":"d725d647-419f-4111-85f3-247c95251475","system_id":"levelo_inurba_marseille","lat":43.25721,"lon":5.41113,"is_reserved":false,"is_disabled":false,"rental_uris":{"android":"levelo://app?vid=d725d647-419f-4111-85f3-247c95251475","ios":"levelo://app?vid=d725d647-419f-4111-85f3-247c95251475"},"vehicle_type_id":"4","last_reported":1726376953,"current_range_meters":26000,"station_id":"ce4bhkp2rcd13ifvqgd0","pricing_plan_id":"cebpf4jnsgd1na2vs0mg"},{"bike_id":"b7c93f54-8beb-4c5d-9d99-476678910284","system_id":"levelo_inurba_marseille","lat":43.29197,"lon":5.39319,"is_reserved":false,"is_disabled":false,"rental_uris":{"android":"levelo://app?vid=b7c93f54-8beb-4c5d-9d99-476678910284","ios":"levelo://app?vid=b7c93f54-8beb-4c5d-9d99-476678910284"},"vehicle_type_id":"4","last_reported":1726376953,"current_range_meters":39200,"station_id":"ce4bh192rcd13ifvqdd0","pricing_plan_id":"cebpf4jnsgd1na2vs0mg"},{"bike_id":"fd95ebd7-0b0d-43f3-a957-c61d6cbf4ac3","system_id":"levelo_inurba_marseille","lat":43.29005,"lon":5.35607,"is_reserved":false,"is_disabled":false,"rental_uris":{"android":"levelo://app?vid=fd95ebd7-0b0d-43f3-a957-c61d6cbf4ac3","ios":"levelo://app?vid=fd95ebd7-0b0d-43f3-a957-c61d6cbf4ac3"},"vehicle_type_id":"4","last_reported":1726376953,"current_range_meters":37600,"station_id":"ce4bhb92rcd13ifvqen0","pricing_plan_id":"cebpf4jnsgd1na2vs0mg"},{"bike_id":"6d2f1fdf-ef85-4dbc-b421-2602e9d32ca8","system_id":"levelo_inurba_marseille","lat":43.25933,"lon":5.40913,"is_reserved":false,"is_disabled":false,"rental_uris":{"android":"levelo://app?vid=6d2f1fdf-ef85-4dbc-b421-2602e9d32ca8","ios":"levelo://app?vid=6d2f1fdf-ef85-4dbc-b421-2602e9d32ca8"},"vehicle_type_id":"4","last_reported":1726376953,"current_range_meters":22800,"station_id":"ce4bhm92rcd13ifvqglg","pricing_plan_id":"cebpf4jnsgd1na2vs0mg"},{"bike_id":"56ba0204-9df7-4bff-8440-4cdf01396ad7","system_id":"levelo_inurba_marseille","lat":43.30882,"lon":5.39649,"is_reserved":false,"is_disabled":false,"rental_uris":{"android":"levelo://app?vid=56ba0204-9df7-4bff-8440-4cdf01396ad7","ios":"levelo://app?vid=56ba0204-9df7-4bff-8440-4cdf01396ad7"},"vehicle_type_id":"4","last_reported":1726376953,"current_range_meters":16000,"station_id":"ce4bh012rcd13ifvqcv0","pricing_plan_id":"cebpf4jnsgd1na2vs0mg"},{"bike_id":"d09aedb3-0212-456b-a0d7-0a019f75665d","system_id":"levelo_inurba_marseille","lat":43.23152,"lon":5.43708,"is_reserved":false,"is_disabled":false,"rental_uris":{"android":"levelo://app?vid=d09aedb3-0212-456b-a0d7-0a019f75665d","ios":"levelo://app?vid=d09aedb3-0212-456b-a0d7-0a019f75665d"},"vehicle_type_id":"4","last_reported":1726376953,"current_range_meters":38400,"station_id":"ce4bhmp2rcd13ifvqgog","pricing_plan_id":"cebpf4jnsgd1na2vs0mg"},{"bike_id":"8f6ba174-9771-4e49-9892-61a5a48a1b3f","system_id":"levelo_inurba_marseille","lat":43.31719,"lon":5.42403,"is_reserved":false,"is_disabled":false,"rental_uris":{"android":"levelo://app?vid=8f6ba174-9771-4e49-9892-61a5a48a1b3f","ios":"levelo://app?vid=8f6ba174-9771-4e49-9892-61a5a48a1b3f"},"vehicle_type_id":"4","last_reported":1726376953,"current_range_meters":10800,"station_id":"ce4bhp92rcd13ifvqhbg","pricing_plan_id":"cebpf4jnsgd1na2vs0mg"},{"bike_id":"81c81fb4-025f-48a4-b8df-9ad87869c16e","system_id":"levelo_inurba_marseille","lat":43.26942,"lon":5.40245,"is_reserved":false,"is_disabled":false,"rental_uris":{"android":"levelo://app?vid=81c81fb4-025f-48a4-b8df-9ad87869c16e","ios":"levelo://app?vid=81c81fb4-025f-48a4-b8df-9ad87869c16e"},"vehicle_type_id":"4","last_reported":1726376953,"current_range_meters":38800,"station_id":"cjm6bp8fraef2m0cb0m0","pricing_plan_id":"cebpf4jnsgd1na2vs0mg"},{"bike_id":"b0c0b401-1a02-4c6e-b083-412d97778540","system_id":"levelo_inurba_marseille","lat":43.2738,"lon":5.36256,"is_reserved":false,"is_disabled":false,"rental_uris":{"android":"levelo://app?vid=b0c0b401-1a02-4c6e-b083-412d97778540","ios":"levelo://app?vid=b0c0b401-1a02-4c6e-b083-412d97778540"},"vehicle_type_id":"4","last_reported":1726376953,"current_range_meters":19200,"station_id":"ce4bhbh2rcd13ifvqeo0","pricing_plan_id":"cebpf4jnsgd1na2vs0mg"},{"bike_id":"c253d617-71db-4928-8c3d-42dc290bce04","system_id":"levelo_inurba_marseille","lat":43.27941,"lon":5.41046,"is_reserved":false,"is_disabled":false,"rental_uris":{"android":"levelo://app?vid=c253d617-71db-4928-8c3d-42dc290bce04","ios":"levelo://app?vid=c253d617-71db-4928-8c3d-42dc290bce04"},"vehicle_type_id":"4","last_reported":1726376953,"current_range_meters":37600,"station_id":"ce4bhnp2rcd13ifvqh0g","pricing_plan_id":"cebpf4jnsgd1na2vs0mg"},{"bike_id":"7de09802-9ef1-4df6-8e4e-9876b427432b","system_id":"levelo_inurba_marseille","lat":43.28403,"lon":5.37482,"is_reserved":false,"is_disabled":false,"rental_uris":{"android":"levelo://app?vid=7de09802-9ef1-4df6-8e4e-9876b427432b","ios":"levelo://app?vid=7de09802-9ef1-4df6-8e4e-9876b427432b"},"vehicle_type_id":"4","last_reported":1726376953,"current_range_meters":30000,"station_id":"ce4bh412rcd13ifvqds0","pricing_plan_id":"cebpf4jnsgd1na2vs0mg"},{"bike_id":"43412657-8f93-44d7-90fb-da7639962547","system_id":"levelo_inurba_marseille","lat":43.33723,"lon":5.39183,"is_reserved":false,"is_disabled":false,"rental_uris":{"android":"levelo://app?vid=43412657-8f93-44d7-90fb-da7639962547","ios":"levelo://app?vid=43412657-8f93-44d7-90fb-da7639962547"},"vehicle_type_id":"4","last_reported":1726376953,"current_range_meters":23200,"station_id":"ce4bhr92rcd13ifvqhsg","pricing_plan_id":"cebpf4jnsgd1na2vs0mg"},{"bike_id":"9c45b430-37cb-4496-b5f4-aaba63906ca9","system_id":"levelo_inurba_marseille","lat":43.2815,"lon":5.4265,"is_reserved":false,"is_disabled":false,"rental_uris":{"android":"levelo://app?vid=9c45b430-37cb-4496-b5f4-aaba63906ca9","ios":"levelo://app?vid=9c45b430-37cb-4496-b5f4-aaba63906ca9"},"vehicle_type_id":"4","last_reported":1726376953,"current_range_meters":16000,"station_id":"ce4bhnh2rcd13ifvqgug","pricing_plan_id":"cebpf4jnsgd1na2vs0mg"},{"bike_id":"e0fa6c7f-c8b8-4a59-ae7d-120eeae56e59","system_id":"levelo_inurba_marseille","lat":43.28709,"lon":5.39975,"is_reserved":false,"is_disabled":false,"rental_uris":{"android":"levelo://app?vid=e0fa6c7f-c8b8-4a59-ae7d-120eeae56e59","ios":"levelo://app?vid=e0fa6c7f-c8b8-4a59-ae7d-120eeae56e59"},"vehicle_type_id":"4","last_reported":1726376953,"current_range_meters":32400,"station_id":"ce4bho92rcd13ifvqh3g","pricing_plan_id":"cebpf4jnsgd1na2vs0mg"},{"bike_id":"665ce36c-fc94-4a55-b253-ada9b075d2ad","system_id":"levelo_inurba_marseille","lat":43.28476,"lon":5.38407,"is_reserved":false,"is_disabled":false,"rental_uris":{"android":"levelo://app?vid=665ce36c-fc94-4a55-b253-ada9b075d2ad","ios":"levelo://app?vid=665ce36c-fc94-4a55-b253-ada9b075d2ad"},"vehicle_type_id":"4","last_reported":1726376953,"current_range_meters":24000,"station_id":"ce4bh512rcd13ifvqe3g","pricing_plan_id":"cebpf4jnsgd1na2vs0mg"},{"bike_id":"7bcf5b96-7f9e-487c-9740-9b3e9f14ca10","system_id":"levelo_inurba_marseille","lat":43.28455,"lon":5.35888,"is_reserved":false,"is_disabled":false,"rental_uris":{"android":"levelo://app?vid=7bcf5b96-7f9e-487c-9740-9b3e9f14ca10","ios":"levelo://app?vid=7bcf5b96-7f9e-487c-9740-9b3e9f14ca10"},"vehicle_type_id":"4","last_reported":1726376953,"current_range_meters":32000,"station_id":"ce4bhah2rcd13ifvqei0","pricing_plan_id":"cebpf4jnsgd1na2vs0mg"},{"bike_id":"4e8fe8aa-a9a1-4877-b582-bf4fe2f33f39","system_id":"levelo_inurba_marseille","lat":43.28691,"lon":5.39978,"is_reserved":false,"is_disabled":false,"rental_uris":{"android":"levelo://app?vid=4e8fe8aa-a9a1-4877-b582-bf4fe2f33f39","ios":"levelo://app?vid=4e8fe8aa-a9a1-4877-b582-bf4fe2f33f39"},"vehicle_type_id":"4","last_reported":1726376953,"current_range_meters":34000,"station_id":"ce4bho92rcd13ifvqh3g","pricing_plan_id":"cebpf4jnsgd1na2vs0mg"},{"bike_id":"7453590b-8ee1-4fd5-8b4d-63edf6fd7b2c","system_id":"levelo_inurba_marseille","lat":43.32044,"lon":5.41548,"is_reserved":false,"is_disabled":false,"rental_uris":{"android":"levelo://app?vid=7453590b-8ee1-4fd5-8b4d-63edf6fd7b2c","ios":"levelo://app?vid=7453590b-8ee1-4fd5-8b4d-63edf6fd7b2c"},"vehicle_type_id":"4","last_reported":1726376953,"current_range_meters":23200,"station_id":"ce4bhq92rcd13ifvqhkg","pricing_plan_id":"cebpf4jnsgd1na2vs0mg"},{"bike_id":"35e46e1e-3cad-4d90-bc94-c0cc6e26a963","system_id":"levelo_inurba_marseille","lat":43.31362,"lon":5.36695,"is_reserved":false,"is_disabled":false,"rental_uris":{"android":"levelo://app?vid=35e46e1e-3cad-4d90-bc94-c0cc6e26a963","ios":"levelo://app?vid=35e46e1e-3cad-4d90-bc94-c0cc6e26a963"},"vehicle_type_id":"4","last_reported":1726376953,"current_range_meters":12000,"station_id":"ce4bgr92rcd13ifvqc6g","pricing_plan_id":"cebpf4jnsgd1na2vs0mg"},