{"last_updated":1751274830,"ttl":60,"version":"2.2","data":{"bikes":[{"bike_id":"3da29fb8-fc97-44c6-b9ac-31dd456b2fd4","system_id":"levelo_inurba_marseille","lat":43.33771,"lon":5.37424,"is_reserved":false,"is_disabled":true,"rental_uris":{"android":"levelo://app?vid=3da29fb8-fc97-44c6-b9ac-31dd456b2fd4","ios":"levelo://app?vid=3da29fb8-fc97-44c6-b9ac-31dd456b2fd4"},"vehicle_type_id":"4","last_reported":1751274830,"current_range_meters":0,"station_id":"","pricing_plan_id":"cebpf4jnsgd1na2vs0mg"},{"bike_id":"01861ad8-a8d7-4be6-816e-651927c87584","system_id":"levelo_inurba_marseille","lat":43.33751,"lon":5.37456,"is_reserved":false,"is_disabled":true,"rental_uris":{"android":"levelo://app?vid=01861ad8-a8d7-4be6-816e-651927c87584","ios":"levelo://app?vid=01861ad8-a8d7-4be6-816e-651927c87584"},"vehicle_type_id":"4","last_reported":1751274830,"current_range_meters":0,"station_id":"","pricing_plan_id":"cebpf4jnsgd1na2vs0mg"},{"bike_id":"44e59b98-7989-4487-9d9a-0e5ecd38873e","system_id":"levelo_inurba_marseille","lat":43.28378,"lon":5.39545,"is_reserved":false,"is_disabled":true,"rental_uris":{"android":"levelo://app?vid=44e59b98-7989-4487-9d9a-0e5ecd38873e","ios":"levelo://app?vid=44e59b98-7989-4487-9d9a-0e5ecd38873e"},"vehicle_type_id":"4","last_reported":1751274830,"current_range_meters":0,"station_id":"","pricing_plan_id":"cebpf4jnsgd1na2vs0mg"},{"bike_id":"f1483ff6-ae8a-4286-a635-7d40887e3e92","system_id":"levelo_inurba_marseille","lat":43.2695,"lon":5.36643,"is_reserved":false,"is_disabled":true,"rental_uris":{"android":"levelo://app?vid=f1483ff6-ae8a-4286-a635-7d40887e3e92","ios":"levelo://app?vid=f1483ff6-ae8a-4286-a635-7d40887e3e92"},"vehicle_type_id":"4","last_reported":1751274830,"current_range_meters":0,"station_id":"","pricing_plan_id":"cebpf4jnsgd1na2vs0mg"},{"bike_id":"6000c399-f13b-4295-bb92-4850a98945bc","system_id":"levelo_inurba_marseille","lat":43.243908,"lon":5.40102,"is_reserved":false,"is_disabled":true,"rental_uris":{"android":"levelo://app?vid=6000c399-f13b-4295-bb92-4850a98945bc","ios":"levelo://app?vid=6000c399-f13b-4295-bb92-4850a98945bc"},"vehicle_type_id":"4","last_reported":1751274830,"current_range_meters":0,"station_id":"","pricing_plan_id":"cebpf4jnsgd1na2vs0mg"},{"bike_id":"1d8d89fb-40f3-4ada-adb8-5ef9576ae1db","system_id":"levelo_inurba_marseille","lat":43.29624,"lon":5.37727,"is_reserved":false,"is_disabled":true,"rental_uris":{"android":"levelo://app?vid=1d8d89fb-40f3-4ada-adb8-5ef9576ae1db","ios":"levelo://app?vid=1d8d89fb-40f3-4ada-adb8-5ef9576ae1db"},"vehicle_type_id":"4","last_reported":1751274830,"current_range_meters":0,"station_id":"ce4bgi92rcd13ifvqb90","pricing_plan_id":"cebpf4jnsgd1na2vs0mg"},{"bike_id":"3dacfa1b-d69a-47da-85c8-a889eba89ea5","system_id":"levelo_inurba_marseille","lat":43.27613,"lon":5.36111,"is_reserved":false,"is_disabled":true,"rental_uris":{"android":"levelo://app?vid=3dacfa1b-d69a-47da-85c8-a889eba89ea5","ios":"levelo://app?vid=3dacfa1b-d69a-47da-85c8-a889eba89ea5"},"vehicle_type_id":"4","last_reported":1751274830,"current_range_meters":0,"station_id":"ce4bgj92rcd13ifvqbe0","pricing_plan_id":"cebpf4jnsgd1na2vs0mg"},{"bike_id":"0ab05822-fe15-4e6b-9c1b-4dcee29f1b8d","system_id":"levelo_inurba_marseille","lat":43.28429,"lon":5.34996,"is_reserved":false,"is_disabled":true,"rental_uris":{"android":"levelo://app?vid=0ab05822-fe15-4e6b-9c1b-4dcee29f1b8d","ios":"levelo://app?vid=0ab05822-fe15-4e6b-9c1b-4dcee29f1b8d"},"vehicle_type_id":"4","last_reported":1751274830,"current_range_meters":0,"station_id":"ce4bhbh2rcd13ifvqepg","pricing_plan_id":"cebpf4jnsgd1na2vs0mg"},{"bike_id":"c86138f4-ede4-48a8-ac82-70fc4befb32d","system_id":"levelo_inurba_marseille","lat":43.28593,"lon":5.35073,"is_reserved":false,"is_disabled":true,"rental_uris":{"android":"levelo://app?vid=c86138f4-ede4-48a8-ac82-70fc4befb32d","ios":"levelo://app?vid=c86138f4-ede4-48a8-ac82-70fc4befb32d"},"vehicle_type_id":"4","last_reported":1751274830,"current_range_meters":0,"station_id":"ce4bhch2rcd13ifvqeug","pricing_plan_id":"cebpf4jnsgd1na2vs0mg"},{"bike_id":"9bdb44a0-8587-4433-a529-b4e1f4dc7e3f","system_id":"levelo_inurba_marseille","lat":43.22493,"lon":5.34789,"is_reserved":false,"is_disabled":true,"rental_uris":{"android":"levelo://app?vid=9bdb44a0-8587-4433-a529-b4e1f4dc7e3f","ios":"levelo://app?vid=9bdb44a0-8587-4433-a529-b4e1f4dc7e3f"},"vehicle_type_id":"4","last_reported":1751274830,"current_range_meters":0,"station_id":"st_cvj5dfep6f1abm77gieg","pricing_plan_id":"cebpf4jnsgd1na2vs0mg"},{"bike_id":"7e361f83-dd69-4fee-b865-a510c65d2fd3","system_id":"levelo_inurba_marseille","lat":43.21752,"lon":5.34594,"is_reserved":false,"is_disabled":true,"rental_uris":{"android":"levelo://app?vid=7e361f83-dd69-4fee-b865-a510c65d2fd3","ios":"levelo://app?vid=7e361f83-dd69-4fee-b865-a510c65d2fd3"},"vehicle_type_id":"4","last_reported":1751274830,"current_range_meters":0,"station_id":"st_cvj6r9ubvosntc0bgbag","pricing_plan_id":"cebpf4jnsgd1na2vs0mg"},{"bike_id":"d9749b46-f644-4a73-843c-3b740d124077","system_id":"levelo_inurba_marseille","lat":43.3094,"lon":5.39027,"is_reserved":false,"is_disabled":true,"rental_uris":{"android":"levelo://app?vid=d9749b46-f644-4a73-843c-3b740d124077","ios":"levelo://app?vid=d9749b46-f644-4a73-843c-3b740d124077"},"vehicle_type_id":"4","last_reported":1751274830,"current_range_meters":400,"station_id":"ce4bgup2rcd13ifvqco0","pricing_plan_id":"cebpf4jnsgd1na2vs0mg"},{"bike_id":"caad4db5-e70c-4dbc-916e-a76eb9ea4140","system_id":"levelo_inurba_marseille","lat":43.28478,"lon":5.38405,"is_reserved":false,"is_disabled":true,"rental_uris":{"android":"levelo://app?vid=caad4db5-e70c-4dbc-916e-a76eb9ea4140","ios":"levelo://app?vid=caad4db5-e70c-4dbc-916e-a76eb9ea4140"},"vehicle_type_id":"4","last_reported":1751274830,"current_range_meters":800,"station_id":"ce4bh512rcd13ifvqe3g","pricing_plan_id":"cebpf4jnsgd1na2vs0mg"},{"bike_id":"29e697ca-26a6-4412-8107-f2c74b259edc","system_id":"levelo_inurba_marseille","lat":43.241921,"lon":5.383794,"is_reserved":false,"is_disabled":true,"rental_uris":{"android":"levelo://app?vid=29e697ca-26a6-4412-8107-f2c74b259edc","ios":"levelo://app?vid=29e697ca-26a6-4412-8107-f2c74b259edc"},"vehicle_type_id":"4","last_reported":1751274830,"current_range_meters":1200,"station_id":"","pricing_plan_id":"cebpf4jnsgd1na2vs0mg"},{"bike_id":"e951d2a2-2a1d-4030-bee6-afbfe2838ed7","system_id":"levelo_inurba_marseille","lat":43.231943,"lon":5.355433,"is_reserved":false,"is_disabled":true,"rental_uris":{"android":"levelo://app?vid=e951d2a2-2a1d-4030-bee6-afbfe2838ed7","ios":"levelo://app?vid=e951d2a2-2a1d-4030-bee6-afbfe2838ed7"},"vehicle_type_id":"4","last_reported":1751274830,"current_range_meters":1200,"station_id":"ce4bhu92rcd13ifvqi70","pricing_plan_id":"cebpf4jnsgd1na2vs0mg"},{"bike_id":"c4a0137e-a333-4bf2-be2c-dc9d4d53e9f7","system_id":"levelo_inurba_marseille","lat":43.21189,"lon":5.35068,"is_reserved":false,"is_disabled":true,"rental_uris":{"android":"levelo://app?vid=c4a0137e-a333-4bf2-be2c-dc9d4d53e9f7","ios":"levelo://app?vid=c4a0137e-a333-4bf2-be2c-dc9d4d53e9f7"},"vehicle_type_id":"4","last_reported":1751274830,"current_range_meters":1200,"station_id":"st_cvj6sg6p6f1abm77japg","pricing_plan_id":"cebpf4jnsgd1na2vs0mg"},{"bike_id":"85eb80f1-fdf8-4910-9983-416402de22ff","system_id":"levelo_inurba_marseille","lat":43.276973,"lon":5.415424,"is_reserved":false,"is_disabled":true,"rental_uris":{"android":"levelo://app?vid=85eb80f1-fdf8-4910-9983-416402de22ff","ios":"levelo://app?vid=85eb80f1-fdf8-4910-9983-416402de22ff"},"vehicle_type_id":"4","last_reported":1751274830,"current_range_meters":1600,"station_id":"","pricing_plan_id":"cebpf4jnsgd1na2vs0mg"},{"bike_id":"c039ea80-e24b-48c0-bc0d-c7b719178a71","system_id":"levelo_inurba_marseille","lat":43.29527,"lon":5.38546,"is_reserved":false,"is_disabled":true,"rental_uris":{"android":"levelo://app?vid=c039ea80-e24b-48c0-bc0d-c7b719178a71","ios":"levelo://app?vid=c039ea80-e24b-48c0-bc0d-c7b719178a71"},"vehicle_type_id":"4","last_reported":1751274830,"current_range_meters":1600,"station_id":"ce4bgih2rcd13ifvqba0","pricing_plan_id":"cebpf4jnsgd1na2vs0mg"},{"bike_id":"f41a31a1-4dfe-42df-899c-fc09c0daa17d","system_id":"levelo_inurba_marseille","lat":43.30932,"lon":5.40141,"is_reserved":false,"is_disabled":true,"rental_uris":{"android":"levelo://app?vid=f41a31a1-4dfe-42df-899c-fc09c0daa17d","ios":"levelo://app?vid=f41a31a1-4dfe-42df-899c-fc09c0daa17d"},"vehicle_type_id":"4","last_reported":1751274830,"current_range_meters":1600,"station_id":"ce4bgvp2rcd13ifvqct0","pricing_plan_id":"cebpf4jnsgd1na2vs0mg"},{"bike_id":"620a9e2b-c75c-4360-838a-9110bd67b7db","system_id":"levelo_inurba_marseille","lat":43.28266,"lon":5.35055,"is_reserved":false,"is_disabled":true,"rental_uris":{"android":"levelo://app?vid=620a9e2b-c75c-4360-838a-9110bd67b7db","ios":"levelo://app?vid=620a9e2b-c75c-4360-838a-9110bd67b7db"},"vehicle_type_id":"4","last_reported":1751274830,"current_range_meters":1600,"station_id":"ce4bhbp2rcd13ifvqerg","pricing_plan_id":"cebpf4jnsgd1na2vs0mg"},{"bike_id":"f5720744-4215-46ed-a616-6d5708945654","system_id":"levelo_inurba_marseille","lat":43.2572,"lon":5.41113,"is_reserved":false,"is_disabled":true,"rental_uris":{"android":"levelo://app?vid=f5720744-4215-46ed-a616-6d5708945654","ios":"levelo://app?vid=f5720744-4215-46ed-a616-6d5708945654"},"vehicle_type_id":"4","last_reported":1751274830,"current_range_meters":1600,"station_id":"ce4bhkp2rcd13ifvqgd0","pricing_plan_id":"cebpf4jnsgd1na2vs0mg"},{"bike_id":"4bb4a733-a9bd-4772-9320-a8c7885ff73b","system_id":"levelo_inurba_marseille","lat":43.27765,"lon":5.35561,"is_reserved":false,"is_disabled":true,"rental_uris":{"android":"levelo://app?vid=4bb4a733-a9bd-4772-9320-a8c7885ff73b","ios":"levelo://app?vid=4bb4a733-a9bd-4772-9320-a8c7885ff73b"},"vehicle_type_id":"4","last_reported":1751274830,"current_range_meters":2000,"station_id":"","pricing_plan_id":"cebpf4jnsgd1na2vs0mg"},{"bike_id":"934e09cd-6495-4d50-b720-cc7adefbbf5f","system_id":"levelo_inurba_marseille","lat":43.31359,"lon":5.38493,"is_reserved":false,"is_disabled":true,"rental_uris":{"android":"levelo://app?vid=934e09cd-6495-4d50-b720-cc7adefbbf5f","ios":"levelo://app?vid=934e09cd-6495-4d50-b720-cc7adefbbf5f"},"vehicle_type_id":"4","last_reported":1751274830,"current_range_meters":2000,"station_id":"ce4bgt92rcd13ifvqcf0","pricing_plan_id":"cebpf4jnsgd1na2vs0mg"},{"bike_id":"e660b1b0-8ece-479d-a4ca-0100ec937934","system_id":"levelo_inurba_marseille","lat":43.25004,"lon":5.38927,"is_reserved":false,"is_disabled":true,"rental_uris":{"android":"levelo://app?vid=e660b1b0-8ece-479d-a4ca-0100ec937934","ios":"levelo://app?vid=e660b1b0-8ece-479d-a4ca-0100ec937934"},"vehicle_type_id":"4","last_reported":1751274830,"current_range_meters":2000,"station_id":"ce4bhgp2rcd13ifvqfd0","pricing_plan_id":"cebpf4jnsgd1na2vs0mg"},{"bike_id":"ddb07b6a-230f-4bb2-a07b-8d06bcbb8c16","system_id":"levelo_inurba_marseille","lat":43.24551,"lon":5.39513,"is_reserved":false,"is_disabled":false,"rental_uris":{"android":"levelo://app?vid=ddb07b6a-230f-4bb2-a07b-8d06bcbb8c16","ios":"levelo://app?vid=ddb07b6a-230f-4bb2-a07b-8d06bcbb8c16"},"vehicle_type_id":"4","last_reported":1751274830,"current_range_meters":2800,"station_id":"ce4bhlp2rcd13ifvqgjg","pricing_plan_id":"cebpf4jnsgd1na2vs0mg"},{"bike_id":"9e163c86-36ef-4269-bcd8-6c9e6f4075a0","system_id":"levelo_inurba_marseille","lat":43.30291,"lon":5.3714,"is_reserved":false,"is_disabled":false,"rental_uris":{"android":"levelo://app?vid=9e163c86-36ef-4269-bcd8-6c9e6f4075a0","ios":"levelo://app?vid=9e163c86-36ef-4269-bcd8-6c9e6f4075a0"},"vehicle_type_id":"4","last_reported":1751274830,"current_range_meters":3600,"station_id":"","pricing_plan_id":"cebpf4jnsgd1na2vs0mg"},{"bike_id":"bdc3a413-3175-4c95-a32e-03261377b4c4","system_id":"levelo_inurba_marseille","lat":43.29274,"lon":5.38449,"is_reserved":false,"is_disabled":false,"rental_uris":{"android":"levelo://app?vid=bdc3a413-3175-4c95-a32e-03261377b4c4","ios":"levelo://app?vid=bdc3a413-3175-4c95-a32e-03261377b4c4"},"vehicle_type_id":"4","last_reported":1751274830,"current_range_meters":3600,"station_id":"ce4bh692rcd13ifvqea0","pricing_plan_id":"cebpf4jnsgd1na2vs0mg"},{"bike_id":"b3ab1c93-101c-4feb-9cba-a6b800504638","system_id":"levelo_inurba_marseille","lat":43.270546,"lon":5.402629,"is_reserved":false,"is_disabled":false,"rental_uris":{"android":"levelo://app?vid=b3ab1c93-101c-4feb-9cba-a6b800504638","ios":"levelo://app?vid=b3ab1c93-101c-4feb-9cba-a6b800504638"},"vehicle_type_id":"4","last_reported":1751274830,"current_range_meters":3600,"station_id":"ce4bhk92rcd13ifvqgc0","pricing_plan_id":"cebpf4jnsgd1na2vs0mg"},{"bike_id":"c9097ea6-b8a8-4d27-a43b-0fc88579bde1","system_id":"levelo_inurba_marseille","lat":43.211922,"lon":5.350832,"is_reserved":false,"is_disabled":false,"rental_uris":{"android":"levelo://app?vid=c9097ea6-b8a8-4d27-a43b-0fc88579bde1","ios":"levelo://app?vid=c9097ea6-b8a8-4d27-a43b-0fc88579bde1"},"vehicle_type_id":"4","last_reported":1751274830,"current_range_meters":3600,"station_id":"st_cvj6sg6p6f1abm77japg","pricing_plan_id":"cebpf4jnsgd1na2vs0mg"},{"bike_id":"83d5f4bf-7d25-4c53-9d8a-9b1ba9dcf618","system_id":"levelo_inurba_marseille","lat":43.2603,"lon":5.37546,"is_reserved":false,"is_disabled":false,"rental_uris":{"android":"levelo://app?vid=83d5f4bf-7d25-4c53-9d8a-9b1ba9dcf618","ios":"levelo://app?vid=83d5f4bf-7d25-4c53-9d8a-9b1ba9dcf618"},"vehicle_type_id":"4","last_reported":1751274830,"current_range_meters":4000,"station_id":"ce4bhgh2rcd13ifvqfa0","pricing_plan_id":"cebpf4jnsgd1na2vs0mg"},{"bike_id":"e449aa29-cae1-4432-9aec-dedc13360b20","system_id":"levelo_inurba_marseille","lat":43.212,"lon":5.35076,"is_reserved":false,"is_disabled":false,"rental_uris":{"android":"levelo://app?vid=e449aa29-cae1-4432-9aec-dedc13360b20","ios":"levelo://app?vid=e449aa29-cae1-4432-9aec-dedc13360b20"},"vehicle_type_id":"4","last_reported":1751274830,"current_range_meters":4000,"station_id":"st_cvj6sg6p6f1abm77japg","pricing_plan_id":"cebpf4jnsgd1na2vs0mg"},{"bike_id":"d5b5bc74-aaeb-40c0-b979-fb1a262527de","system_id":"levelo_inurba_marseille","lat":43.33265,"lon":5.35878,"is_reserved":false,"is_disabled":false,"rental_uris":{"android":"levelo://app?vid=d5b5bc74-aaeb-40c0-b979-fb1a262527de","ios":"levelo://app?vid=d5b5bc74-aaeb-40c0-b979-fb1a262527de"},"vehicle_type_id":"4","last_reported":1751274830,"current_range_meters":4400,"station_id":"","pricing_plan_id":"cebpf4jnsgd1na2vs0mg"},{"bike_id":"23a29269-2136-41c7-8cfc-ceefe4e74a66","system_id":"levelo_inurba_marseille","lat":43.29896,"lon":5.38214,"is_reserved":false,"is_disabled":true,"rental_uris":{"android":"levelo://app?vid=23a29269-2136-41c7-8cfc-ceefe4e74a66","ios":"levelo://app?vid=23a29269-2136-41c7-8cfc-ceefe4e74a66"},"vehicle_type_id":"4","last_reported":1751274830,"current_range_meters":4400,"station_id":"","pricing_plan_id":"cebpf4jnsgd1na2vs0mg"},{"bike_id":"495482a2-2cc5-48c4-8d67-70a1308d43b0","system_id":"levelo_inurba_marseille","lat":43.2926,"lon":5.37635,"is_reserved":false,"is_disabled":false,"rental_uris":{"android":"levelo://app?vid=495482a2-2cc5-48c4-8d67-70a1308d43b0","ios":"levelo://app?vid=495482a2-2cc5-48c4-8d67-70a1308d43b0"},"vehicle_type_id":"4","last_reported":1751274830,"current_range_meters":4400,"station_id":"ce4bgi12rcd13ifvqb80","pricing_plan_id":"cebpf4jnsgd1na2vs0mg"},{"bike_id":"cb83d859-7f01-45d2-8807-32ff93cb38e0","system_id":"levelo_inurba_marseille","lat":43.31165,"lon":5.3871,"is_reserved":false,"is_disabled":false,"rental_uris":{"android":"levelo://app?vid=cb83d859-7f01-45d2-8807-32ff93cb38e0","ios":"levelo://app?vid=cb83d859-7f01-45d2-8807-32ff93cb38e0"},"vehicle_type_id":"4","last_reported":1751274830,"current_range_meters":4400,"station_id":"ce4bgv12rcd13ifvqcp0","pricing_plan_id":"cebpf4jnsgd1na2vs0mg"},{"bike_id":"339c0298-03ca-4053-890a-ab91ba3aec18","system_id":"levelo_inurba_marseille","lat":43.288336,"lon":5.357945,"is_reserved":false,"is_disabled":false,"rental_uris":{"android":"levelo://app?vid=339c0298-03ca-4053-890a-ab91ba3aec18","ios":"levelo://app?vid=339c0298-03ca-4053-890a-ab91ba3aec18"},"vehicle_type_id":"4","last_reported":1751274830,"current_range_meters":4400,"station_id":"ce4bhb12rcd13ifvqem0","pricing_plan_id":"cebpf4jnsgd1na2vs0mg"},{"bike_id":"721165c1-ef6f-40cc-8d33-af3a7999864b","system_id":"levelo_inurba_marseille","lat":43.326009,"lon":5.378767,"is_reserved":false,"is_disabled":false,"rental_uris":{"android":"levelo://app?vid=721165c1-ef6f-40cc-8d33-af3a7999864b","ios":"levelo://app?vid=721165c1-ef6f-40cc-8d33-af3a7999864b"},"vehicle_type_id":"4","last_reported":1751274830,"current_range_meters":5600,"station_id":"","pricing_plan_id":"cebpf4jnsgd1na2vs0mg"},{"bike_id":"f8cde1e3-405a-4703-ae9d-e63247dcd590","system_id":"levelo_inurba_marseille","lat":43.29688,"lon":5.37274,"is_reserved":false,"is_disabled":false,"rental_uris":{"android":"levelo://app?vid=f8cde1e3-405a-4703-ae9d-e63247dcd590","ios":"levelo://app?vid=f8cde1e3-405a-4703-ae9d-e63247dcd590"},"vehicle_type_id":"4","last_reported":1751274830,"current_range_meters":5600,"station_id":"ce4bgk12rcd13ifvqbj0","pricing_plan_id":"cebpf4jnsgd1na2vs0mg"},{"bike_id":"6ee865bb-3efe-4226-8377-fe558a79fbcb","system_id":"levelo_inurba_marseille","lat":43.25496,"lon":5.3765,"is_reserved":false,"is_disabled":false,"rental_uris":{"android":"levelo://app?vid=6ee865bb-3efe-4226-8377-fe558a79fbcb","ios":"levelo://app?vid=6ee865bb-3efe-4226-8377-fe558a79fbcb"},"vehicle_type_id":"4","last_reported":1751274830,"current_range_meters":5600,"station_id":"ce4bhh12rcd13ifvqff0","pricing_plan_id":"cebpf4jnsgd1na2vs0mg"},{"bike_id":"6445cc03-f0ad-4833-bf37-aec5b859b6be","system_id":"levelo_inurba_marseille","lat":43.2635,"lon":5.40111,"is_reserved":false,"is_disabled":false,"rental_uris":{"android":"levelo://app?vid=6445cc03-f0ad-4833-bf37-aec5b859b6be","ios":"levelo://app?vid=6445cc03-f0ad-4833-bf37-aec5b859b6be"},"vehicle_type_id":"4","last_reported":1751274830,"current_range_meters":6000,"station_id":"","pricing_plan_id":"cebpf4jnsgd1na2vs0mg"},{"bike_id":"de943625-ff1a-4d9d-9715-3ea8bcac51bc","system_id":"levelo_inurba_marseille","lat":43.2732,"lon":5.39073,"is_reserved":false,"is_disabled":false,"rental_uris":{"android":"levelo://app?vid=de943625-ff1a-4d9d-9715-3ea8bcac51bc","ios":"levelo://app?vid=de943625-ff1a-4d9d-9715-3ea8bcac51bc"},"vehicle_type_id":"4","last_reported":1751274830,"current_range_meters":6000,"station_id":"ce4bhgp2rcd13ifvqfe0","pricing_plan_id":"cebpf4jnsgd1na2vs0mg"},{"bike_id":"071d9ad8-79e9-447b-b25c-0a0463116df8","system_id":"levelo_inurba_marseille","lat":43.238468,"lon":5.365263,"is_reserved":false,"is_disabled":false,"rental_uris":{"android":"levelo://app?vid=071d9ad8-79e9-447b-b25c-0a0463116df8","ios":"levelo://app?vid=071d9ad8-79e9-447b-b25c-0a0463116df8"},"vehicle_type_id":"4","last_reported":1751274830,"current_range_meters":6400,"station_id":"","pricing_plan_id":"cebpf4jnsgd1na2vs0mg"},{"bike_id":"2f8a56b1-df2f-4a68-a556-476cc023cc98","system_id":"levelo_inurba_marseille","lat":43.33739,"lon":5.374693,"is_reserved":false,"is_disabled":false,"rental_uris":{"android":"levelo://app?vid=2f8a56b1-df2f-4a68-a556-476cc023cc98","ios":"levelo://app?vid=2f8a56b1-df2f-4a68-a556-476cc023cc98"},"vehicle_type_id":"4","last_reported":1751274830,"current_range_meters":6400,"station_id":"","pricing_plan_id":"cebpf4jnsgd1na2vs0mg"},{"bike_id":"98b8d127-f303-4f7e-8444-3a27b3ae7a78","system_id":"levelo_inurba_marseille","lat":43.23153,"lon":5.43717,"is_reserved":false,"is_disabled":false,"rental_uris":{"android":"levelo://app?vid=98b8d127-f303-4f7e-8444-3a27b3ae7a78","ios":"levelo://app?vid=98b8d127-f303-4f7e-8444-3a27b3ae7a78"},"vehicle_type_id":"4","last_reported":1751274830,"current_range_meters":6400,"station_id":"ce4bhmp2rcd13ifvqgog","pricing_plan_id":"cebpf4jnsgd1na2vs0mg"},{"bike_id":"762acdc5-9b99-47a0-bda1-ee8060271245","system_id":"levelo_inurba_marseille","lat":43.21198,"lon":5.35056,"is_reserved":false,"is_disabled":false,"rental_uris":{"android":"levelo://app?vid=762acdc5-9b99-47a0-bda1-ee8060271245","ios":"levelo://app?vid=762acdc5-9b99-47a0-bda1-ee8060271245"},"vehicle_type_id":"4","last_reported":1751274830,"current_range_meters":6400,"station_id":"st_cvj6sg6p6f1abm77japg","pricing_plan_id":"cebpf4jnsgd1na2vs0mg"},{"bike_id":"033a09f5-ae17-4a3e-8db3-110d81477f8c","system_id":"levelo_inurba_marseille","lat":43.25581,"lon":5.38221,"is_reserved":false,"is_disabled":false,"rental_uris":{"android":"levelo://app?vid=033a09f5-ae17-4a3e-8db3-110d81477f8c","ios":"levelo://app?vid=033a09f5-ae17-4a3e-8db3-110d81477f8c"},"vehicle_type_id":"4","last_reported":1751274830,"current_range_meters":6800,"station_id":"ce4bhih2rcd13ifvqfs0","pricing_plan_id":"cebpf4jnsgd1na2vs0mg"},{"bike_id":"99f281eb-44dd-4a50-b8f7-afecd19c12a4","system_id":"levelo_inurba_marseille","lat":43.312419,"lon":5.368704,"is_reserved":false,"is_disabled":false,"rental_uris":{"android":"levelo://app?vid=99f281eb-44dd-4a50-b8f7-afecd19c12a4","ios":"levelo://app?vid=99f281eb-44dd-4a50-b8f7-afecd19c12a4"},"vehicle_type_id":"4","last_reported":1751274830,"current_range_meters":7200,"station_id":"ce4bgl92rcd13ifvqbq0","pricing_plan_id":"cebpf4jnsgd1na2vs0mg"},{"bike_id":"983a43e6-41cb-4ffe-9fc3-9cd6d96bdd2a","system_id":"levelo_inurba_marseille","lat":43.31229,"lon":5.36846,"is_reserved":false,"is_disabled":false,"rental_uris":{"android":"levelo://app?vid=983a43e6-41cb-4ffe-9fc3-9cd6d96bdd2a","ios":"levelo://app?vid=983a43e6-41cb-4ffe-9fc3-9cd6d96bdd2a"},"vehicle_type_id":"4","last_reported":1751274830,"current_range_meters":7200,"station_id":"ce4bgl92rcd13ifvqbq0","pricing_plan_id":"cebpf4jnsgd1na2vs0mg"},{"bike_id":"404c5dea-cf22-48f3-ad44-8b252fa4f599","system_id":"levelo_inurba_marseille","lat":43.25459,"lon":5.37712,"is_reserved":false,"is_disabled":false,"rental_uris":{"android":"levelo://app?vid=404c5dea-cf22-48f3-ad44-8b252fa4f599","ios":"levelo://app?vid=404c5dea-cf22-48f3-ad44-8b252fa4f599"},"vehicle_type_id":"4","last_reported":1751274830,"current_range_meters":7200,"station_id":"ce4bhh12rcd13ifvqff0","pricing_plan_id":"cebpf4jnsgd1na2vs0mg"},{"bike_id":"8bf0d992-d2a0-428e-940a-091ee9b7c2a4","system_id":"levelo_inurba_marseille","lat":43.21191,"lon":5.35063,"is_reserved":false,"is_disabled":false,"rental_uris":{"android":"levelo://app?vid=8bf0d992-d2a0-428e-940a-091ee9b7c2a4","ios":"levelo://app?vid=8bf0d992-d2a0-428e-940a-091ee9b7c2a4"},"vehicle_type_id":"4","last_reported":1751274830,"current_range_meters":7200,"station_id":"st_cvj6sg6p6f1abm77japg","pricing_plan_id":"cebpf4jnsgd1na2vs0mg"},{"bike_id":"73f4bbcc-4723-4d69-a710-d3fc45c80749","system_id":"levelo_inurba_marseille","lat":43.31363,"lon":5.36689,"is_reserved":false,"is_disabled":false,"rental_uris":{"android":"levelo://app?vid=73f4bbcc-4723-4d69-a710-d3fc45c80749","ios":"levelo://app?vid=73f4bbcc-4723-4d69-a710-d3fc45c80749"},"vehicle_type_id":"4","last_reported":1751274830,"current_range_meters":8000,"station_id":"ce4bgr92rcd13ifvqc6g","pricing_plan_id":"cebpf4jnsgd1na2vs0mg"},{"bike_id":"57b6de6b-3b31-4875-8725-4d84b0ba4b36","system_id":"levelo_inurba_marseille","lat":43.31347,"lon":5.36716,"is_reserved":false,"is_disabled":false,"rental_uris":{"android":"levelo://app?vid=57b6de6b-3b31-4875-8725-4d84b0ba4b36","ios":"levelo://app?vid=57b6de6b-3b31-4875-8725-4d84b0ba4b36"},"vehicle_type_id":"4","last_reported":1751274830,"current_range_meters":8000,"station_id":"ce4bgr92rcd13ifvqc6g","pricing_plan_id":"cebpf4jnsgd1na2vs0mg"},{"bike_id":"6765dee0-770a-4bfd-a80a-3fa36da7ede5","system_id":"levelo_inurba_marseille","lat":43.30954,"lon":5.39028,"is_reserved":false,"is_disabled":false,"rental_uris":{"android":"levelo://app?vid=6765dee0-770a-4bfd-a80a-3fa36da7ede5","ios":"levelo://app?vid=6765dee0-770a-4bfd-a80a-3fa36da7ede5"},"vehicle_type_id":"4","last_reported":1751274830,"current_range_meters":8000,"station_id":"ce4bgup2rcd13ifvqco0","pricing_plan_id":"cebpf4jnsgd1na2vs0mg"},{"bike_id":"941cc153-3087-4023-a1d7-b4920de6afdb","system_id":"levelo_inurba_marseille","lat":43.30796,"lon":5.3764,"is_reserved":false,"is_disabled":false,"rental_uris":{"android":"levelo://app?vid=941cc153-3087-4023-a1d7-b4920de6afdb","ios":"levelo://app?vid=941cc153-3087-4023-a1d7-b4920de6afdb"},"vehicle_type_id":"4","last_reported":1751274830,"current_range_meters":8000,"station_id":"ce4bgv92rcd13ifvqcq0","pricing_plan_id":"cebpf4jnsgd1na2vs0mg"},{"bike_id":"779979fb-af16-428c-ad59-6b3d6835c2c8","system_id":"levelo_inurba_marseille","lat":43.26685,"lon":5.38265,"is_reserved":false,"is_disabled":false,"rental_uris":{"android":"levelo://app?vid=779979fb-af16-428c-ad59-6b3d6835c2c8","ios":"levelo://app?vid=779979fb-af16-428c-ad59-6b3d6835c2c8"},"vehicle_type_id":"4","last_reported":1751274830,"current_range_meters":8000,"station_id":"ce4bhg92rcd13ifvqf90","pricing_plan_id":"cebpf4jnsgd1na2vs0mg"},{"bike_id":"5c448709-ba7c-40a3-86d5-0a0427242ec1","system_id":"levelo_inurba_marseille","lat":43.27649,"lon":5.38901,"is_reserved":false,"is_disabled":false,"rental_uris":{"android":"levelo://app?vid=5c448709-ba7c-40a3-86d5-0a0427242ec1","ios":"levelo://app?vid=5c448709-ba7c-40a3-86d5-0a0427242ec1"},"vehicle_type_id":"4","last_reported":1751274830,"current_range_meters":8000,"station_id":"ce4bhi12rcd13ifvqfo0","pricing_plan_id":"cebpf4jnsgd1na2vs0mg"},{"bike_id":"7b28ebac-3c6a-43aa-aca9-7bd954b07205","system_id":"levelo_inurba_marseille","lat":43.296621,"lon":5.379379,"is_reserved":false,"is_disabled":false,"rental_uris":{"android":"levelo://app?vid=7b28ebac-3c6a-43aa-aca9-7bd954b07205","ios":"levelo://app?vid=7b28ebac-3c6a-43aa-aca9-7bd954b07205"},"vehicle_type_id":"4","last_reported":1751274830,"current_range_meters":8400,"station_id":"","pricing_plan_id":"cebpf4jnsgd1na2vs0mg"},{"bike_id":"aa8b11a9-e3ea-4b56-bd76-51aa32b0d133","system_id":"levelo_inurba_marseille","lat":43.30796,"lon":5.38144,"is_reserved":false,"is_disabled":false,"rental_uris":{"android":"levelo://app?vid=aa8b11a9-e3ea-4b56-bd76-51aa32b0d133","ios":"levelo://app?vid=aa8b11a9-e3ea-4b56-bd76-51aa32b0d133"},"vehicle_type_id":"4","last_reported":1751274830,"current_range_meters":8400,"station_id":"ce4bgt12rcd13ifvqce0","pricing_plan_id":"cebpf4jnsgd1na2vs0mg"},{"bike_id":"70bdee5b-5e48-4f08-b413-fa46559c4d0b","system_id":"levelo_inurba_marseille","lat":43.29285,"lon":5.4011,"is_reserved":false,"is_disabled":false,"rental_uris":{"android":"levelo://app?vid=70bdee5b-5e48-4f08-b413-fa46559c4d0b","ios":"levelo://app?vid=70bdee5b-5e48-4f08-b413-fa46559c4d0b"},"vehicle_type_id":"4","last_reported":1751274830,"current_range_meters":8400,"station_id":"ce4bh312rcd13ifvqdk0","pricing_plan_id":"cebpf4jnsgd1na2vs0mg"},{"bike_id":"b54dc4b1-c13b-40d3-95f6-a8a3914482ca","system_id":"levelo_inurba_marseille","lat":43.28709,"lon":5.37381,"is_reserved":false,"is_disabled":false,"rental_uris":{"android":"levelo://app?vid=b54dc4b1-c13b-40d3-95f6-a8a3914482ca","ios":"levelo://app?vid=b54dc4b1-c13b-40d3-95f6-a8a3914482ca"},"vehicle_type_id":"4","last_reported":1751274830,"current_range_meters":8400,"station_id":"ce4bh3p2rcd13ifvqdq0","pricing_plan_id":"cebpf4jnsgd1na2vs0mg"},{"bike_id":"679767e0-962b-4585-b9c2-6f164fca398d","system_id":"levelo_inurba_marseille","lat":43.29165,"lon":5.37158,"is_reserved":false,"is_disabled":false,"rental_uris":{"android":"levelo://app?vid=679767e0-962b-4585-b9c2-6f164fca398d","ios":"levelo://app?vid=679767e0-962b-4585-b9c2-6f164fca398d"},"vehicle_type_id":"4","last_reported":1751274830,"current_range_meters":8400,"station_id":"ce4bha92rcd13ifvqeh0","pricing_plan_id":"cebpf4jnsgd1na2vs0mg"},{"bike_id":"b636965d-7db1-47cd-adbf-cfced905006a","system_id":"levelo_inurba_marseille","lat":43.21212,"lon":5.35063,"is_reserved":false,"is_disabled":false,"rental_uris":{"android":"levelo://app?vid=b636965d-7db1-47cd-adbf-cfced905006a","ios":"levelo://app?vid=b636965d-7db1-47cd-adbf-cfced905006a"},"vehicle_type_id":"4","last_reported":1751274830,"current_range_meters":8400,"station_id":"st_cvj6sg6p6f1abm77japg","pricing_plan_id":"cebpf4jnsgd1na2vs0mg"},{"bike_id":"cbe8cf16-ee4d-44dc-af26-2dea0d93d494","system_id":"levelo_inurba_marseille","lat":43.337444,"lon":5.374475,"is_reserved":false,"is_disabled":false,"rental_uris":{"android":"levelo://app?vid=cbe8cf16-ee4d-44dc-af26-2dea0d93d494","ios":"levelo://app?vid=cbe8cf16-ee4d-44dc-af26-2dea0d93d494"},"vehicle_type_id":"4","last_reported":1751274830,"current_range_meters":8800,"station_id":"","pricing_plan_id":"cebpf4jnsgd1na2vs0mg"},{"bike_id":"d7d64aa7-3f1c-401a-afb1-2a560f7861c0","system_id":"levelo_inurba_marseille","lat":43.27377,"lon":5.36253,"is_reserved":false,"is_disabled":false,"rental_uris":{"android":"levelo://app?vid=d7d64aa7-3f1c-401a-afb1-2a560f7861c0","ios":"levelo://app?vid=d7d64aa7-3f1c-401a-afb1-2a560f7861c0"},"vehicle_type_id":"4","last_reported":1751274830,"current_range_meters":8800,"station_id":"ce4bhbh2rcd13ifvqeo0","pricing_plan_id":"cebpf4jnsgd1na2vs0mg"},{"bike_id":"9fc6b39a-5532-40ac-8f58-975bced56a19","system_id":"levelo_inurba_marseille","lat":43.32577,"lon":5.40448,"is_reserved":false,"is_disabled":false,"rental_uris":{"android":"levelo://app?vid=9fc6b39a-5532-40ac-8f58-975bced56a19","ios":"levelo://app?vid=9fc6b39a-5532-40ac-8f58-975bced56a19"},"vehicle_type_id":"4","last_reported":1751274830,"current_range_meters":9200,"station_id":"","pricing_plan_id":"cebpf4jnsgd1na2vs0mg"},{"bike_id":"d308c658-b19c-49c0-8014-5506ff26f69a","system_id":"levelo_inurba_marseille","lat":43.2307,"lon":5.40483,"is_reserved":false,"is_disabled":false,"rental_uris":{"android":"levelo://app?vid=d308c658-b19c-49c0-8014-5506ff26f69a","ios":"levelo://app?vid=d308c658-b19c-49c0-8014-5506ff26f69a"},"vehicle_type_id":"4","last_reported":1751274830,"current_range_meters":9200,"station_id":"","pricing_plan_id":"cebpf4jnsgd1na2vs0mg"},{"bike_id":"5be22d2d-db6d-4119-8ab9-a933fa05e269","system_id":"levelo_inurba_marseille","lat":43.27607,"lon":5.36115,"is_reserved":false,"is_disabled":false,"rental_uris":{"android":"levelo://app?vid=5be22d2d-db6d-4119-8ab9-a933fa05e269","ios":"levelo://app?vid=5be22d2d-db6d-4119-8ab9-a933fa05e269"},"vehicle_type_id":"4","last_reported":1751274830,"current_range_meters":9200,"station_id":"ce4bgj92rcd13ifvqbe0","pricing_plan_id":"cebpf4jnsgd1na2vs0mg"},{"bike_id":"e219543a-880e-4c38-aff0-63dd83878c8b","system_id":"levelo_inurba_marseille","lat":43.32106,"lon":5.3676,"is_reserved":false,"is_disabled":false,"rental_uris":{"android":"levelo://app?vid=e219543a-880e-4c38-aff0-63dd83878c8b","ios":"levelo://app?vid=e219543a-880e-4c38-aff0-63dd83878c8b"},"vehicle_type_id":"4","last_reported":1751274830,"current_range_meters":9200,"station_id":"ce4bhrh2rcd13ifvqhug","pricing_plan_id":"cebpf4jnsgd1na2vs0mg"},{"bike_id":"940c8448-39b7-4d8b-b4cc-9918765a5bbc","system_id":"levelo_inurba_marseille","lat":43.21207,"lon":5.35077,"is_reserved":false,"is_disabled":false,"rental_uris":{"android":"levelo://app?vid=940c8448-39b7-4d8b-b4cc-9918765a5bbc","ios":"levelo://app?vid=940c8448-39b7-4d8b-b4cc-9918765a5bbc"},"vehicle_type_id":"4","last_reported":1751274830,"current_range_meters":9200,"station_id":"st_cvj6sg6p6f1abm77japg","pricing_plan_id":"cebpf4jnsgd1na2vs0mg"},{"bike_id":"c595d0e1-c778-4abe-9c79-a9dd74f54e27","system_id":"levelo_inurba_marseille","lat":43.24473,"lon":5.37214,"is_reserved":false,"is_disabled":false,"rental_uris":{"android":"levelo://app?vid=c595d0e1-c778-4abe-9c79-a9dd74f54e27","ios":"levelo://app?vid=c595d0e1-c778-4abe-9c79-a9dd74f54e27"},"vehicle_type_id":"4","last_reported":1751274830,"current_range_meters":9600,"station_id":"","pricing_plan_id":"cebpf4jnsgd1na2vs0mg"},{"bike_id":"2630b0d7-8518-44a1-b41d-4305f5c2b588","system_id":"levelo_inurba_marseille","lat":43.288553,"lon":5.393204,"is_reserved":false,"is_disabled":false,"rental_uris":{"android":"levelo://app?vid=2630b0d7-8518-44a1-b41d-4305f5c2b588","ios":"levelo://app?vid=2630b0d7-8518-44a1-b41d-4305f5c2b588"},"vehicle_type_id":"4","last_reported":1751274830,"current_range_meters":9600,"station_id":"ce4bh492rcd13ifvqdug","pricing_plan_id":"cebpf4jnsgd1na2vs0mg"},{"bike_id":"cc435fa6-16b3-4dce-a11a-36f677e6660f","system_id":"levelo_inurba_marseille","lat":43.28709,"lon":5.37936,"is_reserved":false,"is_disabled":false,"rental_uris":{"android":"levelo://app?vid=cc435fa6-16b3-4dce-a11a-36f677e6660f","ios":"levelo://app?vid=cc435fa6-16b3-4dce-a11a-36f677e6660f"},"vehicle_type_id":"4","last_reported":1751274830,"current_range_meters":9600,"station_id":"ce4bh9p2rcd13ifvqec0","pricing_plan_id":"cebpf4jnsgd1na2vs0mg"},{"bike_id":"b879504e-c85b-45ea-ab13-dce989cb130f","system_id":"levelo_inurba_marseille","lat":43.32365,"lon":5.36767,"is_reserved":false,"is_disabled":false,"rental_uris":{"android":"levelo://app?vid=b879504e-c85b-45ea-ab13-dce989cb130f","ios":"levelo://app?vid=b879504e-c85b-45ea-ab13-dce989cb130f"},"vehicle_type_id":"4","last_reported":1751274830,"current_range_meters":9600,"station_id":"ce4bhsh2rcd13ifvqi2g","pricing_plan_id":"cebpf4jnsgd1na2vs0mg"},{"bike_id":"05d3d448-235e-4ac7-88df-050f15d5a616","system_id":"levelo_inurba_marseille","lat":43.27921,"lon":5.42228,"is_reserved":false,"is_disabled":false,"rental_uris":{"android":"levelo://app?vid=05d3d448-235e-4ac7-88df-050f15d5a616","ios":"levelo://app?vid=05d3d448-235e-4ac7-88df-050f15d5a616"},"vehicle_type_id":"4","last_reported":1751274830,"current_range_meters":10000,"station_id":"","pricing_plan_id":"cebpf4jnsgd1na2vs0mg"},{"bike_id":"6effd1d2-38a2-4df7-8ed4-25eac01948ef","system_id":"levelo_inurba_marseille","lat":43.29509,"lon":5.37515,"is_reserved":false,"is_disabled":false,"rental_uris":{"android":"levelo://app?vid=6effd1d2-38a2-4df7-8ed4-25eac01948ef","ios":"levelo://app?vid=6effd1d2-38a2-4df7-8ed4-25eac01948ef"},"vehicle_type_id":"4","last_reported":1751274830,"current_range_meters":10000,"station_id":"ce4bgkp2rcd13ifvqbmg","pricing_plan_id":"cebpf4jnsgd1na2vs0mg"},{"bike_id":"c52c9a8c-1588-4743-a54c-4c27254704cc","system_id":"levelo_inurba_marseille","lat":43.27073,"lon":5.42276,"is_reserved":false,"is_disabled":false,"rental_uris":{"android":"levelo://app?vid=c52c9a8c-1588-4743-a54c-4c27254704cc","ios":"levelo://app?vid=c52c9a8c-1588-4743-a54c-4c27254704cc"},"vehicle_type_id":"4","last_reported":1751274830,"current_range_meters":10000,"station_id":"ce4bhk92rcd13ifvqgb0","pricing_plan_id":"cebpf4jnsgd1na2vs0mg"},{"bike_id":"29224259-329f-4f67-ac68-32eed89b18a1","system_id":"levelo_inurba_marseille","lat":43.211887,"lon":5.350709,"is_reserved":false,"is_disabled":false,"rental_uris":{"android":"levelo://app?vid=29224259-329f-4f67-ac68-32eed89b18a1","ios":"levelo://app?vid=29224259-329f-4f67-ac68-32eed89b18a1"},"vehicle_type_id":"4","last_reported":1751274830,"current_range_meters":10000,"station_id":"st_cvj6sg6p6f1abm77japg","pricing_plan_id":"cebpf4jnsgd1na2vs0mg"},{"bike_id":"120036e1-945c-4ddf-ba61-047361af53a6","system_id":"levelo_inurba_marseille","lat":43.211909,"lon":5.350723,"is_reserved":false,"is_disabled":false,"rental_uris":{"android":"levelo://app?vid=120036e1-945c-4ddf-ba61-047361af53a6","ios":"levelo://app?vid=120036e1-945c-4ddf-ba61-047361af53a6"},"vehicle_type_id":"4","last_reported":1751274830,"current_range_meters":10000,"station_id":"st_cvj6sg6p6f1abm77japg","pricing_plan_id":"cebpf4jnsgd1na2vs0mg"},{"bike_id":"7b47b272-fbf3-4098-ac79-c3a56cb95ee9","system_id":"levelo_inurba_marseille","lat":43.244766,"lon":5.372568,"is_reserved":false,"is_disabled":false,"rental_uris":{"android":"levelo://app?vid=7b47b272-fbf3-4098-ac79-c3a56cb95ee9","ios":"levelo://app?vid=7b47b272-fbf3-4098-ac79-c3a56cb95ee9"},"vehicle_type_id":"4","last_reported":1751274830,"current_range_meters":10800,"station_id":"","pricing_plan_id":"cebpf4jnsgd1na2vs0mg"},{"bike_id":"4f990a52-91a7-4861-b86b-742370732c1b","system_id":"levelo_inurba_marseille","lat":43.29251,"lon":5.40892,"is_reserved":false,"is_disabled":false,"rental_uris":{"android":"levelo://app?vid=4f990a52-91a7-4861-b86b-742370732c1b","ios":"levelo://app?vid=4f990a52-91a7-4861-b86b-742370732c1b"},"vehicle_type_id":"4","last_reported":1751274830,"current_range_meters":10800,"station_id":"ce4bh192rcd13ifvqdc0","pricing_plan_id":"cebpf4jnsgd1na2vs0mg"},{"bike_id":"fddf0154-c977-4406-8011-7a7c1f5e0eb0","system_id":"levelo_inurba_marseille","lat":43.28411,"lon":5.34994,"is_reserved":false,"is_disabled":false,"rental_uris":{"android":"levelo://app?vid=fddf0154-c977-4406-8011-7a7c1f5e0eb0","ios":"levelo://app?vid=fddf0154-c977-4406-8011-7a7c1f5e0eb0"},"vehicle_type_id":"4","last_reported":1751274830,"current_range_meters":10800,"station_id":"ce4bhbh2rcd13ifvqepg","pricing_plan_id":"cebpf4jnsgd1na2vs0mg"},{"bike_id":"eab52660-9b10-45fa-ab53-31f8266abce3","system_id":"levelo_inurba_marseille","lat":43.241751,"lon":5.397203,"is_reserved":false,"is_disabled":false,"rental_uris":{"android":"levelo://app?vid=eab52660-9b10-45fa-ab53-31f8266abce3","ios":"levelo://app?vid=eab52660-9b10-45fa-ab53-31f8266abce3"},"vehicle_type_id":"4","last_reported":1751274830,"current_range_meters":10800,"station_id":"ce4bhn12rcd13ifvqgpg","pricing_plan_id":"cebpf4jnsgd1na2vs0mg"},{"bike_id":"f5202c6a-24d8-4943-b724-6b22b14137a3","system_id":"levelo_inurba_marseille","lat":43.27945,"lon":5.41047,"is_reserved":false,"is_disabled":false,"rental_uris":{"android":"levelo://app?vid=f5202c6a-24d8-4943-b724-6b22b14137a3","ios":"levelo://app?vid=f5202c6a-24d8-4943-b724-6b22b14137a3"},"vehicle_type_id":"4","last_reported":1751274830,"current_range_meters":10800,"station_id":"ce4bhnp2rcd13ifvqh0g","pricing_plan_id":"cebpf4jnsgd1na2vs0mg"},{"bike_id":"761f7a97-5f6f-4f61-92c5-de6e9123cf16","system_id":"levelo_inurba_marseille","lat":43.299066,"lon":5.436766,"is_reserved":false,"is_disabled":false,"rental_uris":{"android":"levelo://app?vid=761f7a97-5f6f-4f61-92c5-de6e9123cf16","ios":"levelo://app?vid=761f7a97-5f6f-4f61-92c5-de6e9123cf16"},"vehicle_type_id":"4","last_reported":1751274830,"current_range_meters":10800,"station_id":"ce4bhpp2rcd13ifvqhfg","pricing_plan_id":"cebpf4jnsgd1na2vs0mg"},{"bike_id":"78284af2-bf69-4fd5-b7d0-bf87d4b01869","system_id":"levelo_inurba_marseille","lat":43.31179,"lon":5.36874,"is_reserved":false,"is_disabled":false,"rental_uris":{"android":"levelo://app?vid=78284af2-bf69-4fd5-b7d0-bf87d4b01869","ios":"levelo://app?vid=78284af2-bf69-4fd5-b7d0-bf87d4b01869"},"vehicle_type_id":"4","last_reported":1751274830,"current_range_meters":11200,"station_id":"","pricing_plan_id":"cebpf4jnsgd1na2vs0mg"},{"bike_id":"3035be0e-7c3d-4f7d-a1cb-7a1af59e497b","system_id":"levelo_inurba_marseille","lat":43.29678,"lon":5.3597,"is_reserved":false,"is_disabled":false,"rental_uris":{"android":"levelo://app?vid=3035be0e-7c3d-4f7d-a1cb-7a1af59e497b","ios":"levelo://app?vid=3035be0e-7c3d-4f7d-a1cb-7a1af59e497b"},"vehicle_type_id":"4","last_reported":1751274830,"current_range_meters":11200,"station_id":"","pricing_plan_id":"cebpf4jnsgd1na2vs0mg"},{"bike_id":"9ba2576a-891c-4d89-ae8d-6e49977eea3f","system_id":"levelo_inurba_marseille","lat":43.30534,"lon":5.367027,"is_reserved":false,"is_disabled":false,"rental_uris":{"android":"levelo://app?vid=9ba2576a-891c-4d89-ae8d-6e49977eea3f","ios":"levelo://app?vid=9ba2576a-891c-4d89-ae8d-6e49977eea3f"},"vehicle_type_id":"4","last_reported":1751274830,"current_range_meters":11200,"station_id":"ce4bgrp2rcd13ifvqc9g","pricing_plan_id":"cebpf4jnsgd1na2vs0mg"},{"bike_id":"05ef3f4f-8684-4455-832e-232ced61a8fd","system_id":"levelo_inurba_marseille","lat":43.29017,"lon":5.35612,"is_reserved":false,"is_disabled":false,"rental_uris":{"android":"levelo://app?vid=05ef3f4f-8684-4455-832e-232ced61a8fd","ios":"levelo://app?vid=05ef3f4f-8684-4455-832e-232ced61a8fd"},"vehicle_type_id":"4","last_reported":1751274830,"current_range_meters":11200,"station_id":"ce4bhb92rcd13ifvqen0","pricing_plan_id":"cebpf4jnsgd1na2vs0mg"},{"bike_id":"221aa6a4-1358-49bc-8650-d584efc1651b","system_id":"levelo_inurba_marseille","lat":43.30039,"lon":5.38694,"is_reserved":false,"is_disabled":false,"rental_uris":{"android":"levelo://app?vid=221aa6a4-1358-49bc-8650-d584efc1651b","ios":"levelo://app?vid=221aa6a4-1358-49bc-8650-d584efc1651b"},"vehicle_type_id":"4","last_reported":1751274830,"current_range_meters":11600,"station_id":"","pricing_plan_id":"cebpf4jnsgd1na2vs0mg"},{"bike_id":"6dfd11c7-d6c8-40df-aa1f-fd3f041c89a3","system_id":"levelo_inurba_marseille","lat":43.28401,"lon":5.37512,"is_reserved":false,"is_disabled":false,"rental_uris":{"android":"levelo://app?vid=6dfd11c7-d6c8-40df-aa1f-fd3f041c89a3","ios":"levelo://app?vid=6dfd11c7-d6c8-40df-aa1f-fd3f041c89a3"},"vehicle_type_id":"4","last_reported":1751274830,"current_range_meters":11600,"station_id":"ce4bh412rcd13ifvqds0","pricing_plan_id":"cebpf4jnsgd1na2vs0mg"},{"bike_id":"cb7cc1d4-a220-497f-83a8-daf77c9fd783","system_id":"levelo_inurba_marseille","lat":43.26684,"lon":5.38264,"is_reserved":false,"is_disabled":false,"rental_uris":{"android":"levelo://app?vid=cb7cc1d4-a220-497f-83a8-daf77c9fd783","ios":"levelo://app?vid=cb7cc1d4-a220-497f-83a8-daf77c9fd783"},"vehicle_type_id":"4","last_reported":1751274830,"current_range_meters":11600,"station_id":"ce4bhg92rcd13ifvqf90","pricing_plan_id":"cebpf4jnsgd1na2vs0mg"},{"bike_id":"6b625014-6bb2-43d2-9d1a-b9c4c03b905d","system_id":"levelo_inurba_marseille","lat":43.27208,"lon":5.39181,"is_reserved":false,"is_disabled":false,"rental_uris":{"android":"levelo://app?vid=6b625014-6bb2-43d2-9d1a-b9c4c03b905d","ios":"levelo://app?vid=6b625014-6bb2-43d2-9d1a-b9c4c03b905d"},"vehicle_type_id":"4","last_reported":1751274830,"current_range_meters":11600,"station_id":"ce4bhhp2rcd13ifvqfm0","pricing_plan_id":"cebpf4jnsgd1na2vs0mg"},{"bike_id":"d03eec7b-097f-4720-9e49-962f2a4897f6","system_id":"levelo_inurba_marseille","lat":43.23186,"lon":5.39976,"is_reserved":false,"is_disabled":false,"rental_uris":{"android":"levelo://app?vid=d03eec7b-097f-4720-9e49-962f2a4897f6","ios":"levelo://app?vid=d03eec7b-097f-4720-9e49-962f2a4897f6"},"vehicle_type_id":"4","last_reported":1751274830,"current_range_meters":11600,"station_id":"ce4bhn12rcd13ifvqgqg","pricing_plan_id":"cebpf4jnsgd1na2vs0mg"},{"bike_id":"f14ea732-2ab2-4f5d-9515-779400c440ec","system_id":"levelo_inurba_marseille","lat":43.28587,"lon":5.37062,"is_reserved":false,"is_disabled":false,"rental_uris":{"android":"levelo://app?vid=f14ea732-2ab2-4f5d-9515-779400c440ec","ios":"levelo://app?vid=f14ea732-2ab2-4f5d-9515-779400c440ec"},"vehicle_type_id":"4","last_reported":1751274830,"current_range_meters":11600,"station_id":"ce4bht12rcd13ifvqi60","pricing_plan_id":"cebpf4jnsgd1na2vs0mg"},{"bike_id":"7cd73daf-6410-4b72-a872-e5224e9d29ff","system_id":"levelo_inurba_marseille","lat":43.273971,"lon":5.411687,"is_reserved":false,"is_disabled":false,"rental_uris":{"android":"levelo://app?vid=7cd73daf-6410-4b72-a872-e5224e9d29ff","ios":"levelo://app?vid=7cd73daf-6410-4b72-a872-e5224e9d29ff"},"vehicle_type_id":"4","last_reported":1751274830,"current_range_meters":12000,"station_id":"","pricing_plan_id":"cebpf4jnsgd1na2vs0mg"},{"bike_id":"b05ac08d-847b-4f20-ac36-038a0d69d167","system_id":"levelo_inurba_marseille","lat":43.28124,"lon":5.35851,"is_reserved":false,"is_disabled":false,"rental_uris":{"android":"levelo://app?vid=b05ac08d-847b-4f20-ac36-038a0d69d167","ios":"levelo://app?vid=b05ac08d-847b-4f20-ac36-038a0d69d167"},"vehicle_type_id":"4","last_reported":1751274830,"current_range_meters":12000,"station_id":"","pricing_plan_id":"cebpf4jnsgd1na2vs0mg"},{"bike_id":"acca692d-8d39-459c-a574-7087df4141fc","system_id":"levelo_inurba_marseille","lat":43.31492,"lon":5.37286,"is_reserved":false,"is_disabled":false,"rental_uris":{"android":"levelo://app?vid=acca692d-8d39-459c-a574-7087df4141fc","ios":"levelo://app?vid=acca692d-8d39-459c-a574-7087df4141fc"},"vehicle_type_id":"4","last_reported":1751274830,"current_range_meters":12000,"station_id":"ce4bgt12rcd13ifvqcd0","pricing_plan_id":"cebpf4jnsgd1na2vs0mg"},{"bike_id":"55a1b31a-544c-4c44-8e05-934980386ced","system_id":"levelo_inurba_marseille","lat":43.29517,"lon":5.39039,"is_reserved":false,"is_disabled":false,"rental_uris":{"android":"levelo://app?vid=55a1b31a-544c-4c44-8e05-934980386ced","ios":"levelo://app?vid=55a1b31a-544c-4c44-8e05-934980386ced"},"vehicle_type_id":"4","last_reported":1751274830,"current_range_meters":12000,"station_id":"ce4bh3p2rcd13ifvqdp0","pricing_plan_id":"cebpf4jnsgd1na2vs0mg"},{"bike_id":"daad9c7c-ef36-46f1-94e5-896ac219d4b1","system_id":"levelo_inurba_marseille","lat":43.29177,"lon":5.37156,"is_reserved":false,"is_disabled":false,"rental_uris":{"android":"levelo://app?vid=daad9c7c-ef36-46f1-94e5-896ac219d4b1","ios":"levelo://app?vid=daad9c7c-ef36-46f1-94e5-896ac219d4b1"},"vehicle_type_id":"4","last_reported":1751274830,"current_range_meters":12000,"station_id":"ce4bha92rcd13ifvqeh0","pricing_plan_id":"cebpf4jnsgd1na2vs0mg"},{"bike_id":"fc92e15b-dbbd-4c08-862e-67528212cf8c","system_id":"levelo_inurba_marseille","lat":43.24185,"lon":5.39722,"is_reserved":false,"is_disabled":false,"rental_uris":{"android":"levelo://app?vid=fc92e15b-dbbd-4c08-862e-67528212cf8c","ios":"levelo://app?vid=fc92e15b-dbbd-4c08-862e-67528212cf8c"},"vehicle_type_id":"4","last_reported":1751274830,"current_range_meters":12000,"station_id":"ce4bhn12rcd13ifvqgpg","pricing_plan_id":"cebpf4jnsgd1na2vs0mg"},{"bike_id":"056b5f47-cbff-44b9-acaf-23872241938e","system_id":"levelo_inurba_marseille","lat":43.32655,"lon":5.40988,"is_reserved":false,"is_disabled":false,"rental_uris":{"android":"levelo://app?vid=056b5f47-cbff-44b9-acaf-23872241938e","ios":"levelo://app?vid=056b5f47-cbff-44b9-acaf-23872241938e"},"vehicle_type_id":"4","last_reported":1751274830,"current_range_meters":12000,"station_id":"ce4bhpp2rcd13ifvqhgg","pricing_plan_id":"cebpf4jnsgd1na2vs0mg"},{"bike_id":"4fa57d96-2248-4f46-a1de-c1d178fbcb90","system_id":"levelo_inurba_marseille","lat":43.33613,"lon":5.41019,"is_reserved":false,"is_disabled":false,"rental_uris":{"android":"levelo://app?vid=4fa57d96-2248-4f46-a1de-c1d178fbcb90","ios":"levelo://app?vid=4fa57d96-2248-4f46-a1de-c1d178fbcb90"},"vehicle_type_id":"4","last_reported":1751274830,"current_range_meters":12000,"station_id":"ce4bhqh2rcd13ifvqhmg","pricing_plan_id":"cebpf4jnsgd1na2vs0mg"},{"bike_id":"e7641e58-176f-485d-9342-129003cdc52b","system_id":"levelo_inurba_marseille","lat":43.32098,"lon":5.36762,"is_reserved":false,"is_disabled":false,"rental_uris":{"android":"levelo://app?vid=e7641e58-176f-485d-9342-129003cdc52b","ios":"levelo://app?vid=e7641e58-176f-485d-9342-129003cdc52b"},"vehicle_type_id":"4","last_reported":1751274830,"current_range_meters":12000,"station_id":"ce4bhrh2rcd13ifvqhug","pricing_plan_id":"cebpf4jnsgd1na2vs0mg"},{"bike_id":"786f230b-598f-4e58-bbc2-1e0a419e9de2","system_id":"levelo_inurba_marseille","lat":43.264684,"lon":5.392342,"is_reserved":false,"is_disabled":false,"rental_uris":{"android":"levelo://app?vid=786f230b-598f-4e58-bbc2-1e0a419e9de2","ios":"levelo://app?vid=786f230b-598f-4e58-bbc2-1e0a419e9de2"},"vehicle_type_id":"4","last_reported":1751274830,"current_range_meters":12400,"station_id":"","pricing_plan_id":"cebpf4jnsgd1na2vs0mg"},{"bike_id":"f5c16f07-bc6f-4121-91a7-5ad90eec4f34","system_id":"levelo_inurba_marseille","lat":43.312009,"lon":5.373403,"is_reserved":false,"is_disabled":false,"rental_uris":{"android":"levelo://app?vid=f5c16f07-bc6f-4121-91a7-5ad90eec4f34","ios":"levelo://app?vid=f5c16f07-bc6f-4121-91a7-5ad90eec4f34"},"vehicle_type_id":"4","last_reported":1751274830,"current_range_meters":12400,"station_id":"","pricing_plan_id":"cebpf4jnsgd1na2vs0mg"},{"bike_id":"1085d5da-7437-4696-ba34-ec6adbbbb008","system_id":"levelo_inurba_marseille","lat":43.29632,"lon":5.40594,"is_reserved":false,"is_disabled":false,"rental_uris":{"android":"levelo://app?vid=1085d5da-7437-4696-ba34-ec6adbbbb008","ios":"levelo://app?vid=1085d5da-7437-4696-ba34-ec6adbbbb008"},"vehicle_type_id":"4","last_reported":1751274830,"current_range_meters":12400,"station_id":"ce4bh0h2rcd13ifvqd60","pricing_plan_id":"cebpf4jnsgd1na2vs0mg"},{"bike_id":"683e1958-60cb-4142-aae8-1c27d9da775b","system_id":"levelo_inurba_marseille","lat":43.25732,"lon":5.41105,"is_reserved":false,"is_disabled":false,"rental_uris":{"android":"levelo://app?vid=683e1958-60cb-4142-aae8-1c27d9da775b","ios":"levelo://app?vid=683e1958-60cb-4142-aae8-1c27d9da775b"},"vehicle_type_id":"4","last_reported":1751274830,"current_range_meters":12400,"station_id":"ce4bhkp2rcd13ifvqgd0","pricing_plan_id":"cebpf4jnsgd1na2vs0mg"},{"bike_id":"5031ccf9-7dcf-4258-a4a4-0c83bcd30a12","system_id":"levelo_inurba_marseille","lat":43.337444,"lon":5.374475,"is_reserved":false,"is_disabled":false,"rental_uris":{"android":"levelo://app?vid=5031ccf9-7dcf-4258-a4a4-0c83bcd30a12","ios":"levelo://app?vid=5031ccf9-7dcf-4258-a4a4-0c83bcd30a12"},"vehicle_type_id":"4","last_reported":1751274830,"current_range_meters":12800,"station_id":"","pricing_plan_id":"cebpf4jnsgd1na2vs0mg"},{"bike_id":"82d9ca30-f9a8-4640-b3c2-dd5ef6b98b95","system_id":"levelo_inurba_marseille","lat":43.25108,"lon":5.40317,"is_reserved":false,"is_disabled":false,"rental_uris":{"android":"levelo://app?vid=82d9ca30-f9a8-4640-b3c2-dd5ef6b98b95","ios":"levelo://app?vid=82d9ca30-f9a8-4640-b3c2-dd5ef6b98b95"},"vehicle_type_id":"4","last_reported":1751274830,"current_range_meters":12800,"station_id":"","pricing_plan_id":"cebpf4jnsgd1na2vs0mg"},{"bike_id":"5243cf43-ff06-4c10-bea4-8ea1926bb053","system_id":"levelo_inurba_marseille","lat":43.30885,"lon":5.37181,"is_reserved":false,"is_disabled":false,"rental_uris":{"android":"levelo://app?vid=5243cf43-ff06-4c10-bea4-8ea1926bb053","ios":"levelo://app?vid=5243cf43-ff06-4c10-bea4-8ea1926bb053"},"vehicle_type_id":"4","last_reported":1751274830,"current_range_meters":12800,"station_id":"ce4bguh2rcd13ifvqckg","pricing_plan_id":"cebpf4jnsgd1na2vs0mg"},{"bike_id":"be31c774-7e82-4ba5-a865-9e5eca957a7d","system_id":"levelo_inurba_marseille","lat":43.28713,"lon":5.37936,"is_reserved":false,"is_disabled":false,"rental_uris":{"android":"levelo://app?vid=be31c774-7e82-4ba5-a865-9e5eca957a7d","ios":"levelo://app?vid=be31c774-7e82-4ba5-a865-9e5eca957a7d"},"vehicle_type_id":"4","last_reported":1751274830,"current_range_meters":12800,"station_id":"ce4bh9p2rcd13ifvqec0","pricing_plan_id":"cebpf4jnsgd1na2vs0mg"},{"bike_id":"7f071c7d-3984-4e8e-a6e3-b4116a4673de","system_id":"levelo_inurba_marseille","lat":43.24396,"lon":5.37052,"is_reserved":false,"is_disabled":false,"rental_uris":{"android":"levelo://app?vid=7f071c7d-3984-4e8e-a6e3-b4116a4673de","ios":"levelo://app?vid=7f071c7d-3984-4e8e-a6e3-b4116a4673de"},"vehicle_type_id":"4","last_reported":1751274830,"current_range_meters":12800,"station_id":"ce4bhhh2rcd13ifvqfk0","pricing_plan_id":"cebpf4jnsgd1na2vs0mg"},{"bike_id":"6b6a646f-e1ae-4138-9055-a2e578c870cb","system_id":"levelo_inurba_marseille","lat":43.21748,"lon":5.34605,"is_reserved":false,"is_disabled":false,"rental_uris":{"android":"levelo://app?vid=6b6a646f-e1ae-4138-9055-a2e578c870cb","ios":"levelo://app?vid=6b6a646f-e1ae-4138-9055-a2e578c870cb"},"vehicle_type_id":"4","last_reported":1751274830,"current_range_meters":12800,"station_id":"st_cvj6r9ubvosntc0bgbag","pricing_plan_id":"cebpf4jnsgd1na2vs0mg"},{"bike_id":"c2e134cb-ee58-410e-8443-cdf3a592d767","system_id":"levelo_inurba_marseille","lat":43.29581,"lon":5.3876,"is_reserved":false,"is_disabled":false,"rental_uris":{"android":"levelo://app?vid=c2e134cb-ee58-410e-8443-cdf3a592d767","ios":"levelo://app?vid=c2e134cb-ee58-410e-8443-cdf3a592d767"},"vehicle_type_id":"4","last_reported":1751274830,"current_range_meters":13600,"station_id":"","pricing_plan_id":"cebpf4jnsgd1na2vs0mg"},{"bike_id":"7dc148e5-fd7e-4677-bce3-55c94c6ee080","system_id":"levelo_inurba_marseille","lat":43.306793,"lon":5.409239,"is_reserved":false,"is_disabled":false,"rental_uris":{"android":"levelo://app?vid=7dc148e5-fd7e-4677-bce3-55c94c6ee080","ios":"levelo://app?vid=7dc148e5-fd7e-4677-bce3-55c94c6ee080"},"vehicle_type_id":"4","last_reported":1751274830,"current_range_meters":13600,"station_id":"","pricing_plan_id":"cebpf4jnsgd1na2vs0mg"},{"bike_id":"1bc8d273-d189-4bc7-be42-d44ecadca3c6","system_id":"levelo_inurba_marseille","lat":43.2903,"lon":5.37561,"is_reserved":false,"is_disabled":false,"rental_uris":{"android":"levelo://app?vid=1bc8d273-d189-4bc7-be42-d44ecadca3c6","ios":"levelo://app?vid=1bc8d273-d189-4bc7-be42-d44ecadca3c6"},"vehicle_type_id":"4","last_reported":1751274830,"current_range_meters":13600,"station_id":"ce4bh692rcd13ifvqe90","pricing_plan_id":"cebpf4jnsgd1na2vs0mg"},{"bike_id":"2a7d4522-b0dd-48c1-8653-7a6d0e58cc43","system_id":"levelo_inurba_marseille","lat":43.320803,"lon":5.401181,"is_reserved":false,"is_disabled":false,"rental_uris":{"android":"levelo://app?vid=2a7d4522-b0dd-48c1-8653-7a6d0e58cc43","ios":"levelo://app?vid=2a7d4522-b0dd-48c1-8653-7a6d0e58cc43"},"vehicle_type_id":"4","last_reported":1751274830,"current_range_meters":14000,"station_id":"","pricing_plan_id":"cebpf4jnsgd1na2vs0mg"},{"bike_id":"ba926bfc-9632-4680-b0ed-32a040d6fb83","system_id":"levelo_inurba_marseille","lat":43.211921,"lon":5.350748,"is_reserved":false,"is_disabled":false,"rental_uris":{"android":"levelo://app?vid=ba926bfc-9632-4680-b0ed-32a040d6fb83","ios":"levelo://app?vid=ba926bfc-9632-4680-b0ed-32a040d6fb83"},"vehicle_type_id":"4","last_reported":1751274830,"current_range_meters":14000,"station_id":"st_cvj6sg6p6f1abm77japg","pricing_plan_id":"cebpf4jnsgd1na2vs0mg"},{"bike_id":"5be1a4b5-3e1e-4bcd-9477-5aee0b89f062","system_id":"levelo_inurba_marseille","lat":43.2785,"lon":5.35445,"is_reserved":false,"is_disabled":false,"rental_uris":{"android":"levelo://app?vid=5be1a4b5-3e1e-4bcd-9477-5aee0b89f062","ios":"levelo://app?vid=5be1a4b5-3e1e-4bcd-9477-5aee0b89f062"},"vehicle_type_id":"4","last_reported":1751274830,"current_range_meters":14400,"station_id":"","pricing_plan_id":"cebpf4jnsgd1na2vs0mg"},{"bike_id":"6b352fdb-4980-452d-9441-954a1a4f7cc1","system_id":"levelo_inurba_marseille","lat":43.295827,"lon":5.374939,"is_reserved":false,"is_disabled":false,"rental_uris":{"android":"levelo://app?vid=6b352fdb-4980-452d-9441-954a1a4f7cc1","ios":"levelo://app?vid=6b352fdb-4980-452d-9441-954a1a4f7cc1"},"vehicle_type_id":"4","last_reported":1751274830,"current_range_meters":14400,"station_id":"ce4bgh92rcd13ifvqb50","pricing_plan_id":"cebpf4jnsgd1na2vs0mg"},{"bike_id":"533bfd79-8a10-4f9b-b73e-b23121fb6ef8","system_id":"levelo_inurba_marseille","lat":43.29537,"lon":5.37496,"is_reserved":false,"is_disabled":false,"rental_uris":{"android":"levelo://app?vid=533bfd79-8a10-4f9b-b73e-b23121fb6ef8","ios":"levelo://app?vid=533bfd79-8a10-4f9b-b73e-b23121fb6ef8"},"vehicle_type_id":"4","last_reported":1751274830,"current_range_meters":14400,"station_id":"ce4bgkp2rcd13ifvqbmg","pricing_plan_id":"cebpf4jnsgd1na2vs0mg"},{"bike_id":"0b5cda5b-6f81-4549-a623-4ee2c6a2f04a","system_id":"levelo_inurba_marseille","lat":43.3125,"lon":5.36846,"is_reserved":false,"is_disabled":false,"rental_uris":{"android":"levelo://app?vid=0b5cda5b-6f81-4549-a623-4ee2c6a2f04a","ios":"levelo://app?vid=0b5cda5b-6f81-4549-a623-4ee2c6a2f04a"},"vehicle_type_id":"4","last_reported":1751274830,"current_range_meters":14400,"station_id":"ce4bgl92rcd13ifvqbq0","pricing_plan_id":"cebpf4jnsgd1na2vs0mg"},{"bike_id":"46cb4290-bfeb-4658-b4b5-4a3b9a2af34c","system_id":"levelo_inurba_marseille","lat":43.2606,"lon":5.39402,"is_reserved":false,"is_disabled":false,"rental_uris":{"android":"levelo://app?vid=46cb4290-bfeb-4658-b4b5-4a3b9a2af34c","ios":"levelo://app?vid=46cb4290-bfeb-4658-b4b5-4a3b9a2af34c"},"vehicle_type_id":"4","last_reported":1751274830,"current_range_meters":14400,"station_id":"ce4bhh92rcd13ifvqfj0","pricing_plan_id":"cebpf4jnsgd1na2vs0mg"},{"bike_id":"bc9cd19a-4171-46af-9727-30eb29b38883","system_id":"levelo_inurba_marseille","lat":43.33609,"lon":5.41034,"is_reserved":false,"is_disabled":false,"rental_uris":{"android":"levelo://app?vid=bc9cd19a-4171-46af-9727-30eb29b38883","ios":"levelo://app?vid=bc9cd19a-4171-46af-9727-30eb29b38883"},"vehicle_type_id":"4","last_reported":1751274830,"current_range_meters":14400,"station_id":"ce4bhqh2rcd13ifvqhmg","pricing_plan_id":"cebpf4jnsgd1na2vs0mg"},{"bike_id":"ceb818d5-6a0e-45de-8d40-c9c1b19d5e60","system_id":"levelo_inurba_marseille","lat":43.32337,"lon":5.36726,"is_reserved":false,"is_disabled":false,"rental_uris":{"android":"levelo://app?vid=ceb818d5-6a0e-45de-8d40-c9c1b19d5e60","ios":"levelo://app?vid=ceb818d5-6a0e-45de-8d40-c9c1b19d5e60"},"vehicle_type_id":"4","last_reported":1751274830,"current_range_meters":14400,"station_id":"ce4bhsh2rcd13ifvqi2g","pricing_plan_id":"cebpf4jnsgd1na2vs0mg"},{"bike_id":"eaa01021-3fd8-4405-a287-c7502d10ea7e","system_id":"levelo_inurba_marseille","lat":43.21751,"lon":5.34597,"is_reserved":false,"is_disabled":false,"rental_uris":{"android":"levelo://app?vid=eaa01021-3fd8-4405-a287-c7502d10ea7e","ios":"levelo://app?vid=eaa01021-3fd8-4405-a287-c7502d10ea7e"},"vehicle_type_id":"4","last_reported":1751274830,"current_range_meters":14800,"station_id":"","pricing_plan_id":"cebpf4jnsgd1na2vs0mg"},{"bike_id":"698a4856-69ab-49ee-b6c2-5a6a51ef5c86","system_id":"levelo_inurba_marseille","lat":43.296272,"lon":5.371621,"is_reserved":false,"is_disabled":false,"rental_uris":{"android":"levelo://app?vid=698a4856-69ab-49ee-b6c2-5a6a51ef5c86","ios":"levelo://app?vid=698a4856-69ab-49ee-b6c2-5a6a51ef5c86"},"vehicle_type_id":"4","last_reported":1751274830,"current_range_meters":14800,"station_id":"","pricing_plan_id":"cebpf4jnsgd1na2vs0mg"},{"bike_id":"3eabe1e2-f9f5-41cb-a4ed-73ca7f909c5c","system_id":"levelo_inurba_marseille","lat":43.21208,"lon":5.35056,"is_reserved":false,"is_disabled":false,"rental_uris":{"android":"levelo://app?vid=3eabe1e2-f9f5-41cb-a4ed-73ca7f909c5c","ios":"levelo://app?vid=3eabe1e2-f9f5-41cb-a4ed-73ca7f909c5c"},"vehicle_type_id":"4","last_reported":1751274830,"current_range_meters":14800,"station_id":"st_cvj6sg6p6f1abm77japg","pricing_plan_id":"cebpf4jnsgd1na2vs0mg"},{"bike_id":"1ac664aa-f2a4-4b75-879f-dcb93272d133","system_id":"levelo_inurba_marseille","lat":43.320316,"lon":5.409404,"is_reserved":false,"is_disabled":false,"rental_uris":{"android":"levelo://app?vid=1ac664aa-f2a4-4b75-879f-dcb93272d133","ios":"levelo://app?vid=1ac664aa-f2a4-4b75-879f-dcb93272d133"},"vehicle_type_id":"4","last_reported":1751274830,"current_range_meters":15200,"station_id":"","pricing_plan_id":"cebpf4jnsgd1na2vs0mg"},{"bike_id":"46e1b6b0-2f4d-4911-91fb-81dddd2d5578","system_id":"levelo_inurba_marseille","lat":43.30539,"lon":5.36547,"is_reserved":false,"is_disabled":false,"rental_uris":{"android":"levelo://app?vid=46e1b6b0-2f4d-4911-91fb-81dddd2d5578","ios":"levelo://app?vid=46e1b6b0-2f4d-4911-91fb-81dddd2d5578"},"vehicle_type_id":"4","last_reported":1751274830,"current_range_meters":15200,"station_id":"ce4bgs12rcd13ifvqcag","pricing_plan_id":"cebpf4jnsgd1na2vs0mg"},{"bike_id":"f3291c68-c441-45bc-979c-3d6ac0230693","system_id":"levelo_inurba_marseille","lat":43.28422,"lon":5.34981,"is_reserved":false,"is_disabled":false,"rental_uris":{"android":"levelo://app?vid=f3291c68-c441-45bc-979c-3d6ac0230693","ios":"levelo://app?vid=f3291c68-c441-45bc-979c-3d6ac0230693"},"vehicle_type_id":"4","last_reported":1751274830,"current_range_meters":15200,"station_id":"ce4bhbh2rcd13ifvqepg","pricing_plan_id":"cebpf4jnsgd1na2vs0mg"},{"bike_id":"1522008c-40da-486d-bdf7-c9e216fa39c2","system_id":"levelo_inurba_marseille","lat":43.29303,"lon":5.37458,"is_reserved":false,"is_disabled":false,"rental_uris":{"android":"levelo://app?vid=1522008c-40da-486d-bdf7-c9e216fa39c2","ios":"levelo://app?vid=1522008c-40da-486d-bdf7-c9e216fa39c2"},"vehicle_type_id":"4","last_reported":1751274830,"current_range_meters":16000,"station_id":"ce4bgi12rcd13ifvqb70","pricing_plan_id":"cebpf4jnsgd1na2vs0mg"},{"bike_id":"b6941871-17ec-4dc8-9dbe-bf1e08f324ad","system_id":"levelo_inurba_marseille","lat":43.31218,"lon":5.36827,"is_reserved":false,"is_disabled":false,"rental_uris":{"android":"levelo://app?vid=b6941871-17ec-4dc8-9dbe-bf1e08f324ad","ios":"levelo://app?vid=b6941871-17ec-4dc8-9dbe-bf1e08f324ad"},"vehicle_type_id":"4","last_reported":1751274830,"current_range_meters":16000,"station_id":"ce4bgl92rcd13ifvqbq0","pricing_plan_id":"cebpf4jnsgd1na2vs0mg"},{"bike_id":"2edde692-b16f-449d-bc2e-e4fe98540a42","system_id":"levelo_inurba_marseille","lat":43.28418,"lon":5.34976,"is_reserved":false,"is_disabled":false,"rental_uris":{"android":"levelo://app?vid=2edde692-b16f-449d-bc2e-e4fe98540a42","ios":"levelo://app?vid=2edde692-b16f-449d-bc2e-e4fe98540a42"},"vehicle_type_id":"4","last_reported":1751274830,"current_range_meters":16000,"station_id":"ce4bhbh2rcd13ifvqepg","pricing_plan_id":"cebpf4jnsgd1na2vs0mg"},{"bike_id":"ed04a1b8-7ed9-4134-8457-ec8a436b5623","system_id":"levelo_inurba_marseille","lat":43.28408,"lon":5.34986,"is_reserved":false,"is_disabled":false,"rental_uris":{"android":"levelo://app?vid=ed04a1b8-7ed9-4134-8457-ec8a436b5623","ios":"levelo://app?vid=ed04a1b8-7ed9-4134-8457-ec8a436b5623"},"vehicle_type_id":"4","last_reported":1751274830,"current_range_meters":16000,"station_id":"ce4bhbh2rcd13ifvqepg","pricing_plan_id":"cebpf4jnsgd1na2vs0mg"},{"bike_id":"439b060c-1ed3-4dc0-aba8-51e0b7ea3d34","system_id":"levelo_inurba_marseille","lat":43.25939,"lon":5.40907,"is_reserved":false,"is_disabled":false,"rental_uris":{"android":"levelo://app?vid=439b060c-1ed3-4dc0-aba8-51e0b7ea3d34","ios":"levelo://app?vid=439b060c-1ed3-4dc0-aba8-51e0b7ea3d34"},"vehicle_type_id":"4","last_reported":1751274830,"current_range_meters":16000,"station_id":"ce4bhm92rcd13ifvqglg","pricing_plan_id":"cebpf4jnsgd1na2vs0mg"},{"bike_id":"2dfc2b30-a17a-478e-b56b-b42184c2777d","system_id":"levelo_inurba_marseille","lat":43.27493,"lon":5.42443,"is_reserved":false,"is_disabled":false,"rental_uris":{"android":"levelo://app?vid=2dfc2b30-a17a-478e-b56b-b42184c2777d","ios":"levelo://app?vid=2dfc2b30-a17a-478e-b56b-b42184c2777d"},"vehicle_type_id":"4","last_reported":1751274830,"current_range_meters":16000,"station_id":"ce4bhn92rcd13ifvqgrg","pricing_plan_id":"cebpf4jnsgd1na2vs0mg"},{"bike_id":"6b04a8db-f012-4ea9-88f5-d59ff3f24fd9","system_id":"levelo_inurba_marseille","lat":43.29888,"lon":5.43686,"is_reserved":false,"is_disabled":false,"rental_uris":{"android":"levelo://app?vid=6b04a8db-f012-4ea9-88f5-d59ff3f24fd9","ios":"levelo://app?vid=6b04a8db-f012-4ea9-88f5-d59ff3f24fd9"},"vehicle_type_id":"4","last_reported":1751274830,"current_range_meters":16000,"station_id":"ce4bhpp2rcd13ifvqhfg","pricing_plan_id":"cebpf4jnsgd1na2vs0mg"},{"bike_id":"4e47abe4-6598-4756-807d-26ba558e3c39","system_id":"levelo_inurba_marseille","lat":43.299023,"lon":5.436673,"is_reserved":false,"is_disabled":false,"rental_uris":{"android":"levelo://app?vid=4e47abe4-6598-4756-807d-26ba558e3c39","ios":"levelo://app?vid=4e47abe4-6598-4756-807d-26ba558e3c39"},"vehicle_type_id":"4","last_reported":1751274830,"current_range_meters":16000,"station_id":"ce4bhpp2rcd13ifvqhfg","pricing_plan_id":"cebpf4jnsgd1na2vs0mg"},{"bike_id":"ad9a1bf3-7423-4a3f-b7d3-23958e3dbc15","system_id":"levelo_inurba_marseille","lat":43.30916,"lon":5.37811,"is_reserved":false,"is_disabled":false,"rental_uris":{"android":"levelo://app?vid=ad9a1bf3-7423-4a3f-b7d3-23958e3dbc15","ios":"levelo://app?vid=ad9a1bf3-7423-4a3f-b7d3-23958e3dbc15"},"vehicle_type_id":"4","last_reported":1751274830,"current_range_meters":16400,"station_id":"","pricing_plan_id":"cebpf4jnsgd1na2vs0mg"},{"bike_id":"c75076b9-1dcd-42a9-b93f-431947f50d40","system_id":"levelo_inurba_marseille","lat":43.270565,"lon":5.402578,"is_reserved":false,"is_disabled":false,"rental_uris":{"android":"levelo://app?vid=c75076b9-1dcd-42a9-b93f-431947f50d40","ios":"levelo://app?vid=c75076b9-1dcd-42a9-b93f-431947f50d40"},"vehicle_type_id":"4","last_reported":1751274830,"current_range_meters":16400,"station_id":"ce4bhk92rcd13ifvqgc0","pricing_plan_id":"cebpf4jnsgd1na2vs0mg"},{"bike_id":"8ab9688c-f291-497b-8159-452ea4d239c9","system_id":"levelo_inurba_marseille","lat":43.29793,"lon":5.39347,"is_reserved":false,"is_disabled":false,"rental_uris":{"android":"levelo://app?vid=8ab9688c-f291-497b-8159-452ea4d239c9","ios":"levelo://app?vid=8ab9688c-f291-497b-8159-452ea4d239c9"},"vehicle_type_id":"4","last_reported":1751274830,"current_range_meters":16400,"station_id":"chh1huq6cuj3fo74tm60","pricing_plan_id":"cebpf4jnsgd1na2vs0mg"},{"bike_id":"4f97e136-2006-43b5-84b8-8ce28f4647e9","system_id":"levelo_inurba_marseille","lat":43.211894,"lon":5.350698,"is_reserved":false,"is_disabled":false,"rental_uris":{"android":"levelo://app?vid=4f97e136-2006-43b5-84b8-8ce28f4647e9","ios":"levelo://app?vid=4f97e136-2006-43b5-84b8-8ce28f4647e9"},"vehicle_type_id":"4","last_reported":1751274830,"current_range_meters":16400,"station_id":"st_cvj6sg6p6f1abm77japg","pricing_plan_id":"cebpf4jnsgd1na2vs0mg"},{"bike_id":"8ceb2860-ca09-420a-8aab-fcf0c529a0d3","system_id":"levelo_inurba_marseille","lat":43.211882,"lon":5.350715,"is_reserved":false,"is_disabled":false,"rental_uris":{"android":"levelo://app?vid=8ceb2860-ca09-420a-8aab-fcf0c529a0d3","ios":"levelo://app?vid=8ceb2860-ca09-420a-8aab-fcf0c529a0d3"},"vehicle_type_id":"4","last_reported":1751274830,"current_range_meters":16400,"station_id":"st_cvj6sg6p6f1abm77japg","pricing_plan_id":"cebpf4jnsgd1na2vs0mg"},{"bike_id":"eddb7b61-8908-43a8-8ec5-ffd381a67532","system_id":"levelo_inurba_marseille","lat":43.31269,"lon":5.40168,"is_reserved":false,"is_disabled":false,"rental_uris":{"android":"levelo://app?vid=eddb7b61-8908-43a8-8ec5-ffd381a67532","ios":"levelo://app?vid=eddb7b61-8908-43a8-8ec5-ffd381a67532"},"vehicle_type_id":"4","last_reported":1751274830,"current_range_meters":16800,"station_id":"ce4bh092rcd13ifvqd30","pricing_plan_id":"cebpf4jnsgd1na2vs0mg"},{"bike_id":"9f1a592c-1096-463e-9f87-57aa94f7d4de","system_id":"levelo_inurba_marseille","lat":43.2319,"lon":5.39987,"is_reserved":false,"is_disabled":false,"rental_uris":{"android":"levelo://app?vid=9f1a592c-1096-463e-9f87-57aa94f7d4de","ios":"levelo://app?vid=9f1a592c-1096-463e-9f87-57aa94f7d4de"},"vehicle_type_id":"4","last_reported":1751274830,"current_range_meters":16800,"station_id":"ce4bhn12rcd13ifvqgqg","pricing_plan_id":"cebpf4jnsgd1na2vs0mg"},{"bike_id":"d8facb10-b967-4a32-9b5c-8cfed4bbd05b","system_id":"levelo_inurba_marseille","lat":43.32109,"lon":5.36768,"is_reserved":false,"is_disabled":false,"rental_uris":{"android":"levelo://app?vid=d8facb10-b967-4a32-9b5c-8cfed4bbd05b","ios":"levelo://app?vid=d8facb10-b967-4a32-9b5c-8cfed4bbd05b"},"vehicle_type_id":"4","last_reported":1751274830,"current_range_meters":16800,"station_id":"ce4bhrh2rcd13ifvqhug","pricing_plan_id":"cebpf4jnsgd1na2vs0mg"},{"bike_id":"27de128b-79d6-4ae4-99ba-8537bd95d5a2","system_id":"levelo_inurba_marseille","lat":43.325026,"lon":5.365512,"is_reserved":false,"is_disabled":false,"rental_uris":{"android":"levelo://app?vid=27de128b-79d6-4ae4-99ba-8537bd95d5a2","ios":"levelo://app?vid=27de128b-79d6-4ae4-99ba-8537bd95d5a2"},"vehicle_type_id":"4","last_reported":1751274830,"current_range_meters":16800,"station_id":"ce4bhs12rcd13ifvqhvg","pricing_plan_id":"cebpf4jnsgd1na2vs0mg"},{"bike_id":"f543a401-db68-42b3-bedf-89a51f8b31f5","system_id":"levelo_inurba_marseille","lat":43.22924,"lon":5.353758,"is_reserved":false,"is_disabled":false,"rental_uris":{"android":"levelo://app?vid=f543a401-db68-42b3-bedf-89a51f8b31f5","ios":"levelo://app?vid=f543a401-db68-42b3-bedf-89a51f8b31f5"},"vehicle_type_id":"4","last_reported":1751274830,"current_range_meters":16800,"station_id":"cpo3532slgdg3j2ikp40","pricing_plan_id":"cebpf4jnsgd1na2vs0mg"},{"bike_id":"036d89bb-7350-4239-99d4-2504abc8fb7a","system_id":"levelo_inurba_marseille","lat":43.29853,"lon":5.36271,"is_reserved":false,"is_disabled":false,"rental_uris":{"android":"levelo://app?vid=036d89bb-7350-4239-99d4-2504abc8fb7a","ios":"levelo://app?vid=036d89bb-7350-4239-99d4-2504abc8fb7a"},"vehicle_type_id":"4","last_reported":1751274830,"current_range_meters":17200,"station_id":"ce4bgpp2rcd13ifvqc3g","pricing_plan_id":"cebpf4jnsgd1na2vs0mg"},{"bike_id":"87c67b74-c5de-4f4d-b2ee-8fb12e46a4fb","system_id":"levelo_inurba_marseille","lat":43.30541,"lon":5.36688,"is_reserved":false,"is_disabled":false,"rental_uris":{"android":"levelo://app?vid=87c67b74-c5de-4f4d-b2ee-8fb12e46a4fb","ios":"levelo://app?vid=87c67b74-c5de-4f4d-b2ee-8fb12e46a4fb"},"vehicle_type_id":"4","last_reported":1751274830,"current_range_meters":17200,"station_id":"ce4bgrp2rcd13ifvqc9g","pricing_plan_id":"cebpf4jnsgd1na2vs0mg"},{"bike_id":"66c549b3-1234-40a6-8840-15e46d0d228d","system_id":"levelo_inurba_marseille","lat":43.30133,"lon":5.39874,"is_reserved":false,"is_disabled":false,"rental_uris":{"android":"levelo://app?vid=66c549b3-1234-40a6-8840-15e46d0d228d","ios":"levelo://app?vid=66c549b3-1234-40a6-8840-15e46d0d228d"},"vehicle_type_id":"4","last_reported":1751274830,"current_range_meters":17200,"station_id":"ce4bh0h2rcd13ifvqd40","pricing_plan_id":"cebpf4jnsgd1na2vs0mg"},{"bike_id":"c952edc2-b1c4-4bc2-9d1a-700604f0d359","system_id":"levelo_inurba_marseille","lat":43.30092,"lon":5.39093,"is_reserved":false,"is_disabled":false,"rental_uris":{"android":"levelo://app?vid=c952edc2-b1c4-4bc2-9d1a-700604f0d359","ios":"levelo://app?vid=c952edc2-b1c4-4bc2-9d1a-700604f0d359"},"vehicle_type_id":"4","last_reported":1751274830,"current_range_meters":17200,"station_id":"ce4bh192rcd13ifvqdb0","pricing_plan_id":"cebpf4jnsgd1na2vs0mg"},{"bike_id":"de5b787a-ab4f-4c24-af26-40dc2f8d9443","system_id":"levelo_inurba_marseille","lat":43.28367,"lon":5.38633,"is_reserved":false,"is_disabled":false,"rental_uris":{"android":"levelo://app?vid=de5b787a-ab4f-4c24-af26-40dc2f8d9443","ios":"levelo://app?vid=de5b787a-ab4f-4c24-af26-40dc2f8d9443"},"vehicle_type_id":"4","last_reported":1751274830,"current_range_meters":17200,"station_id":"ce4bh492rcd13ifvqdvg","pricing_plan_id":"cebpf4jnsgd1na2vs0mg"},{"bike_id":"501c76d6-1184-4721-aab9-b1f3c28ea9ee","system_id":"levelo_inurba_marseille","lat":43.28495,"lon":5.38439,"is_reserved":false,"is_disabled":false,"rental_uris":{"android":"levelo://app?vid=501c76d6-1184-4721-aab9-b1f3c28ea9ee","ios":"levelo://app?vid=501c76d6-1184-4721-aab9-b1f3c28ea9ee"},"vehicle_type_id":"4","last_reported":1751274830,"current_range_meters":17200,"station_id":"ce4bh512rcd13ifvqe3g","pricing_plan_id":"cebpf4jnsgd1na2vs0mg"},{"bike_id":"e74ddc8b-4442-4f27-9810-73f7f777f659","system_id":"levelo_inurba_marseille","lat":43.284729,"lon":5.384092,"is_reserved":false,"is_disabled":false,"rental_uris":{"android":"levelo://app?vid=e74ddc8b-4442-4f27-9810-73f7f777f659","ios":"levelo://app?vid=e74ddc8b-4442-4f27-9810-73f7f777f659"},"vehicle_type_id":"4","last_reported":1751274830,"current_range_meters":17200,"station_id":"ce4bh512rcd13ifvqe3g","pricing_plan_id":"cebpf4jnsgd1na2vs0mg"},{"bike_id":"f3294c4c-ecc3-4b5b-821e-f7dd194a6605","system_id":"levelo_inurba_marseille","lat":43.24548,"lon":5.39537,"is_reserved":false,"is_disabled":false,"rental_uris":{"android":"levelo://app?vid=f3294c4c-ecc3-4b5b-821e-f7dd194a6605","ios":"levelo://app?vid=f3294c4c-ecc3-4b5b-821e-f7dd194a6605"},"vehicle_type_id":"4","last_reported":1751274830,"current_range_meters":17200,"station_id":"ce4bhlp2rcd13ifvqgjg","pricing_plan_id":"cebpf4jnsgd1na2vs0mg"},{"bike_id":"dac5eb1b-678e-44b8-b2b0-141283970fe1","system_id":"levelo_inurba_marseille","lat":43.2119,"lon":5.35073,"is_reserved":false,"is_disabled":false,"rental_uris":{"android":"levelo://app?vid=dac5eb1b-678e-44b8-b2b0-141283970fe1","ios":"levelo://app?vid=dac5eb1b-678e-44b8-b2b0-141283970fe1"},"vehicle_type_id":"4","last_reported":1751274830,"current_range_meters":17200,"station_id":"st_cvj6sg6p6f1abm77japg","pricing_plan_id":"cebpf4jnsgd1na2vs0mg"},{"bike_id":"b8ff0f4e-fafe-4e1c-b1ca-de0a847ad3ff","system_id":"levelo_inurba_marseille","lat":43.29027,"lon":5.37566,"is_reserved":false,"is_disabled":false,"rental_uris":{"android":"levelo://app?vid=b8ff0f4e-fafe-4e1c-b1ca-de0a847ad3ff","ios":"levelo://app?vid=b8ff0f4e-fafe-4e1c-b1ca-de0a847ad3ff"},"vehicle_type_id":"4","last_reported":1751274830,"current_range_meters":17600,"station_id":"","pricing_plan_id":"cebpf4jnsgd1na2vs0mg"},{"bike_id":"046e6bd8-7988-486f-affb-0a726c6f703f","system_id":"levelo_inurba_marseille","lat":43.31797,"lon":5.38066,"is_reserved":false,"is_disabled":false,"rental_uris":{"android":"levelo://app?vid=046e6bd8-7988-486f-affb-0a726c6f703f","ios":"levelo://app?vid=046e6bd8-7988-486f-affb-0a726c6f703f"},"vehicle_type_id":"4","last_reported":1751274830,"current_range_meters":17600,"station_id":"","pricing_plan_id":"cebpf4jnsgd1na2vs0mg"},{"bike_id":"d91d2633-472c-4a81-ac98-20118462d9aa","system_id":"levelo_inurba_marseille","lat":43.25928,"lon":5.40913,"is_reserved":false,"is_disabled":false,"rental_uris":{"android":"levelo://app?vid=d91d2633-472c-4a81-ac98-20118462d9aa","ios":"levelo://app?vid=d91d2633-472c-4a81-ac98-20118462d9aa"},"vehicle_type_id":"4","last_reported":1751274830,"current_range_meters":17600,"station_id":"ce4bhm92rcd13ifvqglg","pricing_plan_id":"cebpf4jnsgd1na2vs0mg"},{"bike_id":"a0ff60c1-31e3-43d7-9de9-1c700208c307","system_id":"levelo_inurba_marseille","lat":43.2315,"lon":5.43723,"is_reserved":false,"is_disabled":false,"rental_uris":{"android":"levelo://app?vid=a0ff60c1-31e3-43d7-9de9-1c700208c307","ios":"levelo://app?vid=a0ff60c1-31e3-43d7-9de9-1c700208c307"},"vehicle_type_id":"4","last_reported":1751274830,"current_range_meters":17600,"station_id":"ce4bhmp2rcd13ifvqgog","pricing_plan_id":"cebpf4jnsgd1na2vs0mg"},{"bike_id":"7def622c-1243-44da-af36-4c505b4f00ba","system_id":"levelo_inurba_marseille","lat":43.241797,"lon":5.397263,"is_reserved":false,"is_disabled":false,"rental_uris":{"android":"levelo://app?vid=7def622c-1243-44da-af36-4c505b4f00ba","ios":"levelo://app?vid=7def622c-1243-44da-af36-4c505b4f00ba"},"vehicle_type_id":"4","last_reported":1751274830,"current_range_meters":17600,"station_id":"ce4bhn12rcd13ifvqgpg","pricing_plan_id":"cebpf4jnsgd1na2vs0mg"},{"bike_id":"d90daeb2-baa5-4f84-8ba2-ffc1dcd4b96b","system_id":"levelo_inurba_marseille","lat":43.24165,"lon":5.36407,"is_reserved":false,"is_disabled":false,"rental_uris":{"android":"levelo://app?vid=d90daeb2-baa5-4f84-8ba2-ffc1dcd4b96b","ios":"levelo://app?vid=d90daeb2-baa5-4f84-8ba2-ffc1dcd4b96b"},"vehicle_type_id":"4","last_reported":1751274830,"current_range_meters":17600,"station_id":"cpo36qri1sfpv3e86is0","pricing_plan_id":"cebpf4jnsgd1na2vs0mg"},{"bike_id":"048ec6e9-5fd9-4256-ae6a-a72856ab2acf","system_id":"levelo_inurba_marseille","lat":43.21191,"lon":5.35073,"is_reserved":false,"is_disabled":false,"rental_uris":{"android":"levelo://app?vid=048ec6e9-5fd9-4256-ae6a-a72856ab2acf","ios":"levelo://app?vid=048ec6e9-5fd9-4256-ae6a-a72856ab2acf"},"vehicle_type_id":"4","last_reported":1751274830,"current_range_meters":17600,"station_id":"st_cvj6sg6p6f1abm77japg","pricing_plan_id":"cebpf4jnsgd1na2vs0mg"},{"bike_id":"d5da5bd9-7c2a-48e5-92aa-fa21076cad13","system_id":"levelo_inurba_marseille","lat":43.21188,"lon":5.35069,"is_reserved":false,"is_disabled":false,"rental_uris":{"android":"levelo://app?vid=d5da5bd9-7c2a-48e5-92aa-fa21076cad13","ios":"levelo://app?vid=d5da5bd9-7c2a-48e5-92aa-fa21076cad13"},"vehicle_type_id":"4","last_reported":1751274830,"current_range_meters":17600,"station_id":"st_cvj6sg6p6f1abm77japg","pricing_plan_id":"cebpf4jnsgd1na2vs0mg"},{"bike_id":"0fe4fb34-323e-408e-888e-fc41d58bbecb","system_id":"levelo_inurba_marseille","lat":43.270548,"lon":5.40262,"is_reserved":false,"is_disabled":false,"rental_uris":{"android":"levelo://app?vid=0fe4fb34-323e-408e-888e-fc41d58bbecb","ios":"levelo://app?vid=0fe4fb34-323e-408e-888e-fc41d58bbecb"},"vehicle_type_id":"4","last_reported":1751274830,"current_range_meters":18000,"station_id":"ce4bhk92rcd13ifvqgc0","pricing_plan_id":"cebpf4jnsgd1na2vs0mg"},{"bike_id":"e552832c-7ca2-4106-b0f9-92bbabda27d1","system_id":"levelo_inurba_marseille","lat":43.2119,"lon":5.35068,"is_reserved":false,"is_disabled":false,"rental_uris":{"android":"levelo://app?vid=e552832c-7ca2-4106-b0f9-92bbabda27d1","ios":"levelo://app?vid=e552832c-7ca2-4106-b0f9-92bbabda27d1"},"vehicle_type_id":"4","last_reported":1751274830,"current_range_meters":18000,"station_id":"st_cvj6sg6p6f1abm77japg","pricing_plan_id":"cebpf4jnsgd1na2vs0mg"},{"bike_id":"b13877a6-4825-4d82-b46b-67fa8ad66c5d","system_id":"levelo_inurba_marseille","lat":43.21192,"lon":5.3506,"is_reserved":false,"is_disabled":false,"rental_uris":{"android":"levelo://app?vid=b13877a6-4825-4d82-b46b-67fa8ad66c5d","ios":"levelo://app?vid=b13877a6-4825-4d82-b46b-67fa8ad66c5d"},"vehicle_type_id":"4","last_reported":1751274830,"current_range_meters":18000,"station_id":"st_cvj6sg6p6f1abm77japg","pricing_plan_id":"cebpf4jnsgd1na2vs0mg"},{"bike_id":"fa16bbec-3211-49bd-a8b0-90a3ace4afe6","system_id":"levelo_inurba_marseille","lat":43.316181,"lon":5.384696,"is_reserved":false,"is_disabled":false,"rental_uris":{"android":"levelo://app?vid=fa16bbec-3211-49bd-a8b0-90a3ace4afe6","ios":"levelo://app?vid=fa16bbec-3211-49bd-a8b0-90a3ace4afe6"},"vehicle_type_id":"4","last_reported":1751274830,"current_range_meters":18800,"station_id":"","pricing_plan_id":"cebpf4jnsgd1na2vs0mg"},{"bike_id":"e891d413-f511-44d4-9ddd-90f57509289b","system_id":"levelo_inurba_marseille","lat":43.3157,"lon":5.36719,"is_reserved":false,"is_disabled":false,"rental_uris":{"android":"levelo://app?vid=e891d413-f511-44d4-9ddd-90f57509289b","ios":"levelo://app?vid=e891d413-f511-44d4-9ddd-90f57509289b"},"vehicle_type_id":"4","last_reported":1751274830,"current_range_meters":18800,"station_id":"","pricing_plan_id":"cebpf4jnsgd1na2vs0mg"},{"bike_id":"0da97725-d656-430e-82c0-80aeb7c9f8a2","system_id":"levelo_inurba_marseille","lat":43.31209,"lon":5.36838,"is_reserved":false,"is_disabled":false,"rental_uris":{"android":"levelo://app?vid=0da97725-d656-430e-82c0-80aeb7c9f8a2","ios":"levelo://app?vid=0da97725-d656-430e-82c0-80aeb7c9f8a2"},"vehicle_type_id":"4","last_reported":1751274830,"current_range_meters":18800,"station_id":"ce4bgl92rcd13ifvqbq0","pricing_plan_id":"cebpf4jnsgd1na2vs0mg"},{"bike_id":"1c1e0436-c990-4c38-b11e-d6968f287975","system_id":"levelo_inurba_marseille","lat":43.29568,"lon":5.36743,"is_reserved":false,"is_disabled":false,"rental_uris":{"android":"levelo://app?vid=1c1e0436-c990-4c38-b11e-d6968f287975","ios":"levelo://app?vid=1c1e0436-c990-4c38-b11e-d6968f287975"},"vehicle_type_id":"4","last_reported":1751274830,"current_range_meters":18800,"station_id":"ce4bgph2rcd13ifvqc2g","pricing_plan_id":"cebpf4jnsgd1na2vs0mg"},{"bike_id":"c2b72fe0-bae6-4c7b-ad48-9e771b203dc8","system_id":"levelo_inurba_marseille","lat":43.313568,"lon":5.384609,"is_reserved":false,"is_disabled":false,"rental_uris":{"android":"levelo://app?vid=c2b72fe0-bae6-4c7b-ad48-9e771b203dc8","ios":"levelo://app?vid=c2b72fe0-bae6-4c7b-ad48-9e771b203dc8"},"vehicle_type_id":"4","last_reported":1751274830,"current_range_meters":18800,"station_id":"ce4bgt92rcd13ifvqcf0","pricing_plan_id":"cebpf4jnsgd1na2vs0mg"},{"bike_id":"d58d797b-6bc7-42ef-89b7-f2a031d4f61a","system_id":"levelo_inurba_marseille","lat":43.28843,"lon":5.35827,"is_reserved":false,"is_disabled":false,"rental_uris":{"android":"levelo://app?vid=d58d797b-6bc7-42ef-89b7-f2a031d4f61a","ios":"levelo://app?vid=d58d797b-6bc7-42ef-89b7-f2a031d4f61a"},"vehicle_type_id":"4","last_reported":1751274830,"current_range_meters":18800,"station_id":"ce4bhb12rcd13ifvqem0","pricing_plan_id":"cebpf4jnsgd1na2vs0mg"},{"bike_id":"714e81cc-0a88-4f76-a904-b1c3a28974fe","system_id":"levelo_inurba_marseille","lat":43.28616,"lon":5.35104,"is_reserved":false,"is_disabled":false,"rental_uris":{"android":"levelo://app?vid=714e81cc-0a88-4f76-a904-b1c3a28974fe","ios":"levelo://app?vid=714e81cc-0a88-4f76-a904-b1c3a28974fe"},"vehicle_type_id":"4","last_reported":1751274830,"current_range_meters":18800,"station_id":"ce4bhch2rcd13ifvqeug","pricing_plan_id":"cebpf4jnsgd1na2vs0mg"},{"bike_id":"e5d3d4ac-f533-499e-8910-bb8c63247b52","system_id":"levelo_inurba_marseille","lat":43.26681,"lon":5.38271,"is_reserved":false,"is_disabled":false,"rental_uris":{"android":"levelo://app?vid=e5d3d4ac-f533-499e-8910-bb8c63247b52","ios":"levelo://app?vid=e5d3d4ac-f533-499e-8910-bb8c63247b52"},"vehicle_type_id":"4","last_reported":1751274830,"current_range_meters":18800,"station_id":"ce4bhg92rcd13ifvqf90","pricing_plan_id":"cebpf4jnsgd1na2vs0mg"},{"bike_id":"e01419d7-8f44-4040-82d4-ead02b262976","system_id":"levelo_inurba_marseille","lat":43.26199,"lon":5.37447,"is_reserved":false,"is_disabled":false,"rental_uris":{"android":"levelo://app?vid=e01419d7-8f44-4040-82d4-ead02b262976","ios":"levelo://app?vid=e01419d7-8f44-4040-82d4-ead02b262976"},"vehicle_type_id":"4","last_reported":1751274830,"current_range_meters":18800,"station_id":"ce4bhgp2rcd13ifvqfc0","pricing_plan_id":"cebpf4jnsgd1na2vs0mg"},{"bike_id":"e6441f04-1266-462e-ae33-bd9d7823cf17","system_id":"levelo_inurba_marseille","lat":43.24665,"lon":5.38154,"is_reserved":false,"is_disabled":false,"rental_uris":{"android":"levelo://app?vid=e6441f04-1266-462e-ae33-bd9d7823cf17","ios":"levelo://app?vid=e6441f04-1266-462e-ae33-bd9d7823cf17"},"vehicle_type_id":"4","last_reported":1751274830,"current_range_meters":18800,"station_id":"ce4bhih2rcd13ifvqfr0","pricing_plan_id":"cebpf4jnsgd1na2vs0mg"},{"bike_id":"a77abce9-c93f-4943-8889-d76aaaa3f08d","system_id":"levelo_inurba_marseille","lat":43.23152,"lon":5.43708,"is_reserved":false,"is_disabled":false,"rental_uris":{"android":"levelo://app?vid=a77abce9-c93f-4943-8889-d76aaaa3f08d","ios":"levelo://app?vid=a77abce9-c93f-4943-8889-d76aaaa3f08d"},"vehicle_type_id":"4","last_reported":1751274830,"current_range_meters":18800,"station_id":"ce4bhmp2rcd13ifvqgog","pricing_plan_id":"cebpf4jnsgd1na2vs0mg"},{"bike_id":"0d8c8846-4426-467e-92e2-02c9b44a33f2","system_id":"levelo_inurba_marseille","lat":43.24179,"lon":5.39726,"is_reserved":false,"is_disabled":false,"rental_uris":{"android":"levelo://app?vid=0d8c8846-4426-467e-92e2-02c9b44a33f2","ios":"levelo://app?vid=0d8c8846-4426-467e-92e2-02c9b44a33f2"},"vehicle_type_id":"4","last_reported":1751274830,"current_range_meters":18800,"station_id":"ce4bhn12rcd13ifvqgpg","pricing_plan_id":"cebpf4jnsgd1na2vs0mg"},{"bike_id":"6248a3ef-766e-45da-9351-45f0df09d787","system_id":"levelo_inurba_marseille","lat":43.33729,"lon":5.39179,"is_reserved":false,"is_disabled":false,"rental_uris":{"android":"levelo://app?vid=6248a3ef-766e-45da-9351-45f0df09d787","ios":"levelo://app?vid=6248a3ef-766e-45da-9351-45f0df09d787"},"vehicle_type_id":"4","last_reported":1751274830,"current_range_meters":18800,"station_id":"ce4bhr92rcd13ifvqhsg","pricing_plan_id":"cebpf4jnsgd1na2vs0mg"},{"bike_id":"0d839b5e-baaf-4b32-8658-bb0d20744629","system_id":"levelo_inurba_marseille","lat":43.21181,"lon":5.35074,"is_reserved":false,"is_disabled":false,"rental_uris":{"android":"levelo://app?vid=0d839b5e-baaf-4b32-8658-bb0d20744629","ios":"levelo://app?vid=0d839b5e-baaf-4b32-8658-bb0d20744629"},"vehicle_type_id":"4","last_reported":1751274830,"current_range_meters":18800,"station_id":"st_cvj6sg6p6f1abm77japg","pricing_plan_id":"cebpf4jnsgd1na2vs0mg"},{"bike_id":"fb51f881-f33f-4e2d-8477-3806506721b2","system_id":"levelo_inurba_marseille","lat":43.2986,"lon":5.36275,"is_reserved":false,"is_disabled":false,"rental_uris":{"android":"levelo://app?vid=fb51f881-f33f-4e2d-8477-3806506721b2","ios":"levelo://app?vid=fb51f881-f33f-4e2d-8477-3806506721b2"},"vehicle_type_id":"4","last_reported":1751274830,"current_range_meters":19200,"station_id":"ce4bgpp2rcd13ifvqc3g","pricing_plan_id":"cebpf4jnsgd1na2vs0mg"},{"bike_id":"e25ba395-2bc9-44d2-8b95-073fe9e7fe66","system_id":"levelo_inurba_marseille","lat":43.28613,"lon":5.35106,"is_reserved":false,"is_disabled":false,"rental_uris":{"android":"levelo://app?vid=e25ba395-2bc9-44d2-8b95-073fe9e7fe66","ios":"levelo://app?vid=e25ba395-2bc9-44d2-8b95-073fe9e7fe66"},"vehicle_type_id":"4","last_reported":1751274830,"current_range_meters":19200,"station_id":"ce4bhch2rcd13ifvqeug","pricing_plan_id":"cebpf4jnsgd1na2vs0mg"},{"bike_id":"352380ee-ad43-4641-b75a-8ca6767ae9f1","system_id":"levelo_inurba_marseille","lat":43.298983,"lon":5.436649,"is_reserved":false,"is_disabled":false,"rental_uris":{"android":"levelo://app?vid=352380ee-ad43-4641-b75a-8ca6767ae9f1","ios":"levelo://app?vid=352380ee-ad43-4641-b75a-8ca6767ae9f1"},"vehicle_type_id":"4","last_reported":1751274830,"current_range_meters":19200,"station_id":"ce4bhpp2rcd13ifvqhfg","pricing_plan_id":"cebpf4jnsgd1na2vs0mg"},{"bike_id":"ec59dc73-efec-49fb-a623-8c210bcd8f9c","system_id":"levelo_inurba_marseille","lat":43.21756,"lon":5.34597,"is_reserved":false,"is_disabled":false,"rental_uris":{"android":"levelo://app?vid=ec59dc73-efec-49fb-a623-8c210bcd8f9c","ios":"levelo://app?vid=ec59dc73-efec-49fb-a623-8c210bcd8f9c"},"vehicle_type_id":"4","last_reported":1751274830,"current_range_meters":19200,"station_id":"st_cvj6r9ubvosntc0bgbag","pricing_plan_id":"cebpf4jnsgd1na2vs0mg"},{"bike_id":"f603f3aa-5bf7-4a19-a8a1-b47909f854c7","system_id":"levelo_inurba_marseille","lat":43.21185,"lon":5.35078,"is_reserved":false,"is_disabled":false,"rental_uris":{"android":"levelo://app?vid=f603f3aa-5bf7-4a19-a8a1-b47909f854c7","ios":"levelo://app?vid=f603f3aa-5bf7-4a19-a8a1-b47909f854c7"},"vehicle_type_id":"4","last_reported":1751274830,"current_range_meters":19200,"station_id":"st_cvj6sg6p6f1abm77japg","pricing_plan_id":"cebpf4jnsgd1na2vs0mg"},{"bike_id":"3cc78f9c-82e0-4494-a4f5-e0818813f5e1","system_id":"levelo_inurba_marseille","lat":43.29529,"lon":5.37496,"is_reserved":false,"is_disabled":false,"rental_uris":{"android":"levelo://app?vid=3cc78f9c-82e0-4494-a4f5-e0818813f5e1","ios":"levelo://app?vid=3cc78f9c-82e0-4494-a4f5-e0818813f5e1"},"vehicle_type_id":"4","last_reported":1751274830,"current_range_meters":19600,"station_id":"ce4bgkp2rcd13ifvqbmg","pricing_plan_id":"cebpf4jnsgd1na2vs0mg"},{"bike_id":"0bee8496-de04-444f-924d-eff6f1b842d3","system_id":"levelo_inurba_marseille","lat":43.30536,"lon":5.36706,"is_reserved":false,"is_disabled":false,"rental_uris":{"android":"levelo://app?vid=0bee8496-de04-444f-924d-eff6f1b842d3","ios":"levelo://app?vid=0bee8496-de04-444f-924d-eff6f1b842d3"},"vehicle_type_id":"4","last_reported":1751274830,"current_range_meters":19600,"station_id":"ce4bgrp2rcd13ifvqc9g","pricing_plan_id":"cebpf4jnsgd1na2vs0mg"},{"bike_id":"bcc7a965-6238-4ac1-857f-945f01d77ce6","system_id":"levelo_inurba_marseille","lat":43.28396,"lon":5.34991,"is_reserved":false,"is_disabled":false,"rental_uris":{"android":"levelo://app?vid=bcc7a965-6238-4ac1-857f-945f01d77ce6","ios":"levelo://app?vid=bcc7a965-6238-4ac1-857f-945f01d77ce6"},"vehicle_type_id":"4","last_reported":1751274830,"current_range_meters":19600,"station_id":"ce4bhbh2rcd13ifvqepg","pricing_plan_id":"cebpf4jnsgd1na2vs0mg"},{"bike_id":"ea40031a-1dd9-4c64-a6f8-b7eca4034072","system_id":"levelo_inurba_marseille","lat":43.25583,"lon":5.38219,"is_reserved":false,"is_disabled":false,"rental_uris":{"android":"levelo://app?vid=ea40031a-1dd9-4c64-a6f8-b7eca4034072","ios":"levelo://app?vid=ea40031a-1dd9-4c64-a6f8-b7eca4034072"},"vehicle_type_id":"4","last_reported":1751274830,"current_range_meters":19600,"station_id":"ce4bhih2rcd13ifvqfs0","pricing_plan_id":"cebpf4jnsgd1na2vs0mg"},{"bike_id":"6e588efc-a5fa-43d5-ae0d-510d646e930d","system_id":"levelo_inurba_marseille","lat":43.25727,"lon":5.41107,"is_reserved":false,"is_disabled":false,"rental_uris":{"android":"levelo://app?vid=6e588efc-a5fa-43d5-ae0d-510d646e930d","ios":"levelo://app?vid=6e588efc-a5fa-43d5-ae0d-510d646e930d"},"vehicle_type_id":"4","last_reported":1751274830,"current_range_meters":19600,"station_id":"ce4bhkp2rcd13ifvqgd0","pricing_plan_id":"cebpf4jnsgd1na2vs0mg"},{"bike_id":"cea7a743-2314-44cc-bbeb-56b65e3acc7a","system_id":"levelo_inurba_marseille","lat":43.30851,"lon":5.37157,"is_reserved":false,"is_disabled":false,"rental_uris":{"android":"levelo://app?vid=cea7a743-2314-44cc-bbeb-56b65e3acc7a","ios":"levelo://app?vid=cea7a743-2314-44cc-bbeb-56b65e3acc7a"},"vehicle_type_id":"4","last_reported":1751274830,"current_range_meters":20000,"station_id":"","pricing_plan_id":"cebpf4jnsgd1na2vs0mg"},{"bike_id":"0a24663d-7c62-458e-8d52-c21c6564ba2b","system_id":"levelo_inurba_marseille","lat":43.28675,"lon":5.37434,"is_reserved":false,"is_disabled":false,"rental_uris":{"android":"levelo://app?vid=0a24663d-7c62-458e-8d52-c21c6564ba2b","ios":"levelo://app?vid=0a24663d-7c62-458e-8d52-c21c6564ba2b"},"vehicle_type_id":"4","last_reported":1751274830,"current_range_meters":20000,"station_id":"","pricing_plan_id":"cebpf4jnsgd1na2vs0mg"},{"bike_id":"8e69c6de-2c6b-4a0f-9c87-0f0770ca4b6c","system_id":"levelo_inurba_marseille","lat":43.29524,"lon":5.38545,"is_reserved":false,"is_disabled":false,"rental_uris":{"android":"levelo://app?vid=8e69c6de-2c6b-4a0f-9c87-0f0770ca4b6c","ios":"levelo://app?vid=8e69c6de-2c6b-4a0f-9c87-0f0770ca4b6c"},"vehicle_type_id":"4","last_reported":1751274830,"current_range_meters":20000,"station_id":"ce4bgih2rcd13ifvqba0","pricing_plan_id":"cebpf4jnsgd1na2vs0mg"},{"bike_id":"3d96250f-2c61-499a-9bd3-9a4e19d7211d","system_id":"levelo_inurba_marseille","lat":43.30902,"lon":5.37187,"is_reserved":false,"is_disabled":false,"rental_uris":{"android":"levelo://app?vid=3d96250f-2c61-499a-9bd3-9a4e19d7211d","ios":"levelo://app?vid=3d96250f-2c61-499a-9bd3-9a4e19d7211d"},"vehicle_type_id":"4","last_reported":1751274830,"current_range_meters":20000,"station_id":"ce4bguh2rcd13ifvqckg","pricing_plan_id":"cebpf4jnsgd1na2vs0mg"},{"bike_id":"62356331-a304-4ae1-ae69-10136cbd3f1d","system_id":"levelo_inurba_marseille","lat":43.321062,"lon":5.367686,"is_reserved":false,"is_disabled":false,"rental_uris":{"android":"levelo://app?vid=62356331-a304-4ae1-ae69-10136cbd3f1d","ios":"levelo://app?vid=62356331-a304-4ae1-ae69-10136cbd3f1d"},"vehicle_type_id":"4","last_reported":1751274830,"current_range_meters":20000,"station_id":"ce4bhrh2rcd13ifvqhug","pricing_plan_id":"cebpf4jnsgd1na2vs0mg"},{"bike_id":"9e41c062-e580-4781-821b-c9c5cc0d37d6","system_id":"levelo_inurba_marseille","lat":43.32469,"lon":5.36578,"is_reserved":false,"is_disabled":false,"rental_uris":{"android":"levelo://app?vid=9e41c062-e580-4781-821b-c9c5cc0d37d6","ios":"levelo://app?vid=9e41c062-e580-4781-821b-c9c5cc0d37d6"},"vehicle_type_id":"4","last_reported":1751274830,"current_range_meters":20000,"station_id":"ce4bhs12rcd13ifvqhvg","pricing_plan_id":"cebpf4jnsgd1na2vs0mg"},{"bike_id":"518354b5-8405-430c-bbfc-0e30bc76b92d","system_id":"levelo_inurba_marseille","lat":43.21747,"lon":5.34603,"is_reserved":false,"is_disabled":false,"rental_uris":{"android":"levelo://app?vid=518354b5-8405-430c-bbfc-0e30bc76b92d","ios":"levelo://app?vid=518354b5-8405-430c-bbfc-0e30bc76b92d"},"vehicle_type_id":"4","last_reported":1751274830,"current_range_meters":20400,"station_id":"","pricing_plan_id":"cebpf4jnsgd1na2vs0mg"},{"bike_id":"f7a9bd8b-9f9e-4766-af5a-d51acd8d1ad0","system_id":"levelo_inurba_marseille","lat":43.29313,"lon":5.37432,"is_reserved":false,"is_disabled":false,"rental_uris":{"android":"levelo://app?vid=f7a9bd8b-9f9e-4766-af5a-d51acd8d1ad0","ios":"levelo://app?vid=f7a9bd8b-9f9e-4766-af5a-d51acd8d1ad0"},"vehicle_type_id":"4","last_reported":1751274830,"current_range_meters":20400,"station_id":"ce4bgi12rcd13ifvqb70","pricing_plan_id":"cebpf4jnsgd1na2vs0mg"},{"bike_id":"d6b15642-194a-469f-b2a8-b4b9855a156b","system_id":"levelo_inurba_marseille","lat":43.29367,"lon":5.3784,"is_reserved":false,"is_disabled":false,"rental_uris":{"android":"levelo://app?vid=d6b15642-194a-469f-b2a8-b4b9855a156b","ios":"levelo://app?vid=d6b15642-194a-469f-b2a8-b4b9855a156b"},"vehicle_type_id":"4","last_reported":1751274830,"current_range_meters":20400,"station_id":"ce4bgjh2rcd13ifvqbf0","pricing_plan_id":"cebpf4jnsgd1na2vs0mg"},{"bike_id":"27045fb6-e9c7-4604-be81-e4354121efbe","system_id":"levelo_inurba_marseille","lat":43.30138,"lon":5.38071,"is_reserved":false,"is_disabled":false,"rental_uris":{"android":"levelo://app?vid=27045fb6-e9c7-4604-be81-e4354121efbe","ios":"levelo://app?vid=27045fb6-e9c7-4604-be81-e4354121efbe"},"vehicle_type_id":"4","last_reported":1751274830,"current_range_meters":20400,"station_id":"ce4bgjp2rcd13ifvqbh0","pricing_plan_id":"cebpf4jnsgd1na2vs0mg"},{"bike_id":"31926f26-1c15-4115-9e6f-7a82fd74d90f","system_id":"levelo_inurba_marseille","lat":43.30559,"lon":5.36549,"is_reserved":false,"is_disabled":false,"rental_uris":{"android":"levelo://app?vid=31926f26-1c15-4115-9e6f-7a82fd74d90f","ios":"levelo://app?vid=31926f26-1c15-4115-9e6f-7a82fd74d90f"},"vehicle_type_id":"4","last_reported":1751274830,"current_range_meters":20400,"station_id":"ce4bgs12rcd13ifvqcag","pricing_plan_id":"cebpf4jnsgd1na2vs0mg"},{"bike_id":"86fa6ce7-8cbe-47ff-b5d3-c2b4938fd05c","system_id":"levelo_inurba_marseille","lat":43.21193,"lon":5.3507,"is_reserved":false,"is_disabled":false,"rental_uris":{"android":"levelo://app?vid=86fa6ce7-8cbe-47ff-b5d3-c2b4938fd05c","ios":"levelo://app?vid=86fa6ce7-8cbe-47ff-b5d3-c2b4938fd05c"},"vehicle_type_id":"4","last_reported":1751274830,"current_range_meters":20400,"station_id":"st_cvj6sg6p6f1abm77japg","pricing_plan_id":"cebpf4jnsgd1na2vs0mg"},{"bike_id":"5767b9e4-81ec-40bf-bccc-db289ba35b4e","system_id":"levelo_inurba_marseille","lat":43.27378,"lon":5.4124,"is_reserved":false,"is_disabled":false,"rental_uris":{"android":"levelo://app?vid=5767b9e4-81ec-40bf-bccc-db289ba35b4e","ios":"levelo://app?vid=5767b9e4-81ec-40bf-bccc-db289ba35b4e"},"vehicle_type_id":"4","last_reported":1751274830,"current_range_meters":20800,"station_id":"","pricing_plan_id":"cebpf4jnsgd1na2vs0mg"},{"bike_id":"2ab6c2c8-16b7-45c1-83b8-180c92e8ca44","system_id":"levelo_inurba_marseille","lat":43.29563,"lon":5.37491,"is_reserved":false,"is_disabled":false,"rental_uris":{"android":"levelo://app?vid=2ab6c2c8-16b7-45c1-83b8-180c92e8ca44","ios":"levelo://app?vid=2ab6c2c8-16b7-45c1-83b8-180c92e8ca44"},"vehicle_type_id":"4","last_reported":1751274830,"current_range_meters":20800,"station_id":"ce4bgh92rcd13ifvqb50","pricing_plan_id":"cebpf4jnsgd1na2vs0mg"},{"bike_id":"ab083bd5-431b-4d99-bc75-8f58eb824ad5","system_id":"levelo_inurba_marseille","lat":43.29257,"lon":5.37606,"is_reserved":false,"is_disabled":false,"rental_uris":{"android":"levelo://app?vid=ab083bd5-431b-4d99-bc75-8f58eb824ad5","ios":"levelo://app?vid=ab083bd5-431b-4d99-bc75-8f58eb824ad5"},"vehicle_type_id":"4","last_reported":1751274830,"current_range_meters":20800,"station_id":"ce4bgi12rcd13ifvqb80","pricing_plan_id":"cebpf4jnsgd1na2vs0mg"},{"bike_id":"917ea0b0-7a77-479f-826d-ab33d397f052","system_id":"levelo_inurba_marseille","lat":43.25005,"lon":5.38959,"is_reserved":false,"is_disabled":false,"rental_uris":{"android":"levelo://app?vid=917ea0b0-7a77-479f-826d-ab33d397f052","ios":"levelo://app?vid=917ea0b0-7a77-479f-826d-ab33d397f052"},"vehicle_type_id":"4","last_reported":1751274830,"current_range_meters":20800,"station_id":"ce4bhgp2rcd13ifvqfd0","pricing_plan_id":"cebpf4jnsgd1na2vs0mg"},{"bike_id":"9eb3a337-1293-45a4-84e0-49edc967409b","system_id":"levelo_inurba_marseille","lat":43.29804,"lon":5.38099,"is_reserved":false,"is_disabled":false,"rental_uris":{"android":"levelo://app?vid=9eb3a337-1293-45a4-84e0-49edc967409b","ios":"levelo://app?vid=9eb3a337-1293-45a4-84e0-49edc967409b"},"vehicle_type_id":"4","last_reported":1751274830,"current_range_meters":21600,"station_id":"ce4bgip2rcd13ifvqbb0","pricing_plan_id":"cebpf4jnsgd1na2vs0mg"},{"bike_id":"8e45ad08-692b-4479-8c3f-177543cd6927","system_id":"levelo_inurba_marseille","lat":43.31232,"lon":5.36844,"is_reserved":false,"is_disabled":false,"rental_uris":{"android":"levelo://app?vid=8e45ad08-692b-4479-8c3f-177543cd6927","ios":"levelo://app?vid=8e45ad08-692b-4479-8c3f-177543cd6927"},"vehicle_type_id":"4","last_reported":1751274830,"current_range_meters":21600,"station_id":"ce4bgl92rcd13ifvqbq0","pricing_plan_id":"cebpf4jnsgd1na2vs0mg"},{"bike_id":"00fc194c-7cbe-40f9-ba73-e0f972dc4b8d","system_id":"levelo_inurba_marseille","lat":43.31488,"lon":5.37308,"is_reserved":false,"is_disabled":false,"rental_uris":{"android":"levelo://app?vid=00fc194c-7cbe-40f9-ba73-e0f972dc4b8d","ios":"levelo://app?vid=00fc194c-7cbe-40f9-ba73-e0f972dc4b8d"},"vehicle_type_id":"4","last_reported":1751274830,"current_range_meters":21600,"station_id":"ce4bgt12rcd13ifvqcd0","pricing_plan_id":"cebpf4jnsgd1na2vs0mg"},{"bike_id":"d2e7cf40-24ec-4a8e-964c-faccda35141b","system_id":"levelo_inurba_marseille","lat":43.29163,"lon":5.37151,"is_reserved":false,"is_disabled":false,"rental_uris":{"android":"levelo://app?vid=d2e7cf40-24ec-4a8e-964c-faccda35141b","ios":"levelo://app?vid=d2e7cf40-24ec-4a8e-964c-faccda35141b"},"vehicle_type_id":"4","last_reported":1751274830,"current_range_meters":21600,"station_id":"ce4bha92rcd13ifvqeh0","pricing_plan_id":"cebpf4jnsgd1na2vs0mg"},{"bike_id":"94127dfc-7c99-4afc-9ec3-e1f076b9b074","system_id":"levelo_inurba_marseille","lat":43.23184,"lon":5.3998,"is_reserved":false,"is_disabled":false,"rental_uris":{"android":"levelo://app?vid=94127dfc-7c99-4afc-9ec3-e1f076b9b074","ios":"levelo://app?vid=94127dfc-7c99-4afc-9ec3-e1f076b9b074"},"vehicle_type_id":"4","last_reported":1751274830,"current_range_meters":21600,"station_id":"ce4bhn12rcd13ifvqgqg","pricing_plan_id":"cebpf4jnsgd1na2vs0mg"},{"bike_id":"d2019eb4-f450-4e51-abec-b5191e2306d5","system_id":"levelo_inurba_marseille","lat":43.299035,"lon":5.436625,"is_reserved":false,"is_disabled":false,"rental_uris":{"android":"levelo://app?vid=d2019eb4-f450-4e51-abec-b5191e2306d5","ios":"levelo://app?vid=d2019eb4-f450-4e51-abec-b5191e2306d5"},"vehicle_type_id":"4","last_reported":1751274830,"current_range_meters":21600,"station_id":"ce4bhpp2rcd13ifvqhfg","pricing_plan_id":"cebpf4jnsgd1na2vs0mg"},{"bike_id":"ff6d4daf-20c1-40b6-8c14-61f07c31f538","system_id":"levelo_inurba_marseille","lat":43.231941,"lon":5.355492,"is_reserved":false,"is_disabled":false,"rental_uris":{"android":"levelo://app?vid=ff6d4daf-20c1-40b6-8c14-61f07c31f538","ios":"levelo://app?vid=ff6d4daf-20c1-40b6-8c14-61f07c31f538"},"vehicle_type_id":"4","last_reported":1751274830,"current_range_meters":21600,"station_id":"ce4bhu92rcd13ifvqi70","pricing_plan_id":"cebpf4jnsgd1na2vs0mg"},{"bike_id":"3a33ebd2-49a2-4e39-92d7-f09d7dd08672","system_id":"levelo_inurba_marseille","lat":43.21205,"lon":5.35087,"is_reserved":false,"is_disabled":false,"rental_uris":{"android":"levelo://app?vid=3a33ebd2-49a2-4e39-92d7-f09d7dd08672","ios":"levelo://app?vid=3a33ebd2-49a2-4e39-92d7-f09d7dd08672"},"vehicle_type_id":"4","last_reported":1751274830,"current_range_meters":21600,"station_id":"st_cvj6sg6p6f1abm77japg","pricing_plan_id":"cebpf4jnsgd1na2vs0mg"},{"bike_id":"569afbd4-da57-4911-aecb-840950c33922","system_id":"levelo_inurba_marseille","lat":43.21222,"lon":5.35066,"is_reserved":false,"is_disabled":false,"rental_uris":{"android":"levelo://app?vid=569afbd4-da57-4911-aecb-840950c33922","ios":"levelo://app?vid=569afbd4-da57-4911-aecb-840950c33922"},"vehicle_type_id":"4","last_reported":1751274830,"current_range_meters":21600,"station_id":"st_cvj6sg6p6f1abm77japg","pricing_plan_id":"cebpf4jnsgd1na2vs0mg"},{"bike_id":"44e7b893-e006-4a69-9916-0656bc787b56","system_id":"levelo_inurba_marseille","lat":43.27619,"lon":5.36107,"is_reserved":false,"is_disabled":false,"rental_uris":{"android":"levelo://app?vid=44e7b893-e006-4a69-9916-0656bc787b56","ios":"levelo://app?vid=44e7b893-e006-4a69-9916-0656bc787b56"},"vehicle_type_id":"4","last_reported":1751274830,"current_range_meters":22000,"station_id":"ce4bgj92rcd13ifvqbe0","pricing_plan_id":"cebpf4jnsgd1na2vs0mg"},{"bike_id":"2f5d8238-edd9-4e28-a7bb-c065ffe97606","system_id":"levelo_inurba_marseille","lat":43.29377,"lon":5.37833,"is_reserved":false,"is_disabled":false,"rental_uris":{"android":"levelo://app?vid=2f5d8238-edd9-4e28-a7bb-c065ffe97606","ios":"levelo://app?vid=2f5d8238-edd9-4e28-a7bb-c065ffe97606"},"vehicle_type_id":"4","last_reported":1751274830,"current_range_meters":22000,"station_id":"ce4bgjh2rcd13ifvqbf0","pricing_plan_id":"cebpf4jnsgd1na2vs0mg"},{"bike_id":"c613f4a8-5025-4c5b-90c9-fb91a56d047e","system_id":"levelo_inurba_marseille","lat":43.29682,"lon":5.37287,"is_reserved":false,"is_disabled":false,"rental_uris":{"android":"levelo://app?vid=c613f4a8-5025-4c5b-90c9-fb91a56d047e","ios":"levelo://app?vid=c613f4a8-5025-4c5b-90c9-fb91a56d047e"},