{"last_updated":1729674585,"ttl":60,"version":"2.2","data":{"bikes":[{"bike_id":"e49abd15-a4b5-436d-abb0-7517fa642236","system_id":"levelo_inurba_marseille","lat":43.30904,"lon":5.36838,"is_reserved":false,"is_disabled":false,"rental_uris":{"android":"levelo://app?vid=e49abd15-a4b5-436d-abb0-7517fa642236","ios":"levelo://app?vid=e49abd15-a4b5-436d-abb0-7517fa642236"},"vehicle_type_id":"4","last_reported":1729674585,"current_range_meters":31200,"station_id":"","pricing_plan_id":"cebpf4jnsgd1na2vs0mg"},{"bike_id":"94505a83-b206-4db0-aff0-8f5678e8c521","system_id":"levelo_inurba_marseille","lat":43.24078,"lon":5.37752,"is_reserved":false,"is_disabled":false,"rental_uris":{"android":"levelo://app?vid=94505a83-b206-4db0-aff0-8f5678e8c521","ios":"levelo://app?vid=94505a83-b206-4db0-aff0-8f5678e8c521"},"vehicle_type_id":"4","last_reported":1729674585,"current_range_meters":18000,"station_id":"ce4bhnp2rcd13ifvqgvg","pricing_plan_id":"cebpf4jnsgd1na2vs0mg"},{"bike_id":"ae5e602a-152c-4121-9134-23e885a03a33","system_id":"levelo_inurba_marseille","lat":43.29972,"lon":5.38475,"is_reserved":false,"is_disabled":false,"rental_uris":{"android":"levelo://app?vid=ae5e602a-152c-4121-9134-23e885a03a33","ios":"levelo://app?vid=ae5e602a-152c-4121-9134-23e885a03a33"},"vehicle_type_id":"4","last_reported":1729674585,"current_range_meters":33600,"station_id":"","pricing_plan_id":"cebpf4jnsgd1na2vs0mg"},{"bike_id":"50f1ec05-4d59-4332-8aca-ecfd573a5bf5","system_id":"levelo_inurba_marseille","lat":43.27066,"lon":5.42273,"is_reserved":false,"is_disabled":false,"rental_uris":{"android":"levelo://app?vid=50f1ec05-4d59-4332-8aca-ecfd573a5bf5","ios":"levelo://app?vid=50f1ec05-4d59-4332-8aca-ecfd573a5bf5"},"vehicle_type_id":"4","last_reported":1729674585,"current_range_meters":40000,"station_id":"ce4bhk92rcd13ifvqgb0","pricing_plan_id":"cebpf4jnsgd1na2vs0mg"},{"bike_id":"e929bbf0-b67f-4d49-bb99-c9e174c9b8b0","system_id":"levelo_inurba_marseille","lat":43.305278,"lon":5.365446,"is_reserved":false,"is_disabled":false,"rental_uris":{"android":"levelo://app?vid=e929bbf0-b67f-4d49-bb99-c9e174c9b8b0","ios":"levelo://app?vid=e929bbf0-b67f-4d49-bb99-c9e174c9b8b0"},"vehicle_type_id":"4","last_reported":1729674585,"current_range_meters":39200,"station_id":"ce4bgs12rcd13ifvqcag","pricing_plan_id":"cebpf4jnsgd1na2vs0mg"},{"bike_id":"da2545c0-1aa1-4252-83b4-6c3657ee2a36","system_id":"levelo_inurba_marseille","lat":43.29556,"lon":5.42289,"is_reserved":false,"is_disabled":false,"rental_uris":{"android":"levelo://app?vid=da2545c0-1aa1-4252-83b4-6c3657ee2a36","ios":"levelo://app?vid=da2545c0-1aa1-4252-83b4-6c3657ee2a36"},"vehicle_type_id":"4","last_reported":1729674585,"current_range_meters":28400,"station_id":"ce4bhph2rcd13ifvqhdg","pricing_plan_id":"cebpf4jnsgd1na2vs0mg"},{"bike_id":"b149ce4e-51e1-44d1-a677-e09dc3311ba7","system_id":"levelo_inurba_marseille","lat":43.24389,"lon":5.37052,"is_reserved":false,"is_disabled":false,"rental_uris":{"android":"levelo://app?vid=b149ce4e-51e1-44d1-a677-e09dc3311ba7","ios":"levelo://app?vid=b149ce4e-51e1-44d1-a677-e09dc3311ba7"},"vehicle_type_id":"4","last_reported":1729674585,"current_range_meters":40000,"station_id":"ce4bhhh2rcd13ifvqfk0","pricing_plan_id":"cebpf4jnsgd1na2vs0mg"},{"bike_id":"b4cc9679-1889-4d52-9d59-6fc564d9e1c9","system_id":"levelo_inurba_marseille","lat":43.24386,"lon":5.37059,"is_reserved":false,"is_disabled":false,"rental_uris":{"android":"levelo://app?vid=b4cc9679-1889-4d52-9d59-6fc564d9e1c9","ios":"levelo://app?vid=b4cc9679-1889-4d52-9d59-6fc564d9e1c9"},"vehicle_type_id":"4","last_reported":1729674585,"current_range_meters":28800,"station_id":"ce4bhhh2rcd13ifvqfk0","pricing_plan_id":"cebpf4jnsgd1na2vs0mg"},{"bike_id":"a581c9ee-de6c-4ca2-adce-d873a10f1b7c","system_id":"levelo_inurba_marseille","lat":43.24079,"lon":5.37747,"is_reserved":false,"is_disabled":false,"rental_uris":{"android":"levelo://app?vid=a581c9ee-de6c-4ca2-adce-d873a10f1b7c","ios":"levelo://app?vid=a581c9ee-de6c-4ca2-adce-d873a10f1b7c"},"vehicle_type_id":"4","last_reported":1729674585,"current_range_meters":11600,"station_id":"ce4bhnp2rcd13ifvqgvg","pricing_plan_id":"cebpf4jnsgd1na2vs0mg"},{"bike_id":"33b2053d-bd1d-49f6-9dc6-9a0d8a900c29","system_id":"levelo_inurba_marseille","lat":43.24073,"lon":5.37752,"is_reserved":false,"is_disabled":false,"rental_uris":{"android":"levelo://app?vid=33b2053d-bd1d-49f6-9dc6-9a0d8a900c29","ios":"levelo://app?vid=33b2053d-bd1d-49f6-9dc6-9a0d8a900c29"},"vehicle_type_id":"4","last_reported":1729674585,"current_range_meters":20000,"station_id":"ce4bhnp2rcd13ifvqgvg","pricing_plan_id":"cebpf4jnsgd1na2vs0mg"},{"bike_id":"0b0ec054-192a-4106-bdb0-bbc08fd8b783","system_id":"levelo_inurba_marseille","lat":43.31995,"lon":5.38151,"is_reserved":false,"is_disabled":false,"rental_uris":{"android":"levelo://app?vid=0b0ec054-192a-4106-bdb0-bbc08fd8b783","ios":"levelo://app?vid=0b0ec054-192a-4106-bdb0-bbc08fd8b783"},"vehicle_type_id":"4","last_reported":1729674585,"current_range_meters":38400,"station_id":"ce4bhr12rcd13ifvqhpg","pricing_plan_id":"cebpf4jnsgd1na2vs0mg"},{"bike_id":"b2b3a5d2-308e-4489-8c55-aeb1cd1f9273","system_id":"levelo_inurba_marseille","lat":43.24081,"lon":5.37756,"is_reserved":false,"is_disabled":false,"rental_uris":{"android":"levelo://app?vid=b2b3a5d2-308e-4489-8c55-aeb1cd1f9273","ios":"levelo://app?vid=b2b3a5d2-308e-4489-8c55-aeb1cd1f9273"},"vehicle_type_id":"4","last_reported":1729674585,"current_range_meters":4400,"station_id":"ce4bhnp2rcd13ifvqgvg","pricing_plan_id":"cebpf4jnsgd1na2vs0mg"},{"bike_id":"aca71716-0ec5-4945-9900-99482cde9429","system_id":"levelo_inurba_marseille","lat":43.34139,"lon":5.409,"is_reserved":false,"is_disabled":false,"rental_uris":{"android":"levelo://app?vid=aca71716-0ec5-4945-9900-99482cde9429","ios":"levelo://app?vid=aca71716-0ec5-4945-9900-99482cde9429"},"vehicle_type_id":"4","last_reported":1729674585,"current_range_meters":24000,"station_id":"ce4bhqh2rcd13ifvqhlg","pricing_plan_id":"cebpf4jnsgd1na2vs0mg"},{"bike_id":"bf3cdac8-1828-4c5b-88c1-7d178598dc6a","system_id":"levelo_inurba_marseille","lat":43.30032,"lon":5.3729,"is_reserved":false,"is_disabled":false,"rental_uris":{"android":"levelo://app?vid=bf3cdac8-1828-4c5b-88c1-7d178598dc6a","ios":"levelo://app?vid=bf3cdac8-1828-4c5b-88c1-7d178598dc6a"},"vehicle_type_id":"4","last_reported":1729674585,"current_range_meters":12400,"station_id":"","pricing_plan_id":"cebpf4jnsgd1na2vs0mg"},{"bike_id":"ec3db7e2-a0a2-4dc6-8d37-06a004b32d49","system_id":"levelo_inurba_marseille","lat":43.30546,"lon":5.3653,"is_reserved":false,"is_disabled":false,"rental_uris":{"android":"levelo://app?vid=ec3db7e2-a0a2-4dc6-8d37-06a004b32d49","ios":"levelo://app?vid=ec3db7e2-a0a2-4dc6-8d37-06a004b32d49"},"vehicle_type_id":"4","last_reported":1729674585,"current_range_meters":36400,"station_id":"ce4bgs12rcd13ifvqcag","pricing_plan_id":"cebpf4jnsgd1na2vs0mg"},{"bike_id":"5c449356-4ac4-4d08-a405-c433fbe21a80","system_id":"levelo_inurba_marseille","lat":43.33737,"lon":5.37458,"is_reserved":false,"is_disabled":false,"rental_uris":{"android":"levelo://app?vid=5c449356-4ac4-4d08-a405-c433fbe21a80","ios":"levelo://app?vid=5c449356-4ac4-4d08-a405-c433fbe21a80"},"vehicle_type_id":"4","last_reported":1729674585,"current_range_meters":30000,"station_id":"","pricing_plan_id":"cebpf4jnsgd1na2vs0mg"},{"bike_id":"a34d4e86-e3fb-4711-863f-7eedb40d6428","system_id":"levelo_inurba_marseille","lat":43.29837,"lon":5.36267,"is_reserved":false,"is_disabled":false,"rental_uris":{"android":"levelo://app?vid=a34d4e86-e3fb-4711-863f-7eedb40d6428","ios":"levelo://app?vid=a34d4e86-e3fb-4711-863f-7eedb40d6428"},"vehicle_type_id":"4","last_reported":1729674585,"current_range_meters":38800,"station_id":"ce4bgpp2rcd13ifvqc3g","pricing_plan_id":"cebpf4jnsgd1na2vs0mg"},{"bike_id":"c3c39974-dae0-42ff-b09c-154b46e2ab57","system_id":"levelo_inurba_marseille","lat":43.29303,"lon":5.37437,"is_reserved":false,"is_disabled":false,"rental_uris":{"android":"levelo://app?vid=c3c39974-dae0-42ff-b09c-154b46e2ab57","ios":"levelo://app?vid=c3c39974-dae0-42ff-b09c-154b46e2ab57"},"vehicle_type_id":"4","last_reported":1729674585,"current_range_meters":22000,"station_id":"ce4bgi12rcd13ifvqb70","pricing_plan_id":"cebpf4jnsgd1na2vs0mg"},{"bike_id":"b537a7c5-9c86-4581-9304-b2cb5f9d166b","system_id":"levelo_inurba_marseille","lat":43.2407,"lon":5.37755,"is_reserved":false,"is_disabled":false,"rental_uris":{"android":"levelo://app?vid=b537a7c5-9c86-4581-9304-b2cb5f9d166b","ios":"levelo://app?vid=b537a7c5-9c86-4581-9304-b2cb5f9d166b"},"vehicle_type_id":"4","last_reported":1729674585,"current_range_meters":16400,"station_id":"ce4bhnp2rcd13ifvqgvg","pricing_plan_id":"cebpf4jnsgd1na2vs0mg"},{"bike_id":"80f01561-4f78-4d59-98de-f130f22341eb","system_id":"levelo_inurba_marseille","lat":43.28149,"lon":5.42639,"is_reserved":false,"is_disabled":false,"rental_uris":{"android":"levelo://app?vid=80f01561-4f78-4d59-98de-f130f22341eb","ios":"levelo://app?vid=80f01561-4f78-4d59-98de-f130f22341eb"},"vehicle_type_id":"4","last_reported":1729674585,"current_range_meters":3200,"station_id":"ce4bhnh2rcd13ifvqgug","pricing_plan_id":"cebpf4jnsgd1na2vs0mg"},{"bike_id":"0c6b11eb-50a7-4dc0-bff2-d8026011ec1d","system_id":"levelo_inurba_marseille","lat":43.24389,"lon":5.37057,"is_reserved":false,"is_disabled":false,"rental_uris":{"android":"levelo://app?vid=0c6b11eb-50a7-4dc0-bff2-d8026011ec1d","ios":"levelo://app?vid=0c6b11eb-50a7-4dc0-bff2-d8026011ec1d"},"vehicle_type_id":"4","last_reported":1729674585,"current_range_meters":40000,"station_id":"ce4bhhh2rcd13ifvqfk0","pricing_plan_id":"cebpf4jnsgd1na2vs0mg"},{"bike_id":"3571e33e-08e7-4c65-bcb7-4ff4abd18ba6","system_id":"levelo_inurba_marseille","lat":43.24167,"lon":5.36391,"is_reserved":false,"is_disabled":false,"rental_uris":{"android":"levelo://app?vid=3571e33e-08e7-4c65-bcb7-4ff4abd18ba6","ios":"levelo://app?vid=3571e33e-08e7-4c65-bcb7-4ff4abd18ba6"},"vehicle_type_id":"4","last_reported":1729674585,"current_range_meters":20800,"station_id":"cpo36qri1sfpv3e86is0","pricing_plan_id":"cebpf4jnsgd1na2vs0mg"},{"bike_id":"7bd3f984-c6d5-40e0-8912-1f50431a6a69","system_id":"levelo_inurba_marseille","lat":43.296783,"lon":5.37298,"is_reserved":false,"is_disabled":false,"rental_uris":{"android":"levelo://app?vid=7bd3f984-c6d5-40e0-8912-1f50431a6a69","ios":"levelo://app?vid=7bd3f984-c6d5-40e0-8912-1f50431a6a69"},"vehicle_type_id":"4","last_reported":1729674585,"current_range_meters":38800,"station_id":"ce4bgk12rcd13ifvqbj0","pricing_plan_id":"cebpf4jnsgd1na2vs0mg"},{"bike_id":"c769be1b-4262-45e1-ae17-91133a0a1d6c","system_id":"levelo_inurba_marseille","lat":43.3053,"lon":5.36659,"is_reserved":false,"is_disabled":false,"rental_uris":{"android":"levelo://app?vid=c769be1b-4262-45e1-ae17-91133a0a1d6c","ios":"levelo://app?vid=c769be1b-4262-45e1-ae17-91133a0a1d6c"},"vehicle_type_id":"4","last_reported":1729674585,"current_range_meters":12400,"station_id":"","pricing_plan_id":"cebpf4jnsgd1na2vs0mg"},{"bike_id":"4882a116-5452-4f97-bdbd-13df4cccb9d6","system_id":"levelo_inurba_marseille","lat":43.30604,"lon":5.37249,"is_reserved":false,"is_disabled":false,"rental_uris":{"android":"levelo://app?vid=4882a116-5452-4f97-bdbd-13df4cccb9d6","ios":"levelo://app?vid=4882a116-5452-4f97-bdbd-13df4cccb9d6"},"vehicle_type_id":"4","last_reported":1729674585,"current_range_meters":30000,"station_id":"ce4bgqh2rcd13ifvqc4g","pricing_plan_id":"cebpf4jnsgd1na2vs0mg"},{"bike_id":"7d5846f6-6f8a-4bd6-b113-eb064779c850","system_id":"levelo_inurba_marseille","lat":43.30141,"lon":5.37416,"is_reserved":false,"is_disabled":false,"rental_uris":{"android":"levelo://app?vid=7d5846f6-6f8a-4bd6-b113-eb064779c850","ios":"levelo://app?vid=7d5846f6-6f8a-4bd6-b113-eb064779c850"},"vehicle_type_id":"4","last_reported":1729674585,"current_range_meters":7200,"station_id":"ce4bgs92rcd13ifvqcc0","pricing_plan_id":"cebpf4jnsgd1na2vs0mg"},{"bike_id":"f69cf7c2-ecfc-49f3-9085-da04274eb32a","system_id":"levelo_inurba_marseille","lat":43.30143,"lon":5.37421,"is_reserved":false,"is_disabled":false,"rental_uris":{"android":"levelo://app?vid=f69cf7c2-ecfc-49f3-9085-da04274eb32a","ios":"levelo://app?vid=f69cf7c2-ecfc-49f3-9085-da04274eb32a"},"vehicle_type_id":"4","last_reported":1729674585,"current_range_meters":36800,"station_id":"ce4bgs92rcd13ifvqcc0","pricing_plan_id":"cebpf4jnsgd1na2vs0mg"},{"bike_id":"71ea797b-da06-4327-92dc-47c13ec265e2","system_id":"levelo_inurba_marseille","lat":43.30542,"lon":5.36537,"is_reserved":false,"is_disabled":false,"rental_uris":{"android":"levelo://app?vid=71ea797b-da06-4327-92dc-47c13ec265e2","ios":"levelo://app?vid=71ea797b-da06-4327-92dc-47c13ec265e2"},"vehicle_type_id":"4","last_reported":1729674585,"current_range_meters":38400,"station_id":"ce4bgs12rcd13ifvqcag","pricing_plan_id":"cebpf4jnsgd1na2vs0mg"},{"bike_id":"04f008b0-7342-470c-97da-e8ae76fbc046","system_id":"levelo_inurba_marseille","lat":43.2648,"lon":5.39551,"is_reserved":false,"is_disabled":false,"rental_uris":{"android":"levelo://app?vid=04f008b0-7342-470c-97da-e8ae76fbc046","ios":"levelo://app?vid=04f008b0-7342-470c-97da-e8ae76fbc046"},"vehicle_type_id":"4","last_reported":1729674585,"current_range_meters":24000,"station_id":"ce4bhi12rcd13ifvqfq0","pricing_plan_id":"cebpf4jnsgd1na2vs0mg"},{"bike_id":"1dcd8fe6-26cf-4f0d-9360-8faf676fc6d5","system_id":"levelo_inurba_marseille","lat":43.30157,"lon":5.38087,"is_reserved":false,"is_disabled":false,"rental_uris":{"android":"levelo://app?vid=1dcd8fe6-26cf-4f0d-9360-8faf676fc6d5","ios":"levelo://app?vid=1dcd8fe6-26cf-4f0d-9360-8faf676fc6d5"},"vehicle_type_id":"4","last_reported":1729674585,"current_range_meters":38800,"station_id":"ce4bgjp2rcd13ifvqbh0","pricing_plan_id":"cebpf4jnsgd1na2vs0mg"},{"bike_id":"523598ff-a7be-4163-b954-6cf8b67091c9","system_id":"levelo_inurba_marseille","lat":43.288574,"lon":5.382235,"is_reserved":false,"is_disabled":false,"rental_uris":{"android":"levelo://app?vid=523598ff-a7be-4163-b954-6cf8b67091c9","ios":"levelo://app?vid=523598ff-a7be-4163-b954-6cf8b67091c9"},"vehicle_type_id":"4","last_reported":1729674585,"current_range_meters":38000,"station_id":"ce4bh512rcd13ifvqe3g","pricing_plan_id":"cebpf4jnsgd1na2vs0mg"},{"bike_id":"36b67483-be36-4ca6-b1a5-421e3143f090","system_id":"levelo_inurba_marseille","lat":43.23148,"lon":5.43711,"is_reserved":false,"is_disabled":false,"rental_uris":{"android":"levelo://app?vid=36b67483-be36-4ca6-b1a5-421e3143f090","ios":"levelo://app?vid=36b67483-be36-4ca6-b1a5-421e3143f090"},"vehicle_type_id":"4","last_reported":1729674585,"current_range_meters":38800,"station_id":"ce4bhmp2rcd13ifvqgog","pricing_plan_id":"cebpf4jnsgd1na2vs0mg"},{"bike_id":"1f55fa33-1805-4f7a-a514-6926db42c97d","system_id":"levelo_inurba_marseille","lat":43.31693,"lon":5.4048,"is_reserved":false,"is_disabled":false,"rental_uris":{"android":"levelo://app?vid=1f55fa33-1805-4f7a-a514-6926db42c97d","ios":"levelo://app?vid=1f55fa33-1805-4f7a-a514-6926db42c97d"},"vehicle_type_id":"4","last_reported":1729674585,"current_range_meters":22400,"station_id":"ce4bh012rcd13ifvqd00","pricing_plan_id":"cebpf4jnsgd1na2vs0mg"},{"bike_id":"dd227e09-e22b-4ff7-98c4-b38f80028aa5","system_id":"levelo_inurba_marseille","lat":43.3055,"lon":5.36703,"is_reserved":false,"is_disabled":false,"rental_uris":{"android":"levelo://app?vid=dd227e09-e22b-4ff7-98c4-b38f80028aa5","ios":"levelo://app?vid=dd227e09-e22b-4ff7-98c4-b38f80028aa5"},"vehicle_type_id":"4","last_reported":1729674585,"current_range_meters":33200,"station_id":"ce4bgrp2rcd13ifvqc9g","pricing_plan_id":"cebpf4jnsgd1na2vs0mg"},{"bike_id":"03e455ca-db19-4914-ba3f-fe3463aa8ffe","system_id":"levelo_inurba_marseille","lat":43.27201,"lon":5.39184,"is_reserved":false,"is_disabled":false,"rental_uris":{"android":"levelo://app?vid=03e455ca-db19-4914-ba3f-fe3463aa8ffe","ios":"levelo://app?vid=03e455ca-db19-4914-ba3f-fe3463aa8ffe"},"vehicle_type_id":"4","last_reported":1729674585,"current_range_meters":38800,"station_id":"ce4bhhp2rcd13ifvqfm0","pricing_plan_id":"cebpf4jnsgd1na2vs0mg"},{"bike_id":"8fa56230-6709-4ae6-986a-c3e011408000","system_id":"levelo_inurba_marseille","lat":43.28577,"lon":5.41284,"is_reserved":false,"is_disabled":false,"rental_uris":{"android":"levelo://app?vid=8fa56230-6709-4ae6-986a-c3e011408000","ios":"levelo://app?vid=8fa56230-6709-4ae6-986a-c3e011408000"},"vehicle_type_id":"4","last_reported":1729674585,"current_range_meters":30800,"station_id":"ce4bha92rcd13ifvqeg0","pricing_plan_id":"cebpf4jnsgd1na2vs0mg"},{"bike_id":"01af60f1-cbeb-41ea-a196-320b1e5ccedd","system_id":"levelo_inurba_marseille","lat":43.26952,"lon":5.38628,"is_reserved":false,"is_disabled":false,"rental_uris":{"android":"levelo://app?vid=01af60f1-cbeb-41ea-a196-320b1e5ccedd","ios":"levelo://app?vid=01af60f1-cbeb-41ea-a196-320b1e5ccedd"},"vehicle_type_id":"4","last_reported":1729674585,"current_range_meters":27200,"station_id":"ce4bhh92rcd13ifvqfh0","pricing_plan_id":"cebpf4jnsgd1na2vs0mg"},{"bike_id":"1687c410-8985-4bf1-9fa1-801bd33d4d6d","system_id":"levelo_inurba_marseille","lat":43.32471,"lon":5.36566,"is_reserved":false,"is_disabled":false,"rental_uris":{"android":"levelo://app?vid=1687c410-8985-4bf1-9fa1-801bd33d4d6d","ios":"levelo://app?vid=1687c410-8985-4bf1-9fa1-801bd33d4d6d"},"vehicle_type_id":"4","last_reported":1729674585,"current_range_meters":24800,"station_id":"ce4bhs12rcd13ifvqhvg","pricing_plan_id":"cebpf4jnsgd1na2vs0mg"},{"bike_id":"93e894b8-0373-4f2f-9348-786740ff9fb7","system_id":"levelo_inurba_marseille","lat":43.29503,"lon":5.37509,"is_reserved":false,"is_disabled":false,"rental_uris":{"android":"levelo://app?vid=93e894b8-0373-4f2f-9348-786740ff9fb7","ios":"levelo://app?vid=93e894b8-0373-4f2f-9348-786740ff9fb7"},"vehicle_type_id":"4","last_reported":1729674585,"current_range_meters":24000,"station_id":"ce4bgkp2rcd13ifvqbmg","pricing_plan_id":"cebpf4jnsgd1na2vs0mg"},{"bike_id":"1243daf2-0a52-40ea-84a5-321f89a003b3","system_id":"levelo_inurba_marseille","lat":43.29707,"lon":5.37694,"is_reserved":false,"is_disabled":false,"rental_uris":{"android":"levelo://app?vid=1243daf2-0a52-40ea-84a5-321f89a003b3","ios":"levelo://app?vid=1243daf2-0a52-40ea-84a5-321f89a003b3"},"vehicle_type_id":"4","last_reported":1729674585,"current_range_meters":36000,"station_id":"ce4bgkh2rcd13ifvqbl0","pricing_plan_id":"cebpf4jnsgd1na2vs0mg"},{"bike_id":"41ca4915-f5cf-4ecf-a173-fd2bb1b984cc","system_id":"levelo_inurba_marseille","lat":43.23195,"lon":5.35551,"is_reserved":false,"is_disabled":false,"rental_uris":{"android":"levelo://app?vid=41ca4915-f5cf-4ecf-a173-fd2bb1b984cc","ios":"levelo://app?vid=41ca4915-f5cf-4ecf-a173-fd2bb1b984cc"},"vehicle_type_id":"4","last_reported":1729674585,"current_range_meters":22400,"station_id":"ce4bhu92rcd13ifvqi70","pricing_plan_id":"cebpf4jnsgd1na2vs0mg"},{"bike_id":"474e8192-2c3d-4290-9dca-32a411415637","system_id":"levelo_inurba_marseille","lat":43.30469,"lon":5.37899,"is_reserved":false,"is_disabled":false,"rental_uris":{"android":"levelo://app?vid=474e8192-2c3d-4290-9dca-32a411415637","ios":"levelo://app?vid=474e8192-2c3d-4290-9dca-32a411415637"},"vehicle_type_id":"4","last_reported":1729674585,"current_range_meters":39200,"station_id":"ce4bgup2rcd13ifvqcn0","pricing_plan_id":"cebpf4jnsgd1na2vs0mg"},{"bike_id":"29a32d84-7dde-4434-aaf5-29d91fb210ed","system_id":"levelo_inurba_marseille","lat":43.24173,"lon":5.39726,"is_reserved":false,"is_disabled":false,"rental_uris":{"android":"levelo://app?vid=29a32d84-7dde-4434-aaf5-29d91fb210ed","ios":"levelo://app?vid=29a32d84-7dde-4434-aaf5-29d91fb210ed"},"vehicle_type_id":"4","last_reported":1729674585,"current_range_meters":15200,"station_id":"ce4bhn12rcd13ifvqgpg","pricing_plan_id":"cebpf4jnsgd1na2vs0mg"},{"bike_id":"bde5a3e1-2b27-4680-add5-25f6634f00df","system_id":"levelo_inurba_marseille","lat":43.27986,"lon":5.41659,"is_reserved":false,"is_disabled":false,"rental_uris":{"android":"levelo://app?vid=bde5a3e1-2b27-4680-add5-25f6634f00df","ios":"levelo://app?vid=bde5a3e1-2b27-4680-add5-25f6634f00df"},"vehicle_type_id":"4","last_reported":1729674585,"current_range_meters":6800,"station_id":"ce4bho12rcd13ifvqh1g","pricing_plan_id":"cebpf4jnsgd1na2vs0mg"},{"bike_id":"826111f3-bc2a-44d4-9f42-0c9f6041a7a9","system_id":"levelo_inurba_marseille","lat":43.25934,"lon":5.40908,"is_reserved":false,"is_disabled":false,"rental_uris":{"android":"levelo://app?vid=826111f3-bc2a-44d4-9f42-0c9f6041a7a9","ios":"levelo://app?vid=826111f3-bc2a-44d4-9f42-0c9f6041a7a9"},"vehicle_type_id":"4","last_reported":1729674585,"current_range_meters":36800,"station_id":"ce4bhm92rcd13ifvqglg","pricing_plan_id":"cebpf4jnsgd1na2vs0mg"},{"bike_id":"56bc6709-a96c-4607-ae13-e48c2a4ad872","system_id":"levelo_inurba_marseille","lat":43.27047,"lon":5.40266,"is_reserved":false,"is_disabled":false,"rental_uris":{"android":"levelo://app?vid=56bc6709-a96c-4607-ae13-e48c2a4ad872","ios":"levelo://app?vid=56bc6709-a96c-4607-ae13-e48c2a4ad872"},"vehicle_type_id":"4","last_reported":1729674585,"current_range_meters":32800,"station_id":"ce4bhk92rcd13ifvqgc0","pricing_plan_id":"cebpf4jnsgd1na2vs0mg"},{"bike_id":"d3fe2f2e-310a-4eb5-b4b4-c29fe4338cf8","system_id":"levelo_inurba_marseille","lat":43.29975,"lon":5.38504,"is_reserved":false,"is_disabled":false,"rental_uris":{"android":"levelo://app?vid=d3fe2f2e-310a-4eb5-b4b4-c29fe4338cf8","ios":"levelo://app?vid=d3fe2f2e-310a-4eb5-b4b4-c29fe4338cf8"},"vehicle_type_id":"4","last_reported":1729674585,"current_range_meters":19600,"station_id":"ce4bgj92rcd13ifvqbd0","pricing_plan_id":"cebpf4jnsgd1na2vs0mg"},{"bike_id":"a2d93e75-1837-4e9a-a64b-5f7543661e25","system_id":"levelo_inurba_marseille","lat":43.32366,"lon":5.38882,"is_reserved":false,"is_disabled":false,"rental_uris":{"android":"levelo://app?vid=a2d93e75-1837-4e9a-a64b-5f7543661e25","ios":"levelo://app?vid=a2d93e75-1837-4e9a-a64b-5f7543661e25"},"vehicle_type_id":"4","last_reported":1729674585,"current_range_meters":30800,"station_id":"ce4bhqp2rcd13ifvqhog","pricing_plan_id":"cebpf4jnsgd1na2vs0mg"},{"bike_id":"6a3d026e-f423-4e19-905c-b73e2bbde2ea","system_id":"levelo_inurba_marseille","lat":43.27182,"lon":5.40987,"is_reserved":false,"is_disabled":false,"rental_uris":{"android":"levelo://app?vid=6a3d026e-f423-4e19-905c-b73e2bbde2ea","ios":"levelo://app?vid=6a3d026e-f423-4e19-905c-b73e2bbde2ea"},"vehicle_type_id":"4","last_reported":1729674585,"current_range_meters":38000,"station_id":"ce4bhl12rcd13ifvqgf0","pricing_plan_id":"cebpf4jnsgd1na2vs0mg"},{"bike_id":"c0577493-6fdf-4288-93e2-1efb6212ffea","system_id":"levelo_inurba_marseille","lat":43.33021,"lon":5.39041,"is_reserved":false,"is_disabled":false,"rental_uris":{"android":"levelo://app?vid=c0577493-6fdf-4288-93e2-1efb6212ffea","ios":"levelo://app?vid=c0577493-6fdf-4288-93e2-1efb6212ffea"},"vehicle_type_id":"4","last_reported":1729674585,"current_range_meters":38800,"station_id":"ce4bhr92rcd13ifvqhrg","pricing_plan_id":"cebpf4jnsgd1na2vs0mg"},{"bike_id":"e5543379-3f25-4adb-a534-e64af83092d3","system_id":"levelo_inurba_marseille","lat":43.29576,"lon":5.36733,"is_reserved":false,"is_disabled":false,"rental_uris":{"android":"levelo://app?vid=e5543379-3f25-4adb-a534-e64af83092d3","ios":"levelo://app?vid=e5543379-3f25-4adb-a534-e64af83092d3"},"vehicle_type_id":"4","last_reported":1729674585,"current_range_meters":30400,"station_id":"ce4bgph2rcd13ifvqc2g","pricing_plan_id":"cebpf4jnsgd1na2vs0mg"},{"bike_id":"131fb6e1-6218-49c0-b715-43a836b29a1c","system_id":"levelo_inurba_marseille","lat":43.31344,"lon":5.36719,"is_reserved":false,"is_disabled":false,"rental_uris":{"android":"levelo://app?vid=131fb6e1-6218-49c0-b715-43a836b29a1c","ios":"levelo://app?vid=131fb6e1-6218-49c0-b715-43a836b29a1c"},"vehicle_type_id":"4","last_reported":1729674585,"current_range_meters":32400,"station_id":"ce4bgr92rcd13ifvqc6g","pricing_plan_id":"cebpf4jnsgd1na2vs0mg"},{"bike_id":"f5a53045-f9b0-4183-9fc6-73b35736d031","system_id":"levelo_inurba_marseille","lat":43.30272,"lon":5.37702,"is_reserved":false,"is_disabled":false,"rental_uris":{"android":"levelo://app?vid=f5a53045-f9b0-4183-9fc6-73b35736d031","ios":"levelo://app?vid=f5a53045-f9b0-4183-9fc6-73b35736d031"},"vehicle_type_id":"4","last_reported":1729674585,"current_range_meters":35200,"station_id":"ce4bguh2rcd13ifvqcj0","pricing_plan_id":"cebpf4jnsgd1na2vs0mg"},{"bike_id":"699052d2-5f86-4be5-87b3-71b9910bd3a2","system_id":"levelo_inurba_marseille","lat":43.23151,"lon":5.43711,"is_reserved":false,"is_disabled":false,"rental_uris":{"android":"levelo://app?vid=699052d2-5f86-4be5-87b3-71b9910bd3a2","ios":"levelo://app?vid=699052d2-5f86-4be5-87b3-71b9910bd3a2"},"vehicle_type_id":"4","last_reported":1729674585,"current_range_meters":19200,"station_id":"ce4bhmp2rcd13ifvqgog","pricing_plan_id":"cebpf4jnsgd1na2vs0mg"},{"bike_id":"38486ab0-efb0-4b05-bf58-d9ae2deab94d","system_id":"levelo_inurba_marseille","lat":43.25575,"lon":5.38242,"is_reserved":false,"is_disabled":false,"rental_uris":{"android":"levelo://app?vid=38486ab0-efb0-4b05-bf58-d9ae2deab94d","ios":"levelo://app?vid=38486ab0-efb0-4b05-bf58-d9ae2deab94d"},"vehicle_type_id":"4","last_reported":1729674585,"current_range_meters":38800,"station_id":"ce4bhih2rcd13ifvqfs0","pricing_plan_id":"cebpf4jnsgd1na2vs0mg"},{"bike_id":"cbe10c03-fb85-436f-9ae4-c9a8a717f05b","system_id":"levelo_inurba_marseille","lat":43.31213,"lon":5.36856,"is_reserved":false,"is_disabled":false,"rental_uris":{"android":"levelo://app?vid=cbe10c03-fb85-436f-9ae4-c9a8a717f05b","ios":"levelo://app?vid=cbe10c03-fb85-436f-9ae4-c9a8a717f05b"},"vehicle_type_id":"4","last_reported":1729674585,"current_range_meters":12400,"station_id":"ce4bgl92rcd13ifvqbq0","pricing_plan_id":"cebpf4jnsgd1na2vs0mg"},{"bike_id":"4200acaf-bcdf-4804-8881-9af9a6d83263","system_id":"levelo_inurba_marseille","lat":43.27307,"lon":5.3909,"is_reserved":false,"is_disabled":false,"rental_uris":{"android":"levelo://app?vid=4200acaf-bcdf-4804-8881-9af9a6d83263","ios":"levelo://app?vid=4200acaf-bcdf-4804-8881-9af9a6d83263"},"vehicle_type_id":"4","last_reported":1729674585,"current_range_meters":20800,"station_id":"ce4bhgp2rcd13ifvqfe0","pricing_plan_id":"cebpf4jnsgd1na2vs0mg"},{"bike_id":"bb8d4a0f-814e-46b2-b300-2a77c5118c69","system_id":"levelo_inurba_marseille","lat":43.30915,"lon":5.36852,"is_reserved":false,"is_disabled":false,"rental_uris":{"android":"levelo://app?vid=bb8d4a0f-814e-46b2-b300-2a77c5118c69","ios":"levelo://app?vid=bb8d4a0f-814e-46b2-b300-2a77c5118c69"},"vehicle_type_id":"4","last_reported":1729674585,"current_range_meters":18800,"station_id":"ce4bgn92rcd13ifvqbvg","pricing_plan_id":"cebpf4jnsgd1na2vs0mg"},{"bike_id":"cb2339ea-d65d-4f68-8ebb-6a79be6dfb70","system_id":"levelo_inurba_marseille","lat":43.292145,"lon":5.359817,"is_reserved":false,"is_disabled":false,"rental_uris":{"android":"levelo://app?vid=cb2339ea-d65d-4f68-8ebb-6a79be6dfb70","ios":"levelo://app?vid=cb2339ea-d65d-4f68-8ebb-6a79be6dfb70"},"vehicle_type_id":"4","last_reported":1729674585,"current_range_meters":24000,"station_id":"","pricing_plan_id":"cebpf4jnsgd1na2vs0mg"},{"bike_id":"1c8b02d9-5f08-476e-b7bd-fdf68c4881ee","system_id":"levelo_inurba_marseille","lat":43.29841,"lon":5.36273,"is_reserved":false,"is_disabled":false,"rental_uris":{"android":"levelo://app?vid=1c8b02d9-5f08-476e-b7bd-fdf68c4881ee","ios":"levelo://app?vid=1c8b02d9-5f08-476e-b7bd-fdf68c4881ee"},"vehicle_type_id":"4","last_reported":1729674585,"current_range_meters":38000,"station_id":"ce4bgpp2rcd13ifvqc3g","pricing_plan_id":"cebpf4jnsgd1na2vs0mg"},{"bike_id":"59c0bf37-891b-4db8-8fe1-87e51af2fc26","system_id":"levelo_inurba_marseille","lat":43.31351,"lon":5.36696,"is_reserved":false,"is_disabled":false,"rental_uris":{"android":"levelo://app?vid=59c0bf37-891b-4db8-8fe1-87e51af2fc26","ios":"levelo://app?vid=59c0bf37-891b-4db8-8fe1-87e51af2fc26"},"vehicle_type_id":"4","last_reported":1729674585,"current_range_meters":30400,"station_id":"ce4bgr92rcd13ifvqc6g","pricing_plan_id":"cebpf4jnsgd1na2vs0mg"},{"bike_id":"cbe0da05-7cbe-468d-b17f-dcee6c4d7df3","system_id":"levelo_inurba_marseille","lat":43.24667,"lon":5.38163,"is_reserved":false,"is_disabled":false,"rental_uris":{"android":"levelo://app?vid=cbe0da05-7cbe-468d-b17f-dcee6c4d7df3","ios":"levelo://app?vid=cbe0da05-7cbe-468d-b17f-dcee6c4d7df3"},"vehicle_type_id":"4","last_reported":1729674585,"current_range_meters":30400,"station_id":"ce4bhih2rcd13ifvqfr0","pricing_plan_id":"cebpf4jnsgd1na2vs0mg"},{"bike_id":"bc74935d-1660-44e5-bf16-e520e3b64275","system_id":"levelo_inurba_marseille","lat":43.29203,"lon":5.36898,"is_reserved":false,"is_disabled":false,"rental_uris":{"android":"levelo://app?vid=bc74935d-1660-44e5-bf16-e520e3b64275","ios":"levelo://app?vid=bc74935d-1660-44e5-bf16-e520e3b64275"},"vehicle_type_id":"4","last_reported":1729674585,"current_range_meters":12400,"station_id":"","pricing_plan_id":"cebpf4jnsgd1na2vs0mg"},{"bike_id":"fd3d93e7-99f7-47eb-b079-2d8de5d8ae7c","system_id":"levelo_inurba_marseille","lat":43.30555,"lon":5.36567,"is_reserved":false,"is_disabled":false,"rental_uris":{"android":"levelo://app?vid=fd3d93e7-99f7-47eb-b079-2d8de5d8ae7c","ios":"levelo://app?vid=fd3d93e7-99f7-47eb-b079-2d8de5d8ae7c"},"vehicle_type_id":"4","last_reported":1729674585,"current_range_meters":40000,"station_id":"ce4bgs12rcd13ifvqcag","pricing_plan_id":"cebpf4jnsgd1na2vs0mg"},{"bike_id":"ac16ead3-cd01-4d34-814a-2a0ce3747710","system_id":"levelo_inurba_marseille","lat":43.25935,"lon":5.40899,"is_reserved":false,"is_disabled":false,"rental_uris":{"android":"levelo://app?vid=ac16ead3-cd01-4d34-814a-2a0ce3747710","ios":"levelo://app?vid=ac16ead3-cd01-4d34-814a-2a0ce3747710"},"vehicle_type_id":"4","last_reported":1729674585,"current_range_meters":26000,"station_id":"ce4bhm92rcd13ifvqglg","pricing_plan_id":"cebpf4jnsgd1na2vs0mg"},{"bike_id":"81adea8b-6332-4300-b49a-7f6a69d89899","system_id":"levelo_inurba_marseille","lat":43.31348,"lon":5.36697,"is_reserved":false,"is_disabled":false,"rental_uris":{"android":"levelo://app?vid=81adea8b-6332-4300-b49a-7f6a69d89899","ios":"levelo://app?vid=81adea8b-6332-4300-b49a-7f6a69d89899"},"vehicle_type_id":"4","last_reported":1729674585,"current_range_meters":25600,"station_id":"ce4bgr92rcd13ifvqc6g","pricing_plan_id":"cebpf4jnsgd1na2vs0mg"},{"bike_id":"0167b6fc-c66e-4b8a-9d97-50347f3f616d","system_id":"levelo_inurba_marseille","lat":43.30946,"lon":5.39042,"is_reserved":false,"is_disabled":false,"rental_uris":{"android":"levelo://app?vid=0167b6fc-c66e-4b8a-9d97-50347f3f616d","ios":"levelo://app?vid=0167b6fc-c66e-4b8a-9d97-50347f3f616d"},"vehicle_type_id":"4","last_reported":1729674585,"current_range_meters":30400,"station_id":"ce4bgup2rcd13ifvqco0","pricing_plan_id":"cebpf4jnsgd1na2vs0mg"},{"bike_id":"e8a8026c-2c38-4320-aaae-506332940bc7","system_id":"levelo_inurba_marseille","lat":43.33018,"lon":5.3903,"is_reserved":false,"is_disabled":false,"rental_uris":{"android":"levelo://app?vid=e8a8026c-2c38-4320-aaae-506332940bc7","ios":"levelo://app?vid=e8a8026c-2c38-4320-aaae-506332940bc7"},"vehicle_type_id":"4","last_reported":1729674585,"current_range_meters":37600,"station_id":"ce4bhr92rcd13ifvqhrg","pricing_plan_id":"cebpf4jnsgd1na2vs0mg"},{"bike_id":"982de27b-7592-4809-82b1-527e14e99450","system_id":"levelo_inurba_marseille","lat":43.30912,"lon":5.36839,"is_reserved":false,"is_disabled":false,"rental_uris":{"android":"levelo://app?vid=982de27b-7592-4809-82b1-527e14e99450","ios":"levelo://app?vid=982de27b-7592-4809-82b1-527e14e99450"},"vehicle_type_id":"4","last_reported":1729674585,"current_range_meters":35600,"station_id":"ce4bgn92rcd13ifvqbvg","pricing_plan_id":"cebpf4jnsgd1na2vs0mg"},{"bike_id":"827d5242-e7f7-4844-967c-6a50f192586d","system_id":"levelo_inurba_marseille","lat":43.29711,"lon":5.36611,"is_reserved":false,"is_disabled":false,"rental_uris":{"android":"levelo://app?vid=827d5242-e7f7-4844-967c-6a50f192586d","ios":"levelo://app?vid=827d5242-e7f7-4844-967c-6a50f192586d"},"vehicle_type_id":"4","last_reported":1729674585,"current_range_meters":18800,"station_id":"ce4bgn12rcd13ifvqbt0","pricing_plan_id":"cebpf4jnsgd1na2vs0mg"},{"bike_id":"346b4736-f50b-4148-86a3-e7e011d04e73","system_id":"levelo_inurba_marseille","lat":43.2749,"lon":5.42455,"is_reserved":false,"is_disabled":false,"rental_uris":{"android":"levelo://app?vid=346b4736-f50b-4148-86a3-e7e011d04e73","ios":"levelo://app?vid=346b4736-f50b-4148-86a3-e7e011d04e73"},"vehicle_type_id":"4","last_reported":1729674585,"current_range_meters":30800,"station_id":"ce4bhn92rcd13ifvqgrg","pricing_plan_id":"cebpf4jnsgd1na2vs0mg"},{"bike_id":"ba6bfe25-6ebc-40ef-ad82-1bb8772b0770","system_id":"levelo_inurba_marseille","lat":43.27424,"lon":5.39407,"is_reserved":false,"is_disabled":false,"rental_uris":{"android":"levelo://app?vid=ba6bfe25-6ebc-40ef-ad82-1bb8772b0770","ios":"levelo://app?vid=ba6bfe25-6ebc-40ef-ad82-1bb8772b0770"},"vehicle_type_id":"4","last_reported":1729674585,"current_range_meters":25200,"station_id":"ce4bhdp2rcd13ifvqf20","pricing_plan_id":"cebpf4jnsgd1na2vs0mg"},{"bike_id":"d9c297a5-e445-4c0b-88f8-fb5789d93a0e","system_id":"levelo_inurba_marseille","lat":43.29364,"lon":5.383611,"is_reserved":false,"is_disabled":false,"rental_uris":{"android":"levelo://app?vid=d9c297a5-e445-4c0b-88f8-fb5789d93a0e","ios":"levelo://app?vid=d9c297a5-e445-4c0b-88f8-fb5789d93a0e"},"vehicle_type_id":"4","last_reported":1729674585,"current_range_meters":22800,"station_id":"","pricing_plan_id":"cebpf4jnsgd1na2vs0mg"},{"bike_id":"b7393e49-91da-4125-a929-c292a93434a4","system_id":"levelo_inurba_marseille","lat":43.24076,"lon":5.37745,"is_reserved":false,"is_disabled":false,"rental_uris":{"android":"levelo://app?vid=b7393e49-91da-4125-a929-c292a93434a4","ios":"levelo://app?vid=b7393e49-91da-4125-a929-c292a93434a4"},"vehicle_type_id":"4","last_reported":1729674585,"current_range_meters":24400,"station_id":"ce4bhnp2rcd13ifvqgvg","pricing_plan_id":"cebpf4jnsgd1na2vs0mg"},{"bike_id":"8ceec1d9-fcc9-4532-9dd1-3ce221083b15","system_id":"levelo_inurba_marseille","lat":43.29799,"lon":5.40406,"is_reserved":false,"is_disabled":false,"rental_uris":{"android":"levelo://app?vid=8ceec1d9-fcc9-4532-9dd1-3ce221083b15","ios":"levelo://app?vid=8ceec1d9-fcc9-4532-9dd1-3ce221083b15"},"vehicle_type_id":"4","last_reported":1729674585,"current_range_meters":37600,"station_id":"ce4bh112rcd13ifvqd90","pricing_plan_id":"cebpf4jnsgd1na2vs0mg"},{"bike_id":"bb8672d0-c5b5-46f5-91dd-bb4b2ec5a7f6","system_id":"levelo_inurba_marseille","lat":43.2846,"lon":5.35901,"is_reserved":false,"is_disabled":false,"rental_uris":{"android":"levelo://app?vid=bb8672d0-c5b5-46f5-91dd-bb4b2ec5a7f6","ios":"levelo://app?vid=bb8672d0-c5b5-46f5-91dd-bb4b2ec5a7f6"},"vehicle_type_id":"4","last_reported":1729674585,"current_range_meters":28800,"station_id":"ce4bhah2rcd13ifvqei0","pricing_plan_id":"cebpf4jnsgd1na2vs0mg"},{"bike_id":"9639bebd-201e-4b55-9187-2633b106e19c","system_id":"levelo_inurba_marseille","lat":43.3302,"lon":5.39034,"is_reserved":false,"is_disabled":false,"rental_uris":{"android":"levelo://app?vid=9639bebd-201e-4b55-9187-2633b106e19c","ios":"levelo://app?vid=9639bebd-201e-4b55-9187-2633b106e19c"},"vehicle_type_id":"4","last_reported":1729674585,"current_range_meters":38800,"station_id":"ce4bhr92rcd13ifvqhrg","pricing_plan_id":"cebpf4jnsgd1na2vs0mg"},{"bike_id":"a6ef77b6-ccc9-41b0-8272-3478a6980024","system_id":"levelo_inurba_marseille","lat":43.31344,"lon":5.3672,"is_reserved":false,"is_disabled":false,"rental_uris":{"android":"levelo://app?vid=a6ef77b6-ccc9-41b0-8272-3478a6980024","ios":"levelo://app?vid=a6ef77b6-ccc9-41b0-8272-3478a6980024"},"vehicle_type_id":"4","last_reported":1729674585,"current_range_meters":30400,"station_id":"ce4bgr92rcd13ifvqc6g","pricing_plan_id":"cebpf4jnsgd1na2vs0mg"},{"bike_id":"b711bd15-347d-439d-b0c3-bc3d75bef70c","system_id":"levelo_inurba_marseille","lat":43.25724,"lon":5.41109,"is_reserved":false,"is_disabled":false,"rental_uris":{"android":"levelo://app?vid=b711bd15-347d-439d-b0c3-bc3d75bef70c","ios":"levelo://app?vid=b711bd15-347d-439d-b0c3-bc3d75bef70c"},"vehicle_type_id":"4","last_reported":1729674585,"current_range_meters":36800,"station_id":"ce4bhkp2rcd13ifvqgd0","pricing_plan_id":"cebpf4jnsgd1na2vs0mg"},{"bike_id":"baf9a987-fe5f-4823-adec-4bf6d4b4e893","system_id":"levelo_inurba_marseille","lat":43.29005,"lon":5.35611,"is_reserved":false,"is_disabled":false,"rental_uris":{"android":"levelo://app?vid=baf9a987-fe5f-4823-adec-4bf6d4b4e893","ios":"levelo://app?vid=baf9a987-fe5f-4823-adec-4bf6d4b4e893"},"vehicle_type_id":"4","last_reported":1729674585,"current_range_meters":26000,"station_id":"ce4bhb92rcd13ifvqen0","pricing_plan_id":"cebpf4jnsgd1na2vs0mg"},{"bike_id":"31d66bb5-81aa-4e93-a933-af250f93adb4","system_id":"levelo_inurba_marseille","lat":43.32546,"lon":5.41438,"is_reserved":false,"is_disabled":false,"rental_uris":{"android":"levelo://app?vid=31d66bb5-81aa-4e93-a933-af250f93adb4","ios":"levelo://app?vid=31d66bb5-81aa-4e93-a933-af250f93adb4"},"vehicle_type_id":"4","last_reported":1729674585,"current_range_meters":30000,"station_id":"ce4bhq12rcd13ifvqhhg","pricing_plan_id":"cebpf4jnsgd1na2vs0mg"},{"bike_id":"c2ce141d-6e76-44dc-931b-253d09157587","system_id":"levelo_inurba_marseille","lat":43.25002,"lon":5.38927,"is_reserved":false,"is_disabled":false,"rental_uris":{"android":"levelo://app?vid=c2ce141d-6e76-44dc-931b-253d09157587","ios":"levelo://app?vid=c2ce141d-6e76-44dc-931b-253d09157587"},"vehicle_type_id":"4","last_reported":1729674585,"current_range_meters":38400,"station_id":"ce4bhgp2rcd13ifvqfd0","pricing_plan_id":"cebpf4jnsgd1na2vs0mg"},{"bike_id":"c6fd4948-9641-45b6-8c16-ac5424e01893","system_id":"levelo_inurba_marseille","lat":43.30151,"lon":5.38081,"is_reserved":false,"is_disabled":false,"rental_uris":{"android":"levelo://app?vid=c6fd4948-9641-45b6-8c16-ac5424e01893","ios":"levelo://app?vid=c6fd4948-9641-45b6-8c16-ac5424e01893"},"vehicle_type_id":"4","last_reported":1729674585,"current_range_meters":38800,"station_id":"ce4bgjp2rcd13ifvqbh0","pricing_plan_id":"cebpf4jnsgd1na2vs0mg"},{"bike_id":"0156463b-83fc-4e28-8c52-fd1bf51f7b01","system_id":"levelo_inurba_marseille","lat":43.28609,"lon":5.35114,"is_reserved":false,"is_disabled":false,"rental_uris":{"android":"levelo://app?vid=0156463b-83fc-4e28-8c52-fd1bf51f7b01","ios":"levelo://app?vid=0156463b-83fc-4e28-8c52-fd1bf51f7b01"},"vehicle_type_id":"4","last_reported":1729674585,"current_range_meters":8800,"station_id":"ce4bhch2rcd13ifvqeug","pricing_plan_id":"cebpf4jnsgd1na2vs0mg"},{"bike_id":"4950b7c7-c612-4f21-947e-b3d95432847e","system_id":"levelo_inurba_marseille","lat":43.31226,"lon":5.36862,"is_reserved":false,"is_disabled":false,"rental_uris":{"android":"levelo://app?vid=4950b7c7-c612-4f21-947e-b3d95432847e","ios":"levelo://app?vid=4950b7c7-c612-4f21-947e-b3d95432847e"},"vehicle_type_id":"4","last_reported":1729674585,"current_range_meters":28000,"station_id":"ce4bgl92rcd13ifvqbq0","pricing_plan_id":"cebpf4jnsgd1na2vs0mg"},{"bike_id":"758c8815-d6d1-4eb0-87f2-4abe41c5d6cf","system_id":"levelo_inurba_marseille","lat":43.29562,"lon":5.42291,"is_reserved":false,"is_disabled":false,"rental_uris":{"android":"levelo://app?vid=758c8815-d6d1-4eb0-87f2-4abe41c5d6cf","ios":"levelo://app?vid=758c8815-d6d1-4eb0-87f2-4abe41c5d6cf"},"vehicle_type_id":"4","last_reported":1729674585,"current_range_meters":25200,"station_id":"ce4bhph2rcd13ifvqhdg","pricing_plan_id":"cebpf4jnsgd1na2vs0mg"},{"bike_id":"403ddffe-05fb-4552-bc7f-dbb8e66e181e","system_id":"levelo_inurba_marseille","lat":43.28657,"lon":5.36345,"is_reserved":false,"is_disabled":false,"rental_uris":{"android":"levelo://app?vid=403ddffe-05fb-4552-bc7f-dbb8e66e181e","ios":"levelo://app?vid=403ddffe-05fb-4552-bc7f-dbb8e66e181e"},"vehicle_type_id":"4","last_reported":1729674585,"current_range_meters":5600,"station_id":"ce4bhah2rcd13ifvqej0","pricing_plan_id":"cebpf4jnsgd1na2vs0mg"},{"bike_id":"927a9ca0-9f48-493a-8d09-f98c0f0c1f2a","system_id":"levelo_inurba_marseille","lat":43.29018,"lon":5.3814,"is_reserved":false,"is_disabled":false,"rental_uris":{"android":"levelo://app?vid=927a9ca0-9f48-493a-8d09-f98c0f0c1f2a","ios":"levelo://app?vid=927a9ca0-9f48-493a-8d09-f98c0f0c1f2a"},"vehicle_type_id":"4","last_reported":1729674585,"current_range_meters":28400,"station_id":"ce501612rcd8frsf0b60","pricing_plan_id":"cebpf4jnsgd1na2vs0mg"},{"bike_id":"6f9243f6-2121-440a-a9b6-867f1811cc97","system_id":"levelo_inurba_marseille","lat":43.23606,"lon":5.36192,"is_reserved":false,"is_disabled":false,"rental_uris":{"android":"levelo://app?vid=6f9243f6-2121-440a-a9b6-867f1811cc97","ios":"levelo://app?vid=6f9243f6-2121-440a-a9b6-867f1811cc97"},"vehicle_type_id":"4","last_reported":1729674585,"current_range_meters":15200,"station_id":"ce4bhh92rcd13ifvqfi0","pricing_plan_id":"cebpf4jnsgd1na2vs0mg"},{"bike_id":"7a2e6d96-7540-4adf-a91b-99a040ff9c53","system_id":"levelo_inurba_marseille","lat":43.29621,"lon":5.40586,"is_reserved":false,"is_disabled":false,"rental_uris":{"android":"levelo://app?vid=7a2e6d96-7540-4adf-a91b-99a040ff9c53","ios":"levelo://app?vid=7a2e6d96-7540-4adf-a91b-99a040ff9c53"},"vehicle_type_id":"4","last_reported":1729674585,"current_range_meters":20400,"station_id":"ce4bh0h2rcd13ifvqd60","pricing_plan_id":"cebpf4jnsgd1na2vs0mg"},{"bike_id":"3d21f701-a9b5-4a32-a6f3-921375152737","system_id":"levelo_inurba_marseille","lat":43.28359,"lon":5.38626,"is_reserved":false,"is_disabled":false,"rental_uris":{"android":"levelo://app?vid=3d21f701-a9b5-4a32-a6f3-921375152737","ios":"levelo://app?vid=3d21f701-a9b5-4a32-a6f3-921375152737"},"vehicle_type_id":"4","last_reported":1729674585,"current_range_meters":20800,"station_id":"ce4bh492rcd13ifvqdvg","pricing_plan_id":"cebpf4jnsgd1na2vs0mg"},{"bike_id":"23898820-4306-45f1-9da4-3bd6b163682b","system_id":"levelo_inurba_marseille","lat":43.27496,"lon":5.42451,"is_reserved":false,"is_disabled":false,"rental_uris":{"android":"levelo://app?vid=23898820-4306-45f1-9da4-3bd6b163682b","ios":"levelo://app?vid=23898820-4306-45f1-9da4-3bd6b163682b"},"vehicle_type_id":"4","last_reported":1729674585,"current_range_meters":32800,"station_id":"ce4bhn92rcd13ifvqgrg","pricing_plan_id":"cebpf4jnsgd1na2vs0mg"},{"bike_id":"2b6b36f0-918c-4869-bfa8-cd3d9c833656","system_id":"levelo_inurba_marseille","lat":43.23145,"lon":5.43715,"is_reserved":false,"is_disabled":false,"rental_uris":{"android":"levelo://app?vid=2b6b36f0-918c-4869-bfa8-cd3d9c833656","ios":"levelo://app?vid=2b6b36f0-918c-4869-bfa8-cd3d9c833656"},"vehicle_type_id":"4","last_reported":1729674585,"current_range_meters":30400,"station_id":"ce4bhmp2rcd13ifvqgog","pricing_plan_id":"cebpf4jnsgd1na2vs0mg"},{"bike_id":"4a93de88-f000-48b3-8c62-db765736ab0a","system_id":"levelo_inurba_marseille","lat":43.23149,"lon":5.43709,"is_reserved":false,"is_disabled":false,"rental_uris":{"android":"levelo://app?vid=4a93de88-f000-48b3-8c62-db765736ab0a","ios":"levelo://app?vid=4a93de88-f000-48b3-8c62-db765736ab0a"},"vehicle_type_id":"4","last_reported":1729674585,"current_range_meters":28000,"station_id":"ce4bhmp2rcd13ifvqgog","pricing_plan_id":"cebpf4jnsgd1na2vs0mg"},{"bike_id":"bc6fc2dd-0537-4742-a23e-fd87afb51ccf","system_id":"levelo_inurba_marseille","lat":43.25722,"lon":5.41105,"is_reserved":false,"is_disabled":false,"rental_uris":{"android":"levelo://app?vid=bc6fc2dd-0537-4742-a23e-fd87afb51ccf","ios":"levelo://app?vid=bc6fc2dd-0537-4742-a23e-fd87afb51ccf"},"vehicle_type_id":"4","last_reported":1729674585,"current_range_meters":37600,"station_id":"ce4bhkp2rcd13ifvqgd0","pricing_plan_id":"cebpf4jnsgd1na2vs0mg"},{"bike_id":"d241af15-9f4e-4023-b665-4a2f36bce2d7","system_id":"levelo_inurba_marseille","lat":43.28454,"lon":5.35887,"is_reserved":false,"is_disabled":false,"rental_uris":{"android":"levelo://app?vid=d241af15-9f4e-4023-b665-4a2f36bce2d7","ios":"levelo://app?vid=d241af15-9f4e-4023-b665-4a2f36bce2d7"},"vehicle_type_id":"4","last_reported":1729674585,"current_range_meters":33600,"station_id":"ce4bhah2rcd13ifvqei0","pricing_plan_id":"cebpf4jnsgd1na2vs0mg"},{"bike_id":"46c48a07-1074-4ed1-8427-bac8dd69e380","system_id":"levelo_inurba_marseille","lat":43.33614,"lon":5.41041,"is_reserved":false,"is_disabled":false,"rental_uris":{"android":"levelo://app?vid=46c48a07-1074-4ed1-8427-bac8dd69e380","ios":"levelo://app?vid=46c48a07-1074-4ed1-8427-bac8dd69e380"},"vehicle_type_id":"4","last_reported":1729674585,"current_range_meters":12400,"station_id":"ce4bhqh2rcd13ifvqhmg","pricing_plan_id":"cebpf4jnsgd1na2vs0mg"},{"bike_id":"4f6e48e1-d18c-4ef1-8739-6f3d76585a44","system_id":"levelo_inurba_marseille","lat":43.24995,"lon":5.38934,"is_reserved":false,"is_disabled":false,"rental_uris":{"android":"levelo://app?vid=4f6e48e1-d18c-4ef1-8739-6f3d76585a44","ios":"levelo://app?vid=4f6e48e1-d18c-4ef1-8739-6f3d76585a44"},"vehicle_type_id":"4","last_reported":1729674585,"current_range_meters":36400,"station_id":"ce4bhgp2rcd13ifvqfd0","pricing_plan_id":"cebpf4jnsgd1na2vs0mg"},{"bike_id":"c803187e-448f-4d8d-ad3a-ff36110a20d0","system_id":"levelo_inurba_marseille","lat":43.31345,"lon":5.36705,"is_reserved":false,"is_disabled":false,"rental_uris":{"android":"levelo://app?vid=c803187e-448f-4d8d-ad3a-ff36110a20d0","ios":"levelo://app?vid=c803187e-448f-4d8d-ad3a-ff36110a20d0"},"vehicle_type_id":"4","last_reported":1729674585,"current_range_meters":39200,"station_id":"ce4bgr92rcd13ifvqc6g","pricing_plan_id":"cebpf4jnsgd1na2vs0mg"},{"bike_id":"2da73958-011a-4092-94a6-99a3e0d02e90","system_id":"levelo_inurba_marseille","lat":43.31351,"lon":5.36699,"is_reserved":false,"is_disabled":false,"rental_uris":{"android":"levelo://app?vid=2da73958-011a-4092-94a6-99a3e0d02e90","ios":"levelo://app?vid=2da73958-011a-4092-94a6-99a3e0d02e90"},"vehicle_type_id":"4","last_reported":1729674585,"current_range_meters":22000,"station_id":"ce4bgr92rcd13ifvqc6g","pricing_plan_id":"cebpf4jnsgd1na2vs0mg"},{"bike_id":"3633b442-1001-499a-ab73-6e73d6aaed5c","system_id":"levelo_inurba_marseille","lat":43.26563,"lon":5.39007,"is_reserved":false,"is_disabled":false,"rental_uris":{"android":"levelo://app?vid=3633b442-1001-499a-ab73-6e73d6aaed5c","ios":"levelo://app?vid=3633b442-1001-499a-ab73-6e73d6aaed5c"},"vehicle_type_id":"4","last_reported":1729674585,"current_range_meters":22800,"station_id":"ce4bhe12rcd13ifvqf30","pricing_plan_id":"cebpf4jnsgd1na2vs0mg"},{"bike_id":"8375e0a1-36be-4b60-9f98-d6ac6445f7e2","system_id":"levelo_inurba_marseille","lat":43.28614,"lon":5.35099,"is_reserved":false,"is_disabled":false,"rental_uris":{"android":"levelo://app?vid=8375e0a1-36be-4b60-9f98-d6ac6445f7e2","ios":"levelo://app?vid=8375e0a1-36be-4b60-9f98-d6ac6445f7e2"},"vehicle_type_id":"4","last_reported":1729674585,"current_range_meters":27600,"station_id":"ce4bhch2rcd13ifvqeug","pricing_plan_id":"cebpf4jnsgd1na2vs0mg"},{"bike_id":"b48f8c2d-a05e-4cee-bf57-4525735200ad","system_id":"levelo_inurba_marseille","lat":43.26677,"lon":5.38264,"is_reserved":false,"is_disabled":false,"rental_uris":{"android":"levelo://app?vid=b48f8c2d-a05e-4cee-bf57-4525735200ad","ios":"levelo://app?vid=b48f8c2d-a05e-4cee-bf57-4525735200ad"},"vehicle_type_id":"4","last_reported":1729674585,"current_range_meters":39200,"station_id":"ce4bhg92rcd13ifvqf90","pricing_plan_id":"cebpf4jnsgd1na2vs0mg"},{"bike_id":"10077d56-1bba-49ad-aaa8-67a4223e43f2","system_id":"levelo_inurba_marseille","lat":43.31483,"lon":5.37307,"is_reserved":false,"is_disabled":false,"rental_uris":{"android":"levelo://app?vid=10077d56-1bba-49ad-aaa8-67a4223e43f2","ios":"levelo://app?vid=10077d56-1bba-49ad-aaa8-67a4223e43f2"},"vehicle_type_id":"4","last_reported":1729674585,"current_range_meters":26800,"station_id":"ce4bgt12rcd13ifvqcd0","pricing_plan_id":"cebpf4jnsgd1na2vs0mg"},{"bike_id":"51e54840-6eac-4c9b-9077-e239693ba7d6","system_id":"levelo_inurba_marseille","lat":43.30552,"lon":5.36702,"is_reserved":false,"is_disabled":false,"rental_uris":{"android":"levelo://app?vid=51e54840-6eac-4c9b-9077-e239693ba7d6","ios":"levelo://app?vid=51e54840-6eac-4c9b-9077-e239693ba7d6"},"vehicle_type_id":"4","last_reported":1729674585,"current_range_meters":27600,"station_id":"ce4bgrp2rcd13ifvqc9g","pricing_plan_id":"cebpf4jnsgd1na2vs0mg"},{"bike_id":"60e5e4bc-c6c3-4688-bc34-a72512f3bf0e","system_id":"levelo_inurba_marseille","lat":43.24997,"lon":5.38932,"is_reserved":false,"is_disabled":false,"rental_uris":{"android":"levelo://app?vid=60e5e4bc-c6c3-4688-bc34-a72512f3bf0e","ios":"levelo://app?vid=60e5e4bc-c6c3-4688-bc34-a72512f3bf0e"},"vehicle_type_id":"4","last_reported":1729674585,"current_range_meters":35600,"station_id":"ce4bhgp2rcd13ifvqfd0","pricing_plan_id":"cebpf4jnsgd1na2vs0mg"},{"bike_id":"4899f6e6-1d55-4a75-bd49-d67101dac4e6","system_id":"levelo_inurba_marseille","lat":43.26935,"lon":5.38908,"is_reserved":false,"is_disabled":false,"rental_uris":{"android":"levelo://app?vid=4899f6e6-1d55-4a75-bd49-d67101dac4e6","ios":"levelo://app?vid=4899f6e6-1d55-4a75-bd49-d67101dac4e6"},"vehicle_type_id":"4","last_reported":1729674585,"current_range_meters":38800,"station_id":"ce4bhhh2rcd13ifvqfl0","pricing_plan_id":"cebpf4jnsgd1na2vs0mg"},{"bike_id":"e3ddf2b3-1206-4f35-9597-006ddf7fa22b","system_id":"levelo_inurba_marseille","lat":43.30943,"lon":5.3904,"is_reserved":false,"is_disabled":false,"rental_uris":{"android":"levelo://app?vid=e3ddf2b3-1206-4f35-9597-006ddf7fa22b","ios":"levelo://app?vid=e3ddf2b3-1206-4f35-9597-006ddf7fa22b"},"vehicle_type_id":"4","last_reported":1729674585,"current_range_meters":38800,"station_id":"ce4bgup2rcd13ifvqco0","pricing_plan_id":"cebpf4jnsgd1na2vs0mg"},{"bike_id":"1c2ecf5b-008c-4b67-8b3c-46122f7ae36e","system_id":"levelo_inurba_marseille","lat":43.31358,"lon":5.38496,"is_reserved":false,"is_disabled":false,"rental_uris":{"android":"levelo://app?vid=1c2ecf5b-008c-4b67-8b3c-46122f7ae36e","ios":"levelo://app?vid=1c2ecf5b-008c-4b67-8b3c-46122f7ae36e"},"vehicle_type_id":"4","last_reported":1729674585,"current_range_meters":12400,"station_id":"ce4bgt92rcd13ifvqcf0","pricing_plan_id":"cebpf4jnsgd1na2vs0mg"},{"bike_id":"e20eacab-28c4-4862-9c97-caa408edf48c","system_id":"levelo_inurba_marseille","lat":43.23178,"lon":5.39992,"is_reserved":false,"is_disabled":false,"rental_uris":{"android":"levelo://app?vid=e20eacab-28c4-4862-9c97-caa408edf48c","ios":"levelo://app?vid=e20eacab-28c4-4862-9c97-caa408edf48c"},"vehicle_type_id":"4","last_reported":1729674585,"current_range_meters":24400,"station_id":"ce4bhn12rcd13ifvqgqg","pricing_plan_id":"cebpf4jnsgd1na2vs0mg"},{"bike_id":"e3cf28e5-1fa6-4bbd-851a-f68e52f588cf","system_id":"levelo_inurba_marseille","lat":43.30846,"lon":5.37314,"is_reserved":false,"is_disabled":false,"rental_uris":{"android":"levelo://app?vid=e3cf28e5-1fa6-4bbd-851a-f68e52f588cf","ios":"levelo://app?vid=e3cf28e5-1fa6-4bbd-851a-f68e52f588cf"},"vehicle_type_id":"4","last_reported":1729674585,"current_range_meters":27200,"station_id":"ce4bguh2rcd13ifvqckg","pricing_plan_id":"cebpf4jnsgd1na2vs0mg"},{"bike_id":"3c3b48bb-f8a9-4ae9-82bb-3bca79d11ade","system_id":"levelo_inurba_marseille","lat":43.30555,"lon":5.36705,"is_reserved":false,"is_disabled":false,"rental_uris":{"android":"levelo://app?vid=3c3b48bb-f8a9-4ae9-82bb-3bca79d11ade","ios":"levelo://app?vid=3c3b48bb-f8a9-4ae9-82bb-3bca79d11ade"},"vehicle_type_id":"4","last_reported":1729674585,"current_range_meters":26000,"station_id":"ce4bgrp2rcd13ifvqc9g","pricing_plan_id":"cebpf4jnsgd1na2vs0mg"},{"bike_id":"4145a2f9-e09c-4c66-bf90-de4da867398d","system_id":"levelo_inurba_marseille","lat":43.23144,"lon":5.43703,"is_reserved":false,"is_disabled":false,"rental_uris":{"android":"levelo://app?vid=4145a2f9-e09c-4c66-bf90-de4da867398d","ios":"levelo://app?vid=4145a2f9-e09c-4c66-bf90-de4da867398d"},"vehicle_type_id":"4","last_reported":1729674585,"current_range_meters":38800,"station_id":"ce4bhmp2rcd13ifvqgog","pricing_plan_id":"cebpf4jnsgd1na2vs0mg"},{"bike_id":"c04ab802-f35d-4e5d-8440-52e2f675fa64","system_id":"levelo_inurba_marseille","lat":43.231633,"lon":5.436796,"is_reserved":false,"is_disabled":false,"rental_uris":{"android":"levelo://app?vid=c04ab802-f35d-4e5d-8440-52e2f675fa64","ios":"levelo://app?vid=c04ab802-f35d-4e5d-8440-52e2f675fa64"},"vehicle_type_id":"4","last_reported":1729674585,"current_range_meters":38400,"station_id":"ce4bhmp2rcd13ifvqgog","pricing_plan_id":"cebpf4jnsgd1na2vs0mg"},{"bike_id":"a0981640-b2cf-471d-9209-74b7def922a1","system_id":"levelo_inurba_marseille","lat":43.30909,"lon":5.3686,"is_reserved":false,"is_disabled":false,"rental_uris":{"android":"levelo://app?vid=a0981640-b2cf-471d-9209-74b7def922a1","ios":"levelo://app?vid=a0981640-b2cf-471d-9209-74b7def922a1"},"vehicle_type_id":"4","last_reported":1729674585,"current_range_meters":9600,"station_id":"ce4bgn92rcd13ifvqbvg","pricing_plan_id":"cebpf4jnsgd1na2vs0mg"},{"bike_id":"f7436227-8593-4258-8d76-388d13547bae","system_id":"levelo_inurba_marseille","lat":43.33613,"lon":5.41027,"is_reserved":false,"is_disabled":false,"rental_uris":{"android":"levelo://app?vid=f7436227-8593-4258-8d76-388d13547bae","ios":"levelo://app?vid=f7436227-8593-4258-8d76-388d13547bae"},"vehicle_type_id":"4","last_reported":1729674585,"current_range_meters":16000,"station_id":"ce4bhqh2rcd13ifvqhmg","pricing_plan_id":"cebpf4jnsgd1na2vs0mg"},{"bike_id":"bdd98d7d-7dad-4fba-affb-fa998522963b","system_id":"levelo_inurba_marseille","lat":43.28097,"lon":5.37846,"is_reserved":false,"is_disabled":false,"rental_uris":{"android":"levelo://app?vid=bdd98d7d-7dad-4fba-affb-fa998522963b","ios":"levelo://app?vid=bdd98d7d-7dad-4fba-affb-fa998522963b"},"vehicle_type_id":"4","last_reported":1729674585,"current_range_meters":38800,"station_id":"ce4bha12rcd13ifvqee0","pricing_plan_id":"cebpf4jnsgd1na2vs0mg"},{"bike_id":"ad9de5b6-177b-4378-9830-1f58fb51f4e4","system_id":"levelo_inurba_marseille","lat":43.31328,"lon":5.36731,"is_reserved":false,"is_disabled":false,"rental_uris":{"android":"levelo://app?vid=ad9de5b6-177b-4378-9830-1f58fb51f4e4","ios":"levelo://app?vid=ad9de5b6-177b-4378-9830-1f58fb51f4e4"},"vehicle_type_id":"4","last_reported":1729674585,"current_range_meters":12800,"station_id":"ce4bgr92rcd13ifvqc6g","pricing_plan_id":"cebpf4jnsgd1na2vs0mg"},{"bike_id":"fe269560-e2b9-488b-9e4b-72beadfad0e4","system_id":"levelo_inurba_marseille","lat":43.30273,"lon":5.37697,"is_reserved":false,"is_disabled":false,"rental_uris":{"android":"levelo://app?vid=fe269560-e2b9-488b-9e4b-72beadfad0e4","ios":"levelo://app?vid=fe269560-e2b9-488b-9e4b-72beadfad0e4"},"vehicle_type_id":"4","last_reported":1729674585,"current_range_meters":40000,"station_id":"ce4bguh2rcd13ifvqcj0","pricing_plan_id":"cebpf4jnsgd1na2vs0mg"},{"bike_id":"9bf3276f-a487-4335-8e6e-36b06e93bdd5","system_id":"levelo_inurba_marseille","lat":43.26939,"lon":5.40249,"is_reserved":false,"is_disabled":false,"rental_uris":{"android":"levelo://app?vid=9bf3276f-a487-4335-8e6e-36b06e93bdd5","ios":"levelo://app?vid=9bf3276f-a487-4335-8e6e-36b06e93bdd5"},"vehicle_type_id":"4","last_reported":1729674585,"current_range_meters":28400,"station_id":"cjm6bp8fraef2m0cb0m0","pricing_plan_id":"cebpf4jnsgd1na2vs0mg"},{"bike_id":"f25aa99e-7229-499e-97f6-1721148d5a06","system_id":"levelo_inurba_marseille","lat":43.27816,"lon":5.39219,"is_reserved":false,"is_disabled":false,"rental_uris":{"android":"levelo://app?vid=f25aa99e-7229-499e-97f6-1721148d5a06","ios":"levelo://app?vid=f25aa99e-7229-499e-97f6-1721148d5a06"},"vehicle_type_id":"4","last_reported":1729674585,"current_range_meters":37600,"station_id":"ce4bhjp2rcd13ifvqga0","pricing_plan_id":"cebpf4jnsgd1na2vs0mg"},{"bike_id":"ac1f3f03-0071-47c1-b4fb-f76f956d3ec6","system_id":"levelo_inurba_marseille","lat":43.33727,"lon":5.39177,"is_reserved":false,"is_disabled":false,"rental_uris":{"android":"levelo://app?vid=ac1f3f03-0071-47c1-b4fb-f76f956d3ec6","ios":"levelo://app?vid=ac1f3f03-0071-47c1-b4fb-f76f956d3ec6"},"vehicle_type_id":"4","last_reported":1729674585,"current_range_meters":38000,"station_id":"ce4bhr92rcd13ifvqhsg","pricing_plan_id":"cebpf4jnsgd1na2vs0mg"},{"bike_id":"0824ca51-dbbf-47f1-8a43-2612dbdf03a3","system_id":"levelo_inurba_marseille","lat":43.24071,"lon":5.37754,"is_reserved":false,"is_disabled":false,"rental_uris":{"android":"levelo://app?vid=0824ca51-dbbf-47f1-8a43-2612dbdf03a3","ios":"levelo://app?vid=0824ca51-dbbf-47f1-8a43-2612dbdf03a3"},"vehicle_type_id":"4","last_reported":1729674585,"current_range_meters":31200,"station_id":"ce4bhnp2rcd13ifvqgvg","pricing_plan_id":"cebpf4jnsgd1na2vs0mg"},{"bike_id":"77ae5011-107a-4b38-aeb4-39c175bd1b3b","system_id":"levelo_inurba_marseille","lat":43.24544,"lon":5.39525,"is_reserved":false,"is_disabled":false,"rental_uris":{"android":"levelo://app?vid=77ae5011-107a-4b38-aeb4-39c175bd1b3b","ios":"levelo://app?vid=77ae5011-107a-4b38-aeb4-39c175bd1b3b"},"vehicle_type_id":"4","last_reported":1729674585,"current_range_meters":8000,"station_id":"ce4bhlp2rcd13ifvqgjg","pricing_plan_id":"cebpf4jnsgd1na2vs0mg"},{"bike_id":"e5f13f28-f8d4-4ce8-836c-dc1c942c7da6","system_id":"levelo_inurba_marseille","lat":43.29953,"lon":5.38482,"is_reserved":false,"is_disabled":false,"rental_uris":{"android":"levelo://app?vid=e5f13f28-f8d4-4ce8-836c-dc1c942c7da6","ios":"levelo://app?vid=e5f13f28-f8d4-4ce8-836c-dc1c942c7da6"},"vehicle_type_id":"4","last_reported":1729674585,"current_range_meters":9200,"station_id":"","pricing_plan_id":"cebpf4jnsgd1na2vs0mg"},{"bike_id":"be2b3e40-2e33-406c-a481-847cc51ad1cd","system_id":"levelo_inurba_marseille","lat":43.24645,"lon":5.389,"is_reserved":false,"is_disabled":false,"rental_uris":{"android":"levelo://app?vid=be2b3e40-2e33-406c-a481-847cc51ad1cd","ios":"levelo://app?vid=be2b3e40-2e33-406c-a481-847cc51ad1cd"},"vehicle_type_id":"4","last_reported":1729674585,"current_range_meters":8400,"station_id":"ce4bhg12rcd13ifvqf60","pricing_plan_id":"cebpf4jnsgd1na2vs0mg"},{"bike_id":"d04a0a7b-a14a-4fa4-ae16-ffa470dfd5e1","system_id":"levelo_inurba_marseille","lat":43.325378,"lon":5.414279,"is_reserved":false,"is_disabled":false,"rental_uris":{"android":"levelo://app?vid=d04a0a7b-a14a-4fa4-ae16-ffa470dfd5e1","ios":"levelo://app?vid=d04a0a7b-a14a-4fa4-ae16-ffa470dfd5e1"},"vehicle_type_id":"4","last_reported":1729674585,"current_range_meters":8400,"station_id":"ce4bhq12rcd13ifvqhhg","pricing_plan_id":"cebpf4jnsgd1na2vs0mg"},{"bike_id":"61936444-6ead-4d1c-b308-c7f638194220","system_id":"levelo_inurba_marseille","lat":43.2861,"lon":5.35107,"is_reserved":false,"is_disabled":false,"rental_uris":{"android":"levelo://app?vid=61936444-6ead-4d1c-b308-c7f638194220","ios":"levelo://app?vid=61936444-6ead-4d1c-b308-c7f638194220"},"vehicle_type_id":"4","last_reported":1729674585,"current_range_meters":18800,"station_id":"ce4bhch2rcd13ifvqeug","pricing_plan_id":"cebpf4jnsgd1na2vs0mg"},{"bike_id":"547c7232-52ae-4113-b72e-784726fa89fb","system_id":"levelo_inurba_marseille","lat":43.26204,"lon":5.37925,"is_reserved":false,"is_disabled":false,"rental_uris":{"android":"levelo://app?vid=547c7232-52ae-4113-b72e-784726fa89fb","ios":"levelo://app?vid=547c7232-52ae-4113-b72e-784726fa89fb"},"vehicle_type_id":"4","last_reported":1729674585,"current_range_meters":24800,"station_id":"ce4bhjp2rcd13ifvqg90","pricing_plan_id":"cebpf4jnsgd1na2vs0mg"},{"bike_id":"701b3236-71f5-4af2-a91f-70173ad1d636","system_id":"levelo_inurba_marseille","lat":43.25938,"lon":5.40903,"is_reserved":false,"is_disabled":false,"rental_uris":{"android":"levelo://app?vid=701b3236-71f5-4af2-a91f-70173ad1d636","ios":"levelo://app?vid=701b3236-71f5-4af2-a91f-70173ad1d636"},"vehicle_type_id":"4","last_reported":1729674585,"current_range_meters":27600,"station_id":"ce4bhm92rcd13ifvqglg","pricing_plan_id":"cebpf4jnsgd1na2vs0mg"},{"bike_id":"2dfe5876-e538-4e84-a18d-86cf969c1573","system_id":"levelo_inurba_marseille","lat":43.28409,"lon":5.34978,"is_reserved":false,"is_disabled":false,"rental_uris":{"android":"levelo://app?vid=2dfe5876-e538-4e84-a18d-86cf969c1573","ios":"levelo://app?vid=2dfe5876-e538-4e84-a18d-86cf969c1573"},"vehicle_type_id":"4","last_reported":1729674585,"current_range_meters":12800,"station_id":"ce4bhbh2rcd13ifvqepg","pricing_plan_id":"cebpf4jnsgd1na2vs0mg"},{"bike_id":"29665abb-bb05-4470-bec8-a92af688bd5f","system_id":"levelo_inurba_marseille","lat":43.29556,"lon":5.42282,"is_reserved":false,"is_disabled":false,"rental_uris":{"android":"levelo://app?vid=29665abb-bb05-4470-bec8-a92af688bd5f","ios":"levelo://app?vid=29665abb-bb05-4470-bec8-a92af688bd5f"},"vehicle_type_id":"4","last_reported":1729674585,"current_range_meters":30000,"station_id":"ce4bhph2rcd13ifvqhdg","pricing_plan_id":"cebpf4jnsgd1na2vs0mg"},{"bike_id":"e478ea83-df5b-412b-a5cd-559269c4a7b3","system_id":"levelo_inurba_marseille","lat":43.29364,"lon":5.37849,"is_reserved":false,"is_disabled":false,"rental_uris":{"android":"levelo://app?vid=e478ea83-df5b-412b-a5cd-559269c4a7b3","ios":"levelo://app?vid=e478ea83-df5b-412b-a5cd-559269c4a7b3"},"vehicle_type_id":"4","last_reported":1729674585,"current_range_meters":6000,"station_id":"ce4bgjh2rcd13ifvqbf0","pricing_plan_id":"cebpf4jnsgd1na2vs0mg"},{"bike_id":"ffe855c4-4fd2-4bc9-9768-2d5ddb1326c1","system_id":"levelo_inurba_marseille","lat":43.2512,"lon":5.40313,"is_reserved":false,"is_disabled":false,"rental_uris":{"android":"levelo://app?vid=ffe855c4-4fd2-4bc9-9768-2d5ddb1326c1","ios":"levelo://app?vid=ffe855c4-4fd2-4bc9-9768-2d5ddb1326c1"},"vehicle_type_id":"4","last_reported":1729674585,"current_range_meters":11200,"station_id":"ce4bhlh2rcd13ifvqgig","pricing_plan_id":"cebpf4jnsgd1na2vs0mg"},{"bike_id":"2a37f1e1-d761-49c8-8947-9ae2a5e5e0bd","system_id":"levelo_inurba_marseille","lat":43.26934,"lon":5.38919,"is_reserved":false,"is_disabled":false,"rental_uris":{"android":"levelo://app?vid=2a37f1e1-d761-49c8-8947-9ae2a5e5e0bd","ios":"levelo://app?vid=2a37f1e1-d761-49c8-8947-9ae2a5e5e0bd"},"vehicle_type_id":"4","last_reported":1729674585,"current_range_meters":12400,"station_id":"ce4bhhh2rcd13ifvqfl0","pricing_plan_id":"cebpf4jnsgd1na2vs0mg"},{"bike_id":"c3945b60-e38d-4106-8f18-92c7f436cc4f","system_id":"levelo_inurba_marseille","lat":43.33751,"lon":5.37444,"is_reserved":false,"is_disabled":false,"rental_uris":{"android":"levelo://app?vid=c3945b60-e38d-4106-8f18-92c7f436cc4f","ios":"levelo://app?vid=c3945b60-e38d-4106-8f18-92c7f436cc4f"},"vehicle_type_id":"4","last_reported":1729674585,"current_range_meters":28000,"station_id":"","pricing_plan_id":"cebpf4jnsgd1na2vs0mg"},{"bike_id":"362dd47a-a0a2-4fcc-86ce-5b0a1c4cac31","system_id":"levelo_inurba_marseille","lat":43.27367,"lon":5.36256,"is_reserved":false,"is_disabled":false,"rental_uris":{"android":"levelo://app?vid=362dd47a-a0a2-4fcc-86ce-5b0a1c4cac31","ios":"levelo://app?vid=362dd47a-a0a2-4fcc-86ce-5b0a1c4cac31"},"vehicle_type_id":"4","last_reported":1729674585,"current_range_meters":38800,"station_id":"ce4bhbh2rcd13ifvqeo0","pricing_plan_id":"cebpf4jnsgd1na2vs0mg"},{"bike_id":"e8839754-dcbd-4225-9a5d-ef32b4e3bfac","system_id":"levelo_inurba_marseille","lat":43.29603,"lon":5.37724,"is_reserved":false,"is_disabled":false,"rental_uris":{"android":"levelo://app?vid=e8839754-dcbd-4225-9a5d-ef32b4e3bfac","ios":"levelo://app?vid=e8839754-dcbd-4225-9a5d-ef32b4e3bfac"},"vehicle_type_id":"4","last_reported":1729674585,"current_range_meters":35200,"station_id":"ce4bgi92rcd13ifvqb90","pricing_plan_id":"cebpf4jnsgd1na2vs0mg"},{"bike_id":"78018770-86ea-4404-8452-ce018255cd17","system_id":"levelo_inurba_marseille","lat":43.22927,"lon":5.35379,"is_reserved":false,"is_disabled":false,"rental_uris":{"android":"levelo://app?vid=78018770-86ea-4404-8452-ce018255cd17","ios":"levelo://app?vid=78018770-86ea-4404-8452-ce018255cd17"},"vehicle_type_id":"4","last_reported":1729674585,"current_range_meters":23200,"station_id":"cpo3532slgdg3j2ikp40","pricing_plan_id":"cebpf4jnsgd1na2vs0mg"},{"bike_id":"5304e6d2-a025-4504-9ff2-0054277e008d","system_id":"levelo_inurba_marseille","lat":43.27369,"lon":5.3626,"is_reserved":false,"is_disabled":false,"rental_uris":{"android":"levelo://app?vid=5304e6d2-a025-4504-9ff2-0054277e008d","ios":"levelo://app?vid=5304e6d2-a025-4504-9ff2-0054277e008d"},"vehicle_type_id":"4","last_reported":1729674585,"current_range_meters":38800,"station_id":"ce4bhbh2rcd13ifvqeo0","pricing_plan_id":"cebpf4jnsgd1na2vs0mg"},{"bike_id":"b7b5eb66-a856-4a84-82cc-7d49c1519abe","system_id":"levelo_inurba_marseille","lat":43.31351,"lon":5.36709,"is_reserved":false,"is_disabled":false,"rental_uris":{"android":"levelo://app?vid=b7b5eb66-a856-4a84-82cc-7d49c1519abe","ios":"levelo://app?vid=b7b5eb66-a856-4a84-82cc-7d49c1519abe"},"vehicle_type_id":"4","last_reported":1729674585,"current_range_meters":35600,"station_id":"ce4bgr92rcd13ifvqc6g","pricing_plan_id":"cebpf4jnsgd1na2vs0mg"},{"bike_id":"0ee38f66-ee8f-4341-8b97-438d0d625d0c","system_id":"levelo_inurba_marseille","lat":43.30274,"lon":5.37698,"is_reserved":false,"is_disabled":false,"rental_uris":{"android":"levelo://app?vid=0ee38f66-ee8f-4341-8b97-438d0d625d0c","ios":"levelo://app?vid=0ee38f66-ee8f-4341-8b97-438d0d625d0c"},"vehicle_type_id":"4","last_reported":1729674585,"current_range_meters":40000,"station_id":"ce4bguh2rcd13ifvqcj0","pricing_plan_id":"cebpf4jnsgd1na2vs0mg"},{"bike_id":"d6e9220a-aa5c-4118-b49f-21987c9ba12d","system_id":"levelo_inurba_marseille","lat":43.292,"lon":5.3932,"is_reserved":false,"is_disabled":false,"rental_uris":{"android":"levelo://app?vid=d6e9220a-aa5c-4118-b49f-21987c9ba12d","ios":"levelo://app?vid=d6e9220a-aa5c-4118-b49f-21987c9ba12d"},"vehicle_type_id":"4","last_reported":1729674585,"current_range_meters":20800,"station_id":"ce4bh192rcd13ifvqdd0","pricing_plan_id":"cebpf4jnsgd1na2vs0mg"},{"bike_id":"cc4282c3-5084-4167-b916-786615bacfbd","system_id":"levelo_inurba_marseille","lat":43.32035,"lon":5.41556,"is_reserved":false,"is_disabled":false,"rental_uris":{"android":"levelo://app?vid=cc4282c3-5084-4167-b916-786615bacfbd","ios":"levelo://app?vid=cc4282c3-5084-4167-b916-786615bacfbd"},"vehicle_type_id":"4","last_reported":1729674585,"current_range_meters":36400,"station_id":"ce4bhq92rcd13ifvqhkg","pricing_plan_id":"cebpf4jnsgd1na2vs0mg"},{"bike_id":"1135af4d-b7d7-4190-b0cb-6113c69ae2ea","system_id":"levelo_inurba_marseille","lat":43.2737,"lon":5.36252,"is_reserved":false,"is_disabled":false,"rental_uris":{"android":"levelo://app?vid=1135af4d-b7d7-4190-b0cb-6113c69ae2ea","ios":"levelo://app?vid=1135af4d-b7d7-4190-b0cb-6113c69ae2ea"},"vehicle_type_id":"4","last_reported":1729674585,"current_range_meters":38800,"station_id":"ce4bhbh2rcd13ifvqeo0","pricing_plan_id":"cebpf4jnsgd1na2vs0mg"},{"bike_id":"e42e5786-e1e5-4d1a-8aeb-2e2155877455","system_id":"levelo_inurba_marseille","lat":43.30471,"lon":5.37892,"is_reserved":false,"is_disabled":false,"rental_uris":{"android":"levelo://app?vid=e42e5786-e1e5-4d1a-8aeb-2e2155877455","ios":"levelo://app?vid=e42e5786-e1e5-4d1a-8aeb-2e2155877455"},"vehicle_type_id":"4","last_reported":1729674585,"current_range_meters":26000,"station_id":"ce4bgup2rcd13ifvqcn0","pricing_plan_id":"cebpf4jnsgd1na2vs0mg"},{"bike_id":"5be8d1be-f122-4220-9b1e-4c549fd37a12","system_id":"levelo_inurba_marseille","lat":43.29965,"lon":5.38493,"is_reserved":false,"is_disabled":false,"rental_uris":{"android":"levelo://app?vid=5be8d1be-f122-4220-9b1e-4c549fd37a12","ios":"levelo://app?vid=5be8d1be-f122-4220-9b1e-4c549fd37a12"},"vehicle_type_id":"4","last_reported":1729674585,"current_range_meters":38400,"station_id":"ce4bgj92rcd13ifvqbd0","pricing_plan_id":"cebpf4jnsgd1na2vs0mg"},{"bike_id":"1d3c2354-bb06-46ef-82cb-7b20702826e7","system_id":"levelo_inurba_marseille","lat":43.31336,"lon":5.36719,"is_reserved":false,"is_disabled":false,"rental_uris":{"android":"levelo://app?vid=1d3c2354-bb06-46ef-82cb-7b20702826e7","ios":"levelo://app?vid=1d3c2354-bb06-46ef-82cb-7b20702826e7"},"vehicle_type_id":"4","last_reported":1729674585,"current_range_meters":39200,"station_id":"ce4bgr92rcd13ifvqc6g","pricing_plan_id":"cebpf4jnsgd1na2vs0mg"},{"bike_id":"751e368a-dc10-44fb-895b-4168abcec8d0","system_id":"levelo_inurba_marseille","lat":43.305914,"lon":5.372308,"is_reserved":false,"is_disabled":false,"rental_uris":{"android":"levelo://app?vid=751e368a-dc10-44fb-895b-4168abcec8d0","ios":"levelo://app?vid=751e368a-dc10-44fb-895b-4168abcec8d0"},"vehicle_type_id":"4","last_reported":1729674585,"current_range_meters":32400,"station_id":"ce4bgqh2rcd13ifvqc4g","pricing_plan_id":"cebpf4jnsgd1na2vs0mg"},{"bike_id":"8837f303-00fc-48e0-af7c-ba26952f7487","system_id":"levelo_inurba_marseille","lat":43.30468,"lon":5.37909,"is_reserved":false,"is_disabled":false,"rental_uris":{"android":"levelo://app?vid=8837f303-00fc-48e0-af7c-ba26952f7487","ios":"levelo://app?vid=8837f303-00fc-48e0-af7c-ba26952f7487"},"vehicle_type_id":"4","last_reported":1729674585,"current_range_meters":19200,"station_id":"ce4bgup2rcd13ifvqcn0","pricing_plan_id":"cebpf4jnsgd1na2vs0mg"},{"bike_id":"946611bd-808f-42aa-8d8e-3a209538d209","system_id":"levelo_inurba_marseille","lat":43.24072,"lon":5.3775,"is_reserved":false,"is_disabled":false,"rental_uris":{"android":"levelo://app?vid=946611bd-808f-42aa-8d8e-3a209538d209","ios":"levelo://app?vid=946611bd-808f-42aa-8d8e-3a209538d209"},"vehicle_type_id":"4","last_reported":1729674585,"current_range_meters":9600,"station_id":"ce4bhnp2rcd13ifvqgvg","pricing_plan_id":"cebpf4jnsgd1na2vs0mg"},{"bike_id":"e6f44c57-c336-4572-bbfa-1a3e6dfaeeae","system_id":"levelo_inurba_marseille","lat":43.24179,"lon":5.39732,"is_reserved":false,"is_disabled":false,"rental_uris":{"android":"levelo://app?vid=e6f44c57-c336-4572-bbfa-1a3e6dfaeeae","ios":"levelo://app?vid=e6f44c57-c336-4572-bbfa-1a3e6dfaeeae"},"vehicle_type_id":"4","last_reported":1729674585,"current_range_meters":24400,"station_id":"ce4bhn12rcd13ifvqgpg","pricing_plan_id":"cebpf4jnsgd1na2vs0mg"},{"bike_id":"8f10ef0d-0565-4eaf-a2d8-a4844f488a10","system_id":"levelo_inurba_marseille","lat":43.2655,"lon":5.37285,"is_reserved":false,"is_disabled":false,"rental_uris":{"android":"levelo://app?vid=8f10ef0d-0565-4eaf-a2d8-a4844f488a10","ios":"levelo://app?vid=8f10ef0d-0565-4eaf-a2d8-a4844f488a10"},"vehicle_type_id":"4","last_reported":1729674585,"current_range_meters":33600,"station_id":"ce4bhg12rcd13ifvqf70","pricing_plan_id":"cebpf4jnsgd1na2vs0mg"},{"bike_id":"a4f2d15f-d374-4de7-8037-5db7162ade91","system_id":"levelo_inurba_marseille","lat":43.3095,"lon":5.39045,"is_reserved":false,"is_disabled":false,"rental_uris":{"android":"levelo://app?vid=a4f2d15f-d374-4de7-8037-5db7162ade91","ios":"levelo://app?vid=a4f2d15f-d374-4de7-8037-5db7162ade91"},"vehicle_type_id":"4","last_reported":1729674585,"current_range_meters":37600,"station_id":"ce4bgup2rcd13ifvqco0","pricing_plan_id":"cebpf4jnsgd1na2vs0mg"},{"bike_id":"0054e9c8-e852-4bb3-8ef5-fd27cbf1d8f3","system_id":"levelo_inurba_marseille","lat":43.3094,"lon":5.39038,"is_reserved":false,"is_disabled":false,"rental_uris":{"android":"levelo://app?vid=0054e9c8-e852-4bb3-8ef5-fd27cbf1d8f3","ios":"levelo://app?vid=0054e9c8-e852-4bb3-8ef5-fd27cbf1d8f3"},"vehicle_type_id":"4","last_reported":1729674585,"current_range_meters":40000,"station_id":"ce4bgup2rcd13ifvqco0","pricing_plan_id":"cebpf4jnsgd1na2vs0mg"},{"bike_id":"4a7abcc4-a1fa-417b-8ffa-a28e55985c43","system_id":"levelo_inurba_marseille","lat":43.24073,"lon":5.37752,"is_reserved":false,"is_disabled":false,"rental_uris":{"android":"levelo://app?vid=4a7abcc4-a1fa-417b-8ffa-a28e55985c43","ios":"levelo://app?vid=4a7abcc4-a1fa-417b-8ffa-a28e55985c43"},"vehicle_type_id":"4","last_reported":1729674585,"current_range_meters":37600,"station_id":"ce4bhnp2rcd13ifvqgvg","pricing_plan_id":"cebpf4jnsgd1na2vs0mg"},{"bike_id":"00147a9b-6f69-4e02-adb4-b3acdb71ac2a","system_id":"levelo_inurba_marseille","lat":43.298,"lon":5.40403,"is_reserved":false,"is_disabled":false,"rental_uris":{"android":"levelo://app?vid=00147a9b-6f69-4e02-adb4-b3acdb71ac2a","ios":"levelo://app?vid=00147a9b-6f69-4e02-adb4-b3acdb71ac2a"},"vehicle_type_id":"4","last_reported":1729674585,"current_range_meters":38400,"station_id":"ce4bh112rcd13ifvqd90","pricing_plan_id":"cebpf4jnsgd1na2vs0mg"},{"bike_id":"efd5afb5-affe-4f92-b718-8fb76e39b27d","system_id":"levelo_inurba_marseille","lat":43.32483,"lon":5.36562,"is_reserved":false,"is_disabled":false,"rental_uris":{"android":"levelo://app?vid=efd5afb5-affe-4f92-b718-8fb76e39b27d","ios":"levelo://app?vid=efd5afb5-affe-4f92-b718-8fb76e39b27d"},"vehicle_type_id":"4","last_reported":1729674585,"current_range_meters":4800,"station_id":"ce4bhs12rcd13ifvqhvg","pricing_plan_id":"cebpf4jnsgd1na2vs0mg"},{"bike_id":"1cb89668-4639-4679-b8dc-a5ed04190f3b","system_id":"levelo_inurba_marseille","lat":43.30552,"lon":5.365475,"is_reserved":false,"is_disabled":false,"rental_uris":{"android":"levelo://app?vid=1cb89668-4639-4679-b8dc-a5ed04190f3b","ios":"levelo://app?vid=1cb89668-4639-4679-b8dc-a5ed04190f3b"},"vehicle_type_id":"4","last_reported":1729674585,"current_range_meters":22000,"station_id":"ce4bgs12rcd13ifvqcag","pricing_plan_id":"cebpf4jnsgd1na2vs0mg"},{"bike_id":"1f41f209-6719-4a28-a2e3-1bcb9e5ada20","system_id":"levelo_inurba_marseille","lat":43.23155,"lon":5.43709,"is_reserved":false,"is_disabled":false,"rental_uris":{"android":"levelo://app?vid=1f41f209-6719-4a28-a2e3-1bcb9e5ada20","ios":"levelo://app?vid=1f41f209-6719-4a28-a2e3-1bcb9e5ada20"},"vehicle_type_id":"4","last_reported":1729674585,"current_range_meters":32000,"station_id":"ce4bhmp2rcd13ifvqgog","pricing_plan_id":"cebpf4jnsgd1na2vs0mg"},{"bike_id":"fed29e3d-ded9-4536-b5e9-762e6c2a1343","system_id":"levelo_inurba_marseille","lat":43.29968,"lon":5.39192,"is_reserved":false,"is_disabled":false,"rental_uris":{"android":"levelo://app?vid=fed29e3d-ded9-4536-b5e9-762e6c2a1343","ios":"levelo://app?vid=fed29e3d-ded9-4536-b5e9-762e6c2a1343"},"vehicle_type_id":"4","last_reported":1729674585,"current_range_meters":14000,"station_id":"ce4bghh2rcd13ifvqb60","pricing_plan_id":"cebpf4jnsgd1na2vs0mg"},{"bike_id":"3cca0b2c-080d-4d79-9322-1c111283f6de","system_id":"levelo_inurba_marseille","lat":43.30299,"lon":5.36908,"is_reserved":false,"is_disabled":false,"rental_uris":{"android":"levelo://app?vid=3cca0b2c-080d-4d79-9322-1c111283f6de","ios":"levelo://app?vid=3cca0b2c-080d-4d79-9322-1c111283f6de"},"vehicle_type_id":"4","last_reported":1729674585,"current_range_meters":32800,"station_id":"ce4bgqh2rcd13ifvqc5g","pricing_plan_id":"cebpf4jnsgd1na2vs0mg"},{"bike_id":"098893cd-4cf7-4f81-be3e-7248bbdae0ba","system_id":"levelo_inurba_marseille","lat":43.28148,"lon":5.42646,"is_reserved":false,"is_disabled":false,"rental_uris":{"android":"levelo://app?vid=098893cd-4cf7-4f81-be3e-7248bbdae0ba","ios":"levelo://app?vid=098893cd-4cf7-4f81-be3e-7248bbdae0ba"},"vehicle_type_id":"4","last_reported":1729674585,"current_range_meters":8000,"station_id":"ce4bhnh2rcd13ifvqgug","pricing_plan_id":"cebpf4jnsgd1na2vs0mg"},{"bike_id":"611e0598-9200-4544-babc-7f8a60d18d6b","system_id":"levelo_inurba_marseille","lat":43.29681,"lon":5.37281,"is_reserved":false,"is_disabled":false,"rental_uris":{"android":"levelo://app?vid=611e0598-9200-4544-babc-7f8a60d18d6b","ios":"levelo://app?vid=611e0598-9200-4544-babc-7f8a60d18d6b"},"vehicle_type_id":"4","last_reported":1729674585,"current_range_meters":39200,"station_id":"ce4bgk12rcd13ifvqbj0","pricing_plan_id":"cebpf4jnsgd1na2vs0mg"},{"bike_id":"1d10a592-c5eb-4d86-97ba-5ef16b9ac87e","system_id":"levelo_inurba_marseille","lat":43.24171,"lon":5.39723,"is_reserved":false,"is_disabled":false,"rental_uris":{"android":"levelo://app?vid=1d10a592-c5eb-4d86-97ba-5ef16b9ac87e","ios":"levelo://app?vid=1d10a592-c5eb-4d86-97ba-5ef16b9ac87e"},"vehicle_type_id":"4","last_reported":1729674585,"current_range_meters":26800,"station_id":"ce4bhn12rcd13ifvqgpg","pricing_plan_id":"cebpf4jnsgd1na2vs0mg"},{"bike_id":"adcf0c35-0dc8-4cfc-8218-b28c09219d44","system_id":"levelo_inurba_marseille","lat":43.260565,"lon":5.393975,"is_reserved":false,"is_disabled":false,"rental_uris":{"android":"levelo://app?vid=adcf0c35-0dc8-4cfc-8218-b28c09219d44","ios":"levelo://app?vid=adcf0c35-0dc8-4cfc-8218-b28c09219d44"},"vehicle_type_id":"4","last_reported":1729674585,"current_range_meters":18000,"station_id":"ce4bhhp2rcd13ifvqfm0","pricing_plan_id":"cebpf4jnsgd1na2vs0mg"},{"bike_id":"01678755-0ad9-4bb7-8723-5a8d7c4420fc","system_id":"levelo_inurba_marseille","lat":43.280638,"lon":5.409825,"is_reserved":false,"is_disabled":false,"rental_uris":{"android":"levelo://app?vid=01678755-0ad9-4bb7-8723-5a8d7c4420fc","ios":"levelo://app?vid=01678755-0ad9-4bb7-8723-5a8d7c4420fc"},"vehicle_type_id":"4","last_reported":1729674585,"current_range_meters":16400,"station_id":"","pricing_plan_id":"cebpf4jnsgd1na2vs0mg"},{"bike_id":"8c79de4e-20bb-43e9-9c15-6c86ce5ce78c","system_id":"levelo_inurba_marseille","lat":43.30279,"lon":5.37693,"is_reserved":false,"is_disabled":false,"rental_uris":{"android":"levelo://app?vid=8c79de4e-20bb-43e9-9c15-6c86ce5ce78c","ios":"levelo://app?vid=8c79de4e-20bb-43e9-9c15-6c86ce5ce78c"},"vehicle_type_id":"4","last_reported":1729674585,"current_range_meters":36400,"station_id":"ce4bguh2rcd13ifvqcj0","pricing_plan_id":"cebpf4jnsgd1na2vs0mg"},{"bike_id":"0f039393-a982-48b9-b54c-dfebfff8b6e7","system_id":"levelo_inurba_marseille","lat":43.28151,"lon":5.42639,"is_reserved":false,"is_disabled":false,"rental_uris":{"android":"levelo://app?vid=0f039393-a982-48b9-b54c-dfebfff8b6e7","ios":"levelo://app?vid=0f039393-a982-48b9-b54c-dfebfff8b6e7"},"vehicle_type_id":"4","last_reported":1729674585,"current_range_meters":20800,"station_id":"ce4bhnh2rcd13ifvqgug","pricing_plan_id":"cebpf4jnsgd1na2vs0mg"},{"bike_id":"2baa28ee-1664-416e-93ba-67b1157e0343","system_id":"levelo_inurba_marseille","lat":43.3025,"lon":5.36862,"is_reserved":false,"is_disabled":false,"rental_uris":{"android":"levelo://app?vid=2baa28ee-1664-416e-93ba-67b1157e0343","ios":"levelo://app?vid=2baa28ee-1664-416e-93ba-67b1157e0343"},"vehicle_type_id":"4","last_reported":1729674585,"current_range_meters":33600,"station_id":"ce4bgrh2rcd13ifvqc8g","pricing_plan_id":"cebpf4jnsgd1na2vs0mg"},{"bike_id":"0a5f60d9-6ee9-419f-9cdc-46779d4056d7","system_id":"levelo_inurba_marseille","lat":43.29299,"lon":5.37446,"is_reserved":false,"is_disabled":false,"rental_uris":{"android":"levelo://app?vid=0a5f60d9-6ee9-419f-9cdc-46779d4056d7","ios":"levelo://app?vid=0a5f60d9-6ee9-419f-9cdc-46779d4056d7"},"vehicle_type_id":"4","last_reported":1729674585,"current_range_meters":25600,"station_id":"ce4bgi12rcd13ifvqb70","pricing_plan_id":"cebpf4jnsgd1na2vs0mg"},{"bike_id":"6ee31dd3-2f35-40f4-9c3a-989299752e69","system_id":"levelo_inurba_marseille","lat":43.27429,"lon":5.39415,"is_reserved":false,"is_disabled":false,"rental_uris":{"android":"levelo://app?vid=6ee31dd3-2f35-40f4-9c3a-989299752e69","ios":"levelo://app?vid=6ee31dd3-2f35-40f4-9c3a-989299752e69"},"vehicle_type_id":"4","last_reported":1729674585,"current_range_meters":21600,"station_id":"ce4bhdp2rcd13ifvqf20","pricing_plan_id":"cebpf4jnsgd1na2vs0mg"},{"bike_id":"f5f30601-ded9-4f3e-ac25-efe162c4df99","system_id":"levelo_inurba_marseille","lat":43.29369,"lon":5.37868,"is_reserved":false,"is_disabled":false,"rental_uris":{"android":"levelo://app?vid=f5f30601-ded9-4f3e-ac25-efe162c4df99","ios":"levelo://app?vid=f5f30601-ded9-4f3e-ac25-efe162c4df99"},"vehicle_type_id":"4","last_reported":1729674585,"current_range_meters":34000,"station_id":"ce4bgjh2rcd13ifvqbf0","pricing_plan_id":"cebpf4jnsgd1na2vs0mg"},{"bike_id":"e68074ff-f5e2-424b-ac9b-aa2b95174368","system_id":"levelo_inurba_marseille","lat":43.28151,"lon":5.42646,"is_reserved":false,"is_disabled":false,"rental_uris":{"android":"levelo://app?vid=e68074ff-f5e2-424b-ac9b-aa2b95174368","ios":"levelo://app?vid=e68074ff-f5e2-424b-ac9b-aa2b95174368"},"vehicle_type_id":"4","last_reported":1729674585,"current_range_meters":27200,"station_id":"ce4bhnh2rcd13ifvqgug","pricing_plan_id":"cebpf4jnsgd1na2vs0mg"},{"bike_id":"815dd284-1bd2-4bb9-992a-b2116e2485bc","system_id":"levelo_inurba_marseille","lat":43.32886,"lon":5.36422,"is_reserved":false,"is_disabled":false,"rental_uris":{"android":"levelo://app?vid=815dd284-1bd2-4bb9-992a-b2116e2485bc","ios":"levelo://app?vid=815dd284-1bd2-4bb9-992a-b2116e2485bc"},"vehicle_type_id":"4","last_reported":1729674585,"current_range_meters":30000,"station_id":"","pricing_plan_id":"cebpf4jnsgd1na2vs0mg"},{"bike_id":"7286cf38-90e4-4fde-865e-37e3f9890ed5","system_id":"levelo_inurba_marseille","lat":43.33612,"lon":5.41036,"is_reserved":false,"is_disabled":false,"rental_uris":{"android":"levelo://app?vid=7286cf38-90e4-4fde-865e-37e3f9890ed5","ios":"levelo://app?vid=7286cf38-90e4-4fde-865e-37e3f9890ed5"},"vehicle_type_id":"4","last_reported":1729674585,"current_range_meters":16400,"station_id":"","pricing_plan_id":"cebpf4jnsgd1na2vs0mg"},{"bike_id":"d7393099-f127-4cd5-b81c-477725d4b002","system_id":"levelo_inurba_marseille","lat":43.2873,"lon":5.37376,"is_reserved":false,"is_disabled":false,"rental_uris":{"android":"levelo://app?vid=d7393099-f127-4cd5-b81c-477725d4b002","ios":"levelo://app?vid=d7393099-f127-4cd5-b81c-477725d4b002"},"vehicle_type_id":"4","last_reported":1729674585,"current_range_meters":27200,"station_id":"ce4bh3p2rcd13ifvqdq0","pricing_plan_id":"cebpf4jnsgd1na2vs0mg"},{"bike_id":"e965d3a4-2c96-47af-ac7f-9f4ca7758090","system_id":"levelo_inurba_marseille","lat":43.24999,"lon":5.38924,"is_reserved":false,"is_disabled":false,"rental_uris":{"android":"levelo://app?vid=e965d3a4-2c96-47af-ac7f-9f4ca7758090","ios":"levelo://app?vid=e965d3a4-2c96-47af-ac7f-9f4ca7758090"},"vehicle_type_id":"4","last_reported":1729674585,"current_range_meters":16400,"station_id":"ce4bhgp2rcd13ifvqfd0","pricing_plan_id":"cebpf4jnsgd1na2vs0mg"},{"bike_id":"627811a9-4978-496f-972a-e45837dda420","system_id":"levelo_inurba_marseille","lat":43.27485,"lon":5.42452,"is_reserved":false,"is_disabled":false,"rental_uris":{"android":"levelo://app?vid=627811a9-4978-496f-972a-e45837dda420","ios":"levelo://app?vid=627811a9-4978-496f-972a-e45837dda420"},"vehicle_type_id":"4","last_reported":1729674585,"current_range_meters":6800,"station_id":"ce4bhn92rcd13ifvqgrg","pricing_plan_id":"cebpf4jnsgd1na2vs0mg"},{"bike_id":"07c2576b-607e-4887-b80e-36889f16876e","system_id":"levelo_inurba_marseille","lat":43.32479,"lon":5.36557,"is_reserved":false,"is_disabled":false,"rental_uris":{"android":"levelo://app?vid=07c2576b-607e-4887-b80e-36889f16876e","ios":"levelo://app?vid=07c2576b-607e-4887-b80e-36889f16876e"},"vehicle_type_id":"4","last_reported":1729674585,"current_range_meters":31200,"station_id":"ce4bhs12rcd13ifvqhvg","pricing_plan_id":"cebpf4jnsgd1na2vs0mg"},{"bike_id":"82e9161a-e4ea-4e3f-a478-11a62c98f17c","system_id":"levelo_inurba_marseille","lat":43.30296,"lon":5.36893,"is_reserved":false,"is_disabled":false,"rental_uris":{"android":"levelo://app?vid=82e9161a-e4ea-4e3f-a478-11a62c98f17c","ios":"levelo://app?vid=82e9161a-e4ea-4e3f-a478-11a62c98f17c"},"vehicle_type_id":"4","last_reported":1729674585,"current_range_meters":30800,"station_id":"ce4bgqh2rcd13ifvqc5g","pricing_plan_id":"cebpf4jnsgd1na2vs0mg"},{"bike_id":"2d9e3cdc-522f-4dad-a624-0c252e82e5b4","system_id":"levelo_inurba_marseille","lat":43.27614,"lon":5.36112,"is_reserved":false,"is_disabled":false,"rental_uris":{"android":"levelo://app?vid=2d9e3cdc-522f-4dad-a624-0c252e82e5b4","ios":"levelo://app?vid=2d9e3cdc-522f-4dad-a624-0c252e82e5b4"},"vehicle_type_id":"4","last_reported":1729674585,"current_range_meters":38400,"station_id":"ce4bgj92rcd13ifvqbe0","pricing_plan_id":"cebpf4jnsgd1na2vs0mg"},{"bike_id":"0e3c4388-07da-4bf0-b894-30ac8cf594bf","system_id":"levelo_inurba_marseille","lat":43.31698,"lon":5.37748,"is_reserved":false,"is_disabled":false,"rental_uris":{"android":"levelo://app?vid=0e3c4388-07da-4bf0-b894-30ac8cf594bf","ios":"levelo://app?vid=0e3c4388-07da-4bf0-b894-30ac8cf594bf"},"vehicle_type_id":"4","last_reported":1729674585,"current_range_meters":19600,"station_id":"ce4bgth2rcd13ifvqch0","pricing_plan_id":"cebpf4jnsgd1na2vs0mg"},{"bike_id":"f4da693c-548c-47ae-97e6-d67d2206004a","system_id":"levelo_inurba_marseille","lat":43.23152,"lon":5.43703,"is_reserved":false,"is_disabled":false,"rental_uris":{"android":"levelo://app?vid=f4da693c-548c-47ae-97e6-d67d2206004a","ios":"levelo://app?vid=f4da693c-548c-47ae-97e6-d67d2206004a"},"vehicle_type_id":"4","last_reported":1729674585,"current_range_meters":25200,"station_id":"ce4bhmp2rcd13ifvqgog","pricing_plan_id":"cebpf4jnsgd1na2vs0mg"},{"bike_id":"5957b8b0-c5f6-4934-a8c6-66a86e293efb","system_id":"levelo_inurba_marseille","lat":43.297802,"lon":5.393373,"is_reserved":false,"is_disabled":false,"rental_uris":{"android":"levelo://app?vid=5957b8b0-c5f6-4934-a8c6-66a86e293efb","ios":"levelo://app?vid=5957b8b0-c5f6-4934-a8c6-66a86e293efb"},"vehicle_type_id":"4","last_reported":1729674585,"current_range_meters":10000,"station_id":"chh1huq6cuj3fo74tm60","pricing_plan_id":"cebpf4jnsgd1na2vs0mg"},{"bike_id":"4ce5bde3-4773-452b-a6b6-79f9c8450f21","system_id":"levelo_inurba_marseille","lat":43.24386,"lon":5.37053,"is_reserved":false,"is_disabled":false,"rental_uris":{"android":"levelo://app?vid=4ce5bde3-4773-452b-a6b6-79f9c8450f21","ios":"levelo://app?vid=4ce5bde3-4773-452b-a6b6-79f9c8450f21"},"vehicle_type_id":"4","last_reported":1729674585,"current_range_meters":17600,"station_id":"ce4bhhh2rcd13ifvqfk0","pricing_plan_id":"cebpf4jnsgd1na2vs0mg"},{"bike_id":"d930c72e-2e49-494e-9ef3-91a18c0e0c69","system_id":"levelo_inurba_marseille","lat":43.26557,"lon":5.37282,"is_reserved":false,"is_disabled":false,"rental_uris":{"android":"levelo://app?vid=d930c72e-2e49-494e-9ef3-91a18c0e0c69","ios":"levelo://app?vid=d930c72e-2e49-494e-9ef3-91a18c0e0c69"},"vehicle_type_id":"4","last_reported":1729674585,"current_range_meters":10800,"station_id":"ce4bhg12rcd13ifvqf70","pricing_plan_id":"cebpf4jnsgd1na2vs0mg"},{"bike_id":"d4161f29-d3df-4329-b8b6-34c5516d6860","system_id":"levelo_inurba_marseille","lat":43.336103,"lon":5.410167,"is_reserved":false,"is_disabled":false,"rental_uris":{"android":"levelo://app?vid=d4161f29-d3df-4329-b8b6-34c5516d6860","ios":"levelo://app?vid=d4161f29-d3df-4329-b8b6-34c5516d6860"},"vehicle_type_id":"4","last_reported":1729674585,"current_range_meters":11200,"station_id":"ce4bhqh2rcd13ifvqhmg","pricing_plan_id":"cebpf4jnsgd1na2vs0mg"},{"bike_id":"09b91997-d707-4129-9f5f-9a85c6a1c5ff","system_id":"levelo_inurba_marseille","lat":43.27495,"lon":5.42447,"is_reserved":false,"is_disabled":false,"rental_uris":{"android":"levelo://app?vid=09b91997-d707-4129-9f5f-9a85c6a1c5ff","ios":"levelo://app?vid=09b91997-d707-4129-9f5f-9a85c6a1c5ff"},"vehicle_type_id":"4","last_reported":1729674585,"current_range_meters":29600,"station_id":"ce4bhn92rcd13ifvqgrg","pricing_plan_id":"cebpf4jnsgd1na2vs0mg"},{"bike_id":"4099f6c0-aad5-4ea8-9eb1-8430c7c78527","system_id":"levelo_inurba_marseille","lat":43.29421,"lon":5.38617,"is_reserved":false,"is_disabled":false,"rental_uris":{"android":"levelo://app?vid=4099f6c0-aad5-4ea8-9eb1-8430c7c78527","ios":"levelo://app?vid=4099f6c0-aad5-4ea8-9eb1-8430c7c78527"},"vehicle_type_id":"4","last_reported":1729674585,"current_range_meters":37600,"station_id":"ce4bh2h2rcd13ifvqdh0","pricing_plan_id":"cebpf4jnsgd1na2vs0mg"},{"bike_id":"43d69d33-2020-4479-8326-ebaa38f9987f","system_id":"levelo_inurba_marseille","lat":43.29627,"lon":5.36846,"is_reserved":false,"is_disabled":false,"rental_uris":{"android":"levelo://app?vid=43d69d33-2020-4479-8326-ebaa38f9987f","ios":"levelo://app?vid=43d69d33-2020-4479-8326-ebaa38f9987f"},"vehicle_type_id":"4","last_reported":1729674585,"current_range_meters":20800,"station_id":"ce4bgs12rcd13ifvqcag","pricing_plan_id":"cebpf4jnsgd1na2vs0mg"},{"bike_id":"d72ab090-7082-4783-8453-9f222942b9be","system_id":"levelo_inurba_marseille","lat":43.27198,"lon":5.3919,"is_reserved":false,"is_disabled":false,"rental_uris":{"android":"levelo://app?vid=d72ab090-7082-4783-8453-9f222942b9be","ios":"levelo://app?vid=d72ab090-7082-4783-8453-9f222942b9be"},"vehicle_type_id":"4","last_reported":1729674585,"current_range_meters":27600,"station_id":"ce4bhhp2rcd13ifvqfm0","pricing_plan_id":"cebpf4jnsgd1na2vs0mg"},{"bike_id":"03cf6868-0fec-4687-bfc0-6d467d66db8f","system_id":"levelo_inurba_marseille","lat":43.31215,"lon":5.36871,"is_reserved":false,"is_disabled":false,"rental_uris":{"android":"levelo://app?vid=03cf6868-0fec-4687-bfc0-6d467d66db8f","ios":"levelo://app?vid=03cf6868-0fec-4687-bfc0-6d467d66db8f"},"vehicle_type_id":"4","last_reported":1729674585,"current_range_meters":35600,"station_id":"ce4bgl92rcd13ifvqbq0","pricing_plan_id":"cebpf4jnsgd1na2vs0mg"},{"bike_id":"60646783-9c71-4bc3-a672-7c12563753a5","system_id":"levelo_inurba_marseille","lat":43.31703,"lon":5.37757,"is_reserved":false,"is_disabled":false,"rental_uris":{"android":"levelo://app?vid=60646783-9c71-4bc3-a672-7c12563753a5","ios":"levelo://app?vid=60646783-9c71-4bc3-a672-7c12563753a5"},"vehicle_type_id":"4","last_reported":1729674585,"current_range_meters":33200,"station_id":"ce4bgth2rcd13ifvqch0","pricing_plan_id":"cebpf4jnsgd1na2vs0mg"},{"bike_id":"78e537d8-bd8f-4d34-aae8-e7b0c845af68","system_id":"levelo_inurba_marseille","lat":43.30141,"lon":5.37407,"is_reserved":false,"is_disabled":false,"rental_uris":{"android":"levelo://app?vid=78e537d8-bd8f-4d34-aae8-e7b0c845af68","ios":"levelo://app?vid=78e537d8-bd8f-4d34-aae8-e7b0c845af68"},"vehicle_type_id":"4","last_reported":1729674585,"current_range_meters":36400,"station_id":"ce4bgs92rcd13ifvqcc0","pricing_plan_id":"cebpf4jnsgd1na2vs0mg"},{"bike_id":"d9a7c5d0-49be-4793-9408-db673cbd92f1","system_id":"levelo_inurba_marseille","lat":43.28397,"lon":5.37518,"is_reserved":false,"is_disabled":false,"rental_uris":{"android":"levelo://app?vid=d9a7c5d0-49be-4793-9408-db673cbd92f1","ios":"levelo://app?vid=d9a7c5d0-49be-4793-9408-db673cbd92f1"},"vehicle_type_id":"4","last_reported":1729674585,"current_range_meters":37600,"station_id":"ce4bh412rcd13ifvqds0","pricing_plan_id":"cebpf4jnsgd1na2vs0mg"},{"bike_id":"7f6f3cf9-248c-44d8-9c0f-c7f5ebfc9478","system_id":"levelo_inurba_marseille","lat":43.30258,"lon":5.3688,"is_reserved":false,"is_disabled":false,"rental_uris":{"android":"levelo://app?vid=7f6f3cf9-248c-44d8-9c0f-c7f5ebfc9478","ios":"levelo://app?vid=7f6f3cf9-248c-44d8-9c0f-c7f5ebfc9478"},"vehicle_type_id":"4","last_reported":1729674585,"current_range_meters":38400,"station_id":"ce4bgqh2rcd13ifvqc5g","pricing_plan_id":"cebpf4jnsgd1na2vs0mg"},{"bike_id":"22fc431c-b57c-465f-994e-166d81585d45","system_id":"levelo_inurba_marseille","lat":43.23963,"lon":5.36634,"is_reserved":false,"is_disabled":false,"rental_uris":{"android":"levelo://app?vid=22fc431c-b57c-465f-994e-166d81585d45","ios":"levelo://app?vid=22fc431c-b57c-465f-994e-166d81585d45"},"vehicle_type_id":"4","last_reported":1729674585,"current_range_meters":37600,"station_id":"ce4bhi12rcd13ifvqfp0","pricing_plan_id":"cebpf4jnsgd1na2vs0mg"},{"bike_id":"d3c7a73c-6b5f-4cdc-80e8-5660952d5502","system_id":"levelo_inurba_marseille","lat":43.29848,"lon":5.36271,"is_reserved":false,"is_disabled":false,"rental_uris":{"android":"levelo://app?vid=d3c7a73c-6b5f-4cdc-80e8-5660952d5502","ios":"levelo://app?vid=d3c7a73c-6b5f-4cdc-80e8-5660952d5502"},"vehicle_type_id":"4","last_reported":1729674585,"current_range_meters":36800,"station_id":"ce4bgpp2rcd13ifvqc3g","pricing_plan_id":"cebpf4jnsgd1na2vs0mg"},{"bike_id":"030c97b1-1cc9-4c8a-9225-72543e1967f8","system_id":"levelo_inurba_marseille","lat":43.33761,"lon":5.37465,"is_reserved":false,"is_disabled":false,"rental_uris":{"android":"levelo://app?vid=030c97b1-1cc9-4c8a-9225-72543e1967f8","ios":"levelo://app?vid=030c97b1-1cc9-4c8a-9225-72543e1967f8"},"vehicle_type_id":"4","last_reported":1729674585,"current_range_meters":32000,"station_id":"","pricing_plan_id":"cebpf4jnsgd1na2vs0mg"},{"bike_id":"f4aea8d2-64a2-4124-9304-7da77467e05f","system_id":"levelo_inurba_marseille","lat":43.34141,"lon":5.40901,"is_reserved":false,"is_disabled":false,"rental_uris":{"android":"levelo://app?vid=f4aea8d2-64a2-4124-9304-7da77467e05f","ios":"levelo://app?vid=f4aea8d2-64a2-4124-9304-7da77467e05f"},"vehicle_type_id":"4","last_reported":1729674585,"current_range_meters":26800,"station_id":"ce4bhqh2rcd13ifvqhlg","pricing_plan_id":"cebpf4jnsgd1na2vs0mg"},{"bike_id":"7840748f-5407-4646-a30e-2dede6e90251","system_id":"levelo_inurba_marseille","lat":43.24999,"lon":5.38926,"is_reserved":false,"is_disabled":false,"rental_uris":{"android":"levelo://app?vid=7840748f-5407-4646-a30e-2dede6e90251","ios":"levelo://app?vid=7840748f-5407-4646-a30e-2dede6e90251"},"vehicle_type_id":"4","last_reported":1729674585,"current_range_meters":30000,"station_id":"ce4bhgp2rcd13ifvqfd0","pricing_plan_id":"cebpf4jnsgd1na2vs0mg"},{"bike_id":"c9aaa140-4cb3-444a-80ce-93944fd36d74","system_id":"levelo_inurba_marseille","lat":43.24996,"lon":5.38923,"is_reserved":false,"is_disabled":false,"rental_uris":{"android":"levelo://app?vid=c9aaa140-4cb3-444a-80ce-93944fd36d74","ios":"levelo://app?vid=c9aaa140-4cb3-444a-80ce-93944fd36d74"},"vehicle_type_id":"4","last_reported":1729674585,"current_range_meters":34000,"station_id":"ce4bhgp2rcd13ifvqfd0","pricing_plan_id":"cebpf4jnsgd1na2vs0mg"},{"bike_id":"b4c17c83-feb2-4320-b8f2-f428bac7a5ec","system_id":"levelo_inurba_marseille","lat":43.31378,"lon":5.38493,"is_reserved":false,"is_disabled":false,"rental_uris":{"android":"levelo://app?vid=b4c17c83-feb2-4320-b8f2-f428bac7a5ec","ios":"levelo://app?vid=b4c17c83-feb2-4320-b8f2-f428bac7a5ec"},"vehicle_type_id":"4","last_reported":1729674585,"current_range_meters":38800,"station_id":"ce4bgt92rcd13ifvqcf0","pricing_plan_id":"cebpf4jnsgd1na2vs0mg"},{"bike_id":"d8ddc338-20fd-44c4-8501-10e241365d81","system_id":"levelo_inurba_marseille","lat":43.29273,"lon":5.4012,"is_reserved":false,"is_disabled":false,"rental_uris":{"android":"levelo://app?vid=d8ddc338-20fd-44c4-8501-10e241365d81","ios":"levelo://app?vid=d8ddc338-20fd-44c4-8501-10e241365d81"},"vehicle_type_id":"4","last_reported":1729674585,"current_range_meters":37600,"station_id":"ce4bh312rcd13ifvqdk0","pricing_plan_id":"cebpf4jnsgd1na2vs0mg"},{"bike_id":"2cdf5722-0992-422b-b8c9-f0bdbeea1331","system_id":"levelo_inurba_marseille","lat":43.27068,"lon":5.42274,"is_reserved":false,"is_disabled":false,"rental_uris":{"android":"levelo://app?vid=2cdf5722-0992-422b-b8c9-f0bdbeea1331","ios":"levelo://app?vid=2cdf5722-0992-422b-b8c9-f0bdbeea1331"},"vehicle_type_id":"4","last_reported":1729674585,"current_range_meters":40000,"station_id":"ce4bhk92rcd13ifvqgb0","pricing_plan_id":"cebpf4jnsgd1na2vs0mg"},{"bike_id":"27a5a8b0-563c-46fc-81e5-f40494c9273e","system_id":"levelo_inurba_marseille","lat":43.26493,"lon":5.39547,"is_reserved":false,"is_disabled":false,"rental_uris":{"android":"levelo://app?vid=27a5a8b0-563c-46fc-81e5-f40494c9273e","ios":"levelo://app?vid=27a5a8b0-563c-46fc-81e5-f40494c9273e"},"vehicle_type_id":"4","last_reported":1729674585,"current_range_meters":39200,"station_id":"ce4bhi12rcd13ifvqfq0","pricing_plan_id":"cebpf4jnsgd1na2vs0mg"},{"bike_id":"7258a7e0-02ef-43b7-9f55-01996ace8bd0","system_id":"levelo_inurba_marseille","lat":43.3013,"lon":5.37426,"is_reserved":false,"is_disabled":false,"rental_uris":{"android":"levelo://app?vid=7258a7e0-02ef-43b7-9f55-01996ace8bd0","ios":"levelo://app?vid=7258a7e0-02ef-43b7-9f55-01996ace8bd0"},"vehicle_type_id":"4","last_reported":1729674585,"current_range_meters":13600,"station_id":"ce4bgs92rcd13ifvqcc0","pricing_plan_id":"cebpf4jnsgd1na2vs0mg"},{"bike_id":"f86869c7-390d-431c-a859-ce955232de78","system_id":"levelo_inurba_marseille","lat":43.3089,"lon":5.3719,"is_reserved":false,"is_disabled":false,"rental_uris":{"android":"levelo://app?vid=f86869c7-390d-431c-a859-ce955232de78","ios":"levelo://app?vid=f86869c7-390d-431c-a859-ce955232de78"},"vehicle_type_id":"4","last_reported":1729674585,"current_range_meters":36800,"station_id":"ce4bguh2rcd13ifvqckg","pricing_plan_id":"cebpf4jnsgd1na2vs0mg"},{"bike_id":"2a65fed3-5c60-4dc7-8696-46a5f820080f","system_id":"levelo_inurba_marseille","lat":43.309,"lon":5.3686,"is_reserved":false,"is_disabled":false,"rental_uris":{"android":"levelo://app?vid=2a65fed3-5c60-4dc7-8696-46a5f820080f","ios":"levelo://app?vid=2a65fed3-5c60-4dc7-8696-46a5f820080f"},"vehicle_type_id":"4","last_reported":1729674585,"current_range_meters":7200,"station_id":"ce4bgn92rcd13ifvqbvg","pricing_plan_id":"cebpf4jnsgd1na2vs0mg"},{"bike_id":"a90d435a-f920-4ecd-a2f1-1900446a3610","system_id":"levelo_inurba_marseille","lat":43.295532,"lon":5.422947,"is_reserved":false,"is_disabled":false,"rental_uris":{"android":"levelo://app?vid=a90d435a-f920-4ecd-a2f1-1900446a3610","ios":"levelo://app?vid=a90d435a-f920-4ecd-a2f1-1900446a3610"},"vehicle_type_id":"4","last_reported":1729674585,"current_range_meters":36400,"station_id":"ce4bhph2rcd13ifvqhdg","pricing_plan_id":"cebpf4jnsgd1na2vs0mg"},{"bike_id":"68a04b38-097c-4a72-80fb-1ca7438ac830","system_id":"levelo_inurba_marseille","lat":43.29093,"lon":5.38121,"is_reserved":false,"is_disabled":false,"rental_uris":{"android":"levelo://app?vid=68a04b38-097c-4a72-80fb-1ca7438ac830","ios":"levelo://app?vid=68a04b38-097c-4a72-80fb-1ca7438ac830"},"vehicle_type_id":"4","last_reported":1729674585,"current_range_meters":37600,"station_id":"ce4bh512rcd13ifvqe2g","pricing_plan_id":"cebpf4jnsgd1na2vs0mg"},{"bike_id":"b84ad2e5-0180-44fe-9db2-25e7373b1b80","system_id":"levelo_inurba_marseille","lat":43.31324,"lon":5.39693,"is_reserved":false,"is_disabled":false,"rental_uris":{"android":"levelo://app?vid=b84ad2e5-0180-44fe-9db2-25e7373b1b80","ios":"levelo://app?vid=b84ad2e5-0180-44fe-9db2-25e7373b1b80"},"vehicle_type_id":"4","last_reported":1729674585,"current_range_meters":8800,"station_id":"ce4bgvp2rcd13ifvqcu0","pricing_plan_id":"cebpf4jnsgd1na2vs0mg"},{"bike_id":"c2c4052e-69f1-4278-8da4-551f58380a5d","system_id":"levelo_inurba_marseille","lat":43.33603,"lon":5.41029,"is_reserved":false,"is_disabled":false,"rental_uris":{"android":"levelo://app?vid=c2c4052e-69f1-4278-8da4-551f58380a5d","ios":"levelo://app?vid=c2c4052e-69f1-4278-8da4-551f58380a5d"},"vehicle_type_id":"4","last_reported":1729674585,"current_range_meters":26800,"station_id":"ce4bhqh2rcd13ifvqhmg","pricing_plan_id":"cebpf4jnsgd1na2vs0mg"},{"bike_id":"c37f9d44-73fa-4306-9c1f-ffcd871c4600","system_id":"levelo_inurba_marseille","lat":43.30477,"lon":5.37902,"is_reserved":false,"is_disabled":false,"rental_uris":{"android":"levelo://app?vid=c37f9d44-73fa-4306-9c1f-ffcd871c4600","ios":"levelo://app?vid=c37f9d44-73fa-4306-9c1f-ffcd871c4600"},"vehicle_type_id":"4","last_reported":1729674585,"current_range_meters":21600,"station_id":"ce4bgup2rcd13ifvqcn0","pricing_plan_id":"cebpf4jnsgd1na2vs0mg"},{"bike_id":"ac2b6313-49da-4af6-a794-12ca6554415b","system_id":"levelo_inurba_marseille","lat":43.29954,"lon":5.41315,"is_reserved":false,"is_disabled":false,"rental_uris":{"android":"levelo://app?vid=ac2b6313-49da-4af6-a794-12ca6554415b","ios":"levelo://app?vid=ac2b6313-49da-4af6-a794-12ca6554415b"},"vehicle_type_id":"4","last_reported":1729674585,"current_range_meters":29600,"station_id":"ce4bhp12rcd13ifvqh9g","pricing_plan_id":"cebpf4jnsgd1na2vs0mg"},{"bike_id":"497c60b2-e766-454d-9dee-9737a692570f","system_id":"levelo_inurba_marseille","lat":43.2732,"lon":5.39093,"is_reserved":false,"is_disabled":false,"rental_uris":{"android":"levelo://app?vid=497c60b2-e766-454d-9dee-9737a692570f","ios":"levelo://app?vid=497c60b2-e766-454d-9dee-9737a692570f"},"vehicle_type_id":"4","last_reported":1729674585,"current_range_meters":9600,"station_id":"ce4bhgp2rcd13ifvqfe0","pricing_plan_id":"cebpf4jnsgd1na2vs0mg"},{"bike_id":"8a4be30c-8eed-47b6-956f-2ee16714e8ee","system_id":"levelo_inurba_marseille","lat":43.29275,"lon":5.36851,"is_reserved":false,"is_disabled":false,"rental_uris":{"android":"levelo://app?vid=8a4be30c-8eed-47b6-956f-2ee16714e8ee","ios":"levelo://app?vid=8a4be30c-8eed-47b6-956f-2ee16714e8ee"},"vehicle_type_id":"4","last_reported":1729674585,"current_range_meters":9200,"station_id":"ce4bhbp2rcd13ifvqesg","pricing_plan_id":"cebpf4jnsgd1na2vs0mg"},{"bike_id":"01d08235-a4e4-434f-8493-03de70774cab","system_id":"levelo_inurba_marseille","lat":43.32105,"lon":5.36773,"is_reserved":false,"is_disabled":false,"rental_uris":{"android":"levelo://app?vid=01d08235-a4e4-434f-8493-03de70774cab","ios":"levelo://app?vid=01d08235-a4e4-434f-8493-03de70774cab"},"vehicle_type_id":"4","last_reported":1729674585,"current_range_meters":38400,"station_id":"ce4bhrh2rcd13ifvqhug","pricing_plan_id":"cebpf4jnsgd1na2vs0mg"},