{"last_updated":1687035884,"ttl":30,"version":"2.2","data":{"bikes":[{"bike_id":"f56364fe-e165-48aa-8f98-e39733967730","system_id":"levelo_inurba_marseille","lat":43.31216,"lon":5.36858,"is_reserved":false,"is_disabled":false,"rental_uris":{"android":"levelo://app?vid=f56364fe-e165-48aa-8f98-e39733967730","ios":"levelo://app?vid=f56364fe-e165-48aa-8f98-e39733967730"},"vehicle_type_id":"4","last_reported":1687035885,"current_range_meters":13200,"station_id":"ce4bgl92rcd13ifvqbq0","pricing_plan_id":"free"},{"bike_id":"4c3fefa3-c80e-4a74-ae8b-cd049df8ecaf","system_id":"levelo_inurba_marseille","lat":43.309076,"lon":5.368465,"is_reserved":false,"is_disabled":false,"rental_uris":{"android":"levelo://app?vid=4c3fefa3-c80e-4a74-ae8b-cd049df8ecaf","ios":"levelo://app?vid=4c3fefa3-c80e-4a74-ae8b-cd049df8ecaf"},"vehicle_type_id":"4","last_reported":1687035885,"current_range_meters":31200,"station_id":"ce4bgn92rcd13ifvqbvg","pricing_plan_id":"free"},{"bike_id":"aa5f2b33-9796-4342-9890-4a1c681add18","system_id":"levelo_inurba_marseille","lat":43.314811,"lon":5.373103,"is_reserved":false,"is_disabled":false,"rental_uris":{"android":"levelo://app?vid=aa5f2b33-9796-4342-9890-4a1c681add18","ios":"levelo://app?vid=aa5f2b33-9796-4342-9890-4a1c681add18"},"vehicle_type_id":"4","last_reported":1687035885,"current_range_meters":2800,"station_id":"ce4bgt12rcd13ifvqcd0","pricing_plan_id":"free"},{"bike_id":"a57e60f1-2eef-4d8c-93ed-61a8bcac6d91","system_id":"levelo_inurba_marseille","lat":43.314811,"lon":5.373103,"is_reserved":false,"is_disabled":false,"rental_uris":{"android":"levelo://app?vid=a57e60f1-2eef-4d8c-93ed-61a8bcac6d91","ios":"levelo://app?vid=a57e60f1-2eef-4d8c-93ed-61a8bcac6d91"},"vehicle_type_id":"4","last_reported":1687035885,"current_range_meters":30400,"station_id":"ce4bgt12rcd13ifvqcd0","pricing_plan_id":"free"},{"bike_id":"7cfb5838-eb98-4cb5-b517-dbb8fbb4fb54","system_id":"levelo_inurba_marseille","lat":43.314811,"lon":5.373104,"is_reserved":false,"is_disabled":false,"rental_uris":{"android":"levelo://app?vid=7cfb5838-eb98-4cb5-b517-dbb8fbb4fb54","ios":"levelo://app?vid=7cfb5838-eb98-4cb5-b517-dbb8fbb4fb54"},"vehicle_type_id":"4","last_reported":1687035885,"current_range_meters":10400,"station_id":"ce4bgt12rcd13ifvqcd0","pricing_plan_id":"free"},{"bike_id":"17c83520-acc0-4168-b4c3-9219464f9523","system_id":"levelo_inurba_marseille","lat":43.308606,"lon":5.372099,"is_reserved":false,"is_disabled":false,"rental_uris":{"android":"levelo://app?vid=17c83520-acc0-4168-b4c3-9219464f9523","ios":"levelo://app?vid=17c83520-acc0-4168-b4c3-9219464f9523"},"vehicle_type_id":"4","last_reported":1687035885,"current_range_meters":28400,"station_id":"ce4bguh2rcd13ifvqckg","pricing_plan_id":"free"},{"bike_id":"ca07db5c-8763-45fa-a7c2-8e86e9b5fc61","system_id":"levelo_inurba_marseille","lat":43.30542,"lon":5.36692,"is_reserved":false,"is_disabled":false,"rental_uris":{"android":"levelo://app?vid=ca07db5c-8763-45fa-a7c2-8e86e9b5fc61","ios":"levelo://app?vid=ca07db5c-8763-45fa-a7c2-8e86e9b5fc61"},"vehicle_type_id":"4","last_reported":1687035885,"current_range_meters":31200,"station_id":"","pricing_plan_id":"free"},{"bike_id":"94983d95-fa15-43f8-b326-d25e9e2ac099","system_id":"levelo_inurba_marseille","lat":43.30605,"lon":5.37212,"is_reserved":false,"is_disabled":false,"rental_uris":{"android":"levelo://app?vid=94983d95-fa15-43f8-b326-d25e9e2ac099","ios":"levelo://app?vid=94983d95-fa15-43f8-b326-d25e9e2ac099"},"vehicle_type_id":"4","last_reported":1687035885,"current_range_meters":18800,"station_id":"ce4bgqh2rcd13ifvqc4g","pricing_plan_id":"free"},{"bike_id":"9c746439-937e-436d-8c66-cb90c42aae7f","system_id":"levelo_inurba_marseille","lat":43.31172,"lon":5.37749,"is_reserved":false,"is_disabled":false,"rental_uris":{"android":"levelo://app?vid=9c746439-937e-436d-8c66-cb90c42aae7f","ios":"levelo://app?vid=9c746439-937e-436d-8c66-cb90c42aae7f"},"vehicle_type_id":"4","last_reported":1687035885,"current_range_meters":28400,"station_id":"","pricing_plan_id":"free"},{"bike_id":"2424216c-0462-4ad0-b127-d0366c91b61c","system_id":"levelo_inurba_marseille","lat":43.31709,"lon":5.3771,"is_reserved":false,"is_disabled":false,"rental_uris":{"android":"levelo://app?vid=2424216c-0462-4ad0-b127-d0366c91b61c","ios":"levelo://app?vid=2424216c-0462-4ad0-b127-d0366c91b61c"},"vehicle_type_id":"4","last_reported":1687035885,"current_range_meters":31200,"station_id":"ce4bgth2rcd13ifvqch0","pricing_plan_id":"free"},{"bike_id":"fbf7f121-825b-46b2-88eb-fe1565ad7f4e","system_id":"levelo_inurba_marseille","lat":43.317075,"lon":5.377367,"is_reserved":false,"is_disabled":false,"rental_uris":{"android":"levelo://app?vid=fbf7f121-825b-46b2-88eb-fe1565ad7f4e","ios":"levelo://app?vid=fbf7f121-825b-46b2-88eb-fe1565ad7f4e"},"vehicle_type_id":"4","last_reported":1687035885,"current_range_meters":16800,"station_id":"ce4bgth2rcd13ifvqch0","pricing_plan_id":"free"},{"bike_id":"9995f459-fa59-416d-8a8e-7899ff978c5c","system_id":"levelo_inurba_marseille","lat":43.317075,"lon":5.377367,"is_reserved":false,"is_disabled":false,"rental_uris":{"android":"levelo://app?vid=9995f459-fa59-416d-8a8e-7899ff978c5c","ios":"levelo://app?vid=9995f459-fa59-416d-8a8e-7899ff978c5c"},"vehicle_type_id":"4","last_reported":1687035885,"current_range_meters":15200,"station_id":"ce4bgth2rcd13ifvqch0","pricing_plan_id":"free"},{"bike_id":"0db3308e-a308-4e01-b972-880bec556f3d","system_id":"levelo_inurba_marseille","lat":43.317075,"lon":5.377367,"is_reserved":false,"is_disabled":false,"rental_uris":{"android":"levelo://app?vid=0db3308e-a308-4e01-b972-880bec556f3d","ios":"levelo://app?vid=0db3308e-a308-4e01-b972-880bec556f3d"},"vehicle_type_id":"4","last_reported":1687035885,"current_range_meters":25200,"station_id":"ce4bgth2rcd13ifvqch0","pricing_plan_id":"free"},{"bike_id":"3bbb518e-9a83-40f5-84e5-3a5e60f17226","system_id":"levelo_inurba_marseille","lat":43.317075,"lon":5.377367,"is_reserved":false,"is_disabled":false,"rental_uris":{"android":"levelo://app?vid=3bbb518e-9a83-40f5-84e5-3a5e60f17226","ios":"levelo://app?vid=3bbb518e-9a83-40f5-84e5-3a5e60f17226"},"vehicle_type_id":"4","last_reported":1687035885,"current_range_meters":6000,"station_id":"ce4bgth2rcd13ifvqch0","pricing_plan_id":"free"},{"bike_id":"54105187-4d93-4d9f-90b5-aa0b4942a62d","system_id":"levelo_inurba_marseille","lat":43.315289,"lon":5.380349,"is_reserved":false,"is_disabled":false,"rental_uris":{"android":"levelo://app?vid=54105187-4d93-4d9f-90b5-aa0b4942a62d","ios":"levelo://app?vid=54105187-4d93-4d9f-90b5-aa0b4942a62d"},"vehicle_type_id":"4","last_reported":1687035885,"current_range_meters":0,"station_id":"ce4bhsp2rcd13ifvqi50","pricing_plan_id":"free"},{"bike_id":"8d51db3c-ddf0-4868-a42f-0868b9c8ed86","system_id":"levelo_inurba_marseille","lat":43.31533,"lon":5.38035,"is_reserved":false,"is_disabled":false,"rental_uris":{"android":"levelo://app?vid=8d51db3c-ddf0-4868-a42f-0868b9c8ed86","ios":"levelo://app?vid=8d51db3c-ddf0-4868-a42f-0868b9c8ed86"},"vehicle_type_id":"4","last_reported":1687035885,"current_range_meters":8000,"station_id":"ce4bhsp2rcd13ifvqi50","pricing_plan_id":"free"},{"bike_id":"706a469c-1c28-472e-ad08-438d32f03816","system_id":"levelo_inurba_marseille","lat":43.301939,"lon":5.366286,"is_reserved":false,"is_disabled":false,"rental_uris":{"android":"levelo://app?vid=706a469c-1c28-472e-ad08-438d32f03816","ios":"levelo://app?vid=706a469c-1c28-472e-ad08-438d32f03816"},"vehicle_type_id":"4","last_reported":1687035885,"current_range_meters":17600,"station_id":"ce4bgrh2rcd13ifvqc8g","pricing_plan_id":"free"},{"bike_id":"1fd97d99-d738-4287-a827-6140508ddda7","system_id":"levelo_inurba_marseille","lat":43.3019,"lon":5.36613,"is_reserved":false,"is_disabled":false,"rental_uris":{"android":"levelo://app?vid=1fd97d99-d738-4287-a827-6140508ddda7","ios":"levelo://app?vid=1fd97d99-d738-4287-a827-6140508ddda7"},"vehicle_type_id":"4","last_reported":1687035885,"current_range_meters":21600,"station_id":"ce4bgrh2rcd13ifvqc8g","pricing_plan_id":"free"},{"bike_id":"ae33307b-fcd5-479b-9ae1-9002ed226c6e","system_id":"levelo_inurba_marseille","lat":43.308012,"lon":5.381511,"is_reserved":false,"is_disabled":false,"rental_uris":{"android":"levelo://app?vid=ae33307b-fcd5-479b-9ae1-9002ed226c6e","ios":"levelo://app?vid=ae33307b-fcd5-479b-9ae1-9002ed226c6e"},"vehicle_type_id":"4","last_reported":1687035885,"current_range_meters":31200,"station_id":"ce4bgt12rcd13ifvqce0","pricing_plan_id":"free"},{"bike_id":"9e0a7da2-15ca-4812-b57c-2a8bc5553e04","system_id":"levelo_inurba_marseille","lat":43.30806,"lon":5.38166,"is_reserved":false,"is_disabled":false,"rental_uris":{"android":"levelo://app?vid=9e0a7da2-15ca-4812-b57c-2a8bc5553e04","ios":"levelo://app?vid=9e0a7da2-15ca-4812-b57c-2a8bc5553e04"},"vehicle_type_id":"4","last_reported":1687035885,"current_range_meters":24800,"station_id":"ce4bgt12rcd13ifvqce0","pricing_plan_id":"free"},{"bike_id":"43fc693e-f2a9-4aec-8fd9-d094bb02cb70","system_id":"levelo_inurba_marseille","lat":43.304606,"lon":5.379026,"is_reserved":false,"is_disabled":false,"rental_uris":{"android":"levelo://app?vid=43fc693e-f2a9-4aec-8fd9-d094bb02cb70","ios":"levelo://app?vid=43fc693e-f2a9-4aec-8fd9-d094bb02cb70"},"vehicle_type_id":"4","last_reported":1687035885,"current_range_meters":20000,"station_id":"ce4bgup2rcd13ifvqcn0","pricing_plan_id":"free"},{"bike_id":"5ca77738-6310-42c3-b6c3-d9668da647fe","system_id":"levelo_inurba_marseille","lat":43.31995,"lon":5.38151,"is_reserved":false,"is_disabled":false,"rental_uris":{"android":"levelo://app?vid=5ca77738-6310-42c3-b6c3-d9668da647fe","ios":"levelo://app?vid=5ca77738-6310-42c3-b6c3-d9668da647fe"},"vehicle_type_id":"4","last_reported":1687035885,"current_range_meters":18800,"station_id":"ce4bhr12rcd13ifvqhpg","pricing_plan_id":"free"},{"bike_id":"5003c2fa-8578-4b5b-aee0-bf9c6a52e3f5","system_id":"levelo_inurba_marseille","lat":43.32,"lon":5.38149,"is_reserved":false,"is_disabled":false,"rental_uris":{"android":"levelo://app?vid=5003c2fa-8578-4b5b-aee0-bf9c6a52e3f5","ios":"levelo://app?vid=5003c2fa-8578-4b5b-aee0-bf9c6a52e3f5"},"vehicle_type_id":"4","last_reported":1687035885,"current_range_meters":0,"station_id":"ce4bhr12rcd13ifvqhpg","pricing_plan_id":"free"},{"bike_id":"b7a04f58-67ae-402c-8dcd-236991a1864e","system_id":"levelo_inurba_marseille","lat":43.30173,"lon":5.37637,"is_reserved":false,"is_disabled":false,"rental_uris":{"android":"levelo://app?vid=b7a04f58-67ae-402c-8dcd-236991a1864e","ios":"levelo://app?vid=b7a04f58-67ae-402c-8dcd-236991a1864e"},"vehicle_type_id":"4","last_reported":1687035885,"current_range_meters":11600,"station_id":"","pricing_plan_id":"free"},{"bike_id":"b50ba2f7-d5f2-4418-a133-9c573d2a7e86","system_id":"levelo_inurba_marseille","lat":43.31358,"lon":5.3849,"is_reserved":false,"is_disabled":false,"rental_uris":{"android":"levelo://app?vid=b50ba2f7-d5f2-4418-a133-9c573d2a7e86","ios":"levelo://app?vid=b50ba2f7-d5f2-4418-a133-9c573d2a7e86"},"vehicle_type_id":"4","last_reported":1687035885,"current_range_meters":24000,"station_id":"ce4bgt92rcd13ifvqcf0","pricing_plan_id":"free"},{"bike_id":"be9b30f3-9373-4cea-afa6-196e414e5e56","system_id":"levelo_inurba_marseille","lat":43.31365,"lon":5.38492,"is_reserved":false,"is_disabled":false,"rental_uris":{"android":"levelo://app?vid=be9b30f3-9373-4cea-afa6-196e414e5e56","ios":"levelo://app?vid=be9b30f3-9373-4cea-afa6-196e414e5e56"},"vehicle_type_id":"4","last_reported":1687035885,"current_range_meters":26800,"station_id":"ce4bgt92rcd13ifvqcf0","pricing_plan_id":"free"},{"bike_id":"71500408-18a8-4462-a538-479ec487d429","system_id":"levelo_inurba_marseille","lat":43.31359,"lon":5.38495,"is_reserved":false,"is_disabled":false,"rental_uris":{"android":"levelo://app?vid=71500408-18a8-4462-a538-479ec487d429","ios":"levelo://app?vid=71500408-18a8-4462-a538-479ec487d429"},"vehicle_type_id":"4","last_reported":1687035885,"current_range_meters":30800,"station_id":"ce4bgt92rcd13ifvqcf0","pricing_plan_id":"free"},{"bike_id":"9f2a96b0-ee04-4dc0-bb33-b97070d5fcbc","system_id":"levelo_inurba_marseille","lat":43.31366,"lon":5.38497,"is_reserved":false,"is_disabled":false,"rental_uris":{"android":"levelo://app?vid=9f2a96b0-ee04-4dc0-bb33-b97070d5fcbc","ios":"levelo://app?vid=9f2a96b0-ee04-4dc0-bb33-b97070d5fcbc"},"vehicle_type_id":"4","last_reported":1687035885,"current_range_meters":30800,"station_id":"ce4bgt92rcd13ifvqcf0","pricing_plan_id":"free"},{"bike_id":"a37eae01-9c97-4166-a85a-f4f3ab945240","system_id":"levelo_inurba_marseille","lat":43.31356,"lon":5.38498,"is_reserved":false,"is_disabled":false,"rental_uris":{"android":"levelo://app?vid=a37eae01-9c97-4166-a85a-f4f3ab945240","ios":"levelo://app?vid=a37eae01-9c97-4166-a85a-f4f3ab945240"},"vehicle_type_id":"4","last_reported":1687035885,"current_range_meters":30800,"station_id":"ce4bgt92rcd13ifvqcf0","pricing_plan_id":"free"},{"bike_id":"47851bed-6dee-4f60-a6d5-7a8303bf4d46","system_id":"levelo_inurba_marseille","lat":43.31361,"lon":5.38501,"is_reserved":false,"is_disabled":false,"rental_uris":{"android":"levelo://app?vid=47851bed-6dee-4f60-a6d5-7a8303bf4d46","ios":"levelo://app?vid=47851bed-6dee-4f60-a6d5-7a8303bf4d46"},"vehicle_type_id":"4","last_reported":1687035885,"current_range_meters":2400,"station_id":"ce4bgt92rcd13ifvqcf0","pricing_plan_id":"free"},{"bike_id":"7f0b75b4-5e93-4032-b453-c6aca9c9fb15","system_id":"levelo_inurba_marseille","lat":43.299222,"lon":5.365554,"is_reserved":false,"is_disabled":false,"rental_uris":{"android":"levelo://app?vid=7f0b75b4-5e93-4032-b453-c6aca9c9fb15","ios":"levelo://app?vid=7f0b75b4-5e93-4032-b453-c6aca9c9fb15"},"vehicle_type_id":"4","last_reported":1687035885,"current_range_meters":0,"station_id":"ce4bgm92rcd13ifvqbr0","pricing_plan_id":"free"},{"bike_id":"a9cd6dee-3762-4d32-a870-aa1f74470000","system_id":"levelo_inurba_marseille","lat":43.29918,"lon":5.36511,"is_reserved":false,"is_disabled":false,"rental_uris":{"android":"levelo://app?vid=a9cd6dee-3762-4d32-a870-aa1f74470000","ios":"levelo://app?vid=a9cd6dee-3762-4d32-a870-aa1f74470000"},"vehicle_type_id":"4","last_reported":1687035885,"current_range_meters":27600,"station_id":"","pricing_plan_id":"free"},{"bike_id":"330412da-b9eb-49fa-9ba0-9288ee9ddd31","system_id":"levelo_inurba_marseille","lat":43.30046,"lon":5.3753,"is_reserved":false,"is_disabled":false,"rental_uris":{"android":"levelo://app?vid=330412da-b9eb-49fa-9ba0-9288ee9ddd31","ios":"levelo://app?vid=330412da-b9eb-49fa-9ba0-9288ee9ddd31"},"vehicle_type_id":"4","last_reported":1687035885,"current_range_meters":17600,"station_id":"","pricing_plan_id":"free"},{"bike_id":"757309f0-3819-4715-9e43-b217100cc99e","system_id":"levelo_inurba_marseille","lat":43.311722,"lon":5.387247,"is_reserved":false,"is_disabled":false,"rental_uris":{"android":"levelo://app?vid=757309f0-3819-4715-9e43-b217100cc99e","ios":"levelo://app?vid=757309f0-3819-4715-9e43-b217100cc99e"},"vehicle_type_id":"4","last_reported":1687035885,"current_range_meters":31200,"station_id":"ce4bgv12rcd13ifvqcp0","pricing_plan_id":"free"},{"bike_id":"3be27c74-d28f-4e28-8bba-decc04de71c8","system_id":"levelo_inurba_marseille","lat":43.31173,"lon":5.38712,"is_reserved":false,"is_disabled":false,"rental_uris":{"android":"levelo://app?vid=3be27c74-d28f-4e28-8bba-decc04de71c8","ios":"levelo://app?vid=3be27c74-d28f-4e28-8bba-decc04de71c8"},"vehicle_type_id":"4","last_reported":1687035885,"current_range_meters":26800,"station_id":"ce4bgv12rcd13ifvqcp0","pricing_plan_id":"free"},{"bike_id":"e5c8fbef-e914-4b1b-9cb8-58f15cb2b908","system_id":"levelo_inurba_marseille","lat":43.311722,"lon":5.387247,"is_reserved":false,"is_disabled":false,"rental_uris":{"android":"levelo://app?vid=e5c8fbef-e914-4b1b-9cb8-58f15cb2b908","ios":"levelo://app?vid=e5c8fbef-e914-4b1b-9cb8-58f15cb2b908"},"vehicle_type_id":"4","last_reported":1687035885,"current_range_meters":20000,"station_id":"ce4bgv12rcd13ifvqcp0","pricing_plan_id":"free"},{"bike_id":"7b8b0987-0494-49c2-9647-351085ce6ee5","system_id":"levelo_inurba_marseille","lat":43.297794,"lon":5.370888,"is_reserved":false,"is_disabled":false,"rental_uris":{"android":"levelo://app?vid=7b8b0987-0494-49c2-9647-351085ce6ee5","ios":"levelo://app?vid=7b8b0987-0494-49c2-9647-351085ce6ee5"},"vehicle_type_id":"4","last_reported":1687035885,"current_range_meters":7200,"station_id":"ce4bgop2rcd13ifvqc1g","pricing_plan_id":"free"},{"bike_id":"f78eadf6-130d-4054-b54f-101542bd3610","system_id":"levelo_inurba_marseille","lat":43.297774,"lon":5.370875,"is_reserved":false,"is_disabled":false,"rental_uris":{"android":"levelo://app?vid=f78eadf6-130d-4054-b54f-101542bd3610","ios":"levelo://app?vid=f78eadf6-130d-4054-b54f-101542bd3610"},"vehicle_type_id":"4","last_reported":1687035885,"current_range_meters":31200,"station_id":"ce4bgop2rcd13ifvqc1g","pricing_plan_id":"free"},{"bike_id":"4bf53da7-5b2e-4feb-ad64-d834c27b533d","system_id":"levelo_inurba_marseille","lat":43.32822,"lon":5.3669,"is_reserved":false,"is_disabled":false,"rental_uris":{"android":"levelo://app?vid=4bf53da7-5b2e-4feb-ad64-d834c27b533d","ios":"levelo://app?vid=4bf53da7-5b2e-4feb-ad64-d834c27b533d"},"vehicle_type_id":"4","last_reported":1687035885,"current_range_meters":24400,"station_id":"ce4bhs92rcd13ifvqi0g","pricing_plan_id":"free"},{"bike_id":"14f6d5b2-f5d6-4f72-bf0e-d6d320ba74f7","system_id":"levelo_inurba_marseille","lat":43.328371,"lon":5.366909,"is_reserved":false,"is_disabled":false,"rental_uris":{"android":"levelo://app?vid=14f6d5b2-f5d6-4f72-bf0e-d6d320ba74f7","ios":"levelo://app?vid=14f6d5b2-f5d6-4f72-bf0e-d6d320ba74f7"},"vehicle_type_id":"4","last_reported":1687035885,"current_range_meters":22400,"station_id":"ce4bhs92rcd13ifvqi0g","pricing_plan_id":"free"},{"bike_id":"4bb85f49-7f9a-477c-abaa-23a093d581e6","system_id":"levelo_inurba_marseille","lat":43.328371,"lon":5.366909,"is_reserved":false,"is_disabled":false,"rental_uris":{"android":"levelo://app?vid=4bb85f49-7f9a-477c-abaa-23a093d581e6","ios":"levelo://app?vid=4bb85f49-7f9a-477c-abaa-23a093d581e6"},"vehicle_type_id":"4","last_reported":1687035885,"current_range_meters":18800,"station_id":"ce4bhs92rcd13ifvqi0g","pricing_plan_id":"free"},{"bike_id":"1fee51f7-2a7c-490d-93d1-e05f008f80e7","system_id":"levelo_inurba_marseille","lat":43.328371,"lon":5.366909,"is_reserved":false,"is_disabled":false,"rental_uris":{"android":"levelo://app?vid=1fee51f7-2a7c-490d-93d1-e05f008f80e7","ios":"levelo://app?vid=1fee51f7-2a7c-490d-93d1-e05f008f80e7"},"vehicle_type_id":"4","last_reported":1687035885,"current_range_meters":0,"station_id":"ce4bhs92rcd13ifvqi0g","pricing_plan_id":"free"},{"bike_id":"505c70ad-ea8a-4048-af30-5d951edf9a27","system_id":"levelo_inurba_marseille","lat":43.297163,"lon":5.365866,"is_reserved":false,"is_disabled":false,"rental_uris":{"android":"levelo://app?vid=505c70ad-ea8a-4048-af30-5d951edf9a27","ios":"levelo://app?vid=505c70ad-ea8a-4048-af30-5d951edf9a27"},"vehicle_type_id":"4","last_reported":1687035885,"current_range_meters":400,"station_id":"ce4bgn12rcd13ifvqbt0","pricing_plan_id":"free"},{"bike_id":"176f4894-d7fc-460e-aa5d-7c8c1e206dc3","system_id":"levelo_inurba_marseille","lat":43.297163,"lon":5.365866,"is_reserved":false,"is_disabled":false,"rental_uris":{"android":"levelo://app?vid=176f4894-d7fc-460e-aa5d-7c8c1e206dc3","ios":"levelo://app?vid=176f4894-d7fc-460e-aa5d-7c8c1e206dc3"},"vehicle_type_id":"4","last_reported":1687035885,"current_range_meters":14400,"station_id":"ce4bgn12rcd13ifvqbt0","pricing_plan_id":"free"},{"bike_id":"0851357a-94e1-4cf6-ad37-5a7a49d00988","system_id":"levelo_inurba_marseille","lat":43.32826,"lon":5.36204,"is_reserved":false,"is_disabled":false,"rental_uris":{"android":"levelo://app?vid=0851357a-94e1-4cf6-ad37-5a7a49d00988","ios":"levelo://app?vid=0851357a-94e1-4cf6-ad37-5a7a49d00988"},"vehicle_type_id":"4","last_reported":1687035885,"current_range_meters":30800,"station_id":"","pricing_plan_id":"free"},{"bike_id":"88d0330c-5bb0-4a19-9b65-d4683b42e015","system_id":"levelo_inurba_marseille","lat":43.29683,"lon":5.36046,"is_reserved":false,"is_disabled":false,"rental_uris":{"android":"levelo://app?vid=88d0330c-5bb0-4a19-9b65-d4683b42e015","ios":"levelo://app?vid=88d0330c-5bb0-4a19-9b65-d4683b42e015"},"vehicle_type_id":"4","last_reported":1687035885,"current_range_meters":5200,"station_id":"ce4bgpp2rcd13ifvqc3g","pricing_plan_id":"free"},{"bike_id":"b5e1f050-2fd2-485d-a70d-f0e67784a79b","system_id":"levelo_inurba_marseille","lat":43.299222,"lon":5.365554,"is_reserved":false,"is_disabled":false,"rental_uris":{"android":"levelo://app?vid=b5e1f050-2fd2-485d-a70d-f0e67784a79b","ios":"levelo://app?vid=b5e1f050-2fd2-485d-a70d-f0e67784a79b"},"vehicle_type_id":"4","last_reported":1687035885,"current_range_meters":4400,"station_id":"ce4bgm92rcd13ifvqbr0","pricing_plan_id":"free"},{"bike_id":"24f41ca5-b432-4feb-a0c8-a15026b97306","system_id":"levelo_inurba_marseille","lat":43.296131,"lon":5.370773,"is_reserved":false,"is_disabled":false,"rental_uris":{"android":"levelo://app?vid=24f41ca5-b432-4feb-a0c8-a15026b97306","ios":"levelo://app?vid=24f41ca5-b432-4feb-a0c8-a15026b97306"},"vehicle_type_id":"4","last_reported":1687035885,"current_range_meters":14800,"station_id":"ce4bgnh2rcd13ifvqc0g","pricing_plan_id":"free"},{"bike_id":"80be6e7e-c385-4fe7-9188-345e208a46bf","system_id":"levelo_inurba_marseille","lat":43.317557,"lon":5.390173,"is_reserved":false,"is_disabled":false,"rental_uris":{"android":"levelo://app?vid=80be6e7e-c385-4fe7-9188-345e208a46bf","ios":"levelo://app?vid=80be6e7e-c385-4fe7-9188-345e208a46bf"},"vehicle_type_id":"4","last_reported":1687035885,"current_range_meters":30400,"station_id":"ce4bhqp2rcd13ifvqhng","pricing_plan_id":"free"},{"bike_id":"e25bbacf-225c-4f1a-a2b1-8f9c37a7c29f","system_id":"levelo_inurba_marseille","lat":43.29735,"lon":5.37924,"is_reserved":false,"is_disabled":false,"rental_uris":{"android":"levelo://app?vid=e25bbacf-225c-4f1a-a2b1-8f9c37a7c29f","ios":"levelo://app?vid=e25bbacf-225c-4f1a-a2b1-8f9c37a7c29f"},"vehicle_type_id":"4","last_reported":1687035885,"current_range_meters":10800,"station_id":"","pricing_plan_id":"free"},{"bike_id":"250c8a96-8498-4211-b8f3-1b00a8d1fbaf","system_id":"levelo_inurba_marseille","lat":43.296477,"lon":5.37768,"is_reserved":false,"is_disabled":false,"rental_uris":{"android":"levelo://app?vid=250c8a96-8498-4211-b8f3-1b00a8d1fbaf","ios":"levelo://app?vid=250c8a96-8498-4211-b8f3-1b00a8d1fbaf"},"vehicle_type_id":"4","last_reported":1687035885,"current_range_meters":15200,"station_id":"","pricing_plan_id":"free"},{"bike_id":"37595836-255e-4665-9560-85e8a32fd11f","system_id":"levelo_inurba_marseille","lat":43.304278,"lon":5.388868,"is_reserved":false,"is_disabled":false,"rental_uris":{"android":"levelo://app?vid=37595836-255e-4665-9560-85e8a32fd11f","ios":"levelo://app?vid=37595836-255e-4665-9560-85e8a32fd11f"},"vehicle_type_id":"4","last_reported":1687035885,"current_range_meters":4000,"station_id":"ce4bgk12rcd13ifvqbi0","pricing_plan_id":"free"},{"bike_id":"5b5efc91-d26e-4e1e-9d52-c7c281d52523","system_id":"levelo_inurba_marseille","lat":43.304278,"lon":5.388868,"is_reserved":false,"is_disabled":false,"rental_uris":{"android":"levelo://app?vid=5b5efc91-d26e-4e1e-9d52-c7c281d52523","ios":"levelo://app?vid=5b5efc91-d26e-4e1e-9d52-c7c281d52523"},"vehicle_type_id":"4","last_reported":1687035885,"current_range_meters":30800,"station_id":"ce4bgk12rcd13ifvqbi0","pricing_plan_id":"free"},{"bike_id":"af7cee9d-4351-4c1a-b642-ecb7d7193091","system_id":"levelo_inurba_marseille","lat":43.299707,"lon":5.384859,"is_reserved":false,"is_disabled":false,"rental_uris":{"android":"levelo://app?vid=af7cee9d-4351-4c1a-b642-ecb7d7193091","ios":"levelo://app?vid=af7cee9d-4351-4c1a-b642-ecb7d7193091"},"vehicle_type_id":"4","last_reported":1687035885,"current_range_meters":31200,"station_id":"ce4bgj92rcd13ifvqbd0","pricing_plan_id":"free"},{"bike_id":"6050e566-f5e1-47c2-b04e-ee4d9892ebea","system_id":"levelo_inurba_marseille","lat":43.29521,"lon":5.37499,"is_reserved":false,"is_disabled":false,"rental_uris":{"android":"levelo://app?vid=6050e566-f5e1-47c2-b04e-ee4d9892ebea","ios":"levelo://app?vid=6050e566-f5e1-47c2-b04e-ee4d9892ebea"},"vehicle_type_id":"4","last_reported":1687035885,"current_range_meters":22400,"station_id":"ce4bgkp2rcd13ifvqbmg","pricing_plan_id":"free"},{"bike_id":"eb56f040-d7e3-440c-9d05-82afe187dd21","system_id":"levelo_inurba_marseille","lat":43.299717,"lon":5.384845,"is_reserved":false,"is_disabled":false,"rental_uris":{"android":"levelo://app?vid=eb56f040-d7e3-440c-9d05-82afe187dd21","ios":"levelo://app?vid=eb56f040-d7e3-440c-9d05-82afe187dd21"},"vehicle_type_id":"4","last_reported":1687035885,"current_range_meters":31200,"station_id":"ce4bgj92rcd13ifvqbd0","pricing_plan_id":"free"},{"bike_id":"2c9ad911-25e0-4222-8751-d809dfadd582","system_id":"levelo_inurba_marseille","lat":43.32361,"lon":5.38863,"is_reserved":false,"is_disabled":false,"rental_uris":{"android":"levelo://app?vid=2c9ad911-25e0-4222-8751-d809dfadd582","ios":"levelo://app?vid=2c9ad911-25e0-4222-8751-d809dfadd582"},"vehicle_type_id":"4","last_reported":1687035885,"current_range_meters":24400,"station_id":"ce4bhqp2rcd13ifvqhog","pricing_plan_id":"free"},{"bike_id":"6bf2229b-f534-4647-b322-42cb17c0e26c","system_id":"levelo_inurba_marseille","lat":43.32361,"lon":5.38884,"is_reserved":false,"is_disabled":false,"rental_uris":{"android":"levelo://app?vid=6bf2229b-f534-4647-b322-42cb17c0e26c","ios":"levelo://app?vid=6bf2229b-f534-4647-b322-42cb17c0e26c"},"vehicle_type_id":"4","last_reported":1687035885,"current_range_meters":17600,"station_id":"ce4bhqp2rcd13ifvqhog","pricing_plan_id":"free"},{"bike_id":"a5d34394-8ea3-4622-ac56-bc8a8abe2d11","system_id":"levelo_inurba_marseille","lat":43.32367,"lon":5.388836,"is_reserved":false,"is_disabled":false,"rental_uris":{"android":"levelo://app?vid=a5d34394-8ea3-4622-ac56-bc8a8abe2d11","ios":"levelo://app?vid=a5d34394-8ea3-4622-ac56-bc8a8abe2d11"},"vehicle_type_id":"4","last_reported":1687035885,"current_range_meters":1600,"station_id":"ce4bhqp2rcd13ifvqhog","pricing_plan_id":"free"},{"bike_id":"c25bbca6-334a-48c9-b2aa-c69eb97c9d81","system_id":"levelo_inurba_marseille","lat":43.32367,"lon":5.388836,"is_reserved":false,"is_disabled":false,"rental_uris":{"android":"levelo://app?vid=c25bbca6-334a-48c9-b2aa-c69eb97c9d81","ios":"levelo://app?vid=c25bbca6-334a-48c9-b2aa-c69eb97c9d81"},"vehicle_type_id":"4","last_reported":1687035885,"current_range_meters":13200,"station_id":"ce4bhqp2rcd13ifvqhog","pricing_plan_id":"free"},{"bike_id":"bd5e051b-6414-4247-b6a0-72183ead9f6c","system_id":"levelo_inurba_marseille","lat":43.3198,"lon":5.39193,"is_reserved":false,"is_disabled":false,"rental_uris":{"android":"levelo://app?vid=bd5e051b-6414-4247-b6a0-72183ead9f6c","ios":"levelo://app?vid=bd5e051b-6414-4247-b6a0-72183ead9f6c"},"vehicle_type_id":"4","last_reported":1687035885,"current_range_meters":8800,"station_id":"","pricing_plan_id":"free"},{"bike_id":"1ff3ba48-659d-44f4-a821-65725be90ff8","system_id":"levelo_inurba_marseille","lat":43.29601,"lon":5.381084,"is_reserved":false,"is_disabled":false,"rental_uris":{"android":"levelo://app?vid=1ff3ba48-659d-44f4-a821-65725be90ff8","ios":"levelo://app?vid=1ff3ba48-659d-44f4-a821-65725be90ff8"},"vehicle_type_id":"4","last_reported":1687035885,"current_range_meters":6800,"station_id":"ce4bgl12rcd13ifvqbo0","pricing_plan_id":"free"},{"bike_id":"5351981a-3842-41b3-85e3-a78c7f928044","system_id":"levelo_inurba_marseille","lat":43.292749,"lon":5.368402,"is_reserved":false,"is_disabled":false,"rental_uris":{"android":"levelo://app?vid=5351981a-3842-41b3-85e3-a78c7f928044","ios":"levelo://app?vid=5351981a-3842-41b3-85e3-a78c7f928044"},"vehicle_type_id":"4","last_reported":1687035885,"current_range_meters":2800,"station_id":"ce4bhbp2rcd13ifvqesg","pricing_plan_id":"free"},{"bike_id":"d80fa363-bb9e-4ea3-8b46-926a0390f18d","system_id":"levelo_inurba_marseille","lat":43.29301,"lon":5.37173,"is_reserved":false,"is_disabled":false,"rental_uris":{"android":"levelo://app?vid=d80fa363-bb9e-4ea3-8b46-926a0390f18d","ios":"levelo://app?vid=d80fa363-bb9e-4ea3-8b46-926a0390f18d"},"vehicle_type_id":"4","last_reported":1687035885,"current_range_meters":2800,"station_id":"ce4bgh92rcd13ifvqb40","pricing_plan_id":"free"},{"bike_id":"94385d8a-be85-4676-a655-04cbfdd4c5d1","system_id":"levelo_inurba_marseille","lat":43.305994,"lon":5.393687,"is_reserved":false,"is_disabled":false,"rental_uris":{"android":"levelo://app?vid=94385d8a-be85-4676-a655-04cbfdd4c5d1","ios":"levelo://app?vid=94385d8a-be85-4676-a655-04cbfdd4c5d1"},"vehicle_type_id":"4","last_reported":1687035885,"current_range_meters":19200,"station_id":"ce4bh0p2rcd13ifvqd80","pricing_plan_id":"free"},{"bike_id":"c91721d1-8b39-46c4-9c7b-1a9dee4abcd6","system_id":"levelo_inurba_marseille","lat":43.30308,"lon":5.39206,"is_reserved":false,"is_disabled":false,"rental_uris":{"android":"levelo://app?vid=c91721d1-8b39-46c4-9c7b-1a9dee4abcd6","ios":"levelo://app?vid=c91721d1-8b39-46c4-9c7b-1a9dee4abcd6"},"vehicle_type_id":"4","last_reported":1687035885,"current_range_meters":1600,"station_id":"ce4bgkh2rcd13ifvqbk0","pricing_plan_id":"free"},{"bike_id":"c2a9e8bd-85fd-469d-8568-90e564cbadc9","system_id":"levelo_inurba_marseille","lat":43.302992,"lon":5.392136,"is_reserved":false,"is_disabled":false,"rental_uris":{"android":"levelo://app?vid=c2a9e8bd-85fd-469d-8568-90e564cbadc9","ios":"levelo://app?vid=c2a9e8bd-85fd-469d-8568-90e564cbadc9"},"vehicle_type_id":"4","last_reported":1687035885,"current_range_meters":10800,"station_id":"ce4bgkh2rcd13ifvqbk0","pricing_plan_id":"free"},{"bike_id":"dee69ec7-2e8c-4750-8ffb-d62fecac09e4","system_id":"levelo_inurba_marseille","lat":43.300852,"lon":5.390859,"is_reserved":false,"is_disabled":false,"rental_uris":{"android":"levelo://app?vid=dee69ec7-2e8c-4750-8ffb-d62fecac09e4","ios":"levelo://app?vid=dee69ec7-2e8c-4750-8ffb-d62fecac09e4"},"vehicle_type_id":"4","last_reported":1687035885,"current_range_meters":17600,"station_id":"ce4bh192rcd13ifvqdb0","pricing_plan_id":"free"},{"bike_id":"11411a99-0ab4-4b54-9277-6eee59bdc5bf","system_id":"levelo_inurba_marseille","lat":43.30085,"lon":5.390856,"is_reserved":false,"is_disabled":false,"rental_uris":{"android":"levelo://app?vid=11411a99-0ab4-4b54-9277-6eee59bdc5bf","ios":"levelo://app?vid=11411a99-0ab4-4b54-9277-6eee59bdc5bf"},"vehicle_type_id":"4","last_reported":1687035885,"current_range_meters":24400,"station_id":"ce4bh192rcd13ifvqdb0","pricing_plan_id":"free"},{"bike_id":"00a7ac1c-87b7-430d-886e-27479ed076b4","system_id":"levelo_inurba_marseille","lat":43.29193,"lon":5.35808,"is_reserved":false,"is_disabled":false,"rental_uris":{"android":"levelo://app?vid=00a7ac1c-87b7-430d-886e-27479ed076b4","ios":"levelo://app?vid=00a7ac1c-87b7-430d-886e-27479ed076b4"},"vehicle_type_id":"4","last_reported":1687035885,"current_range_meters":0,"station_id":"ce4bhb12rcd13ifvqel0","pricing_plan_id":"free"},{"bike_id":"60e88b80-bab8-4648-94c4-9141db939d9d","system_id":"levelo_inurba_marseille","lat":43.313291,"lon":5.396838,"is_reserved":false,"is_disabled":false,"rental_uris":{"android":"levelo://app?vid=60e88b80-bab8-4648-94c4-9141db939d9d","ios":"levelo://app?vid=60e88b80-bab8-4648-94c4-9141db939d9d"},"vehicle_type_id":"4","last_reported":1687035885,"current_range_meters":1200,"station_id":"ce4bgvp2rcd13ifvqcu0","pricing_plan_id":"free"},{"bike_id":"f3908ab3-dc02-4b11-a24b-d51e3cafd501","system_id":"levelo_inurba_marseille","lat":43.30883,"lon":5.39652,"is_reserved":false,"is_disabled":false,"rental_uris":{"android":"levelo://app?vid=f3908ab3-dc02-4b11-a24b-d51e3cafd501","ios":"levelo://app?vid=f3908ab3-dc02-4b11-a24b-d51e3cafd501"},"vehicle_type_id":"4","last_reported":1687035885,"current_range_meters":27200,"station_id":"ce4bh012rcd13ifvqcv0","pricing_plan_id":"free"},{"bike_id":"70cbfc72-ade9-474f-9acc-e15407d35520","system_id":"levelo_inurba_marseille","lat":43.29529,"lon":5.385581,"is_reserved":false,"is_disabled":false,"rental_uris":{"android":"levelo://app?vid=70cbfc72-ade9-474f-9acc-e15407d35520","ios":"levelo://app?vid=70cbfc72-ade9-474f-9acc-e15407d35520"},"vehicle_type_id":"4","last_reported":1687035885,"current_range_meters":27600,"station_id":"ce4bgih2rcd13ifvqba0","pricing_plan_id":"free"},{"bike_id":"977bf72e-624e-49df-a007-a52da35848e5","system_id":"levelo_inurba_marseille","lat":43.29529,"lon":5.385581,"is_reserved":false,"is_disabled":false,"rental_uris":{"android":"levelo://app?vid=977bf72e-624e-49df-a007-a52da35848e5","ios":"levelo://app?vid=977bf72e-624e-49df-a007-a52da35848e5"},"vehicle_type_id":"4","last_reported":1687035885,"current_range_meters":17200,"station_id":"ce4bgih2rcd13ifvqba0","pricing_plan_id":"free"},{"bike_id":"7f884a38-2f86-4da3-942b-5cbb165bf562","system_id":"levelo_inurba_marseille","lat":43.29529,"lon":5.385581,"is_reserved":false,"is_disabled":false,"rental_uris":{"android":"levelo://app?vid=7f884a38-2f86-4da3-942b-5cbb165bf562","ios":"levelo://app?vid=7f884a38-2f86-4da3-942b-5cbb165bf562"},"vehicle_type_id":"4","last_reported":1687035885,"current_range_meters":3600,"station_id":"ce4bgih2rcd13ifvqba0","pricing_plan_id":"free"},{"bike_id":"62bfa15f-70f1-4520-a890-92334b33c65a","system_id":"levelo_inurba_marseille","lat":43.29529,"lon":5.385581,"is_reserved":false,"is_disabled":false,"rental_uris":{"android":"levelo://app?vid=62bfa15f-70f1-4520-a890-92334b33c65a","ios":"levelo://app?vid=62bfa15f-70f1-4520-a890-92334b33c65a"},"vehicle_type_id":"4","last_reported":1687035885,"current_range_meters":8800,"station_id":"ce4bgih2rcd13ifvqba0","pricing_plan_id":"free"},{"bike_id":"b5f97be7-39cf-4fbd-8a4c-551e776ebab5","system_id":"levelo_inurba_marseille","lat":43.302008,"lon":5.394694,"is_reserved":false,"is_disabled":false,"rental_uris":{"android":"levelo://app?vid=b5f97be7-39cf-4fbd-8a4c-551e776ebab5","ios":"levelo://app?vid=b5f97be7-39cf-4fbd-8a4c-551e776ebab5"},"vehicle_type_id":"4","last_reported":1687035885,"current_range_meters":5600,"station_id":"ce4bh0p2rcd13ifvqd70","pricing_plan_id":"free"},{"bike_id":"f7b551ec-dd01-460a-8f57-ced78ac83f58","system_id":"levelo_inurba_marseille","lat":43.302008,"lon":5.394694,"is_reserved":false,"is_disabled":false,"rental_uris":{"android":"levelo://app?vid=f7b551ec-dd01-460a-8f57-ced78ac83f58","ios":"levelo://app?vid=f7b551ec-dd01-460a-8f57-ced78ac83f58"},"vehicle_type_id":"4","last_reported":1687035885,"current_range_meters":30400,"station_id":"ce4bh0p2rcd13ifvqd70","pricing_plan_id":"free"},{"bike_id":"22a3404b-8551-4bfa-961c-250b3e531cb3","system_id":"levelo_inurba_marseille","lat":43.294153,"lon":5.386305,"is_reserved":false,"is_disabled":false,"rental_uris":{"android":"levelo://app?vid=22a3404b-8551-4bfa-961c-250b3e531cb3","ios":"levelo://app?vid=22a3404b-8551-4bfa-961c-250b3e531cb3"},"vehicle_type_id":"4","last_reported":1687035885,"current_range_meters":31200,"station_id":"ce4bh2h2rcd13ifvqdh0","pricing_plan_id":"free"},{"bike_id":"50381f94-319d-44c3-bf8b-1309579db594","system_id":"levelo_inurba_marseille","lat":43.294153,"lon":5.386305,"is_reserved":false,"is_disabled":false,"rental_uris":{"android":"levelo://app?vid=50381f94-319d-44c3-bf8b-1309579db594","ios":"levelo://app?vid=50381f94-319d-44c3-bf8b-1309579db594"},"vehicle_type_id":"4","last_reported":1687035885,"current_range_meters":27600,"station_id":"ce4bh2h2rcd13ifvqdh0","pricing_plan_id":"free"},{"bike_id":"439bf87f-5ad1-4b48-bf6c-3d1efaa303c4","system_id":"levelo_inurba_marseille","lat":43.29427,"lon":5.3863,"is_reserved":false,"is_disabled":false,"rental_uris":{"android":"levelo://app?vid=439bf87f-5ad1-4b48-bf6c-3d1efaa303c4","ios":"levelo://app?vid=439bf87f-5ad1-4b48-bf6c-3d1efaa303c4"},"vehicle_type_id":"4","last_reported":1687035885,"current_range_meters":31200,"station_id":"ce4bh2h2rcd13ifvqdh0","pricing_plan_id":"free"},{"bike_id":"cb19d8da-12b1-44c3-92cf-6fdf5dd5913c","system_id":"levelo_inurba_marseille","lat":43.29416,"lon":5.38633,"is_reserved":false,"is_disabled":false,"rental_uris":{"android":"levelo://app?vid=cb19d8da-12b1-44c3-92cf-6fdf5dd5913c","ios":"levelo://app?vid=cb19d8da-12b1-44c3-92cf-6fdf5dd5913c"},"vehicle_type_id":"4","last_reported":1687035885,"current_range_meters":31200,"station_id":"ce4bh2h2rcd13ifvqdh0","pricing_plan_id":"free"},{"bike_id":"9ff6d3f6-0c71-43b2-afe5-ff01be66b179","system_id":"levelo_inurba_marseille","lat":43.292642,"lon":5.384254,"is_reserved":false,"is_disabled":false,"rental_uris":{"android":"levelo://app?vid=9ff6d3f6-0c71-43b2-afe5-ff01be66b179","ios":"levelo://app?vid=9ff6d3f6-0c71-43b2-afe5-ff01be66b179"},"vehicle_type_id":"4","last_reported":1687035885,"current_range_meters":27600,"station_id":"ce4bh692rcd13ifvqea0","pricing_plan_id":"free"},{"bike_id":"366c5885-d5b8-4cf3-8c2c-e7c056985795","system_id":"levelo_inurba_marseille","lat":43.29269,"lon":5.38453,"is_reserved":false,"is_disabled":false,"rental_uris":{"android":"levelo://app?vid=366c5885-d5b8-4cf3-8c2c-e7c056985795","ios":"levelo://app?vid=366c5885-d5b8-4cf3-8c2c-e7c056985795"},"vehicle_type_id":"4","last_reported":1687035885,"current_range_meters":15200,"station_id":"ce4bh692rcd13ifvqea0","pricing_plan_id":"free"},{"bike_id":"38eb09af-7166-42b9-865e-84246929498f","system_id":"levelo_inurba_marseille","lat":43.292642,"lon":5.384254,"is_reserved":false,"is_disabled":false,"rental_uris":{"android":"levelo://app?vid=38eb09af-7166-42b9-865e-84246929498f","ios":"levelo://app?vid=38eb09af-7166-42b9-865e-84246929498f"},"vehicle_type_id":"4","last_reported":1687035885,"current_range_meters":31600,"station_id":"ce4bh692rcd13ifvqea0","pricing_plan_id":"free"},{"bike_id":"b9b44b37-7edf-4ab6-8685-17eb58a26dbc","system_id":"levelo_inurba_marseille","lat":43.295169,"lon":5.390426,"is_reserved":false,"is_disabled":false,"rental_uris":{"android":"levelo://app?vid=b9b44b37-7edf-4ab6-8685-17eb58a26dbc","ios":"levelo://app?vid=b9b44b37-7edf-4ab6-8685-17eb58a26dbc"},"vehicle_type_id":"4","last_reported":1687035885,"current_range_meters":30400,"station_id":"ce4bh3p2rcd13ifvqdp0","pricing_plan_id":"free"},{"bike_id":"dd132fab-b039-4683-95af-adabc7ae4f94","system_id":"levelo_inurba_marseille","lat":43.295169,"lon":5.390426,"is_reserved":false,"is_disabled":false,"rental_uris":{"android":"levelo://app?vid=dd132fab-b039-4683-95af-adabc7ae4f94","ios":"levelo://app?vid=dd132fab-b039-4683-95af-adabc7ae4f94"},"vehicle_type_id":"4","last_reported":1687035885,"current_range_meters":28400,"station_id":"ce4bh3p2rcd13ifvqdp0","pricing_plan_id":"free"},{"bike_id":"b28735b8-6754-4fb4-99de-0b87287f146f","system_id":"levelo_inurba_marseille","lat":43.29018,"lon":5.38131,"is_reserved":false,"is_disabled":false,"rental_uris":{"android":"levelo://app?vid=b28735b8-6754-4fb4-99de-0b87287f146f","ios":"levelo://app?vid=b28735b8-6754-4fb4-99de-0b87287f146f"},"vehicle_type_id":"4","last_reported":1687035885,"current_range_meters":0,"station_id":"ce4bh4p2rcd13ifvqe1g","pricing_plan_id":"free"},{"bike_id":"c0fb8083-e02d-4dec-b1b9-fa095e6c5b75","system_id":"levelo_inurba_marseille","lat":43.337396,"lon":5.374526,"is_reserved":false,"is_disabled":false,"rental_uris":{"android":"levelo://app?vid=c0fb8083-e02d-4dec-b1b9-fa095e6c5b75","ios":"levelo://app?vid=c0fb8083-e02d-4dec-b1b9-fa095e6c5b75"},"vehicle_type_id":"4","last_reported":1687035885,"current_range_meters":0,"station_id":"ce4bhp92rcd13ifvqhag","pricing_plan_id":"free"},{"bike_id":"dea82d2c-fad5-42a4-8383-6fd0e8472b81","system_id":"levelo_inurba_marseille","lat":43.309371,"lon":5.401449,"is_reserved":false,"is_disabled":false,"rental_uris":{"android":"levelo://app?vid=dea82d2c-fad5-42a4-8383-6fd0e8472b81","ios":"levelo://app?vid=dea82d2c-fad5-42a4-8383-6fd0e8472b81"},"vehicle_type_id":"4","last_reported":1687035885,"current_range_meters":0,"station_id":"ce4bgvp2rcd13ifvqct0","pricing_plan_id":"free"},{"bike_id":"41a8749b-6d93-4d1b-8e52-c5f60f65ae7c","system_id":"levelo_inurba_marseille","lat":43.33752,"lon":5.37443,"is_reserved":false,"is_disabled":false,"rental_uris":{"android":"levelo://app?vid=41a8749b-6d93-4d1b-8e52-c5f60f65ae7c","ios":"levelo://app?vid=41a8749b-6d93-4d1b-8e52-c5f60f65ae7c"},"vehicle_type_id":"4","last_reported":1687035885,"current_range_meters":29600,"station_id":"","pricing_plan_id":"free"},{"bike_id":"383bdd14-b339-4cca-bc84-80806c90cc15","system_id":"levelo_inurba_marseille","lat":43.286961,"lon":5.373785,"is_reserved":false,"is_disabled":false,"rental_uris":{"android":"levelo://app?vid=383bdd14-b339-4cca-bc84-80806c90cc15","ios":"levelo://app?vid=383bdd14-b339-4cca-bc84-80806c90cc15"},"vehicle_type_id":"4","last_reported":1687035885,"current_range_meters":1600,"station_id":"ce4bh3p2rcd13ifvqdq0","pricing_plan_id":"free"},{"bike_id":"83efd0f5-e033-422b-91f2-1f99ee6acbcf","system_id":"levelo_inurba_marseille","lat":43.286591,"lon":5.363346,"is_reserved":false,"is_disabled":false,"rental_uris":{"android":"levelo://app?vid=83efd0f5-e033-422b-91f2-1f99ee6acbcf","ios":"levelo://app?vid=83efd0f5-e033-422b-91f2-1f99ee6acbcf"},"vehicle_type_id":"4","last_reported":1687035885,"current_range_meters":2000,"station_id":"ce4bhah2rcd13ifvqej0","pricing_plan_id":"free"},{"bike_id":"a61e7666-7914-4748-9cc8-77e16b81955e","system_id":"levelo_inurba_marseille","lat":43.295196,"lon":5.39397,"is_reserved":false,"is_disabled":false,"rental_uris":{"android":"levelo://app?vid=a61e7666-7914-4748-9cc8-77e16b81955e","ios":"levelo://app?vid=a61e7666-7914-4748-9cc8-77e16b81955e"},"vehicle_type_id":"4","last_reported":1687035885,"current_range_meters":7600,"station_id":"ce4bh292rcd13ifvqdf0","pricing_plan_id":"free"},{"bike_id":"6a6b6c59-8c03-4246-be83-48e3fa4cc618","system_id":"levelo_inurba_marseille","lat":43.295194,"lon":5.39397,"is_reserved":false,"is_disabled":false,"rental_uris":{"android":"levelo://app?vid=6a6b6c59-8c03-4246-be83-48e3fa4cc618","ios":"levelo://app?vid=6a6b6c59-8c03-4246-be83-48e3fa4cc618"},"vehicle_type_id":"4","last_reported":1687035885,"current_range_meters":28800,"station_id":"ce4bh292rcd13ifvqdf0","pricing_plan_id":"free"},{"bike_id":"0aef9730-18b9-4440-a3f2-333dec009a79","system_id":"levelo_inurba_marseille","lat":43.2886,"lon":5.38188,"is_reserved":false,"is_disabled":false,"rental_uris":{"android":"levelo://app?vid=0aef9730-18b9-4440-a3f2-333dec009a79","ios":"levelo://app?vid=0aef9730-18b9-4440-a3f2-333dec009a79"},"vehicle_type_id":"4","last_reported":1687035885,"current_range_meters":5600,"station_id":"","pricing_plan_id":"free"},{"bike_id":"fab32c9c-bd74-453f-888e-08ae03b4a1c4","system_id":"levelo_inurba_marseille","lat":43.286039,"lon":5.370679,"is_reserved":false,"is_disabled":false,"rental_uris":{"android":"levelo://app?vid=fab32c9c-bd74-453f-888e-08ae03b4a1c4","ios":"levelo://app?vid=fab32c9c-bd74-453f-888e-08ae03b4a1c4"},"vehicle_type_id":"4","last_reported":1687035885,"current_range_meters":31600,"station_id":"ce4bht12rcd13ifvqi60","pricing_plan_id":"free"},{"bike_id":"19a2ed4a-35b2-4bbd-b97a-46eac32335d9","system_id":"levelo_inurba_marseille","lat":43.286039,"lon":5.370679,"is_reserved":false,"is_disabled":false,"rental_uris":{"android":"levelo://app?vid=19a2ed4a-35b2-4bbd-b97a-46eac32335d9","ios":"levelo://app?vid=19a2ed4a-35b2-4bbd-b97a-46eac32335d9"},"vehicle_type_id":"4","last_reported":1687035885,"current_range_meters":13600,"station_id":"ce4bht12rcd13ifvqi60","pricing_plan_id":"free"},{"bike_id":"e74fc74f-3724-41a9-b71b-7cf2495afa77","system_id":"levelo_inurba_marseille","lat":43.286039,"lon":5.370679,"is_reserved":false,"is_disabled":false,"rental_uris":{"android":"levelo://app?vid=e74fc74f-3724-41a9-b71b-7cf2495afa77","ios":"levelo://app?vid=e74fc74f-3724-41a9-b71b-7cf2495afa77"},"vehicle_type_id":"4","last_reported":1687035885,"current_range_meters":9200,"station_id":"ce4bht12rcd13ifvqi60","pricing_plan_id":"free"},{"bike_id":"bda99b23-0a41-43b1-96f0-d27d00b35840","system_id":"levelo_inurba_marseille","lat":43.291994,"lon":5.392907,"is_reserved":false,"is_disabled":false,"rental_uris":{"android":"levelo://app?vid=bda99b23-0a41-43b1-96f0-d27d00b35840","ios":"levelo://app?vid=bda99b23-0a41-43b1-96f0-d27d00b35840"},"vehicle_type_id":"4","last_reported":1687035885,"current_range_meters":29600,"station_id":"ce4bh192rcd13ifvqdd0","pricing_plan_id":"free"},{"bike_id":"a278104e-0224-471b-bf69-08650d5c2d32","system_id":"levelo_inurba_marseille","lat":43.291994,"lon":5.392907,"is_reserved":false,"is_disabled":false,"rental_uris":{"android":"levelo://app?vid=a278104e-0224-471b-bf69-08650d5c2d32","ios":"levelo://app?vid=a278104e-0224-471b-bf69-08650d5c2d32"},"vehicle_type_id":"4","last_reported":1687035885,"current_range_meters":14800,"station_id":"ce4bh192rcd13ifvqdd0","pricing_plan_id":"free"},{"bike_id":"d96eb2d8-7bd8-472d-b4cd-4d3ebf3f0414","system_id":"levelo_inurba_marseille","lat":43.29452,"lon":5.39755,"is_reserved":false,"is_disabled":false,"rental_uris":{"android":"levelo://app?vid=d96eb2d8-7bd8-472d-b4cd-4d3ebf3f0414","ios":"levelo://app?vid=d96eb2d8-7bd8-472d-b4cd-4d3ebf3f0414"},"vehicle_type_id":"4","last_reported":1687035885,"current_range_meters":5600,"station_id":"ce4bh3h2rcd13ifvqdo0","pricing_plan_id":"free"},{"bike_id":"a9e22325-3057-400b-a98d-9ad83b4784e9","system_id":"levelo_inurba_marseille","lat":43.286595,"lon":5.386795,"is_reserved":false,"is_disabled":false,"rental_uris":{"android":"levelo://app?vid=a9e22325-3057-400b-a98d-9ad83b4784e9","ios":"levelo://app?vid=a9e22325-3057-400b-a98d-9ad83b4784e9"},"vehicle_type_id":"4","last_reported":1687035885,"current_range_meters":30800,"station_id":"ce4bh492rcd13ifvqdug","pricing_plan_id":"free"},{"bike_id":"43275ef6-770c-4f0e-926c-1c3aecd7abec","system_id":"levelo_inurba_marseille","lat":43.287909,"lon":5.390554,"is_reserved":false,"is_disabled":false,"rental_uris":{"android":"levelo://app?vid=43275ef6-770c-4f0e-926c-1c3aecd7abec","ios":"levelo://app?vid=43275ef6-770c-4f0e-926c-1c3aecd7abec"},"vehicle_type_id":"4","last_reported":1687035885,"current_range_meters":15200,"station_id":"","pricing_plan_id":"free"},{"bike_id":"16e5fedd-6e86-436a-a0a2-72c7cd60a6ea","system_id":"levelo_inurba_marseille","lat":43.323464,"lon":5.406297,"is_reserved":false,"is_disabled":false,"rental_uris":{"android":"levelo://app?vid=16e5fedd-6e86-436a-a0a2-72c7cd60a6ea","ios":"levelo://app?vid=16e5fedd-6e86-436a-a0a2-72c7cd60a6ea"},"vehicle_type_id":"4","last_reported":1687035885,"current_range_meters":29600,"station_id":"ce4bhq92rcd13ifvqhjg","pricing_plan_id":"free"},{"bike_id":"b07cb867-5bb1-4553-9e8a-6b7f557f9e08","system_id":"levelo_inurba_marseille","lat":43.2884,"lon":5.39298,"is_reserved":false,"is_disabled":false,"rental_uris":{"android":"levelo://app?vid=b07cb867-5bb1-4553-9e8a-6b7f557f9e08","ios":"levelo://app?vid=b07cb867-5bb1-4553-9e8a-6b7f557f9e08"},"vehicle_type_id":"4","last_reported":1687035885,"current_range_meters":12800,"station_id":"ce4bh2p2rcd13ifvqdi0","pricing_plan_id":"free"},{"bike_id":"00b4d942-d645-4a17-a320-9c02b5ecca68","system_id":"levelo_inurba_marseille","lat":43.288497,"lon":5.393089,"is_reserved":false,"is_disabled":false,"rental_uris":{"android":"levelo://app?vid=00b4d942-d645-4a17-a320-9c02b5ecca68","ios":"levelo://app?vid=00b4d942-d645-4a17-a320-9c02b5ecca68"},"vehicle_type_id":"4","last_reported":1687035885,"current_range_meters":24400,"station_id":"ce4bh2p2rcd13ifvqdi0","pricing_plan_id":"free"},{"bike_id":"485fbe80-7791-47a3-874c-0d57ca2838f7","system_id":"levelo_inurba_marseille","lat":43.28347,"lon":5.38109,"is_reserved":false,"is_disabled":false,"rental_uris":{"android":"levelo://app?vid=485fbe80-7791-47a3-874c-0d57ca2838f7","ios":"levelo://app?vid=485fbe80-7791-47a3-874c-0d57ca2838f7"},"vehicle_type_id":"4","last_reported":1687035885,"current_range_meters":22400,"station_id":"","pricing_plan_id":"free"},{"bike_id":"9e2fb72c-2230-4d73-a138-884f1e8289c4","system_id":"levelo_inurba_marseille","lat":43.289363,"lon":5.396322,"is_reserved":false,"is_disabled":false,"rental_uris":{"android":"levelo://app?vid=9e2fb72c-2230-4d73-a138-884f1e8289c4","ios":"levelo://app?vid=9e2fb72c-2230-4d73-a138-884f1e8289c4"},"vehicle_type_id":"4","last_reported":1687035885,"current_range_meters":19200,"station_id":"ce4bh3h2rcd13ifvqdn0","pricing_plan_id":"free"},{"bike_id":"5555a6a4-63bf-45cb-904e-aa56740b0a4d","system_id":"levelo_inurba_marseille","lat":43.289363,"lon":5.396322,"is_reserved":false,"is_disabled":false,"rental_uris":{"android":"levelo://app?vid=5555a6a4-63bf-45cb-904e-aa56740b0a4d","ios":"levelo://app?vid=5555a6a4-63bf-45cb-904e-aa56740b0a4d"},"vehicle_type_id":"4","last_reported":1687035885,"current_range_meters":25200,"station_id":"ce4bh3h2rcd13ifvqdn0","pricing_plan_id":"free"},{"bike_id":"1f24386c-f4de-4f2b-bb8a-d54495b1f62e","system_id":"levelo_inurba_marseille","lat":43.29304,"lon":5.40129,"is_reserved":false,"is_disabled":false,"rental_uris":{"android":"levelo://app?vid=1f24386c-f4de-4f2b-bb8a-d54495b1f62e","ios":"levelo://app?vid=1f24386c-f4de-4f2b-bb8a-d54495b1f62e"},"vehicle_type_id":"4","last_reported":1687035885,"current_range_meters":29200,"station_id":"","pricing_plan_id":"free"},{"bike_id":"a01bc157-7e47-4a4f-8b59-12f50a8e64e0","system_id":"levelo_inurba_marseille","lat":43.282744,"lon":5.350533,"is_reserved":false,"is_disabled":false,"rental_uris":{"android":"levelo://app?vid=a01bc157-7e47-4a4f-8b59-12f50a8e64e0","ios":"levelo://app?vid=a01bc157-7e47-4a4f-8b59-12f50a8e64e0"},"vehicle_type_id":"4","last_reported":1687035885,"current_range_meters":27600,"station_id":"ce4bhbp2rcd13ifvqerg","pricing_plan_id":"free"},{"bike_id":"be2a61e7-806b-4f3a-9fc0-01d56cecc242","system_id":"levelo_inurba_marseille","lat":43.28263,"lon":5.35068,"is_reserved":false,"is_disabled":false,"rental_uris":{"android":"levelo://app?vid=be2a61e7-806b-4f3a-9fc0-01d56cecc242","ios":"levelo://app?vid=be2a61e7-806b-4f3a-9fc0-01d56cecc242"},"vehicle_type_id":"4","last_reported":1687035885,"current_range_meters":29600,"station_id":"ce4bhbp2rcd13ifvqerg","pricing_plan_id":"free"},{"bike_id":"946fb634-7507-4d17-a329-42f1c37796c8","system_id":"levelo_inurba_marseille","lat":43.28039,"lon":5.369297,"is_reserved":false,"is_disabled":false,"rental_uris":{"android":"levelo://app?vid=946fb634-7507-4d17-a329-42f1c37796c8","ios":"levelo://app?vid=946fb634-7507-4d17-a329-42f1c37796c8"},"vehicle_type_id":"4","last_reported":1687035885,"current_range_meters":20800,"station_id":"ce4bha12rcd13ifvqef0","pricing_plan_id":"free"},{"bike_id":"5466ae6a-fab2-4b3c-bc20-f26a798490f0","system_id":"levelo_inurba_marseille","lat":43.28039,"lon":5.369297,"is_reserved":false,"is_disabled":false,"rental_uris":{"android":"levelo://app?vid=5466ae6a-fab2-4b3c-bc20-f26a798490f0","ios":"levelo://app?vid=5466ae6a-fab2-4b3c-bc20-f26a798490f0"},"vehicle_type_id":"4","last_reported":1687035885,"current_range_meters":5600,"station_id":"ce4bha12rcd13ifvqef0","pricing_plan_id":"free"},{"bike_id":"32c84e20-4726-4674-87ba-2b5ef7e1f362","system_id":"levelo_inurba_marseille","lat":43.28039,"lon":5.369297,"is_reserved":false,"is_disabled":false,"rental_uris":{"android":"levelo://app?vid=32c84e20-4726-4674-87ba-2b5ef7e1f362","ios":"levelo://app?vid=32c84e20-4726-4674-87ba-2b5ef7e1f362"},"vehicle_type_id":"4","last_reported":1687035885,"current_range_meters":19600,"station_id":"ce4bha12rcd13ifvqef0","pricing_plan_id":"free"},{"bike_id":"24d8c596-6f26-479e-b590-2e6f43206cd2","system_id":"levelo_inurba_marseille","lat":43.290412,"lon":5.399633,"is_reserved":false,"is_disabled":false,"rental_uris":{"android":"levelo://app?vid=24d8c596-6f26-479e-b590-2e6f43206cd2","ios":"levelo://app?vid=24d8c596-6f26-479e-b590-2e6f43206cd2"},"vehicle_type_id":"4","last_reported":1687035885,"current_range_meters":15200,"station_id":"ce4bh392rcd13ifvqdm0","pricing_plan_id":"free"},{"bike_id":"5830a0d0-7406-4969-8a8f-c7979d4ad845","system_id":"levelo_inurba_marseille","lat":43.290412,"lon":5.399633,"is_reserved":false,"is_disabled":false,"rental_uris":{"android":"levelo://app?vid=5830a0d0-7406-4969-8a8f-c7979d4ad845","ios":"levelo://app?vid=5830a0d0-7406-4969-8a8f-c7979d4ad845"},"vehicle_type_id":"4","last_reported":1687035885,"current_range_meters":19600,"station_id":"ce4bh392rcd13ifvqdm0","pricing_plan_id":"free"},{"bike_id":"9a24e0f9-7080-438f-9549-e9d03ec0cbbf","system_id":"levelo_inurba_marseille","lat":43.290412,"lon":5.399633,"is_reserved":false,"is_disabled":false,"rental_uris":{"android":"levelo://app?vid=9a24e0f9-7080-438f-9549-e9d03ec0cbbf","ios":"levelo://app?vid=9a24e0f9-7080-438f-9549-e9d03ec0cbbf"},"vehicle_type_id":"4","last_reported":1687035885,"current_range_meters":2000,"station_id":"ce4bh392rcd13ifvqdm0","pricing_plan_id":"free"},{"bike_id":"a60a7fab-0ccf-491e-8bb8-990f1321af05","system_id":"levelo_inurba_marseille","lat":43.290412,"lon":5.399633,"is_reserved":false,"is_disabled":false,"rental_uris":{"android":"levelo://app?vid=a60a7fab-0ccf-491e-8bb8-990f1321af05","ios":"levelo://app?vid=a60a7fab-0ccf-491e-8bb8-990f1321af05"},"vehicle_type_id":"4","last_reported":1687035885,"current_range_meters":8400,"station_id":"ce4bh392rcd13ifvqdm0","pricing_plan_id":"free"},{"bike_id":"1b569799-b2eb-41e9-aa77-7e880e537c89","system_id":"levelo_inurba_marseille","lat":43.29638,"lon":5.40597,"is_reserved":false,"is_disabled":false,"rental_uris":{"android":"levelo://app?vid=1b569799-b2eb-41e9-aa77-7e880e537c89","ios":"levelo://app?vid=1b569799-b2eb-41e9-aa77-7e880e537c89"},"vehicle_type_id":"4","last_reported":1687035885,"current_range_meters":20800,"station_id":"ce4bh0h2rcd13ifvqd60","pricing_plan_id":"free"},{"bike_id":"c9818828-954c-4234-9bfd-13bd5586d05a","system_id":"levelo_inurba_marseille","lat":43.284462,"lon":5.392121,"is_reserved":false,"is_disabled":false,"rental_uris":{"android":"levelo://app?vid=c9818828-954c-4234-9bfd-13bd5586d05a","ios":"levelo://app?vid=c9818828-954c-4234-9bfd-13bd5586d05a"},"vehicle_type_id":"4","last_reported":1687035885,"current_range_meters":20000,"station_id":"ce4bhoh2rcd13ifvqh5g","pricing_plan_id":"free"},{"bike_id":"650e013b-de19-43b0-8d36-7efe742aa252","system_id":"levelo_inurba_marseille","lat":43.284462,"lon":5.392121,"is_reserved":false,"is_disabled":false,"rental_uris":{"android":"levelo://app?vid=650e013b-de19-43b0-8d36-7efe742aa252","ios":"levelo://app?vid=650e013b-de19-43b0-8d36-7efe742aa252"},"vehicle_type_id":"4","last_reported":1687035885,"current_range_meters":9600,"station_id":"ce4bhoh2rcd13ifvqh5g","pricing_plan_id":"free"},{"bike_id":"f1de0abe-852e-4ee2-892c-40ab74dab12c","system_id":"levelo_inurba_marseille","lat":43.284462,"lon":5.392121,"is_reserved":false,"is_disabled":false,"rental_uris":{"android":"levelo://app?vid=f1de0abe-852e-4ee2-892c-40ab74dab12c","ios":"levelo://app?vid=f1de0abe-852e-4ee2-892c-40ab74dab12c"},"vehicle_type_id":"4","last_reported":1687035885,"current_range_meters":9600,"station_id":"ce4bhoh2rcd13ifvqh5g","pricing_plan_id":"free"},{"bike_id":"9874670b-ed78-4f76-b92d-e0a79fc44bda","system_id":"levelo_inurba_marseille","lat":43.27898,"lon":5.37998,"is_reserved":false,"is_disabled":false,"rental_uris":{"android":"levelo://app?vid=9874670b-ed78-4f76-b92d-e0a79fc44bda","ios":"levelo://app?vid=9874670b-ed78-4f76-b92d-e0a79fc44bda"},"vehicle_type_id":"4","last_reported":1687035885,"current_range_meters":21600,"station_id":"","pricing_plan_id":"free"},{"bike_id":"a83b6fd1-239f-44f1-8021-07a1b8764309","system_id":"levelo_inurba_marseille","lat":43.287154,"lon":5.399979,"is_reserved":false,"is_disabled":false,"rental_uris":{"android":"levelo://app?vid=a83b6fd1-239f-44f1-8021-07a1b8764309","ios":"levelo://app?vid=a83b6fd1-239f-44f1-8021-07a1b8764309"},"vehicle_type_id":"4","last_reported":1687035885,"current_range_meters":18800,"station_id":"ce4bho92rcd13ifvqh3g","pricing_plan_id":"free"},{"bike_id":"d8c65610-530f-4dc9-a7f7-dd0f519631e7","system_id":"levelo_inurba_marseille","lat":43.287154,"lon":5.399979,"is_reserved":false,"is_disabled":false,"rental_uris":{"android":"levelo://app?vid=d8c65610-530f-4dc9-a7f7-dd0f519631e7","ios":"levelo://app?vid=d8c65610-530f-4dc9-a7f7-dd0f519631e7"},"vehicle_type_id":"4","last_reported":1687035885,"current_range_meters":17600,"station_id":"ce4bho92rcd13ifvqh3g","pricing_plan_id":"free"},{"bike_id":"ef0e182a-9cf1-4374-b42e-e32a691528d0","system_id":"levelo_inurba_marseille","lat":43.287154,"lon":5.399979,"is_reserved":false,"is_disabled":false,"rental_uris":{"android":"levelo://app?vid=ef0e182a-9cf1-4374-b42e-e32a691528d0","ios":"levelo://app?vid=ef0e182a-9cf1-4374-b42e-e32a691528d0"},"vehicle_type_id":"4","last_reported":1687035885,"current_range_meters":2000,"station_id":"ce4bho92rcd13ifvqh3g","pricing_plan_id":"free"},{"bike_id":"0704fa4a-a287-4c6f-93dd-892551de5737","system_id":"levelo_inurba_marseille","lat":43.279635,"lon":5.387238,"is_reserved":false,"is_disabled":false,"rental_uris":{"android":"levelo://app?vid=0704fa4a-a287-4c6f-93dd-892551de5737","ios":"levelo://app?vid=0704fa4a-a287-4c6f-93dd-892551de5737"},"vehicle_type_id":"4","last_reported":1687035885,"current_range_meters":30400,"station_id":"ce4bhg12rcd13ifvqf80","pricing_plan_id":"free"},{"bike_id":"f361dc53-0d32-417b-8abc-4ca7ac9ca4da","system_id":"levelo_inurba_marseille","lat":43.279742,"lon":5.38744,"is_reserved":false,"is_disabled":false,"rental_uris":{"android":"levelo://app?vid=f361dc53-0d32-417b-8abc-4ca7ac9ca4da","ios":"levelo://app?vid=f361dc53-0d32-417b-8abc-4ca7ac9ca4da"},"vehicle_type_id":"4","last_reported":1687035885,"current_range_meters":30800,"station_id":"ce4bhg12rcd13ifvqf80","pricing_plan_id":"free"},{"bike_id":"51e03877-1e1f-456e-9f73-9f2cd9bf9d03","system_id":"levelo_inurba_marseille","lat":43.279742,"lon":5.38744,"is_reserved":false,"is_disabled":false,"rental_uris":{"android":"levelo://app?vid=51e03877-1e1f-456e-9f73-9f2cd9bf9d03","ios":"levelo://app?vid=51e03877-1e1f-456e-9f73-9f2cd9bf9d03"},"vehicle_type_id":"4","last_reported":1687035885,"current_range_meters":31200,"station_id":"ce4bhg12rcd13ifvqf80","pricing_plan_id":"free"},{"bike_id":"984dc6e0-5830-495f-8cf2-d783ea570542","system_id":"levelo_inurba_marseille","lat":43.292571,"lon":5.409107,"is_reserved":false,"is_disabled":false,"rental_uris":{"android":"levelo://app?vid=984dc6e0-5830-495f-8cf2-d783ea570542","ios":"levelo://app?vid=984dc6e0-5830-495f-8cf2-d783ea570542"},"vehicle_type_id":"4","last_reported":1687035885,"current_range_meters":0,"station_id":"ce4bh192rcd13ifvqdc0","pricing_plan_id":"free"},{"bike_id":"ea25047e-2fc3-4c03-b5fe-2b2b3f52b7b6","system_id":"levelo_inurba_marseille","lat":43.292571,"lon":5.409107,"is_reserved":false,"is_disabled":false,"rental_uris":{"android":"levelo://app?vid=ea25047e-2fc3-4c03-b5fe-2b2b3f52b7b6","ios":"levelo://app?vid=ea25047e-2fc3-4c03-b5fe-2b2b3f52b7b6"},"vehicle_type_id":"4","last_reported":1687035885,"current_range_meters":0,"station_id":"ce4bh192rcd13ifvqdc0","pricing_plan_id":"free"},{"bike_id":"3afa5abb-0a64-479c-888a-cf99465cd00a","system_id":"levelo_inurba_marseille","lat":43.27826,"lon":5.38916,"is_reserved":false,"is_disabled":false,"rental_uris":{"android":"levelo://app?vid=3afa5abb-0a64-479c-888a-cf99465cd00a","ios":"levelo://app?vid=3afa5abb-0a64-479c-888a-cf99465cd00a"},"vehicle_type_id":"4","last_reported":1687035885,"current_range_meters":2400,"station_id":"","pricing_plan_id":"free"},{"bike_id":"1d9f308d-1141-466e-8c26-e1fffc23ffc6","system_id":"levelo_inurba_marseille","lat":43.280784,"lon":5.396622,"is_reserved":false,"is_disabled":false,"rental_uris":{"android":"levelo://app?vid=1d9f308d-1141-466e-8c26-e1fffc23ffc6","ios":"levelo://app?vid=1d9f308d-1141-466e-8c26-e1fffc23ffc6"},"vehicle_type_id":"4","last_reported":1687035885,"current_range_meters":9200,"station_id":"ce4bho12rcd13ifvqh2g","pricing_plan_id":"free"},{"bike_id":"f7cb4d63-724b-4985-aa4a-5b18a2747f97","system_id":"levelo_inurba_marseille","lat":43.280784,"lon":5.396622,"is_reserved":false,"is_disabled":false,"rental_uris":{"android":"levelo://app?vid=f7cb4d63-724b-4985-aa4a-5b18a2747f97","ios":"levelo://app?vid=f7cb4d63-724b-4985-aa4a-5b18a2747f97"},"vehicle_type_id":"4","last_reported":1687035885,"current_range_meters":6800,"station_id":"ce4bho12rcd13ifvqh2g","pricing_plan_id":"free"},{"bike_id":"e80d0adf-e31b-4808-872d-5d9889f18a1b","system_id":"levelo_inurba_marseille","lat":43.33603,"lon":5.41032,"is_reserved":false,"is_disabled":false,"rental_uris":{"android":"levelo://app?vid=e80d0adf-e31b-4808-872d-5d9889f18a1b","ios":"levelo://app?vid=e80d0adf-e31b-4808-872d-5d9889f18a1b"},"vehicle_type_id":"4","last_reported":1687035885,"current_range_meters":14000,"station_id":"ce4bhqh2rcd13ifvqhmg","pricing_plan_id":"free"},{"bike_id":"b0c5c2c4-d408-4040-aaf9-08491eb9da45","system_id":"levelo_inurba_marseille","lat":43.276769,"lon":5.388787,"is_reserved":false,"is_disabled":false,"rental_uris":{"android":"levelo://app?vid=b0c5c2c4-d408-4040-aaf9-08491eb9da45","ios":"levelo://app?vid=b0c5c2c4-d408-4040-aaf9-08491eb9da45"},"vehicle_type_id":"4","last_reported":1687035885,"current_range_meters":22400,"station_id":"ce4bhi12rcd13ifvqfo0","pricing_plan_id":"free"},{"bike_id":"605e99ef-31e2-473a-b14b-90bfb9d35464","system_id":"levelo_inurba_marseille","lat":43.31721,"lon":5.424,"is_reserved":false,"is_disabled":false,"rental_uris":{"android":"levelo://app?vid=605e99ef-31e2-473a-b14b-90bfb9d35464","ios":"levelo://app?vid=605e99ef-31e2-473a-b14b-90bfb9d35464"},"vehicle_type_id":"4","last_reported":1687035885,"current_range_meters":22000,"station_id":"ce4bhp92rcd13ifvqhbg","pricing_plan_id":"free"},{"bike_id":"3d1f0bf2-a175-4923-9b10-a667ae75f12c","system_id":"levelo_inurba_marseille","lat":43.29585,"lon":5.42065,"is_reserved":false,"is_disabled":false,"rental_uris":{"android":"levelo://app?vid=3d1f0bf2-a175-4923-9b10-a667ae75f12c","ios":"levelo://app?vid=3d1f0bf2-a175-4923-9b10-a667ae75f12c"},"vehicle_type_id":"4","last_reported":1687035885,"current_range_meters":18000,"station_id":"ce4bhph2rcd13ifvqhdg","pricing_plan_id":"free"},{"bike_id":"f82c4e0b-ce86-4de4-962b-f266d6ba506e","system_id":"levelo_inurba_marseille","lat":43.273125,"lon":5.390731,"is_reserved":false,"is_disabled":false,"rental_uris":{"android":"levelo://app?vid=f82c4e0b-ce86-4de4-962b-f266d6ba506e","ios":"levelo://app?vid=f82c4e0b-ce86-4de4-962b-f266d6ba506e"},"vehicle_type_id":"4","last_reported":1687035885,"current_range_meters":29200,"station_id":"ce4bhgp2rcd13ifvqfe0","pricing_plan_id":"free"},{"bike_id":"c2047bb5-22cd-49bd-b587-998080a823b4","system_id":"levelo_inurba_marseille","lat":43.27431,"lon":5.39413,"is_reserved":false,"is_disabled":false,"rental_uris":{"android":"levelo://app?vid=c2047bb5-22cd-49bd-b587-998080a823b4","ios":"levelo://app?vid=c2047bb5-22cd-49bd-b587-998080a823b4"},"vehicle_type_id":"4","last_reported":1687035885,"current_range_meters":14800,"station_id":"","pricing_plan_id":"free"},{"bike_id":"cfba2fbe-9ed5-423f-b411-8d6c38451715","system_id":"levelo_inurba_marseille","lat":43.273125,"lon":5.390731,"is_reserved":false,"is_disabled":false,"rental_uris":{"android":"levelo://app?vid=cfba2fbe-9ed5-423f-b411-8d6c38451715","ios":"levelo://app?vid=cfba2fbe-9ed5-423f-b411-8d6c38451715"},"vehicle_type_id":"4","last_reported":1687035885,"current_range_meters":31200,"station_id":"ce4bhgp2rcd13ifvqfe0","pricing_plan_id":"free"},{"bike_id":"6275aaca-a354-407f-be44-df40f2969d44","system_id":"levelo_inurba_marseille","lat":43.273125,"lon":5.390731,"is_reserved":false,"is_disabled":false,"rental_uris":{"android":"levelo://app?vid=6275aaca-a354-407f-be44-df40f2969d44","ios":"levelo://app?vid=6275aaca-a354-407f-be44-df40f2969d44"},"vehicle_type_id":"4","last_reported":1687035885,"current_range_meters":31200,"station_id":"ce4bhgp2rcd13ifvqfe0","pricing_plan_id":"free"},{"bike_id":"eccf7542-747e-4ae3-bde2-55f7842b0215","system_id":"levelo_inurba_marseille","lat":43.27423,"lon":5.39406,"is_reserved":false,"is_disabled":false,"rental_uris":{"android":"levelo://app?vid=eccf7542-747e-4ae3-bde2-55f7842b0215","ios":"levelo://app?vid=eccf7542-747e-4ae3-bde2-55f7842b0215"},"vehicle_type_id":"4","last_reported":1687035885,"current_range_meters":19600,"station_id":"","pricing_plan_id":"free"},{"bike_id":"a3c0b230-1ef1-4747-bc7a-9cae75611082","system_id":"levelo_inurba_marseille","lat":43.27423,"lon":5.39411,"is_reserved":false,"is_disabled":false,"rental_uris":{"android":"levelo://app?vid=a3c0b230-1ef1-4747-bc7a-9cae75611082","ios":"levelo://app?vid=a3c0b230-1ef1-4747-bc7a-9cae75611082"},"vehicle_type_id":"4","last_reported":1687035885,"current_range_meters":8400,"station_id":"","pricing_plan_id":"free"},{"bike_id":"bb8b0633-db3e-4ae1-bd7d-1df19195d0f4","system_id":"levelo_inurba_marseille","lat":43.27424,"lon":5.39414,"is_reserved":false,"is_disabled":false,"rental_uris":{"android":"levelo://app?vid=bb8b0633-db3e-4ae1-bd7d-1df19195d0f4","ios":"levelo://app?vid=bb8b0633-db3e-4ae1-bd7d-1df19195d0f4"},"vehicle_type_id":"4","last_reported":1687035885,"current_range_meters":0,"station_id":"","pricing_plan_id":"free"},{"bike_id":"202e4f1b-4a6e-4865-a5e7-4b941a1e6e72","system_id":"levelo_inurba_marseille","lat":43.273125,"lon":5.390731,"is_reserved":false,"is_disabled":false,"rental_uris":{"android":"levelo://app?vid=202e4f1b-4a6e-4865-a5e7-4b941a1e6e72","ios":"levelo://app?vid=202e4f1b-4a6e-4865-a5e7-4b941a1e6e72"},"vehicle_type_id":"4","last_reported":1687035885,"current_range_meters":23200,"station_id":"ce4bhgp2rcd13ifvqfe0","pricing_plan_id":"free"},{"bike_id":"6bba4975-69cd-477a-a154-292c2c0d32ba","system_id":"levelo_inurba_marseille","lat":43.27419,"lon":5.39405,"is_reserved":false,"is_disabled":false,"rental_uris":{"android":"levelo://app?vid=6bba4975-69cd-477a-a154-292c2c0d32ba","ios":"levelo://app?vid=6bba4975-69cd-477a-a154-292c2c0d32ba"},"vehicle_type_id":"4","last_reported":1687035885,"current_range_meters":9200,"station_id":"","pricing_plan_id":"free"},{"bike_id":"a3c5653a-2ceb-496d-90f7-32ed3da026ca","system_id":"levelo_inurba_marseille","lat":43.304096,"lon":5.425385,"is_reserved":false,"is_disabled":false,"rental_uris":{"android":"levelo://app?vid=a3c5653a-2ceb-496d-90f7-32ed3da026ca","ios":"levelo://app?vid=a3c5653a-2ceb-496d-90f7-32ed3da026ca"},"vehicle_type_id":"4","last_reported":1687035885,"current_range_meters":800,"station_id":"ce4bhoh2rcd13ifvqh6g","pricing_plan_id":"free"},{"bike_id":"c7c208a7-5834-4cc7-b9ad-617762a9327b","system_id":"levelo_inurba_marseille","lat":43.295523,"lon":5.422926,"is_reserved":false,"is_disabled":false,"rental_uris":{"android":"levelo://app?vid=c7c208a7-5834-4cc7-b9ad-617762a9327b","ios":"levelo://app?vid=c7c208a7-5834-4cc7-b9ad-617762a9327b"},"vehicle_type_id":"4","last_reported":1687035885,"current_range_meters":21600,"station_id":"ce4bhph2rcd13ifvqhdg","pricing_plan_id":"free"},{"bike_id":"036339f8-e04e-4939-9552-b325f958423e","system_id":"levelo_inurba_marseille","lat":43.295511,"lon":5.422926,"is_reserved":false,"is_disabled":false,"rental_uris":{"android":"levelo://app?vid=036339f8-e04e-4939-9552-b325f958423e","ios":"levelo://app?vid=036339f8-e04e-4939-9552-b325f958423e"},"vehicle_type_id":"4","last_reported":1687035885,"current_range_meters":6800,"station_id":"ce4bhph2rcd13ifvqhdg","pricing_plan_id":"free"},{"bike_id":"7d6aa1dd-d339-4470-b5fa-4fce1ac81d3f","system_id":"levelo_inurba_marseille","lat":43.295523,"lon":5.422926,"is_reserved":false,"is_disabled":false,"rental_uris":{"android":"levelo://app?vid=7d6aa1dd-d339-4470-b5fa-4fce1ac81d3f","ios":"levelo://app?vid=7d6aa1dd-d339-4470-b5fa-4fce1ac81d3f"},"vehicle_type_id":"4","last_reported":1687035885,"current_range_meters":0,"station_id":"ce4bhph2rcd13ifvqhdg","pricing_plan_id":"free"},{"bike_id":"17b54309-3065-4be1-a8b9-b08272f5856d","system_id":"levelo_inurba_marseille","lat":43.2955,"lon":5.42295,"is_reserved":false,"is_disabled":false,"rental_uris":{"android":"levelo://app?vid=17b54309-3065-4be1-a8b9-b08272f5856d","ios":"levelo://app?vid=17b54309-3065-4be1-a8b9-b08272f5856d"},"vehicle_type_id":"4","last_reported":1687035885,"current_range_meters":25200,"station_id":"ce4bhph2rcd13ifvqhdg","pricing_plan_id":"free"},{"bike_id":"b72e23be-f9f4-4073-9b9c-ee12240da6dd","system_id":"levelo_inurba_marseille","lat":43.272116,"lon":5.391763,"is_reserved":false,"is_disabled":false,"rental_uris":{"android":"levelo://app?vid=b72e23be-f9f4-4073-9b9c-ee12240da6dd","ios":"levelo://app?vid=b72e23be-f9f4-4073-9b9c-ee12240da6dd"},"vehicle_type_id":"4","last_reported":1687035885,"current_range_meters":28800,"station_id":"ce4bhhp2rcd13ifvqfm0","pricing_plan_id":"free"},{"bike_id":"f63ec399-f461-4132-a7fc-d6ce0f8d97e8","system_id":"levelo_inurba_marseille","lat":43.27819,"lon":5.40711,"is_reserved":false,"is_disabled":false,"rental_uris":{"android":"levelo://app?vid=f63ec399-f461-4132-a7fc-d6ce0f8d97e8","ios":"levelo://app?vid=f63ec399-f461-4132-a7fc-d6ce0f8d97e8"},"vehicle_type_id":"4","last_reported":1687035885,"current_range_meters":19200,"station_id":"ce4bhnh2rcd13ifvqgtg","pricing_plan_id":"free"},{"bike_id":"fbabc927-b803-4f0a-bf22-bb9ade7e8832","system_id":"levelo_inurba_marseille","lat":43.278128,"lon":5.407195,"is_reserved":false,"is_disabled":false,"rental_uris":{"android":"levelo://app?vid=fbabc927-b803-4f0a-bf22-bb9ade7e8832","ios":"levelo://app?vid=fbabc927-b803-4f0a-bf22-bb9ade7e8832"},"vehicle_type_id":"4","last_reported":1687035885,"current_range_meters":2000,"station_id":"ce4bhnh2rcd13ifvqgtg","pricing_plan_id":"free"},{"bike_id":"24077aae-22cf-4e9b-87d1-9ebb83667652","system_id":"levelo_inurba_marseille","lat":43.2781,"lon":5.4071,"is_reserved":false,"is_disabled":false,"rental_uris":{"android":"levelo://app?vid=24077aae-22cf-4e9b-87d1-9ebb83667652","ios":"levelo://app?vid=24077aae-22cf-4e9b-87d1-9ebb83667652"},"vehicle_type_id":"4","last_reported":1687035885,"current_range_meters":29200,"station_id":"ce4bhnh2rcd13ifvqgtg","pricing_plan_id":"free"},{"bike_id":"60f05933-1528-4c64-bc04-da12704b6b0b","system_id":"levelo_inurba_marseille","lat":43.26681,"lon":5.382694,"is_reserved":false,"is_disabled":false,"rental_uris":{"android":"levelo://app?vid=60f05933-1528-4c64-bc04-da12704b6b0b","ios":"levelo://app?vid=60f05933-1528-4c64-bc04-da12704b6b0b"},"vehicle_type_id":"4","last_reported":1687035885,"current_range_meters":28800,"station_id":"ce4bhg92rcd13ifvqf90","pricing_plan_id":"free"},{"bike_id":"772f08f4-3aca-476d-a988-6853078cca97","system_id":"levelo_inurba_marseille","lat":43.26681,"lon":5.382694,"is_reserved":false,"is_disabled":false,"rental_uris":{"android":"levelo://app?vid=772f08f4-3aca-476d-a988-6853078cca97","ios":"levelo://app?vid=772f08f4-3aca-476d-a988-6853078cca97"},"vehicle_type_id":"4","last_reported":1687035885,"current_range_meters":0,"station_id":"ce4bhg92rcd13ifvqf90","pricing_plan_id":"free"},{"bike_id":"ec8d004b-abeb-4fb3-9d7d-2c733d7c26b7","system_id":"levelo_inurba_marseille","lat":43.26681,"lon":5.382694,"is_reserved":false,"is_disabled":false,"rental_uris":{"android":"levelo://app?vid=ec8d004b-abeb-4fb3-9d7d-2c733d7c26b7","ios":"levelo://app?vid=ec8d004b-abeb-4fb3-9d7d-2c733d7c26b7"},"vehicle_type_id":"4","last_reported":1687035885,"current_range_meters":23600,"station_id":"ce4bhg92rcd13ifvqf90","pricing_plan_id":"free"},{"bike_id":"89bf49e1-0c97-4ac2-8728-5d837dff085e","system_id":"levelo_inurba_marseille","lat":43.27996,"lon":5.41663,"is_reserved":false,"is_disabled":false,"rental_uris":{"android":"levelo://app?vid=89bf49e1-0c97-4ac2-8728-5d837dff085e","ios":"levelo://app?vid=89bf49e1-0c97-4ac2-8728-5d837dff085e"},"vehicle_type_id":"4","last_reported":1687035885,"current_range_meters":12400,"station_id":"ce4bho12rcd13ifvqh1g","pricing_plan_id":"free"},{"bike_id":"efcd4409-b407-4893-a081-8018deada33e","system_id":"levelo_inurba_marseille","lat":43.27989,"lon":5.41657,"is_reserved":false,"is_disabled":false,"rental_uris":{"android":"levelo://app?vid=efcd4409-b407-4893-a081-8018deada33e","ios":"levelo://app?vid=efcd4409-b407-4893-a081-8018deada33e"},"vehicle_type_id":"4","last_reported":1687035885,"current_range_meters":10400,"station_id":"ce4bho12rcd13ifvqh1g","pricing_plan_id":"free"},{"bike_id":"d78d7ec5-f2d5-40b9-9ac0-deb985a7ead5","system_id":"levelo_inurba_marseille","lat":43.2799,"lon":5.41663,"is_reserved":false,"is_disabled":false,"rental_uris":{"android":"levelo://app?vid=d78d7ec5-f2d5-40b9-9ac0-deb985a7ead5","ios":"levelo://app?vid=d78d7ec5-f2d5-40b9-9ac0-deb985a7ead5"},"vehicle_type_id":"4","last_reported":1687035885,"current_range_meters":21600,"station_id":"ce4bho12rcd13ifvqh1g","pricing_plan_id":"free"},{"bike_id":"3987290e-fd4b-4f2b-81c0-57fca98f9cde","system_id":"levelo_inurba_marseille","lat":43.267966,"lon":5.393976,"is_reserved":false,"is_disabled":false,"rental_uris":{"android":"levelo://app?vid=3987290e-fd4b-4f2b-81c0-57fca98f9cde","ios":"levelo://app?vid=3987290e-fd4b-4f2b-81c0-57fca98f9cde"},"vehicle_type_id":"4","last_reported":1687035885,"current_range_meters":31200,"station_id":"ce4bhh12rcd13ifvqfg0","pricing_plan_id":"free"},{"bike_id":"1ef67b03-c338-4000-a3cc-d236cea39595","system_id":"levelo_inurba_marseille","lat":43.26566,"lon":5.39015,"is_reserved":false,"is_disabled":false,"rental_uris":{"android":"levelo://app?vid=1ef67b03-c338-4000-a3cc-d236cea39595","ios":"levelo://app?vid=1ef67b03-c338-4000-a3cc-d236cea39595"},"vehicle_type_id":"4","last_reported":1687035885,"current_range_meters":29600,"station_id":"ce4bhe12rcd13ifvqf30","pricing_plan_id":"free"},{"bike_id":"cda28a23-f977-444e-be81-0c35c0e3524a","system_id":"levelo_inurba_marseille","lat":43.30822,"lon":5.43553,"is_reserved":false,"is_disabled":false,"rental_uris":{"android":"levelo://app?vid=cda28a23-f977-444e-be81-0c35c0e3524a","ios":"levelo://app?vid=cda28a23-f977-444e-be81-0c35c0e3524a"},"vehicle_type_id":"4","last_reported":1687035885,"current_range_meters":800,"station_id":"","pricing_plan_id":"free"},{"bike_id":"90d6893a-f1b0-4703-883c-6fbf42830f17","system_id":"levelo_inurba_marseille","lat":43.26234,"lon":5.37516,"is_reserved":false,"is_disabled":false,"rental_uris":{"android":"levelo://app?vid=90d6893a-f1b0-4703-883c-6fbf42830f17","ios":"levelo://app?vid=90d6893a-f1b0-4703-883c-6fbf42830f17"},"vehicle_type_id":"4","last_reported":1687035885,"current_range_meters":25200,"station_id":"","pricing_plan_id":"free"},{"bike_id":"6f86fded-50af-4329-9504-457eaacbddcf","system_id":"levelo_inurba_marseille","lat":43.261782,"lon":5.374515,"is_reserved":false,"is_disabled":false,"rental_uris":{"android":"levelo://app?vid=6f86fded-50af-4329-9504-457eaacbddcf","ios":"levelo://app?vid=6f86fded-50af-4329-9504-457eaacbddcf"},"vehicle_type_id":"4","last_reported":1687035885,"current_range_meters":23600,"station_id":"ce4bhgp2rcd13ifvqfc0","pricing_plan_id":"free"},{"bike_id":"2ace17ed-a4af-487e-bdaf-63f5c338ca89","system_id":"levelo_inurba_marseille","lat":43.261782,"lon":5.374515,"is_reserved":false,"is_disabled":false,"rental_uris":{"android":"levelo://app?vid=2ace17ed-a4af-487e-bdaf-63f5c338ca89","ios":"levelo://app?vid=2ace17ed-a4af-487e-bdaf-63f5c338ca89"},"vehicle_type_id":"4","last_reported":1687035885,"current_range_meters":5200,"station_id":"ce4bhgp2rcd13ifvqfc0","pricing_plan_id":"free"},{"bike_id":"cd352925-79be-4e24-8444-88fdc27a08ad","system_id":"levelo_inurba_marseille","lat":43.26185,"lon":5.37445,"is_reserved":false,"is_disabled":false,"rental_uris":{"android":"levelo://app?vid=cd352925-79be-4e24-8444-88fdc27a08ad","ios":"levelo://app?vid=cd352925-79be-4e24-8444-88fdc27a08ad"},"vehicle_type_id":"4","last_reported":1687035885,"current_range_meters":0,"station_id":"ce4bhgp2rcd13ifvqfc0","pricing_plan_id":"free"},{"bike_id":"b6ed9d89-3a62-4cef-ba50-35984eac1702","system_id":"levelo_inurba_marseille","lat":43.26219,"lon":5.37916,"is_reserved":false,"is_disabled":false,"rental_uris":{"android":"levelo://app?vid=b6ed9d89-3a62-4cef-ba50-35984eac1702","ios":"levelo://app?vid=b6ed9d89-3a62-4cef-ba50-35984eac1702"},"vehicle_type_id":"4","last_reported":1687035885,"current_range_meters":31200,"station_id":"ce4bhjp2rcd13ifvqg90","pricing_plan_id":"free"},{"bike_id":"c110e53b-cf0c-412d-9d86-cdc6d0024913","system_id":"levelo_inurba_marseille","lat":43.26216,"lon":5.37923,"is_reserved":false,"is_disabled":false,"rental_uris":{"android":"levelo://app?vid=c110e53b-cf0c-412d-9d86-cdc6d0024913","ios":"levelo://app?vid=c110e53b-cf0c-412d-9d86-cdc6d0024913"},"vehicle_type_id":"4","last_reported":1687035885,"current_range_meters":20000,"station_id":"ce4bhjp2rcd13ifvqg90","pricing_plan_id":"free"},{"bike_id":"ea62e870-934e-46c7-b7e6-8e74ec0b9b90","system_id":"levelo_inurba_marseille","lat":43.26212,"lon":5.37918,"is_reserved":false,"is_disabled":false,"rental_uris":{"android":"levelo://app?vid=ea62e870-934e-46c7-b7e6-8e74ec0b9b90","ios":"levelo://app?vid=ea62e870-934e-46c7-b7e6-8e74ec0b9b90"},"vehicle_type_id":"4","last_reported":1687035885,"current_range_meters":24800,"station_id":"ce4bhjp2rcd13ifvqg90","pricing_plan_id":"free"},{"bike_id":"ca46cb86-dbde-4029-bd60-75693ddea8d4","system_id":"levelo_inurba_marseille","lat":43.26213,"lon":5.37927,"is_reserved":false,"is_disabled":false,"rental_uris":{"android":"levelo://app?vid=ca46cb86-dbde-4029-bd60-75693ddea8d4","ios":"levelo://app?vid=ca46cb86-dbde-4029-bd60-75693ddea8d4"},"vehicle_type_id":"4","last_reported":1687035885,"current_range_meters":10800,"station_id":"ce4bhjp2rcd13ifvqg90","pricing_plan_id":"free"},{"bike_id":"3aaaae40-4715-472e-9fb3-833756e6b3c6","system_id":"levelo_inurba_marseille","lat":43.26213,"lon":5.37929,"is_reserved":false,"is_disabled":false,"rental_uris":{"android":"levelo://app?vid=3aaaae40-4715-472e-9fb3-833756e6b3c6","ios":"levelo://app?vid=3aaaae40-4715-472e-9fb3-833756e6b3c6"},"vehicle_type_id":"4","last_reported":1687035885,"current_range_meters":31200,"station_id":"ce4bhjp2rcd13ifvqg90","pricing_plan_id":"free"},{"bike_id":"2d65fd79-b97b-4cc7-927d-26081624c71c","system_id":"levelo_inurba_marseille","lat":43.26212,"lon":5.37922,"is_reserved":false,"is_disabled":false,"rental_uris":{"android":"levelo://app?vid=2d65fd79-b97b-4cc7-927d-26081624c71c","ios":"levelo://app?vid=2d65fd79-b97b-4cc7-927d-26081624c71c"},"vehicle_type_id":"4","last_reported":1687035885,"current_range_meters":14800,"station_id":"ce4bhjp2rcd13ifvqg90","pricing_plan_id":"free"},{"bike_id":"9df76f25-1cd8-4d21-a4a1-42e690d94951","system_id":"levelo_inurba_marseille","lat":43.26211,"lon":5.37922,"is_reserved":false,"is_disabled":false,"rental_uris":{"android":"levelo://app?vid=9df76f25-1cd8-4d21-a4a1-42e690d94951","ios":"levelo://app?vid=9df76f25-1cd8-4d21-a4a1-42e690d94951"},"vehicle_type_id":"4","last_reported":1687035885,"current_range_meters":17600,"station_id":"ce4bhjp2rcd13ifvqg90","pricing_plan_id":"free"},{"bike_id":"3096f713-b093-493f-9a5b-0467126c255f","system_id":"levelo_inurba_marseille","lat":43.26211,"lon":5.37923,"is_reserved":false,"is_disabled":false,"rental_uris":{"android":"levelo://app?vid=3096f713-b093-493f-9a5b-0467126c255f","ios":"levelo://app?vid=3096f713-b093-493f-9a5b-0467126c255f"},"vehicle_type_id":"4","last_reported":1687035885,"current_range_meters":4400,"station_id":"ce4bhjp2rcd13ifvqg90","pricing_plan_id":"free"},{"bike_id":"2aa79ce7-fff8-4b93-bc10-41660464c642","system_id":"levelo_inurba_marseille","lat":43.26212,"lon":5.37932,"is_reserved":false,"is_disabled":false,"rental_uris":{"android":"levelo://app?vid=2aa79ce7-fff8-4b93-bc10-41660464c642","ios":"levelo://app?vid=2aa79ce7-fff8-4b93-bc10-41660464c642"},"vehicle_type_id":"4","last_reported":1687035885,"current_range_meters":21200,"station_id":"ce4bhjp2rcd13ifvqg90","pricing_plan_id":"free"},{"bike_id":"8cdb12fe-413a-44d9-850f-da0785d16de7","system_id":"levelo_inurba_marseille","lat":43.26211,"lon":5.37926,"is_reserved":false,"is_disabled":false,"rental_uris":{"android":"levelo://app?vid=8cdb12fe-413a-44d9-850f-da0785d16de7","ios":"levelo://app?vid=8cdb12fe-413a-44d9-850f-da0785d16de7"},"vehicle_type_id":"4","last_reported":1687035885,"current_range_meters":26800,"station_id":"ce4bhjp2rcd13ifvqg90","pricing_plan_id":"free"},{"bike_id":"b76cc4f0-c162-477e-9775-3c477ba8fe87","system_id":"levelo_inurba_marseille","lat":43.2621,"lon":5.37929,"is_reserved":false,"is_disabled":false,"rental_uris":{"android":"levelo://app?vid=b76cc4f0-c162-477e-9775-3c477ba8fe87","ios":"levelo://app?vid=b76cc4f0-c162-477e-9775-3c477ba8fe87"},"vehicle_type_id":"4","last_reported":1687035885,"current_range_meters":29600,"station_id":"ce4bhjp2rcd13ifvqg90","pricing_plan_id":"free"},{"bike_id":"8073b83a-1805-4797-9622-ee3f14f8f0cf","system_id":"levelo_inurba_marseille","lat":43.26209,"lon":5.37922,"is_reserved":false,"is_disabled":false,"rental_uris":{"android":"levelo://app?vid=8073b83a-1805-4797-9622-ee3f14f8f0cf","ios":"levelo://app?vid=8073b83a-1805-4797-9622-ee3f14f8f0cf"},"vehicle_type_id":"4","last_reported":1687035885,"current_range_meters":22000,"station_id":"ce4bhjp2rcd13ifvqg90","pricing_plan_id":"free"},{"bike_id":"84b9db6e-3ff6-4fc5-9588-de39363ea0a4","system_id":"levelo_inurba_marseille","lat":43.2621,"lon":5.379313,"is_reserved":false,"is_disabled":false,"rental_uris":{"android":"levelo://app?vid=84b9db6e-3ff6-4fc5-9588-de39363ea0a4","ios":"levelo://app?vid=84b9db6e-3ff6-4fc5-9588-de39363ea0a4"},"vehicle_type_id":"4","last_reported":1687035885,"current_range_meters":30400,"station_id":"ce4bhjp2rcd13ifvqg90","pricing_plan_id":"free"},{"bike_id":"34b78aa5-f66b-433e-848f-3a318f520e7b","system_id":"levelo_inurba_marseille","lat":43.26209,"lon":5.37924,"is_reserved":false,"is_disabled":false,"rental_uris":{"android":"levelo://app?vid=34b78aa5-f66b-433e-848f-3a318f520e7b","ios":"levelo://app?vid=34b78aa5-f66b-433e-848f-3a318f520e7b"},"vehicle_type_id":"4","last_reported":1687035885,"current_range_meters":14400,"station_id":"ce4bhjp2rcd13ifvqg90","pricing_plan_id":"free"},{"bike_id":"9d9d66d5-3cae-40ac-8709-6b524ba29811","system_id":"levelo_inurba_marseille","lat":43.26209,"lon":5.37925,"is_reserved":false,"is_disabled":false,"rental_uris":{"android":"levelo://app?vid=9d9d66d5-3cae-40ac-8709-6b524ba29811","ios":"levelo://app?vid=9d9d66d5-3cae-40ac-8709-6b524ba29811"},"vehicle_type_id":"4","last_reported":1687035885,"current_range_meters":17600,"station_id":"ce4bhjp2rcd13ifvqg90","pricing_plan_id":"free"},{"bike_id":"7d384896-0137-4921-acd3-bc3badb3d20e","system_id":"levelo_inurba_marseille","lat":43.26208,"lon":5.37918,"is_reserved":false,"is_disabled":false,"rental_uris":{"android":"levelo://app?vid=7d384896-0137-4921-acd3-bc3badb3d20e","ios":"levelo://app?vid=7d384896-0137-4921-acd3-bc3badb3d20e"},"vehicle_type_id":"4","last_reported":1687035885,"current_range_meters":21200,"station_id":"ce4bhjp2rcd13ifvqg90","pricing_plan_id":"free"},{"bike_id":"bddd26ce-6b5c-4b34-85fc-515db0a13eaf","system_id":"levelo_inurba_marseille","lat":43.26209,"lon":5.37926,"is_reserved":false,"is_disabled":false,"rental_uris":{"android":"levelo://app?vid=bddd26ce-6b5c-4b34-85fc-515db0a13eaf","ios":"levelo://app?vid=bddd26ce-6b5c-4b34-85fc-515db0a13eaf"},"vehicle_type_id":"4","last_reported":1687035885,"current_range_meters":31200,"station_id":"ce4bhjp2rcd13ifvqg90","pricing_plan_id":"free"},{"bike_id":"14f91770-e5bd-49c9-ab9c-18d480a04fee","system_id":"levelo_inurba_marseille","lat":43.26208,"lon":5.37924,"is_reserved":false,"is_disabled":false,"rental_uris":{"android":"levelo://app?vid=14f91770-e5bd-49c9-ab9c-18d480a04fee","ios":"levelo://app?vid=14f91770-e5bd-49c9-ab9c-18d480a04fee"},"vehicle_type_id":"4","last_reported":1687035885,"current_range_meters":12800,"station_id":"ce4bhjp2rcd13ifvqg90","pricing_plan_id":"free"},{"bike_id":"b405e01a-b660-44ad-9d22-7b92ff72c3bc","system_id":"levelo_inurba_marseille","lat":43.26208,"lon":5.37926,"is_reserved":false,"is_disabled":false,"rental_uris":{"android":"levelo://app?vid=b405e01a-b660-44ad-9d22-7b92ff72c3bc","ios":"levelo://app?vid=b405e01a-b660-44ad-9d22-7b92ff72c3bc"},"vehicle_type_id":"4","last_reported":1687035885,"current_range_meters":31200,"station_id":"ce4bhjp2rcd13ifvqg90","pricing_plan_id":"free"},{"bike_id":"b6b5f1ac-8a63-4832-bdb8-c1700bac554d","system_id":"levelo_inurba_marseille","lat":43.26159,"lon":5.37455,"is_reserved":false,"is_disabled":false,"rental_uris":{"android":"levelo://app?vid=b6b5f1ac-8a63-4832-bdb8-c1700bac554d","ios":"levelo://app?vid=b6b5f1ac-8a63-4832-bdb8-c1700bac554d"},"vehicle_type_id":"4","last_reported":1687035885,"current_range_meters":16400,"station_id":"ce4bhgp2rcd13ifvqfc0","pricing_plan_id":"free"},{"bike_id":"ab511131-7c27-4778-8d24-a26196192374","system_id":"levelo_inurba_marseille","lat":43.26207,"lon":5.37919,"is_reserved":false,"is_disabled":false,"rental_uris":{"android":"levelo://app?vid=ab511131-7c27-4778-8d24-a26196192374","ios":"levelo://app?vid=ab511131-7c27-4778-8d24-a26196192374"},"vehicle_type_id":"4","last_reported":1687035885,"current_range_meters":10400,"station_id":"ce4bhjp2rcd13ifvqg90","pricing_plan_id":"free"},{"bike_id":"e002c8e0-d3a4-45be-a015-e49dbcdde71d","system_id":"levelo_inurba_marseille","lat":43.26208,"lon":5.37929,"is_reserved":false,"is_disabled":false,"rental_uris":{"android":"levelo://app?vid=e002c8e0-d3a4-45be-a015-e49dbcdde71d","ios":"levelo://app?vid=e002c8e0-d3a4-45be-a015-e49dbcdde71d"},"vehicle_type_id":"4","last_reported":1687035885,"current_range_meters":29200,"station_id":"ce4bhjp2rcd13ifvqg90","pricing_plan_id":"free"},{"bike_id":"faab296f-48d1-46c5-b2d8-73e773fb8dde","system_id":"levelo_inurba_marseille","lat":43.26207,"lon":5.37924,"is_reserved":false,"is_disabled":false,"rental_uris":{"android":"levelo://app?vid=faab296f-48d1-46c5-b2d8-73e773fb8dde","ios":"levelo://app?vid=faab296f-48d1-46c5-b2d8-73e773fb8dde"},"vehicle_type_id":"4","last_reported":1687035885,"current_range_meters":21600,"station_id":"ce4bhjp2rcd13ifvqg90","pricing_plan_id":"free"},{"bike_id":"1e06eb7f-d33a-44ad-b658-e04700a25e6f","system_id":"levelo_inurba_marseille","lat":43.26207,"lon":5.37924,"is_reserved":false,"is_disabled":false,"rental_uris":{"android":"levelo://app?vid=1e06eb7f-d33a-44ad-b658-e04700a25e6f","ios":"levelo://app?vid=1e06eb7f-d33a-44ad-b658-e04700a25e6f"},"vehicle_type_id":"4","last_reported":1687035885,"current_range_meters":31200,"station_id":"ce4bhjp2rcd13ifvqg90","pricing_plan_id":"free"},{"bike_id":"68160dc5-66ee-48f3-a7fd-08d448042157","system_id":"levelo_inurba_marseille","lat":43.26207,"lon":5.37925,"is_reserved":false,"is_disabled":false,"rental_uris":{"android":"levelo://app?vid=68160dc5-66ee-48f3-a7fd-08d448042157","ios":"levelo://app?vid=68160dc5-66ee-48f3-a7fd-08d448042157"},"vehicle_type_id":"4","last_reported":1687035885,"current_range_meters":28400,"station_id":"ce4bhjp2rcd13ifvqg90","pricing_plan_id":"free"},{"bike_id":"511de726-445a-48f1-a41c-0b171f4678fa","system_id":"levelo_inurba_marseille","lat":43.26207,"lon":5.37928,"is_reserved":false,"is_disabled":false,"rental_uris":{"android":"levelo://app?vid=511de726-445a-48f1-a41c-0b171f4678fa","ios":"levelo://app?vid=511de726-445a-48f1-a41c-0b171f4678fa"},"vehicle_type_id":"4","last_reported":1687035885,"current_range_meters":31200,"station_id":"ce4bhjp2rcd13ifvqg90","pricing_plan_id":"free"},{"bike_id":"1fbcd0e5-2252-4e20-af10-fe84b5942d1d","system_id":"levelo_inurba_marseille","lat":43.26206,"lon":5.37924,"is_reserved":false,"is_disabled":false,"rental_uris":{"android":"levelo://app?vid=1fbcd0e5-2252-4e20-af10-fe84b5942d1d","ios":"levelo://app?vid=1fbcd0e5-2252-4e20-af10-fe84b5942d1d"},"vehicle_type_id":"4","last_reported":1687035885,"current_range_meters":31200,"station_id":"ce4bhjp2rcd13ifvqg90","pricing_plan_id":"free"},{"bike_id":"db9d8b83-5b08-4b76-b005-57fd52fe9e93","system_id":"levelo_inurba_marseille","lat":43.26206,"lon":5.37926,"is_reserved":false,"is_disabled":false,"rental_uris":{"android":"levelo://app?vid=db9d8b83-5b08-4b76-b005-57fd52fe9e93","ios":"levelo://app?vid=db9d8b83-5b08-4b76-b005-57fd52fe9e93"},"vehicle_type_id":"4","last_reported":1687035885,"current_range_meters":14000,"station_id":"ce4bhjp2rcd13ifvqg90","pricing_plan_id":"free"},{"bike_id":"467df531-33c3-407c-936c-56836c8edfbc","system_id":"levelo_inurba_marseille","lat":43.26206,"lon":5.37926,"is_reserved":false,"is_disabled":false,"rental_uris":{"android":"levelo://app?vid=467df531-33c3-407c-936c-56836c8edfbc","ios":"levelo://app?vid=467df531-33c3-407c-936c-56836c8edfbc"},"vehicle_type_id":"4","last_reported":1687035885,"current_range_meters":30000,"station_id":"ce4bhjp2rcd13ifvqg90","pricing_plan_id":"free"},{"bike_id":"abd9f73a-dd35-47ee-8053-6243488dbb0c","system_id":"levelo_inurba_marseille","lat":43.26205,"lon":5.37922,"is_reserved":false,"is_disabled":false,"rental_uris":{"android":"levelo://app?vid=abd9f73a-dd35-47ee-8053-6243488dbb0c","ios":"levelo://app?vid=abd9f73a-dd35-47ee-8053-6243488dbb0c"},"vehicle_type_id":"4","last_reported":1687035885,"current_range_meters":18400,"station_id":"ce4bhjp2rcd13ifvqg90","pricing_plan_id":"free"},{"bike_id":"c399ea41-3739-433c-8f2a-ffdd523ae783","system_id":"levelo_inurba_marseille","lat":43.26206,"lon":5.3793,"is_reserved":false,"is_disabled":false,"rental_uris":{"android":"levelo://app?vid=c399ea41-3739-433c-8f2a-ffdd523ae783","ios":"levelo://app?vid=c399ea41-3739-433c-8f2a-ffdd523ae783"},"vehicle_type_id":"4","last_reported":1687035885,"current_range_meters":30400,"station_id":"ce4bhjp2rcd13ifvqg90","pricing_plan_id":"free"},{"bike_id":"c39a453d-ea08-4fcb-9938-90dd3b7af212","system_id":"levelo_inurba_marseille","lat":43.26206,"lon":5.3793,"is_reserved":false,"is_disabled":false,"rental_uris":{"android":"levelo://app?vid=c39a453d-ea08-4fcb-9938-90dd3b7af212","ios":"levelo://app?vid=c39a453d-ea08-4fcb-9938-90dd3b7af212"},"vehicle_type_id":"4","last_reported":1687035885,"current_range_meters":12000,"station_id":"ce4bhjp2rcd13ifvqg90","pricing_plan_id":"free"},{"bike_id":"0f32807b-3989-43d0-8336-df89a6bbc3de","system_id":"levelo_inurba_marseille","lat":43.26206,"lon":5.3793,"is_reserved":false,"is_disabled":false,"rental_uris":{"android":"levelo://app?vid=0f32807b-3989-43d0-8336-df89a6bbc3de","ios":"levelo://app?vid=0f32807b-3989-43d0-8336-df89a6bbc3de"},"vehicle_type_id":"4","last_reported":1687035885,"current_range_meters":20800,"station_id":"ce4bhjp2rcd13ifvqg90","pricing_plan_id":"free"},{"bike_id":"0c46b4e4-940f-4f8a-bdcc-8b0dcbac7d4d","system_id":"levelo_inurba_marseille","lat":43.26205,"lon":5.37924,"is_reserved":false,"is_disabled":false,"rental_uris":{"android":"levelo://app?vid=0c46b4e4-940f-4f8a-bdcc-8b0dcbac7d4d","ios":"levelo://app?vid=0c46b4e4-940f-4f8a-bdcc-8b0dcbac7d4d"},"vehicle_type_id":"4","last_reported":1687035885,"current_range_meters":31600,"station_id":"ce4bhjp2rcd13ifvqg90","pricing_plan_id":"free"},{"bike_id":"4d0f0de9-e360-4980-86a0-e12c39ac1f0a","system_id":"levelo_inurba_marseille","lat":43.26205,"lon":5.37924,"is_reserved":false,"is_disabled":false,"rental_uris":{"android":"levelo://app?vid=4d0f0de9-e360-4980-86a0-e12c39ac1f0a","ios":"levelo://app?vid=4d0f0de9-e360-4980-86a0-e12c39ac1f0a"},"vehicle_type_id":"4","last_reported":1687035885,"current_range_meters":14000,"station_id":"ce4bhjp2rcd13ifvqg90","pricing_plan_id":"free"},{"bike_id":"1e75134c-00b5-437a-be60-db87eb6c35a0","system_id":"levelo_inurba_marseille","lat":43.26204,"lon":5.37921,"is_reserved":false,"is_disabled":false,"rental_uris":{"android":"levelo://app?vid=1e75134c-00b5-437a-be60-db87eb6c35a0","ios":"levelo://app?vid=1e75134c-00b5-437a-be60-db87eb6c35a0"},"vehicle_type_id":"4","last_reported":1687035885,"current_range_meters":22000,"station_id":"ce4bhjp2rcd13ifvqg90","pricing_plan_id":"free"},{"bike_id":"f242875e-e3c1-4064-a25f-e20f70dd64f2","system_id":"levelo_inurba_marseille","lat":43.26205,"lon":5.3793,"is_reserved":false,"is_disabled":false,"rental_uris":{"android":"levelo://app?vid=f242875e-e3c1-4064-a25f-e20f70dd64f2","ios":"levelo://app?vid=f242875e-e3c1-4064-a25f-e20f70dd64f2"},"vehicle_type_id":"4","last_reported":1687035885,"current_range_meters":27600,"station_id":"ce4bhjp2rcd13ifvqg90","pricing_plan_id":"free"},{"bike_id":"eb82b6b3-daf9-4f09-bed8-2b784cf070fa","system_id":"levelo_inurba_marseille","lat":43.26205,"lon":5.3793,"is_reserved":false,"is_disabled":false,"rental_uris":{"android":"levelo://app?vid=eb82b6b3-daf9-4f09-bed8-2b784cf070fa","ios":"levelo://app?vid=eb82b6b3-daf9-4f09-bed8-2b784cf070fa"},"vehicle_type_id":"4","last_reported":1687035885,"current_range_meters":29600,"station_id":"ce4bhjp2rcd13ifvqg90","pricing_plan_id":"free"},{"bike_id":"f7cb5758-4319-474c-ab2b-9ffe590fb218","system_id":"levelo_inurba_marseille","lat":43.26204,"lon":5.37923,"is_reserved":false,"is_disabled":false,"rental_uris":{"android":"levelo://app?vid=f7cb5758-4319-474c-ab2b-9ffe590fb218","ios":"levelo://app?vid=f7cb5758-4319-474c-ab2b-9ffe590fb218"},"vehicle_type_id":"4","last_reported":1687035885,"current_range_meters":31200,"station_id":"ce4bhjp2rcd13ifvqg90","pricing_plan_id":"free"},{"bike_id":"b5c639d0-0c9f-4e4a-8b7e-3d5f739831b0","system_id":"levelo_inurba_marseille","lat":43.26204,"lon":5.37925,"is_reserved":false,"is_disabled":false,"rental_uris":{"android":"levelo://app?vid=b5c639d0-0c9f-4e4a-8b7e-3d5f739831b0","ios":"levelo://app?vid=b5c639d0-0c9f-4e4a-8b7e-3d5f739831b0"},"vehicle_type_id":"4","last_reported":1687035885,"current_range_meters":16400,"station_id":"ce4bhjp2rcd13ifvqg90","pricing_plan_id":"free"},{"bike_id":"cb819c0f-6ffa-4f80-a81f-88af8c3cc91d","system_id":"levelo_inurba_marseille","lat":43.26204,"lon":5.37926,"is_reserved":false,"is_disabled":false,"rental_uris":{"android":"levelo://app?vid=cb819c0f-6ffa-4f80-a81f-88af8c3cc91d","ios":"levelo://app?vid=cb819c0f-6ffa-4f80-a81f-88af8c3cc91d"},"vehicle_type_id":"4","last_reported":1687035885,"current_range_meters":8400,"station_id":"ce4bhjp2rcd13ifvqg90","pricing_plan_id":"free"},{"bike_id":"8e5bf5ff-cee7-4523-89bb-6e59c0fefa80","system_id":"levelo_inurba_marseille","lat":43.27182,"lon":5.40987,"is_reserved":false,"is_disabled":false,"rental_uris":{"android":"levelo://app?vid=8e5bf5ff-cee7-4523-89bb-6e59c0fefa80","ios":"levelo://app?vid=8e5bf5ff-cee7-4523-89bb-6e59c0fefa80"},"vehicle_type_id":"4","last_reported":1687035885,"current_range_meters":18400,"station_id":"","pricing_plan_id":"free"},{"bike_id":"e12747e2-cb30-40ae-8ccc-5f1f274383f1","system_id":"levelo_inurba_marseille","lat":43.26204,"lon":5.3793,"is_reserved":false,"is_disabled":false,"rental_uris":{"android":"levelo://app?vid=e12747e2-cb30-40ae-8ccc-5f1f274383f1","ios":"levelo://app?vid=e12747e2-cb30-40ae-8ccc-5f1f274383f1"},"vehicle_type_id":"4","last_reported":1687035885,"current_range_meters":12400,"station_id":"ce4bhjp2rcd13ifvqg90","pricing_plan_id":"free"},{"bike_id":"3c5b1740-bc31-4744-acf7-44c3afca5eef","system_id":"levelo_inurba_marseille","lat":43.26203,"lon":5.37923,"is_reserved":false,"is_disabled":false,"rental_uris":{"android":"levelo://app?vid=3c5b1740-bc31-4744-acf7-44c3afca5eef","ios":"levelo://app?vid=3c5b1740-bc31-4744-acf7-44c3afca5eef"},"vehicle_type_id":"4","last_reported":1687035885,"current_range_meters":8800,"station_id":"ce4bhjp2rcd13ifvqg90","pricing_plan_id":"free"},{"bike_id":"b66ee968-f311-40a9-86d7-6297db3c3882","system_id":"levelo_inurba_marseille","lat":43.26203,"lon":5.37923,"is_reserved":false,"is_disabled":false,"rental_uris":{"android":"levelo://app?vid=b66ee968-f311-40a9-86d7-6297db3c3882","ios":"levelo://app?vid=b66ee968-f311-40a9-86d7-6297db3c3882"},"vehicle_type_id":"4","last_reported":1687035885,"current_range_meters":17200,"station_id":"ce4bhjp2rcd13ifvqg90","pricing_plan_id":"free"},{"bike_id":"b6cf1a23-a50c-4af6-9595-1a3baf28483e","system_id":"levelo_inurba_marseille","lat":43.26204,"lon":5.37931,"is_reserved":false,"is_disabled":false,"rental_uris":{"android":"levelo://app?vid=b6cf1a23-a50c-4af6-9595-1a3baf28483e","ios":"levelo://app?vid=b6cf1a23-a50c-4af6-9595-1a3baf28483e"},"vehicle_type_id":"4","last_reported":1687035885,"current_range_meters":3600,"station_id":"ce4bhjp2rcd13ifvqg90","pricing_plan_id":"free"},{"bike_id":"7891bf97-4eb1-4cae-8d6e-efdfff2479a5","system_id":"levelo_inurba_marseille","lat":43.26202,"lon":5.379299,"is_reserved":false,"is_disabled":false,"rental_uris":{"android":"levelo://app?vid=7891bf97-4eb1-4cae-8d6e-efdfff2479a5","ios":"levelo://app?vid=7891bf97-4eb1-4cae-8d6e-efdfff2479a5"},"vehicle_type_id":"4","last_reported":1687035885,"current_range_meters":15600,"station_id":"ce4bhjp2rcd13ifvqg90","pricing_plan_id":"free"},{"bike_id":"56e1c853-c0f1-47d6-a0d8-3cde442fadf9","system_id":"levelo_inurba_marseille","lat":43.26203,"lon":5.37926,"is_reserved":false,"is_disabled":false,"rental_uris":{"android":"levelo://app?vid=56e1c853-c0f1-47d6-a0d8-3cde442fadf9","ios":"levelo://app?vid=56e1c853-c0f1-47d6-a0d8-3cde442fadf9"},"vehicle_type_id":"4","last_reported":1687035885,"current_range_meters":31200,"station_id":"ce4bhjp2rcd13ifvqg90","pricing_plan_id":"free"},{"bike_id":"4306d7f9-bcb9-4e12-876d-b11eeaacd898","system_id":"levelo_inurba_marseille","lat":43.26203,"lon":5.37927,"is_reserved":false,"is_disabled":false,"rental_uris":{"android":"levelo://app?vid=4306d7f9-bcb9-4e12-876d-b11eeaacd898","ios":"levelo://app?vid=4306d7f9-bcb9-4e12-876d-b11eeaacd898"},"vehicle_type_id":"4","last_reported":1687035885,"current_range_meters":18000,"station_id":"ce4bhjp2rcd13ifvqg90","pricing_plan_id":"free"},{"bike_id":"105aba82-4d29-4740-ae55-0a1d2d67eac8","system_id":"levelo_inurba_marseille","lat":43.26203,"lon":5.37927,"is_reserved":false,"is_disabled":false,"rental_uris":{"android":"levelo://app?vid=105aba82-4d29-4740-ae55-0a1d2d67eac8","ios":"levelo://app?vid=105aba82-4d29-4740-ae55-0a1d2d67eac8"},"vehicle_type_id":"4","last_reported":1687035885,"current_range_meters":9200,"station_id":"ce4bhjp2rcd13ifvqg90","pricing_plan_id":"free"},{"bike_id":"6d1a3faf-1927-444f-bd2c-108e22fab7ef","system_id":"levelo_inurba_marseille","lat":43.26202,"lon":5.379299,"is_reserved":false,"is_disabled":false,"rental_uris":{"android":"levelo://app?vid=6d1a3faf-1927-444f-bd2c-108e22fab7ef","ios":"levelo://app?vid=6d1a3faf-1927-444f-bd2c-108e22fab7ef"},"vehicle_type_id":"4","last_reported":1687035885,"current_range_meters":17200,"station_id":"ce4bhjp2rcd13ifvqg90","pricing_plan_id":"free"},{"bike_id":"4221ef51-b6f7-48eb-89db-3c2c7f768117","system_id":"levelo_inurba_marseille","lat":43.262036,"lon":5.379336,"is_reserved":false,"is_disabled":false,"rental_uris":{"android":"levelo://app?vid=4221ef51-b6f7-48eb-89db-3c2c7f768117","ios":"levelo://app?vid=4221ef51-b6f7-48eb-89db-3c2c7f768117"},"vehicle_type_id":"4","last_reported":1687035885,"current_range_meters":30400,"station_id":"ce4bhjp2rcd13ifvqg90","pricing_plan_id":"free"},{"bike_id":"60c9d739-5601-4d3c-8a49-d3d0a470fe73","system_id":"levelo_inurba_marseille","lat":43.26203,"lon":5.37929,"is_reserved":false,"is_disabled":false,"rental_uris":{"android":"levelo://app?vid=60c9d739-5601-4d3c-8a49-d3d0a470fe73","ios":"levelo://app?vid=60c9d739-5601-4d3c-8a49-d3d0a470fe73"},"vehicle_type_id":"4","last_reported":1687035885,"current_range_meters":19600,"station_id":"ce4bhjp2rcd13ifvqg90","pricing_plan_id":"free"},{"bike_id":"a979245b-5546-4539-97e4-67e7026c16d8","system_id":"levelo_inurba_marseille","lat":43.26202,"lon":5.37924,"is_reserved":false,"is_disabled":false,"rental_uris":{"android":"levelo://app?vid=a979245b-5546-4539-97e4-67e7026c16d8","ios":"levelo://app?vid=a979245b-5546-4539-97e4-67e7026c16d8"},"vehicle_type_id":"4","last_reported":1687035885,"current_range_meters":28400,"station_id":"ce4bhjp2rcd13ifvqg90","pricing_plan_id":"free"},{"bike_id":"7d4c1512-d870-4f23-bf5a-049a1c75566f","system_id":"levelo_inurba_marseille","lat":43.26202,"lon":5.37925,"is_reserved":false,"is_disabled":false,"rental_uris":{"android":"levelo://app?vid=7d4c1512-d870-4f23-bf5a-049a1c75566f","ios":"levelo://app?vid=7d4c1512-d870-4f23-bf5a-049a1c75566f"},"vehicle_type_id":"4","last_reported":1687035885,"current_range_meters":31200,"station_id":"ce4bhjp2rcd13ifvqg90","pricing_plan_id":"free"},{"bike_id":"7d293a7c-72d8-4b17-bab4-f4281c7c5610","system_id":"levelo_inurba_marseille","lat":43.26202,"lon":5.37929,"is_reserved":false,"is_disabled":false,"rental_uris":{"android":"levelo://app?vid=7d293a7c-72d8-4b17-bab4-f4281c7c5610","ios":"levelo://app?vid=7d293a7c-72d8-4b17-bab4-f4281c7c5610"},"vehicle_type_id":"4","last_reported":1687035885,"current_range_meters":27600,"station_id":"ce4bhjp2rcd13ifvqg90","pricing_plan_id":"free"},