{"last_updated":1756469979,"ttl":60,"version":"2.2","data":{"bikes":[{"bike_id":"3786bc3f-a1ef-4971-82b5-53ee21f255a9","system_id":"levelo_inurba_marseille","lat":43.337444,"lon":5.374475,"is_reserved":false,"is_disabled":true,"rental_uris":{"android":"levelo://app?vid=3786bc3f-a1ef-4971-82b5-53ee21f255a9","ios":"levelo://app?vid=3786bc3f-a1ef-4971-82b5-53ee21f255a9"},"vehicle_type_id":"4","last_reported":1756469979,"current_range_meters":0,"station_id":"","pricing_plan_id":"cebpf4jnsgd1na2vs0mg"},{"bike_id":"eaf33fba-ed97-48de-8903-7533cbd22295","system_id":"levelo_inurba_marseille","lat":43.337444,"lon":5.374475,"is_reserved":false,"is_disabled":true,"rental_uris":{"android":"levelo://app?vid=eaf33fba-ed97-48de-8903-7533cbd22295","ios":"levelo://app?vid=eaf33fba-ed97-48de-8903-7533cbd22295"},"vehicle_type_id":"4","last_reported":1756469979,"current_range_meters":0,"station_id":"","pricing_plan_id":"cebpf4jnsgd1na2vs0mg"},{"bike_id":"d165ff19-8e79-4669-a0ec-2766941625b3","system_id":"levelo_inurba_marseille","lat":43.337444,"lon":5.374475,"is_reserved":false,"is_disabled":true,"rental_uris":{"android":"levelo://app?vid=d165ff19-8e79-4669-a0ec-2766941625b3","ios":"levelo://app?vid=d165ff19-8e79-4669-a0ec-2766941625b3"},"vehicle_type_id":"4","last_reported":1756469979,"current_range_meters":0,"station_id":"","pricing_plan_id":"cebpf4jnsgd1na2vs0mg"},{"bike_id":"fee6e365-1410-47ff-aac6-460fe19870cf","system_id":"levelo_inurba_marseille","lat":43.33771,"lon":5.37424,"is_reserved":false,"is_disabled":true,"rental_uris":{"android":"levelo://app?vid=fee6e365-1410-47ff-aac6-460fe19870cf","ios":"levelo://app?vid=fee6e365-1410-47ff-aac6-460fe19870cf"},"vehicle_type_id":"4","last_reported":1756469979,"current_range_meters":0,"station_id":"","pricing_plan_id":"cebpf4jnsgd1na2vs0mg"},{"bike_id":"e7907bf2-9f85-4fec-b00b-f77b1a4a873c","system_id":"levelo_inurba_marseille","lat":43.33751,"lon":5.37456,"is_reserved":false,"is_disabled":true,"rental_uris":{"android":"levelo://app?vid=e7907bf2-9f85-4fec-b00b-f77b1a4a873c","ios":"levelo://app?vid=e7907bf2-9f85-4fec-b00b-f77b1a4a873c"},"vehicle_type_id":"4","last_reported":1756469979,"current_range_meters":0,"station_id":"","pricing_plan_id":"cebpf4jnsgd1na2vs0mg"},{"bike_id":"c060c1ec-0d33-42db-9a3d-6fb7fae5ea5e","system_id":"levelo_inurba_marseille","lat":43.33747,"lon":5.37463,"is_reserved":false,"is_disabled":true,"rental_uris":{"android":"levelo://app?vid=c060c1ec-0d33-42db-9a3d-6fb7fae5ea5e","ios":"levelo://app?vid=c060c1ec-0d33-42db-9a3d-6fb7fae5ea5e"},"vehicle_type_id":"1","last_reported":1756469979,"current_range_meters":0,"station_id":"","pricing_plan_id":"cebpf4jnsgd1na2vs0mg"},{"bike_id":"e6546109-cd3c-4cd0-ac12-e78c09da4ae6","system_id":"levelo_inurba_marseille","lat":43.33737,"lon":5.37465,"is_reserved":false,"is_disabled":true,"rental_uris":{"android":"levelo://app?vid=e6546109-cd3c-4cd0-ac12-e78c09da4ae6","ios":"levelo://app?vid=e6546109-cd3c-4cd0-ac12-e78c09da4ae6"},"vehicle_type_id":"4","last_reported":1756469979,"current_range_meters":0,"station_id":"","pricing_plan_id":"cebpf4jnsgd1na2vs0mg"},{"bike_id":"8facfda0-e588-46c6-8323-70578ba699b1","system_id":"levelo_inurba_marseille","lat":43.30501,"lon":5.37043,"is_reserved":false,"is_disabled":true,"rental_uris":{"android":"levelo://app?vid=8facfda0-e588-46c6-8323-70578ba699b1","ios":"levelo://app?vid=8facfda0-e588-46c6-8323-70578ba699b1"},"vehicle_type_id":"4","last_reported":1756469979,"current_range_meters":0,"station_id":"","pricing_plan_id":"cebpf4jnsgd1na2vs0mg"},{"bike_id":"b3fa04f4-753f-44ec-9319-e8b6b49d76a7","system_id":"levelo_inurba_marseille","lat":43.28837,"lon":5.38521,"is_reserved":false,"is_disabled":true,"rental_uris":{"android":"levelo://app?vid=b3fa04f4-753f-44ec-9319-e8b6b49d76a7","ios":"levelo://app?vid=b3fa04f4-753f-44ec-9319-e8b6b49d76a7"},"vehicle_type_id":"4","last_reported":1756469979,"current_range_meters":0,"station_id":"","pricing_plan_id":"cebpf4jnsgd1na2vs0mg"},{"bike_id":"0d006835-dfc4-460a-8c56-acc02ce01133","system_id":"levelo_inurba_marseille","lat":43.281085,"lon":5.398238,"is_reserved":false,"is_disabled":true,"rental_uris":{"android":"levelo://app?vid=0d006835-dfc4-460a-8c56-acc02ce01133","ios":"levelo://app?vid=0d006835-dfc4-460a-8c56-acc02ce01133"},"vehicle_type_id":"4","last_reported":1756469979,"current_range_meters":0,"station_id":"","pricing_plan_id":"cebpf4jnsgd1na2vs0mg"},{"bike_id":"5d315e57-bb67-481f-b455-26ecfe9889ad","system_id":"levelo_inurba_marseille","lat":43.28069,"lon":5.34773,"is_reserved":false,"is_disabled":true,"rental_uris":{"android":"levelo://app?vid=5d315e57-bb67-481f-b455-26ecfe9889ad","ios":"levelo://app?vid=5d315e57-bb67-481f-b455-26ecfe9889ad"},"vehicle_type_id":"4","last_reported":1756469979,"current_range_meters":0,"station_id":"","pricing_plan_id":"cebpf4jnsgd1na2vs0mg"},{"bike_id":"b937509b-3a5c-4ea0-838b-1bffb8d95da4","system_id":"levelo_inurba_marseille","lat":43.34668,"lon":5.34577,"is_reserved":false,"is_disabled":true,"rental_uris":{"android":"levelo://app?vid=b937509b-3a5c-4ea0-838b-1bffb8d95da4","ios":"levelo://app?vid=b937509b-3a5c-4ea0-838b-1bffb8d95da4"},"vehicle_type_id":"4","last_reported":1756469979,"current_range_meters":0,"station_id":"","pricing_plan_id":"cebpf4jnsgd1na2vs0mg"},{"bike_id":"3462982a-0658-423c-aaae-0b0d66051d0e","system_id":"levelo_inurba_marseille","lat":43.30531,"lon":5.36462,"is_reserved":false,"is_disabled":true,"rental_uris":{"android":"levelo://app?vid=3462982a-0658-423c-aaae-0b0d66051d0e","ios":"levelo://app?vid=3462982a-0658-423c-aaae-0b0d66051d0e"},"vehicle_type_id":"4","last_reported":1756469979,"current_range_meters":0,"station_id":"","pricing_plan_id":"cebpf4jnsgd1na2vs0mg"},{"bike_id":"ad342a57-16de-4802-917b-2c54902b8e93","system_id":"levelo_inurba_marseille","lat":43.33768,"lon":5.374498,"is_reserved":false,"is_disabled":true,"rental_uris":{"android":"levelo://app?vid=ad342a57-16de-4802-917b-2c54902b8e93","ios":"levelo://app?vid=ad342a57-16de-4802-917b-2c54902b8e93"},"vehicle_type_id":"4","last_reported":1756469979,"current_range_meters":0,"station_id":"","pricing_plan_id":"cebpf4jnsgd1na2vs0mg"},{"bike_id":"3091e42a-5528-4881-bef2-02a10038c1e8","system_id":"levelo_inurba_marseille","lat":43.30109,"lon":5.36789,"is_reserved":false,"is_disabled":true,"rental_uris":{"android":"levelo://app?vid=3091e42a-5528-4881-bef2-02a10038c1e8","ios":"levelo://app?vid=3091e42a-5528-4881-bef2-02a10038c1e8"},"vehicle_type_id":"4","last_reported":1756469979,"current_range_meters":0,"station_id":"","pricing_plan_id":"cebpf4jnsgd1na2vs0mg"},{"bike_id":"16fc6144-dc8d-45c2-a753-48559cdc6072","system_id":"levelo_inurba_marseille","lat":43.292603,"lon":5.376241,"is_reserved":false,"is_disabled":true,"rental_uris":{"android":"levelo://app?vid=16fc6144-dc8d-45c2-a753-48559cdc6072","ios":"levelo://app?vid=16fc6144-dc8d-45c2-a753-48559cdc6072"},"vehicle_type_id":"4","last_reported":1756469979,"current_range_meters":0,"station_id":"ce4bgi12rcd13ifvqb80","pricing_plan_id":"cebpf4jnsgd1na2vs0mg"},{"bike_id":"ce4d1951-77de-4223-bddc-08947fafc799","system_id":"levelo_inurba_marseille","lat":43.29814,"lon":5.38106,"is_reserved":false,"is_disabled":true,"rental_uris":{"android":"levelo://app?vid=ce4d1951-77de-4223-bddc-08947fafc799","ios":"levelo://app?vid=ce4d1951-77de-4223-bddc-08947fafc799"},"vehicle_type_id":"4","last_reported":1756469979,"current_range_meters":0,"station_id":"ce4bgip2rcd13ifvqbb0","pricing_plan_id":"cebpf4jnsgd1na2vs0mg"},{"bike_id":"5051fd60-4b59-4101-a181-be364a0b2e49","system_id":"levelo_inurba_marseille","lat":43.30538,"lon":5.36516,"is_reserved":false,"is_disabled":true,"rental_uris":{"android":"levelo://app?vid=5051fd60-4b59-4101-a181-be364a0b2e49","ios":"levelo://app?vid=5051fd60-4b59-4101-a181-be364a0b2e49"},"vehicle_type_id":"4","last_reported":1756469979,"current_range_meters":0,"station_id":"ce4bgs12rcd13ifvqcag","pricing_plan_id":"cebpf4jnsgd1na2vs0mg"},{"bike_id":"46833bfe-ce7d-4a16-9309-87cfc194d494","system_id":"levelo_inurba_marseille","lat":43.30891,"lon":5.39627,"is_reserved":false,"is_disabled":true,"rental_uris":{"android":"levelo://app?vid=46833bfe-ce7d-4a16-9309-87cfc194d494","ios":"levelo://app?vid=46833bfe-ce7d-4a16-9309-87cfc194d494"},"vehicle_type_id":"4","last_reported":1756469979,"current_range_meters":0,"station_id":"ce4bh012rcd13ifvqcv0","pricing_plan_id":"cebpf4jnsgd1na2vs0mg"},{"bike_id":"6f200043-072c-44a4-b83d-0234a96db385","system_id":"levelo_inurba_marseille","lat":43.30136,"lon":5.39854,"is_reserved":false,"is_disabled":true,"rental_uris":{"android":"levelo://app?vid=6f200043-072c-44a4-b83d-0234a96db385","ios":"levelo://app?vid=6f200043-072c-44a4-b83d-0234a96db385"},"vehicle_type_id":"4","last_reported":1756469979,"current_range_meters":0,"station_id":"ce4bh0h2rcd13ifvqd40","pricing_plan_id":"cebpf4jnsgd1na2vs0mg"},{"bike_id":"b89d66e2-ee7b-441d-88a9-ad5825b6f0e9","system_id":"levelo_inurba_marseille","lat":43.30592,"lon":5.39357,"is_reserved":false,"is_disabled":true,"rental_uris":{"android":"levelo://app?vid=b89d66e2-ee7b-441d-88a9-ad5825b6f0e9","ios":"levelo://app?vid=b89d66e2-ee7b-441d-88a9-ad5825b6f0e9"},"vehicle_type_id":"4","last_reported":1756469979,"current_range_meters":0,"station_id":"ce4bh0p2rcd13ifvqd80","pricing_plan_id":"cebpf4jnsgd1na2vs0mg"},{"bike_id":"7504b446-f782-48b6-8e98-e8b6b4e85880","system_id":"levelo_inurba_marseille","lat":43.28402,"lon":5.34993,"is_reserved":false,"is_disabled":true,"rental_uris":{"android":"levelo://app?vid=7504b446-f782-48b6-8e98-e8b6b4e85880","ios":"levelo://app?vid=7504b446-f782-48b6-8e98-e8b6b4e85880"},"vehicle_type_id":"4","last_reported":1756469979,"current_range_meters":0,"station_id":"ce4bhbh2rcd13ifvqepg","pricing_plan_id":"cebpf4jnsgd1na2vs0mg"},{"bike_id":"d6fe646c-5582-49fb-94c4-525efdc0afd8","system_id":"levelo_inurba_marseille","lat":43.26568,"lon":5.38998,"is_reserved":false,"is_disabled":true,"rental_uris":{"android":"levelo://app?vid=d6fe646c-5582-49fb-94c4-525efdc0afd8","ios":"levelo://app?vid=d6fe646c-5582-49fb-94c4-525efdc0afd8"},"vehicle_type_id":"4","last_reported":1756469979,"current_range_meters":0,"station_id":"ce4bhe12rcd13ifvqf30","pricing_plan_id":"cebpf4jnsgd1na2vs0mg"},{"bike_id":"1b4152e4-08ce-47ca-a058-25cba902569b","system_id":"levelo_inurba_marseille","lat":43.323574,"lon":5.367584,"is_reserved":false,"is_disabled":true,"rental_uris":{"android":"levelo://app?vid=1b4152e4-08ce-47ca-a058-25cba902569b","ios":"levelo://app?vid=1b4152e4-08ce-47ca-a058-25cba902569b"},"vehicle_type_id":"4","last_reported":1756469979,"current_range_meters":0,"station_id":"ce4bhsh2rcd13ifvqi2g","pricing_plan_id":"cebpf4jnsgd1na2vs0mg"},{"bike_id":"d5f078bc-da5d-4df0-9c60-e6057d520a5f","system_id":"levelo_inurba_marseille","lat":43.24167,"lon":5.36389,"is_reserved":false,"is_disabled":true,"rental_uris":{"android":"levelo://app?vid=d5f078bc-da5d-4df0-9c60-e6057d520a5f","ios":"levelo://app?vid=d5f078bc-da5d-4df0-9c60-e6057d520a5f"},"vehicle_type_id":"4","last_reported":1756469979,"current_range_meters":0,"station_id":"cpo36qri1sfpv3e86is0","pricing_plan_id":"cebpf4jnsgd1na2vs0mg"},{"bike_id":"5e1757b7-4e40-4455-871c-eb73cb122557","system_id":"levelo_inurba_marseille","lat":43.21748,"lon":5.34598,"is_reserved":false,"is_disabled":true,"rental_uris":{"android":"levelo://app?vid=5e1757b7-4e40-4455-871c-eb73cb122557","ios":"levelo://app?vid=5e1757b7-4e40-4455-871c-eb73cb122557"},"vehicle_type_id":"4","last_reported":1756469979,"current_range_meters":0,"station_id":"st_cvj6r9ubvosntc0bgbag","pricing_plan_id":"cebpf4jnsgd1na2vs0mg"},{"bike_id":"a365a855-24e7-4150-98ec-91e51585779b","system_id":"levelo_inurba_marseille","lat":43.21197,"lon":5.3507,"is_reserved":false,"is_disabled":true,"rental_uris":{"android":"levelo://app?vid=a365a855-24e7-4150-98ec-91e51585779b","ios":"levelo://app?vid=a365a855-24e7-4150-98ec-91e51585779b"},"vehicle_type_id":"4","last_reported":1756469979,"current_range_meters":0,"station_id":"st_cvj6sg6p6f1abm77japg","pricing_plan_id":"cebpf4jnsgd1na2vs0mg"},{"bike_id":"609ef948-8bb2-4af8-b29e-1154e6bbc030","system_id":"levelo_inurba_marseille","lat":43.28695,"lon":5.37403,"is_reserved":false,"is_disabled":true,"rental_uris":{"android":"levelo://app?vid=609ef948-8bb2-4af8-b29e-1154e6bbc030","ios":"levelo://app?vid=609ef948-8bb2-4af8-b29e-1154e6bbc030"},"vehicle_type_id":"4","last_reported":1756469979,"current_range_meters":400,"station_id":"ce4bh3p2rcd13ifvqdq0","pricing_plan_id":"cebpf4jnsgd1na2vs0mg"},{"bike_id":"48e014ad-1ffd-40b1-9b13-8fb597369302","system_id":"levelo_inurba_marseille","lat":43.24664,"lon":5.3817,"is_reserved":false,"is_disabled":true,"rental_uris":{"android":"levelo://app?vid=48e014ad-1ffd-40b1-9b13-8fb597369302","ios":"levelo://app?vid=48e014ad-1ffd-40b1-9b13-8fb597369302"},"vehicle_type_id":"4","last_reported":1756469979,"current_range_meters":800,"station_id":"ce4bhih2rcd13ifvqfr0","pricing_plan_id":"cebpf4jnsgd1na2vs0mg"},{"bike_id":"8f47ef1a-0b98-455c-a110-a4a18fa43ea0","system_id":"levelo_inurba_marseille","lat":43.29907,"lon":5.37472,"is_reserved":false,"is_disabled":true,"rental_uris":{"android":"levelo://app?vid=8f47ef1a-0b98-455c-a110-a4a18fa43ea0","ios":"levelo://app?vid=8f47ef1a-0b98-455c-a110-a4a18fa43ea0"},"vehicle_type_id":"4","last_reported":1756469979,"current_range_meters":1200,"station_id":"ce4bgjh2rcd13ifvqbg0","pricing_plan_id":"cebpf4jnsgd1na2vs0mg"},{"bike_id":"b0a48d31-7c0f-4b62-ab98-f623d2fdad8e","system_id":"levelo_inurba_marseille","lat":43.2656,"lon":5.37279,"is_reserved":false,"is_disabled":true,"rental_uris":{"android":"levelo://app?vid=b0a48d31-7c0f-4b62-ab98-f623d2fdad8e","ios":"levelo://app?vid=b0a48d31-7c0f-4b62-ab98-f623d2fdad8e"},"vehicle_type_id":"4","last_reported":1756469979,"current_range_meters":1200,"station_id":"ce4bhg12rcd13ifvqf70","pricing_plan_id":"cebpf4jnsgd1na2vs0mg"},{"bike_id":"a0694e39-95ef-4780-a7d3-06a17d4b8162","system_id":"levelo_inurba_marseille","lat":43.21196,"lon":5.3506,"is_reserved":false,"is_disabled":true,"rental_uris":{"android":"levelo://app?vid=a0694e39-95ef-4780-a7d3-06a17d4b8162","ios":"levelo://app?vid=a0694e39-95ef-4780-a7d3-06a17d4b8162"},"vehicle_type_id":"4","last_reported":1756469979,"current_range_meters":1200,"station_id":"st_cvj6sg6p6f1abm77japg","pricing_plan_id":"cebpf4jnsgd1na2vs0mg"},{"bike_id":"3f5d79e5-bc7f-449a-ad4c-112868fd1fd4","system_id":"levelo_inurba_marseille","lat":43.29971,"lon":5.37188,"is_reserved":false,"is_disabled":true,"rental_uris":{"android":"levelo://app?vid=3f5d79e5-bc7f-449a-ad4c-112868fd1fd4","ios":"levelo://app?vid=3f5d79e5-bc7f-449a-ad4c-112868fd1fd4"},"vehicle_type_id":"4","last_reported":1756469979,"current_range_meters":2000,"station_id":"ce4bgr92rcd13ifvqc7g","pricing_plan_id":"cebpf4jnsgd1na2vs0mg"},{"bike_id":"0deaa7e4-c77c-4f8a-9f85-a1aa7208b808","system_id":"levelo_inurba_marseille","lat":43.29183,"lon":5.39302,"is_reserved":false,"is_disabled":true,"rental_uris":{"android":"levelo://app?vid=0deaa7e4-c77c-4f8a-9f85-a1aa7208b808","ios":"levelo://app?vid=0deaa7e4-c77c-4f8a-9f85-a1aa7208b808"},"vehicle_type_id":"4","last_reported":1756469979,"current_range_meters":2000,"station_id":"ce4bh192rcd13ifvqdd0","pricing_plan_id":"cebpf4jnsgd1na2vs0mg"},{"bike_id":"97a7035a-b372-403a-9b67-cb3572d62165","system_id":"levelo_inurba_marseille","lat":43.273712,"lon":5.36265,"is_reserved":false,"is_disabled":true,"rental_uris":{"android":"levelo://app?vid=97a7035a-b372-403a-9b67-cb3572d62165","ios":"levelo://app?vid=97a7035a-b372-403a-9b67-cb3572d62165"},"vehicle_type_id":"4","last_reported":1756469979,"current_range_meters":2000,"station_id":"ce4bhbh2rcd13ifvqeo0","pricing_plan_id":"cebpf4jnsgd1na2vs0mg"},{"bike_id":"2644b212-45d7-45e0-ad78-cf6d970cbbfb","system_id":"levelo_inurba_marseille","lat":43.27843,"lon":5.39214,"is_reserved":false,"is_disabled":true,"rental_uris":{"android":"levelo://app?vid=2644b212-45d7-45e0-ad78-cf6d970cbbfb","ios":"levelo://app?vid=2644b212-45d7-45e0-ad78-cf6d970cbbfb"},"vehicle_type_id":"4","last_reported":1756469979,"current_range_meters":2000,"station_id":"ce4bhjp2rcd13ifvqga0","pricing_plan_id":"cebpf4jnsgd1na2vs0mg"},{"bike_id":"3222b977-3c97-4531-bc87-c914b62b755e","system_id":"levelo_inurba_marseille","lat":43.21746,"lon":5.34602,"is_reserved":false,"is_disabled":true,"rental_uris":{"android":"levelo://app?vid=3222b977-3c97-4531-bc87-c914b62b755e","ios":"levelo://app?vid=3222b977-3c97-4531-bc87-c914b62b755e"},"vehicle_type_id":"4","last_reported":1756469979,"current_range_meters":2000,"station_id":"st_cvj6r9ubvosntc0bgbag","pricing_plan_id":"cebpf4jnsgd1na2vs0mg"},{"bike_id":"5bce688b-fc81-4596-8277-b66f54be87c1","system_id":"levelo_inurba_marseille","lat":43.337652,"lon":5.37439,"is_reserved":false,"is_disabled":false,"rental_uris":{"android":"levelo://app?vid=5bce688b-fc81-4596-8277-b66f54be87c1","ios":"levelo://app?vid=5bce688b-fc81-4596-8277-b66f54be87c1"},"vehicle_type_id":"4","last_reported":1756469979,"current_range_meters":2800,"station_id":"","pricing_plan_id":"cebpf4jnsgd1na2vs0mg"},{"bike_id":"21d8b327-b63a-4559-a8bc-7697b6894e1a","system_id":"levelo_inurba_marseille","lat":43.26211,"lon":5.3744,"is_reserved":false,"is_disabled":false,"rental_uris":{"android":"levelo://app?vid=21d8b327-b63a-4559-a8bc-7697b6894e1a","ios":"levelo://app?vid=21d8b327-b63a-4559-a8bc-7697b6894e1a"},"vehicle_type_id":"4","last_reported":1756469979,"current_range_meters":2800,"station_id":"","pricing_plan_id":"cebpf4jnsgd1na2vs0mg"},{"bike_id":"c01c508f-a4b5-4336-a402-510b8e1da79f","system_id":"levelo_inurba_marseille","lat":43.29632,"lon":5.40596,"is_reserved":false,"is_disabled":false,"rental_uris":{"android":"levelo://app?vid=c01c508f-a4b5-4336-a402-510b8e1da79f","ios":"levelo://app?vid=c01c508f-a4b5-4336-a402-510b8e1da79f"},"vehicle_type_id":"4","last_reported":1756469979,"current_range_meters":2800,"station_id":"ce4bh0h2rcd13ifvqd60","pricing_plan_id":"cebpf4jnsgd1na2vs0mg"},{"bike_id":"39b24587-5771-4810-9ab5-8f8a22031bf7","system_id":"levelo_inurba_marseille","lat":43.292767,"lon":5.368476,"is_reserved":false,"is_disabled":false,"rental_uris":{"android":"levelo://app?vid=39b24587-5771-4810-9ab5-8f8a22031bf7","ios":"levelo://app?vid=39b24587-5771-4810-9ab5-8f8a22031bf7"},"vehicle_type_id":"4","last_reported":1756469979,"current_range_meters":3200,"station_id":"ce4bhbp2rcd13ifvqesg","pricing_plan_id":"cebpf4jnsgd1na2vs0mg"},{"bike_id":"ed425f4e-5c70-443a-97e4-0ca991b2e31d","system_id":"levelo_inurba_marseille","lat":43.269422,"lon":5.402645,"is_reserved":false,"is_disabled":false,"rental_uris":{"android":"levelo://app?vid=ed425f4e-5c70-443a-97e4-0ca991b2e31d","ios":"levelo://app?vid=ed425f4e-5c70-443a-97e4-0ca991b2e31d"},"vehicle_type_id":"4","last_reported":1756469979,"current_range_meters":3200,"station_id":"cjm6bp8fraef2m0cb0m0","pricing_plan_id":"cebpf4jnsgd1na2vs0mg"},{"bike_id":"a6ef8657-5b8a-423b-993f-c3df43dec0a0","system_id":"levelo_inurba_marseille","lat":43.337595,"lon":5.374806,"is_reserved":false,"is_disabled":false,"rental_uris":{"android":"levelo://app?vid=a6ef8657-5b8a-423b-993f-c3df43dec0a0","ios":"levelo://app?vid=a6ef8657-5b8a-423b-993f-c3df43dec0a0"},"vehicle_type_id":"4","last_reported":1756469979,"current_range_meters":3600,"station_id":"","pricing_plan_id":"cebpf4jnsgd1na2vs0mg"},{"bike_id":"976ba34a-cb98-4dfc-b2b9-5ad54b67babc","system_id":"levelo_inurba_marseille","lat":43.29791,"lon":5.37092,"is_reserved":false,"is_disabled":false,"rental_uris":{"android":"levelo://app?vid=976ba34a-cb98-4dfc-b2b9-5ad54b67babc","ios":"levelo://app?vid=976ba34a-cb98-4dfc-b2b9-5ad54b67babc"},"vehicle_type_id":"4","last_reported":1756469979,"current_range_meters":3600,"station_id":"ce4bgop2rcd13ifvqc1g","pricing_plan_id":"cebpf4jnsgd1na2vs0mg"},{"bike_id":"96e8c7fa-bc45-4dd0-b54b-5266f43cacf7","system_id":"levelo_inurba_marseille","lat":43.323346,"lon":5.406158,"is_reserved":false,"is_disabled":false,"rental_uris":{"android":"levelo://app?vid=96e8c7fa-bc45-4dd0-b54b-5266f43cacf7","ios":"levelo://app?vid=96e8c7fa-bc45-4dd0-b54b-5266f43cacf7"},"vehicle_type_id":"4","last_reported":1756469979,"current_range_meters":3600,"station_id":"ce4bhq92rcd13ifvqhjg","pricing_plan_id":"cebpf4jnsgd1na2vs0mg"},{"bike_id":"1ee4f6d1-5590-4c4a-93ff-be903cc75390","system_id":"levelo_inurba_marseille","lat":43.31696,"lon":5.40471,"is_reserved":false,"is_disabled":false,"rental_uris":{"android":"levelo://app?vid=1ee4f6d1-5590-4c4a-93ff-be903cc75390","ios":"levelo://app?vid=1ee4f6d1-5590-4c4a-93ff-be903cc75390"},"vehicle_type_id":"4","last_reported":1756469979,"current_range_meters":4000,"station_id":"ce4bh012rcd13ifvqd00","pricing_plan_id":"cebpf4jnsgd1na2vs0mg"},{"bike_id":"0369a7e0-462d-40e9-8bc3-e591183427f8","system_id":"levelo_inurba_marseille","lat":43.26204,"lon":5.37931,"is_reserved":false,"is_disabled":false,"rental_uris":{"android":"levelo://app?vid=0369a7e0-462d-40e9-8bc3-e591183427f8","ios":"levelo://app?vid=0369a7e0-462d-40e9-8bc3-e591183427f8"},"vehicle_type_id":"4","last_reported":1756469979,"current_range_meters":4000,"station_id":"ce4bhjp2rcd13ifvqg90","pricing_plan_id":"cebpf4jnsgd1na2vs0mg"},{"bike_id":"589304c3-05df-4f44-9d04-6f61c98a7874","system_id":"levelo_inurba_marseille","lat":43.32358,"lon":5.36747,"is_reserved":false,"is_disabled":false,"rental_uris":{"android":"levelo://app?vid=589304c3-05df-4f44-9d04-6f61c98a7874","ios":"levelo://app?vid=589304c3-05df-4f44-9d04-6f61c98a7874"},"vehicle_type_id":"4","last_reported":1756469979,"current_range_meters":4000,"station_id":"ce4bhsh2rcd13ifvqi2g","pricing_plan_id":"cebpf4jnsgd1na2vs0mg"},{"bike_id":"d3724a15-0a6c-470b-8a95-90ad0cbd9ccf","system_id":"levelo_inurba_marseille","lat":43.21747,"lon":5.34601,"is_reserved":false,"is_disabled":false,"rental_uris":{"android":"levelo://app?vid=d3724a15-0a6c-470b-8a95-90ad0cbd9ccf","ios":"levelo://app?vid=d3724a15-0a6c-470b-8a95-90ad0cbd9ccf"},"vehicle_type_id":"4","last_reported":1756469979,"current_range_meters":4000,"station_id":"st_cvj6r9ubvosntc0bgbag","pricing_plan_id":"cebpf4jnsgd1na2vs0mg"},{"bike_id":"0915576b-a645-4ad2-80f1-3f589465293c","system_id":"levelo_inurba_marseille","lat":43.30138,"lon":5.39865,"is_reserved":false,"is_disabled":false,"rental_uris":{"android":"levelo://app?vid=0915576b-a645-4ad2-80f1-3f589465293c","ios":"levelo://app?vid=0915576b-a645-4ad2-80f1-3f589465293c"},"vehicle_type_id":"4","last_reported":1756469979,"current_range_meters":4400,"station_id":"ce4bh0h2rcd13ifvqd40","pricing_plan_id":"cebpf4jnsgd1na2vs0mg"},{"bike_id":"77794321-cfbf-4583-a1de-375e16bde868","system_id":"levelo_inurba_marseille","lat":43.30132,"lon":5.39847,"is_reserved":false,"is_disabled":false,"rental_uris":{"android":"levelo://app?vid=77794321-cfbf-4583-a1de-375e16bde868","ios":"levelo://app?vid=77794321-cfbf-4583-a1de-375e16bde868"},"vehicle_type_id":"4","last_reported":1756469979,"current_range_meters":4400,"station_id":"ce4bh0h2rcd13ifvqd40","pricing_plan_id":"cebpf4jnsgd1na2vs0mg"},{"bike_id":"d84fbb73-29b3-4e8d-b65a-027064ccb595","system_id":"levelo_inurba_marseille","lat":43.22562,"lon":5.4162,"is_reserved":false,"is_disabled":false,"rental_uris":{"android":"levelo://app?vid=d84fbb73-29b3-4e8d-b65a-027064ccb595","ios":"levelo://app?vid=d84fbb73-29b3-4e8d-b65a-027064ccb595"},"vehicle_type_id":"4","last_reported":1756469979,"current_range_meters":4400,"station_id":"st_d2o4gvlbi1j2169b742g","pricing_plan_id":"cebpf4jnsgd1na2vs0mg"},{"bike_id":"a9cc4b5c-9856-4236-9153-fe00273dbe32","system_id":"levelo_inurba_marseille","lat":43.28486,"lon":5.38561,"is_reserved":false,"is_disabled":false,"rental_uris":{"android":"levelo://app?vid=a9cc4b5c-9856-4236-9153-fe00273dbe32","ios":"levelo://app?vid=a9cc4b5c-9856-4236-9153-fe00273dbe32"},"vehicle_type_id":"4","last_reported":1756469979,"current_range_meters":4800,"station_id":"ce4bh8p2rcd13ifvqeb0","pricing_plan_id":"cebpf4jnsgd1na2vs0mg"},{"bike_id":"c605ade8-d382-4ce6-8e0f-a3beed4e3a49","system_id":"levelo_inurba_marseille","lat":43.21185,"lon":5.35064,"is_reserved":false,"is_disabled":false,"rental_uris":{"android":"levelo://app?vid=c605ade8-d382-4ce6-8e0f-a3beed4e3a49","ios":"levelo://app?vid=c605ade8-d382-4ce6-8e0f-a3beed4e3a49"},"vehicle_type_id":"4","last_reported":1756469979,"current_range_meters":4800,"station_id":"st_cvj6sg6p6f1abm77japg","pricing_plan_id":"cebpf4jnsgd1na2vs0mg"},{"bike_id":"2c06ab75-37de-45dd-bda8-e375700f0423","system_id":"levelo_inurba_marseille","lat":43.25119,"lon":5.40315,"is_reserved":false,"is_disabled":false,"rental_uris":{"android":"levelo://app?vid=2c06ab75-37de-45dd-bda8-e375700f0423","ios":"levelo://app?vid=2c06ab75-37de-45dd-bda8-e375700f0423"},"vehicle_type_id":"4","last_reported":1756469979,"current_range_meters":5600,"station_id":"ce4bhlh2rcd13ifvqgig","pricing_plan_id":"cebpf4jnsgd1na2vs0mg"},{"bike_id":"3265d755-480e-4f9d-a558-e563258150b6","system_id":"levelo_inurba_marseille","lat":43.24167,"lon":5.36389,"is_reserved":false,"is_disabled":false,"rental_uris":{"android":"levelo://app?vid=3265d755-480e-4f9d-a558-e563258150b6","ios":"levelo://app?vid=3265d755-480e-4f9d-a558-e563258150b6"},"vehicle_type_id":"4","last_reported":1756469979,"current_range_meters":5600,"station_id":"cpo36qri1sfpv3e86is0","pricing_plan_id":"cebpf4jnsgd1na2vs0mg"},{"bike_id":"6d56e196-afc3-4060-afb1-01d651b7d7ed","system_id":"levelo_inurba_marseille","lat":43.22573,"lon":5.41624,"is_reserved":false,"is_disabled":false,"rental_uris":{"android":"levelo://app?vid=6d56e196-afc3-4060-afb1-01d651b7d7ed","ios":"levelo://app?vid=6d56e196-afc3-4060-afb1-01d651b7d7ed"},"vehicle_type_id":"4","last_reported":1756469979,"current_range_meters":5600,"station_id":"st_d2o4gvlbi1j2169b742g","pricing_plan_id":"cebpf4jnsgd1na2vs0mg"},{"bike_id":"fe0d808d-068f-4492-8f88-1fb9ee65a46e","system_id":"levelo_inurba_marseille","lat":43.22564,"lon":5.41626,"is_reserved":false,"is_disabled":false,"rental_uris":{"android":"levelo://app?vid=fe0d808d-068f-4492-8f88-1fb9ee65a46e","ios":"levelo://app?vid=fe0d808d-068f-4492-8f88-1fb9ee65a46e"},"vehicle_type_id":"4","last_reported":1756469979,"current_range_meters":5600,"station_id":"st_d2o4gvlbi1j2169b742g","pricing_plan_id":"cebpf4jnsgd1na2vs0mg"},{"bike_id":"5c723a17-945a-4ba0-a30f-566af902de46","system_id":"levelo_inurba_marseille","lat":43.31739,"lon":5.43834,"is_reserved":false,"is_disabled":false,"rental_uris":{"android":"levelo://app?vid=5c723a17-945a-4ba0-a30f-566af902de46","ios":"levelo://app?vid=5c723a17-945a-4ba0-a30f-566af902de46"},"vehicle_type_id":"4","last_reported":1756469979,"current_range_meters":6000,"station_id":"","pricing_plan_id":"cebpf4jnsgd1na2vs0mg"},{"bike_id":"cfc182fc-ab47-4d44-b219-f2fdace756db","system_id":"levelo_inurba_marseille","lat":43.290579,"lon":5.359204,"is_reserved":false,"is_disabled":false,"rental_uris":{"android":"levelo://app?vid=cfc182fc-ab47-4d44-b219-f2fdace756db","ios":"levelo://app?vid=cfc182fc-ab47-4d44-b219-f2fdace756db"},"vehicle_type_id":"4","last_reported":1756469979,"current_range_meters":6000,"station_id":"ce4bhb12rcd13ifvqel0","pricing_plan_id":"cebpf4jnsgd1na2vs0mg"},{"bike_id":"f8b866a2-f35d-4969-9743-48cea298f9cf","system_id":"levelo_inurba_marseille","lat":43.22564,"lon":5.416269,"is_reserved":false,"is_disabled":false,"rental_uris":{"android":"levelo://app?vid=f8b866a2-f35d-4969-9743-48cea298f9cf","ios":"levelo://app?vid=f8b866a2-f35d-4969-9743-48cea298f9cf"},"vehicle_type_id":"4","last_reported":1756469979,"current_range_meters":6000,"station_id":"ce4bhh92rcd13ifvqfh0","pricing_plan_id":"cebpf4jnsgd1na2vs0mg"},{"bike_id":"8a9edc67-b67b-4702-be6c-c471856f45a6","system_id":"levelo_inurba_marseille","lat":43.276036,"lon":5.360946,"is_reserved":false,"is_disabled":false,"rental_uris":{"android":"levelo://app?vid=8a9edc67-b67b-4702-be6c-c471856f45a6","ios":"levelo://app?vid=8a9edc67-b67b-4702-be6c-c471856f45a6"},"vehicle_type_id":"4","last_reported":1756469979,"current_range_meters":6400,"station_id":"ce4bgj92rcd13ifvqbe0","pricing_plan_id":"cebpf4jnsgd1na2vs0mg"},{"bike_id":"0eeda670-a4f1-40ed-a0bd-2431126bc45f","system_id":"levelo_inurba_marseille","lat":43.30325,"lon":5.40426,"is_reserved":false,"is_disabled":false,"rental_uris":{"android":"levelo://app?vid=0eeda670-a4f1-40ed-a0bd-2431126bc45f","ios":"levelo://app?vid=0eeda670-a4f1-40ed-a0bd-2431126bc45f"},"vehicle_type_id":"4","last_reported":1756469979,"current_range_meters":6400,"station_id":"ce4bh012rcd13ifvqd10","pricing_plan_id":"cebpf4jnsgd1na2vs0mg"},{"bike_id":"d71d865c-0c5f-45df-bd44-a47fbefe7611","system_id":"levelo_inurba_marseille","lat":43.24814,"lon":5.37457,"is_reserved":false,"is_disabled":false,"rental_uris":{"android":"levelo://app?vid=d71d865c-0c5f-45df-bd44-a47fbefe7611","ios":"levelo://app?vid=d71d865c-0c5f-45df-bd44-a47fbefe7611"},"vehicle_type_id":"4","last_reported":1756469979,"current_range_meters":6400,"station_id":"ce4bhgh2rcd13ifvqfb0","pricing_plan_id":"cebpf4jnsgd1na2vs0mg"},{"bike_id":"d9044acb-013d-4134-8a5c-b4fd93cb4777","system_id":"levelo_inurba_marseille","lat":43.31757,"lon":5.39019,"is_reserved":false,"is_disabled":false,"rental_uris":{"android":"levelo://app?vid=d9044acb-013d-4134-8a5c-b4fd93cb4777","ios":"levelo://app?vid=d9044acb-013d-4134-8a5c-b4fd93cb4777"},"vehicle_type_id":"4","last_reported":1756469979,"current_range_meters":6400,"station_id":"ce4bhqp2rcd13ifvqhng","pricing_plan_id":"cebpf4jnsgd1na2vs0mg"},{"bike_id":"1cef95e5-d7b6-450e-ba21-4b155d23b5ca","system_id":"levelo_inurba_marseille","lat":43.29517,"lon":5.39397,"is_reserved":false,"is_disabled":false,"rental_uris":{"android":"levelo://app?vid=1cef95e5-d7b6-450e-ba21-4b155d23b5ca","ios":"levelo://app?vid=1cef95e5-d7b6-450e-ba21-4b155d23b5ca"},"vehicle_type_id":"4","last_reported":1756469979,"current_range_meters":6800,"station_id":"ce4bh292rcd13ifvqdf0","pricing_plan_id":"cebpf4jnsgd1na2vs0mg"},{"bike_id":"cdf27214-d810-4c7b-87c2-df310195fd8a","system_id":"levelo_inurba_marseille","lat":43.30535,"lon":5.36716,"is_reserved":false,"is_disabled":false,"rental_uris":{"android":"levelo://app?vid=cdf27214-d810-4c7b-87c2-df310195fd8a","ios":"levelo://app?vid=cdf27214-d810-4c7b-87c2-df310195fd8a"},"vehicle_type_id":"4","last_reported":1756469979,"current_range_meters":7200,"station_id":"ce4bgrp2rcd13ifvqc9g","pricing_plan_id":"cebpf4jnsgd1na2vs0mg"},{"bike_id":"4ca10ecd-10d9-4f21-8c95-152a3ebeb80b","system_id":"levelo_inurba_marseille","lat":43.31329,"lon":5.39692,"is_reserved":false,"is_disabled":false,"rental_uris":{"android":"levelo://app?vid=4ca10ecd-10d9-4f21-8c95-152a3ebeb80b","ios":"levelo://app?vid=4ca10ecd-10d9-4f21-8c95-152a3ebeb80b"},"vehicle_type_id":"4","last_reported":1756469979,"current_range_meters":7200,"station_id":"ce4bgvp2rcd13ifvqcu0","pricing_plan_id":"cebpf4jnsgd1na2vs0mg"},{"bike_id":"2f20bd7b-d9f6-40e4-ba01-f8ba59c77136","system_id":"levelo_inurba_marseille","lat":43.2841,"lon":5.375,"is_reserved":false,"is_disabled":false,"rental_uris":{"android":"levelo://app?vid=2f20bd7b-d9f6-40e4-ba01-f8ba59c77136","ios":"levelo://app?vid=2f20bd7b-d9f6-40e4-ba01-f8ba59c77136"},"vehicle_type_id":"4","last_reported":1756469979,"current_range_meters":7200,"station_id":"ce4bh412rcd13ifvqds0","pricing_plan_id":"cebpf4jnsgd1na2vs0mg"},{"bike_id":"b64e5b0f-a008-439d-9732-acf6ef6baa7f","system_id":"levelo_inurba_marseille","lat":43.24999,"lon":5.38928,"is_reserved":false,"is_disabled":false,"rental_uris":{"android":"levelo://app?vid=b64e5b0f-a008-439d-9732-acf6ef6baa7f","ios":"levelo://app?vid=b64e5b0f-a008-439d-9732-acf6ef6baa7f"},"vehicle_type_id":"4","last_reported":1756469979,"current_range_meters":7200,"station_id":"ce4bhgp2rcd13ifvqfd0","pricing_plan_id":"cebpf4jnsgd1na2vs0mg"},{"bike_id":"f6f4ebf0-4594-4089-9c2a-2273ba10a074","system_id":"levelo_inurba_marseille","lat":43.21199,"lon":5.35072,"is_reserved":false,"is_disabled":false,"rental_uris":{"android":"levelo://app?vid=f6f4ebf0-4594-4089-9c2a-2273ba10a074","ios":"levelo://app?vid=f6f4ebf0-4594-4089-9c2a-2273ba10a074"},"vehicle_type_id":"4","last_reported":1756469979,"current_range_meters":7200,"station_id":"st_cvj6sg6p6f1abm77japg","pricing_plan_id":"cebpf4jnsgd1na2vs0mg"},{"bike_id":"d810acf0-5bd2-4bf1-848d-31cd30d105e6","system_id":"levelo_inurba_marseille","lat":43.269831,"lon":5.392782,"is_reserved":false,"is_disabled":false,"rental_uris":{"android":"levelo://app?vid=d810acf0-5bd2-4bf1-848d-31cd30d105e6","ios":"levelo://app?vid=d810acf0-5bd2-4bf1-848d-31cd30d105e6"},"vehicle_type_id":"4","last_reported":1756469979,"current_range_meters":8000,"station_id":"","pricing_plan_id":"cebpf4jnsgd1na2vs0mg"},{"bike_id":"2fbdf874-531b-4aad-a053-9c66d9f59c0a","system_id":"levelo_inurba_marseille","lat":43.27615,"lon":5.36106,"is_reserved":false,"is_disabled":false,"rental_uris":{"android":"levelo://app?vid=2fbdf874-531b-4aad-a053-9c66d9f59c0a","ios":"levelo://app?vid=2fbdf874-531b-4aad-a053-9c66d9f59c0a"},"vehicle_type_id":"4","last_reported":1756469979,"current_range_meters":8000,"station_id":"ce4bgj92rcd13ifvqbe0","pricing_plan_id":"cebpf4jnsgd1na2vs0mg"},{"bike_id":"1ffbbfc7-58c9-4f35-a1de-e6ee1d394ff7","system_id":"levelo_inurba_marseille","lat":43.300828,"lon":5.39629,"is_reserved":false,"is_disabled":false,"rental_uris":{"android":"levelo://app?vid=1ffbbfc7-58c9-4f35-a1de-e6ee1d394ff7","ios":"levelo://app?vid=1ffbbfc7-58c9-4f35-a1de-e6ee1d394ff7"},"vehicle_type_id":"4","last_reported":1756469979,"current_range_meters":8000,"station_id":"ce4bh0h2rcd13ifvqd50","pricing_plan_id":"cebpf4jnsgd1na2vs0mg"},{"bike_id":"ecea5961-1596-4e99-a87a-6cb6c6416fbf","system_id":"levelo_inurba_marseille","lat":43.304443,"lon":5.3767,"is_reserved":false,"is_disabled":false,"rental_uris":{"android":"levelo://app?vid=ecea5961-1596-4e99-a87a-6cb6c6416fbf","ios":"levelo://app?vid=ecea5961-1596-4e99-a87a-6cb6c6416fbf"},"vehicle_type_id":"4","last_reported":1756469979,"current_range_meters":8400,"station_id":"","pricing_plan_id":"cebpf4jnsgd1na2vs0mg"},{"bike_id":"6e6f7ba1-cc2f-4fbe-964e-4e7536e40310","system_id":"levelo_inurba_marseille","lat":43.32484,"lon":5.3657,"is_reserved":false,"is_disabled":false,"rental_uris":{"android":"levelo://app?vid=6e6f7ba1-cc2f-4fbe-964e-4e7536e40310","ios":"levelo://app?vid=6e6f7ba1-cc2f-4fbe-964e-4e7536e40310"},"vehicle_type_id":"4","last_reported":1756469979,"current_range_meters":8400,"station_id":"ce4bhs12rcd13ifvqhvg","pricing_plan_id":"cebpf4jnsgd1na2vs0mg"},{"bike_id":"670a2b3a-94f5-4ac8-9637-95a01467597d","system_id":"levelo_inurba_marseille","lat":43.337534,"lon":5.374585,"is_reserved":false,"is_disabled":false,"rental_uris":{"android":"levelo://app?vid=670a2b3a-94f5-4ac8-9637-95a01467597d","ios":"levelo://app?vid=670a2b3a-94f5-4ac8-9637-95a01467597d"},"vehicle_type_id":"4","last_reported":1756469979,"current_range_meters":8800,"station_id":"","pricing_plan_id":"cebpf4jnsgd1na2vs0mg"},{"bike_id":"3cbd88e6-cb21-4522-99ed-33d9826775c7","system_id":"levelo_inurba_marseille","lat":43.31222,"lon":5.36844,"is_reserved":false,"is_disabled":false,"rental_uris":{"android":"levelo://app?vid=3cbd88e6-cb21-4522-99ed-33d9826775c7","ios":"levelo://app?vid=3cbd88e6-cb21-4522-99ed-33d9826775c7"},"vehicle_type_id":"4","last_reported":1756469979,"current_range_meters":8800,"station_id":"ce4bgl92rcd13ifvqbq0","pricing_plan_id":"cebpf4jnsgd1na2vs0mg"},{"bike_id":"de14a6aa-1fec-4655-8163-5c153c19b2b2","system_id":"levelo_inurba_marseille","lat":43.225643,"lon":5.416293,"is_reserved":false,"is_disabled":false,"rental_uris":{"android":"levelo://app?vid=de14a6aa-1fec-4655-8163-5c153c19b2b2","ios":"levelo://app?vid=de14a6aa-1fec-4655-8163-5c153c19b2b2"},"vehicle_type_id":"4","last_reported":1756469979,"current_range_meters":8800,"station_id":"st_d2o4gvlbi1j2169b742g","pricing_plan_id":"cebpf4jnsgd1na2vs0mg"},{"bike_id":"8543be3c-d4f0-4140-9026-ab3b0553a3e6","system_id":"levelo_inurba_marseille","lat":43.29538,"lon":5.39392,"is_reserved":false,"is_disabled":false,"rental_uris":{"android":"levelo://app?vid=8543be3c-d4f0-4140-9026-ab3b0553a3e6","ios":"levelo://app?vid=8543be3c-d4f0-4140-9026-ab3b0553a3e6"},"vehicle_type_id":"4","last_reported":1756469979,"current_range_meters":9200,"station_id":"ce4bh292rcd13ifvqdf0","pricing_plan_id":"cebpf4jnsgd1na2vs0mg"},{"bike_id":"ffb7f6c2-cd4b-420a-b7db-30cc4993a388","system_id":"levelo_inurba_marseille","lat":43.28425,"lon":5.34974,"is_reserved":false,"is_disabled":false,"rental_uris":{"android":"levelo://app?vid=ffb7f6c2-cd4b-420a-b7db-30cc4993a388","ios":"levelo://app?vid=ffb7f6c2-cd4b-420a-b7db-30cc4993a388"},"vehicle_type_id":"4","last_reported":1756469979,"current_range_meters":9200,"station_id":"ce4bhbh2rcd13ifvqepg","pricing_plan_id":"cebpf4jnsgd1na2vs0mg"},{"bike_id":"a5218b20-23bb-405a-9dd8-cf5effa9c2a9","system_id":"levelo_inurba_marseille","lat":43.27901,"lon":5.38017,"is_reserved":false,"is_disabled":false,"rental_uris":{"android":"levelo://app?vid=a5218b20-23bb-405a-9dd8-cf5effa9c2a9","ios":"levelo://app?vid=a5218b20-23bb-405a-9dd8-cf5effa9c2a9"},"vehicle_type_id":"4","last_reported":1756469979,"current_range_meters":9200,"station_id":"ce4bhf92rcd13ifvqf50","pricing_plan_id":"cebpf4jnsgd1na2vs0mg"},{"bike_id":"dbe5f82a-8bfc-4727-a15f-d1b481e48a0b","system_id":"levelo_inurba_marseille","lat":43.27212,"lon":5.39176,"is_reserved":false,"is_disabled":false,"rental_uris":{"android":"levelo://app?vid=dbe5f82a-8bfc-4727-a15f-d1b481e48a0b","ios":"levelo://app?vid=dbe5f82a-8bfc-4727-a15f-d1b481e48a0b"},"vehicle_type_id":"4","last_reported":1756469979,"current_range_meters":9200,"station_id":"ce4bhhp2rcd13ifvqfm0","pricing_plan_id":"cebpf4jnsgd1na2vs0mg"},{"bike_id":"49949b3b-1e1d-4ab2-9251-e2f2a68d32db","system_id":"levelo_inurba_marseille","lat":43.21747,"lon":5.34602,"is_reserved":false,"is_disabled":false,"rental_uris":{"android":"levelo://app?vid=49949b3b-1e1d-4ab2-9251-e2f2a68d32db","ios":"levelo://app?vid=49949b3b-1e1d-4ab2-9251-e2f2a68d32db"},"vehicle_type_id":"4","last_reported":1756469979,"current_range_meters":9200,"station_id":"st_cvj6r9ubvosntc0bgbag","pricing_plan_id":"cebpf4jnsgd1na2vs0mg"},{"bike_id":"9ff865e8-1a19-4c18-88c8-042a0bfcb67e","system_id":"levelo_inurba_marseille","lat":43.2119,"lon":5.35074,"is_reserved":false,"is_disabled":false,"rental_uris":{"android":"levelo://app?vid=9ff865e8-1a19-4c18-88c8-042a0bfcb67e","ios":"levelo://app?vid=9ff865e8-1a19-4c18-88c8-042a0bfcb67e"},"vehicle_type_id":"4","last_reported":1756469979,"current_range_meters":9200,"station_id":"st_cvj6sg6p6f1abm77japg","pricing_plan_id":"cebpf4jnsgd1na2vs0mg"},{"bike_id":"70be4f49-b387-452f-9990-b684cf9fd21e","system_id":"levelo_inurba_marseille","lat":43.303227,"lon":5.403515,"is_reserved":false,"is_disabled":false,"rental_uris":{"android":"levelo://app?vid=70be4f49-b387-452f-9990-b684cf9fd21e","ios":"levelo://app?vid=70be4f49-b387-452f-9990-b684cf9fd21e"},"vehicle_type_id":"4","last_reported":1756469979,"current_range_meters":9600,"station_id":"","pricing_plan_id":"cebpf4jnsgd1na2vs0mg"},{"bike_id":"b9a2bbbb-69ac-40be-bf46-27119ee9c404","system_id":"levelo_inurba_marseille","lat":43.25357,"lon":5.42197,"is_reserved":false,"is_disabled":false,"rental_uris":{"android":"levelo://app?vid=b9a2bbbb-69ac-40be-bf46-27119ee9c404","ios":"levelo://app?vid=b9a2bbbb-69ac-40be-bf46-27119ee9c404"},"vehicle_type_id":"4","last_reported":1756469979,"current_range_meters":9600,"station_id":"st_d2m65c5bi1j21697t3ng","pricing_plan_id":"cebpf4jnsgd1na2vs0mg"},{"bike_id":"0d132c26-9af9-4a8d-baf3-4734be93b214","system_id":"levelo_inurba_marseille","lat":43.21192,"lon":5.35071,"is_reserved":false,"is_disabled":false,"rental_uris":{"android":"levelo://app?vid=0d132c26-9af9-4a8d-baf3-4734be93b214","ios":"levelo://app?vid=0d132c26-9af9-4a8d-baf3-4734be93b214"},"vehicle_type_id":"4","last_reported":1756469979,"current_range_meters":10000,"station_id":"","pricing_plan_id":"cebpf4jnsgd1na2vs0mg"},{"bike_id":"5bdfa0e5-c5fc-4cfd-bc08-50665156356d","system_id":"levelo_inurba_marseille","lat":43.295294,"lon":5.375061,"is_reserved":false,"is_disabled":false,"rental_uris":{"android":"levelo://app?vid=5bdfa0e5-c5fc-4cfd-bc08-50665156356d","ios":"levelo://app?vid=5bdfa0e5-c5fc-4cfd-bc08-50665156356d"},"vehicle_type_id":"4","last_reported":1756469979,"current_range_meters":10000,"station_id":"","pricing_plan_id":"cebpf4jnsgd1na2vs0mg"},{"bike_id":"45ffb0a5-beb4-4609-9bd2-26f0272c29cf","system_id":"levelo_inurba_marseille","lat":43.274763,"lon":5.360273,"is_reserved":false,"is_disabled":false,"rental_uris":{"android":"levelo://app?vid=45ffb0a5-beb4-4609-9bd2-26f0272c29cf","ios":"levelo://app?vid=45ffb0a5-beb4-4609-9bd2-26f0272c29cf"},"vehicle_type_id":"4","last_reported":1756469979,"current_range_meters":10000,"station_id":"","pricing_plan_id":"cebpf4jnsgd1na2vs0mg"},{"bike_id":"de0b5b7e-19ab-4073-8a69-05d3e69576cc","system_id":"levelo_inurba_marseille","lat":43.24812,"lon":5.37449,"is_reserved":false,"is_disabled":false,"rental_uris":{"android":"levelo://app?vid=de0b5b7e-19ab-4073-8a69-05d3e69576cc","ios":"levelo://app?vid=de0b5b7e-19ab-4073-8a69-05d3e69576cc"},"vehicle_type_id":"4","last_reported":1756469979,"current_range_meters":10000,"station_id":"ce4bhgh2rcd13ifvqfb0","pricing_plan_id":"cebpf4jnsgd1na2vs0mg"},{"bike_id":"f84d922c-0443-4fda-83e2-049df92826e2","system_id":"levelo_inurba_marseille","lat":43.217621,"lon":5.346054,"is_reserved":false,"is_disabled":false,"rental_uris":{"android":"levelo://app?vid=f84d922c-0443-4fda-83e2-049df92826e2","ios":"levelo://app?vid=f84d922c-0443-4fda-83e2-049df92826e2"},"vehicle_type_id":"4","last_reported":1756469979,"current_range_meters":10000,"station_id":"st_cvj6r9ubvosntc0bgbag","pricing_plan_id":"cebpf4jnsgd1na2vs0mg"},{"bike_id":"4062423e-3381-49c0-9510-0e0e09b2d426","system_id":"levelo_inurba_marseille","lat":43.21194,"lon":5.35075,"is_reserved":false,"is_disabled":false,"rental_uris":{"android":"levelo://app?vid=4062423e-3381-49c0-9510-0e0e09b2d426","ios":"levelo://app?vid=4062423e-3381-49c0-9510-0e0e09b2d426"},"vehicle_type_id":"4","last_reported":1756469979,"current_range_meters":10000,"station_id":"st_cvj6sg6p6f1abm77japg","pricing_plan_id":"cebpf4jnsgd1na2vs0mg"},{"bike_id":"737b06b6-06ee-4763-ae67-96b1331ca994","system_id":"levelo_inurba_marseille","lat":43.2119,"lon":5.35065,"is_reserved":false,"is_disabled":false,"rental_uris":{"android":"levelo://app?vid=737b06b6-06ee-4763-ae67-96b1331ca994","ios":"levelo://app?vid=737b06b6-06ee-4763-ae67-96b1331ca994"},"vehicle_type_id":"4","last_reported":1756469979,"current_range_meters":10000,"station_id":"st_cvj6sg6p6f1abm77japg","pricing_plan_id":"cebpf4jnsgd1na2vs0mg"},{"bike_id":"11e3b63a-7498-4037-a1da-178dcd0fbd98","system_id":"levelo_inurba_marseille","lat":43.337444,"lon":5.374475,"is_reserved":false,"is_disabled":false,"rental_uris":{"android":"levelo://app?vid=11e3b63a-7498-4037-a1da-178dcd0fbd98","ios":"levelo://app?vid=11e3b63a-7498-4037-a1da-178dcd0fbd98"},"vehicle_type_id":"4","last_reported":1756469979,"current_range_meters":10800,"station_id":"","pricing_plan_id":"cebpf4jnsgd1na2vs0mg"},{"bike_id":"5cf69a10-a17b-497e-b73d-b4eb86157007","system_id":"levelo_inurba_marseille","lat":43.30911,"lon":5.36833,"is_reserved":false,"is_disabled":false,"rental_uris":{"android":"levelo://app?vid=5cf69a10-a17b-497e-b73d-b4eb86157007","ios":"levelo://app?vid=5cf69a10-a17b-497e-b73d-b4eb86157007"},"vehicle_type_id":"4","last_reported":1756469979,"current_range_meters":10800,"station_id":"ce4bgn92rcd13ifvqbvg","pricing_plan_id":"cebpf4jnsgd1na2vs0mg"},{"bike_id":"d005b541-909d-4c5d-bde1-94285008f478","system_id":"levelo_inurba_marseille","lat":43.32367,"lon":5.36745,"is_reserved":false,"is_disabled":false,"rental_uris":{"android":"levelo://app?vid=d005b541-909d-4c5d-bde1-94285008f478","ios":"levelo://app?vid=d005b541-909d-4c5d-bde1-94285008f478"},"vehicle_type_id":"4","last_reported":1756469979,"current_range_meters":10800,"station_id":"ce4bhsh2rcd13ifvqi2g","pricing_plan_id":"cebpf4jnsgd1na2vs0mg"},{"bike_id":"8a3d08a4-6e22-43fc-a3af-efea32020201","system_id":"levelo_inurba_marseille","lat":43.32356,"lon":5.36756,"is_reserved":false,"is_disabled":false,"rental_uris":{"android":"levelo://app?vid=8a3d08a4-6e22-43fc-a3af-efea32020201","ios":"levelo://app?vid=8a3d08a4-6e22-43fc-a3af-efea32020201"},"vehicle_type_id":"4","last_reported":1756469979,"current_range_meters":10800,"station_id":"ce4bhsh2rcd13ifvqi2g","pricing_plan_id":"cebpf4jnsgd1na2vs0mg"},{"bike_id":"5a268d9c-fe50-43e5-87e6-45a21eba1b4c","system_id":"levelo_inurba_marseille","lat":43.29942,"lon":5.36552,"is_reserved":false,"is_disabled":false,"rental_uris":{"android":"levelo://app?vid=5a268d9c-fe50-43e5-87e6-45a21eba1b4c","ios":"levelo://app?vid=5a268d9c-fe50-43e5-87e6-45a21eba1b4c"},"vehicle_type_id":"4","last_reported":1756469979,"current_range_meters":11200,"station_id":"ce4bgm92rcd13ifvqbr0","pricing_plan_id":"cebpf4jnsgd1na2vs0mg"},{"bike_id":"4750b00e-4e00-4dcc-a575-90ece2405932","system_id":"levelo_inurba_marseille","lat":43.29025,"lon":5.38637,"is_reserved":false,"is_disabled":false,"rental_uris":{"android":"levelo://app?vid=4750b00e-4e00-4dcc-a575-90ece2405932","ios":"levelo://app?vid=4750b00e-4e00-4dcc-a575-90ece2405932"},"vehicle_type_id":"4","last_reported":1756469979,"current_range_meters":11200,"station_id":"ce4bh4p2rcd13ifvqe0g","pricing_plan_id":"cebpf4jnsgd1na2vs0mg"},{"bike_id":"09f1d844-e3b1-48c1-90ec-3b14631f7d73","system_id":"levelo_inurba_marseille","lat":43.2866,"lon":5.36359,"is_reserved":false,"is_disabled":false,"rental_uris":{"android":"levelo://app?vid=09f1d844-e3b1-48c1-90ec-3b14631f7d73","ios":"levelo://app?vid=09f1d844-e3b1-48c1-90ec-3b14631f7d73"},"vehicle_type_id":"4","last_reported":1756469979,"current_range_meters":11200,"station_id":"ce4bhah2rcd13ifvqej0","pricing_plan_id":"cebpf4jnsgd1na2vs0mg"},{"bike_id":"2b60922c-1f9d-4f98-af70-27c0430b8e12","system_id":"levelo_inurba_marseille","lat":43.28616,"lon":5.35104,"is_reserved":false,"is_disabled":false,"rental_uris":{"android":"levelo://app?vid=2b60922c-1f9d-4f98-af70-27c0430b8e12","ios":"levelo://app?vid=2b60922c-1f9d-4f98-af70-27c0430b8e12"},"vehicle_type_id":"4","last_reported":1756469979,"current_range_meters":11200,"station_id":"ce4bhch2rcd13ifvqeug","pricing_plan_id":"cebpf4jnsgd1na2vs0mg"},{"bike_id":"8c1b7bb9-8c7f-4497-b2f8-e8571c6f3ddc","system_id":"levelo_inurba_marseille","lat":43.26198,"lon":5.37446,"is_reserved":false,"is_disabled":false,"rental_uris":{"android":"levelo://app?vid=8c1b7bb9-8c7f-4497-b2f8-e8571c6f3ddc","ios":"levelo://app?vid=8c1b7bb9-8c7f-4497-b2f8-e8571c6f3ddc"},"vehicle_type_id":"4","last_reported":1756469979,"current_range_meters":11200,"station_id":"ce4bhgp2rcd13ifvqfc0","pricing_plan_id":"cebpf4jnsgd1na2vs0mg"},{"bike_id":"fcc503c6-d3a7-4cf2-8bb7-07eb8c5cebbc","system_id":"levelo_inurba_marseille","lat":43.24666,"lon":5.38157,"is_reserved":false,"is_disabled":false,"rental_uris":{"android":"levelo://app?vid=fcc503c6-d3a7-4cf2-8bb7-07eb8c5cebbc","ios":"levelo://app?vid=fcc503c6-d3a7-4cf2-8bb7-07eb8c5cebbc"},"vehicle_type_id":"4","last_reported":1756469979,"current_range_meters":11200,"station_id":"ce4bhih2rcd13ifvqfr0","pricing_plan_id":"cebpf4jnsgd1na2vs0mg"},{"bike_id":"637eb0af-3d1f-4377-8c8f-9ac014bb51eb","system_id":"levelo_inurba_marseille","lat":43.295197,"lon":5.375122,"is_reserved":false,"is_disabled":false,"rental_uris":{"android":"levelo://app?vid=637eb0af-3d1f-4377-8c8f-9ac014bb51eb","ios":"levelo://app?vid=637eb0af-3d1f-4377-8c8f-9ac014bb51eb"},"vehicle_type_id":"4","last_reported":1756469979,"current_range_meters":11600,"station_id":"","pricing_plan_id":"cebpf4jnsgd1na2vs0mg"},{"bike_id":"77a921bf-0181-4e3b-b107-695fced41d66","system_id":"levelo_inurba_marseille","lat":43.29046,"lon":5.3593,"is_reserved":false,"is_disabled":false,"rental_uris":{"android":"levelo://app?vid=77a921bf-0181-4e3b-b107-695fced41d66","ios":"levelo://app?vid=77a921bf-0181-4e3b-b107-695fced41d66"},"vehicle_type_id":"4","last_reported":1756469979,"current_range_meters":11600,"station_id":"ce4bha92rcd13ifvqeg0","pricing_plan_id":"cebpf4jnsgd1na2vs0mg"},{"bike_id":"cc906a88-1331-44a0-b1c5-ebccb651e4f2","system_id":"levelo_inurba_marseille","lat":43.23962,"lon":5.36635,"is_reserved":false,"is_disabled":false,"rental_uris":{"android":"levelo://app?vid=cc906a88-1331-44a0-b1c5-ebccb651e4f2","ios":"levelo://app?vid=cc906a88-1331-44a0-b1c5-ebccb651e4f2"},"vehicle_type_id":"4","last_reported":1756469979,"current_range_meters":11600,"station_id":"ce4bhi12rcd13ifvqfp0","pricing_plan_id":"cebpf4jnsgd1na2vs0mg"},{"bike_id":"c8ed8afa-4750-4d5e-b29e-7da3cd8f4dc7","system_id":"levelo_inurba_marseille","lat":43.32367,"lon":5.36717,"is_reserved":false,"is_disabled":false,"rental_uris":{"android":"levelo://app?vid=c8ed8afa-4750-4d5e-b29e-7da3cd8f4dc7","ios":"levelo://app?vid=c8ed8afa-4750-4d5e-b29e-7da3cd8f4dc7"},"vehicle_type_id":"4","last_reported":1756469979,"current_range_meters":12000,"station_id":"ce4bhsh2rcd13ifvqi2g","pricing_plan_id":"cebpf4jnsgd1na2vs0mg"},{"bike_id":"42515969-df58-4bc3-81b4-d2c5b3092781","system_id":"levelo_inurba_marseille","lat":43.27736,"lon":5.42024,"is_reserved":false,"is_disabled":false,"rental_uris":{"android":"levelo://app?vid=42515969-df58-4bc3-81b4-d2c5b3092781","ios":"levelo://app?vid=42515969-df58-4bc3-81b4-d2c5b3092781"},"vehicle_type_id":"4","last_reported":1756469979,"current_range_meters":12400,"station_id":"","pricing_plan_id":"cebpf4jnsgd1na2vs0mg"},{"bike_id":"3c2cdfbe-f484-4d72-b881-d01dd3e4f1b7","system_id":"levelo_inurba_marseille","lat":43.26036,"lon":5.37544,"is_reserved":false,"is_disabled":false,"rental_uris":{"android":"levelo://app?vid=3c2cdfbe-f484-4d72-b881-d01dd3e4f1b7","ios":"levelo://app?vid=3c2cdfbe-f484-4d72-b881-d01dd3e4f1b7"},"vehicle_type_id":"4","last_reported":1756469979,"current_range_meters":12400,"station_id":"ce4bhgh2rcd13ifvqfa0","pricing_plan_id":"cebpf4jnsgd1na2vs0mg"},{"bike_id":"0092b934-8c92-4639-8937-536dddc77c5e","system_id":"levelo_inurba_marseille","lat":43.28167,"lon":5.42657,"is_reserved":false,"is_disabled":false,"rental_uris":{"android":"levelo://app?vid=0092b934-8c92-4639-8937-536dddc77c5e","ios":"levelo://app?vid=0092b934-8c92-4639-8937-536dddc77c5e"},"vehicle_type_id":"4","last_reported":1756469979,"current_range_meters":12400,"station_id":"ce4bhnh2rcd13ifvqgug","pricing_plan_id":"cebpf4jnsgd1na2vs0mg"},{"bike_id":"a583a2d5-64ba-4a63-99f9-a273677678f2","system_id":"levelo_inurba_marseille","lat":43.2815,"lon":5.427,"is_reserved":false,"is_disabled":false,"rental_uris":{"android":"levelo://app?vid=a583a2d5-64ba-4a63-99f9-a273677678f2","ios":"levelo://app?vid=a583a2d5-64ba-4a63-99f9-a273677678f2"},"vehicle_type_id":"4","last_reported":1756469979,"current_range_meters":12400,"station_id":"ce4bhnh2rcd13ifvqgug","pricing_plan_id":"cebpf4jnsgd1na2vs0mg"},{"bike_id":"76e6ac26-0bd8-48b4-86c7-3f1d68490266","system_id":"levelo_inurba_marseille","lat":43.241638,"lon":5.363999,"is_reserved":false,"is_disabled":false,"rental_uris":{"android":"levelo://app?vid=76e6ac26-0bd8-48b4-86c7-3f1d68490266","ios":"levelo://app?vid=76e6ac26-0bd8-48b4-86c7-3f1d68490266"},"vehicle_type_id":"4","last_reported":1756469979,"current_range_meters":12400,"station_id":"cpo36qri1sfpv3e86is0","pricing_plan_id":"cebpf4jnsgd1na2vs0mg"},{"bike_id":"9b8613f2-a259-4f9e-9222-a77fab323375","system_id":"levelo_inurba_marseille","lat":43.21208,"lon":5.35109,"is_reserved":false,"is_disabled":false,"rental_uris":{"android":"levelo://app?vid=9b8613f2-a259-4f9e-9222-a77fab323375","ios":"levelo://app?vid=9b8613f2-a259-4f9e-9222-a77fab323375"},"vehicle_type_id":"4","last_reported":1756469979,"current_range_meters":12400,"station_id":"st_cvj6sg6p6f1abm77japg","pricing_plan_id":"cebpf4jnsgd1na2vs0mg"},{"bike_id":"e88813c3-e63a-4665-b0f4-72e6c6c89a00","system_id":"levelo_inurba_marseille","lat":43.21181,"lon":5.35075,"is_reserved":false,"is_disabled":false,"rental_uris":{"android":"levelo://app?vid=e88813c3-e63a-4665-b0f4-72e6c6c89a00","ios":"levelo://app?vid=e88813c3-e63a-4665-b0f4-72e6c6c89a00"},"vehicle_type_id":"4","last_reported":1756469979,"current_range_meters":12400,"station_id":"st_cvj6sg6p6f1abm77japg","pricing_plan_id":"cebpf4jnsgd1na2vs0mg"},{"bike_id":"ca808d34-9391-4691-b4c5-e9180d9c16d9","system_id":"levelo_inurba_marseille","lat":43.25343,"lon":5.42171,"is_reserved":false,"is_disabled":false,"rental_uris":{"android":"levelo://app?vid=ca808d34-9391-4691-b4c5-e9180d9c16d9","ios":"levelo://app?vid=ca808d34-9391-4691-b4c5-e9180d9c16d9"},"vehicle_type_id":"4","last_reported":1756469979,"current_range_meters":12400,"station_id":"st_d2m65c5bi1j21697t3ng","pricing_plan_id":"cebpf4jnsgd1na2vs0mg"},{"bike_id":"20cdb3f8-aebe-48a9-ae79-aa2df35a742a","system_id":"levelo_inurba_marseille","lat":43.24646,"lon":5.43139,"is_reserved":false,"is_disabled":false,"rental_uris":{"android":"levelo://app?vid=20cdb3f8-aebe-48a9-ae79-aa2df35a742a","ios":"levelo://app?vid=20cdb3f8-aebe-48a9-ae79-aa2df35a742a"},"vehicle_type_id":"4","last_reported":1756469979,"current_range_meters":12400,"station_id":"st_d2m6c4gdas8pm72e190g","pricing_plan_id":"cebpf4jnsgd1na2vs0mg"},{"bike_id":"e461ed12-be1c-4090-904b-e04bc75cdc27","system_id":"levelo_inurba_marseille","lat":43.30479,"lon":5.37907,"is_reserved":false,"is_disabled":false,"rental_uris":{"android":"levelo://app?vid=e461ed12-be1c-4090-904b-e04bc75cdc27","ios":"levelo://app?vid=e461ed12-be1c-4090-904b-e04bc75cdc27"},"vehicle_type_id":"4","last_reported":1756469979,"current_range_meters":12800,"station_id":"ce4bgup2rcd13ifvqcn0","pricing_plan_id":"cebpf4jnsgd1na2vs0mg"},{"bike_id":"f8742971-d09d-45e2-9dd9-398fcd9a6723","system_id":"levelo_inurba_marseille","lat":43.29268,"lon":5.38434,"is_reserved":false,"is_disabled":false,"rental_uris":{"android":"levelo://app?vid=f8742971-d09d-45e2-9dd9-398fcd9a6723","ios":"levelo://app?vid=f8742971-d09d-45e2-9dd9-398fcd9a6723"},"vehicle_type_id":"4","last_reported":1756469979,"current_range_meters":12800,"station_id":"ce4bh692rcd13ifvqea0","pricing_plan_id":"cebpf4jnsgd1na2vs0mg"},{"bike_id":"334e1d7c-f2e6-4543-b473-959658949a73","system_id":"levelo_inurba_marseille","lat":43.23982,"lon":5.36635,"is_reserved":false,"is_disabled":false,"rental_uris":{"android":"levelo://app?vid=334e1d7c-f2e6-4543-b473-959658949a73","ios":"levelo://app?vid=334e1d7c-f2e6-4543-b473-959658949a73"},"vehicle_type_id":"4","last_reported":1756469979,"current_range_meters":12800,"station_id":"ce4bhi12rcd13ifvqfp0","pricing_plan_id":"cebpf4jnsgd1na2vs0mg"},{"bike_id":"a3e4ee41-5175-47da-ad6e-4c5ae3eb42d9","system_id":"levelo_inurba_marseille","lat":43.2121,"lon":5.35073,"is_reserved":false,"is_disabled":false,"rental_uris":{"android":"levelo://app?vid=a3e4ee41-5175-47da-ad6e-4c5ae3eb42d9","ios":"levelo://app?vid=a3e4ee41-5175-47da-ad6e-4c5ae3eb42d9"},"vehicle_type_id":"4","last_reported":1756469979,"current_range_meters":12800,"station_id":"st_cvj6sg6p6f1abm77japg","pricing_plan_id":"cebpf4jnsgd1na2vs0mg"},{"bike_id":"d2037d0a-1a03-43ff-992a-62cb59c74480","system_id":"levelo_inurba_marseille","lat":43.2463,"lon":5.43161,"is_reserved":false,"is_disabled":false,"rental_uris":{"android":"levelo://app?vid=d2037d0a-1a03-43ff-992a-62cb59c74480","ios":"levelo://app?vid=d2037d0a-1a03-43ff-992a-62cb59c74480"},"vehicle_type_id":"4","last_reported":1756469979,"current_range_meters":12800,"station_id":"st_d2m6c4gdas8pm72e190g","pricing_plan_id":"cebpf4jnsgd1na2vs0mg"},{"bike_id":"3dd23926-ae78-488e-8f33-e0fe0712154d","system_id":"levelo_inurba_marseille","lat":43.31204,"lon":5.378,"is_reserved":false,"is_disabled":false,"rental_uris":{"android":"levelo://app?vid=3dd23926-ae78-488e-8f33-e0fe0712154d","ios":"levelo://app?vid=3dd23926-ae78-488e-8f33-e0fe0712154d"},"vehicle_type_id":"4","last_reported":1756469979,"current_range_meters":13600,"station_id":"","pricing_plan_id":"cebpf4jnsgd1na2vs0mg"},{"bike_id":"58068613-4c09-4bb0-94c8-185a8f10ac12","system_id":"levelo_inurba_marseille","lat":43.27422,"lon":5.39429,"is_reserved":false,"is_disabled":false,"rental_uris":{"android":"levelo://app?vid=58068613-4c09-4bb0-94c8-185a8f10ac12","ios":"levelo://app?vid=58068613-4c09-4bb0-94c8-185a8f10ac12"},"vehicle_type_id":"4","last_reported":1756469979,"current_range_meters":13600,"station_id":"ce4bhdp2rcd13ifvqf20","pricing_plan_id":"cebpf4jnsgd1na2vs0mg"},{"bike_id":"b9e83033-3531-4ca6-970d-8283e42f0ac9","system_id":"levelo_inurba_marseille","lat":43.225631,"lon":5.416255,"is_reserved":false,"is_disabled":false,"rental_uris":{"android":"levelo://app?vid=b9e83033-3531-4ca6-970d-8283e42f0ac9","ios":"levelo://app?vid=b9e83033-3531-4ca6-970d-8283e42f0ac9"},"vehicle_type_id":"4","last_reported":1756469979,"current_range_meters":13600,"station_id":"st_d2o4gvlbi1j2169b742g","pricing_plan_id":"cebpf4jnsgd1na2vs0mg"},{"bike_id":"083dca62-c227-468f-ad9d-5d65b88e5579","system_id":"levelo_inurba_marseille","lat":43.26016,"lon":5.37539,"is_reserved":false,"is_disabled":false,"rental_uris":{"android":"levelo://app?vid=083dca62-c227-468f-ad9d-5d65b88e5579","ios":"levelo://app?vid=083dca62-c227-468f-ad9d-5d65b88e5579"},"vehicle_type_id":"4","last_reported":1756469979,"current_range_meters":14000,"station_id":"","pricing_plan_id":"cebpf4jnsgd1na2vs0mg"},{"bike_id":"75c49764-f8d7-47aa-a494-06a4cedcbec5","system_id":"levelo_inurba_marseille","lat":43.28481,"lon":5.385684,"is_reserved":false,"is_disabled":false,"rental_uris":{"android":"levelo://app?vid=75c49764-f8d7-47aa-a494-06a4cedcbec5","ios":"levelo://app?vid=75c49764-f8d7-47aa-a494-06a4cedcbec5"},"vehicle_type_id":"4","last_reported":1756469979,"current_range_meters":14000,"station_id":"ce4bh8p2rcd13ifvqeb0","pricing_plan_id":"cebpf4jnsgd1na2vs0mg"},{"bike_id":"bfb83bd6-f495-4cec-85ce-df60c7c28c63","system_id":"levelo_inurba_marseille","lat":43.28416,"lon":5.34978,"is_reserved":false,"is_disabled":false,"rental_uris":{"android":"levelo://app?vid=bfb83bd6-f495-4cec-85ce-df60c7c28c63","ios":"levelo://app?vid=bfb83bd6-f495-4cec-85ce-df60c7c28c63"},"vehicle_type_id":"4","last_reported":1756469979,"current_range_meters":14000,"station_id":"ce4bhbh2rcd13ifvqepg","pricing_plan_id":"cebpf4jnsgd1na2vs0mg"},{"bike_id":"72c04493-7828-44c3-ac93-12434f236158","system_id":"levelo_inurba_marseille","lat":43.23068,"lon":5.35495,"is_reserved":false,"is_disabled":false,"rental_uris":{"android":"levelo://app?vid=72c04493-7828-44c3-ac93-12434f236158","ios":"levelo://app?vid=72c04493-7828-44c3-ac93-12434f236158"},"vehicle_type_id":"4","last_reported":1756469979,"current_range_meters":14000,"station_id":"cpo3342slgdg3j2ifvpg","pricing_plan_id":"cebpf4jnsgd1na2vs0mg"},{"bike_id":"c4151c63-4628-4474-99f2-c45cdba62403","system_id":"levelo_inurba_marseille","lat":43.26283,"lon":5.39928,"is_reserved":false,"is_disabled":false,"rental_uris":{"android":"levelo://app?vid=c4151c63-4628-4474-99f2-c45cdba62403","ios":"levelo://app?vid=c4151c63-4628-4474-99f2-c45cdba62403"},"vehicle_type_id":"4","last_reported":1756469979,"current_range_meters":14400,"station_id":"","pricing_plan_id":"cebpf4jnsgd1na2vs0mg"},{"bike_id":"9c1e405e-1904-4b0c-b34e-6813fc4e9c03","system_id":"levelo_inurba_marseille","lat":43.31326,"lon":5.36753,"is_reserved":false,"is_disabled":false,"rental_uris":{"android":"levelo://app?vid=9c1e405e-1904-4b0c-b34e-6813fc4e9c03","ios":"levelo://app?vid=9c1e405e-1904-4b0c-b34e-6813fc4e9c03"},"vehicle_type_id":"4","last_reported":1756469979,"current_range_meters":14400,"station_id":"ce4bgr92rcd13ifvqc6g","pricing_plan_id":"cebpf4jnsgd1na2vs0mg"},{"bike_id":"f4cbaf85-3577-48c7-9a47-c50862cc8158","system_id":"levelo_inurba_marseille","lat":43.24171,"lon":5.36384,"is_reserved":false,"is_disabled":false,"rental_uris":{"android":"levelo://app?vid=f4cbaf85-3577-48c7-9a47-c50862cc8158","ios":"levelo://app?vid=f4cbaf85-3577-48c7-9a47-c50862cc8158"},"vehicle_type_id":"4","last_reported":1756469979,"current_range_meters":14400,"station_id":"cpo36qri1sfpv3e86is0","pricing_plan_id":"cebpf4jnsgd1na2vs0mg"},{"bike_id":"ad4c4a01-d30a-43d7-80ed-b34d62d5e9ef","system_id":"levelo_inurba_marseille","lat":43.24169,"lon":5.36409,"is_reserved":false,"is_disabled":false,"rental_uris":{"android":"levelo://app?vid=ad4c4a01-d30a-43d7-80ed-b34d62d5e9ef","ios":"levelo://app?vid=ad4c4a01-d30a-43d7-80ed-b34d62d5e9ef"},"vehicle_type_id":"4","last_reported":1756469979,"current_range_meters":14400,"station_id":"cpo36qri1sfpv3e86is0","pricing_plan_id":"cebpf4jnsgd1na2vs0mg"},{"bike_id":"0a52260b-d5c5-4928-a8ea-e2ec7c6c93ab","system_id":"levelo_inurba_marseille","lat":43.28446,"lon":5.34995,"is_reserved":false,"is_disabled":false,"rental_uris":{"android":"levelo://app?vid=0a52260b-d5c5-4928-a8ea-e2ec7c6c93ab","ios":"levelo://app?vid=0a52260b-d5c5-4928-a8ea-e2ec7c6c93ab"},"vehicle_type_id":"4","last_reported":1756469979,"current_range_meters":14800,"station_id":"ce4bhbh2rcd13ifvqepg","pricing_plan_id":"cebpf4jnsgd1na2vs0mg"},{"bike_id":"4c2b2b82-bc76-4256-a7a9-44d692b69bc0","system_id":"levelo_inurba_marseille","lat":43.25823,"lon":5.39417,"is_reserved":false,"is_disabled":false,"rental_uris":{"android":"levelo://app?vid=4c2b2b82-bc76-4256-a7a9-44d692b69bc0","ios":"levelo://app?vid=4c2b2b82-bc76-4256-a7a9-44d692b69bc0"},"vehicle_type_id":"4","last_reported":1756469979,"current_range_meters":14800,"station_id":"ce4bhip2rcd13ifvqft0","pricing_plan_id":"cebpf4jnsgd1na2vs0mg"},{"bike_id":"dee5fc92-9d8d-42ec-97e1-996d8f5266a8","system_id":"levelo_inurba_marseille","lat":43.22999,"lon":5.35493,"is_reserved":false,"is_disabled":false,"rental_uris":{"android":"levelo://app?vid=dee5fc92-9d8d-42ec-97e1-996d8f5266a8","ios":"levelo://app?vid=dee5fc92-9d8d-42ec-97e1-996d8f5266a8"},"vehicle_type_id":"4","last_reported":1756469979,"current_range_meters":14800,"station_id":"cpo3342slgdg3j2ifvpg","pricing_plan_id":"cebpf4jnsgd1na2vs0mg"},{"bike_id":"71f0f21a-9b42-4940-bb06-40f33be99a52","system_id":"levelo_inurba_marseille","lat":43.2256,"lon":5.41623,"is_reserved":false,"is_disabled":false,"rental_uris":{"android":"levelo://app?vid=71f0f21a-9b42-4940-bb06-40f33be99a52","ios":"levelo://app?vid=71f0f21a-9b42-4940-bb06-40f33be99a52"},"vehicle_type_id":"4","last_reported":1756469979,"current_range_meters":14800,"station_id":"st_d2o4gvlbi1j2169b742g","pricing_plan_id":"cebpf4jnsgd1na2vs0mg"},{"bike_id":"42325da9-3154-4ab5-a4d5-ee8434bdbcc3","system_id":"levelo_inurba_marseille","lat":43.30601,"lon":5.37224,"is_reserved":false,"is_disabled":false,"rental_uris":{"android":"levelo://app?vid=42325da9-3154-4ab5-a4d5-ee8434bdbcc3","ios":"levelo://app?vid=42325da9-3154-4ab5-a4d5-ee8434bdbcc3"},"vehicle_type_id":"4","last_reported":1756469979,"current_range_meters":15200,"station_id":"ce4bgqh2rcd13ifvqc4g","pricing_plan_id":"cebpf4jnsgd1na2vs0mg"},{"bike_id":"f6dbb049-ebae-4bad-9bc8-062aaf3f25f9","system_id":"levelo_inurba_marseille","lat":43.26932,"lon":5.38919,"is_reserved":false,"is_disabled":false,"rental_uris":{"android":"levelo://app?vid=f6dbb049-ebae-4bad-9bc8-062aaf3f25f9","ios":"levelo://app?vid=f6dbb049-ebae-4bad-9bc8-062aaf3f25f9"},"vehicle_type_id":"4","last_reported":1756469979,"current_range_meters":15200,"station_id":"ce4bhhh2rcd13ifvqfl0","pricing_plan_id":"cebpf4jnsgd1na2vs0mg"},{"bike_id":"18da9888-fdd7-4484-bc00-1068acefa027","system_id":"levelo_inurba_marseille","lat":43.25944,"lon":5.40898,"is_reserved":false,"is_disabled":false,"rental_uris":{"android":"levelo://app?vid=18da9888-fdd7-4484-bc00-1068acefa027","ios":"levelo://app?vid=18da9888-fdd7-4484-bc00-1068acefa027"},"vehicle_type_id":"4","last_reported":1756469979,"current_range_meters":15200,"station_id":"ce4bhm92rcd13ifvqglg","pricing_plan_id":"cebpf4jnsgd1na2vs0mg"},{"bike_id":"746e34bd-845b-43f1-86ec-23e39b73cf80","system_id":"levelo_inurba_marseille","lat":43.23198,"lon":5.35549,"is_reserved":false,"is_disabled":false,"rental_uris":{"android":"levelo://app?vid=746e34bd-845b-43f1-86ec-23e39b73cf80","ios":"levelo://app?vid=746e34bd-845b-43f1-86ec-23e39b73cf80"},"vehicle_type_id":"4","last_reported":1756469979,"current_range_meters":15200,"station_id":"ce4bhu92rcd13ifvqi70","pricing_plan_id":"cebpf4jnsgd1na2vs0mg"},{"bike_id":"445f4a5d-695f-4c1d-b170-62064433a299","system_id":"levelo_inurba_marseille","lat":43.21203,"lon":5.35069,"is_reserved":false,"is_disabled":false,"rental_uris":{"android":"levelo://app?vid=445f4a5d-695f-4c1d-b170-62064433a299","ios":"levelo://app?vid=445f4a5d-695f-4c1d-b170-62064433a299"},"vehicle_type_id":"4","last_reported":1756469979,"current_range_meters":15200,"station_id":"st_cvj6sg6p6f1abm77japg","pricing_plan_id":"cebpf4jnsgd1na2vs0mg"},{"bike_id":"420c553f-5c97-4aba-932a-7b39a7ffcd9c","system_id":"levelo_inurba_marseille","lat":43.21197,"lon":5.35061,"is_reserved":false,"is_disabled":false,"rental_uris":{"android":"levelo://app?vid=420c553f-5c97-4aba-932a-7b39a7ffcd9c","ios":"levelo://app?vid=420c553f-5c97-4aba-932a-7b39a7ffcd9c"},"vehicle_type_id":"4","last_reported":1756469979,"current_range_meters":15200,"station_id":"st_cvj6sg6p6f1abm77japg","pricing_plan_id":"cebpf4jnsgd1na2vs0mg"},{"bike_id":"ad3b65c6-e50e-4cff-b0fd-9f6f06b1cf26","system_id":"levelo_inurba_marseille","lat":43.2776,"lon":5.35594,"is_reserved":false,"is_disabled":false,"rental_uris":{"android":"levelo://app?vid=ad3b65c6-e50e-4cff-b0fd-9f6f06b1cf26","ios":"levelo://app?vid=ad3b65c6-e50e-4cff-b0fd-9f6f06b1cf26"},"vehicle_type_id":"4","last_reported":1756469979,"current_range_meters":16000,"station_id":"","pricing_plan_id":"cebpf4jnsgd1na2vs0mg"},{"bike_id":"7462d663-36c2-4cb8-9995-06037a114314","system_id":"levelo_inurba_marseille","lat":43.3315,"lon":5.38167,"is_reserved":false,"is_disabled":false,"rental_uris":{"android":"levelo://app?vid=7462d663-36c2-4cb8-9995-06037a114314","ios":"levelo://app?vid=7462d663-36c2-4cb8-9995-06037a114314"},"vehicle_type_id":"4","last_reported":1756469979,"current_range_meters":16000,"station_id":"","pricing_plan_id":"cebpf4jnsgd1na2vs0mg"},{"bike_id":"e66b3941-edc1-47d2-a508-6af05bed5109","system_id":"levelo_inurba_marseille","lat":43.22533,"lon":5.34831,"is_reserved":false,"is_disabled":false,"rental_uris":{"android":"levelo://app?vid=e66b3941-edc1-47d2-a508-6af05bed5109","ios":"levelo://app?vid=e66b3941-edc1-47d2-a508-6af05bed5109"},"vehicle_type_id":"4","last_reported":1756469979,"current_range_meters":16000,"station_id":"","pricing_plan_id":"cebpf4jnsgd1na2vs0mg"},{"bike_id":"4a69a243-ebe8-4886-9396-b4e710d1f930","system_id":"levelo_inurba_marseille","lat":43.28703,"lon":5.37922,"is_reserved":false,"is_disabled":false,"rental_uris":{"android":"levelo://app?vid=4a69a243-ebe8-4886-9396-b4e710d1f930","ios":"levelo://app?vid=4a69a243-ebe8-4886-9396-b4e710d1f930"},"vehicle_type_id":"4","last_reported":1756469979,"current_range_meters":16000,"station_id":"ce4bh9p2rcd13ifvqec0","pricing_plan_id":"cebpf4jnsgd1na2vs0mg"},{"bike_id":"5b064a53-e079-4430-8825-152cf4e0210b","system_id":"levelo_inurba_marseille","lat":43.28612,"lon":5.35105,"is_reserved":false,"is_disabled":false,"rental_uris":{"android":"levelo://app?vid=5b064a53-e079-4430-8825-152cf4e0210b","ios":"levelo://app?vid=5b064a53-e079-4430-8825-152cf4e0210b"},"vehicle_type_id":"4","last_reported":1756469979,"current_range_meters":16000,"station_id":"ce4bhch2rcd13ifvqeug","pricing_plan_id":"cebpf4jnsgd1na2vs0mg"},{"bike_id":"edc44cda-5b73-45a6-83d6-10f761170ce3","system_id":"levelo_inurba_marseille","lat":43.2256,"lon":5.41623,"is_reserved":false,"is_disabled":false,"rental_uris":{"android":"levelo://app?vid=edc44cda-5b73-45a6-83d6-10f761170ce3","ios":"levelo://app?vid=edc44cda-5b73-45a6-83d6-10f761170ce3"},"vehicle_type_id":"4","last_reported":1756469979,"current_range_meters":16000,"station_id":"st_d2o4gvlbi1j2169b742g","pricing_plan_id":"cebpf4jnsgd1na2vs0mg"},{"bike_id":"94469496-96ae-450e-adaf-a7663bfd0e82","system_id":"levelo_inurba_marseille","lat":43.33758,"lon":5.37495,"is_reserved":false,"is_disabled":false,"rental_uris":{"android":"levelo://app?vid=94469496-96ae-450e-adaf-a7663bfd0e82","ios":"levelo://app?vid=94469496-96ae-450e-adaf-a7663bfd0e82"},"vehicle_type_id":"4","last_reported":1756469979,"current_range_meters":16400,"station_id":"","pricing_plan_id":"cebpf4jnsgd1na2vs0mg"},{"bike_id":"da50ac0f-a585-482d-bd36-78b481e037ee","system_id":"levelo_inurba_marseille","lat":43.30139,"lon":5.37403,"is_reserved":false,"is_disabled":false,"rental_uris":{"android":"levelo://app?vid=da50ac0f-a585-482d-bd36-78b481e037ee","ios":"levelo://app?vid=da50ac0f-a585-482d-bd36-78b481e037ee"},"vehicle_type_id":"4","last_reported":1756469979,"current_range_meters":16400,"station_id":"ce4bgs92rcd13ifvqcc0","pricing_plan_id":"cebpf4jnsgd1na2vs0mg"},{"bike_id":"78778518-8cc1-405e-b363-7f91ac292b57","system_id":"levelo_inurba_marseille","lat":43.28405,"lon":5.34994,"is_reserved":false,"is_disabled":false,"rental_uris":{"android":"levelo://app?vid=78778518-8cc1-405e-b363-7f91ac292b57","ios":"levelo://app?vid=78778518-8cc1-405e-b363-7f91ac292b57"},"vehicle_type_id":"4","last_reported":1756469979,"current_range_meters":16400,"station_id":"ce4bhbh2rcd13ifvqepg","pricing_plan_id":"cebpf4jnsgd1na2vs0mg"},{"bike_id":"21470764-19cc-4f8a-9c1b-ba7d5818fb4d","system_id":"levelo_inurba_marseille","lat":43.2558,"lon":5.38228,"is_reserved":false,"is_disabled":false,"rental_uris":{"android":"levelo://app?vid=21470764-19cc-4f8a-9c1b-ba7d5818fb4d","ios":"levelo://app?vid=21470764-19cc-4f8a-9c1b-ba7d5818fb4d"},"vehicle_type_id":"4","last_reported":1756469979,"current_range_meters":16400,"station_id":"ce4bhih2rcd13ifvqfs0","pricing_plan_id":"cebpf4jnsgd1na2vs0mg"},{"bike_id":"258158f0-e507-44cf-9ba0-0bacc9740d7a","system_id":"levelo_inurba_marseille","lat":43.253354,"lon":5.421735,"is_reserved":false,"is_disabled":false,"rental_uris":{"android":"levelo://app?vid=258158f0-e507-44cf-9ba0-0bacc9740d7a","ios":"levelo://app?vid=258158f0-e507-44cf-9ba0-0bacc9740d7a"},"vehicle_type_id":"4","last_reported":1756469979,"current_range_meters":16400,"station_id":"st_d2m65c5bi1j21697t3ng","pricing_plan_id":"cebpf4jnsgd1na2vs0mg"},{"bike_id":"319ad6b8-af52-4d12-880e-1720f26f2b83","system_id":"levelo_inurba_marseille","lat":43.30556,"lon":5.36712,"is_reserved":false,"is_disabled":false,"rental_uris":{"android":"levelo://app?vid=319ad6b8-af52-4d12-880e-1720f26f2b83","ios":"levelo://app?vid=319ad6b8-af52-4d12-880e-1720f26f2b83"},"vehicle_type_id":"4","last_reported":1756469979,"current_range_meters":16800,"station_id":"ce4bgrp2rcd13ifvqc9g","pricing_plan_id":"cebpf4jnsgd1na2vs0mg"},{"bike_id":"9265c404-f4ad-49eb-87ad-bc3a26585f56","system_id":"levelo_inurba_marseille","lat":43.284907,"lon":5.385639,"is_reserved":false,"is_disabled":false,"rental_uris":{"android":"levelo://app?vid=9265c404-f4ad-49eb-87ad-bc3a26585f56","ios":"levelo://app?vid=9265c404-f4ad-49eb-87ad-bc3a26585f56"},"vehicle_type_id":"4","last_reported":1756469979,"current_range_meters":16800,"station_id":"ce4bh8p2rcd13ifvqeb0","pricing_plan_id":"cebpf4jnsgd1na2vs0mg"},{"bike_id":"0ad7de18-d42b-402d-a20e-fbfc6a9e1ce1","system_id":"levelo_inurba_marseille","lat":43.25868,"lon":5.399,"is_reserved":false,"is_disabled":false,"rental_uris":{"android":"levelo://app?vid=0ad7de18-d42b-402d-a20e-fbfc6a9e1ce1","ios":"levelo://app?vid=0ad7de18-d42b-402d-a20e-fbfc6a9e1ce1"},"vehicle_type_id":"4","last_reported":1756469979,"current_range_meters":16800,"station_id":"ce4bhl92rcd13ifvqghg","pricing_plan_id":"cebpf4jnsgd1na2vs0mg"},{"bike_id":"233ce54d-453b-4be7-81f9-eb852f571988","system_id":"levelo_inurba_marseille","lat":43.2596,"lon":5.4089,"is_reserved":false,"is_disabled":false,"rental_uris":{"android":"levelo://app?vid=233ce54d-453b-4be7-81f9-eb852f571988","ios":"levelo://app?vid=233ce54d-453b-4be7-81f9-eb852f571988"},"vehicle_type_id":"4","last_reported":1756469979,"current_range_meters":16800,"station_id":"ce4bhm92rcd13ifvqglg","pricing_plan_id":"cebpf4jnsgd1na2vs0mg"},{"bike_id":"7b671a45-09dc-466f-be3d-004c79d50633","system_id":"levelo_inurba_marseille","lat":43.23148,"lon":5.43707,"is_reserved":false,"is_disabled":false,"rental_uris":{"android":"levelo://app?vid=7b671a45-09dc-466f-be3d-004c79d50633","ios":"levelo://app?vid=7b671a45-09dc-466f-be3d-004c79d50633"},"vehicle_type_id":"4","last_reported":1756469979,"current_range_meters":16800,"station_id":"ce4bhmp2rcd13ifvqgog","pricing_plan_id":"cebpf4jnsgd1na2vs0mg"},{"bike_id":"be56a579-3870-4545-85bd-dad43950a1f0","system_id":"levelo_inurba_marseille","lat":43.281385,"lon":5.426575,"is_reserved":false,"is_disabled":false,"rental_uris":{"android":"levelo://app?vid=be56a579-3870-4545-85bd-dad43950a1f0","ios":"levelo://app?vid=be56a579-3870-4545-85bd-dad43950a1f0"},"vehicle_type_id":"4","last_reported":1756469979,"current_range_meters":16800,"station_id":"ce4bhnh2rcd13ifvqgug","pricing_plan_id":"cebpf4jnsgd1na2vs0mg"},{"bike_id":"0e16483d-7c29-42d6-90d2-d9cb7ef31592","system_id":"levelo_inurba_marseille","lat":43.32352,"lon":5.36764,"is_reserved":false,"is_disabled":false,"rental_uris":{"android":"levelo://app?vid=0e16483d-7c29-42d6-90d2-d9cb7ef31592","ios":"levelo://app?vid=0e16483d-7c29-42d6-90d2-d9cb7ef31592"},"vehicle_type_id":"4","last_reported":1756469979,"current_range_meters":16800,"station_id":"ce4bhsh2rcd13ifvqi2g","pricing_plan_id":"cebpf4jnsgd1na2vs0mg"},{"bike_id":"2859ae8c-18b6-4d6c-aa83-eb9336e7b92f","system_id":"levelo_inurba_marseille","lat":43.24635,"lon":5.43145,"is_reserved":false,"is_disabled":false,"rental_uris":{"android":"levelo://app?vid=2859ae8c-18b6-4d6c-aa83-eb9336e7b92f","ios":"levelo://app?vid=2859ae8c-18b6-4d6c-aa83-eb9336e7b92f"},"vehicle_type_id":"4","last_reported":1756469979,"current_range_meters":16800,"station_id":"st_d2m6c4gdas8pm72e190g","pricing_plan_id":"cebpf4jnsgd1na2vs0mg"},{"bike_id":"801822fd-7609-4ddf-88f5-96343afc30d6","system_id":"levelo_inurba_marseille","lat":43.28414,"lon":5.34979,"is_reserved":false,"is_disabled":false,"rental_uris":{"android":"levelo://app?vid=801822fd-7609-4ddf-88f5-96343afc30d6","ios":"levelo://app?vid=801822fd-7609-4ddf-88f5-96343afc30d6"},"vehicle_type_id":"4","last_reported":1756469979,"current_range_meters":17200,"station_id":"ce4bhbh2rcd13ifvqepg","pricing_plan_id":"cebpf4jnsgd1na2vs0mg"},{"bike_id":"cdd15ea5-2f46-4882-8224-a7ac61a1eeb8","system_id":"levelo_inurba_marseille","lat":43.28418,"lon":5.34987,"is_reserved":false,"is_disabled":false,"rental_uris":{"android":"levelo://app?vid=cdd15ea5-2f46-4882-8224-a7ac61a1eeb8","ios":"levelo://app?vid=cdd15ea5-2f46-4882-8224-a7ac61a1eeb8"},"vehicle_type_id":"4","last_reported":1756469979,"current_range_meters":17200,"station_id":"ce4bhbh2rcd13ifvqepg","pricing_plan_id":"cebpf4jnsgd1na2vs0mg"},{"bike_id":"26f1cba0-1be8-4537-b778-0edd0b800580","system_id":"levelo_inurba_marseille","lat":43.2466,"lon":5.38163,"is_reserved":false,"is_disabled":false,"rental_uris":{"android":"levelo://app?vid=26f1cba0-1be8-4537-b778-0edd0b800580","ios":"levelo://app?vid=26f1cba0-1be8-4537-b778-0edd0b800580"},"vehicle_type_id":"4","last_reported":1756469979,"current_range_meters":17200,"station_id":"ce4bhih2rcd13ifvqfr0","pricing_plan_id":"cebpf4jnsgd1na2vs0mg"},{"bike_id":"66fede0c-7dce-451e-9da2-40306588627d","system_id":"levelo_inurba_marseille","lat":43.2595,"lon":5.40867,"is_reserved":false,"is_disabled":false,"rental_uris":{"android":"levelo://app?vid=66fede0c-7dce-451e-9da2-40306588627d","ios":"levelo://app?vid=66fede0c-7dce-451e-9da2-40306588627d"},"vehicle_type_id":"4","last_reported":1756469979,"current_range_meters":17200,"station_id":"ce4bhm92rcd13ifvqglg","pricing_plan_id":"cebpf4jnsgd1na2vs0mg"},{"bike_id":"30299ad2-46a4-4821-bfbf-3ae4376ad74a","system_id":"levelo_inurba_marseille","lat":43.32118,"lon":5.3677,"is_reserved":false,"is_disabled":false,"rental_uris":{"android":"levelo://app?vid=30299ad2-46a4-4821-bfbf-3ae4376ad74a","ios":"levelo://app?vid=30299ad2-46a4-4821-bfbf-3ae4376ad74a"},"vehicle_type_id":"4","last_reported":1756469979,"current_range_meters":17200,"station_id":"ce4bhrh2rcd13ifvqhug","pricing_plan_id":"cebpf4jnsgd1na2vs0mg"},{"bike_id":"b072808b-3bfb-4475-976b-948a3c8fe49d","system_id":"levelo_inurba_marseille","lat":43.32474,"lon":5.36571,"is_reserved":false,"is_disabled":false,"rental_uris":{"android":"levelo://app?vid=b072808b-3bfb-4475-976b-948a3c8fe49d","ios":"levelo://app?vid=b072808b-3bfb-4475-976b-948a3c8fe49d"},"vehicle_type_id":"4","last_reported":1756469979,"current_range_meters":17200,"station_id":"ce4bhs12rcd13ifvqhvg","pricing_plan_id":"cebpf4jnsgd1na2vs0mg"},{"bike_id":"b7f376ed-6ad6-4bab-a0bc-ce30b84d7a4e","system_id":"levelo_inurba_marseille","lat":43.2119,"lon":5.35084,"is_reserved":false,"is_disabled":false,"rental_uris":{"android":"levelo://app?vid=b7f376ed-6ad6-4bab-a0bc-ce30b84d7a4e","ios":"levelo://app?vid=b7f376ed-6ad6-4bab-a0bc-ce30b84d7a4e"},"vehicle_type_id":"4","last_reported":1756469979,"current_range_meters":17200,"station_id":"st_cvj6sg6p6f1abm77japg","pricing_plan_id":"cebpf4jnsgd1na2vs0mg"},{"bike_id":"c0881cb5-357f-468d-a3c1-b313679c3509","system_id":"levelo_inurba_marseille","lat":43.337671,"lon":5.374507,"is_reserved":false,"is_disabled":false,"rental_uris":{"android":"levelo://app?vid=c0881cb5-357f-468d-a3c1-b313679c3509","ios":"levelo://app?vid=c0881cb5-357f-468d-a3c1-b313679c3509"},"vehicle_type_id":"4","last_reported":1756469979,"current_range_meters":17600,"station_id":"","pricing_plan_id":"cebpf4jnsgd1na2vs0mg"},{"bike_id":"f9a9ac4d-319f-4a45-814f-397625905680","system_id":"levelo_inurba_marseille","lat":43.21784,"lon":5.34605,"is_reserved":false,"is_disabled":false,"rental_uris":{"android":"levelo://app?vid=f9a9ac4d-319f-4a45-814f-397625905680","ios":"levelo://app?vid=f9a9ac4d-319f-4a45-814f-397625905680"},"vehicle_type_id":"4","last_reported":1756469979,"current_range_meters":17600,"station_id":"","pricing_plan_id":"cebpf4jnsgd1na2vs0mg"},{"bike_id":"850536fb-9abd-4a2a-8ec8-c20a679fb36a","system_id":"levelo_inurba_marseille","lat":43.27616,"lon":5.36111,"is_reserved":false,"is_disabled":false,"rental_uris":{"android":"levelo://app?vid=850536fb-9abd-4a2a-8ec8-c20a679fb36a","ios":"levelo://app?vid=850536fb-9abd-4a2a-8ec8-c20a679fb36a"},"vehicle_type_id":"4","last_reported":1756469979,"current_range_meters":17600,"station_id":"ce4bgj92rcd13ifvqbe0","pricing_plan_id":"cebpf4jnsgd1na2vs0mg"},{"bike_id":"b7334faf-f3b8-448b-9568-b921a0e48879","system_id":"levelo_inurba_marseille","lat":43.28428,"lon":5.35006,"is_reserved":false,"is_disabled":false,"rental_uris":{"android":"levelo://app?vid=b7334faf-f3b8-448b-9568-b921a0e48879","ios":"levelo://app?vid=b7334faf-f3b8-448b-9568-b921a0e48879"},"vehicle_type_id":"4","last_reported":1756469979,"current_range_meters":17600,"station_id":"ce4bhbh2rcd13ifvqepg","pricing_plan_id":"cebpf4jnsgd1na2vs0mg"},{"bike_id":"e551fc0e-fb0b-45d2-be28-bbf224471ff3","system_id":"levelo_inurba_marseille","lat":43.23963,"lon":5.36637,"is_reserved":false,"is_disabled":false,"rental_uris":{"android":"levelo://app?vid=e551fc0e-fb0b-45d2-be28-bbf224471ff3","ios":"levelo://app?vid=e551fc0e-fb0b-45d2-be28-bbf224471ff3"},"vehicle_type_id":"4","last_reported":1756469979,"current_range_meters":17600,"station_id":"ce4bhi12rcd13ifvqfp0","pricing_plan_id":"cebpf4jnsgd1na2vs0mg"},{"bike_id":"93cc04ec-00cd-4c5a-9919-841c31df513d","system_id":"levelo_inurba_marseille","lat":43.258284,"lon":5.39423,"is_reserved":false,"is_disabled":false,"rental_uris":{"android":"levelo://app?vid=93cc04ec-00cd-4c5a-9919-841c31df513d","ios":"levelo://app?vid=93cc04ec-00cd-4c5a-9919-841c31df513d"},"vehicle_type_id":"4","last_reported":1756469979,"current_range_meters":17600,"station_id":"ce4bhip2rcd13ifvqft0","pricing_plan_id":"cebpf4jnsgd1na2vs0mg"},{"bike_id":"e98f14db-e9bd-42cc-9e12-3a1a8931226f","system_id":"levelo_inurba_marseille","lat":43.25728,"lon":5.41096,"is_reserved":false,"is_disabled":false,"rental_uris":{"android":"levelo://app?vid=e98f14db-e9bd-42cc-9e12-3a1a8931226f","ios":"levelo://app?vid=e98f14db-e9bd-42cc-9e12-3a1a8931226f"},"vehicle_type_id":"4","last_reported":1756469979,"current_range_meters":17600,"station_id":"ce4bhkp2rcd13ifvqgd0","pricing_plan_id":"cebpf4jnsgd1na2vs0mg"},{"bike_id":"59521d5b-78d8-4d56-91a3-95a35d06475c","system_id":"levelo_inurba_marseille","lat":43.22532,"lon":5.34841,"is_reserved":false,"is_disabled":false,"rental_uris":{"android":"levelo://app?vid=59521d5b-78d8-4d56-91a3-95a35d06475c","ios":"levelo://app?vid=59521d5b-78d8-4d56-91a3-95a35d06475c"},"vehicle_type_id":"4","last_reported":1756469979,"current_range_meters":17600,"station_id":"st_cvj5dfep6f1abm77gieg","pricing_plan_id":"cebpf4jnsgd1na2vs0mg"},{"bike_id":"85b87efe-9880-42cc-892f-cc850ced9bd0","system_id":"levelo_inurba_marseille","lat":43.21756,"lon":5.34592,"is_reserved":false,"is_disabled":false,"rental_uris":{"android":"levelo://app?vid=85b87efe-9880-42cc-892f-cc850ced9bd0","ios":"levelo://app?vid=85b87efe-9880-42cc-892f-cc850ced9bd0"},"vehicle_type_id":"4","last_reported":1756469979,"current_range_meters":17600,"station_id":"st_cvj6r9ubvosntc0bgbag","pricing_plan_id":"cebpf4jnsgd1na2vs0mg"},{"bike_id":"c821426f-b74a-4110-b371-84f0ef279375","system_id":"levelo_inurba_marseille","lat":43.31818,"lon":5.37352,"is_reserved":false,"is_disabled":false,"rental_uris":{"android":"levelo://app?vid=c821426f-b74a-4110-b371-84f0ef279375","ios":"levelo://app?vid=c821426f-b74a-4110-b371-84f0ef279375"},"vehicle_type_id":"4","last_reported":1756469979,"current_range_meters":18000,"station_id":"","pricing_plan_id":"cebpf4jnsgd1na2vs0mg"},{"bike_id":"fc9b7f13-7e12-4e22-a2e9-4d73e71fe40c","system_id":"levelo_inurba_marseille","lat":43.30148,"lon":5.37404,"is_reserved":false,"is_disabled":false,"rental_uris":{"android":"levelo://app?vid=fc9b7f13-7e12-4e22-a2e9-4d73e71fe40c","ios":"levelo://app?vid=fc9b7f13-7e12-4e22-a2e9-4d73e71fe40c"},"vehicle_type_id":"4","last_reported":1756469979,"current_range_meters":18000,"station_id":"","pricing_plan_id":"cebpf4jnsgd1na2vs0mg"},{"bike_id":"c23b83c0-40a3-40d2-9d5a-ffeb9b013795","system_id":"levelo_inurba_marseille","lat":43.24726,"lon":5.37649,"is_reserved":false,"is_disabled":false,"rental_uris":{"android":"levelo://app?vid=c23b83c0-40a3-40d2-9d5a-ffeb9b013795","ios":"levelo://app?vid=c23b83c0-40a3-40d2-9d5a-ffeb9b013795"},"vehicle_type_id":"4","last_reported":1756469979,"current_range_meters":18000,"station_id":"","pricing_plan_id":"cebpf4jnsgd1na2vs0mg"},{"bike_id":"a2ed2697-0db6-42ea-97d1-b5e4b2a41454","system_id":"levelo_inurba_marseille","lat":43.317111,"lon":5.377477,"is_reserved":false,"is_disabled":false,"rental_uris":{"android":"levelo://app?vid=a2ed2697-0db6-42ea-97d1-b5e4b2a41454","ios":"levelo://app?vid=a2ed2697-0db6-42ea-97d1-b5e4b2a41454"},"vehicle_type_id":"4","last_reported":1756469979,"current_range_meters":18000,"station_id":"ce4bgth2rcd13ifvqch0","pricing_plan_id":"cebpf4jnsgd1na2vs0mg"},{"bike_id":"60863403-b289-4c9c-b2d0-3d448abf417f","system_id":"levelo_inurba_marseille","lat":43.28258,"lon":5.35072,"is_reserved":false,"is_disabled":false,"rental_uris":{"android":"levelo://app?vid=60863403-b289-4c9c-b2d0-3d448abf417f","ios":"levelo://app?vid=60863403-b289-4c9c-b2d0-3d448abf417f"},"vehicle_type_id":"4","last_reported":1756469979,"current_range_meters":18000,"station_id":"ce4bhbp2rcd13ifvqerg","pricing_plan_id":"cebpf4jnsgd1na2vs0mg"},{"bike_id":"329cd2e3-3f50-464b-b205-37b738369eeb","system_id":"levelo_inurba_marseille","lat":43.323728,"lon":5.367365,"is_reserved":false,"is_disabled":false,"rental_uris":{"android":"levelo://app?vid=329cd2e3-3f50-464b-b205-37b738369eeb","ios":"levelo://app?vid=329cd2e3-3f50-464b-b205-37b738369eeb"},"vehicle_type_id":"4","last_reported":1756469979,"current_range_meters":18000,"station_id":"ce4bhsh2rcd13ifvqi2g","pricing_plan_id":"cebpf4jnsgd1na2vs0mg"},{"bike_id":"3568c133-6182-4c59-8486-eb2e6cab8363","system_id":"levelo_inurba_marseille","lat":43.21196,"lon":5.35082,"is_reserved":false,"is_disabled":false,"rental_uris":{"android":"levelo://app?vid=3568c133-6182-4c59-8486-eb2e6cab8363","ios":"levelo://app?vid=3568c133-6182-4c59-8486-eb2e6cab8363"},"vehicle_type_id":"4","last_reported":1756469979,"current_range_meters":18000,"station_id":"st_cvj6sg6p6f1abm77japg","pricing_plan_id":"cebpf4jnsgd1na2vs0mg"},{"bike_id":"f81eaaa2-3e93-4c77-b127-1110c927beee","system_id":"levelo_inurba_marseille","lat":43.28847,"lon":5.35759,"is_reserved":false,"is_disabled":false,"rental_uris":{"android":"levelo://app?vid=f81eaaa2-3e93-4c77-b127-1110c927beee","ios":"levelo://app?vid=f81eaaa2-3e93-4c77-b127-1110c927beee"},"vehicle_type_id":"4","last_reported":1756469979,"current_range_meters":18800,"station_id":"","pricing_plan_id":"cebpf4jnsgd1na2vs0mg"},{"bike_id":"b9e64467-d58e-430a-aaf9-334f2da78900","system_id":"levelo_inurba_marseille","lat":43.284826,"lon":5.385669,"is_reserved":false,"is_disabled":false,"rental_uris":{"android":"levelo://app?vid=b9e64467-d58e-430a-aaf9-334f2da78900","ios":"levelo://app?vid=b9e64467-d58e-430a-aaf9-334f2da78900"},"vehicle_type_id":"4","last_reported":1756469979,"current_range_meters":18800,"station_id":"ce4bh8p2rcd13ifvqeb0","pricing_plan_id":"cebpf4jnsgd1na2vs0mg"},{"bike_id":"4040db22-9c50-4856-839c-7bfd3bdea085","system_id":"levelo_inurba_marseille","lat":43.28405,"lon":5.34981,"is_reserved":false,"is_disabled":false,"rental_uris":{"android":"levelo://app?vid=4040db22-9c50-4856-839c-7bfd3bdea085","ios":"levelo://app?vid=4040db22-9c50-4856-839c-7bfd3bdea085"},"vehicle_type_id":"4","last_reported":1756469979,"current_range_meters":18800,"station_id":"ce4bhbh2rcd13ifvqepg","pricing_plan_id":"cebpf4jnsgd1na2vs0mg"},{"bike_id":"b9ebb1f7-b5f7-4fe9-8574-9b05344be7d5","system_id":"levelo_inurba_marseille","lat":43.28414,"lon":5.3501,"is_reserved":false,"is_disabled":false,"rental_uris":{"android":"levelo://app?vid=b9ebb1f7-b5f7-4fe9-8574-9b05344be7d5","ios":"levelo://app?vid=b9ebb1f7-b5f7-4fe9-8574-9b05344be7d5"},"vehicle_type_id":"4","last_reported":1756469979,"current_range_meters":18800,"station_id":"ce4bhbh2rcd13ifvqepg","pricing_plan_id":"cebpf4jnsgd1na2vs0mg"},{"bike_id":"2615933f-2601-429f-b7e2-f4caf5921a92","system_id":"levelo_inurba_marseille","lat":43.24396,"lon":5.37058,"is_reserved":false,"is_disabled":false,"rental_uris":{"android":"levelo://app?vid=2615933f-2601-429f-b7e2-f4caf5921a92","ios":"levelo://app?vid=2615933f-2601-429f-b7e2-f4caf5921a92"},"vehicle_type_id":"4","last_reported":1756469979,"current_range_meters":18800,"station_id":"ce4bhhh2rcd13ifvqfk0","pricing_plan_id":"cebpf4jnsgd1na2vs0mg"},{"bike_id":"ec628058-d969-44c5-837e-24508f6409d5","system_id":"levelo_inurba_marseille","lat":43.23966,"lon":5.36641,"is_reserved":false,"is_disabled":false,"rental_uris":{"android":"levelo://app?vid=ec628058-d969-44c5-837e-24508f6409d5","ios":"levelo://app?vid=ec628058-d969-44c5-837e-24508f6409d5"},"vehicle_type_id":"4","last_reported":1756469979,"current_range_meters":18800,"station_id":"ce4bhi12rcd13ifvqfp0","pricing_plan_id":"cebpf4jnsgd1na2vs0mg"},{"bike_id":"747cfe45-709e-4bd3-b7fb-fe5a588bca37","system_id":"levelo_inurba_marseille","lat":43.26487,"lon":5.39547,"is_reserved":false,"is_disabled":false,"rental_uris":{"android":"levelo://app?vid=747cfe45-709e-4bd3-b7fb-fe5a588bca37","ios":"levelo://app?vid=747cfe45-709e-4bd3-b7fb-fe5a588bca37"},"vehicle_type_id":"4","last_reported":1756469979,"current_range_meters":18800,"station_id":"ce4bhi12rcd13ifvqfq0","pricing_plan_id":"cebpf4jnsgd1na2vs0mg"},{"bike_id":"de56a6ed-197b-4141-bdca-e04b68b822ba","system_id":"levelo_inurba_marseille","lat":43.25822,"lon":5.39435,"is_reserved":false,"is_disabled":false,"rental_uris":{"android":"levelo://app?vid=de56a6ed-197b-4141-bdca-e04b68b822ba","ios":"levelo://app?vid=de56a6ed-197b-4141-bdca-e04b68b822ba"},"vehicle_type_id":"4","last_reported":1756469979,"current_range_meters":18800,"station_id":"ce4bhip2rcd13ifvqft0","pricing_plan_id":"cebpf4jnsgd1na2vs0mg"},{"bike_id":"27929178-4d90-4b01-bb2a-e4db1c2cf3b2","system_id":"levelo_inurba_marseille","lat":43.21744,"lon":5.346028,"is_reserved":false,"is_disabled":false,"rental_uris":{"android":"levelo://app?vid=27929178-4d90-4b01-bb2a-e4db1c2cf3b2","ios":"levelo://app?vid=27929178-4d90-4b01-bb2a-e4db1c2cf3b2"},"vehicle_type_id":"4","last_reported":1756469979,"current_range_meters":18800,"station_id":"st_cvj6r9ubvosntc0bgbag","pricing_plan_id":"cebpf4jnsgd1na2vs0mg"},{"bike_id":"d749e58c-2ad3-4c95-abcb-8f3e9e93cce6","system_id":"levelo_inurba_marseille","lat":43.21182,"lon":5.35068,"is_reserved":false,"is_disabled":false,"rental_uris":{"android":"levelo://app?vid=d749e58c-2ad3-4c95-abcb-8f3e9e93cce6","ios":"levelo://app?vid=d749e58c-2ad3-4c95-abcb-8f3e9e93cce6"},"vehicle_type_id":"4","last_reported":1756469979,"current_range_meters":18800,"station_id":"st_cvj6sg6p6f1abm77japg","pricing_plan_id":"cebpf4jnsgd1na2vs0mg"},{"bike_id":"f9ae6c14-cd03-4c62-b600-9d6cc2d50a4c","system_id":"levelo_inurba_marseille","lat":43.28341,"lon":5.408056,"is_reserved":false,"is_disabled":false,"rental_uris":{"android":"levelo://app?vid=f9ae6c14-cd03-4c62-b600-9d6cc2d50a4c","ios":"levelo://app?vid=f9ae6c14-cd03-4c62-b600-9d6cc2d50a4c"},"vehicle_type_id":"4","last_reported":1756469979,"current_range_meters":19200,"station_id":"","pricing_plan_id":"cebpf4jnsgd1na2vs0mg"},{"bike_id":"91e577f9-80d9-4b72-8281-f7f6e912f554","system_id":"levelo_inurba_marseille","lat":43.25656,"lon":5.38252,"is_reserved":false,"is_disabled":false,"rental_uris":{"android":"levelo://app?vid=91e577f9-80d9-4b72-8281-f7f6e912f554","ios":"levelo://app?vid=91e577f9-80d9-4b72-8281-f7f6e912f554"},"vehicle_type_id":"4","last_reported":1756469979,"current_range_meters":19200,"station_id":"ce4bhih2rcd13ifvqfs0","pricing_plan_id":"cebpf4jnsgd1na2vs0mg"},{"bike_id":"f1fbb265-fe65-4215-a98a-21daf0a7df7c","system_id":"levelo_inurba_marseille","lat":43.240737,"lon":5.377601,"is_reserved":false,"is_disabled":false,"rental_uris":{"android":"levelo://app?vid=f1fbb265-fe65-4215-a98a-21daf0a7df7c","ios":"levelo://app?vid=f1fbb265-fe65-4215-a98a-21daf0a7df7c"},"vehicle_type_id":"4","last_reported":1756469979,"current_range_meters":19200,"station_id":"ce4bhnp2rcd13ifvqgvg","pricing_plan_id":"cebpf4jnsgd1na2vs0mg"},{"bike_id":"05955278-86d9-47b6-8d3a-f6df9e3a30d4","system_id":"levelo_inurba_marseille","lat":43.32096,"lon":5.3678,"is_reserved":false,"is_disabled":false,"rental_uris":{"android":"levelo://app?vid=05955278-86d9-47b6-8d3a-f6df9e3a30d4","ios":"levelo://app?vid=05955278-86d9-47b6-8d3a-f6df9e3a30d4"},"vehicle_type_id":"4","last_reported":1756469979,"current_range_meters":19200,"station_id":"ce4bhrh2rcd13ifvqhug","pricing_plan_id":"cebpf4jnsgd1na2vs0mg"},{"bike_id":"b37b7c9b-2a9d-4a8e-b926-550cdf908cdd","system_id":"levelo_inurba_marseille","lat":43.24167,"lon":5.3639,"is_reserved":false,"is_disabled":false,"rental_uris":{"android":"levelo://app?vid=b37b7c9b-2a9d-4a8e-b926-550cdf908cdd","ios":"levelo://app?vid=b37b7c9b-2a9d-4a8e-b926-550cdf908cdd"},"vehicle_type_id":"4","last_reported":1756469979,"current_range_meters":19200,"station_id":"cpo36qri1sfpv3e86is0","pricing_plan_id":"cebpf4jnsgd1na2vs0mg"},{"bike_id":"90f389e7-28d7-429a-9e07-12c38804e3a5","system_id":"levelo_inurba_marseille","lat":43.24181,"lon":5.36417,"is_reserved":false,"is_disabled":false,"rental_uris":{"android":"levelo://app?vid=90f389e7-28d7-429a-9e07-12c38804e3a5","ios":"levelo://app?vid=90f389e7-28d7-429a-9e07-12c38804e3a5"},"vehicle_type_id":"4","last_reported":1756469979,"current_range_meters":19200,"station_id":"cpo36qri1sfpv3e86is0","pricing_plan_id":"cebpf4jnsgd1na2vs0mg"},{"bike_id":"8435bb2b-2ad9-43a4-abd1-2def052f85e8","system_id":"levelo_inurba_marseille","lat":43.21755,"lon":5.34599,"is_reserved":false,"is_disabled":false,"rental_uris":{"android":"levelo://app?vid=8435bb2b-2ad9-43a4-abd1-2def052f85e8","ios":"levelo://app?vid=8435bb2b-2ad9-43a4-abd1-2def052f85e8"},"vehicle_type_id":"4","last_reported":1756469979,"current_range_meters":19200,"station_id":"st_cvj6r9ubvosntc0bgbag","pricing_plan_id":"cebpf4jnsgd1na2vs0mg"},{"bike_id":"e9cb6436-0428-41b2-925a-cf5b31128397","system_id":"levelo_inurba_marseille","lat":43.32841,"lon":5.391445,"is_reserved":false,"is_disabled":false,"rental_uris":{"android":"levelo://app?vid=e9cb6436-0428-41b2-925a-cf5b31128397","ios":"levelo://app?vid=e9cb6436-0428-41b2-925a-cf5b31128397"},"vehicle_type_id":"4","last_reported":1756469979,"current_range_meters":19600,"station_id":"","pricing_plan_id":"cebpf4jnsgd1na2vs0mg"},{"bike_id":"e0b4c03b-1691-4b36-9ebc-35fa149798e4","system_id":"levelo_inurba_marseille","lat":43.337718,"lon":5.374384,"is_reserved":false,"is_disabled":false,"rental_uris":{"android":"levelo://app?vid=e0b4c03b-1691-4b36-9ebc-35fa149798e4","ios":"levelo://app?vid=e0b4c03b-1691-4b36-9ebc-35fa149798e4"},"vehicle_type_id":"4","last_reported":1756469979,"current_range_meters":19600,"station_id":"","pricing_plan_id":"cebpf4jnsgd1na2vs0mg"},{"bike_id":"cbeb5191-1a50-4bcf-84b3-54f1b20400d7","system_id":"levelo_inurba_marseille","lat":43.30077,"lon":5.36388,"is_reserved":false,"is_disabled":false,"rental_uris":{"android":"levelo://app?vid=cbeb5191-1a50-4bcf-84b3-54f1b20400d7","ios":"levelo://app?vid=cbeb5191-1a50-4bcf-84b3-54f1b20400d7"},"vehicle_type_id":"4","last_reported":1756469979,"current_range_meters":19600,"station_id":"","pricing_plan_id":"cebpf4jnsgd1na2vs0mg"},{"bike_id":"66ab05e3-5fb4-49ea-9d40-847222fed897","system_id":"levelo_inurba_marseille","lat":43.225284,"lon":5.348295,"is_reserved":false,"is_disabled":false,"rental_uris":{"android":"levelo://app?vid=66ab05e3-5fb4-49ea-9d40-847222fed897","ios":"levelo://app?vid=66ab05e3-5fb4-49ea-9d40-847222fed897"},"vehicle_type_id":"4","last_reported":1756469979,"current_range_meters":19600,"station_id":"","pricing_plan_id":"cebpf4jnsgd1na2vs0mg"},{"bike_id":"08fedd38-a7cf-43c2-bf8d-ef1f1652bf27","system_id":"levelo_inurba_marseille","lat":43.28845,"lon":5.39334,"is_reserved":false,"is_disabled":false,"rental_uris":{"android":"levelo://app?vid=08fedd38-a7cf-43c2-bf8d-ef1f1652bf27","ios":"levelo://app?vid=08fedd38-a7cf-43c2-bf8d-ef1f1652bf27"},"vehicle_type_id":"4","last_reported":1756469979,"current_range_meters":19600,"station_id":"ce4bh2p2rcd13ifvqdi0","pricing_plan_id":"cebpf4jnsgd1na2vs0mg"},{"bike_id":"37e18486-81d7-4abd-9f5c-1da572297c85","system_id":"levelo_inurba_marseille","lat":43.23162,"lon":5.43716,"is_reserved":false,"is_disabled":false,"rental_uris":{"android":"levelo://app?vid=37e18486-81d7-4abd-9f5c-1da572297c85","ios":"levelo://app?vid=37e18486-81d7-4abd-9f5c-1da572297c85"},"vehicle_type_id":"4","last_reported":1756469979,"current_range_meters":19600,"station_id":"ce4bhmp2rcd13ifvqgog","pricing_plan_id":"cebpf4jnsgd1na2vs0mg"},{"bike_id":"b50f3954-3898-4748-8758-99135309ca63","system_id":"levelo_inurba_marseille","lat":43.29802,"lon":5.40416,"is_reserved":false,"is_disabled":false,"rental_uris":{"android":"levelo://app?vid=b50f3954-3898-4748-8758-99135309ca63","ios":"levelo://app?vid=b50f3954-3898-4748-8758-99135309ca63"},"vehicle_type_id":"4","last_reported":1756469979,"current_range_meters":20000,"station_id":"","pricing_plan_id":"cebpf4jnsgd1na2vs0mg"},{"bike_id":"23af4594-33fc-484d-9a8d-fea99108887c","system_id":"levelo_inurba_marseille","lat":43.31345,"lon":5.3672,"is_reserved":false,"is_disabled":false,"rental_uris":{"android":"levelo://app?vid=23af4594-33fc-484d-9a8d-fea99108887c","ios":"levelo://app?vid=23af4594-33fc-484d-9a8d-fea99108887c"},"vehicle_type_id":"4","last_reported":1756469979,"current_range_meters":20000,"station_id":"ce4bgr92rcd13ifvqc6g","pricing_plan_id":"cebpf4jnsgd1na2vs0mg"},{"bike_id":"e6ffc8b3-b35f-4f15-b609-6d9d29140776","system_id":"levelo_inurba_marseille","lat":43.29256,"lon":5.40896,"is_reserved":false,"is_disabled":false,"rental_uris":{"android":"levelo://app?vid=e6ffc8b3-b35f-4f15-b609-6d9d29140776","ios":"levelo://app?vid=e6ffc8b3-b35f-4f15-b609-6d9d29140776"},"vehicle_type_id":"4","last_reported":1756469979,"current_range_meters":20000,"station_id":"ce4bh192rcd13ifvqdc0","pricing_plan_id":"cebpf4jnsgd1na2vs0mg"},{"bike_id":"3d490a42-9f5a-4256-ad67-1fc2a0a64a38","system_id":"levelo_inurba_marseille","lat":43.23961,"lon":5.3664,"is_reserved":false,"is_disabled":false,"rental_uris":{"android":"levelo://app?vid=3d490a42-9f5a-4256-ad67-1fc2a0a64a38","ios":"levelo://app?vid=3d490a42-9f5a-4256-ad67-1fc2a0a64a38"},"vehicle_type_id":"4","last_reported":1756469979,"current_range_meters":20000,"station_id":"ce4bhi12rcd13ifvqfp0","pricing_plan_id":"cebpf4jnsgd1na2vs0mg"},{"bike_id":"4a60f2b9-e5c0-4ac3-9bb5-a27294d14e9b","system_id":"levelo_inurba_marseille","lat":43.24084,"lon":5.37753,"is_reserved":false,"is_disabled":false,"rental_uris":{"android":"levelo://app?vid=4a60f2b9-e5c0-4ac3-9bb5-a27294d14e9b","ios":"levelo://app?vid=4a60f2b9-e5c0-4ac3-9bb5-a27294d14e9b"},"vehicle_type_id":"4","last_reported":1756469979,"current_range_meters":20000,"station_id":"ce4bhnp2rcd13ifvqgvg","pricing_plan_id":"cebpf4jnsgd1na2vs0mg"},{"bike_id":"029d0bb6-0710-49d0-b018-b956f92713b6","system_id":"levelo_inurba_marseille","lat":43.2822,"lon":5.42746,"is_reserved":false,"is_disabled":false,"rental_uris":{"android":"levelo://app?vid=029d0bb6-0710-49d0-b018-b956f92713b6","ios":"levelo://app?vid=029d0bb6-0710-49d0-b018-b956f92713b6"},"vehicle_type_id":"4","last_reported":1756469979,"current_range_meters":20400,"station_id":"","pricing_plan_id":"cebpf4jnsgd1na2vs0mg"},{"bike_id":"9f19a926-3b3b-48d6-9b41-2aa58f711051","system_id":"levelo_inurba_marseille","lat":43.28836,"lon":5.35773,"is_reserved":false,"is_disabled":false,"rental_uris":{"android":"levelo://app?vid=9f19a926-3b3b-48d6-9b41-2aa58f711051","ios":"levelo://app?vid=9f19a926-3b3b-48d6-9b41-2aa58f711051"},"vehicle_type_id":"4","last_reported":1756469979,"current_range_meters":20400,"station_id":"","pricing_plan_id":"cebpf4jnsgd1na2vs0mg"},{"bike_id":"2e4fe2b1-44bc-454c-bb1d-452b53653e2e","system_id":"levelo_inurba_marseille","lat":43.28939,"lon":5.3664,"is_reserved":false,"is_disabled":false,"rental_uris":{"android":"levelo://app?vid=2e4fe2b1-44bc-454c-bb1d-452b53653e2e","ios":"levelo://app?vid=2e4fe2b1-44bc-454c-bb1d-452b53653e2e"},"vehicle_type_id":"4","last_reported":1756469979,"current_range_meters":20400,"station_id":"ce4bhap2rcd13ifvqek0","pricing_plan_id":"cebpf4jnsgd1na2vs0mg"},{"bike_id":"64855ed2-c61b-4038-b138-a5c63b1f698f","system_id":"levelo_inurba_marseille","lat":43.24651,"lon":5.3889,"is_reserved":false,"is_disabled":false,"rental_uris":{"android":"levelo://app?vid=64855ed2-c61b-4038-b138-a5c63b1f698f","ios":"levelo://app?vid=64855ed2-c61b-4038-b138-a5c63b1f698f"},"vehicle_type_id":"4","last_reported":1756469979,"current_range_meters":20400,"station_id":"ce4bhg12rcd13ifvqf60","pricing_plan_id":"cebpf4jnsgd1na2vs0mg"},{"bike_id":"47a0c492-f70e-45db-aea8-1bc74f554274","system_id":"levelo_inurba_marseille","lat":43.25926,"lon":5.40896,"is_reserved":false,"is_disabled":false,"rental_uris":{"android":"levelo://app?vid=47a0c492-f70e-45db-aea8-1bc74f554274","ios":"levelo://app?vid=47a0c492-f70e-45db-aea8-1bc74f554274"},"vehicle_type_id":"4","last_reported":1756469979,"current_range_meters":20400,"station_id":"ce4bhm92rcd13ifvqglg","pricing_plan_id":"cebpf4jnsgd1na2vs0mg"},{"bike_id":"b9266b95-b70e-4560-94bc-83d77fdbb79b","system_id":"levelo_inurba_marseille","lat":43.262132,"lon":5.404506,"is_reserved":false,"is_disabled":false,"rental_uris":{"android":"levelo://app?vid=b9266b95-b70e-4560-94bc-83d77fdbb79b","ios":"levelo://app?vid=b9266b95-b70e-4560-94bc-83d77fdbb79b"},"vehicle_type_id":"4","last_reported":1756469979,"current_range_meters":20400,"station_id":"ce4bhmh2rcd13ifvqgmg","pricing_plan_id":"cebpf4jnsgd1na2vs0mg"},{"bike_id":"fdd33ea2-cd58-4080-8dd8-de633c5a5192","system_id":"levelo_inurba_marseille","lat":43.269407,"lon":5.402689,"is_reserved":false,"is_disabled":false,"rental_uris":{"android":"levelo://app?vid=fdd33ea2-cd58-4080-8dd8-de633c5a5192","ios":"levelo://app?vid=fdd33ea2-cd58-4080-8dd8-de633c5a5192"},"vehicle_type_id":"4","last_reported":1756469979,"current_range_meters":20400,"station_id":"cjm6bp8fraef2m0cb0m0","pricing_plan_id":"cebpf4jnsgd1na2vs0mg"},{"bike_id":"49f72641-d9d1-474b-9179-38fbcf44f56b","system_id":"levelo_inurba_marseille","lat":43.29751,"lon":5.37672,"is_reserved":false,"is_disabled":false,"rental_uris":{"android":"levelo://app?vid=49f72641-d9d1-474b-9179-38fbcf44f56b","ios":"levelo://app?vid=49f72641-d9d1-474b-9179-38fbcf44f56b"},"vehicle_type_id":"4","last_reported":1756469979,"current_range_meters":20800,"station_id":"","pricing_plan_id":"cebpf4jnsgd1na2vs0mg"},